{"data": {"bikes": [{"lat": 38.89491483333333, "fusion_lat": 0.0, "type": "electric_scooter", "bike_id": "7764393027226c11a5450c44816093ac", "rental_uris": {"ios": "https://dc.lft.to/lastmile_qr_scan", "android": "https://dc.lft.to/lastmile_qr_scan"}, "fusion_lon": 0.0, "lon": -77.01073283333334, "name": "7764393027226c11a5450c44816093ac", "is_reserved": 0, "is_disabled": 0}, {"lat": 38.9155565, "fusion_lat": 0.0, "type": "electric_scooter", "bike_id": "be36dafcf3e2d63f6813d621370efa1d", "rental_uris": {"ios": "https://dc.lft.to/lastmile_qr_scan", "android": "https://dc.lft.to/lastmile_qr_scan"}, "fusion_lon": 0.0, "lon": -77.0206115, "name": "be36dafcf3e2d63f6813d621370efa1d", "is_reserved": 0, "is_disabled": 0}, {"lat": 38.90125183333333, "fusion_lat": 0.0, "type": "electric_scooter", "bike_id": "1e587cea6653b68351a3ad339367bd1a", "rental_uris": {"ios": "https://dc.lft.to/lastmile_qr_scan", "android": "https://dc.lft.to/lastmile_qr_scan"}, "fusion_lon": 0.0, "lon": -77.03181666666667, "name": "1e587cea6653b68351a3ad339367bd1a", "is_reserved": 0, "is_disabled": 0}, {"lat": 38.90281683333333, "fusion_lat": 0.0, "type": "electric_scooter", "bike_id": "ad779504beb227467018c1682640e475", "rental_uris": {"ios": "https://dc.lft.to/lastmile_qr_scan", "android": "https://dc.lft.to/lastmile_qr_scan"}, "fusion_lon": 0.0, "lon": -77.0213615, "name": "ad779504beb227467018c1682640e475", "is_reserved": 0, "is_disabled": 0}, {"lat": 38.90970633333333, "fusion_lat": 0.0, "type": "electric_scooter", "bike_id": "b5ea99d3f4c5a2aee8d6a194ba0f7391", "rental_uris": {"ios": "https://dc.lft.to/lastmile_qr_scan", "android": "https://dc.lft.to/lastmile_qr_scan"}, "fusion_lon": 0.0, "lon": -77.0386725, "name": "b5ea99d3f4c5a2aee8d6a194ba0f7391", "is_reserved": 0, "is_disabled": 0}, {"lat": 38.918459, "fusion_lat": 0.0, "type": "electric_scooter", "bike_id": "f09a8accf2628c5bc5371933a30b5714", "rental_uris": {"ios": "https://dc.lft.to/lastmile_qr_scan", "android": "https://dc.lft.to/lastmile_qr_scan"}, "fusion_lon": 0.0, "lon": -76.96541233333333, "name": "f09a8accf2628c5bc5371933a30b5714", "is_reserved": 0, "is_disabled": 0}, {"lat": 38.9034215, "fusion_lat": 0.0, "type": "electric_scooter", "bike_id": "27fedcaddf006c053e397862050b82d1", "rental_uris": {"ios": "https://dc.lft.to/lastmile_qr_scan", "android": "https://dc.lft.to/lastmile_qr_scan"}, "fusion_lon": 0.0, "lon": -77.0173915, "name": "27fedcaddf006c053e397862050b82d1", "is_reserved": 0, "is_disabled": 0}, {"lat": 38.860125333333336, "fusion_lat": 0.0, "type": "electric_scooter", "bike_id": "0259db8cb42f27b84224411908c45bd0", "rental_uris": {"ios": "https://dc.lft.to/lastmile_qr_scan", "android": "https://dc.lft.to/lastmile_qr_scan"}, "fusion_lon": 0.0, "lon": -76.96705966666667, "name": "0259db8cb42f27b84224411908c45bd0", "is_reserved": 0, "is_disabled": 0}, {"lat": 38.908318, "fusion_lat": 0.0, "type": "electric_scooter", "bike_id": "be7f5e26e81d95aab64691377f4c3230", "rental_uris": {"ios": "https://dc.lft.to/lastmile_qr_scan", "android": "https://dc.lft.to/lastmile_qr_scan"}, "fusion_lon": 0.0, "lon": -77.03216966666666, "name": "be7f5e26e81d95aab64691377f4c3230", "is_reserved": 0, "is_disabled": 0}, {"lat": 38.897469666666666, "fusion_lat": 0.0, "type": "electric_scooter", "bike_id": "a7952448f0c1157bb80405bc557942b0", "rental_uris": {"ios": "https://dc.lft.to/lastmile_qr_scan", "android": "https://dc.lft.to/lastmile_qr_scan"}, "fusion_lon": 0.0, "lon": -77.02409383333334, "name": "a7952448f0c1157bb80405bc557942b0", "is_reserved": 0, "is_disabled": 0}, {"lat": 38.91114683333333, "fusion_lat": 0.0, "type": "electric_scooter", "bike_id": "d75b1e4bf7297e1281038e0d4a201c03", "rental_uris": {"ios": "https://dc.lft.to/lastmile_qr_scan", "android": "https://dc.lft.to/lastmile_qr_scan"}, "fusion_lon": 0.0, "lon": -77.04554016666667, "name": "d75b1e4bf7297e1281038e0d4a201c03", "is_reserved": 0, "is_disabled": 0}, {"lat": 38.905180333333334, "fusion_lat": 0.0, "type": "electric_scooter", "bike_id": "5c27a438812a4417de0a31ba3ee6b792", "rental_uris": {"ios": "https://dc.lft.to/lastmile_qr_scan", "android": "https://dc.lft.to/lastmile_qr_scan"}, "fusion_lon": 0.0, "lon": -77.0498565, "name": "5c27a438812a4417de0a31ba3ee6b792", "is_reserved": 0, "is_disabled": 0}, {"lat": 38.90407316666667, "fusion_lat": 0.0, "type": "electric_scooter", "bike_id": "0189ba99e3a05184f8507393c5284d69", "rental_uris": {"ios": "https://dc.lft.to/lastmile_qr_scan", "android": "https://dc.lft.to/lastmile_qr_scan"}, "fusion_lon": 0.0, "lon": -77.05319116666666, "name": "0189ba99e3a05184f8507393c5284d69", "is_reserved": 0, "is_disabled": 0}, {"lat": 38.9363035, "fusion_lat": 0.0, "type": "electric_scooter", "bike_id": "853570ca255cad2d173400f6c85765f8", "rental_uris": {"ios": "https://dc.lft.to/lastmile_qr_scan", "android": "https://dc.lft.to/lastmile_qr_scan"}, "fusion_lon": 0.0, "lon": -77.0587975, "name": "853570ca255cad2d173400f6c85765f8", "is_reserved": 0, "is_disabled": 0}, {"lat": 38.91920433333333, "fusion_lat": 0.0, "type": "electric_scooter", "bike_id": "aea35e0b94b1c87004f6be3c30cbe1d5", "rental_uris": {"ios": "https://dc.lft.to/lastmile_qr_scan", "android": "https://dc.lft.to/lastmile_qr_scan"}, "fusion_lon": 0.0, "lon": -77.02427983333334, "name": "aea35e0b94b1c87004f6be3c30cbe1d5", "is_reserved": 0, "is_disabled": 0}, {"lat": 38.92431583333333, "fusion_lat": 0.0, "type": "electric_scooter", "bike_id": "15981424907e646ddbbdcf2207d96c9d", "rental_uris": {"ios": "https://dc.lft.to/lastmile_qr_scan", "android": "https://dc.lft.to/lastmile_qr_scan"}, "fusion_lon": 0.0, "lon": -77.0203365, "name": "15981424907e646ddbbdcf2207d96c9d", "is_reserved": 0, "is_disabled": 0}, {"lat": 38.827791166666664, "fusion_lat": 0.0, "type": "electric_bike", "bike_id": "82bb1a32238049da8f910d71e6f74892", "rental_uris": {"ios": "https://dc.lft.to/lastmile_qr_scan", "android": "https://dc.lft.to/lastmile_qr_scan"}, "fusion_lon": 0.0, "lon": -77.12487133333333, "name": "82bb1a32238049da8f910d71e6f74892", "is_reserved": 0, "is_disabled": 0}, {"lat": 38.906205666666665, "fusion_lat": 0.0, "type": "electric_scooter", "bike_id": "c37626f2b1fc5eb43eb9338bbbb151bd", "rental_uris": {"ios": "https://dc.lft.to/lastmile_qr_scan", "android": "https://dc.lft.to/lastmile_qr_scan"}, "fusion_lon": 0.0, "lon": -77.01267533333333, "name": "c37626f2b1fc5eb43eb9338bbbb151bd", "is_reserved": 0, "is_disabled": 0}, {"lat": 38.904260666666666, "fusion_lat": 0.0, "type": "electric_scooter", "bike_id": "c40795bd891a6b4902beae55d3459019", "rental_uris": {"ios": "https://dc.lft.to/lastmile_qr_scan", "android": "https://dc.lft.to/lastmile_qr_scan"}, "fusion_lon": 0.0, "lon": -76.99947683333333, "name": "c40795bd891a6b4902beae55d3459019", "is_reserved": 0, "is_disabled": 0}, {"lat": 38.871621833333336, "fusion_lat": 0.0, "type": "electric_scooter", "bike_id": "ffaf709e241354e2c5e16acf5d2f6c99", "rental_uris": {"ios": "https://dc.lft.to/lastmile_qr_scan", "android": "https://dc.lft.to/lastmile_qr_scan"}, "fusion_lon": 0.0, "lon": -77.01358366666666, "name": "ffaf709e241354e2c5e16acf5d2f6c99", "is_reserved": 0, "is_disabled": 0}, {"lat": 38.911180333333334, "fusion_lat": 0.0, "type": "electric_scooter", "bike_id": "169d8fa3ee727a799703de5a19b7b652", "rental_uris": {"ios": "https://dc.lft.to/lastmile_qr_scan", "android": "https://dc.lft.to/lastmile_qr_scan"}, "fusion_lon": 0.0, "lon": -77.04553316666667, "name": "169d8fa3ee727a799703de5a19b7b652", "is_reserved": 0, "is_disabled": 0}, {"lat": 38.90734533333333, "fusion_lat": 0.0, "type": "electric_scooter", "bike_id": "9604561c0007762ea9bd627235fe5f86", "rental_uris": {"ios": "https://dc.lft.to/lastmile_qr_scan", "android": "https://dc.lft.to/lastmile_qr_scan"}, "fusion_lon": 0.0, "lon": -77.02810116666667, "name": "9604561c0007762ea9bd627235fe5f86", "is_reserved": 0, "is_disabled": 0}, {"lat": 38.93843483333333, "fusion_lat": 0.0, "type": "electric_scooter", "bike_id": "1ced6e8b2586672f4295d70996550cfb", "rental_uris": {"ios": "https://dc.lft.to/lastmile_qr_scan", "android": "https://dc.lft.to/lastmile_qr_scan"}, "fusion_lon": 0.0, "lon": -77.03379533333333, "name": "1ced6e8b2586672f4295d70996550cfb", "is_reserved": 0, "is_disabled": 0}, {"lat": 38.9150465, "fusion_lat": 0.0, "type": "electric_scooter", "bike_id": "aeae3a133ce50927d5d04a8c9bbb16c2", "rental_uris": {"ios": "https://dc.lft.to/lastmile_qr_scan", "android": "https://dc.lft.to/lastmile_qr_scan"}, "fusion_lon": 0.0, "lon": -77.01575766666667, "name": "aeae3a133ce50927d5d04a8c9bbb16c2", "is_reserved": 0, "is_disabled": 0}, {"lat": 38.9343225, "fusion_lat": 0.0, "type": "electric_scooter", "bike_id": "1c03e3a052bd389089df9ffb6931afa2", "rental_uris": {"ios": "https://dc.lft.to/lastmile_qr_scan", "android": "https://dc.lft.to/lastmile_qr_scan"}, "fusion_lon": 0.0, "lon": -77.02099366666667, "name": "1c03e3a052bd389089df9ffb6931afa2", "is_reserved": 0, "is_disabled": 0}, {"lat": 38.89215983333333, "fusion_lat": 0.0, "type": "electric_scooter", "bike_id": "29ef68a03cab3d2a23ad4dc56bd51ada", "rental_uris": {"ios": "https://dc.lft.to/lastmile_qr_scan", "android": "https://dc.lft.to/lastmile_qr_scan"}, "fusion_lon": 0.0, "lon": -77.02663, "name": "29ef68a03cab3d2a23ad4dc56bd51ada", "is_reserved": 0, "is_disabled": 0}, {"lat": 38.925993, "fusion_lat": 0.0, "type": "electric_bike", "bike_id": "bfc2d80e7b1c79d171efa0a4d71d0723", "rental_uris": {"ios": "https://dc.lft.to/lastmile_qr_scan", "android": "https://dc.lft.to/lastmile_qr_scan"}, "fusion_lon": 0.0, "lon": -77.21025933333334, "name": "bfc2d80e7b1c79d171efa0a4d71d0723", "is_reserved": 0, "is_disabled": 0}, {"lat": 38.92227833333333, "fusion_lat": 0.0, "type": "electric_scooter", "bike_id": "600c09fcd48011116c21aeb5308b51d9", "rental_uris": {"ios": "https://dc.lft.to/lastmile_qr_scan", "android": "https://dc.lft.to/lastmile_qr_scan"}, "fusion_lon": 0.0, "lon": -77.022162, "name": "600c09fcd48011116c21aeb5308b51d9", "is_reserved": 0, "is_disabled": 0}, {"lat": 38.89965316666667, "fusion_lat": 0.0, "type": "electric_scooter", "bike_id": "72d9c148d92c7b2a69e79283c8523ae2", "rental_uris": {"ios": "https://dc.lft.to/lastmile_qr_scan", "android": "https://dc.lft.to/lastmile_qr_scan"}, "fusion_lon": 0.0, "lon": -77.02126683333333, "name": "72d9c148d92c7b2a69e79283c8523ae2", "is_reserved": 0, "is_disabled": 0}, {"lat": 38.906006833333336, "fusion_lat": 0.0, "type": "electric_scooter", "bike_id": "8d6e9f1832c00a630b826c05f31eefec", "rental_uris": {"ios": "https://dc.lft.to/lastmile_qr_scan", "android": "https://dc.lft.to/lastmile_qr_scan"}, "fusion_lon": 0.0, "lon": -77.063766, "name": "8d6e9f1832c00a630b826c05f31eefec", "is_reserved": 0, "is_disabled": 0}, {"lat": 38.92380566666667, "fusion_lat": 0.0, "type": "electric_scooter", "bike_id": "a7c562611e586112dcf6a61c0e7a546d", "rental_uris": {"ios": "https://dc.lft.to/lastmile_qr_scan", "android": "https://dc.lft.to/lastmile_qr_scan"}, "fusion_lon": 0.0, "lon": -77.02623433333333, "name": "a7c562611e586112dcf6a61c0e7a546d", "is_reserved": 0, "is_disabled": 0}, {"lat": 38.90026683333333, "fusion_lat": 0.0, "type": "electric_scooter", "bike_id": "9c4e976a6b7fe623d3dc03713da61725", "rental_uris": {"ios": "https://dc.lft.to/lastmile_qr_scan", "android": "https://dc.lft.to/lastmile_qr_scan"}, "fusion_lon": 0.0, "lon": -77.029531, "name": "9c4e976a6b7fe623d3dc03713da61725", "is_reserved": 0, "is_disabled": 0}, {"lat": 38.901072, "fusion_lat": 0.0, "type": "electric_scooter", "bike_id": "e6ebf9fbd22053a903aa5a460ee27eee", "rental_uris": {"ios": "https://dc.lft.to/lastmile_qr_scan", "android": "https://dc.lft.to/lastmile_qr_scan"}, "fusion_lon": 0.0, "lon": -77.0066825, "name": "e6ebf9fbd22053a903aa5a460ee27eee", "is_reserved": 0, "is_disabled": 0}, {"lat": 38.92794516666667, "fusion_lat": 0.0, "type": "electric_scooter", "bike_id": "8c977bfa8cd1349c222d7ff077ad20e8", "rental_uris": {"ios": "https://dc.lft.to/lastmile_qr_scan", "android": "https://dc.lft.to/lastmile_qr_scan"}, "fusion_lon": 0.0, "lon": -77.04056783333333, "name": "8c977bfa8cd1349c222d7ff077ad20e8", "is_reserved": 0, "is_disabled": 0}, {"lat": 38.91762966666667, "fusion_lat": 0.0, "type": "electric_scooter", "bike_id": "21d7860581779fb032015bbd03588b93", "rental_uris": {"ios": "https://dc.lft.to/lastmile_qr_scan", "android": "https://dc.lft.to/lastmile_qr_scan"}, "fusion_lon": 0.0, "lon": -77.014961, "name": "21d7860581779fb032015bbd03588b93", "is_reserved": 0, "is_disabled": 0}, {"lat": 38.900399166666666, "fusion_lat": 0.0, "type": "electric_scooter", "bike_id": "cb0f72842b836b1be18a3c110c1f704d", "rental_uris": {"ios": "https://dc.lft.to/lastmile_qr_scan", "android": "https://dc.lft.to/lastmile_qr_scan"}, "fusion_lon": 0.0, "lon": -77.04828216666667, "name": "cb0f72842b836b1be18a3c110c1f704d", "is_reserved": 0, "is_disabled": 0}, {"lat": 38.93098033333333, "fusion_lat": 0.0, "type": "electric_scooter", "bike_id": "74a9a73cdf8f8f3399be0bf060982a65", "rental_uris": {"ios": "https://dc.lft.to/lastmile_qr_scan", "android": "https://dc.lft.to/lastmile_qr_scan"}, "fusion_lon": 0.0, "lon": -77.024629, "name": "74a9a73cdf8f8f3399be0bf060982a65", "is_reserved": 0, "is_disabled": 0}, {"lat": 38.90262033333333, "fusion_lat": 0.0, "type": "electric_scooter", "bike_id": "54eb4fa0b078587c369e039d1787ed13", "rental_uris": {"ios": "https://dc.lft.to/lastmile_qr_scan", "android": "https://dc.lft.to/lastmile_qr_scan"}, "fusion_lon": 0.0, "lon": -77.03405233333334, "name": "54eb4fa0b078587c369e039d1787ed13", "is_reserved": 0, "is_disabled": 0}, {"lat": 38.915558833333336, "fusion_lat": 0.0, "type": "electric_scooter", "bike_id": "211eb413d7b7eb6b04432d215a013b7b", "rental_uris": {"ios": "https://dc.lft.to/lastmile_qr_scan", "android": "https://dc.lft.to/lastmile_qr_scan"}, "fusion_lon": 0.0, "lon": -77.007072, "name": "211eb413d7b7eb6b04432d215a013b7b", "is_reserved": 0, "is_disabled": 0}, {"lat": 38.918919333333335, "fusion_lat": 0.0, "type": "electric_scooter", "bike_id": "519c79db58e0c66c91c1c9b491ec4b82", "rental_uris": {"ios": "https://dc.lft.to/lastmile_qr_scan", "android": "https://dc.lft.to/lastmile_qr_scan"}, "fusion_lon": 0.0, "lon": -77.04623933333333, "name": "519c79db58e0c66c91c1c9b491ec4b82", "is_reserved": 0, "is_disabled": 0}, {"lat": 38.92136583333333, "fusion_lat": 0.0, "type": "electric_scooter", "bike_id": "379e849226b7fed0d2fbe97be86fbb66", "rental_uris": {"ios": "https://dc.lft.to/lastmile_qr_scan", "android": "https://dc.lft.to/lastmile_qr_scan"}, "fusion_lon": 0.0, "lon": -77.04705133333333, "name": "379e849226b7fed0d2fbe97be86fbb66", "is_reserved": 0, "is_disabled": 0}, {"lat": 38.91720133333333, "fusion_lat": 0.0, "type": "electric_scooter", "bike_id": "26078529c4ca423a823f89da49ffd948", "rental_uris": {"ios": "https://dc.lft.to/lastmile_qr_scan", "android": "https://dc.lft.to/lastmile_qr_scan"}, "fusion_lon": 0.0, "lon": -77.03658466666667, "name": "26078529c4ca423a823f89da49ffd948", "is_reserved": 0, "is_disabled": 0}, {"lat": 38.917091, "fusion_lat": 0.0, "type": "electric_scooter", "bike_id": "e9f3ca6bfe65704aec6b3446f368fca6", "rental_uris": {"ios": "https://dc.lft.to/lastmile_qr_scan", "android": "https://dc.lft.to/lastmile_qr_scan"}, "fusion_lon": 0.0, "lon": -77.03866383333333, "name": "e9f3ca6bfe65704aec6b3446f368fca6", "is_reserved": 0, "is_disabled": 0}, {"lat": 38.92234666666667, "fusion_lat": 0.0, "type": "electric_scooter", "bike_id": "b063fec4374c5824a41a94187e3e8d38", "rental_uris": {"ios": "https://dc.lft.to/lastmile_qr_scan", "android": "https://dc.lft.to/lastmile_qr_scan"}, "fusion_lon": 0.0, "lon": -77.01829533333333, "name": "b063fec4374c5824a41a94187e3e8d38", "is_reserved": 0, "is_disabled": 0}, {"lat": 38.89955233333333, "fusion_lat": 0.0, "type": "electric_scooter", "bike_id": "e6e01c48fc320e438bb519a803386ee8", "rental_uris": {"ios": "https://dc.lft.to/lastmile_qr_scan", "android": "https://dc.lft.to/lastmile_qr_scan"}, "fusion_lon": 0.0, "lon": -77.04495233333333, "name": "e6e01c48fc320e438bb519a803386ee8", "is_reserved": 0, "is_disabled": 0}, {"lat": 38.92670866666667, "fusion_lat": 0.0, "type": "electric_scooter", "bike_id": "f7d03557695ff910178541c95e17e0c9", "rental_uris": {"ios": "https://dc.lft.to/lastmile_qr_scan", "android": "https://dc.lft.to/lastmile_qr_scan"}, "fusion_lon": 0.0, "lon": -77.021173, "name": "f7d03557695ff910178541c95e17e0c9", "is_reserved": 0, "is_disabled": 0}, {"lat": 38.922048333333336, "fusion_lat": 0.0, "type": "electric_scooter", "bike_id": "be6d99502f5731bcc52baddcee825814", "rental_uris": {"ios": "https://dc.lft.to/lastmile_qr_scan", "android": "https://dc.lft.to/lastmile_qr_scan"}, "fusion_lon": 0.0, "lon": -77.041966, "name": "be6d99502f5731bcc52baddcee825814", "is_reserved": 0, "is_disabled": 0}, {"lat": 38.8973095, "fusion_lat": 0.0, "type": "electric_scooter", "bike_id": "b9852b826c3aabf2d86d2b81d0179795", "rental_uris": {"ios": "https://dc.lft.to/lastmile_qr_scan", "android": "https://dc.lft.to/lastmile_qr_scan"}, "fusion_lon": 0.0, "lon": -76.99682983333334, "name": "b9852b826c3aabf2d86d2b81d0179795", "is_reserved": 0, "is_disabled": 0}, {"lat": 38.93746466666666, "fusion_lat": 0.0, "type": "electric_scooter", "bike_id": "65c0dd129d88e7a5000d1e7e4fe12102", "rental_uris": {"ios": "https://dc.lft.to/lastmile_qr_scan", "android": "https://dc.lft.to/lastmile_qr_scan"}, "fusion_lon": 0.0, "lon": -77.03269783333333, "name": "65c0dd129d88e7a5000d1e7e4fe12102", "is_reserved": 0, "is_disabled": 0}, {"lat": 38.9191555, "fusion_lat": 0.0, "type": "electric_scooter", "bike_id": "213bbe195b5ee95cb456c419e41f0a80", "rental_uris": {"ios": "https://dc.lft.to/lastmile_qr_scan", "android": "https://dc.lft.to/lastmile_qr_scan"}, "fusion_lon": 0.0, "lon": -77.0190465, "name": "213bbe195b5ee95cb456c419e41f0a80", "is_reserved": 0, "is_disabled": 0}, {"lat": 38.90105883333333, "fusion_lat": 0.0, "type": "electric_scooter", "bike_id": "e58311b7b97c9d1a9351f456f43c4c9d", "rental_uris": {"ios": "https://dc.lft.to/lastmile_qr_scan", "android": "https://dc.lft.to/lastmile_qr_scan"}, "fusion_lon": 0.0, "lon": -77.01832, "name": "e58311b7b97c9d1a9351f456f43c4c9d", "is_reserved": 0, "is_disabled": 0}, {"lat": 38.91553733333333, "fusion_lat": 0.0, "type": "electric_scooter", "bike_id": "fc2f4bb9240df7e8eb95823ea76cb82a", "rental_uris": {"ios": "https://dc.lft.to/lastmile_qr_scan", "android": "https://dc.lft.to/lastmile_qr_scan"}, "fusion_lon": 0.0, "lon": -77.0387025, "name": "fc2f4bb9240df7e8eb95823ea76cb82a", "is_reserved": 0, "is_disabled": 0}, {"lat": 38.906498166666665, "fusion_lat": 0.0, "type": "electric_scooter", "bike_id": "f6256da8c6780546aa87b2a5ce1d8347", "rental_uris": {"ios": "https://dc.lft.to/lastmile_qr_scan", "android": "https://dc.lft.to/lastmile_qr_scan"}, "fusion_lon": 0.0, "lon": -77.00852983333333, "name": "f6256da8c6780546aa87b2a5ce1d8347", "is_reserved": 0, "is_disabled": 0}, {"lat": 38.902634166666665, "fusion_lat": 0.0, "type": "electric_scooter", "bike_id": "15ca2dbcffccb666628e057e2677872e", "rental_uris": {"ios": "https://dc.lft.to/lastmile_qr_scan", "android": "https://dc.lft.to/lastmile_qr_scan"}, "fusion_lon": 0.0, "lon": -77.05316916666666, "name": "15ca2dbcffccb666628e057e2677872e", "is_reserved": 0, "is_disabled": 0}, {"lat": 38.911980666666665, "fusion_lat": 0.0, "type": "electric_scooter", "bike_id": "7b14e5fa11e2e7a6884bb330d46cb9b1", "rental_uris": {"ios": "https://dc.lft.to/lastmile_qr_scan", "android": "https://dc.lft.to/lastmile_qr_scan"}, "fusion_lon": 0.0, "lon": -77.02201566666666, "name": "7b14e5fa11e2e7a6884bb330d46cb9b1", "is_reserved": 0, "is_disabled": 0}, {"lat": 38.90520866666667, "fusion_lat": 0.0, "type": "electric_scooter", "bike_id": "471e8b7f4091b61b2ba8d56742b07c2d", "rental_uris": {"ios": "https://dc.lft.to/lastmile_qr_scan", "android": "https://dc.lft.to/lastmile_qr_scan"}, "fusion_lon": 0.0, "lon": -77.063813, "name": "471e8b7f4091b61b2ba8d56742b07c2d", "is_reserved": 0, "is_disabled": 0}, {"lat": 38.90219866666666, "fusion_lat": 0.0, "type": "electric_scooter", "bike_id": "989766c1e06526cce4934766073ab1b3", "rental_uris": {"ios": "https://dc.lft.to/lastmile_qr_scan", "android": "https://dc.lft.to/lastmile_qr_scan"}, "fusion_lon": 0.0, "lon": -77.02376233333334, "name": "989766c1e06526cce4934766073ab1b3", "is_reserved": 0, "is_disabled": 0}, {"lat": 38.84055633333333, "fusion_lat": 0.0, "type": "electric_scooter", "bike_id": "b548c18ec05d24f0b32001cb1481b791", "rental_uris": {"ios": "https://dc.lft.to/lastmile_qr_scan", "android": "https://dc.lft.to/lastmile_qr_scan"}, "fusion_lon": 0.0, "lon": -76.976703, "name": "b548c18ec05d24f0b32001cb1481b791", "is_reserved": 0, "is_disabled": 0}, {"lat": 38.86026833333333, "fusion_lat": 0.0, "type": "electric_bike", "bike_id": "1a8ed16cab40bf77286f1c01199b413a", "rental_uris": {"ios": "https://dc.lft.to/lastmile_qr_scan", "android": "https://dc.lft.to/lastmile_qr_scan"}, "fusion_lon": 0.0, "lon": -77.09374833333334, "name": "1a8ed16cab40bf77286f1c01199b413a", "is_reserved": 0, "is_disabled": 0}, {"lat": 38.911135, "fusion_lat": 0.0, "type": "electric_scooter", "bike_id": "8bd6f39c35ddc782ee0ecddab83e5f3a", "rental_uris": {"ios": "https://dc.lft.to/lastmile_qr_scan", "android": "https://dc.lft.to/lastmile_qr_scan"}, "fusion_lon": 0.0, "lon": -77.04541983333333, "name": "8bd6f39c35ddc782ee0ecddab83e5f3a", "is_reserved": 0, "is_disabled": 0}, {"lat": 38.9082145, "fusion_lat": 0.0, "type": "electric_scooter", "bike_id": "7700376c778e614ad266e6c7e5eee0d7", "rental_uris": {"ios": "https://dc.lft.to/lastmile_qr_scan", "android": "https://dc.lft.to/lastmile_qr_scan"}, "fusion_lon": 0.0, "lon": -77.036769, "name": "7700376c778e614ad266e6c7e5eee0d7", "is_reserved": 0, "is_disabled": 0}, {"lat": 38.9270875, "fusion_lat": 0.0, "type": "electric_scooter", "bike_id": "28f668ffb0f22e4d552fef5c58901085", "rental_uris": {"ios": "https://dc.lft.to/lastmile_qr_scan", "android": "https://dc.lft.to/lastmile_qr_scan"}, "fusion_lon": 0.0, "lon": -77.0382475, "name": "28f668ffb0f22e4d552fef5c58901085", "is_reserved": 0, "is_disabled": 0}, {"lat": 38.892223333333334, "fusion_lat": 0.0, "type": "electric_scooter", "bike_id": "3e20ea7e132cac2a887e67f8210c44b9", "rental_uris": {"ios": "https://dc.lft.to/lastmile_qr_scan", "android": "https://dc.lft.to/lastmile_qr_scan"}, "fusion_lon": 0.0, "lon": -77.042007, "name": "3e20ea7e132cac2a887e67f8210c44b9", "is_reserved": 0, "is_disabled": 0}, {"lat": 38.89558016666667, "fusion_lat": 0.0, "type": "electric_scooter", "bike_id": "bce318b9658f4cf65fa346bef453019d", "rental_uris": {"ios": "https://dc.lft.to/lastmile_qr_scan", "android": "https://dc.lft.to/lastmile_qr_scan"}, "fusion_lon": 0.0, "lon": -76.94876983333333, "name": "bce318b9658f4cf65fa346bef453019d", "is_reserved": 0, "is_disabled": 0}, {"lat": 38.922864, "fusion_lat": 0.0, "type": "electric_scooter", "bike_id": "1326faa363a09208c247e00c12441737", "rental_uris": {"ios": "https://dc.lft.to/lastmile_qr_scan", "android": "https://dc.lft.to/lastmile_qr_scan"}, "fusion_lon": 0.0, "lon": -77.02244883333333, "name": "1326faa363a09208c247e00c12441737", "is_reserved": 0, "is_disabled": 0}, {"lat": 38.92980816666667, "fusion_lat": 0.0, "type": "electric_scooter", "bike_id": "e878f9a88c4d31d473bcc1a59ab3e9f1", "rental_uris": {"ios": "https://dc.lft.to/lastmile_qr_scan", "android": "https://dc.lft.to/lastmile_qr_scan"}, "fusion_lon": 0.0, "lon": -77.03657, "name": "e878f9a88c4d31d473bcc1a59ab3e9f1", "is_reserved": 0, "is_disabled": 0}, {"lat": 38.908241, "fusion_lat": 0.0, "type": "electric_scooter", "bike_id": "db901b4a9a843e6d1d552138f1fae595", "rental_uris": {"ios": "https://dc.lft.to/lastmile_qr_scan", "android": "https://dc.lft.to/lastmile_qr_scan"}, "fusion_lon": 0.0, "lon": -77.0355325, "name": "db901b4a9a843e6d1d552138f1fae595", "is_reserved": 0, "is_disabled": 0}, {"lat": 38.8753265, "fusion_lat": 0.0, "type": "electric_scooter", "bike_id": "af85738579362b67f6abdfe354e84774", "rental_uris": {"ios": "https://dc.lft.to/lastmile_qr_scan", "android": "https://dc.lft.to/lastmile_qr_scan"}, "fusion_lon": 0.0, "lon": -77.00508916666666, "name": "af85738579362b67f6abdfe354e84774", "is_reserved": 0, "is_disabled": 0}, {"lat": 38.907072666666664, "fusion_lat": 0.0, "type": "electric_scooter", "bike_id": "54154d4f72302978064e3024414af4dc", "rental_uris": {"ios": "https://dc.lft.to/lastmile_qr_scan", "android": "https://dc.lft.to/lastmile_qr_scan"}, "fusion_lon": 0.0, "lon": -77.0295295, "name": "54154d4f72302978064e3024414af4dc", "is_reserved": 0, "is_disabled": 0}, {"lat": 38.91183983333333, "fusion_lat": 0.0, "type": "electric_scooter", "bike_id": "939d3049ceb0fc75cd67ea6d22894006", "rental_uris": {"ios": "https://dc.lft.to/lastmile_qr_scan", "android": "https://dc.lft.to/lastmile_qr_scan"}, "fusion_lon": 0.0, "lon": -77.019994, "name": "939d3049ceb0fc75cd67ea6d22894006", "is_reserved": 0, "is_disabled": 0}, {"lat": 38.917201, "fusion_lat": 0.0, "type": "electric_scooter", "bike_id": "7cbad6ca672d01d79accbd303fed5280", "rental_uris": {"ios": "https://dc.lft.to/lastmile_qr_scan", "android": "https://dc.lft.to/lastmile_qr_scan"}, "fusion_lon": 0.0, "lon": -77.03662016666667, "name": "7cbad6ca672d01d79accbd303fed5280", "is_reserved": 0, "is_disabled": 0}, {"lat": 38.92882916666667, "fusion_lat": 0.0, "type": "electric_scooter", "bike_id": "c4a98c1e2d3c41dd5e1062ef12e715c2", "rental_uris": {"ios": "https://dc.lft.to/lastmile_qr_scan", "android": "https://dc.lft.to/lastmile_qr_scan"}, "fusion_lon": 0.0, "lon": -77.03314483333334, "name": "c4a98c1e2d3c41dd5e1062ef12e715c2", "is_reserved": 0, "is_disabled": 0}, {"lat": 38.88112533333333, "fusion_lat": 0.0, "type": "electric_scooter", "bike_id": "69a56506d07e0b111943d4f8143a4159", "rental_uris": {"ios": "https://dc.lft.to/lastmile_qr_scan", "android": "https://dc.lft.to/lastmile_qr_scan"}, "fusion_lon": 0.0, "lon": -77.0167885, "name": "69a56506d07e0b111943d4f8143a4159", "is_reserved": 0, "is_disabled": 0}, {"lat": 38.92404583333333, "fusion_lat": 0.0, "type": "electric_scooter", "bike_id": "6b2917484aa469b377213823fda7ffb7", "rental_uris": {"ios": "https://dc.lft.to/lastmile_qr_scan", "android": "https://dc.lft.to/lastmile_qr_scan"}, "fusion_lon": 0.0, "lon": -77.05170633333333, "name": "6b2917484aa469b377213823fda7ffb7", "is_reserved": 0, "is_disabled": 0}, {"lat": 38.8954355, "fusion_lat": 0.0, "type": "electric_scooter", "bike_id": "13af6a1e54d462b5cfa0df8f238d4a7e", "rental_uris": {"ios": "https://dc.lft.to/lastmile_qr_scan", "android": "https://dc.lft.to/lastmile_qr_scan"}, "fusion_lon": 0.0, "lon": -76.9495295, "name": "13af6a1e54d462b5cfa0df8f238d4a7e", "is_reserved": 0, "is_disabled": 0}, {"lat": 38.881766999999996, "fusion_lat": 0.0, "type": "electric_scooter", "bike_id": "3766ef266ac608cd65e7b1daac3c7837", "rental_uris": {"ios": "https://dc.lft.to/lastmile_qr_scan", "android": "https://dc.lft.to/lastmile_qr_scan"}, "fusion_lon": 0.0, "lon": -76.99257933333334, "name": "3766ef266ac608cd65e7b1daac3c7837", "is_reserved": 0, "is_disabled": 0}, {"lat": 38.91316233333333, "fusion_lat": 0.0, "type": "electric_scooter", "bike_id": "1e9f48aceb1b063f927bd899374357c1", "rental_uris": {"ios": "https://dc.lft.to/lastmile_qr_scan", "android": "https://dc.lft.to/lastmile_qr_scan"}, "fusion_lon": 0.0, "lon": -77.01446633333333, "name": "1e9f48aceb1b063f927bd899374357c1", "is_reserved": 0, "is_disabled": 0}, {"lat": 38.89847733333333, "fusion_lat": 0.0, "type": "electric_scooter", "bike_id": "3eb1b6e2c40b5f911ed7f0449309a399", "rental_uris": {"ios": "https://dc.lft.to/lastmile_qr_scan", "android": "https://dc.lft.to/lastmile_qr_scan"}, "fusion_lon": 0.0, "lon": -76.94258916666666, "name": "3eb1b6e2c40b5f911ed7f0449309a399", "is_reserved": 0, "is_disabled": 0}, {"lat": 38.8075835, "fusion_lat": 0.0, "type": "electric_bike", "bike_id": "288dd718cab26653dc8947521368c3fb", "rental_uris": {"ios": "https://dc.lft.to/lastmile_qr_scan", "android": "https://dc.lft.to/lastmile_qr_scan"}, "fusion_lon": 0.0, "lon": -77.129879, "name": "288dd718cab26653dc8947521368c3fb", "is_reserved": 0, "is_disabled": 0}, {"lat": 38.90827183333333, "fusion_lat": 0.0, "type": "electric_scooter", "bike_id": "37dd28707142d4af0688ca285db9e9d6", "rental_uris": {"ios": "https://dc.lft.to/lastmile_qr_scan", "android": "https://dc.lft.to/lastmile_qr_scan"}, "fusion_lon": 0.0, "lon": -77.04316716666666, "name": "37dd28707142d4af0688ca285db9e9d6", "is_reserved": 0, "is_disabled": 0}, {"lat": 38.903668, "fusion_lat": 0.0, "type": "electric_scooter", "bike_id": "e8661d63d78cd3a8a46df098c27fc3bf", "rental_uris": {"ios": "https://dc.lft.to/lastmile_qr_scan", "android": "https://dc.lft.to/lastmile_qr_scan"}, "fusion_lon": 0.0, "lon": -77.04497283333333, "name": "e8661d63d78cd3a8a46df098c27fc3bf", "is_reserved": 0, "is_disabled": 0}, {"lat": 38.90034816666667, "fusion_lat": 0.0, "type": "electric_scooter", "bike_id": "e050409e4c598735e3abb8e7a871460f", "rental_uris": {"ios": "https://dc.lft.to/lastmile_qr_scan", "android": "https://dc.lft.to/lastmile_qr_scan"}, "fusion_lon": 0.0, "lon": -77.0019615, "name": "e050409e4c598735e3abb8e7a871460f", "is_reserved": 0, "is_disabled": 0}, {"lat": 38.876600333333336, "fusion_lat": 0.0, "type": "electric_scooter", "bike_id": "3df01b113fc217c6f5b4381928e01bef", "rental_uris": {"ios": "https://dc.lft.to/lastmile_qr_scan", "android": "https://dc.lft.to/lastmile_qr_scan"}, "fusion_lon": 0.0, "lon": -77.0031155, "name": "3df01b113fc217c6f5b4381928e01bef", "is_reserved": 0, "is_disabled": 0}, {"lat": 38.91840033333333, "fusion_lat": 0.0, "type": "electric_scooter", "bike_id": "1b798f1f33feeee3c8eeb1aa8b281fb6", "rental_uris": {"ios": "https://dc.lft.to/lastmile_qr_scan", "android": "https://dc.lft.to/lastmile_qr_scan"}, "fusion_lon": 0.0, "lon": -77.0166405, "name": "1b798f1f33feeee3c8eeb1aa8b281fb6", "is_reserved": 0, "is_disabled": 0}, {"lat": 38.915954666666664, "fusion_lat": 0.0, "type": "electric_scooter", "bike_id": "72644367c0bf4a63716a57d04e0e0daa", "rental_uris": {"ios": "https://dc.lft.to/lastmile_qr_scan", "android": "https://dc.lft.to/lastmile_qr_scan"}, "fusion_lon": 0.0, "lon": -77.01437116666666, "name": "72644367c0bf4a63716a57d04e0e0daa", "is_reserved": 0, "is_disabled": 0}, {"lat": 38.88840483333333, "fusion_lat": 0.0, "type": "electric_bike", "bike_id": "e590a819fb3bee74e127840c2243e935", "rental_uris": {"ios": "https://dc.lft.to/lastmile_qr_scan", "android": "https://dc.lft.to/lastmile_qr_scan"}, "fusion_lon": 0.0, "lon": -76.95748683333333, "name": "e590a819fb3bee74e127840c2243e935", "is_reserved": 0, "is_disabled": 0}, {"lat": 38.923432, "fusion_lat": 0.0, "type": "electric_scooter", "bike_id": "aba911d07b4215942054c6269d41f975", "rental_uris": {"ios": "https://dc.lft.to/lastmile_qr_scan", "android": "https://dc.lft.to/lastmile_qr_scan"}, "fusion_lon": 0.0, "lon": -77.02446783333333, "name": "aba911d07b4215942054c6269d41f975", "is_reserved": 0, "is_disabled": 0}, {"lat": 38.9178025, "fusion_lat": 0.0, "type": "electric_scooter", "bike_id": "f2e5b73ed6340a0e25ac9f85221bfa1b", "rental_uris": {"ios": "https://dc.lft.to/lastmile_qr_scan", "android": "https://dc.lft.to/lastmile_qr_scan"}, "fusion_lon": 0.0, "lon": -77.0359365, "name": "f2e5b73ed6340a0e25ac9f85221bfa1b", "is_reserved": 0, "is_disabled": 0}, {"lat": 38.9182955, "fusion_lat": 0.0, "type": "electric_scooter", "bike_id": "c4eb76c488d22b44b17558d432ef6722", "rental_uris": {"ios": "https://dc.lft.to/lastmile_qr_scan", "android": "https://dc.lft.to/lastmile_qr_scan"}, "fusion_lon": 0.0, "lon": -77.03539066666667, "name": "c4eb76c488d22b44b17558d432ef6722", "is_reserved": 0, "is_disabled": 0}, {"lat": 38.899663, "fusion_lat": 0.0, "type": "electric_scooter", "bike_id": "6e7afd3c6f4b612f2eac58b79b037a0b", "rental_uris": {"ios": "https://dc.lft.to/lastmile_qr_scan", "android": "https://dc.lft.to/lastmile_qr_scan"}, "fusion_lon": 0.0, "lon": -77.03165383333334, "name": "6e7afd3c6f4b612f2eac58b79b037a0b", "is_reserved": 0, "is_disabled": 0}, {"lat": 38.910607666666664, "fusion_lat": 0.0, "type": "electric_scooter", "bike_id": "07e3420dc4c5f1a1f947090ebd21643d", "rental_uris": {"ios": "https://dc.lft.to/lastmile_qr_scan", "android": "https://dc.lft.to/lastmile_qr_scan"}, "fusion_lon": 0.0, "lon": -77.03091366666666, "name": "07e3420dc4c5f1a1f947090ebd21643d", "is_reserved": 0, "is_disabled": 0}, {"lat": 38.9072805, "fusion_lat": 0.0, "type": "electric_scooter", "bike_id": "df8380c236c7aa9ee2147028a56a90b1", "rental_uris": {"ios": "https://dc.lft.to/lastmile_qr_scan", "android": "https://dc.lft.to/lastmile_qr_scan"}, "fusion_lon": 0.0, "lon": -76.979835, "name": "df8380c236c7aa9ee2147028a56a90b1", "is_reserved": 0, "is_disabled": 0}, {"lat": 38.938440666666665, "fusion_lat": 0.0, "type": "electric_bike", "bike_id": "d885db12f5919297d93466a9c16d7d97", "rental_uris": {"ios": "https://dc.lft.to/lastmile_qr_scan", "android": "https://dc.lft.to/lastmile_qr_scan"}, "fusion_lon": 0.0, "lon": -76.99315933333334, "name": "d885db12f5919297d93466a9c16d7d97", "is_reserved": 0, "is_disabled": 0}, {"lat": 38.93236266666667, "fusion_lat": 0.0, "type": "electric_bike", "bike_id": "c1d1b0e8e825343a7b5bf5fcd5491011", "rental_uris": {"ios": "https://dc.lft.to/lastmile_qr_scan", "android": "https://dc.lft.to/lastmile_qr_scan"}, "fusion_lon": 0.0, "lon": -76.97417483333334, "name": "c1d1b0e8e825343a7b5bf5fcd5491011", "is_reserved": 0, "is_disabled": 0}, {"lat": 38.90852833333334, "fusion_lat": 0.0, "type": "electric_scooter", "bike_id": "213fb2fa4faf4ae53bda84a140a71402", "rental_uris": {"ios": "https://dc.lft.to/lastmile_qr_scan", "android": "https://dc.lft.to/lastmile_qr_scan"}, "fusion_lon": 0.0, "lon": -77.019726, "name": "213fb2fa4faf4ae53bda84a140a71402", "is_reserved": 0, "is_disabled": 0}, {"lat": 38.877058, "fusion_lat": 0.0, "type": "electric_scooter", "bike_id": "f3e94f92250df2becb7dab74c51cf24d", "rental_uris": {"ios": "https://dc.lft.to/lastmile_qr_scan", "android": "https://dc.lft.to/lastmile_qr_scan"}, "fusion_lon": 0.0, "lon": -77.017653, "name": "f3e94f92250df2becb7dab74c51cf24d", "is_reserved": 0, "is_disabled": 0}, {"lat": 38.903070666666665, "fusion_lat": 0.0, "type": "electric_scooter", "bike_id": "8900a084d9088fe4c9c8c7c7eca3590a", "rental_uris": {"ios": "https://dc.lft.to/lastmile_qr_scan", "android": "https://dc.lft.to/lastmile_qr_scan"}, "fusion_lon": 0.0, "lon": -76.9780215, "name": "8900a084d9088fe4c9c8c7c7eca3590a", "is_reserved": 0, "is_disabled": 0}, {"lat": 38.892175, "fusion_lat": 0.0, "type": "electric_scooter", "bike_id": "8d905a76f447acee3bca066f65bc8a11", "rental_uris": {"ios": "https://dc.lft.to/lastmile_qr_scan", "android": "https://dc.lft.to/lastmile_qr_scan"}, "fusion_lon": 0.0, "lon": -77.026327, "name": "8d905a76f447acee3bca066f65bc8a11", "is_reserved": 0, "is_disabled": 0}, {"lat": 38.90393733333333, "fusion_lat": 0.0, "type": "electric_scooter", "bike_id": "cf4f6b5f5e2bc8af9dcd7b254c2295df", "rental_uris": {"ios": "https://dc.lft.to/lastmile_qr_scan", "android": "https://dc.lft.to/lastmile_qr_scan"}, "fusion_lon": 0.0, "lon": -77.068045, "name": "cf4f6b5f5e2bc8af9dcd7b254c2295df", "is_reserved": 0, "is_disabled": 0}, {"lat": 38.904428333333335, "fusion_lat": 0.0, "type": "electric_scooter", "bike_id": "f4fa7999c7d3a6a8e6e4f11dced0fcec", "rental_uris": {"ios": "https://dc.lft.to/lastmile_qr_scan", "android": "https://dc.lft.to/lastmile_qr_scan"}, "fusion_lon": 0.0, "lon": -77.0586845, "name": "f4fa7999c7d3a6a8e6e4f11dced0fcec", "is_reserved": 0, "is_disabled": 0}, {"lat": 38.926151, "fusion_lat": 0.0, "type": "electric_scooter", "bike_id": "d0fa9ad34eec7cad9d841955bc8cdd83", "rental_uris": {"ios": "https://dc.lft.to/lastmile_qr_scan", "android": "https://dc.lft.to/lastmile_qr_scan"}, "fusion_lon": 0.0, "lon": -77.0216625, "name": "d0fa9ad34eec7cad9d841955bc8cdd83", "is_reserved": 0, "is_disabled": 0}, {"lat": 38.921055, "fusion_lat": 0.0, "type": "electric_scooter", "bike_id": "acbfaeda1c6255994ba56c3c3fb31ba4", "rental_uris": {"ios": "https://dc.lft.to/lastmile_qr_scan", "android": "https://dc.lft.to/lastmile_qr_scan"}, "fusion_lon": 0.0, "lon": -77.042127, "name": "acbfaeda1c6255994ba56c3c3fb31ba4", "is_reserved": 0, "is_disabled": 0}, {"lat": 38.924310166666665, "fusion_lat": 0.0, "type": "electric_scooter", "bike_id": "c20d8c118f821d993abc201d7a2b1f34", "rental_uris": {"ios": "https://dc.lft.to/lastmile_qr_scan", "android": "https://dc.lft.to/lastmile_qr_scan"}, "fusion_lon": 0.0, "lon": -77.000667, "name": "c20d8c118f821d993abc201d7a2b1f34", "is_reserved": 0, "is_disabled": 0}, {"lat": 38.923836333333334, "fusion_lat": 0.0, "type": "electric_scooter", "bike_id": "4b0fbcfcd3da2ac076797223951ef1b6", "rental_uris": {"ios": "https://dc.lft.to/lastmile_qr_scan", "android": "https://dc.lft.to/lastmile_qr_scan"}, "fusion_lon": 0.0, "lon": -77.03660183333334, "name": "4b0fbcfcd3da2ac076797223951ef1b6", "is_reserved": 0, "is_disabled": 0}, {"lat": 38.8921935, "fusion_lat": 0.0, "type": "electric_scooter", "bike_id": "b64ffbcb083f65f7292ae3a425a41953", "rental_uris": {"ios": "https://dc.lft.to/lastmile_qr_scan", "android": "https://dc.lft.to/lastmile_qr_scan"}, "fusion_lon": 0.0, "lon": -77.02374283333333, "name": "b64ffbcb083f65f7292ae3a425a41953", "is_reserved": 0, "is_disabled": 0}, {"lat": 38.877107333333335, "fusion_lat": 0.0, "type": "electric_scooter", "bike_id": "8829afc42d67c3ccf34e4defac8be349", "rental_uris": {"ios": "https://dc.lft.to/lastmile_qr_scan", "android": "https://dc.lft.to/lastmile_qr_scan"}, "fusion_lon": 0.0, "lon": -76.99694033333333, "name": "8829afc42d67c3ccf34e4defac8be349", "is_reserved": 0, "is_disabled": 0}, {"lat": 38.941051333333334, "fusion_lat": 0.0, "type": "electric_scooter", "bike_id": "863dbed364ef1666f6ea5c1c73cd7de1", "rental_uris": {"ios": "https://dc.lft.to/lastmile_qr_scan", "android": "https://dc.lft.to/lastmile_qr_scan"}, "fusion_lon": 0.0, "lon": -77.02643583333334, "name": "863dbed364ef1666f6ea5c1c73cd7de1", "is_reserved": 0, "is_disabled": 0}, {"lat": 38.922517166666665, "fusion_lat": 0.0, "type": "electric_scooter", "bike_id": "cb8eb1629a0f8ebbd92e9077c9f87089", "rental_uris": {"ios": "https://dc.lft.to/lastmile_qr_scan", "android": "https://dc.lft.to/lastmile_qr_scan"}, "fusion_lon": 0.0, "lon": -77.01913566666667, "name": "cb8eb1629a0f8ebbd92e9077c9f87089", "is_reserved": 0, "is_disabled": 0}, {"lat": 38.920314, "fusion_lat": 0.0, "type": "electric_scooter", "bike_id": "600b01f420b61f2c6123b4d55e2556e1", "rental_uris": {"ios": "https://dc.lft.to/lastmile_qr_scan", "android": "https://dc.lft.to/lastmile_qr_scan"}, "fusion_lon": 0.0, "lon": -77.0715255, "name": "600b01f420b61f2c6123b4d55e2556e1", "is_reserved": 0, "is_disabled": 0}, {"lat": 38.91748166666667, "fusion_lat": 0.0, "type": "electric_scooter", "bike_id": "6531b61e68956f1efc427ac4e34df34e", "rental_uris": {"ios": "https://dc.lft.to/lastmile_qr_scan", "android": "https://dc.lft.to/lastmile_qr_scan"}, "fusion_lon": 0.0, "lon": -77.01230183333334, "name": "6531b61e68956f1efc427ac4e34df34e", "is_reserved": 0, "is_disabled": 0}, {"lat": 38.892366333333335, "fusion_lat": 0.0, "type": "electric_scooter", "bike_id": "4be2b7854e66cf36eea681a566620fff", "rental_uris": {"ios": "https://dc.lft.to/lastmile_qr_scan", "android": "https://dc.lft.to/lastmile_qr_scan"}, "fusion_lon": 0.0, "lon": -77.00302833333333, "name": "4be2b7854e66cf36eea681a566620fff", "is_reserved": 0, "is_disabled": 0}, {"lat": 38.9196115, "fusion_lat": 0.0, "type": "electric_scooter", "bike_id": "d218c4eb58972b83aea23d29af2f3e85", "rental_uris": {"ios": "https://dc.lft.to/lastmile_qr_scan", "android": "https://dc.lft.to/lastmile_qr_scan"}, "fusion_lon": 0.0, "lon": -77.01492883333333, "name": "d218c4eb58972b83aea23d29af2f3e85", "is_reserved": 0, "is_disabled": 0}, {"lat": 38.92022216666667, "fusion_lat": 0.0, "type": "electric_scooter", "bike_id": "0c70ebc48d1a3537ccffc2ae6a5d8ce3", "rental_uris": {"ios": "https://dc.lft.to/lastmile_qr_scan", "android": "https://dc.lft.to/lastmile_qr_scan"}, "fusion_lon": 0.0, "lon": -77.0716035, "name": "0c70ebc48d1a3537ccffc2ae6a5d8ce3", "is_reserved": 0, "is_disabled": 0}, {"lat": 38.891881, "fusion_lat": 0.0, "type": "electric_scooter", "bike_id": "222636de61da32611f532f4c81a1ce9e", "rental_uris": {"ios": "https://dc.lft.to/lastmile_qr_scan", "android": "https://dc.lft.to/lastmile_qr_scan"}, "fusion_lon": 0.0, "lon": -77.03185933333333, "name": "222636de61da32611f532f4c81a1ce9e", "is_reserved": 0, "is_disabled": 0}, {"lat": 38.887382833333334, "fusion_lat": 0.0, "type": "electric_scooter", "bike_id": "0e52333128898eddcd1b84ed0d788629", "rental_uris": {"ios": "https://dc.lft.to/lastmile_qr_scan", "android": "https://dc.lft.to/lastmile_qr_scan"}, "fusion_lon": 0.0, "lon": -77.03189083333334, "name": "0e52333128898eddcd1b84ed0d788629", "is_reserved": 0, "is_disabled": 0}, {"lat": 38.99775833333333, "fusion_lat": 0.0, "type": "electric_bike", "bike_id": "7e3dc557f8cad622ffb1b20482320ce7", "rental_uris": {"ios": "https://dc.lft.to/lastmile_qr_scan", "android": "https://dc.lft.to/lastmile_qr_scan"}, "fusion_lon": 0.0, "lon": -77.04722816666667, "name": "7e3dc557f8cad622ffb1b20482320ce7", "is_reserved": 0, "is_disabled": 0}, {"lat": 38.9328145, "fusion_lat": 0.0, "type": "electric_scooter", "bike_id": "136dc2e7b1b65fff5c3213caecbb2d6f", "rental_uris": {"ios": "https://dc.lft.to/lastmile_qr_scan", "android": "https://dc.lft.to/lastmile_qr_scan"}, "fusion_lon": 0.0, "lon": -77.04094716666667, "name": "136dc2e7b1b65fff5c3213caecbb2d6f", "is_reserved": 0, "is_disabled": 0}, {"lat": 38.886353, "fusion_lat": 0.0, "type": "electric_scooter", "bike_id": "d782801a3b92d616b0d805fe6e37fde2", "rental_uris": {"ios": "https://dc.lft.to/lastmile_qr_scan", "android": "https://dc.lft.to/lastmile_qr_scan"}, "fusion_lon": 0.0, "lon": -77.028348, "name": "d782801a3b92d616b0d805fe6e37fde2", "is_reserved": 0, "is_disabled": 0}, {"lat": 38.926922166666664, "fusion_lat": 0.0, "type": "electric_scooter", "bike_id": "b6372ea871fcfaa4313bc0e611169bb3", "rental_uris": {"ios": "https://dc.lft.to/lastmile_qr_scan", "android": "https://dc.lft.to/lastmile_qr_scan"}, "fusion_lon": 0.0, "lon": -77.0357455, "name": "b6372ea871fcfaa4313bc0e611169bb3", "is_reserved": 0, "is_disabled": 0}, {"lat": 38.942811, "fusion_lat": 0.0, "type": "electric_scooter", "bike_id": "b92b6aed29210ee74321c58582556bb5", "rental_uris": {"ios": "https://dc.lft.to/lastmile_qr_scan", "android": "https://dc.lft.to/lastmile_qr_scan"}, "fusion_lon": 0.0, "lon": -77.02934016666667, "name": "b92b6aed29210ee74321c58582556bb5", "is_reserved": 0, "is_disabled": 0}, {"lat": 38.907371, "fusion_lat": 0.0, "type": "electric_scooter", "bike_id": "7def29c65c0dc6e80cfe6bbf0e19e4af", "rental_uris": {"ios": "https://dc.lft.to/lastmile_qr_scan", "android": "https://dc.lft.to/lastmile_qr_scan"}, "fusion_lon": 0.0, "lon": -77.04186233333333, "name": "7def29c65c0dc6e80cfe6bbf0e19e4af", "is_reserved": 0, "is_disabled": 0}, {"lat": 38.9498005, "fusion_lat": 0.0, "type": "electric_scooter", "bike_id": "b6c91d5f554aa16e31009804277e8897", "rental_uris": {"ios": "https://dc.lft.to/lastmile_qr_scan", "android": "https://dc.lft.to/lastmile_qr_scan"}, "fusion_lon": 0.0, "lon": -77.02984066666667, "name": "b6c91d5f554aa16e31009804277e8897", "is_reserved": 0, "is_disabled": 0}, {"lat": 38.924088166666664, "fusion_lat": 0.0, "type": "electric_bike", "bike_id": "03a179999e32a96287db483e92359fc5", "rental_uris": {"ios": "https://dc.lft.to/lastmile_qr_scan", "android": "https://dc.lft.to/lastmile_qr_scan"}, "fusion_lon": 0.0, "lon": -77.0504955, "name": "03a179999e32a96287db483e92359fc5", "is_reserved": 0, "is_disabled": 0}, {"lat": 38.944070333333336, "fusion_lat": 0.0, "type": "electric_bike", "bike_id": "cfe6a23bbbfb404e75768a82d9a14ef3", "rental_uris": {"ios": "https://dc.lft.to/lastmile_qr_scan", "android": "https://dc.lft.to/lastmile_qr_scan"}, "fusion_lon": 0.0, "lon": -77.0551865, "name": "cfe6a23bbbfb404e75768a82d9a14ef3", "is_reserved": 0, "is_disabled": 0}, {"lat": 38.90738233333333, "fusion_lat": 0.0, "type": "electric_scooter", "bike_id": "04f81407f57f59fea8519d2207b8afca", "rental_uris": {"ios": "https://dc.lft.to/lastmile_qr_scan", "android": "https://dc.lft.to/lastmile_qr_scan"}, "fusion_lon": 0.0, "lon": -77.00129616666666, "name": "04f81407f57f59fea8519d2207b8afca", "is_reserved": 0, "is_disabled": 0}, {"lat": 38.917772, "fusion_lat": 0.0, "type": "electric_scooter", "bike_id": "7c72e896b0c9b37c11398abc2e74760d", "rental_uris": {"ios": "https://dc.lft.to/lastmile_qr_scan", "android": "https://dc.lft.to/lastmile_qr_scan"}, "fusion_lon": 0.0, "lon": -77.0230945, "name": "7c72e896b0c9b37c11398abc2e74760d", "is_reserved": 0, "is_disabled": 0}, {"lat": 38.91269366666667, "fusion_lat": 0.0, "type": "electric_scooter", "bike_id": "a676ded2574182ae09e42a8d80c3a0e2", "rental_uris": {"ios": "https://dc.lft.to/lastmile_qr_scan", "android": "https://dc.lft.to/lastmile_qr_scan"}, "fusion_lon": 0.0, "lon": -77.02216283333334, "name": "a676ded2574182ae09e42a8d80c3a0e2", "is_reserved": 0, "is_disabled": 0}, {"lat": 38.91027416666667, "fusion_lat": 0.0, "type": "electric_scooter", "bike_id": "2dfe14489e0d9a541c908be979f9cc58", "rental_uris": {"ios": "https://dc.lft.to/lastmile_qr_scan", "android": "https://dc.lft.to/lastmile_qr_scan"}, "fusion_lon": 0.0, "lon": -77.04658916666666, "name": "2dfe14489e0d9a541c908be979f9cc58", "is_reserved": 0, "is_disabled": 0}, {"lat": 38.9104395, "fusion_lat": 0.0, "type": "electric_scooter", "bike_id": "a086fe1be851a7d12eeeea5210ea8318", "rental_uris": {"ios": "https://dc.lft.to/lastmile_qr_scan", "android": "https://dc.lft.to/lastmile_qr_scan"}, "fusion_lon": 0.0, "lon": -77.0218185, "name": "a086fe1be851a7d12eeeea5210ea8318", "is_reserved": 0, "is_disabled": 0}, {"lat": 38.9143395, "fusion_lat": 0.0, "type": "electric_scooter", "bike_id": "abd6f9ffe8abf6fbfacd3e5171f02829", "rental_uris": {"ios": "https://dc.lft.to/lastmile_qr_scan", "android": "https://dc.lft.to/lastmile_qr_scan"}, "fusion_lon": 0.0, "lon": -76.98443983333334, "name": "abd6f9ffe8abf6fbfacd3e5171f02829", "is_reserved": 0, "is_disabled": 0}, {"lat": 38.920572, "fusion_lat": 0.0, "type": "electric_scooter", "bike_id": "fc97f4766b4433e52621165a95637775", "rental_uris": {"ios": "https://dc.lft.to/lastmile_qr_scan", "android": "https://dc.lft.to/lastmile_qr_scan"}, "fusion_lon": 0.0, "lon": -77.04345783333333, "name": "fc97f4766b4433e52621165a95637775", "is_reserved": 0, "is_disabled": 0}, {"lat": 38.925849, "fusion_lat": 0.0, "type": "electric_scooter", "bike_id": "7fb17e3ade631934f380ae9732d3fbbc", "rental_uris": {"ios": "https://dc.lft.to/lastmile_qr_scan", "android": "https://dc.lft.to/lastmile_qr_scan"}, "fusion_lon": 0.0, "lon": -77.09687366666667, "name": "7fb17e3ade631934f380ae9732d3fbbc", "is_reserved": 0, "is_disabled": 0}, {"lat": 38.899144666666665, "fusion_lat": 0.0, "type": "electric_scooter", "bike_id": "5c8035bcb75c23d3337aca28759da876", "rental_uris": {"ios": "https://dc.lft.to/lastmile_qr_scan", "android": "https://dc.lft.to/lastmile_qr_scan"}, "fusion_lon": 0.0, "lon": -77.04144566666666, "name": "5c8035bcb75c23d3337aca28759da876", "is_reserved": 0, "is_disabled": 0}, {"lat": 38.892269666666664, "fusion_lat": 0.0, "type": "electric_scooter", "bike_id": "34ee2bd06f2c3ac26e27feb88c2323f1", "rental_uris": {"ios": "https://dc.lft.to/lastmile_qr_scan", "android": "https://dc.lft.to/lastmile_qr_scan"}, "fusion_lon": 0.0, "lon": -77.02803533333334, "name": "34ee2bd06f2c3ac26e27feb88c2323f1", "is_reserved": 0, "is_disabled": 0}, {"lat": 38.917168333333336, "fusion_lat": 0.0, "type": "electric_scooter", "bike_id": "528827af91ef006134ae287e77b2b5ac", "rental_uris": {"ios": "https://dc.lft.to/lastmile_qr_scan", "android": "https://dc.lft.to/lastmile_qr_scan"}, "fusion_lon": 0.0, "lon": -77.036268, "name": "528827af91ef006134ae287e77b2b5ac", "is_reserved": 0, "is_disabled": 0}, {"lat": 38.910603333333334, "fusion_lat": 0.0, "type": "electric_scooter", "bike_id": "45259ae5ba705420b4b3920beddaa388", "rental_uris": {"ios": "https://dc.lft.to/lastmile_qr_scan", "android": "https://dc.lft.to/lastmile_qr_scan"}, "fusion_lon": 0.0, "lon": -77.05387066666667, "name": "45259ae5ba705420b4b3920beddaa388", "is_reserved": 0, "is_disabled": 0}, {"lat": 38.913233166666664, "fusion_lat": 0.0, "type": "electric_scooter", "bike_id": "71775a5869500c9a1b1f14cf7d7611a6", "rental_uris": {"ios": "https://dc.lft.to/lastmile_qr_scan", "android": "https://dc.lft.to/lastmile_qr_scan"}, "fusion_lon": 0.0, "lon": -77.03185333333333, "name": "71775a5869500c9a1b1f14cf7d7611a6", "is_reserved": 0, "is_disabled": 0}, {"lat": 38.900483666666666, "fusion_lat": 0.0, "type": "electric_scooter", "bike_id": "4e84a854ceff2fd5bfa7986da7d7b358", "rental_uris": {"ios": "https://dc.lft.to/lastmile_qr_scan", "android": "https://dc.lft.to/lastmile_qr_scan"}, "fusion_lon": 0.0, "lon": -77.05068483333334, "name": "4e84a854ceff2fd5bfa7986da7d7b358", "is_reserved": 0, "is_disabled": 0}, {"lat": 38.92351416666666, "fusion_lat": 0.0, "type": "electric_scooter", "bike_id": "b8bc650842e890648d91217492e4481c", "rental_uris": {"ios": "https://dc.lft.to/lastmile_qr_scan", "android": "https://dc.lft.to/lastmile_qr_scan"}, "fusion_lon": 0.0, "lon": -77.0033335, "name": "b8bc650842e890648d91217492e4481c", "is_reserved": 0, "is_disabled": 0}, {"lat": 38.892396833333336, "fusion_lat": 0.0, "type": "electric_scooter", "bike_id": "2ec03fe0567fe7320eab465b6f4bca6d", "rental_uris": {"ios": "https://dc.lft.to/lastmile_qr_scan", "android": "https://dc.lft.to/lastmile_qr_scan"}, "fusion_lon": 0.0, "lon": -77.050303, "name": "2ec03fe0567fe7320eab465b6f4bca6d", "is_reserved": 0, "is_disabled": 0}, {"lat": 38.915234, "fusion_lat": 0.0, "type": "electric_scooter", "bike_id": "f1b78780adcd87808aa1cd5095f9dfe2", "rental_uris": {"ios": "https://dc.lft.to/lastmile_qr_scan", "android": "https://dc.lft.to/lastmile_qr_scan"}, "fusion_lon": 0.0, "lon": -77.04866633333333, "name": "f1b78780adcd87808aa1cd5095f9dfe2", "is_reserved": 0, "is_disabled": 0}, {"lat": 38.91723733333333, "fusion_lat": 0.0, "type": "electric_scooter", "bike_id": "c85677780a931e705400a601b69d35c2", "rental_uris": {"ios": "https://dc.lft.to/lastmile_qr_scan", "android": "https://dc.lft.to/lastmile_qr_scan"}, "fusion_lon": 0.0, "lon": -77.02593633333333, "name": "c85677780a931e705400a601b69d35c2", "is_reserved": 0, "is_disabled": 0}, {"lat": 38.8989985, "fusion_lat": 0.0, "type": "electric_scooter", "bike_id": "a9d29fbf2a4f67873768b04bc222d70d", "rental_uris": {"ios": "https://dc.lft.to/lastmile_qr_scan", "android": "https://dc.lft.to/lastmile_qr_scan"}, "fusion_lon": 0.0, "lon": -76.99959516666667, "name": "a9d29fbf2a4f67873768b04bc222d70d", "is_reserved": 0, "is_disabled": 0}, {"lat": 38.87578233333333, "fusion_lat": 0.0, "type": "electric_bike", "bike_id": "f6e869c19041a12b854f727844fb093e", "rental_uris": {"ios": "https://dc.lft.to/lastmile_qr_scan", "android": "https://dc.lft.to/lastmile_qr_scan"}, "fusion_lon": 0.0, "lon": -77.23410916666667, "name": "f6e869c19041a12b854f727844fb093e", "is_reserved": 0, "is_disabled": 0}, {"lat": 38.93443166666667, "fusion_lat": 0.0, "type": "electric_scooter", "bike_id": "696dcc39532c62e987800a783cfddb9e", "rental_uris": {"ios": "https://dc.lft.to/lastmile_qr_scan", "android": "https://dc.lft.to/lastmile_qr_scan"}, "fusion_lon": 0.0, "lon": -77.09058933333333, "name": "696dcc39532c62e987800a783cfddb9e", "is_reserved": 0, "is_disabled": 0}, {"lat": 38.96167066666667, "fusion_lat": 0.0, "type": "electric_scooter", "bike_id": "46d576df925d9e9f1ac09d4be3a12b2c", "rental_uris": {"ios": "https://dc.lft.to/lastmile_qr_scan", "android": "https://dc.lft.to/lastmile_qr_scan"}, "fusion_lon": 0.0, "lon": -77.07342966666667, "name": "46d576df925d9e9f1ac09d4be3a12b2c", "is_reserved": 0, "is_disabled": 0}, {"lat": 38.881165, "fusion_lat": 0.0, "type": "electric_bike", "bike_id": "dc085846141752df857c194ba56b34e4", "rental_uris": {"ios": "https://dc.lft.to/lastmile_qr_scan", "android": "https://dc.lft.to/lastmile_qr_scan"}, "fusion_lon": 0.0, "lon": -77.01686083333334, "name": "dc085846141752df857c194ba56b34e4", "is_reserved": 0, "is_disabled": 0}, {"lat": 38.89683183333333, "fusion_lat": 0.0, "type": "electric_scooter", "bike_id": "8c7e22fe0c82b841b574511a9f16a41b", "rental_uris": {"ios": "https://dc.lft.to/lastmile_qr_scan", "android": "https://dc.lft.to/lastmile_qr_scan"}, "fusion_lon": 0.0, "lon": -76.93715316666666, "name": "8c7e22fe0c82b841b574511a9f16a41b", "is_reserved": 0, "is_disabled": 0}, {"lat": 38.917976833333334, "fusion_lat": 0.0, "type": "electric_scooter", "bike_id": "3669aae17e4123b2166c3b5c02e5ac29", "rental_uris": {"ios": "https://dc.lft.to/lastmile_qr_scan", "android": "https://dc.lft.to/lastmile_qr_scan"}, "fusion_lon": 0.0, "lon": -77.024873, "name": "3669aae17e4123b2166c3b5c02e5ac29", "is_reserved": 0, "is_disabled": 0}, {"lat": 38.923125, "fusion_lat": 0.0, "type": "electric_scooter", "bike_id": "666669ee16972656d76794ed9bdac22a", "rental_uris": {"ios": "https://dc.lft.to/lastmile_qr_scan", "android": "https://dc.lft.to/lastmile_qr_scan"}, "fusion_lon": 0.0, "lon": -77.02907983333333, "name": "666669ee16972656d76794ed9bdac22a", "is_reserved": 0, "is_disabled": 0}, {"lat": 38.84274533333333, "fusion_lat": 0.0, "type": "electric_bike", "bike_id": "4330babd50bbaafe2ac579d5abf04487", "rental_uris": {"ios": "https://dc.lft.to/lastmile_qr_scan", "android": "https://dc.lft.to/lastmile_qr_scan"}, "fusion_lon": 0.0, "lon": -76.98841516666667, "name": "4330babd50bbaafe2ac579d5abf04487", "is_reserved": 0, "is_disabled": 0}, {"lat": 38.91466533333333, "fusion_lat": 0.0, "type": "electric_scooter", "bike_id": "19b2706e37c8f0cb8c6ae5cd7ada9e31", "rental_uris": {"ios": "https://dc.lft.to/lastmile_qr_scan", "android": "https://dc.lft.to/lastmile_qr_scan"}, "fusion_lon": 0.0, "lon": -77.0155895, "name": "19b2706e37c8f0cb8c6ae5cd7ada9e31", "is_reserved": 0, "is_disabled": 0}, {"lat": 38.90855116666667, "fusion_lat": 0.0, "type": "electric_scooter", "bike_id": "ba5f44623a4fc446118f42cc3a690179", "rental_uris": {"ios": "https://dc.lft.to/lastmile_qr_scan", "android": "https://dc.lft.to/lastmile_qr_scan"}, "fusion_lon": 0.0, "lon": -77.02697233333333, "name": "ba5f44623a4fc446118f42cc3a690179", "is_reserved": 0, "is_disabled": 0}, {"lat": 38.957498333333334, "fusion_lat": 0.0, "type": "electric_scooter", "bike_id": "da49832c67fe22a131a5c14b24f87ee1", "rental_uris": {"ios": "https://dc.lft.to/lastmile_qr_scan", "android": "https://dc.lft.to/lastmile_qr_scan"}, "fusion_lon": 0.0, "lon": -77.00233516666667, "name": "da49832c67fe22a131a5c14b24f87ee1", "is_reserved": 0, "is_disabled": 0}, {"lat": 38.935219833333335, "fusion_lat": 0.0, "type": "electric_scooter", "bike_id": "74186d60be0ec3c108daa778844fa5b2", "rental_uris": {"ios": "https://dc.lft.to/lastmile_qr_scan", "android": "https://dc.lft.to/lastmile_qr_scan"}, "fusion_lon": 0.0, "lon": -77.03257683333334, "name": "74186d60be0ec3c108daa778844fa5b2", "is_reserved": 0, "is_disabled": 0}, {"lat": 38.85092016666667, "fusion_lat": 0.0, "type": "electric_bike", "bike_id": "14e800562426d5284857ef97c14ebd99", "rental_uris": {"ios": "https://dc.lft.to/lastmile_qr_scan", "android": "https://dc.lft.to/lastmile_qr_scan"}, "fusion_lon": 0.0, "lon": -76.95697783333334, "name": "14e800562426d5284857ef97c14ebd99", "is_reserved": 0, "is_disabled": 0}, {"lat": 38.8739685, "fusion_lat": 0.0, "type": "electric_scooter", "bike_id": "7b00ec0e977d068eba439dd30219bcd5", "rental_uris": {"ios": "https://dc.lft.to/lastmile_qr_scan", "android": "https://dc.lft.to/lastmile_qr_scan"}, "fusion_lon": 0.0, "lon": -77.0019855, "name": "7b00ec0e977d068eba439dd30219bcd5", "is_reserved": 0, "is_disabled": 0}, {"lat": 38.923549666666666, "fusion_lat": 0.0, "type": "electric_scooter", "bike_id": "e98de0300e00da03177081931e181480", "rental_uris": {"ios": "https://dc.lft.to/lastmile_qr_scan", "android": "https://dc.lft.to/lastmile_qr_scan"}, "fusion_lon": 0.0, "lon": -77.04385, "name": "e98de0300e00da03177081931e181480", "is_reserved": 0, "is_disabled": 0}, {"lat": 38.94312266666667, "fusion_lat": 0.0, "type": "electric_scooter", "bike_id": "f3901fae58dbaa5e6961ff0e441575d9", "rental_uris": {"ios": "https://dc.lft.to/lastmile_qr_scan", "android": "https://dc.lft.to/lastmile_qr_scan"}, "fusion_lon": 0.0, "lon": -77.01729616666667, "name": "f3901fae58dbaa5e6961ff0e441575d9", "is_reserved": 0, "is_disabled": 0}, {"lat": 38.92079966666667, "fusion_lat": 0.0, "type": "electric_scooter", "bike_id": "9717ae6408c06867bcc6961e2f6fb8a8", "rental_uris": {"ios": "https://dc.lft.to/lastmile_qr_scan", "android": "https://dc.lft.to/lastmile_qr_scan"}, "fusion_lon": 0.0, "lon": -77.0240175, "name": "9717ae6408c06867bcc6961e2f6fb8a8", "is_reserved": 0, "is_disabled": 0}, {"lat": 38.92450733333333, "fusion_lat": 0.0, "type": "electric_bike", "bike_id": "510fb9ad46234540bae6373a5a0202eb", "rental_uris": {"ios": "https://dc.lft.to/lastmile_qr_scan", "android": "https://dc.lft.to/lastmile_qr_scan"}, "fusion_lon": 0.0, "lon": -77.00215366666667, "name": "510fb9ad46234540bae6373a5a0202eb", "is_reserved": 0, "is_disabled": 0}, {"lat": 38.893502833333336, "fusion_lat": 0.0, "type": "electric_scooter", "bike_id": "cd2d4d21a2c445b0577e96b2d38bc3d7", "rental_uris": {"ios": "https://dc.lft.to/lastmile_qr_scan", "android": "https://dc.lft.to/lastmile_qr_scan"}, "fusion_lon": 0.0, "lon": -77.012273, "name": "cd2d4d21a2c445b0577e96b2d38bc3d7", "is_reserved": 0, "is_disabled": 0}, {"lat": 38.90237466666667, "fusion_lat": 0.0, "type": "electric_scooter", "bike_id": "2c79bca099b956fc010ffdd931a3c42a", "rental_uris": {"ios": "https://dc.lft.to/lastmile_qr_scan", "android": "https://dc.lft.to/lastmile_qr_scan"}, "fusion_lon": 0.0, "lon": -77.00596333333333, "name": "2c79bca099b956fc010ffdd931a3c42a", "is_reserved": 0, "is_disabled": 0}, {"lat": 38.899586166666666, "fusion_lat": 0.0, "type": "electric_scooter", "bike_id": "108d9dd3d5a9e7cd37a5ca9f8d2aa770", "rental_uris": {"ios": "https://dc.lft.to/lastmile_qr_scan", "android": "https://dc.lft.to/lastmile_qr_scan"}, "fusion_lon": 0.0, "lon": -77.01615883333334, "name": "108d9dd3d5a9e7cd37a5ca9f8d2aa770", "is_reserved": 0, "is_disabled": 0}, {"lat": 38.90614733333334, "fusion_lat": 0.0, "type": "electric_scooter", "bike_id": "0ee106fd8198d843e33daa646d414d9a", "rental_uris": {"ios": "https://dc.lft.to/lastmile_qr_scan", "android": "https://dc.lft.to/lastmile_qr_scan"}, "fusion_lon": 0.0, "lon": -77.05128116666667, "name": "0ee106fd8198d843e33daa646d414d9a", "is_reserved": 0, "is_disabled": 0}, {"lat": 38.90569816666667, "fusion_lat": 0.0, "type": "electric_scooter", "bike_id": "d61ba814ebb17dcd7e426f74febaca81", "rental_uris": {"ios": "https://dc.lft.to/lastmile_qr_scan", "android": "https://dc.lft.to/lastmile_qr_scan"}, "fusion_lon": 0.0, "lon": -77.0275735, "name": "d61ba814ebb17dcd7e426f74febaca81", "is_reserved": 0, "is_disabled": 0}, {"lat": 38.9643715, "fusion_lat": 0.0, "type": "electric_scooter", "bike_id": "bf49101a360f8b5030c3560cf4533992", "rental_uris": {"ios": "https://dc.lft.to/lastmile_qr_scan", "android": "https://dc.lft.to/lastmile_qr_scan"}, "fusion_lon": 0.0, "lon": -77.02002033333333, "name": "bf49101a360f8b5030c3560cf4533992", "is_reserved": 0, "is_disabled": 0}, {"lat": 38.921624333333334, "fusion_lat": 0.0, "type": "electric_scooter", "bike_id": "542032b8ef7cf0145e5665d6aec26f4b", "rental_uris": {"ios": "https://dc.lft.to/lastmile_qr_scan", "android": "https://dc.lft.to/lastmile_qr_scan"}, "fusion_lon": 0.0, "lon": -77.03467233333333, "name": "542032b8ef7cf0145e5665d6aec26f4b", "is_reserved": 0, "is_disabled": 0}, {"lat": 38.892309833333336, "fusion_lat": 0.0, "type": "electric_scooter", "bike_id": "3cd0dc7f50d96ea23f376f369e22780a", "rental_uris": {"ios": "https://dc.lft.to/lastmile_qr_scan", "android": "https://dc.lft.to/lastmile_qr_scan"}, "fusion_lon": 0.0, "lon": -77.04877166666667, "name": "3cd0dc7f50d96ea23f376f369e22780a", "is_reserved": 0, "is_disabled": 0}, {"lat": 38.927495, "fusion_lat": 0.0, "type": "electric_scooter", "bike_id": "a935b17db309a6acbe49c02e5b771c9e", "rental_uris": {"ios": "https://dc.lft.to/lastmile_qr_scan", "android": "https://dc.lft.to/lastmile_qr_scan"}, "fusion_lon": 0.0, "lon": -77.03356283333333, "name": "a935b17db309a6acbe49c02e5b771c9e", "is_reserved": 0, "is_disabled": 0}, {"lat": 38.911325166666664, "fusion_lat": 0.0, "type": "electric_scooter", "bike_id": "48c59a4bc6eb526f54cfe4b038b4e370", "rental_uris": {"ios": "https://dc.lft.to/lastmile_qr_scan", "android": "https://dc.lft.to/lastmile_qr_scan"}, "fusion_lon": 0.0, "lon": -77.0282225, "name": "48c59a4bc6eb526f54cfe4b038b4e370", "is_reserved": 0, "is_disabled": 0}, {"lat": 38.888679833333335, "fusion_lat": 0.0, "type": "electric_bike", "bike_id": "00cc7c069fa4d86b39de4a2e22bf5fe0", "rental_uris": {"ios": "https://dc.lft.to/lastmile_qr_scan", "android": "https://dc.lft.to/lastmile_qr_scan"}, "fusion_lon": 0.0, "lon": -77.0817875, "name": "00cc7c069fa4d86b39de4a2e22bf5fe0", "is_reserved": 0, "is_disabled": 0}, {"lat": 38.90971533333333, "fusion_lat": 0.0, "type": "electric_scooter", "bike_id": "e16e95953f7b63e02f9d79faf75bd49f", "rental_uris": {"ios": "https://dc.lft.to/lastmile_qr_scan", "android": "https://dc.lft.to/lastmile_qr_scan"}, "fusion_lon": 0.0, "lon": -77.01997933333334, "name": "e16e95953f7b63e02f9d79faf75bd49f", "is_reserved": 0, "is_disabled": 0}, {"lat": 38.88246433333333, "fusion_lat": 0.0, "type": "electric_bike", "bike_id": "9e78f0e9e7b4a0bb54fecf6f51792a96", "rental_uris": {"ios": "https://dc.lft.to/lastmile_qr_scan", "android": "https://dc.lft.to/lastmile_qr_scan"}, "fusion_lon": 0.0, "lon": -76.96262133333333, "name": "9e78f0e9e7b4a0bb54fecf6f51792a96", "is_reserved": 0, "is_disabled": 0}, {"lat": 38.90503183333333, "fusion_lat": 0.0, "type": "electric_scooter", "bike_id": "2eff001cd1ff5a050bccba2c5a4d24b4", "rental_uris": {"ios": "https://dc.lft.to/lastmile_qr_scan", "android": "https://dc.lft.to/lastmile_qr_scan"}, "fusion_lon": 0.0, "lon": -77.06379616666666, "name": "2eff001cd1ff5a050bccba2c5a4d24b4", "is_reserved": 0, "is_disabled": 0}, {"lat": 38.906525, "fusion_lat": 0.0, "type": "electric_scooter", "bike_id": "480879ad93ff2652a1ead2ce5adbfcbf", "rental_uris": {"ios": "https://dc.lft.to/lastmile_qr_scan", "android": "https://dc.lft.to/lastmile_qr_scan"}, "fusion_lon": 0.0, "lon": -77.01146533333333, "name": "480879ad93ff2652a1ead2ce5adbfcbf", "is_reserved": 0, "is_disabled": 0}, {"lat": 38.932598666666664, "fusion_lat": 0.0, "type": "electric_scooter", "bike_id": "0f2bca03d90851c3323c8a5088aa4406", "rental_uris": {"ios": "https://dc.lft.to/lastmile_qr_scan", "android": "https://dc.lft.to/lastmile_qr_scan"}, "fusion_lon": 0.0, "lon": -77.020947, "name": "0f2bca03d90851c3323c8a5088aa4406", "is_reserved": 0, "is_disabled": 0}, {"lat": 38.926955166666666, "fusion_lat": 0.0, "type": "electric_scooter", "bike_id": "307d4b3f995b0e7c880afd4438857c25", "rental_uris": {"ios": "https://dc.lft.to/lastmile_qr_scan", "android": "https://dc.lft.to/lastmile_qr_scan"}, "fusion_lon": 0.0, "lon": -76.99757316666667, "name": "307d4b3f995b0e7c880afd4438857c25", "is_reserved": 0, "is_disabled": 0}, {"lat": 38.89983333333333, "fusion_lat": 0.0, "type": "electric_scooter", "bike_id": "59830b05ad4994e5a4cf168079cfbb19", "rental_uris": {"ios": "https://dc.lft.to/lastmile_qr_scan", "android": "https://dc.lft.to/lastmile_qr_scan"}, "fusion_lon": 0.0, "lon": -77.01581683333333, "name": "59830b05ad4994e5a4cf168079cfbb19", "is_reserved": 0, "is_disabled": 0}, {"lat": 38.915812833333334, "fusion_lat": 0.0, "type": "electric_bike", "bike_id": "7771320ffc42449e091efc107902e354", "rental_uris": {"ios": "https://dc.lft.to/lastmile_qr_scan", "android": "https://dc.lft.to/lastmile_qr_scan"}, "fusion_lon": 0.0, "lon": -77.05030166666667, "name": "7771320ffc42449e091efc107902e354", "is_reserved": 0, "is_disabled": 0}, {"lat": 38.9263125, "fusion_lat": 0.0, "type": "electric_scooter", "bike_id": "0216472887ee29767098aff4049dabdd", "rental_uris": {"ios": "https://dc.lft.to/lastmile_qr_scan", "android": "https://dc.lft.to/lastmile_qr_scan"}, "fusion_lon": 0.0, "lon": -77.02163733333333, "name": "0216472887ee29767098aff4049dabdd", "is_reserved": 0, "is_disabled": 0}, {"lat": 38.9148075, "fusion_lat": 0.0, "type": "electric_scooter", "bike_id": "5305e9019c1b689613e47b7454f35d0f", "rental_uris": {"ios": "https://dc.lft.to/lastmile_qr_scan", "android": "https://dc.lft.to/lastmile_qr_scan"}, "fusion_lon": 0.0, "lon": -77.03852816666667, "name": "5305e9019c1b689613e47b7454f35d0f", "is_reserved": 0, "is_disabled": 0}, {"lat": 38.903197166666665, "fusion_lat": 0.0, "type": "electric_scooter", "bike_id": "a06bcd161223834d0086884b8142e622", "rental_uris": {"ios": "https://dc.lft.to/lastmile_qr_scan", "android": "https://dc.lft.to/lastmile_qr_scan"}, "fusion_lon": 0.0, "lon": -77.01625366666667, "name": "a06bcd161223834d0086884b8142e622", "is_reserved": 0, "is_disabled": 0}, {"lat": 38.88769116666667, "fusion_lat": 0.0, "type": "electric_scooter", "bike_id": "98732cb86b486a1195ddd2c4b6a12c24", "rental_uris": {"ios": "https://dc.lft.to/lastmile_qr_scan", "android": "https://dc.lft.to/lastmile_qr_scan"}, "fusion_lon": 0.0, "lon": -77.02840316666666, "name": "98732cb86b486a1195ddd2c4b6a12c24", "is_reserved": 0, "is_disabled": 0}, {"lat": 38.9021525, "fusion_lat": 0.0, "type": "electric_scooter", "bike_id": "043ca091583234a015b37c7e6561b5fe", "rental_uris": {"ios": "https://dc.lft.to/lastmile_qr_scan", "android": "https://dc.lft.to/lastmile_qr_scan"}, "fusion_lon": 0.0, "lon": -77.02373133333333, "name": "043ca091583234a015b37c7e6561b5fe", "is_reserved": 0, "is_disabled": 0}, {"lat": 38.90794133333333, "fusion_lat": 0.0, "type": "electric_scooter", "bike_id": "670fd5334e39fca0d1c455568f2b1c2e", "rental_uris": {"ios": "https://dc.lft.to/lastmile_qr_scan", "android": "https://dc.lft.to/lastmile_qr_scan"}, "fusion_lon": 0.0, "lon": -77.04322033333334, "name": "670fd5334e39fca0d1c455568f2b1c2e", "is_reserved": 0, "is_disabled": 0}, {"lat": 38.871841833333335, "fusion_lat": 0.0, "type": "electric_scooter", "bike_id": "9e84e300976955a584521ef3d60b1013", "rental_uris": {"ios": "https://dc.lft.to/lastmile_qr_scan", "android": "https://dc.lft.to/lastmile_qr_scan"}, "fusion_lon": 0.0, "lon": -77.00642983333333, "name": "9e84e300976955a584521ef3d60b1013", "is_reserved": 0, "is_disabled": 0}, {"lat": 38.89351466666667, "fusion_lat": 0.0, "type": "electric_bike", "bike_id": "6ef247381379e86d4b6c304fac738a4d", "rental_uris": {"ios": "https://dc.lft.to/lastmile_qr_scan", "android": "https://dc.lft.to/lastmile_qr_scan"}, "fusion_lon": 0.0, "lon": -76.992692, "name": "6ef247381379e86d4b6c304fac738a4d", "is_reserved": 0, "is_disabled": 0}, {"lat": 38.897447666666665, "fusion_lat": 0.0, "type": "electric_scooter", "bike_id": "0eed62d351b5c473ebba3c1bf2fd0331", "rental_uris": {"ios": "https://dc.lft.to/lastmile_qr_scan", "android": "https://dc.lft.to/lastmile_qr_scan"}, "fusion_lon": 0.0, "lon": -77.04337933333333, "name": "0eed62d351b5c473ebba3c1bf2fd0331", "is_reserved": 0, "is_disabled": 0}, {"lat": 38.910077, "fusion_lat": 0.0, "type": "electric_bike", "bike_id": "6121dcb9eacf9e165f7419dbe12e451f", "rental_uris": {"ios": "https://dc.lft.to/lastmile_qr_scan", "android": "https://dc.lft.to/lastmile_qr_scan"}, "fusion_lon": 0.0, "lon": -76.99403966666667, "name": "6121dcb9eacf9e165f7419dbe12e451f", "is_reserved": 0, "is_disabled": 0}, {"lat": 38.89221933333334, "fusion_lat": 0.0, "type": "electric_scooter", "bike_id": "3e82d15495cd17f23461f2c52faaf03f", "rental_uris": {"ios": "https://dc.lft.to/lastmile_qr_scan", "android": "https://dc.lft.to/lastmile_qr_scan"}, "fusion_lon": 0.0, "lon": -77.04471283333334, "name": "3e82d15495cd17f23461f2c52faaf03f", "is_reserved": 0, "is_disabled": 0}, {"lat": 38.84286633333333, "fusion_lat": 0.0, "type": "electric_bike", "bike_id": "527de56eb3c2b4771e1b719006faeaed", "rental_uris": {"ios": "https://dc.lft.to/lastmile_qr_scan", "android": "https://dc.lft.to/lastmile_qr_scan"}, "fusion_lon": 0.0, "lon": -77.07528183333334, "name": "527de56eb3c2b4771e1b719006faeaed", "is_reserved": 0, "is_disabled": 0}, {"lat": 38.8873465, "fusion_lat": 0.0, "type": "electric_scooter", "bike_id": "00ae6e79d3a77d93c7e11000cc56125c", "rental_uris": {"ios": "https://dc.lft.to/lastmile_qr_scan", "android": "https://dc.lft.to/lastmile_qr_scan"}, "fusion_lon": 0.0, "lon": -77.0317895, "name": "00ae6e79d3a77d93c7e11000cc56125c", "is_reserved": 0, "is_disabled": 0}, {"lat": 38.921201, "fusion_lat": 0.0, "type": "electric_scooter", "bike_id": "c06d61ad1003df96428266eaf5777ef1", "rental_uris": {"ios": "https://dc.lft.to/lastmile_qr_scan", "android": "https://dc.lft.to/lastmile_qr_scan"}, "fusion_lon": 0.0, "lon": -77.01212083333333, "name": "c06d61ad1003df96428266eaf5777ef1", "is_reserved": 0, "is_disabled": 0}, {"lat": 38.90483616666667, "fusion_lat": 0.0, "type": "electric_scooter", "bike_id": "b016093fad76081ac973a1a53df8a7fd", "rental_uris": {"ios": "https://dc.lft.to/lastmile_qr_scan", "android": "https://dc.lft.to/lastmile_qr_scan"}, "fusion_lon": 0.0, "lon": -77.0294775, "name": "b016093fad76081ac973a1a53df8a7fd", "is_reserved": 0, "is_disabled": 0}, {"lat": 38.933461333333334, "fusion_lat": 0.0, "type": "electric_scooter", "bike_id": "7a323b1854b5311389272322ce4be137", "rental_uris": {"ios": "https://dc.lft.to/lastmile_qr_scan", "android": "https://dc.lft.to/lastmile_qr_scan"}, "fusion_lon": 0.0, "lon": -77.07353583333334, "name": "7a323b1854b5311389272322ce4be137", "is_reserved": 0, "is_disabled": 0}, {"lat": 38.90959616666667, "fusion_lat": 0.0, "type": "electric_scooter", "bike_id": "40e884cdc28f258eb2d3fb39703bc724", "rental_uris": {"ios": "https://dc.lft.to/lastmile_qr_scan", "android": "https://dc.lft.to/lastmile_qr_scan"}, "fusion_lon": 0.0, "lon": -77.02388283333333, "name": "40e884cdc28f258eb2d3fb39703bc724", "is_reserved": 0, "is_disabled": 0}, {"lat": 38.91321383333333, "fusion_lat": 0.0, "type": "electric_scooter", "bike_id": "1d668e5399b1a08b6c9ea27043261ff0", "rental_uris": {"ios": "https://dc.lft.to/lastmile_qr_scan", "android": "https://dc.lft.to/lastmile_qr_scan"}, "fusion_lon": 0.0, "lon": -77.03182933333333, "name": "1d668e5399b1a08b6c9ea27043261ff0", "is_reserved": 0, "is_disabled": 0}, {"lat": 38.919202, "fusion_lat": 0.0, "type": "electric_scooter", "bike_id": "ef20e99e98aefab1c8b9a4f47090f2f5", "rental_uris": {"ios": "https://dc.lft.to/lastmile_qr_scan", "android": "https://dc.lft.to/lastmile_qr_scan"}, "fusion_lon": 0.0, "lon": -77.03346466666666, "name": "ef20e99e98aefab1c8b9a4f47090f2f5", "is_reserved": 0, "is_disabled": 0}, {"lat": 38.897276, "fusion_lat": 0.0, "type": "electric_scooter", "bike_id": "c0fa7992b550f870688cda9b064db8fc", "rental_uris": {"ios": "https://dc.lft.to/lastmile_qr_scan", "android": "https://dc.lft.to/lastmile_qr_scan"}, "fusion_lon": 0.0, "lon": -77.046756, "name": "c0fa7992b550f870688cda9b064db8fc", "is_reserved": 0, "is_disabled": 0}, {"lat": 38.941778666666664, "fusion_lat": 0.0, "type": "electric_scooter", "bike_id": "27b2205f5207365495d11235700cc8bc", "rental_uris": {"ios": "https://dc.lft.to/lastmile_qr_scan", "android": "https://dc.lft.to/lastmile_qr_scan"}, "fusion_lon": 0.0, "lon": -77.02797333333334, "name": "27b2205f5207365495d11235700cc8bc", "is_reserved": 0, "is_disabled": 0}, {"lat": 38.9148725, "fusion_lat": 0.0, "type": "electric_bike", "bike_id": "7ce75e857fc68273bf12ba935c6f09de", "rental_uris": {"ios": "https://dc.lft.to/lastmile_qr_scan", "android": "https://dc.lft.to/lastmile_qr_scan"}, "fusion_lon": 0.0, "lon": -76.98574116666667, "name": "7ce75e857fc68273bf12ba935c6f09de", "is_reserved": 0, "is_disabled": 0}, {"lat": 38.96749783333333, "fusion_lat": 0.0, "type": "electric_bike", "bike_id": "ae91a7e90096ebb75c114e9dd6629594", "rental_uris": {"ios": "https://dc.lft.to/lastmile_qr_scan", "android": "https://dc.lft.to/lastmile_qr_scan"}, "fusion_lon": 0.0, "lon": -77.02803816666666, "name": "ae91a7e90096ebb75c114e9dd6629594", "is_reserved": 0, "is_disabled": 0}, {"lat": 38.899634166666665, "fusion_lat": 0.0, "type": "electric_scooter", "bike_id": "ff888cfa59685df13f885dfc2c5983c5", "rental_uris": {"ios": "https://dc.lft.to/lastmile_qr_scan", "android": "https://dc.lft.to/lastmile_qr_scan"}, "fusion_lon": 0.0, "lon": -77.02182166666667, "name": "ff888cfa59685df13f885dfc2c5983c5", "is_reserved": 0, "is_disabled": 0}, {"lat": 38.92421383333333, "fusion_lat": 0.0, "type": "electric_scooter", "bike_id": "080423d4d7f15a1c31c9ae677ac5d1a7", "rental_uris": {"ios": "https://dc.lft.to/lastmile_qr_scan", "android": "https://dc.lft.to/lastmile_qr_scan"}, "fusion_lon": 0.0, "lon": -77.02011066666667, "name": "080423d4d7f15a1c31c9ae677ac5d1a7", "is_reserved": 0, "is_disabled": 0}, {"lat": 38.887346666666666, "fusion_lat": 0.0, "type": "electric_scooter", "bike_id": "f8c6d8a76c619682d7df0df8fea67a71", "rental_uris": {"ios": "https://dc.lft.to/lastmile_qr_scan", "android": "https://dc.lft.to/lastmile_qr_scan"}, "fusion_lon": 0.0, "lon": -77.02827283333333, "name": "f8c6d8a76c619682d7df0df8fea67a71", "is_reserved": 0, "is_disabled": 0}, {"lat": 38.92927066666667, "fusion_lat": 0.0, "type": "electric_scooter", "bike_id": "e987028a5c5468ea282e4f60b06b3f11", "rental_uris": {"ios": "https://dc.lft.to/lastmile_qr_scan", "android": "https://dc.lft.to/lastmile_qr_scan"}, "fusion_lon": 0.0, "lon": -77.03234583333334, "name": "e987028a5c5468ea282e4f60b06b3f11", "is_reserved": 0, "is_disabled": 0}, {"lat": 38.91021583333333, "fusion_lat": 0.0, "type": "electric_scooter", "bike_id": "f13f49340acbe5af5c27314b136c3495", "rental_uris": {"ios": "https://dc.lft.to/lastmile_qr_scan", "android": "https://dc.lft.to/lastmile_qr_scan"}, "fusion_lon": 0.0, "lon": -77.07405216666666, "name": "f13f49340acbe5af5c27314b136c3495", "is_reserved": 0, "is_disabled": 0}, {"lat": 38.9109335, "fusion_lat": 0.0, "type": "electric_scooter", "bike_id": "2baa867eaef4d82fd75a40ddf46ca35b", "rental_uris": {"ios": "https://dc.lft.to/lastmile_qr_scan", "android": "https://dc.lft.to/lastmile_qr_scan"}, "fusion_lon": 0.0, "lon": -77.03181266666667, "name": "2baa867eaef4d82fd75a40ddf46ca35b", "is_reserved": 0, "is_disabled": 0}, {"lat": 38.89736966666667, "fusion_lat": 0.0, "type": "electric_scooter", "bike_id": "ae4331ff2a35bd1119df07acd8e0a136", "rental_uris": {"ios": "https://dc.lft.to/lastmile_qr_scan", "android": "https://dc.lft.to/lastmile_qr_scan"}, "fusion_lon": 0.0, "lon": -77.04421916666666, "name": "ae4331ff2a35bd1119df07acd8e0a136", "is_reserved": 0, "is_disabled": 0}, {"lat": 38.96142016666667, "fusion_lat": 0.0, "type": "electric_scooter", "bike_id": "eb8da3538307bf37f46e05a001877fff", "rental_uris": {"ios": "https://dc.lft.to/lastmile_qr_scan", "android": "https://dc.lft.to/lastmile_qr_scan"}, "fusion_lon": 0.0, "lon": -77.02792266666667, "name": "eb8da3538307bf37f46e05a001877fff", "is_reserved": 0, "is_disabled": 0}, {"lat": 38.9395745, "fusion_lat": 0.0, "type": "electric_scooter", "bike_id": "1600cdaa662c669df4c934b7479d1e0c", "rental_uris": {"ios": "https://dc.lft.to/lastmile_qr_scan", "android": "https://dc.lft.to/lastmile_qr_scan"}, "fusion_lon": 0.0, "lon": -77.0327915, "name": "1600cdaa662c669df4c934b7479d1e0c", "is_reserved": 0, "is_disabled": 0}, {"lat": 38.921763, "fusion_lat": 0.0, "type": "electric_scooter", "bike_id": "1d9285d28443437b2c60d802740b0608", "rental_uris": {"ios": "https://dc.lft.to/lastmile_qr_scan", "android": "https://dc.lft.to/lastmile_qr_scan"}, "fusion_lon": 0.0, "lon": -77.03839633333334, "name": "1d9285d28443437b2c60d802740b0608", "is_reserved": 0, "is_disabled": 0}, {"lat": 38.89354383333333, "fusion_lat": 0.0, "type": "electric_scooter", "bike_id": "f1f7d3f4a7f1cda48a5937908abfba07", "rental_uris": {"ios": "https://dc.lft.to/lastmile_qr_scan", "android": "https://dc.lft.to/lastmile_qr_scan"}, "fusion_lon": 0.0, "lon": -76.98658866666666, "name": "f1f7d3f4a7f1cda48a5937908abfba07", "is_reserved": 0, "is_disabled": 0}, {"lat": 38.90414483333333, "fusion_lat": 0.0, "type": "electric_scooter", "bike_id": "b0f9c3a630a0f14921a7f60be228a866", "rental_uris": {"ios": "https://dc.lft.to/lastmile_qr_scan", "android": "https://dc.lft.to/lastmile_qr_scan"}, "fusion_lon": 0.0, "lon": -76.981048, "name": "b0f9c3a630a0f14921a7f60be228a866", "is_reserved": 0, "is_disabled": 0}, {"lat": 38.887333166666664, "fusion_lat": 0.0, "type": "electric_scooter", "bike_id": "429543652fe0a6f8a3578bcb532520ef", "rental_uris": {"ios": "https://dc.lft.to/lastmile_qr_scan", "android": "https://dc.lft.to/lastmile_qr_scan"}, "fusion_lon": 0.0, "lon": -77.02827116666667, "name": "429543652fe0a6f8a3578bcb532520ef", "is_reserved": 0, "is_disabled": 0}, {"lat": 38.889702166666666, "fusion_lat": 0.0, "type": "electric_scooter", "bike_id": "1e398c9095b82b7f7d4231d26e896dcf", "rental_uris": {"ios": "https://dc.lft.to/lastmile_qr_scan", "android": "https://dc.lft.to/lastmile_qr_scan"}, "fusion_lon": 0.0, "lon": -77.0858655, "name": "1e398c9095b82b7f7d4231d26e896dcf", "is_reserved": 0, "is_disabled": 0}, {"lat": 38.957991666666665, "fusion_lat": 0.0, "type": "electric_scooter", "bike_id": "9fa152b7d49197f3c063d39bd767e55a", "rental_uris": {"ios": "https://dc.lft.to/lastmile_qr_scan", "android": "https://dc.lft.to/lastmile_qr_scan"}, "fusion_lon": 0.0, "lon": -77.01514683333333, "name": "9fa152b7d49197f3c063d39bd767e55a", "is_reserved": 0, "is_disabled": 0}, {"lat": 38.907571833333336, "fusion_lat": 0.0, "type": "electric_scooter", "bike_id": "662ee03ec78f013ec3de9bdf92c4a8a3", "rental_uris": {"ios": "https://dc.lft.to/lastmile_qr_scan", "android": "https://dc.lft.to/lastmile_qr_scan"}, "fusion_lon": 0.0, "lon": -77.034518, "name": "662ee03ec78f013ec3de9bdf92c4a8a3", "is_reserved": 0, "is_disabled": 0}, {"lat": 38.91629833333333, "fusion_lat": 0.0, "type": "electric_scooter", "bike_id": "8df7cdc6f8f6ac6e086c25779f6425ad", "rental_uris": {"ios": "https://dc.lft.to/lastmile_qr_scan", "android": "https://dc.lft.to/lastmile_qr_scan"}, "fusion_lon": 0.0, "lon": -77.05068333333334, "name": "8df7cdc6f8f6ac6e086c25779f6425ad", "is_reserved": 0, "is_disabled": 0}, {"lat": 38.898235666666665, "fusion_lat": 0.0, "type": "electric_scooter", "bike_id": "a157ed072f228471f156fe7217910364", "rental_uris": {"ios": "https://dc.lft.to/lastmile_qr_scan", "android": "https://dc.lft.to/lastmile_qr_scan"}, "fusion_lon": 0.0, "lon": -76.946547, "name": "a157ed072f228471f156fe7217910364", "is_reserved": 0, "is_disabled": 0}, {"lat": 38.924572833333336, "fusion_lat": 0.0, "type": "electric_scooter", "bike_id": "92844c654c0ccb010c62bde730d46596", "rental_uris": {"ios": "https://dc.lft.to/lastmile_qr_scan", "android": "https://dc.lft.to/lastmile_qr_scan"}, "fusion_lon": 0.0, "lon": -77.02162233333334, "name": "92844c654c0ccb010c62bde730d46596", "is_reserved": 0, "is_disabled": 0}, {"lat": 38.892304833333334, "fusion_lat": 0.0, "type": "electric_scooter", "bike_id": "7784cc5c329cd720f9e6f8137800191a", "rental_uris": {"ios": "https://dc.lft.to/lastmile_qr_scan", "android": "https://dc.lft.to/lastmile_qr_scan"}, "fusion_lon": 0.0, "lon": -77.02805616666667, "name": "7784cc5c329cd720f9e6f8137800191a", "is_reserved": 0, "is_disabled": 0}, {"lat": 38.90727616666667, "fusion_lat": 0.0, "type": "electric_scooter", "bike_id": "29125611fab825ddbb30de3f15b84e49", "rental_uris": {"ios": "https://dc.lft.to/lastmile_qr_scan", "android": "https://dc.lft.to/lastmile_qr_scan"}, "fusion_lon": 0.0, "lon": -77.03542566666667, "name": "29125611fab825ddbb30de3f15b84e49", "is_reserved": 0, "is_disabled": 0}, {"lat": 38.920564166666665, "fusion_lat": 0.0, "type": "electric_scooter", "bike_id": "ae392bc371db1aa648f49ade4e85abac", "rental_uris": {"ios": "https://dc.lft.to/lastmile_qr_scan", "android": "https://dc.lft.to/lastmile_qr_scan"}, "fusion_lon": 0.0, "lon": -77.02410433333333, "name": "ae392bc371db1aa648f49ade4e85abac", "is_reserved": 0, "is_disabled": 0}, {"lat": 38.917126, "fusion_lat": 0.0, "type": "electric_scooter", "bike_id": "9ceb867bd18de1ea00efbd9d9da998fb", "rental_uris": {"ios": "https://dc.lft.to/lastmile_qr_scan", "android": "https://dc.lft.to/lastmile_qr_scan"}, "fusion_lon": 0.0, "lon": -77.03795833333334, "name": "9ceb867bd18de1ea00efbd9d9da998fb", "is_reserved": 0, "is_disabled": 0}, {"lat": 38.901251, "fusion_lat": 0.0, "type": "electric_scooter", "bike_id": "1f2de1dc110d54f0b1bf303edbc1244c", "rental_uris": {"ios": "https://dc.lft.to/lastmile_qr_scan", "android": "https://dc.lft.to/lastmile_qr_scan"}, "fusion_lon": 0.0, "lon": -77.01664166666667, "name": "1f2de1dc110d54f0b1bf303edbc1244c", "is_reserved": 0, "is_disabled": 0}, {"lat": 38.8923485, "fusion_lat": 0.0, "type": "electric_scooter", "bike_id": "f71e4cd67ae44ff750032f696daf8200", "rental_uris": {"ios": "https://dc.lft.to/lastmile_qr_scan", "android": "https://dc.lft.to/lastmile_qr_scan"}, "fusion_lon": 0.0, "lon": -77.04658533333334, "name": "f71e4cd67ae44ff750032f696daf8200", "is_reserved": 0, "is_disabled": 0}, {"lat": 38.922043333333335, "fusion_lat": 0.0, "type": "electric_scooter", "bike_id": "2f1ea9dd05071983f602e48f32986119", "rental_uris": {"ios": "https://dc.lft.to/lastmile_qr_scan", "android": "https://dc.lft.to/lastmile_qr_scan"}, "fusion_lon": 0.0, "lon": -77.03652566666666, "name": "2f1ea9dd05071983f602e48f32986119", "is_reserved": 0, "is_disabled": 0}, {"lat": 38.92130066666667, "fusion_lat": 0.0, "type": "electric_scooter", "bike_id": "ce8d0ceb402067247836b92badb2a0d4", "rental_uris": {"ios": "https://dc.lft.to/lastmile_qr_scan", "android": "https://dc.lft.to/lastmile_qr_scan"}, "fusion_lon": 0.0, "lon": -77.04124583333333, "name": "ce8d0ceb402067247836b92badb2a0d4", "is_reserved": 0, "is_disabled": 0}, {"lat": 38.903916, "fusion_lat": 0.0, "type": "electric_scooter", "bike_id": "3d1bcf5ce5a59de02448dd7166af4e63", "rental_uris": {"ios": "https://dc.lft.to/lastmile_qr_scan", "android": "https://dc.lft.to/lastmile_qr_scan"}, "fusion_lon": 0.0, "lon": -77.0630245, "name": "3d1bcf5ce5a59de02448dd7166af4e63", "is_reserved": 0, "is_disabled": 0}, {"lat": 38.935573, "fusion_lat": 0.0, "type": "electric_scooter", "bike_id": "4d25a6877275cab9ca30c4ead27e4956", "rental_uris": {"ios": "https://dc.lft.to/lastmile_qr_scan", "android": "https://dc.lft.to/lastmile_qr_scan"}, "fusion_lon": 0.0, "lon": -77.0746485, "name": "4d25a6877275cab9ca30c4ead27e4956", "is_reserved": 0, "is_disabled": 0}, {"lat": 38.9086645, "fusion_lat": 0.0, "type": "electric_scooter", "bike_id": "faec620d82c86cd96a67974cf7c54bbe", "rental_uris": {"ios": "https://dc.lft.to/lastmile_qr_scan", "android": "https://dc.lft.to/lastmile_qr_scan"}, "fusion_lon": 0.0, "lon": -77.03221566666667, "name": "faec620d82c86cd96a67974cf7c54bbe", "is_reserved": 0, "is_disabled": 0}, {"lat": 38.89000516666667, "fusion_lat": 0.0, "type": "electric_scooter", "bike_id": "effda7365d63a99aad996757d681d9b2", "rental_uris": {"ios": "https://dc.lft.to/lastmile_qr_scan", "android": "https://dc.lft.to/lastmile_qr_scan"}, "fusion_lon": 0.0, "lon": -76.97734433333333, "name": "effda7365d63a99aad996757d681d9b2", "is_reserved": 0, "is_disabled": 0}, {"lat": 38.899594, "fusion_lat": 0.0, "type": "electric_scooter", "bike_id": "38fd1adb5c9ecc6e91f83d68f9e14bc8", "rental_uris": {"ios": "https://dc.lft.to/lastmile_qr_scan", "android": "https://dc.lft.to/lastmile_qr_scan"}, "fusion_lon": 0.0, "lon": -77.0466305, "name": "38fd1adb5c9ecc6e91f83d68f9e14bc8", "is_reserved": 0, "is_disabled": 0}, {"lat": 38.90531466666667, "fusion_lat": 0.0, "type": "electric_scooter", "bike_id": "00dacdf0c2816dd4acf5e08a46e31d39", "rental_uris": {"ios": "https://dc.lft.to/lastmile_qr_scan", "android": "https://dc.lft.to/lastmile_qr_scan"}, "fusion_lon": 0.0, "lon": -77.04987916666667, "name": "00dacdf0c2816dd4acf5e08a46e31d39", "is_reserved": 0, "is_disabled": 0}, {"lat": 38.922337166666665, "fusion_lat": 0.0, "type": "electric_scooter", "bike_id": "2f8c862518edeb69ec50b73c34a7960d", "rental_uris": {"ios": "https://dc.lft.to/lastmile_qr_scan", "android": "https://dc.lft.to/lastmile_qr_scan"}, "fusion_lon": 0.0, "lon": -77.01821866666667, "name": "2f8c862518edeb69ec50b73c34a7960d", "is_reserved": 0, "is_disabled": 0}, {"lat": 38.90131066666667, "fusion_lat": 0.0, "type": "electric_scooter", "bike_id": "7b1fa9e9b6f61675252a5a58c5954e14", "rental_uris": {"ios": "https://dc.lft.to/lastmile_qr_scan", "android": "https://dc.lft.to/lastmile_qr_scan"}, "fusion_lon": 0.0, "lon": -77.0500115, "name": "7b1fa9e9b6f61675252a5a58c5954e14", "is_reserved": 0, "is_disabled": 0}, {"lat": 38.90194433333333, "fusion_lat": 0.0, "type": "electric_scooter", "bike_id": "81644fe38c34ddb447319cba2ecb894d", "rental_uris": {"ios": "https://dc.lft.to/lastmile_qr_scan", "android": "https://dc.lft.to/lastmile_qr_scan"}, "fusion_lon": 0.0, "lon": -76.98206566666667, "name": "81644fe38c34ddb447319cba2ecb894d", "is_reserved": 0, "is_disabled": 0}, {"lat": 38.91718483333333, "fusion_lat": 0.0, "type": "electric_scooter", "bike_id": "6b1f7f0becebf43eb3fd83ed51b6e5fb", "rental_uris": {"ios": "https://dc.lft.to/lastmile_qr_scan", "android": "https://dc.lft.to/lastmile_qr_scan"}, "fusion_lon": 0.0, "lon": -76.9728485, "name": "6b1f7f0becebf43eb3fd83ed51b6e5fb", "is_reserved": 0, "is_disabled": 0}, {"lat": 38.9047485, "fusion_lat": 0.0, "type": "electric_scooter", "bike_id": "48124b758912b79a7e0ae4268d9934c3", "rental_uris": {"ios": "https://dc.lft.to/lastmile_qr_scan", "android": "https://dc.lft.to/lastmile_qr_scan"}, "fusion_lon": 0.0, "lon": -77.0484955, "name": "48124b758912b79a7e0ae4268d9934c3", "is_reserved": 0, "is_disabled": 0}, {"lat": 38.94264583333333, "fusion_lat": 0.0, "type": "electric_bike", "bike_id": "837ae774f2fbf3f42d0d3ae1378a66b3", "rental_uris": {"ios": "https://dc.lft.to/lastmile_qr_scan", "android": "https://dc.lft.to/lastmile_qr_scan"}, "fusion_lon": 0.0, "lon": -76.99072716666667, "name": "837ae774f2fbf3f42d0d3ae1378a66b3", "is_reserved": 0, "is_disabled": 0}, {"lat": 38.90972166666667, "fusion_lat": 0.0, "type": "electric_scooter", "bike_id": "13b7756a3206962e78f8207510d8ada4", "rental_uris": {"ios": "https://dc.lft.to/lastmile_qr_scan", "android": "https://dc.lft.to/lastmile_qr_scan"}, "fusion_lon": 0.0, "lon": -77.038683, "name": "13b7756a3206962e78f8207510d8ada4", "is_reserved": 0, "is_disabled": 0}, {"lat": 38.909575833333335, "fusion_lat": 0.0, "type": "electric_scooter", "bike_id": "a7fa9363e27689d08cd3b92b2a4583c2", "rental_uris": {"ios": "https://dc.lft.to/lastmile_qr_scan", "android": "https://dc.lft.to/lastmile_qr_scan"}, "fusion_lon": 0.0, "lon": -77.0464705, "name": "a7fa9363e27689d08cd3b92b2a4583c2", "is_reserved": 0, "is_disabled": 0}, {"lat": 38.896511333333336, "fusion_lat": 0.0, "type": "electric_scooter", "bike_id": "0d4308b6ae66f0ae20b6393784c8fbdd", "rental_uris": {"ios": "https://dc.lft.to/lastmile_qr_scan", "android": "https://dc.lft.to/lastmile_qr_scan"}, "fusion_lon": 0.0, "lon": -77.00918283333333, "name": "0d4308b6ae66f0ae20b6393784c8fbdd", "is_reserved": 0, "is_disabled": 0}, {"lat": 38.940862333333335, "fusion_lat": 0.0, "type": "electric_scooter", "bike_id": "b851dc01633e704c9fe225d2ae360090", "rental_uris": {"ios": "https://dc.lft.to/lastmile_qr_scan", "android": "https://dc.lft.to/lastmile_qr_scan"}, "fusion_lon": 0.0, "lon": -77.02545983333333, "name": "b851dc01633e704c9fe225d2ae360090", "is_reserved": 0, "is_disabled": 0}, {"lat": 38.92344816666667, "fusion_lat": 0.0, "type": "electric_scooter", "bike_id": "283b99c8951485b269034dba4e2387a3", "rental_uris": {"ios": "https://dc.lft.to/lastmile_qr_scan", "android": "https://dc.lft.to/lastmile_qr_scan"}, "fusion_lon": 0.0, "lon": -77.051789, "name": "283b99c8951485b269034dba4e2387a3", "is_reserved": 0, "is_disabled": 0}, {"lat": 38.884117833333335, "fusion_lat": 0.0, "type": "electric_scooter", "bike_id": "e838dd6771bb9becd49284e8bee6952c", "rental_uris": {"ios": "https://dc.lft.to/lastmile_qr_scan", "android": "https://dc.lft.to/lastmile_qr_scan"}, "fusion_lon": 0.0, "lon": -77.02558133333334, "name": "e838dd6771bb9becd49284e8bee6952c", "is_reserved": 0, "is_disabled": 0}, {"lat": 38.90651316666667, "fusion_lat": 0.0, "type": "electric_scooter", "bike_id": "352319c2a55b4217100598994c3d3f2b", "rental_uris": {"ios": "https://dc.lft.to/lastmile_qr_scan", "android": "https://dc.lft.to/lastmile_qr_scan"}, "fusion_lon": 0.0, "lon": -77.038664, "name": "352319c2a55b4217100598994c3d3f2b", "is_reserved": 0, "is_disabled": 0}, {"lat": 38.892306166666664, "fusion_lat": 0.0, "type": "electric_scooter", "bike_id": "086a6389c1e93573046fe543f4cb8ea5", "rental_uris": {"ios": "https://dc.lft.to/lastmile_qr_scan", "android": "https://dc.lft.to/lastmile_qr_scan"}, "fusion_lon": 0.0, "lon": -77.04663066666667, "name": "086a6389c1e93573046fe543f4cb8ea5", "is_reserved": 0, "is_disabled": 0}, {"lat": 38.9543985, "fusion_lat": 0.0, "type": "electric_scooter", "bike_id": "8f1ecd01d0eb5f433c53be217eb1c7a9", "rental_uris": {"ios": "https://dc.lft.to/lastmile_qr_scan", "android": "https://dc.lft.to/lastmile_qr_scan"}, "fusion_lon": 0.0, "lon": -77.01858616666667, "name": "8f1ecd01d0eb5f433c53be217eb1c7a9", "is_reserved": 0, "is_disabled": 0}, {"lat": 38.8461425, "fusion_lat": 0.0, "type": "electric_bike", "bike_id": "817d9368141825e9f444da8f4e177703", "rental_uris": {"ios": "https://dc.lft.to/lastmile_qr_scan", "android": "https://dc.lft.to/lastmile_qr_scan"}, "fusion_lon": 0.0, "lon": -76.96918233333334, "name": "817d9368141825e9f444da8f4e177703", "is_reserved": 0, "is_disabled": 0}, {"lat": 38.89851216666667, "fusion_lat": 0.0, "type": "electric_scooter", "bike_id": "a9bc0dfc2cb8907076ede92f9557daca", "rental_uris": {"ios": "https://dc.lft.to/lastmile_qr_scan", "android": "https://dc.lft.to/lastmile_qr_scan"}, "fusion_lon": 0.0, "lon": -77.04121233333333, "name": "a9bc0dfc2cb8907076ede92f9557daca", "is_reserved": 0, "is_disabled": 0}, {"lat": 38.94104316666667, "fusion_lat": 0.0, "type": "electric_scooter", "bike_id": "1c4cfcffa4e306101926c5384a9e9344", "rental_uris": {"ios": "https://dc.lft.to/lastmile_qr_scan", "android": "https://dc.lft.to/lastmile_qr_scan"}, "fusion_lon": 0.0, "lon": -77.02650266666667, "name": "1c4cfcffa4e306101926c5384a9e9344", "is_reserved": 0, "is_disabled": 0}, {"lat": 38.9241545, "fusion_lat": 0.0, "type": "electric_scooter", "bike_id": "049532f919e7318e6b7a124926cd3deb", "rental_uris": {"ios": "https://dc.lft.to/lastmile_qr_scan", "android": "https://dc.lft.to/lastmile_qr_scan"}, "fusion_lon": 0.0, "lon": -77.0200865, "name": "049532f919e7318e6b7a124926cd3deb", "is_reserved": 0, "is_disabled": 0}, {"lat": 38.89974816666667, "fusion_lat": 0.0, "type": "electric_scooter", "bike_id": "ebb2ede7a5decd0836b2dc005d6f41ee", "rental_uris": {"ios": "https://dc.lft.to/lastmile_qr_scan", "android": "https://dc.lft.to/lastmile_qr_scan"}, "fusion_lon": 0.0, "lon": -77.0227855, "name": "ebb2ede7a5decd0836b2dc005d6f41ee", "is_reserved": 0, "is_disabled": 0}, {"lat": 38.929712333333335, "fusion_lat": 0.0, "type": "electric_scooter", "bike_id": "721eef894964b4211288eb1c54d74832", "rental_uris": {"ios": "https://dc.lft.to/lastmile_qr_scan", "android": "https://dc.lft.to/lastmile_qr_scan"}, "fusion_lon": 0.0, "lon": -77.02822133333333, "name": "721eef894964b4211288eb1c54d74832", "is_reserved": 0, "is_disabled": 0}, {"lat": 38.892187166666666, "fusion_lat": 0.0, "type": "electric_scooter", "bike_id": "fd5f3d95902a4e9148f3b5a816efa5d1", "rental_uris": {"ios": "https://dc.lft.to/lastmile_qr_scan", "android": "https://dc.lft.to/lastmile_qr_scan"}, "fusion_lon": 0.0, "lon": -77.0432695, "name": "fd5f3d95902a4e9148f3b5a816efa5d1", "is_reserved": 0, "is_disabled": 0}, {"lat": 38.89477, "fusion_lat": 0.0, "type": "electric_scooter", "bike_id": "3a17efb443179e7311772bfb3d688e7c", "rental_uris": {"ios": "https://dc.lft.to/lastmile_qr_scan", "android": "https://dc.lft.to/lastmile_qr_scan"}, "fusion_lon": 0.0, "lon": -76.98600883333333, "name": "3a17efb443179e7311772bfb3d688e7c", "is_reserved": 0, "is_disabled": 0}, {"lat": 38.90958466666667, "fusion_lat": 0.0, "type": "electric_scooter", "bike_id": "168d65fdba7927435f23411315ccbce9", "rental_uris": {"ios": "https://dc.lft.to/lastmile_qr_scan", "android": "https://dc.lft.to/lastmile_qr_scan"}, "fusion_lon": 0.0, "lon": -77.0343265, "name": "168d65fdba7927435f23411315ccbce9", "is_reserved": 0, "is_disabled": 0}, {"lat": 38.994899333333336, "fusion_lat": 0.0, "type": "electric_bike", "bike_id": "e1f48fcd8a5a8abfe7e919642ee8fccb", "rental_uris": {"ios": "https://dc.lft.to/lastmile_qr_scan", "android": "https://dc.lft.to/lastmile_qr_scan"}, "fusion_lon": 0.0, "lon": -77.077864, "name": "e1f48fcd8a5a8abfe7e919642ee8fccb", "is_reserved": 0, "is_disabled": 0}, {"lat": 38.89917366666667, "fusion_lat": 0.0, "type": "electric_scooter", "bike_id": "632aa7c11a58819683edd7da539bff0f", "rental_uris": {"ios": "https://dc.lft.to/lastmile_qr_scan", "android": "https://dc.lft.to/lastmile_qr_scan"}, "fusion_lon": 0.0, "lon": -77.01381, "name": "632aa7c11a58819683edd7da539bff0f", "is_reserved": 0, "is_disabled": 0}, {"lat": 38.927368666666666, "fusion_lat": 0.0, "type": "electric_scooter", "bike_id": "f4368f406c3b5fcd23285491740c7d33", "rental_uris": {"ios": "https://dc.lft.to/lastmile_qr_scan", "android": "https://dc.lft.to/lastmile_qr_scan"}, "fusion_lon": 0.0, "lon": -77.022537, "name": "f4368f406c3b5fcd23285491740c7d33", "is_reserved": 0, "is_disabled": 0}, {"lat": 38.910269166666666, "fusion_lat": 0.0, "type": "electric_scooter", "bike_id": "4c3769bafa9af660b910637017b6f262", "rental_uris": {"ios": "https://dc.lft.to/lastmile_qr_scan", "android": "https://dc.lft.to/lastmile_qr_scan"}, "fusion_lon": 0.0, "lon": -77.0211615, "name": "4c3769bafa9af660b910637017b6f262", "is_reserved": 0, "is_disabled": 0}, {"lat": 38.93427, "fusion_lat": 0.0, "type": "electric_bike", "bike_id": "4e01d6573eed683b6deed2375dcff955", "rental_uris": {"ios": "https://dc.lft.to/lastmile_qr_scan", "android": "https://dc.lft.to/lastmile_qr_scan"}, "fusion_lon": 0.0, "lon": -77.02215016666666, "name": "4e01d6573eed683b6deed2375dcff955", "is_reserved": 0, "is_disabled": 0}, {"lat": 38.92056083333333, "fusion_lat": 0.0, "type": "electric_scooter", "bike_id": "4b5d6a3b1b44efee80ea20287b185100", "rental_uris": {"ios": "https://dc.lft.to/lastmile_qr_scan", "android": "https://dc.lft.to/lastmile_qr_scan"}, "fusion_lon": 0.0, "lon": -77.025117, "name": "4b5d6a3b1b44efee80ea20287b185100", "is_reserved": 0, "is_disabled": 0}, {"lat": 38.872353, "fusion_lat": 0.0, "type": "electric_scooter", "bike_id": "879d3c2619af8192df96991a7c301422", "rental_uris": {"ios": "https://dc.lft.to/lastmile_qr_scan", "android": "https://dc.lft.to/lastmile_qr_scan"}, "fusion_lon": 0.0, "lon": -77.00565366666666, "name": "879d3c2619af8192df96991a7c301422", "is_reserved": 0, "is_disabled": 0}, {"lat": 38.9228895, "fusion_lat": 0.0, "type": "electric_scooter", "bike_id": "d944a8f2f82820a64f5100c52d0638b9", "rental_uris": {"ios": "https://dc.lft.to/lastmile_qr_scan", "android": "https://dc.lft.to/lastmile_qr_scan"}, "fusion_lon": 0.0, "lon": -77.03666566666666, "name": "d944a8f2f82820a64f5100c52d0638b9", "is_reserved": 0, "is_disabled": 0}, {"lat": 38.93099733333333, "fusion_lat": 0.0, "type": "electric_scooter", "bike_id": "c0be1f94ac59e408d9ab2a7137065d83", "rental_uris": {"ios": "https://dc.lft.to/lastmile_qr_scan", "android": "https://dc.lft.to/lastmile_qr_scan"}, "fusion_lon": 0.0, "lon": -77.02552316666667, "name": "c0be1f94ac59e408d9ab2a7137065d83", "is_reserved": 0, "is_disabled": 0}, {"lat": 38.92337933333334, "fusion_lat": 0.0, "type": "electric_scooter", "bike_id": "5fe9c6837cf3ec47df9111c89f1ad2b3", "rental_uris": {"ios": "https://dc.lft.to/lastmile_qr_scan", "android": "https://dc.lft.to/lastmile_qr_scan"}, "fusion_lon": 0.0, "lon": -77.03536983333333, "name": "5fe9c6837cf3ec47df9111c89f1ad2b3", "is_reserved": 0, "is_disabled": 0}, {"lat": 38.921532666666664, "fusion_lat": 0.0, "type": "electric_scooter", "bike_id": "497a8e22a76a5d407d89f5067de9cc5c", "rental_uris": {"ios": "https://dc.lft.to/lastmile_qr_scan", "android": "https://dc.lft.to/lastmile_qr_scan"}, "fusion_lon": 0.0, "lon": -77.0435, "name": "497a8e22a76a5d407d89f5067de9cc5c", "is_reserved": 0, "is_disabled": 0}, {"lat": 38.9276595, "fusion_lat": 0.0, "type": "electric_scooter", "bike_id": "d72bcdbdd6b32854dd5976de0c0d1120", "rental_uris": {"ios": "https://dc.lft.to/lastmile_qr_scan", "android": "https://dc.lft.to/lastmile_qr_scan"}, "fusion_lon": 0.0, "lon": -77.02612316666666, "name": "d72bcdbdd6b32854dd5976de0c0d1120", "is_reserved": 0, "is_disabled": 0}, {"lat": 38.917981833333336, "fusion_lat": 0.0, "type": "electric_scooter", "bike_id": "6d17fdf91a99beb68a1a65021ab57081", "rental_uris": {"ios": "https://dc.lft.to/lastmile_qr_scan", "android": "https://dc.lft.to/lastmile_qr_scan"}, "fusion_lon": 0.0, "lon": -77.02703433333333, "name": "6d17fdf91a99beb68a1a65021ab57081", "is_reserved": 0, "is_disabled": 0}, {"lat": 38.90548716666667, "fusion_lat": 0.0, "type": "electric_scooter", "bike_id": "dc0a69f598d9da94a033fce8aba00253", "rental_uris": {"ios": "https://dc.lft.to/lastmile_qr_scan", "android": "https://dc.lft.to/lastmile_qr_scan"}, "fusion_lon": 0.0, "lon": -77.04690966666666, "name": "dc0a69f598d9da94a033fce8aba00253", "is_reserved": 0, "is_disabled": 0}, {"lat": 38.94200083333333, "fusion_lat": 0.0, "type": "electric_scooter", "bike_id": "00c799dbefda83fe770a7b2fe361e483", "rental_uris": {"ios": "https://dc.lft.to/lastmile_qr_scan", "android": "https://dc.lft.to/lastmile_qr_scan"}, "fusion_lon": 0.0, "lon": -77.02590716666667, "name": "00c799dbefda83fe770a7b2fe361e483", "is_reserved": 0, "is_disabled": 0}, {"lat": 38.8922625, "fusion_lat": 0.0, "type": "electric_scooter", "bike_id": "eaa52d526c0bbd9fbffee3509ca81345", "rental_uris": {"ios": "https://dc.lft.to/lastmile_qr_scan", "android": "https://dc.lft.to/lastmile_qr_scan"}, "fusion_lon": 0.0, "lon": -77.02785833333333, "name": "eaa52d526c0bbd9fbffee3509ca81345", "is_reserved": 0, "is_disabled": 0}, {"lat": 38.92884016666667, "fusion_lat": 0.0, "type": "electric_scooter", "bike_id": "6fc89a9b82c788d2011f43e3e26b6a40", "rental_uris": {"ios": "https://dc.lft.to/lastmile_qr_scan", "android": "https://dc.lft.to/lastmile_qr_scan"}, "fusion_lon": 0.0, "lon": -77.03286583333333, "name": "6fc89a9b82c788d2011f43e3e26b6a40", "is_reserved": 0, "is_disabled": 0}, {"lat": 38.891021333333335, "fusion_lat": 0.0, "type": "electric_bike", "bike_id": "e193a8d79d2b903c1c5a9fd5499a6664", "rental_uris": {"ios": "https://dc.lft.to/lastmile_qr_scan", "android": "https://dc.lft.to/lastmile_qr_scan"}, "fusion_lon": 0.0, "lon": -76.93482216666666, "name": "e193a8d79d2b903c1c5a9fd5499a6664", "is_reserved": 0, "is_disabled": 0}, {"lat": 38.92238283333333, "fusion_lat": 0.0, "type": "electric_scooter", "bike_id": "e13e30ca92f970704550ac6e67deb6a7", "rental_uris": {"ios": "https://dc.lft.to/lastmile_qr_scan", "android": "https://dc.lft.to/lastmile_qr_scan"}, "fusion_lon": 0.0, "lon": -77.07312366666666, "name": "e13e30ca92f970704550ac6e67deb6a7", "is_reserved": 0, "is_disabled": 0}, {"lat": 38.925857666666666, "fusion_lat": 0.0, "type": "electric_scooter", "bike_id": "35cd4af051bbdbc5241b279931dc88b7", "rental_uris": {"ios": "https://dc.lft.to/lastmile_qr_scan", "android": "https://dc.lft.to/lastmile_qr_scan"}, "fusion_lon": 0.0, "lon": -77.0354795, "name": "35cd4af051bbdbc5241b279931dc88b7", "is_reserved": 0, "is_disabled": 0}, {"lat": 38.88730533333333, "fusion_lat": 0.0, "type": "electric_scooter", "bike_id": "996ffca4d8433f6529f640cfd4a38b8b", "rental_uris": {"ios": "https://dc.lft.to/lastmile_qr_scan", "android": "https://dc.lft.to/lastmile_qr_scan"}, "fusion_lon": 0.0, "lon": -77.02386966666667, "name": "996ffca4d8433f6529f640cfd4a38b8b", "is_reserved": 0, "is_disabled": 0}, {"lat": 38.892009333333334, "fusion_lat": 0.0, "type": "electric_scooter", "bike_id": "45fcfcc39262aef452d50466737dc0cc", "rental_uris": {"ios": "https://dc.lft.to/lastmile_qr_scan", "android": "https://dc.lft.to/lastmile_qr_scan"}, "fusion_lon": 0.0, "lon": -77.02381633333333, "name": "45fcfcc39262aef452d50466737dc0cc", "is_reserved": 0, "is_disabled": 0},