{"data": {"bikes": [{"type": "electric_scooter", "name": "607ffadd0994b53e72bb9ae1c5942d3b", "fusion_lat": 0.0, "fusion_lon": 0.0, "lon": -77.03836416666667, "is_disabled": 0, "bike_id": "607ffadd0994b53e72bb9ae1c5942d3b", "is_reserved": 0, "rental_uris": {"android": "https://dc.lft.to/lastmile_qr_scan", "ios": "https://dc.lft.to/lastmile_qr_scan"}, "lat": 38.91496}, {"type": "electric_scooter", "name": "ae4517d12d32e768f0218631b948bd35", "fusion_lat": 0.0, "fusion_lon": 0.0, "lon": -77.04729966666666, "is_disabled": 0, "bike_id": "ae4517d12d32e768f0218631b948bd35", "is_reserved": 0, "rental_uris": {"android": "https://dc.lft.to/lastmile_qr_scan", "ios": "https://dc.lft.to/lastmile_qr_scan"}, "lat": 38.895543833333335}, {"type": "electric_scooter", "name": "82e95840dfcfc302564c9f6457d452c6", "fusion_lat": 0.0, "fusion_lon": 0.0, "lon": -77.05758533333334, "is_disabled": 0, "bike_id": "82e95840dfcfc302564c9f6457d452c6", "is_reserved": 0, "rental_uris": {"android": "https://dc.lft.to/lastmile_qr_scan", "ios": "https://dc.lft.to/lastmile_qr_scan"}, "lat": 38.924497833333334}, {"type": "electric_scooter", "name": "6c409020d3244cbec5edf97265ee9986", "fusion_lat": 0.0, "fusion_lon": 0.0, "lon": -77.0321785, "is_disabled": 0, "bike_id": "6c409020d3244cbec5edf97265ee9986", "is_reserved": 0, "rental_uris": {"android": "https://dc.lft.to/lastmile_qr_scan", "ios": "https://dc.lft.to/lastmile_qr_scan"}, "lat": 38.91834}, {"type": "electric_scooter", "name": "735d6f526a39c41c2e9b156749d44790", "fusion_lat": 0.0, "fusion_lon": 0.0, "lon": -76.99669716666666, "is_disabled": 0, "bike_id": "735d6f526a39c41c2e9b156749d44790", "is_reserved": 0, "rental_uris": {"android": "https://dc.lft.to/lastmile_qr_scan", "ios": "https://dc.lft.to/lastmile_qr_scan"}, "lat": 38.932455166666664}, {"type": "electric_scooter", "name": "a239f5a3875691f1da316d58b71df7a6", "fusion_lat": 0.0, "fusion_lon": 0.0, "lon": -77.051707, "is_disabled": 0, "bike_id": "a239f5a3875691f1da316d58b71df7a6", "is_reserved": 0, "rental_uris": {"android": "https://dc.lft.to/lastmile_qr_scan", "ios": "https://dc.lft.to/lastmile_qr_scan"}, "lat": 38.90324733333333}, {"type": "electric_scooter", "name": "a585ab807aaf18eeebd9cfb4ef1c5273", "fusion_lat": 0.0, "fusion_lon": 0.0, "lon": -77.0101515, "is_disabled": 0, "bike_id": "a585ab807aaf18eeebd9cfb4ef1c5273", "is_reserved": 0, "rental_uris": {"android": "https://dc.lft.to/lastmile_qr_scan", "ios": "https://dc.lft.to/lastmile_qr_scan"}, "lat": 38.9125625}, {"type": "electric_scooter", "name": "a825cd1df50340f5590ae63b43c9e758", "fusion_lat": 0.0, "fusion_lon": 0.0, "lon": -77.01556366666667, "is_disabled": 0, "bike_id": "a825cd1df50340f5590ae63b43c9e758", "is_reserved": 0, "rental_uris": {"android": "https://dc.lft.to/lastmile_qr_scan", "ios": "https://dc.lft.to/lastmile_qr_scan"}, "lat": 38.886}, {"type": "electric_scooter", "name": "11077ac8695f1105d186dc1f549c7b1b", "fusion_lat": 0.0, "fusion_lon": 0.0, "lon": -77.01848483333333, "is_disabled": 0, "bike_id": "11077ac8695f1105d186dc1f549c7b1b", "is_reserved": 0, "rental_uris": {"android": "https://dc.lft.to/lastmile_qr_scan", "ios": "https://dc.lft.to/lastmile_qr_scan"}, "lat": 38.90539966666667}, {"type": "electric_scooter", "name": "3a0578b3e2d2369a3bfd5ee498ef5ec8", "fusion_lat": 0.0, "fusion_lon": 0.0, "lon": -77.03195533333333, "is_disabled": 0, "bike_id": "3a0578b3e2d2369a3bfd5ee498ef5ec8", "is_reserved": 0, "rental_uris": {"android": "https://dc.lft.to/lastmile_qr_scan", "ios": "https://dc.lft.to/lastmile_qr_scan"}, "lat": 38.9307305}, {"type": "electric_scooter", "name": "0787e06ee77ae2cf903da15ec4691eb2", "fusion_lat": 0.0, "fusion_lon": 0.0, "lon": -76.931887, "is_disabled": 0, "bike_id": "0787e06ee77ae2cf903da15ec4691eb2", "is_reserved": 0, "rental_uris": {"android": "https://dc.lft.to/lastmile_qr_scan", "ios": "https://dc.lft.to/lastmile_qr_scan"}, "lat": 38.89857833333333}, {"type": "electric_scooter", "name": "bd785980d34eb6b9c8d55ca1c783171b", "fusion_lat": 0.0, "fusion_lon": 0.0, "lon": -77.06984616666666, "is_disabled": 0, "bike_id": "bd785980d34eb6b9c8d55ca1c783171b", "is_reserved": 0, "rental_uris": {"android": "https://dc.lft.to/lastmile_qr_scan", "ios": "https://dc.lft.to/lastmile_qr_scan"}, "lat": 38.95526516666666}, {"type": "electric_scooter", "name": "530c203d435b67b60980e9119f3a6e84", "fusion_lat": 0.0, "fusion_lon": 0.0, "lon": -77.0232195, "is_disabled": 0, "bike_id": "530c203d435b67b60980e9119f3a6e84", "is_reserved": 0, "rental_uris": {"android": "https://dc.lft.to/lastmile_qr_scan", "ios": "https://dc.lft.to/lastmile_qr_scan"}, "lat": 38.89732333333333}, {"type": "electric_scooter", "name": "66146b636f836f9160bf874dad80f129", "fusion_lat": 0.0, "fusion_lon": 0.0, "lon": -77.00624216666667, "is_disabled": 0, "bike_id": "66146b636f836f9160bf874dad80f129", "is_reserved": 0, "rental_uris": {"android": "https://dc.lft.to/lastmile_qr_scan", "ios": "https://dc.lft.to/lastmile_qr_scan"}, "lat": 38.871952}, {"type": "electric_scooter", "name": "66ceb04dba13bd9ccb174c9eb2ae3899", "fusion_lat": 0.0, "fusion_lon": 0.0, "lon": -77.04867166666666, "is_disabled": 0, "bike_id": "66ceb04dba13bd9ccb174c9eb2ae3899", "is_reserved": 0, "rental_uris": {"android": "https://dc.lft.to/lastmile_qr_scan", "ios": "https://dc.lft.to/lastmile_qr_scan"}, "lat": 38.91058833333334}, {"type": "electric_scooter", "name": "ad951e4e5a45b505ccb1cec2008cd2e3", "fusion_lat": 0.0, "fusion_lon": 0.0, "lon": -77.0230225, "is_disabled": 0, "bike_id": "ad951e4e5a45b505ccb1cec2008cd2e3", "is_reserved": 0, "rental_uris": {"android": "https://dc.lft.to/lastmile_qr_scan", "ios": "https://dc.lft.to/lastmile_qr_scan"}, "lat": 38.91697833333333}, {"type": "electric_scooter", "name": "2062b10577244105ee4415e53a88d192", "fusion_lat": 0.0, "fusion_lon": 0.0, "lon": -77.06702283333334, "is_disabled": 0, "bike_id": "2062b10577244105ee4415e53a88d192", "is_reserved": 0, "rental_uris": {"android": "https://dc.lft.to/lastmile_qr_scan", "ios": "https://dc.lft.to/lastmile_qr_scan"}, "lat": 38.95020066666667}, {"type": "electric_scooter", "name": "ff94e793bea9707ae7a17d5370b296f4", "fusion_lat": 0.0, "fusion_lon": 0.0, "lon": -76.983739, "is_disabled": 0, "bike_id": "ff94e793bea9707ae7a17d5370b296f4", "is_reserved": 0, "rental_uris": {"android": "https://dc.lft.to/lastmile_qr_scan", "ios": "https://dc.lft.to/lastmile_qr_scan"}, "lat": 38.89143133333334}, {"type": "electric_bike", "name": "e582c9e0bdea8c65846a315d88a5e6d3", "fusion_lat": 0.0, "fusion_lon": 0.0, "lon": -77.11415383333333, "is_disabled": 0, "bike_id": "e582c9e0bdea8c65846a315d88a5e6d3", "is_reserved": 0, "rental_uris": {"android": "https://dc.lft.to/lastmile_qr_scan", "ios": "https://dc.lft.to/lastmile_qr_scan"}, "lat": 38.8732085}, {"type": "electric_scooter", "name": "7066400bd068b00ba23698f8aa38ecc4", "fusion_lat": 0.0, "fusion_lon": 0.0, "lon": -77.04858816666666, "is_disabled": 0, "bike_id": "7066400bd068b00ba23698f8aa38ecc4", "is_reserved": 0, "rental_uris": {"android": "https://dc.lft.to/lastmile_qr_scan", "ios": "https://dc.lft.to/lastmile_qr_scan"}, "lat": 38.9126795}, {"type": "electric_scooter", "name": "5dd0c7dc8724bcd196ac234af6c22dc1", "fusion_lat": 0.0, "fusion_lon": 0.0, "lon": -77.03347216666667, "is_disabled": 0, "bike_id": "5dd0c7dc8724bcd196ac234af6c22dc1", "is_reserved": 0, "rental_uris": {"android": "https://dc.lft.to/lastmile_qr_scan", "ios": "https://dc.lft.to/lastmile_qr_scan"}, "lat": 38.923450333333335}, {"type": "electric_scooter", "name": "04132d42be7a1fc7b186dd42203f2452", "fusion_lat": 0.0, "fusion_lon": 0.0, "lon": -77.02180433333334, "is_disabled": 0, "bike_id": "04132d42be7a1fc7b186dd42203f2452", "is_reserved": 0, "rental_uris": {"android": "https://dc.lft.to/lastmile_qr_scan", "ios": "https://dc.lft.to/lastmile_qr_scan"}, "lat": 38.9054555}, {"type": "electric_scooter", "name": "f7153a384e0e4e83b7857f5a3a1ea764", "fusion_lat": 0.0, "fusion_lon": 0.0, "lon": -76.983345, "is_disabled": 0, "bike_id": "f7153a384e0e4e83b7857f5a3a1ea764", "is_reserved": 0, "rental_uris": {"android": "https://dc.lft.to/lastmile_qr_scan", "ios": "https://dc.lft.to/lastmile_qr_scan"}, "lat": 38.89544083333333}, {"type": "electric_bike", "name": "5e03101b691240ae747729c0adbe4c1a", "fusion_lat": 0.0, "fusion_lon": 0.0, "lon": -76.984188, "is_disabled": 0, "bike_id": "5e03101b691240ae747729c0adbe4c1a", "is_reserved": 0, "rental_uris": {"android": "https://dc.lft.to/lastmile_qr_scan", "ios": "https://dc.lft.to/lastmile_qr_scan"}, "lat": 38.855207}, {"type": "electric_scooter", "name": "fd771d794f34ca3516a2982516a5ab22", "fusion_lat": 0.0, "fusion_lon": 0.0, "lon": -77.03667816666666, "is_disabled": 0, "bike_id": "fd771d794f34ca3516a2982516a5ab22", "is_reserved": 0, "rental_uris": {"android": "https://dc.lft.to/lastmile_qr_scan", "ios": "https://dc.lft.to/lastmile_qr_scan"}, "lat": 38.92329983333333}, {"type": "electric_scooter", "name": "d4aaaa17c1ca774e2971f87ad7bae736", "fusion_lat": 0.0, "fusion_lon": 0.0, "lon": -77.01785066666666, "is_disabled": 0, "bike_id": "d4aaaa17c1ca774e2971f87ad7bae736", "is_reserved": 0, "rental_uris": {"android": "https://dc.lft.to/lastmile_qr_scan", "ios": "https://dc.lft.to/lastmile_qr_scan"}, "lat": 38.9199385}, {"type": "electric_scooter", "name": "a194e5abf493fa96a49fea55ba1c5a25", "fusion_lat": 0.0, "fusion_lon": 0.0, "lon": -77.00345533333333, "is_disabled": 0, "bike_id": "a194e5abf493fa96a49fea55ba1c5a25", "is_reserved": 0, "rental_uris": {"android": "https://dc.lft.to/lastmile_qr_scan", "ios": "https://dc.lft.to/lastmile_qr_scan"}, "lat": 38.916246666666666}, {"type": "electric_scooter", "name": "5b971e839bace172de39b0de210383d1", "fusion_lat": 0.0, "fusion_lon": 0.0, "lon": -77.0180225, "is_disabled": 0, "bike_id": "5b971e839bace172de39b0de210383d1", "is_reserved": 0, "rental_uris": {"android": "https://dc.lft.to/lastmile_qr_scan", "ios": "https://dc.lft.to/lastmile_qr_scan"}, "lat": 38.919472}, {"type": "electric_scooter", "name": "56369218c0fe0ea34236201d65fa2309", "fusion_lat": 0.0, "fusion_lon": 0.0, "lon": -77.05005966666667, "is_disabled": 0, "bike_id": "56369218c0fe0ea34236201d65fa2309", "is_reserved": 0, "rental_uris": {"android": "https://dc.lft.to/lastmile_qr_scan", "ios": "https://dc.lft.to/lastmile_qr_scan"}, "lat": 38.906280833333334}, {"type": "electric_scooter", "name": "c8e8e7755cfa5525643341b727a57120", "fusion_lat": 0.0, "fusion_lon": 0.0, "lon": -77.02205966666666, "is_disabled": 0, "bike_id": "c8e8e7755cfa5525643341b727a57120", "is_reserved": 0, "rental_uris": {"android": "https://dc.lft.to/lastmile_qr_scan", "ios": "https://dc.lft.to/lastmile_qr_scan"}, "lat": 38.91439883333334}, {"type": "electric_scooter", "name": "42f57c22f3b059e7c247cab002d69051", "fusion_lat": 0.0, "fusion_lon": 0.0, "lon": -77.04326633333334, "is_disabled": 0, "bike_id": "42f57c22f3b059e7c247cab002d69051", "is_reserved": 0, "rental_uris": {"android": "https://dc.lft.to/lastmile_qr_scan", "ios": "https://dc.lft.to/lastmile_qr_scan"}, "lat": 38.934137}, {"type": "electric_scooter", "name": "aaa5efde930d95b1be95bee1951ed1ac", "fusion_lat": 0.0, "fusion_lon": 0.0, "lon": -77.05035766666667, "is_disabled": 0, "bike_id": "aaa5efde930d95b1be95bee1951ed1ac", "is_reserved": 0, "rental_uris": {"android": "https://dc.lft.to/lastmile_qr_scan", "ios": "https://dc.lft.to/lastmile_qr_scan"}, "lat": 38.90207216666667}, {"type": "electric_scooter", "name": "aed7af9aea1bcba35adccf3beb8bfd14", "fusion_lat": 0.0, "fusion_lon": 0.0, "lon": -77.02175783333334, "is_disabled": 0, "bike_id": "aed7af9aea1bcba35adccf3beb8bfd14", "is_reserved": 0, "rental_uris": {"android": "https://dc.lft.to/lastmile_qr_scan", "ios": "https://dc.lft.to/lastmile_qr_scan"}, "lat": 38.911114166666664}, {"type": "electric_scooter", "name": "9a97e5d99cca86d4adfcf3ebe4e241b3", "fusion_lat": 0.0, "fusion_lon": 0.0, "lon": -77.036058, "is_disabled": 0, "bike_id": "9a97e5d99cca86d4adfcf3ebe4e241b3", "is_reserved": 0, "rental_uris": {"android": "https://dc.lft.to/lastmile_qr_scan", "ios": "https://dc.lft.to/lastmile_qr_scan"}, "lat": 38.934856333333336}, {"type": "electric_bike", "name": "6952bf9eb3ddc73cb11b3389972955b7", "fusion_lat": 0.0, "fusion_lon": 0.0, "lon": -76.9939995, "is_disabled": 0, "bike_id": "6952bf9eb3ddc73cb11b3389972955b7", "is_reserved": 0, "rental_uris": {"android": "https://dc.lft.to/lastmile_qr_scan", "ios": "https://dc.lft.to/lastmile_qr_scan"}, "lat": 38.910062333333336}, {"type": "electric_scooter", "name": "d6e41d7de2e2a5aff3fc5bc3bc35d0b5", "fusion_lat": 0.0, "fusion_lon": 0.0, "lon": -77.0326615, "is_disabled": 0, "bike_id": "d6e41d7de2e2a5aff3fc5bc3bc35d0b5", "is_reserved": 0, "rental_uris": {"android": "https://dc.lft.to/lastmile_qr_scan", "ios": "https://dc.lft.to/lastmile_qr_scan"}, "lat": 38.933103833333334}, {"type": "electric_scooter", "name": "a81f3a9a733271cf40e178573237732b", "fusion_lat": 0.0, "fusion_lon": 0.0, "lon": -77.02185433333334, "is_disabled": 0, "bike_id": "a81f3a9a733271cf40e178573237732b", "is_reserved": 0, "rental_uris": {"android": "https://dc.lft.to/lastmile_qr_scan", "ios": "https://dc.lft.to/lastmile_qr_scan"}, "lat": 38.914852833333335}, {"type": "electric_bike", "name": "ff09657edc19b331ceb18a3b2b872b53", "fusion_lat": 0.0, "fusion_lon": 0.0, "lon": -77.23408433333333, "is_disabled": 0, "bike_id": "ff09657edc19b331ceb18a3b2b872b53", "is_reserved": 0, "rental_uris": {"android": "https://dc.lft.to/lastmile_qr_scan", "ios": "https://dc.lft.to/lastmile_qr_scan"}, "lat": 38.875811}, {"type": "electric_scooter", "name": "67d736e038540862fbbc005c96be6a18", "fusion_lat": 0.0, "fusion_lon": 0.0, "lon": -77.0315805, "is_disabled": 0, "bike_id": "67d736e038540862fbbc005c96be6a18", "is_reserved": 0, "rental_uris": {"android": "https://dc.lft.to/lastmile_qr_scan", "ios": "https://dc.lft.to/lastmile_qr_scan"}, "lat": 38.91616616666667}, {"type": "electric_scooter", "name": "b0618abbacd2c497f2b34686c1f527ec", "fusion_lat": 0.0, "fusion_lon": 0.0, "lon": -77.07345033333333, "is_disabled": 0, "bike_id": "b0618abbacd2c497f2b34686c1f527ec", "is_reserved": 0, "rental_uris": {"android": "https://dc.lft.to/lastmile_qr_scan", "ios": "https://dc.lft.to/lastmile_qr_scan"}, "lat": 38.94329583333333}, {"type": "electric_scooter", "name": "ad85a495448f79763e643ab0468d33ca", "fusion_lat": 0.0, "fusion_lon": 0.0, "lon": -77.038458, "is_disabled": 0, "bike_id": "ad85a495448f79763e643ab0468d33ca", "is_reserved": 0, "rental_uris": {"android": "https://dc.lft.to/lastmile_qr_scan", "ios": "https://dc.lft.to/lastmile_qr_scan"}, "lat": 38.9155125}, {"type": "electric_scooter", "name": "40d284baec931f0874d34473dc56061e", "fusion_lat": 0.0, "fusion_lon": 0.0, "lon": -76.96531666666667, "is_disabled": 0, "bike_id": "40d284baec931f0874d34473dc56061e", "is_reserved": 0, "rental_uris": {"android": "https://dc.lft.to/lastmile_qr_scan", "ios": "https://dc.lft.to/lastmile_qr_scan"}, "lat": 38.876267166666665}, {"type": "electric_scooter", "name": "550ea7f0f371f8b7306f80b1274fd6e1", "fusion_lat": 0.0, "fusion_lon": 0.0, "lon": -77.0666085, "is_disabled": 0, "bike_id": "550ea7f0f371f8b7306f80b1274fd6e1", "is_reserved": 0, "rental_uris": {"android": "https://dc.lft.to/lastmile_qr_scan", "ios": "https://dc.lft.to/lastmile_qr_scan"}, "lat": 38.95066466666667}, {"type": "electric_scooter", "name": "969bbda3e0d4800ae9d02f7552a79ed7", "fusion_lat": 0.0, "fusion_lon": 0.0, "lon": -77.02219733333334, "is_disabled": 0, "bike_id": "969bbda3e0d4800ae9d02f7552a79ed7", "is_reserved": 0, "rental_uris": {"android": "https://dc.lft.to/lastmile_qr_scan", "ios": "https://dc.lft.to/lastmile_qr_scan"}, "lat": 38.89782916666667}, {"type": "electric_scooter", "name": "dc5603697c6af2dfb74e9de0b5970d68", "fusion_lat": 0.0, "fusion_lon": 0.0, "lon": -76.94700216666666, "is_disabled": 0, "bike_id": "dc5603697c6af2dfb74e9de0b5970d68", "is_reserved": 0, "rental_uris": {"android": "https://dc.lft.to/lastmile_qr_scan", "ios": "https://dc.lft.to/lastmile_qr_scan"}, "lat": 38.8973455}, {"type": "electric_bike", "name": "cb737eee0755353f54eb38f46c9d3e52", "fusion_lat": 0.0, "fusion_lon": 0.0, "lon": -77.0451085, "is_disabled": 0, "bike_id": "cb737eee0755353f54eb38f46c9d3e52", "is_reserved": 0, "rental_uris": {"android": "https://dc.lft.to/lastmile_qr_scan", "ios": "https://dc.lft.to/lastmile_qr_scan"}, "lat": 39.0211565}, {"type": "electric_scooter", "name": "3eb22b27fcf4bc3d2294e09937ad8956", "fusion_lat": 0.0, "fusion_lon": 0.0, "lon": -77.0321235, "is_disabled": 0, "bike_id": "3eb22b27fcf4bc3d2294e09937ad8956", "is_reserved": 0, "rental_uris": {"android": "https://dc.lft.to/lastmile_qr_scan", "ios": "https://dc.lft.to/lastmile_qr_scan"}, "lat": 38.918446833333334}, {"type": "electric_scooter", "name": "c70a6799d773e11b785e154575ba82f5", "fusion_lat": 0.0, "fusion_lon": 0.0, "lon": -77.03187833333334, "is_disabled": 0, "bike_id": "c70a6799d773e11b785e154575ba82f5", "is_reserved": 0, "rental_uris": {"android": "https://dc.lft.to/lastmile_qr_scan", "ios": "https://dc.lft.to/lastmile_qr_scan"}, "lat": 38.9181935}, {"type": "electric_scooter", "name": "0c142f269ea63b4fac721f783d8cf339", "fusion_lat": 0.0, "fusion_lon": 0.0, "lon": -77.04871, "is_disabled": 0, "bike_id": "0c142f269ea63b4fac721f783d8cf339", "is_reserved": 0, "rental_uris": {"android": "https://dc.lft.to/lastmile_qr_scan", "ios": "https://dc.lft.to/lastmile_qr_scan"}, "lat": 38.90075016666667}, {"type": "electric_scooter", "name": "f4ba4614ee890280d2df8670a75c7da5", "fusion_lat": 0.0, "fusion_lon": 0.0, "lon": -77.03805966666667, "is_disabled": 0, "bike_id": "f4ba4614ee890280d2df8670a75c7da5", "is_reserved": 0, "rental_uris": {"android": "https://dc.lft.to/lastmile_qr_scan", "ios": "https://dc.lft.to/lastmile_qr_scan"}, "lat": 38.9105445}, {"type": "electric_scooter", "name": "a207e01df8e163eef222a6f5de99b8f9", "fusion_lat": 0.0, "fusion_lon": 0.0, "lon": -77.03854733333333, "is_disabled": 0, "bike_id": "a207e01df8e163eef222a6f5de99b8f9", "is_reserved": 0, "rental_uris": {"android": "https://dc.lft.to/lastmile_qr_scan", "ios": "https://dc.lft.to/lastmile_qr_scan"}, "lat": 38.91964983333333}, {"type": "electric_bike", "name": "aac344fbe006cd046d7c681bf7e9aa6e", "fusion_lat": 0.0, "fusion_lon": 0.0, "lon": -77.00246016666667, "is_disabled": 0, "bike_id": "aac344fbe006cd046d7c681bf7e9aa6e", "is_reserved": 0, "rental_uris": {"android": "https://dc.lft.to/lastmile_qr_scan", "ios": "https://dc.lft.to/lastmile_qr_scan"}, "lat": 38.838422333333334}, {"type": "electric_scooter", "name": "612cd9aeded7221fbc3260b94f0a999e", "fusion_lat": 0.0, "fusion_lon": 0.0, "lon": -77.0364585, "is_disabled": 0, "bike_id": "612cd9aeded7221fbc3260b94f0a999e", "is_reserved": 0, "rental_uris": {"android": "https://dc.lft.to/lastmile_qr_scan", "ios": "https://dc.lft.to/lastmile_qr_scan"}, "lat": 38.91737666666667}, {"type": "electric_scooter", "name": "7c5ae0802fee0e679808f05753db0f2a", "fusion_lat": 0.0, "fusion_lon": 0.0, "lon": -77.0207635, "is_disabled": 0, "bike_id": "7c5ae0802fee0e679808f05753db0f2a", "is_reserved": 0, "rental_uris": {"android": "https://dc.lft.to/lastmile_qr_scan", "ios": "https://dc.lft.to/lastmile_qr_scan"}, "lat": 38.930288166666664}, {"type": "electric_scooter", "name": "d2b6225ae8bf0ee71507975a6976289d", "fusion_lat": 0.0, "fusion_lon": 0.0, "lon": -77.0498485, "is_disabled": 0, "bike_id": "d2b6225ae8bf0ee71507975a6976289d", "is_reserved": 0, "rental_uris": {"android": "https://dc.lft.to/lastmile_qr_scan", "ios": "https://dc.lft.to/lastmile_qr_scan"}, "lat": 38.9013}, {"type": "electric_scooter", "name": "8e1b614fafc778d288520981266ec7ad", "fusion_lat": 0.0, "fusion_lon": 0.0, "lon": -76.990352, "is_disabled": 0, "bike_id": "8e1b614fafc778d288520981266ec7ad", "is_reserved": 0, "rental_uris": {"android": "https://dc.lft.to/lastmile_qr_scan", "ios": "https://dc.lft.to/lastmile_qr_scan"}, "lat": 38.88876616666667}, {"type": "electric_scooter", "name": "7b3c5bc48bcc5350907cde3f01922fad", "fusion_lat": 0.0, "fusion_lon": 0.0, "lon": -77.035062, "is_disabled": 0, "bike_id": "7b3c5bc48bcc5350907cde3f01922fad", "is_reserved": 0, "rental_uris": {"android": "https://dc.lft.to/lastmile_qr_scan", "ios": "https://dc.lft.to/lastmile_qr_scan"}, "lat": 38.921545333333334}, {"type": "electric_scooter", "name": "776707c23f37b67eca2e39af3fff79ae", "fusion_lat": 0.0, "fusion_lon": 0.0, "lon": -77.0185705, "is_disabled": 0, "bike_id": "776707c23f37b67eca2e39af3fff79ae", "is_reserved": 0, "rental_uris": {"android": "https://dc.lft.to/lastmile_qr_scan", "ios": "https://dc.lft.to/lastmile_qr_scan"}, "lat": 38.949202666666665}, {"type": "electric_bike", "name": "69fa29377412047ccd9e52e228265044", "fusion_lat": 0.0, "fusion_lon": 0.0, "lon": -77.00375166666667, "is_disabled": 0, "bike_id": "69fa29377412047ccd9e52e228265044", "is_reserved": 0, "rental_uris": {"android": "https://dc.lft.to/lastmile_qr_scan", "ios": "https://dc.lft.to/lastmile_qr_scan"}, "lat": 38.8359915}, {"type": "electric_scooter", "name": "32ed8f696a9f878d9e2a187992b65e93", "fusion_lat": 0.0, "fusion_lon": 0.0, "lon": -76.9983195, "is_disabled": 0, "bike_id": "32ed8f696a9f878d9e2a187992b65e93", "is_reserved": 0, "rental_uris": {"android": "https://dc.lft.to/lastmile_qr_scan", "ios": "https://dc.lft.to/lastmile_qr_scan"}, "lat": 38.900615}, {"type": "electric_scooter", "name": "52aeb82625d08d15efa852b462d54ae1", "fusion_lat": 0.0, "fusion_lon": 0.0, "lon": -77.01379933333334, "is_disabled": 0, "bike_id": "52aeb82625d08d15efa852b462d54ae1", "is_reserved": 0, "rental_uris": {"android": "https://dc.lft.to/lastmile_qr_scan", "ios": "https://dc.lft.to/lastmile_qr_scan"}, "lat": 38.876064166666666}, {"type": "electric_scooter", "name": "fafa0b8a9365129a7e637c5932a47b71", "fusion_lat": 0.0, "fusion_lon": 0.0, "lon": -77.03729116666666, "is_disabled": 0, "bike_id": "fafa0b8a9365129a7e637c5932a47b71", "is_reserved": 0, "rental_uris": {"android": "https://dc.lft.to/lastmile_qr_scan", "ios": "https://dc.lft.to/lastmile_qr_scan"}, "lat": 38.92027133333333}, {"type": "electric_scooter", "name": "81b7a1a9143cecbf49ddca261ad18e68", "fusion_lat": 0.0, "fusion_lon": 0.0, "lon": -76.99496616666667, "is_disabled": 0, "bike_id": "81b7a1a9143cecbf49ddca261ad18e68", "is_reserved": 0, "rental_uris": {"android": "https://dc.lft.to/lastmile_qr_scan", "ios": "https://dc.lft.to/lastmile_qr_scan"}, "lat": 38.92580366666667}, {"type": "electric_scooter", "name": "6030de233044143c0724c579b0dbfbc7", "fusion_lat": 0.0, "fusion_lon": 0.0, "lon": -76.99350383333334, "is_disabled": 0, "bike_id": "6030de233044143c0724c579b0dbfbc7", "is_reserved": 0, "rental_uris": {"android": "https://dc.lft.to/lastmile_qr_scan", "ios": "https://dc.lft.to/lastmile_qr_scan"}, "lat": 38.900163}, {"type": "electric_scooter", "name": "2b3bae84fab9026591e2db7f7da4f73a", "fusion_lat": 0.0, "fusion_lon": 0.0, "lon": -77.05865483333334, "is_disabled": 0, "bike_id": "2b3bae84fab9026591e2db7f7da4f73a", "is_reserved": 0, "rental_uris": {"android": "https://dc.lft.to/lastmile_qr_scan", "ios": "https://dc.lft.to/lastmile_qr_scan"}, "lat": 38.901538}, {"type": "electric_scooter", "name": "fc2349e5a39c9ab57f4f460569ce673f", "fusion_lat": 0.0, "fusion_lon": 0.0, "lon": -77.0281405, "is_disabled": 0, "bike_id": "fc2349e5a39c9ab57f4f460569ce673f", "is_reserved": 0, "rental_uris": {"android": "https://dc.lft.to/lastmile_qr_scan", "ios": "https://dc.lft.to/lastmile_qr_scan"}, "lat": 38.89962416666667}, {"type": "electric_bike", "name": "662041e5302d8fc222d0f8ee87731b1a", "fusion_lat": 0.0, "fusion_lon": 0.0, "lon": -76.96321833333333, "is_disabled": 0, "bike_id": "662041e5302d8fc222d0f8ee87731b1a", "is_reserved": 0, "rental_uris": {"android": "https://dc.lft.to/lastmile_qr_scan", "ios": "https://dc.lft.to/lastmile_qr_scan"}, "lat": 38.93896}, {"type": "electric_scooter", "name": "7c9bf3a0c7e88be13a87fba28b2a3ab5", "fusion_lat": 0.0, "fusion_lon": 0.0, "lon": -77.04341783333334, "is_disabled": 0, "bike_id": "7c9bf3a0c7e88be13a87fba28b2a3ab5", "is_reserved": 0, "rental_uris": {"android": "https://dc.lft.to/lastmile_qr_scan", "ios": "https://dc.lft.to/lastmile_qr_scan"}, "lat": 38.904162166666666}, {"type": "electric_scooter", "name": "41ea94c9c41268085999b34e2c3da33f", "fusion_lat": 0.0, "fusion_lon": 0.0, "lon": -77.033827, "is_disabled": 0, "bike_id": "41ea94c9c41268085999b34e2c3da33f", "is_reserved": 0, "rental_uris": {"android": "https://dc.lft.to/lastmile_qr_scan", "ios": "https://dc.lft.to/lastmile_qr_scan"}, "lat": 38.90296883333333}, {"type": "electric_scooter", "name": "14de7c3ca7b2c8ea1dad946c17278bb3", "fusion_lat": 0.0, "fusion_lon": 0.0, "lon": -77.0281505, "is_disabled": 0, "bike_id": "14de7c3ca7b2c8ea1dad946c17278bb3", "is_reserved": 0, "rental_uris": {"android": "https://dc.lft.to/lastmile_qr_scan", "ios": "https://dc.lft.to/lastmile_qr_scan"}, "lat": 38.899274}, {"type": "electric_scooter", "name": "a3c019ca903113686a30e7e3e9ba519e", "fusion_lat": 0.0, "fusion_lon": 0.0, "lon": -77.01224383333333, "is_disabled": 0, "bike_id": "a3c019ca903113686a30e7e3e9ba519e", "is_reserved": 0, "rental_uris": {"android": "https://dc.lft.to/lastmile_qr_scan", "ios": "https://dc.lft.to/lastmile_qr_scan"}, "lat": 38.915479166666664}, {"type": "electric_scooter", "name": "fe82b3248856d2d68447443a14139912", "fusion_lat": 0.0, "fusion_lon": 0.0, "lon": -77.04873733333334, "is_disabled": 0, "bike_id": "fe82b3248856d2d68447443a14139912", "is_reserved": 0, "rental_uris": {"android": "https://dc.lft.to/lastmile_qr_scan", "ios": "https://dc.lft.to/lastmile_qr_scan"}, "lat": 38.89237966666666}, {"type": "electric_scooter", "name": "6cf4ebaa2b984c53132b192d3c135a10", "fusion_lat": 0.0, "fusion_lon": 0.0, "lon": -77.02282266666667, "is_disabled": 0, "bike_id": "6cf4ebaa2b984c53132b192d3c135a10", "is_reserved": 0, "rental_uris": {"android": "https://dc.lft.to/lastmile_qr_scan", "ios": "https://dc.lft.to/lastmile_qr_scan"}, "lat": 38.926835833333335}, {"type": "electric_scooter", "name": "aff73e1b8351518d4c562be521638b58", "fusion_lat": 0.0, "fusion_lon": 0.0, "lon": -77.0333215, "is_disabled": 0, "bike_id": "aff73e1b8351518d4c562be521638b58", "is_reserved": 0, "rental_uris": {"android": "https://dc.lft.to/lastmile_qr_scan", "ios": "https://dc.lft.to/lastmile_qr_scan"}, "lat": 38.898441}, {"type": "electric_scooter", "name": "76dea482af4f32f46c79d718c250f92c", "fusion_lat": 0.0, "fusion_lon": 0.0, "lon": -77.02766833333334, "is_disabled": 0, "bike_id": "76dea482af4f32f46c79d718c250f92c", "is_reserved": 0, "rental_uris": {"android": "https://dc.lft.to/lastmile_qr_scan", "ios": "https://dc.lft.to/lastmile_qr_scan"}, "lat": 38.934627666666664}, {"type": "electric_scooter", "name": "c4d97f4f893f2c43c3e3de29e55d88e4", "fusion_lat": 0.0, "fusion_lon": 0.0, "lon": -77.03205983333334, "is_disabled": 0, "bike_id": "c4d97f4f893f2c43c3e3de29e55d88e4", "is_reserved": 0, "rental_uris": {"android": "https://dc.lft.to/lastmile_qr_scan", "ios": "https://dc.lft.to/lastmile_qr_scan"}, "lat": 38.913205}, {"type": "electric_scooter", "name": "e3ada5fbbb4948e265750da614cdc49f", "fusion_lat": 0.0, "fusion_lon": 0.0, "lon": -76.98537, "is_disabled": 0, "bike_id": "e3ada5fbbb4948e265750da614cdc49f", "is_reserved": 0, "rental_uris": {"android": "https://dc.lft.to/lastmile_qr_scan", "ios": "https://dc.lft.to/lastmile_qr_scan"}, "lat": 38.91291583333334}, {"type": "electric_scooter", "name": "829edab84da7013b74049899d5a23a78", "fusion_lat": 0.0, "fusion_lon": 0.0, "lon": -77.04332366666667, "is_disabled": 0, "bike_id": "829edab84da7013b74049899d5a23a78", "is_reserved": 0, "rental_uris": {"android": "https://dc.lft.to/lastmile_qr_scan", "ios": "https://dc.lft.to/lastmile_qr_scan"}, "lat": 38.912988}, {"type": "electric_scooter", "name": "2f36c475f2b8142af213a2830f6f6eed", "fusion_lat": 0.0, "fusion_lon": 0.0, "lon": -76.98404983333333, "is_disabled": 0, "bike_id": "2f36c475f2b8142af213a2830f6f6eed", "is_reserved": 0, "rental_uris": {"android": "https://dc.lft.to/lastmile_qr_scan", "ios": "https://dc.lft.to/lastmile_qr_scan"}, "lat": 38.8606055}, {"type": "electric_scooter", "name": "dce3164f84be8f36750922c4705918a8", "fusion_lat": 0.0, "fusion_lon": 0.0, "lon": -77.0279425, "is_disabled": 0, "bike_id": "dce3164f84be8f36750922c4705918a8", "is_reserved": 0, "rental_uris": {"android": "https://dc.lft.to/lastmile_qr_scan", "ios": "https://dc.lft.to/lastmile_qr_scan"}, "lat": 38.90112716666667}, {"type": "electric_scooter", "name": "3114ab96ccfc2977f3460abdc8e88c9a", "fusion_lat": 0.0, "fusion_lon": 0.0, "lon": -77.0318555, "is_disabled": 0, "bike_id": "3114ab96ccfc2977f3460abdc8e88c9a", "is_reserved": 0, "rental_uris": {"android": "https://dc.lft.to/lastmile_qr_scan", "ios": "https://dc.lft.to/lastmile_qr_scan"}, "lat": 38.915626}, {"type": "electric_scooter", "name": "7bc521f512a196c28f315d40ff69c238", "fusion_lat": 0.0, "fusion_lon": 0.0, "lon": -77.01225383333333, "is_disabled": 0, "bike_id": "7bc521f512a196c28f315d40ff69c238", "is_reserved": 0, "rental_uris": {"android": "https://dc.lft.to/lastmile_qr_scan", "ios": "https://dc.lft.to/lastmile_qr_scan"}, "lat": 38.91546833333334}, {"type": "electric_scooter", "name": "194edd7b39b1e7bdd11a31fc2327de2d", "fusion_lat": 0.0, "fusion_lon": 0.0, "lon": -77.063377, "is_disabled": 0, "bike_id": "194edd7b39b1e7bdd11a31fc2327de2d", "is_reserved": 0, "rental_uris": {"android": "https://dc.lft.to/lastmile_qr_scan", "ios": "https://dc.lft.to/lastmile_qr_scan"}, "lat": 38.92112383333333}, {"type": "electric_scooter", "name": "144b609e1dec9085cac1b8c5efd964c9", "fusion_lat": 0.0, "fusion_lon": 0.0, "lon": -77.04960733333333, "is_disabled": 0, "bike_id": "144b609e1dec9085cac1b8c5efd964c9", "is_reserved": 0, "rental_uris": {"android": "https://dc.lft.to/lastmile_qr_scan", "ios": "https://dc.lft.to/lastmile_qr_scan"}, "lat": 38.915942333333334}, {"type": "electric_bike", "name": "02c7a65156a3356faee5b405791669eb", "fusion_lat": 0.0, "fusion_lon": 0.0, "lon": -77.148593, "is_disabled": 0, "bike_id": "02c7a65156a3356faee5b405791669eb", "is_reserved": 0, "rental_uris": {"android": "https://dc.lft.to/lastmile_qr_scan", "ios": "https://dc.lft.to/lastmile_qr_scan"}, "lat": 38.87764033333333}, {"type": "electric_scooter", "name": "e1cf5ba52453698efead390a451a4085", "fusion_lat": 0.0, "fusion_lon": 0.0, "lon": -77.03841583333333, "is_disabled": 0, "bike_id": "e1cf5ba52453698efead390a451a4085", "is_reserved": 0, "rental_uris": {"android": "https://dc.lft.to/lastmile_qr_scan", "ios": "https://dc.lft.to/lastmile_qr_scan"}, "lat": 38.902649333333336}, {"type": "electric_scooter", "name": "a323907f88daa0d2c45839dba9d2ee6a", "fusion_lat": 0.0, "fusion_lon": 0.0, "lon": -77.03179416666667, "is_disabled": 0, "bike_id": "a323907f88daa0d2c45839dba9d2ee6a", "is_reserved": 0, "rental_uris": {"android": "https://dc.lft.to/lastmile_qr_scan", "ios": "https://dc.lft.to/lastmile_qr_scan"}, "lat": 38.92918783333333}, {"type": "electric_bike", "name": "12df7db4b617b11574fcf7e6d4080274", "fusion_lat": 0.0, "fusion_lon": 0.0, "lon": -77.1007965, "is_disabled": 0, "bike_id": "12df7db4b617b11574fcf7e6d4080274", "is_reserved": 0, "rental_uris": {"android": "https://dc.lft.to/lastmile_qr_scan", "ios": "https://dc.lft.to/lastmile_qr_scan"}, "lat": 38.85737683333333}, {"type": "electric_scooter", "name": "e48470d774fc2a65658ca4be2066fcd2", "fusion_lat": 0.0, "fusion_lon": 0.0, "lon": -76.9853415, "is_disabled": 0, "bike_id": "e48470d774fc2a65658ca4be2066fcd2", "is_reserved": 0, "rental_uris": {"android": "https://dc.lft.to/lastmile_qr_scan", "ios": "https://dc.lft.to/lastmile_qr_scan"}, "lat": 38.858527}, {"type": "electric_scooter", "name": "1944c3f55a8f1346d24f9dfadd9bfddd", "fusion_lat": 0.0, "fusion_lon": 0.0, "lon": -77.02651033333333, "is_disabled": 0, "bike_id": "1944c3f55a8f1346d24f9dfadd9bfddd", "is_reserved": 0, "rental_uris": {"android": "https://dc.lft.to/lastmile_qr_scan", "ios": "https://dc.lft.to/lastmile_qr_scan"}, "lat": 38.9025495}, {"type": "electric_scooter", "name": "63adf9b404a01f259a7d73735c859190", "fusion_lat": 0.0, "fusion_lon": 0.0, "lon": -76.99505283333333, "is_disabled": 0, "bike_id": "63adf9b404a01f259a7d73735c859190", "is_reserved": 0, "rental_uris": {"android": "https://dc.lft.to/lastmile_qr_scan", "ios": "https://dc.lft.to/lastmile_qr_scan"}, "lat": 38.882435666666666}, {"type": "electric_scooter", "name": "8d758ff44740d38af866b411fc1e797a", "fusion_lat": 0.0, "fusion_lon": 0.0, "lon": -77.004017, "is_disabled": 0, "bike_id": "8d758ff44740d38af866b411fc1e797a", "is_reserved": 0, "rental_uris": {"android": "https://dc.lft.to/lastmile_qr_scan", "ios": "https://dc.lft.to/lastmile_qr_scan"}, "lat": 38.87777333333333}, {"type": "electric_bike", "name": "9cbafcfc1fb10d96c2a11b2b14c3928b", "fusion_lat": 0.0, "fusion_lon": 0.0, "lon": -77.0962755, "is_disabled": 0, "bike_id": "9cbafcfc1fb10d96c2a11b2b14c3928b", "is_reserved": 0, "rental_uris": {"android": "https://dc.lft.to/lastmile_qr_scan", "ios": "https://dc.lft.to/lastmile_qr_scan"}, "lat": 38.952454333333336}, {"type": "electric_scooter", "name": "dbd55d3f32dc3a046bd771c4605dfbcf", "fusion_lat": 0.0, "fusion_lon": 0.0, "lon": -76.9457875, "is_disabled": 0, "bike_id": "dbd55d3f32dc3a046bd771c4605dfbcf", "is_reserved": 0, "rental_uris": {"android": "https://dc.lft.to/lastmile_qr_scan", "ios": "https://dc.lft.to/lastmile_qr_scan"}, "lat": 38.899247333333335}, {"type": "electric_scooter", "name": "5562fb8a313b1b4968b99d9ad953bc76", "fusion_lat": 0.0, "fusion_lon": 0.0, "lon": -77.02382566666667, "is_disabled": 0, "bike_id": "5562fb8a313b1b4968b99d9ad953bc76", "is_reserved": 0, "rental_uris": {"android": "https://dc.lft.to/lastmile_qr_scan", "ios": "https://dc.lft.to/lastmile_qr_scan"}, "lat": 38.8919705}, {"type": "electric_scooter", "name": "c5fd4d67d1d8db5eb952254fdfc9f0c8", "fusion_lat": 0.0, "fusion_lon": 0.0, "lon": -77.03476383333333, "is_disabled": 0, "bike_id": "c5fd4d67d1d8db5eb952254fdfc9f0c8", "is_reserved": 0, "rental_uris": {"android": "https://dc.lft.to/lastmile_qr_scan", "ios": "https://dc.lft.to/lastmile_qr_scan"}, "lat": 38.928837}, {"type": "electric_bike", "name": "31c6caeccdc3813d4dc9779ad3506f02", "fusion_lat": 0.0, "fusion_lon": 0.0, "lon": -77.12738016666667, "is_disabled": 0, "bike_id": "31c6caeccdc3813d4dc9779ad3506f02", "is_reserved": 0, "rental_uris": {"android": "https://dc.lft.to/lastmile_qr_scan", "ios": "https://dc.lft.to/lastmile_qr_scan"}, "lat": 38.89568383333334}, {"type": "electric_scooter", "name": "8e8b6071dbb312cf6d9e195b2af6b376", "fusion_lat": 0.0, "fusion_lon": 0.0, "lon": -77.02048566666667, "is_disabled": 0, "bike_id": "8e8b6071dbb312cf6d9e195b2af6b376", "is_reserved": 0, "rental_uris": {"android": "https://dc.lft.to/lastmile_qr_scan", "ios": "https://dc.lft.to/lastmile_qr_scan"}, "lat": 38.90330466666666}, {"type": "electric_scooter", "name": "d2f5727cf422958ea1d16426fd45107d", "fusion_lat": 0.0, "fusion_lon": 0.0, "lon": -77.02819383333333, "is_disabled": 0, "bike_id": "d2f5727cf422958ea1d16426fd45107d", "is_reserved": 0, "rental_uris": {"android": "https://dc.lft.to/lastmile_qr_scan", "ios": "https://dc.lft.to/lastmile_qr_scan"}, "lat": 38.899489333333335}, {"type": "electric_bike", "name": "2ead928cb5d2ad06bf0bad81515674fd", "fusion_lat": 0.0, "fusion_lon": 0.0, "lon": -77.03879833333333, "is_disabled": 0, "bike_id": "2ead928cb5d2ad06bf0bad81515674fd", "is_reserved": 0, "rental_uris": {"android": "https://dc.lft.to/lastmile_qr_scan", "ios": "https://dc.lft.to/lastmile_qr_scan"}, "lat": 39.026235666666665}, {"type": "electric_scooter", "name": "2acd814c25caa9a89aa32a598355a9ca", "fusion_lat": 0.0, "fusion_lon": 0.0, "lon": -77.02523316666667, "is_disabled": 0, "bike_id": "2acd814c25caa9a89aa32a598355a9ca", "is_reserved": 0, "rental_uris": {"android": "https://dc.lft.to/lastmile_qr_scan", "ios": "https://dc.lft.to/lastmile_qr_scan"}, "lat": 38.920910166666665}, {"type": "electric_scooter", "name": "e0ca8b670bb1d462c3f165ec9e323297", "fusion_lat": 0.0, "fusion_lon": 0.0, "lon": -77.01173233333333, "is_disabled": 0, "bike_id": "e0ca8b670bb1d462c3f165ec9e323297", "is_reserved": 0, "rental_uris": {"android": "https://dc.lft.to/lastmile_qr_scan", "ios": "https://dc.lft.to/lastmile_qr_scan"}, "lat": 38.896615833333335}, {"type": "electric_bike", "name": "cee0f0fdda88f35fa1d2db48be8d594b", "fusion_lat": 0.0, "fusion_lon": 0.0, "lon": -76.9884105, "is_disabled": 0, "bike_id": "cee0f0fdda88f35fa1d2db48be8d594b", "is_reserved": 0, "rental_uris": {"android": "https://dc.lft.to/lastmile_qr_scan", "ios": "https://dc.lft.to/lastmile_qr_scan"}, "lat": 38.842755}, {"type": "electric_scooter", "name": "4153d52bee201b99ca1e186f2022a806", "fusion_lat": 0.0, "fusion_lon": 0.0, "lon": -77.0058765, "is_disabled": 0, "bike_id": "4153d52bee201b99ca1e186f2022a806", "is_reserved": 0, "rental_uris": {"android": "https://dc.lft.to/lastmile_qr_scan", "ios": "https://dc.lft.to/lastmile_qr_scan"}, "lat": 38.90312}, {"type": "electric_scooter", "name": "6b157929711bdd2f4c60d1d703ecfb18", "fusion_lat": 0.0, "fusion_lon": 0.0, "lon": -77.03929033333333, "is_disabled": 0, "bike_id": "6b157929711bdd2f4c60d1d703ecfb18", "is_reserved": 0, "rental_uris": {"android": "https://dc.lft.to/lastmile_qr_scan", "ios": "https://dc.lft.to/lastmile_qr_scan"}, "lat": 38.91398683333333}, {"type": "electric_scooter", "name": "2db194e91576c1a08dfcd20352983881", "fusion_lat": 0.0, "fusion_lon": 0.0, "lon": -77.06299633333333, "is_disabled": 0, "bike_id": "2db194e91576c1a08dfcd20352983881", "is_reserved": 0, "rental_uris": {"android": "https://dc.lft.to/lastmile_qr_scan", "ios": "https://dc.lft.to/lastmile_qr_scan"}, "lat": 38.905981}, {"type": "electric_scooter", "name": "e9f017f4f83b6f6c740ab18f8397c53b", "fusion_lat": 0.0, "fusion_lon": 0.0, "lon": -76.99443783333334, "is_disabled": 0, "bike_id": "e9f017f4f83b6f6c740ab18f8397c53b", "is_reserved": 0, "rental_uris": {"android": "https://dc.lft.to/lastmile_qr_scan", "ios": "https://dc.lft.to/lastmile_qr_scan"}, "lat": 38.827670499999996}, {"type": "electric_scooter", "name": "53b685521945d4beeae2f9b97f73c6d7", "fusion_lat": 0.0, "fusion_lon": 0.0, "lon": -77.02983666666667, "is_disabled": 0, "bike_id": "53b685521945d4beeae2f9b97f73c6d7", "is_reserved": 0, "rental_uris": {"android": "https://dc.lft.to/lastmile_qr_scan", "ios": "https://dc.lft.to/lastmile_qr_scan"}, "lat": 38.907220833333334}, {"type": "electric_scooter", "name": "27ff4371434851ecf0f2abbeb02c032f", "fusion_lat": 0.0, "fusion_lon": 0.0, "lon": -77.03668583333334, "is_disabled": 0, "bike_id": "27ff4371434851ecf0f2abbeb02c032f", "is_reserved": 0, "rental_uris": {"android": "https://dc.lft.to/lastmile_qr_scan", "ios": "https://dc.lft.to/lastmile_qr_scan"}, "lat": 38.923312}, {"type": "electric_scooter", "name": "196dff3a5976a7d71c0d223a0fb072c6", "fusion_lat": 0.0, "fusion_lon": 0.0, "lon": -77.04016683333333, "is_disabled": 0, "bike_id": "196dff3a5976a7d71c0d223a0fb072c6", "is_reserved": 0, "rental_uris": {"android": "https://dc.lft.to/lastmile_qr_scan", "ios": "https://dc.lft.to/lastmile_qr_scan"}, "lat": 38.90725233333333}, {"type": "electric_scooter", "name": "b5f6b9ca3cd8df79e8dacc4063d0445c", "fusion_lat": 0.0, "fusion_lon": 0.0, "lon": -77.03565383333333, "is_disabled": 0, "bike_id": "b5f6b9ca3cd8df79e8dacc4063d0445c", "is_reserved": 0, "rental_uris": {"android": "https://dc.lft.to/lastmile_qr_scan", "ios": "https://dc.lft.to/lastmile_qr_scan"}, "lat": 38.908054}, {"type": "electric_scooter", "name": "35505d799bfd16a70ad96fde5ed82216", "fusion_lat": 0.0, "fusion_lon": 0.0, "lon": -77.02890033333334, "is_disabled": 0, "bike_id": "35505d799bfd16a70ad96fde5ed82216", "is_reserved": 0, "rental_uris": {"android": "https://dc.lft.to/lastmile_qr_scan", "ios": "https://dc.lft.to/lastmile_qr_scan"}, "lat": 38.936082}, {"type": "electric_scooter", "name": "e76aaaf2c21b4ce9eeeb8d82b9fa9d4e", "fusion_lat": 0.0, "fusion_lon": 0.0, "lon": -77.0120325, "is_disabled": 0, "bike_id": "e76aaaf2c21b4ce9eeeb8d82b9fa9d4e", "is_reserved": 0, "rental_uris": {"android": "https://dc.lft.to/lastmile_qr_scan", "ios": "https://dc.lft.to/lastmile_qr_scan"}, "lat": 38.915621}, {"type": "electric_scooter", "name": "72dbf27eebfdb258376315c90ead8d2d", "fusion_lat": 0.0, "fusion_lon": 0.0, "lon": -77.026909, "is_disabled": 0, "bike_id": "72dbf27eebfdb258376315c90ead8d2d", "is_reserved": 0, "rental_uris": {"android": "https://dc.lft.to/lastmile_qr_scan", "ios": "https://dc.lft.to/lastmile_qr_scan"}, "lat": 38.9087105}, {"type": "electric_scooter", "name": "32fed083b7a8630e93fb0f948eb77675", "fusion_lat": 0.0, "fusion_lon": 0.0, "lon": -77.00586666666666, "is_disabled": 0, "bike_id": "32fed083b7a8630e93fb0f948eb77675", "is_reserved": 0, "rental_uris": {"android": "https://dc.lft.to/lastmile_qr_scan", "ios": "https://dc.lft.to/lastmile_qr_scan"}, "lat": 38.902353}, {"type": "electric_scooter", "name": "abe083bc81fc597a9c0580989f376ae6", "fusion_lat": 0.0, "fusion_lon": 0.0, "lon": -77.0118715, "is_disabled": 0, "bike_id": "abe083bc81fc597a9c0580989f376ae6", "is_reserved": 0, "rental_uris": {"android": "https://dc.lft.to/lastmile_qr_scan", "ios": "https://dc.lft.to/lastmile_qr_scan"}, "lat": 38.90030616666667}, {"type": "electric_scooter", "name": "11d47bc1de62556bb17f4e12bab59b0c", "fusion_lat": 0.0, "fusion_lon": 0.0, "lon": -77.035387, "is_disabled": 0, "bike_id": "11d47bc1de62556bb17f4e12bab59b0c", "is_reserved": 0, "rental_uris": {"android": "https://dc.lft.to/lastmile_qr_scan", "ios": "https://dc.lft.to/lastmile_qr_scan"}, "lat": 38.92339616666667}, {"type": "electric_bike", "name": "741b943817bb64aa04f218c1f820ad46", "fusion_lat": 0.0, "fusion_lon": 0.0, "lon": -76.97700683333333, "is_disabled": 0, "bike_id": "741b943817bb64aa04f218c1f820ad46", "is_reserved": 0, "rental_uris": {"android": "https://dc.lft.to/lastmile_qr_scan", "ios": "https://dc.lft.to/lastmile_qr_scan"}, "lat": 38.82207483333333}, {"type": "electric_scooter", "name": "f466bd23f50be18ed5de2828a58665b1", "fusion_lat": 0.0, "fusion_lon": 0.0, "lon": -77.02843983333334, "is_disabled": 0, "bike_id": "f466bd23f50be18ed5de2828a58665b1", "is_reserved": 0, "rental_uris": {"android": "https://dc.lft.to/lastmile_qr_scan", "ios": "https://dc.lft.to/lastmile_qr_scan"}, "lat": 38.930621333333335}, {"type": "electric_scooter", "name": "bb93f6df110a7ddb31863233dfcbd2d3", "fusion_lat": 0.0, "fusion_lon": 0.0, "lon": -77.05029616666667, "is_disabled": 0, "bike_id": "bb93f6df110a7ddb31863233dfcbd2d3", "is_reserved": 0, "rental_uris": {"android": "https://dc.lft.to/lastmile_qr_scan", "ios": "https://dc.lft.to/lastmile_qr_scan"}, "lat": 38.905321666666666}, {"type": "electric_bike", "name": "38d6bb31c3910108cf4dd81f148559aa", "fusion_lat": 0.0, "fusion_lon": 0.0, "lon": -77.083198, "is_disabled": 0, "bike_id": "38d6bb31c3910108cf4dd81f148559aa", "is_reserved": 0, "rental_uris": {"android": "https://dc.lft.to/lastmile_qr_scan", "ios": "https://dc.lft.to/lastmile_qr_scan"}, "lat": 38.8544505}, {"type": "electric_scooter", "name": "ba9e0d753e9664bf389323c4a1cfd8cc", "fusion_lat": 0.0, "fusion_lon": 0.0, "lon": -76.93520816666667, "is_disabled": 0, "bike_id": "ba9e0d753e9664bf389323c4a1cfd8cc", "is_reserved": 0, "rental_uris": {"android": "https://dc.lft.to/lastmile_qr_scan", "ios": "https://dc.lft.to/lastmile_qr_scan"}, "lat": 38.878971666666665}, {"type": "electric_scooter", "name": "5e29489e70033c4e790f7cf8263e6319", "fusion_lat": 0.0, "fusion_lon": 0.0, "lon": -76.99732466666667, "is_disabled": 0, "bike_id": "5e29489e70033c4e790f7cf8263e6319", "is_reserved": 0, "rental_uris": {"android": "https://dc.lft.to/lastmile_qr_scan", "ios": "https://dc.lft.to/lastmile_qr_scan"}, "lat": 38.920407833333336}, {"type": "electric_scooter", "name": "2f488a1ee8d4054cb9d091bd257d9fb3", "fusion_lat": 0.0, "fusion_lon": 0.0, "lon": -77.02228983333333, "is_disabled": 0, "bike_id": "2f488a1ee8d4054cb9d091bd257d9fb3", "is_reserved": 0, "rental_uris": {"android": "https://dc.lft.to/lastmile_qr_scan", "ios": "https://dc.lft.to/lastmile_qr_scan"}, "lat": 38.912706666666665}, {"type": "electric_scooter", "name": "a3bcf45cf79e135e5c9f502788029e96", "fusion_lat": 0.0, "fusion_lon": 0.0, "lon": -77.02599183333334, "is_disabled": 0, "bike_id": "a3bcf45cf79e135e5c9f502788029e96", "is_reserved": 0, "rental_uris": {"android": "https://dc.lft.to/lastmile_qr_scan", "ios": "https://dc.lft.to/lastmile_qr_scan"}, "lat": 38.9183405}, {"type": "electric_scooter", "name": "350f426b6041e04404b2869036c4e555", "fusion_lat": 0.0, "fusion_lon": 0.0, "lon": -77.04517766666666, "is_disabled": 0, "bike_id": "350f426b6041e04404b2869036c4e555", "is_reserved": 0, "rental_uris": {"android": "https://dc.lft.to/lastmile_qr_scan", "ios": "https://dc.lft.to/lastmile_qr_scan"}, "lat": 38.90572733333333}, {"type": "electric_scooter", "name": "1ddcfeee70c1d6a4555d40025ab4732c", "fusion_lat": 0.0, "fusion_lon": 0.0, "lon": -77.031837, "is_disabled": 0, "bike_id": "1ddcfeee70c1d6a4555d40025ab4732c", "is_reserved": 0, "rental_uris": {"android": "https://dc.lft.to/lastmile_qr_scan", "ios": "https://dc.lft.to/lastmile_qr_scan"}, "lat": 38.913464833333336}, {"type": "electric_scooter", "name": "002e3f4f3ef281428e81e36b46d28eaf", "fusion_lat": 0.0, "fusion_lon": 0.0, "lon": -77.06824066666667, "is_disabled": 0, "bike_id": "002e3f4f3ef281428e81e36b46d28eaf", "is_reserved": 0, "rental_uris": {"android": "https://dc.lft.to/lastmile_qr_scan", "ios": "https://dc.lft.to/lastmile_qr_scan"}, "lat": 38.9166135}, {"type": "electric_scooter", "name": "fc1792da77bf96a970d3e18f76b0a4b7", "fusion_lat": 0.0, "fusion_lon": 0.0, "lon": -77.01995916666667, "is_disabled": 0, "bike_id": "fc1792da77bf96a970d3e18f76b0a4b7", "is_reserved": 0, "rental_uris": {"android": "https://dc.lft.to/lastmile_qr_scan", "ios": "https://dc.lft.to/lastmile_qr_scan"}, "lat": 38.876106666666665}, {"type": "electric_scooter", "name": "451503f5d5d60812b93f146d0a68c079", "fusion_lat": 0.0, "fusion_lon": 0.0, "lon": -77.04876466666667, "is_disabled": 0, "bike_id": "451503f5d5d60812b93f146d0a68c079", "is_reserved": 0, "rental_uris": {"android": "https://dc.lft.to/lastmile_qr_scan", "ios": "https://dc.lft.to/lastmile_qr_scan"}, "lat": 38.89241166666667}, {"type": "electric_scooter", "name": "30b5fd2c43598f438d80f05cfbc12450", "fusion_lat": 0.0, "fusion_lon": 0.0, "lon": -76.97132866666666, "is_disabled": 0, "bike_id": "30b5fd2c43598f438d80f05cfbc12450", "is_reserved": 0, "rental_uris": {"android": "https://dc.lft.to/lastmile_qr_scan", "ios": "https://dc.lft.to/lastmile_qr_scan"}, "lat": 38.8786615}, {"type": "electric_scooter", "name": "4e59da99dddb84b46ca32b656bf03388", "fusion_lat": 0.0, "fusion_lon": 0.0, "lon": -77.02442066666667, "is_disabled": 0, "bike_id": "4e59da99dddb84b46ca32b656bf03388", "is_reserved": 0, "rental_uris": {"android": "https://dc.lft.to/lastmile_qr_scan", "ios": "https://dc.lft.to/lastmile_qr_scan"}, "lat": 38.95641233333333}, {"type": "electric_scooter", "name": "17a98deade81e12b67bf4cac7701a8bb", "fusion_lat": 0.0, "fusion_lon": 0.0, "lon": -76.983998, "is_disabled": 0, "bike_id": "17a98deade81e12b67bf4cac7701a8bb", "is_reserved": 0, "rental_uris": {"android": "https://dc.lft.to/lastmile_qr_scan", "ios": "https://dc.lft.to/lastmile_qr_scan"}, "lat": 38.905074666666664}, {"type": "electric_bike", "name": "4e034d15d33321cff77f216fa19264d2", "fusion_lat": 0.0, "fusion_lon": 0.0, "lon": -77.065708, "is_disabled": 0, "bike_id": "4e034d15d33321cff77f216fa19264d2", "is_reserved": 0, "rental_uris": {"android": "https://dc.lft.to/lastmile_qr_scan", "ios": "https://dc.lft.to/lastmile_qr_scan"}, "lat": 38.932689333333336}, {"type": "electric_scooter", "name": "db39e9dcd0366c8233fbecffedef219b", "fusion_lat": 0.0, "fusion_lon": 0.0, "lon": -77.053092, "is_disabled": 0, "bike_id": "db39e9dcd0366c8233fbecffedef219b", "is_reserved": 0, "rental_uris": {"android": "https://dc.lft.to/lastmile_qr_scan", "ios": "https://dc.lft.to/lastmile_qr_scan"}, "lat": 38.90241433333333}, {"type": "electric_scooter", "name": "5137eba7220f9be8fa0f66da521f3755", "fusion_lat": 0.0, "fusion_lon": 0.0, "lon": -77.0552065, "is_disabled": 0, "bike_id": "5137eba7220f9be8fa0f66da521f3755", "is_reserved": 0, "rental_uris": {"android": "https://dc.lft.to/lastmile_qr_scan", "ios": "https://dc.lft.to/lastmile_qr_scan"}, "lat": 38.907718333333335}, {"type": "electric_scooter", "name": "5d468d29d5cf9ebec32338cea9a3e539", "fusion_lat": 0.0, "fusion_lon": 0.0, "lon": -77.03954916666666, "is_disabled": 0, "bike_id": "5d468d29d5cf9ebec32338cea9a3e539", "is_reserved": 0, "rental_uris": {"android": "https://dc.lft.to/lastmile_qr_scan", "ios": "https://dc.lft.to/lastmile_qr_scan"}, "lat": 38.898237333333334}, {"type": "electric_scooter", "name": "6bdc54b07097e7ef76217a3ba3ea41ce", "fusion_lat": 0.0, "fusion_lon": 0.0, "lon": -77.03841733333333, "is_disabled": 0, "bike_id": "6bdc54b07097e7ef76217a3ba3ea41ce", "is_reserved": 0, "rental_uris": {"android": "https://dc.lft.to/lastmile_qr_scan", "ios": "https://dc.lft.to/lastmile_qr_scan"}, "lat": 38.90277233333333}, {"type": "electric_scooter", "name": "265f6eff1891fbc4cd3bd83842cfbfed", "fusion_lat": 0.0, "fusion_lon": 0.0, "lon": -77.04690883333333, "is_disabled": 0, "bike_id": "265f6eff1891fbc4cd3bd83842cfbfed", "is_reserved": 0, "rental_uris": {"android": "https://dc.lft.to/lastmile_qr_scan", "ios": "https://dc.lft.to/lastmile_qr_scan"}, "lat": 38.9040765}, {"type": "electric_scooter", "name": "a1b65974bd981734081bf71c11b7e1a8", "fusion_lat": 0.0, "fusion_lon": 0.0, "lon": -77.03992766666667, "is_disabled": 0, "bike_id": "a1b65974bd981734081bf71c11b7e1a8", "is_reserved": 0, "rental_uris": {"android": "https://dc.lft.to/lastmile_qr_scan", "ios": "https://dc.lft.to/lastmile_qr_scan"}, "lat": 38.93429283333333}, {"type": "electric_scooter", "name": "29edc5eac3ac033818b24ad01243c93a", "fusion_lat": 0.0, "fusion_lon": 0.0, "lon": -77.09665766666667, "is_disabled": 0, "bike_id": "29edc5eac3ac033818b24ad01243c93a", "is_reserved": 0, "rental_uris": {"android": "https://dc.lft.to/lastmile_qr_scan", "ios": "https://dc.lft.to/lastmile_qr_scan"}, "lat": 38.917648}, {"type": "electric_scooter", "name": "ef4f52ff00c82df7a76de5c2b7e6c519", "fusion_lat": 0.0, "fusion_lon": 0.0, "lon": -77.00064933333333, "is_disabled": 0, "bike_id": "ef4f52ff00c82df7a76de5c2b7e6c519", "is_reserved": 0, "rental_uris": {"android": "https://dc.lft.to/lastmile_qr_scan", "ios": "https://dc.lft.to/lastmile_qr_scan"}, "lat": 38.8768995}, {"type": "electric_scooter", "name": "5b86e536ff17c9e9cd83e9474c6dbf1a", "fusion_lat": 0.0, "fusion_lon": 0.0, "lon": -77.021758, "is_disabled": 0, "bike_id": "5b86e536ff17c9e9cd83e9474c6dbf1a", "is_reserved": 0, "rental_uris": {"android": "https://dc.lft.to/lastmile_qr_scan", "ios": "https://dc.lft.to/lastmile_qr_scan"}, "lat": 38.89486683333333}, {"type": "electric_scooter", "name": "4ba40b924791c86dd85ea34ac55e01c7", "fusion_lat": 0.0, "fusion_lon": 0.0, "lon": -76.93755683333333, "is_disabled": 0, "bike_id": "4ba40b924791c86dd85ea34ac55e01c7", "is_reserved": 0, "rental_uris": {"android": "https://dc.lft.to/lastmile_qr_scan", "ios": "https://dc.lft.to/lastmile_qr_scan"}, "lat": 38.878604333333335}, {"type": "electric_scooter", "name": "37a49767e7937148206c73b7d5cfb804", "fusion_lat": 0.0, "fusion_lon": 0.0, "lon": -77.0138495, "is_disabled": 0, "bike_id": "37a49767e7937148206c73b7d5cfb804", "is_reserved": 0, "rental_uris": {"android": "https://dc.lft.to/lastmile_qr_scan", "ios": "https://dc.lft.to/lastmile_qr_scan"}, "lat": 38.928363}, {"type": "electric_bike", "name": "c93e16817a1cc2d2127d50a6af6a96c1", "fusion_lat": 0.0, "fusion_lon": 0.0, "lon": -77.00762283333333, "is_disabled": 0, "bike_id": "c93e16817a1cc2d2127d50a6af6a96c1", "is_reserved": 0, "rental_uris": {"android": "https://dc.lft.to/lastmile_qr_scan", "ios": "https://dc.lft.to/lastmile_qr_scan"}, "lat": 38.997825666666664}, {"type": "electric_scooter", "name": "9f84d2261af5816ee55af59dae09b1cb", "fusion_lat": 0.0, "fusion_lon": 0.0, "lon": -77.00354166666666, "is_disabled": 0, "bike_id": "9f84d2261af5816ee55af59dae09b1cb", "is_reserved": 0, "rental_uris": {"android": "https://dc.lft.to/lastmile_qr_scan", "ios": "https://dc.lft.to/lastmile_qr_scan"}, "lat": 38.877255}, {"type": "electric_bike", "name": "62a0a0194f56a7b31ce5e5b8497f4dc5", "fusion_lat": 0.0, "fusion_lon": 0.0, "lon": -76.94553483333334, "is_disabled": 0, "bike_id": "62a0a0194f56a7b31ce5e5b8497f4dc5", "is_reserved": 0, "rental_uris": {"android": "https://dc.lft.to/lastmile_qr_scan", "ios": "https://dc.lft.to/lastmile_qr_scan"}, "lat": 38.982934166666666}, {"type": "electric_scooter", "name": "4bb0c81637693fd25e3707c266895e26", "fusion_lat": 0.0, "fusion_lon": 0.0, "lon": -77.0347255, "is_disabled": 0, "bike_id": "4bb0c81637693fd25e3707c266895e26", "is_reserved": 0, "rental_uris": {"android": "https://dc.lft.to/lastmile_qr_scan", "ios": "https://dc.lft.to/lastmile_qr_scan"}, "lat": 38.90843066666667}, {"type": "electric_scooter", "name": "4cf552492bc32758434294adbe87f240", "fusion_lat": 0.0, "fusion_lon": 0.0, "lon": -77.00203866666666, "is_disabled": 0, "bike_id": "4cf552492bc32758434294adbe87f240", "is_reserved": 0, "rental_uris": {"android": "https://dc.lft.to/lastmile_qr_scan", "ios": "https://dc.lft.to/lastmile_qr_scan"}, "lat": 38.90239366666667}, {"type": "electric_bike", "name": "f8cf36476e1176f321875b6c5e2ed827", "fusion_lat": 0.0, "fusion_lon": 0.0, "lon": -76.95243766666667, "is_disabled": 0, "bike_id": "f8cf36476e1176f321875b6c5e2ed827", "is_reserved": 0, "rental_uris": {"android": "https://dc.lft.to/lastmile_qr_scan", "ios": "https://dc.lft.to/lastmile_qr_scan"}, "lat": 38.884652}, {"type": "electric_bike", "name": "774a3be2cf3870bf01ef778032d930ea", "fusion_lat": 0.0, "fusion_lon": 0.0, "lon": -77.12893866666667, "is_disabled": 0, "bike_id": "774a3be2cf3870bf01ef778032d930ea", "is_reserved": 0, "rental_uris": {"android": "https://dc.lft.to/lastmile_qr_scan", "ios": "https://dc.lft.to/lastmile_qr_scan"}, "lat": 38.906039666666665}, {"type": "electric_scooter", "name": "4bb7b35d99e5bd3fd6afab3f62ac79a6", "fusion_lat": 0.0, "fusion_lon": 0.0, "lon": -77.04234116666667, "is_disabled": 0, "bike_id": "4bb7b35d99e5bd3fd6afab3f62ac79a6", "is_reserved": 0, "rental_uris": {"android": "https://dc.lft.to/lastmile_qr_scan", "ios": "https://dc.lft.to/lastmile_qr_scan"}, "lat": 38.921877}, {"type": "electric_bike", "name": "086f93bacac16307cd3f6e662c8c8df7", "fusion_lat": 0.0, "fusion_lon": 0.0, "lon": -76.968874, "is_disabled": 0, "bike_id": "086f93bacac16307cd3f6e662c8c8df7", "is_reserved": 0, "rental_uris": {"android": "https://dc.lft.to/lastmile_qr_scan", "ios": "https://dc.lft.to/lastmile_qr_scan"}, "lat": 38.86983683333333}, {"type": "electric_scooter", "name": "ce5d11b9f69c30e6f51542e3e1ce9da6", "fusion_lat": 0.0, "fusion_lon": 0.0, "lon": -77.00924783333333, "is_disabled": 0, "bike_id": "ce5d11b9f69c30e6f51542e3e1ce9da6", "is_reserved": 0, "rental_uris": {"android": "https://dc.lft.to/lastmile_qr_scan", "ios": "https://dc.lft.to/lastmile_qr_scan"}, "lat": 38.87456566666667}, {"type": "electric_scooter", "name": "21cb8b62662befcae33a811239eaaaeb", "fusion_lat": 0.0, "fusion_lon": 0.0, "lon": -76.996253, "is_disabled": 0, "bike_id": "21cb8b62662befcae33a811239eaaaeb", "is_reserved": 0, "rental_uris": {"android": "https://dc.lft.to/lastmile_qr_scan", "ios": "https://dc.lft.to/lastmile_qr_scan"}, "lat": 38.87740516666667}, {"type": "electric_scooter", "name": "d1ed1cb9022b3e50ab64b3419acebfbe", "fusion_lat": 0.0, "fusion_lon": 0.0, "lon": -77.02019733333333, "is_disabled": 0, "bike_id": "d1ed1cb9022b3e50ab64b3419acebfbe", "is_reserved": 0, "rental_uris": {"android": "https://dc.lft.to/lastmile_qr_scan", "ios": "https://dc.lft.to/lastmile_qr_scan"}, "lat": 38.901497666666664}, {"type": "electric_scooter", "name": "5b536b4dc4720311ca49f292a2d79638", "fusion_lat": 0.0, "fusion_lon": 0.0, "lon": -77.05054016666666, "is_disabled": 0, "bike_id": "5b536b4dc4720311ca49f292a2d79638", "is_reserved": 0, "rental_uris": {"android": "https://dc.lft.to/lastmile_qr_scan", "ios": "https://dc.lft.to/lastmile_qr_scan"}, "lat": 38.9030995}, {"type": "electric_scooter", "name": "be5e6b567bab41711ad7f07affa9c8da", "fusion_lat": 0.0, "fusion_lon": 0.0, "lon": -77.04382516666666, "is_disabled": 0, "bike_id": "be5e6b567bab41711ad7f07affa9c8da", "is_reserved": 0, "rental_uris": {"android": "https://dc.lft.to/lastmile_qr_scan", "ios": "https://dc.lft.to/lastmile_qr_scan"}, "lat": 38.909961833333334}, {"type": "electric_scooter", "name": "ce71f547f97c0d46a6ec1cb1eec9f001", "fusion_lat": 0.0, "fusion_lon": 0.0, "lon": -77.03999966666667, "is_disabled": 0, "bike_id": "ce71f547f97c0d46a6ec1cb1eec9f001", "is_reserved": 0, "rental_uris": {"android": "https://dc.lft.to/lastmile_qr_scan", "ios": "https://dc.lft.to/lastmile_qr_scan"}, "lat": 38.934303166666666}, {"type": "electric_scooter", "name": "eaa39e22ca4e243f6441d50585ea0d22", "fusion_lat": 0.0, "fusion_lon": 0.0, "lon": -76.99141833333333, "is_disabled": 0, "bike_id": "eaa39e22ca4e243f6441d50585ea0d22", "is_reserved": 0, "rental_uris": {"android": "https://dc.lft.to/lastmile_qr_scan", "ios": "https://dc.lft.to/lastmile_qr_scan"}, "lat": 38.87338616666667}, {"type": "electric_scooter", "name": "60d37c50cc37ace80e4a12e2e9bdf8b8", "fusion_lat": 0.0, "fusion_lon": 0.0, "lon": -77.01614483333333, "is_disabled": 0, "bike_id": "60d37c50cc37ace80e4a12e2e9bdf8b8", "is_reserved": 0, "rental_uris": {"android": "https://dc.lft.to/lastmile_qr_scan", "ios": "https://dc.lft.to/lastmile_qr_scan"}, "lat": 38.916057333333335}, {"type": "electric_scooter", "name": "bbefcdd1e5bfbde725b0dd6ee58ad5f8", "fusion_lat": 0.0, "fusion_lon": 0.0, "lon": -77.02655183333333, "is_disabled": 0, "bike_id": "bbefcdd1e5bfbde725b0dd6ee58ad5f8", "is_reserved": 0, "rental_uris": {"android": "https://dc.lft.to/lastmile_qr_scan", "ios": "https://dc.lft.to/lastmile_qr_scan"}, "lat": 38.92390866666667}, {"type": "electric_scooter", "name": "8225a7f757bdfe9ea27b3acb86280f86", "fusion_lat": 0.0, "fusion_lon": 0.0, "lon": -77.02977266666667, "is_disabled": 0, "bike_id": "8225a7f757bdfe9ea27b3acb86280f86", "is_reserved": 0, "rental_uris": {"android": "https://dc.lft.to/lastmile_qr_scan", "ios": "https://dc.lft.to/lastmile_qr_scan"}, "lat": 38.91671866666667}, {"type": "electric_scooter", "name": "097f39d1c4c273345136498e51feb16e", "fusion_lat": 0.0, "fusion_lon": 0.0, "lon": -77.06563983333334, "is_disabled": 0, "bike_id": "097f39d1c4c273345136498e51feb16e", "is_reserved": 0, "rental_uris": {"android": "https://dc.lft.to/lastmile_qr_scan", "ios": "https://dc.lft.to/lastmile_qr_scan"}, "lat": 38.883365}, {"type": "electric_scooter", "name": "dca424389106d324024a561531354337", "fusion_lat": 0.0, "fusion_lon": 0.0, "lon": -77.03633183333334, "is_disabled": 0, "bike_id": "dca424389106d324024a561531354337", "is_reserved": 0, "rental_uris": {"android": "https://dc.lft.to/lastmile_qr_scan", "ios": "https://dc.lft.to/lastmile_qr_scan"}, "lat": 38.936832333333335}, {"type": "electric_scooter", "name": "d80eeb167d199b8d403aacac45a96982", "fusion_lat": 0.0, "fusion_lon": 0.0, "lon": -76.99629566666667, "is_disabled": 0, "bike_id": "d80eeb167d199b8d403aacac45a96982", "is_reserved": 0, "rental_uris": {"android": "https://dc.lft.to/lastmile_qr_scan", "ios": "https://dc.lft.to/lastmile_qr_scan"}, "lat": 38.877392}, {"type": "electric_scooter", "name": "3c5bb9f51559b6105174a08f0291fd74", "fusion_lat": 0.0, "fusion_lon": 0.0, "lon": -77.04003683333333, "is_disabled": 0, "bike_id": "3c5bb9f51559b6105174a08f0291fd74", "is_reserved": 0, "rental_uris": {"android": "https://dc.lft.to/lastmile_qr_scan", "ios": "https://dc.lft.to/lastmile_qr_scan"}, "lat": 38.898782833333335}, {"type": "electric_bike", "name": "222e0a075e6a98c3a8edec85860caece", "fusion_lat": 0.0, "fusion_lon": 0.0, "lon": -77.00718683333334, "is_disabled": 0, "bike_id": "222e0a075e6a98c3a8edec85860caece", "is_reserved": 0, "rental_uris": {"android": "https://dc.lft.to/lastmile_qr_scan", "ios": "https://dc.lft.to/lastmile_qr_scan"}, "lat": 38.99513533333333}, {"type": "electric_scooter", "name": "5ac0923251df7e0654b009c77e60eff0", "fusion_lat": 0.0, "fusion_lon": 0.0, "lon": -77.04905633333334, "is_disabled": 0, "bike_id": "5ac0923251df7e0654b009c77e60eff0", "is_reserved": 0, "rental_uris": {"android": "https://dc.lft.to/lastmile_qr_scan", "ios": "https://dc.lft.to/lastmile_qr_scan"}, "lat": 38.897332666666664}, {"type": "electric_scooter", "name": "7f0404b491fbdffcbc8bb34c62ab829d", "fusion_lat": 0.0, "fusion_lon": 0.0, "lon": -76.998539, "is_disabled": 0, "bike_id": "7f0404b491fbdffcbc8bb34c62ab829d", "is_reserved": 0, "rental_uris": {"android": "https://dc.lft.to/lastmile_qr_scan", "ios": "https://dc.lft.to/lastmile_qr_scan"}, "lat": 38.89190633333333}, {"type": "electric_scooter", "name": "352b8fe2b7af172bb544dfd14a28a98a", "fusion_lat": 0.0, "fusion_lon": 0.0, "lon": -77.02835583333334, "is_disabled": 0, "bike_id": "352b8fe2b7af172bb544dfd14a28a98a", "is_reserved": 0, "rental_uris": {"android": "https://dc.lft.to/lastmile_qr_scan", "ios": "https://dc.lft.to/lastmile_qr_scan"}, "lat": 38.8873745}, {"type": "electric_bike", "name": "5484e8377e4f0e025b5d5bcbaf58bdfe", "fusion_lat": 0.0, "fusion_lon": 0.0, "lon": -77.05271216666667, "is_disabled": 0, "bike_id": "5484e8377e4f0e025b5d5bcbaf58bdfe", "is_reserved": 0, "rental_uris": {"android": "https://dc.lft.to/lastmile_qr_scan", "ios": "https://dc.lft.to/lastmile_qr_scan"}, "lat": 38.9409255}, {"type": "electric_scooter", "name": "1ec8e18f7989843079fd637b7a7e167c", "fusion_lat": 0.0, "fusion_lon": 0.0, "lon": -77.03963333333333, "is_disabled": 0, "bike_id": "1ec8e18f7989843079fd637b7a7e167c", "is_reserved": 0, "rental_uris": {"android": "https://dc.lft.to/lastmile_qr_scan", "ios": "https://dc.lft.to/lastmile_qr_scan"}, "lat": 38.90146816666667}, {"type": "electric_scooter", "name": "212cbe3b1e5a776548909c20a6655d0c", "fusion_lat": 0.0, "fusion_lon": 0.0, "lon": -77.03630816666667, "is_disabled": 0, "bike_id": "212cbe3b1e5a776548909c20a6655d0c", "is_reserved": 0, "rental_uris": {"android": "https://dc.lft.to/lastmile_qr_scan", "ios": "https://dc.lft.to/lastmile_qr_scan"}, "lat": 38.936880333333335}, {"type": "electric_scooter", "name": "c31c39985941deba6dfc3614e8e062b1", "fusion_lat": 0.0, "fusion_lon": 0.0, "lon": -77.02816133333333, "is_disabled": 0, "bike_id": "c31c39985941deba6dfc3614e8e062b1", "is_reserved": 0, "rental_uris": {"android": "https://dc.lft.to/lastmile_qr_scan", "ios": "https://dc.lft.to/lastmile_qr_scan"}, "lat": 38.909349166666665}, {"type": "electric_scooter", "name": "13f70b01179a1fc193282655004af1a8", "fusion_lat": 0.0, "fusion_lon": 0.0, "lon": -77.02809033333334, "is_disabled": 0, "bike_id": "13f70b01179a1fc193282655004af1a8", "is_reserved": 0, "rental_uris": {"android": "https://dc.lft.to/lastmile_qr_scan", "ios": "https://dc.lft.to/lastmile_qr_scan"}, "lat": 38.89650483333333}, {"type": "electric_bike", "name": "182f9e5036081860518e092ad0031fb5", "fusion_lat": 0.0, "fusion_lon": 0.0, "lon": -77.08980816666667, "is_disabled": 0, "bike_id": "182f9e5036081860518e092ad0031fb5", "is_reserved": 0, "rental_uris": {"android": "https://dc.lft.to/lastmile_qr_scan", "ios": "https://dc.lft.to/lastmile_qr_scan"}, "lat": 38.91175233333333}, {"type": "electric_scooter", "name": "b4d07eb50d9635f4429799535508e110", "fusion_lat": 0.0, "fusion_lon": 0.0, "lon": -77.0325715, "is_disabled": 0, "bike_id": "b4d07eb50d9635f4429799535508e110", "is_reserved": 0, "rental_uris": {"android": "https://dc.lft.to/lastmile_qr_scan", "ios": "https://dc.lft.to/lastmile_qr_scan"}, "lat": 38.914015666666664}, {"type": "electric_scooter", "name": "2a9e593bbacdc4c63e13c000d79ef1e4", "fusion_lat": 0.0, "fusion_lon": 0.0, "lon": -76.98824183333333, "is_disabled": 0, "bike_id": "2a9e593bbacdc4c63e13c000d79ef1e4", "is_reserved": 0, "rental_uris": {"android": "https://dc.lft.to/lastmile_qr_scan", "ios": "https://dc.lft.to/lastmile_qr_scan"}, "lat": 38.90039266666667}, {"type": "electric_scooter", "name": "28dd8be3633c3776bf136aef1fda44a4", "fusion_lat": 0.0, "fusion_lon": 0.0, "lon": -77.02391133333333, "is_disabled": 0, "bike_id": "28dd8be3633c3776bf136aef1fda44a4", "is_reserved": 0, "rental_uris": {"android": "https://dc.lft.to/lastmile_qr_scan", "ios": "https://dc.lft.to/lastmile_qr_scan"}, "lat": 38.9084855}, {"type": "electric_scooter", "name": "baacfe9bd643ec2eed54f1e94aae37c6", "fusion_lat": 0.0, "fusion_lon": 0.0, "lon": -77.04490066666666, "is_disabled": 0, "bike_id": "baacfe9bd643ec2eed54f1e94aae37c6", "is_reserved": 0, "rental_uris": {"android": "https://dc.lft.to/lastmile_qr_scan", "ios": "https://dc.lft.to/lastmile_qr_scan"}, "lat": 38.914260666666664}, {"type": "electric_scooter", "name": "90a96d7ff6f8ba08df316958f73569b5", "fusion_lat": 0.0, "fusion_lon": 0.0, "lon": -77.02561866666667, "is_disabled": 0, "bike_id": "90a96d7ff6f8ba08df316958f73569b5", "is_reserved": 0, "rental_uris": {"android": "https://dc.lft.to/lastmile_qr_scan", "ios": "https://dc.lft.to/lastmile_qr_scan"}, "lat": 38.887485833333336}, {"type": "electric_scooter", "name": "3ca1c26b7eaedc657990cbbfa6c2de16", "fusion_lat": 0.0, "fusion_lon": 0.0, "lon": -77.04183983333333, "is_disabled": 0, "bike_id": "3ca1c26b7eaedc657990cbbfa6c2de16", "is_reserved": 0, "rental_uris": {"android": "https://dc.lft.to/lastmile_qr_scan", "ios": "https://dc.lft.to/lastmile_qr_scan"}, "lat": 38.91818266666667}, {"type": "electric_scooter", "name": "08115c2a6b29774a2f505a6e5128e449", "fusion_lat": 0.0, "fusion_lon": 0.0, "lon": -77.02969516666667, "is_disabled": 0, "bike_id": "08115c2a6b29774a2f505a6e5128e449", "is_reserved": 0, "rental_uris": {"android": "https://dc.lft.to/lastmile_qr_scan", "ios": "https://dc.lft.to/lastmile_qr_scan"}, "lat": 38.905485}, {"type": "electric_scooter", "name": "e92b1342f5a9273750e69012dadde910", "fusion_lat": 0.0, "fusion_lon": 0.0, "lon": -77.04228566666667, "is_disabled": 0, "bike_id": "e92b1342f5a9273750e69012dadde910", "is_reserved": 0, "rental_uris": {"android": "https://dc.lft.to/lastmile_qr_scan", "ios": "https://dc.lft.to/lastmile_qr_scan"}, "lat": 38.92175233333333}, {"type": "electric_scooter", "name": "74900e9015f49e06ed40e2a996427242", "fusion_lat": 0.0, "fusion_lon": 0.0, "lon": -77.01872766666666, "is_disabled": 0, "bike_id": "74900e9015f49e06ed40e2a996427242", "is_reserved": 0, "rental_uris": {"android": "https://dc.lft.to/lastmile_qr_scan", "ios": "https://dc.lft.to/lastmile_qr_scan"}, "lat": 38.914183}, {"type": "electric_scooter", "name": "64701a5a0b4d82787474e48891033bbc", "fusion_lat": 0.0, "fusion_lon": 0.0, "lon": -77.02695233333333, "is_disabled": 0, "bike_id": "64701a5a0b4d82787474e48891033bbc", "is_reserved": 0, "rental_uris": {"android": "https://dc.lft.to/lastmile_qr_scan", "ios": "https://dc.lft.to/lastmile_qr_scan"}, "lat": 38.9232215}, {"type": "electric_scooter", "name": "bd0336420f091b761c457da590e2a2ab", "fusion_lat": 0.0, "fusion_lon": 0.0, "lon": -77.06334016666666, "is_disabled": 0, "bike_id": "bd0336420f091b761c457da590e2a2ab", "is_reserved": 0, "rental_uris": {"android": "https://dc.lft.to/lastmile_qr_scan", "ios": "https://dc.lft.to/lastmile_qr_scan"}, "lat": 38.92150216666667}, {"type": "electric_scooter", "name": "e15561cbefbdc63193ca070566d426e0", "fusion_lat": 0.0, "fusion_lon": 0.0, "lon": -77.02733716666667, "is_disabled": 0, "bike_id": "e15561cbefbdc63193ca070566d426e0", "is_reserved": 0, "rental_uris": {"android": "https://dc.lft.to/lastmile_qr_scan", "ios": "https://dc.lft.to/lastmile_qr_scan"}, "lat": 38.92482116666667}, {"type": "electric_scooter", "name": "73737b9e1e24d7cdcb1cfd7b9112e374", "fusion_lat": 0.0, "fusion_lon": 0.0, "lon": -77.04030933333334, "is_disabled": 0, "bike_id": "73737b9e1e24d7cdcb1cfd7b9112e374", "is_reserved": 0, "rental_uris": {"android": "https://dc.lft.to/lastmile_qr_scan", "ios": "https://dc.lft.to/lastmile_qr_scan"}, "lat": 38.91807333333333}, {"type": "electric_scooter", "name": "3527bf76ee0c6b397399e245cb8e1b0d", "fusion_lat": 0.0, "fusion_lon": 0.0, "lon": -77.03269283333333, "is_disabled": 0, "bike_id": "3527bf76ee0c6b397399e245cb8e1b0d", "is_reserved": 0, "rental_uris": {"android": "https://dc.lft.to/lastmile_qr_scan", "ios": "https://dc.lft.to/lastmile_qr_scan"}, "lat": 38.9330305}, {"type": "electric_bike", "name": "f51270e4e10ef09a512e3fe947e584c0", "fusion_lat": 0.0, "fusion_lon": 0.0, "lon": -77.0956065, "is_disabled": 0, "bike_id": "f51270e4e10ef09a512e3fe947e584c0", "is_reserved": 0, "rental_uris": {"android": "https://dc.lft.to/lastmile_qr_scan", "ios": "https://dc.lft.to/lastmile_qr_scan"}, "lat": 38.85878866666667}, {"type": "electric_scooter", "name": "ebd92eecde1c9a3ba77ae8baebf14ed2", "fusion_lat": 0.0, "fusion_lon": 0.0, "lon": -77.03966983333333, "is_disabled": 0, "bike_id": "ebd92eecde1c9a3ba77ae8baebf14ed2", "is_reserved": 0, "rental_uris": {"android": "https://dc.lft.to/lastmile_qr_scan", "ios": "https://dc.lft.to/lastmile_qr_scan"}, "lat": 38.89905533333334}, {"type": "electric_scooter", "name": "dbfa17ff29c5b2c94b8ad338c3e8cd61", "fusion_lat": 0.0, "fusion_lon": 0.0, "lon": -77.02775283333334, "is_disabled": 0, "bike_id": "dbfa17ff29c5b2c94b8ad338c3e8cd61", "is_reserved": 0, "rental_uris": {"android": "https://dc.lft.to/lastmile_qr_scan", "ios": "https://dc.lft.to/lastmile_qr_scan"}, "lat": 38.96584266666667}, {"type": "electric_scooter", "name": "8d30140e50018e86ceaaf5ac4d1328a3", "fusion_lat": 0.0, "fusion_lon": 0.0, "lon": -77.0437265, "is_disabled": 0, "bike_id": "8d30140e50018e86ceaaf5ac4d1328a3", "is_reserved": 0, "rental_uris": {"android": "https://dc.lft.to/lastmile_qr_scan", "ios": "https://dc.lft.to/lastmile_qr_scan"}, "lat": 38.9047285}, {"type": "electric_scooter", "name": "8b8fcb43f2f8c152b70c90f696dd398d", "fusion_lat": 0.0, "fusion_lon": 0.0, "lon": -77.02278366666667, "is_disabled": 0, "bike_id": "8b8fcb43f2f8c152b70c90f696dd398d", "is_reserved": 0, "rental_uris": {"android": "https://dc.lft.to/lastmile_qr_scan", "ios": "https://dc.lft.to/lastmile_qr_scan"}, "lat": 38.92685066666667}, {"type": "electric_scooter", "name": "8cff0b34856ff5d7c2fdc309d04fffe4", "fusion_lat": 0.0, "fusion_lon": 0.0, "lon": -77.01333983333333, "is_disabled": 0, "bike_id": "8cff0b34856ff5d7c2fdc309d04fffe4", "is_reserved": 0, "rental_uris": {"android": "https://dc.lft.to/lastmile_qr_scan", "ios": "https://dc.lft.to/lastmile_qr_scan"}, "lat": 38.881255}, {"type": "electric_scooter", "name": "10a4fe82c3ef9162feeea0a93b06ab94", "fusion_lat": 0.0, "fusion_lon": 0.0, "lon": -77.02298916666666, "is_disabled": 0, "bike_id": "10a4fe82c3ef9162feeea0a93b06ab94", "is_reserved": 0, "rental_uris": {"android": "https://dc.lft.to/lastmile_qr_scan", "ios": "https://dc.lft.to/lastmile_qr_scan"}, "lat": 38.92085333333333}, {"type": "electric_scooter", "name": "c7c56cceafd553d3105d5ec79d7f0172", "fusion_lat": 0.0, "fusion_lon": 0.0, "lon": -77.025663, "is_disabled": 0, "bike_id": "c7c56cceafd553d3105d5ec79d7f0172", "is_reserved": 0, "rental_uris": {"android": "https://dc.lft.to/lastmile_qr_scan", "ios": "https://dc.lft.to/lastmile_qr_scan"}, "lat": 38.94200216666667}, {"type": "electric_scooter", "name": "6b0757ff0ed779be7120ff50f3e6ce69", "fusion_lat": 0.0, "fusion_lon": 0.0, "lon": -76.98031333333333, "is_disabled": 0, "bike_id": "6b0757ff0ed779be7120ff50f3e6ce69", "is_reserved": 0, "rental_uris": {"android": "https://dc.lft.to/lastmile_qr_scan", "ios": "https://dc.lft.to/lastmile_qr_scan"}, "lat": 38.907945166666664}, {"type": "electric_scooter", "name": "c1b7064da97a736da19005d0d0940306", "fusion_lat": 0.0, "fusion_lon": 0.0, "lon": -77.03506683333333, "is_disabled": 0, "bike_id": "c1b7064da97a736da19005d0d0940306", "is_reserved": 0, "rental_uris": {"android": "https://dc.lft.to/lastmile_qr_scan", "ios": "https://dc.lft.to/lastmile_qr_scan"}, "lat": 38.921580166666665}, {"type": "electric_scooter", "name": "5dc269e04cd5db9c4101f6c16d8de67c", "fusion_lat": 0.0, "fusion_lon": 0.0, "lon": -77.04564716666667, "is_disabled": 0, "bike_id": "5dc269e04cd5db9c4101f6c16d8de67c", "is_reserved": 0, "rental_uris": {"android": "https://dc.lft.to/lastmile_qr_scan", "ios": "https://dc.lft.to/lastmile_qr_scan"}, "lat": 38.9038685}, {"type": "electric_scooter", "name": "ec53b0c78000a0267b5eb1c6bca7f964", "fusion_lat": 0.0, "fusion_lon": 0.0, "lon": -77.02809216666667, "is_disabled": 0, "bike_id": "ec53b0c78000a0267b5eb1c6bca7f964", "is_reserved": 0, "rental_uris": {"android": "https://dc.lft.to/lastmile_qr_scan", "ios": "https://dc.lft.to/lastmile_qr_scan"}, "lat": 38.909162333333335}, {"type": "electric_scooter", "name": "95bdfda90d81ff67e22ed4425c1d8cd1", "fusion_lat": 0.0, "fusion_lon": 0.0, "lon": -77.03989066666666, "is_disabled": 0, "bike_id": "95bdfda90d81ff67e22ed4425c1d8cd1", "is_reserved": 0, "rental_uris": {"android": "https://dc.lft.to/lastmile_qr_scan", "ios": "https://dc.lft.to/lastmile_qr_scan"}, "lat": 38.895374}, {"type": "electric_scooter", "name": "98343dc4ddca052922745d86abf27819", "fusion_lat": 0.0, "fusion_lon": 0.0, "lon": -77.0448995, "is_disabled": 0, "bike_id": "98343dc4ddca052922745d86abf27819", "is_reserved": 0, "rental_uris": {"android": "https://dc.lft.to/lastmile_qr_scan", "ios": "https://dc.lft.to/lastmile_qr_scan"}, "lat": 38.902979}, {"type": "electric_scooter", "name": "aaaaee9ae275c2f3b222885819328252", "fusion_lat": 0.0, "fusion_lon": 0.0, "lon": -77.0074245, "is_disabled": 0, "bike_id": "aaaaee9ae275c2f3b222885819328252", "is_reserved": 0, "rental_uris": {"android": "https://dc.lft.to/lastmile_qr_scan", "ios": "https://dc.lft.to/lastmile_qr_scan"}, "lat": 38.876425}, {"type": "electric_scooter", "name": "7c4fd3ba3efaa8f2d04b064cf0202c61", "fusion_lat": 0.0, "fusion_lon": 0.0, "lon": -77.02900333333334, "is_disabled": 0, "bike_id": "7c4fd3ba3efaa8f2d04b064cf0202c61", "is_reserved": 0, "rental_uris": {"android": "https://dc.lft.to/lastmile_qr_scan", "ios": "https://dc.lft.to/lastmile_qr_scan"}, "lat": 38.897197}, {"type": "electric_scooter", "name": "30f5d6e436f2dbc5b04497c879dcbcb5", "fusion_lat": 0.0, "fusion_lon": 0.0, "lon": -76.99756616666667, "is_disabled": 0, "bike_id": "30f5d6e436f2dbc5b04497c879dcbcb5", "is_reserved": 0, "rental_uris": {"android": "https://dc.lft.to/lastmile_qr_scan", "ios": "https://dc.lft.to/lastmile_qr_scan"}, "lat": 38.88508316666667}, {"type": "electric_scooter", "name": "e49c6a0c35bdf0d2c3463390b3e32197", "fusion_lat": 0.0, "fusion_lon": 0.0, "lon": -77.0427195, "is_disabled": 0, "bike_id": "e49c6a0c35bdf0d2c3463390b3e32197", "is_reserved": 0, "rental_uris": {"android": "https://dc.lft.to/lastmile_qr_scan", "ios": "https://dc.lft.to/lastmile_qr_scan"}, "lat": 38.90369583333333}, {"type": "electric_scooter", "name": "4fe72dbc7ad2833b18cf9ec9354f6e72", "fusion_lat": 0.0, "fusion_lon": 0.0, "lon": -77.02551733333334, "is_disabled": 0, "bike_id": "4fe72dbc7ad2833b18cf9ec9354f6e72", "is_reserved": 0, "rental_uris": {"android": "https://dc.lft.to/lastmile_qr_scan", "ios": "https://dc.lft.to/lastmile_qr_scan"}, "lat": 38.97002416666667}, {"type": "electric_scooter", "name": "046d7d531b1d34380b060a65ecad0027", "fusion_lat": 0.0, "fusion_lon": 0.0, "lon": -77.04197283333333, "is_disabled": 0, "bike_id": "046d7d531b1d34380b060a65ecad0027", "is_reserved": 0, "rental_uris": {"android": "https://dc.lft.to/lastmile_qr_scan", "ios": "https://dc.lft.to/lastmile_qr_scan"}, "lat": 38.901452666666664}, {"type": "electric_scooter", "name": "effe7b7a904ed489807a95bbca01cad2", "fusion_lat": 0.0, "fusion_lon": 0.0, "lon": -77.04332983333333, "is_disabled": 0, "bike_id": "effe7b7a904ed489807a95bbca01cad2", "is_reserved": 0, "rental_uris": {"android": "https://dc.lft.to/lastmile_qr_scan", "ios": "https://dc.lft.to/lastmile_qr_scan"}, "lat": 38.906677333333334}, {"type": "electric_scooter", "name": "d06c31cbd6e0e4df70e9a8ff4f268c16", "fusion_lat": 0.0, "fusion_lon": 0.0, "lon": -77.03851183333333, "is_disabled": 0, "bike_id": "d06c31cbd6e0e4df70e9a8ff4f268c16", "is_reserved": 0, "rental_uris": {"android": "https://dc.lft.to/lastmile_qr_scan", "ios": "https://dc.lft.to/lastmile_qr_scan"}, "lat": 38.916655}, {"type": "electric_bike", "name": "74ab1ed4fe7aa5ee75427f6747a00832", "fusion_lat": 0.0, "fusion_lon": 0.0, "lon": -76.96154883333334, "is_disabled": 0, "bike_id": "74ab1ed4fe7aa5ee75427f6747a00832", "is_reserved": 0, "rental_uris": {"android": "https://dc.lft.to/lastmile_qr_scan", "ios": "https://dc.lft.to/lastmile_qr_scan"}, "lat": 38.856185833333335}, {"type": "electric_scooter", "name": "d037a709e00760d5a7e739faac7e0fe4", "fusion_lat": 0.0, "fusion_lon": 0.0, "lon": -77.00048466666667, "is_disabled": 0, "bike_id": "d037a709e00760d5a7e739faac7e0fe4", "is_reserved": 0, "rental_uris": {"android": "https://dc.lft.to/lastmile_qr_scan", "ios": "https://dc.lft.to/lastmile_qr_scan"}, "lat": 38.875052333333336}, {"type": "electric_scooter", "name": "b86c32bc0d58cd9e54719252b971bf08", "fusion_lat": 0.0, "fusion_lon": 0.0, "lon": -77.029535, "is_disabled": 0, "bike_id": "b86c32bc0d58cd9e54719252b971bf08", "is_reserved": 0, "rental_uris": {"android": "https://dc.lft.to/lastmile_qr_scan", "ios": "https://dc.lft.to/lastmile_qr_scan"}, "lat": 38.904919666666665}, {"type": "electric_scooter", "name": "32c9186ef7fc062de1857c0bc3a9fe07", "fusion_lat": 0.0, "fusion_lon": 0.0, "lon": -77.0303165, "is_disabled": 0, "bike_id": "32c9186ef7fc062de1857c0bc3a9fe07", "is_reserved": 0, "rental_uris": {"android": "https://dc.lft.to/lastmile_qr_scan", "ios": "https://dc.lft.to/lastmile_qr_scan"}, "lat": 38.909434}, {"type": "electric_scooter", "name": "96e6760d0d928c182e690c134a5e95a8", "fusion_lat": 0.0, "fusion_lon": 0.0, "lon": -76.99505416666666, "is_disabled": 0, "bike_id": "96e6760d0d928c182e690c134a5e95a8", "is_reserved": 0, "rental_uris": {"android": "https://dc.lft.to/lastmile_qr_scan", "ios": "https://dc.lft.to/lastmile_qr_scan"}, "lat": 38.90982116666667}, {"type": "electric_scooter", "name": "439a1cbb10cb9dba1ad6b8f423e64421", "fusion_lat": 0.0, "fusion_lon": 0.0, "lon": -77.04577116666667, "is_disabled": 0, "bike_id": "439a1cbb10cb9dba1ad6b8f423e64421", "is_reserved": 0, "rental_uris": {"android": "https://dc.lft.to/lastmile_qr_scan", "ios": "https://dc.lft.to/lastmile_qr_scan"}, "lat": 38.90235466666667}, {"type": "electric_scooter", "name": "e519859aea36057cf4e09b0e930a15e4", "fusion_lat": 0.0, "fusion_lon": 0.0, "lon": -77.02724233333333, "is_disabled": 0, "bike_id": "e519859aea36057cf4e09b0e930a15e4", "is_reserved": 0, "rental_uris": {"android": "https://dc.lft.to/lastmile_qr_scan", "ios": "https://dc.lft.to/lastmile_qr_scan"}, "lat": 38.90395866666667}, {"type": "electric_scooter", "name": "0028be0408b9008b33af10deec0210fb", "fusion_lat": 0.0, "fusion_lon": 0.0, "lon": -77.016538, "is_disabled": 0, "bike_id": "0028be0408b9008b33af10deec0210fb", "is_reserved": 0, "rental_uris": {"android": "https://dc.lft.to/lastmile_qr_scan", "ios": "https://dc.lft.to/lastmile_qr_scan"}, "lat": 38.94206583333333}, {"type": "electric_scooter", "name": "6258078d988841f6b9354833d17fd067", "fusion_lat": 0.0, "fusion_lon": 0.0, "lon": -77.02803033333333, "is_disabled": 0, "bike_id": "6258078d988841f6b9354833d17fd067", "is_reserved": 0, "rental_uris": {"android": "https://dc.lft.to/lastmile_qr_scan", "ios": "https://dc.lft.to/lastmile_qr_scan"}, "lat": 38.89730683333333}, {"type": "electric_scooter", "name": "92debba07544c0951dd5144b486a6463", "fusion_lat": 0.0, "fusion_lon": 0.0, "lon": -76.94065766666667, "is_disabled": 0, "bike_id": "92debba07544c0951dd5144b486a6463", "is_reserved": 0, "rental_uris": {"android": "https://dc.lft.to/lastmile_qr_scan", "ios": "https://dc.lft.to/lastmile_qr_scan"}, "lat": 38.885873833333335}, {"type": "electric_scooter", "name": "d01cc389767e6940b18d88fb5e931646", "fusion_lat": 0.0, "fusion_lon": 0.0, "lon": -76.98072283333333, "is_disabled": 0, "bike_id": "d01cc389767e6940b18d88fb5e931646", "is_reserved": 0, "rental_uris": {"android": "https://dc.lft.to/lastmile_qr_scan", "ios": "https://dc.lft.to/lastmile_qr_scan"}, "lat": 38.9017525}, {"type": "electric_scooter", "name": "58ea93277887ec7f7fcb36ff1982aaf5", "fusion_lat": 0.0, "fusion_lon": 0.0, "lon": -77.02139233333334, "is_disabled": 0, "bike_id": "58ea93277887ec7f7fcb36ff1982aaf5", "is_reserved": 0, "rental_uris": {"android": "https://dc.lft.to/lastmile_qr_scan", "ios": "https://dc.lft.to/lastmile_qr_scan"}, "lat": 38.919126166666665}, {"type": "electric_scooter", "name": "dec9e4246bb074db0b80e5da843c9289", "fusion_lat": 0.0, "fusion_lon": 0.0, "lon": -77.01791416666667, "is_disabled": 0, "bike_id": "dec9e4246bb074db0b80e5da843c9289", "is_reserved": 0, "rental_uris": {"android": "https://dc.lft.to/lastmile_qr_scan", "ios": "https://dc.lft.to/lastmile_qr_scan"}, "lat": 38.89238183333333}, {"type": "electric_scooter", "name": "146d4ad3598a4f536a36fec89638ae57", "fusion_lat": 0.0, "fusion_lon": 0.0, "lon": -76.93388883333333, "is_disabled": 0, "bike_id": "146d4ad3598a4f536a36fec89638ae57", "is_reserved": 0, "rental_uris": {"android": "https://dc.lft.to/lastmile_qr_scan", "ios": "https://dc.lft.to/lastmile_qr_scan"}, "lat": 38.89910616666667}, {"type": "electric_scooter", "name": "b614bb4891c2797fc6a08e229917e819", "fusion_lat": 0.0, "fusion_lon": 0.0, "lon": -77.00481566666667, "is_disabled": 0, "bike_id": "b614bb4891c2797fc6a08e229917e819", "is_reserved": 0, "rental_uris": {"android": "https://dc.lft.to/lastmile_qr_scan", "ios": "https://dc.lft.to/lastmile_qr_scan"}, "lat": 38.874548}, {"type": "electric_scooter", "name": "83f98d5a1e0848f67880aadef741f9d0", "fusion_lat": 0.0, "fusion_lon": 0.0, "lon": -77.02882983333333, "is_disabled": 0, "bike_id": "83f98d5a1e0848f67880aadef741f9d0", "is_reserved": 0, "rental_uris": {"android": "https://dc.lft.to/lastmile_qr_scan", "ios": "https://dc.lft.to/lastmile_qr_scan"}, "lat": 38.93160183333333}, {"type": "electric_scooter", "name": "00b87d9900d6996ad6b0fda6359bd538", "fusion_lat": 0.0, "fusion_lon": 0.0, "lon": -77.03996816666667, "is_disabled": 0, "bike_id": "00b87d9900d6996ad6b0fda6359bd538", "is_reserved": 0, "rental_uris": {"android": "https://dc.lft.to/lastmile_qr_scan", "ios": "https://dc.lft.to/lastmile_qr_scan"}, "lat": 38.934006}, {"type": "electric_scooter", "name": "0f758801473f82138f085d50964391db", "fusion_lat": 0.0, "fusion_lon": 0.0, "lon": -77.039565, "is_disabled": 0, "bike_id": "0f758801473f82138f085d50964391db", "is_reserved": 0, "rental_uris": {"android": "https://dc.lft.to/lastmile_qr_scan", "ios": "https://dc.lft.to/lastmile_qr_scan"}, "lat": 38.892451666666666}, {"type": "electric_scooter", "name": "01613b74043d10e2dc10bdeac746831e", "fusion_lat": 0.0, "fusion_lon": 0.0, "lon": -77.02406583333334, "is_disabled": 0, "bike_id": "01613b74043d10e2dc10bdeac746831e", "is_reserved": 0, "rental_uris": {"android": "https://dc.lft.to/lastmile_qr_scan", "ios": "https://dc.lft.to/lastmile_qr_scan"}, "lat": 38.92083566666667}, {"type": "electric_bike", "name": "49f5bf33a2011295efbbc0563517732c", "fusion_lat": 0.0, "fusion_lon": 0.0, "lon": -77.0206125, "is_disabled": 0, "bike_id": "49f5bf33a2011295efbbc0563517732c", "is_reserved": 0, "rental_uris": {"android": "https://dc.lft.to/lastmile_qr_scan", "ios": "https://dc.lft.to/lastmile_qr_scan"}, "lat": 38.9284865}, {"type": "electric_scooter", "name": "67ba594e2c722c89a771b7817ad29d9f", "fusion_lat": 0.0, "fusion_lon": 0.0, "lon": -77.00700716666667, "is_disabled": 0, "bike_id": "67ba594e2c722c89a771b7817ad29d9f", "is_reserved": 0, "rental_uris": {"android": "https://dc.lft.to/lastmile_qr_scan", "ios": "https://dc.lft.to/lastmile_qr_scan"}, "lat": 38.90550433333333}, {"type": "electric_scooter", "name": "833548deb447d929472f3a3e03129839", "fusion_lat": 0.0, "fusion_lon": 0.0, "lon": -76.99033483333334, "is_disabled": 0, "bike_id": "833548deb447d929472f3a3e03129839", "is_reserved": 0, "rental_uris": {"android": "https://dc.lft.to/lastmile_qr_scan", "ios": "https://dc.lft.to/lastmile_qr_scan"}, "lat": 38.89137616666667}, {"type": "electric_scooter", "name": "74cadd54705c2f6e7f70951d4f70ecda", "fusion_lat": 0.0, "fusion_lon": 0.0, "lon": -77.0415895, "is_disabled": 0, "bike_id": "74cadd54705c2f6e7f70951d4f70ecda", "is_reserved": 0, "rental_uris": {"android": "https://dc.lft.to/lastmile_qr_scan", "ios": "https://dc.lft.to/lastmile_qr_scan"}, "lat": 38.91548733333333}, {"type": "electric_scooter", "name": "53737db0a2051ec0d7df930ef517c64e", "fusion_lat": 0.0, "fusion_lon": 0.0, "lon": -77.03631333333334, "is_disabled": 0, "bike_id": "53737db0a2051ec0d7df930ef517c64e", "is_reserved": 0, "rental_uris": {"android": "https://dc.lft.to/lastmile_qr_scan", "ios": "https://dc.lft.to/lastmile_qr_scan"}, "lat": 38.92596183333333}, {"type": "electric_scooter", "name": "c07c6f7d776e7d0a977842930c0404f2", "fusion_lat": 0.0, "fusion_lon": 0.0, "lon": -77.04156566666667, "is_disabled": 0, "bike_id": "c07c6f7d776e7d0a977842930c0404f2", "is_reserved": 0, "rental_uris": {"android": "https://dc.lft.to/lastmile_qr_scan", "ios": "https://dc.lft.to/lastmile_qr_scan"}, "lat": 38.901258166666665}, {"type": "electric_scooter", "name": "8e6b85dbed1a7696a474a86c09023efc", "fusion_lat": 0.0, "fusion_lon": 0.0, "lon": -77.025683, "is_disabled": 0, "bike_id": "8e6b85dbed1a7696a474a86c09023efc", "is_reserved": 0, "rental_uris": {"android": "https://dc.lft.to/lastmile_qr_scan", "ios": "https://dc.lft.to/lastmile_qr_scan"}, "lat": 38.941987166666664}, {"type": "electric_scooter", "name": "09eceaa8fdd1e1f6886d80117e2747f3", "fusion_lat": 0.0, "fusion_lon": 0.0, "lon": -77.01837083333334, "is_disabled": 0, "bike_id": "09eceaa8fdd1e1f6886d80117e2747f3", "is_reserved": 0, "rental_uris": {"android": "https://dc.lft.to/lastmile_qr_scan", "ios": "https://dc.lft.to/lastmile_qr_scan"}, "lat": 38.909634833333335}, {"type": "electric_scooter", "name": "4aeacec7b0a1d7251fba4bc31d85cb3c", "fusion_lat": 0.0, "fusion_lon": 0.0, "lon": -77.02534083333333, "is_disabled": 0, "bike_id": "4aeacec7b0a1d7251fba4bc31d85cb3c", "is_reserved": 0, "rental_uris": {"android": "https://dc.lft.to/lastmile_qr_scan", "ios": "https://dc.lft.to/lastmile_qr_scan"}, "lat": 38.9208935}, {"type": "electric_scooter", "name": "9609777dacdae77be29b3c4f5d17e9d6", "fusion_lat": 0.0, "fusion_lon": 0.0, "lon": -77.04397466666667, "is_disabled": 0, "bike_id": "9609777dacdae77be29b3c4f5d17e9d6", "is_reserved": 0, "rental_uris": {"android": "https://dc.lft.to/lastmile_qr_scan", "ios": "https://dc.lft.to/lastmile_qr_scan"}, "lat": 38.901633833333335}, {"type": "electric_scooter", "name": "4141b97f3b56e73558f5a0f405f7dfdd", "fusion_lat": 0.0, "fusion_lon": 0.0, "lon": -77.012105, "is_disabled": 0, "bike_id": "4141b97f3b56e73558f5a0f405f7dfdd", "is_reserved": 0, "rental_uris": {"android": "https://dc.lft.to/lastmile_qr_scan", "ios": "https://dc.lft.to/lastmile_qr_scan"}, "lat": 38.918214}, {"type": "electric_scooter", "name": "ec1019f4035630c20622667800fc8066", "fusion_lat": 0.0, "fusion_lon": 0.0, "lon": -77.03629883333333, "is_disabled": 0, "bike_id": "ec1019f4035630c20622667800fc8066", "is_reserved": 0, "rental_uris": {"android": "https://dc.lft.to/lastmile_qr_scan", "ios": "https://dc.lft.to/lastmile_qr_scan"}, "lat": 38.9368565}, {"type": "electric_scooter", "name": "2f4ddeb3565b78223f4561cda67c0d77", "fusion_lat": 0.0, "fusion_lon": 0.0, "lon": -77.078836, "is_disabled": 0, "bike_id": "2f4ddeb3565b78223f4561cda67c0d77", "is_reserved": 0, "rental_uris": {"android": "https://dc.lft.to/lastmile_qr_scan", "ios": "https://dc.lft.to/lastmile_qr_scan"}, "lat": 38.925376}, {"type": "electric_scooter", "name": "81ebd645f32288d1d66ed10d7fb51c8e", "fusion_lat": 0.0, "fusion_lon": 0.0, "lon": -77.0395685, "is_disabled": 0, "bike_id": "81ebd645f32288d1d66ed10d7fb51c8e", "is_reserved": 0, "rental_uris": {"android": "https://dc.lft.to/lastmile_qr_scan", "ios": "https://dc.lft.to/lastmile_qr_scan"}, "lat": 38.89247966666667}, {"type": "electric_scooter", "name": "2ece45832dfdf9f8783f4065d859efec", "fusion_lat": 0.0, "fusion_lon": 0.0, "lon": -77.05920833333333, "is_disabled": 0, "bike_id": "2ece45832dfdf9f8783f4065d859efec", "is_reserved": 0, "rental_uris": {"android": "https://dc.lft.to/lastmile_qr_scan", "ios": "https://dc.lft.to/lastmile_qr_scan"}, "lat": 38.90279366666667}, {"type": "electric_scooter", "name": "22721b027e3372c8d8bafdc940295d0f", "fusion_lat": 0.0, "fusion_lon": 0.0, "lon": -77.01952616666667, "is_disabled": 0, "bike_id": "22721b027e3372c8d8bafdc940295d0f", "is_reserved": 0, "rental_uris": {"android": "https://dc.lft.to/lastmile_qr_scan", "ios": "https://dc.lft.to/lastmile_qr_scan"}, "lat": 38.92252383333334}, {"type": "electric_scooter", "name": "ab2281a1b1e5c092beb4cd4ef850a610", "fusion_lat": 0.0, "fusion_lon": 0.0, "lon": -76.99866066666667, "is_disabled": 0, "bike_id": "ab2281a1b1e5c092beb4cd4ef850a610", "is_reserved": 0, "rental_uris": {"android": "https://dc.lft.to/lastmile_qr_scan", "ios": "https://dc.lft.to/lastmile_qr_scan"}, "lat": 38.9003265}, {"type": "electric_scooter", "name": "c7e33c18c0766e26c0d8523546c8fa59", "fusion_lat": 0.0, "fusion_lon": 0.0, "lon": -77.00263433333333, "is_disabled": 0, "bike_id": "c7e33c18c0766e26c0d8523546c8fa59", "is_reserved": 0, "rental_uris": {"android": "https://dc.lft.to/lastmile_qr_scan", "ios": "https://dc.lft.to/lastmile_qr_scan"}, "lat": 38.90601983333333}, {"type": "electric_scooter", "name": "bf7fe357024f695b62d9c78a6e6fa235", "fusion_lat": 0.0, "fusion_lon": 0.0, "lon": -77.000548, "is_disabled": 0, "bike_id": "bf7fe357024f695b62d9c78a6e6fa235", "is_reserved": 0, "rental_uris": {"android": "https://dc.lft.to/lastmile_qr_scan", "ios": "https://dc.lft.to/lastmile_qr_scan"}, "lat": 38.87879183333333}, {"type": "electric_scooter", "name": "63917db8e7ed64313642bcc4ee1e672a", "fusion_lat": 0.0, "fusion_lon": 0.0, "lon": -77.036421, "is_disabled": 0, "bike_id": "63917db8e7ed64313642bcc4ee1e672a", "is_reserved": 0, "rental_uris": {"android": "https://dc.lft.to/lastmile_qr_scan", "ios": "https://dc.lft.to/lastmile_qr_scan"}, "lat": 38.902798833333335}, {"type": "electric_bike", "name": "728b22bd2291403ed02b719c3f464063", "fusion_lat": 0.0, "fusion_lon": 0.0, "lon": -77.04996366666667, "is_disabled": 0, "bike_id": "728b22bd2291403ed02b719c3f464063", "is_reserved": 0, "rental_uris": {"android": "https://dc.lft.to/lastmile_qr_scan", "ios": "https://dc.lft.to/lastmile_qr_scan"}, "lat": 38.805303333333335}, {"type": "electric_scooter", "name": "56c5a84b0899237319db4304933813f4", "fusion_lat": 0.0, "fusion_lon": 0.0, "lon": -77.026286, "is_disabled": 0, "bike_id": "56c5a84b0899237319db4304933813f4", "is_reserved": 0, "rental_uris": {"android": "https://dc.lft.to/lastmile_qr_scan", "ios": "https://dc.lft.to/lastmile_qr_scan"}, "lat": 38.938608}, {"type": "electric_scooter", "name": "3ff794ce3e4991a4685d09d732415f76", "fusion_lat": 0.0, "fusion_lon": 0.0, "lon": -77.0221935, "is_disabled": 0, "bike_id": "3ff794ce3e4991a4685d09d732415f76", "is_reserved": 0, "rental_uris": {"android": "https://dc.lft.to/lastmile_qr_scan", "ios": "https://dc.lft.to/lastmile_qr_scan"}, "lat": 38.924683333333334}, {"type": "electric_scooter", "name": "8fbce2313df78364d637c2a28b42eecf", "fusion_lat": 0.0, "fusion_lon": 0.0, "lon": -76.99771883333334, "is_disabled": 0, "bike_id": "8fbce2313df78364d637c2a28b42eecf", "is_reserved": 0, "rental_uris": {"android": "https://dc.lft.to/lastmile_qr_scan", "ios": "https://dc.lft.to/lastmile_qr_scan"}, "lat": 38.911177333333335}, {"type": "electric_scooter", "name": "9590010b15a8810d23c3503a4a1293fa", "fusion_lat": 0.0, "fusion_lon": 0.0, "lon": -77.04644633333334, "is_disabled": 0, "bike_id": "9590010b15a8810d23c3503a4a1293fa", "is_reserved": 0, "rental_uris": {"android": "https://dc.lft.to/lastmile_qr_scan", "ios": "https://dc.lft.to/lastmile_qr_scan"}, "lat": 38.906732166666664}, {"type": "electric_scooter", "name": "fd9f26230b9c44e18da934a899bea460", "fusion_lat": 0.0, "fusion_lon": 0.0, "lon": -77.02111416666666, "is_disabled": 0, "bike_id": "fd9f26230b9c44e18da934a899bea460", "is_reserved": 0, "rental_uris": {"android": "https://dc.lft.to/lastmile_qr_scan", "ios": "https://dc.lft.to/lastmile_qr_scan"}, "lat": 38.89598516666667}, {"type": "electric_scooter", "name": "a71ab271396d95cc0495c0e19a722e0c", "fusion_lat": 0.0, "fusion_lon": 0.0, "lon": -77.04568533333334, "is_disabled": 0, "bike_id": "a71ab271396d95cc0495c0e19a722e0c", "is_reserved": 0, "rental_uris": {"android": "https://dc.lft.to/lastmile_qr_scan", "ios": "https://dc.lft.to/lastmile_qr_scan"}, "lat": 38.903817833333335}, {"type": "electric_scooter", "name": "66d009386e96df4cf7853bddc2d5ed44", "fusion_lat": 0.0, "fusion_lon": 0.0, "lon": -77.05323716666666, "is_disabled": 0, "bike_id": "66d009386e96df4cf7853bddc2d5ed44", "is_reserved": 0, "rental_uris": {"android": "https://dc.lft.to/lastmile_qr_scan", "ios": "https://dc.lft.to/lastmile_qr_scan"}, "lat": 38.90450383333334}, {"type": "electric_scooter", "name": "fdc86f7b07073fe39199e3199125fff2", "fusion_lat": 0.0, "fusion_lon": 0.0, "lon": -77.02426633333333, "is_disabled": 0, "bike_id": "fdc86f7b07073fe39199e3199125fff2", "is_reserved": 0, "rental_uris": {"android": "https://dc.lft.to/lastmile_qr_scan", "ios": "https://dc.lft.to/lastmile_qr_scan"}, "lat": 38.91551366666667}, {"type": "electric_scooter", "name": "ec33a867646c7ef17b4adf217c4f62de", "fusion_lat": 0.0, "fusion_lon": 0.0, "lon": -77.01569466666666, "is_disabled": 0, "bike_id": "ec33a867646c7ef17b4adf217c4f62de", "is_reserved": 0, "rental_uris": {"android": "https://dc.lft.to/lastmile_qr_scan", "ios": "https://dc.lft.to/lastmile_qr_scan"}, "lat": 38.883225}, {"type": "electric_bike", "name": "2ec4acc368e64bb4bfc8554fd6c2e35c", "fusion_lat": 0.0, "fusion_lon": 0.0, "lon": -76.950646, "is_disabled": 0, "bike_id": "2ec4acc368e64bb4bfc8554fd6c2e35c", "is_reserved": 0, "rental_uris": {"android": "https://dc.lft.to/lastmile_qr_scan", "ios": "https://dc.lft.to/lastmile_qr_scan"}, "lat": 39.08509183333334}, {"type": "electric_scooter", "name": "898696f6350cc6489416bed53a18dde7", "fusion_lat": 0.0, "fusion_lon": 0.0, "lon": -77.047493, "is_disabled": 0, "bike_id": "898696f6350cc6489416bed53a18dde7", "is_reserved": 0, "rental_uris": {"android": "https://dc.lft.to/lastmile_qr_scan", "ios": "https://dc.lft.to/lastmile_qr_scan"}, "lat": 38.90532533333333}, {"type": "electric_scooter", "name": "94990a4535cfe43f36e8d63b83bab132", "fusion_lat": 0.0, "fusion_lon": 0.0, "lon": -77.03484, "is_disabled": 0, "bike_id": "94990a4535cfe43f36e8d63b83bab132", "is_reserved": 0, "rental_uris": {"android": "https://dc.lft.to/lastmile_qr_scan", "ios": "https://dc.lft.to/lastmile_qr_scan"}, "lat": 38.92481766666667}, {"type": "electric_scooter", "name": "96bc4ce9b07446a682c999291888f55c", "fusion_lat": 0.0, "fusion_lon": 0.0, "lon": -77.00218116666667, "is_disabled": 0, "bike_id": "96bc4ce9b07446a682c999291888f55c", "is_reserved": 0, "rental_uris": {"android": "https://dc.lft.to/lastmile_qr_scan", "ios": "https://dc.lft.to/lastmile_qr_scan"}, "lat": 38.900245166666664}, {"type": "electric_scooter", "name": "78adfcd9f2e7bd8442c378fd8a43270d", "fusion_lat": 0.0, "fusion_lon": 0.0, "lon": -77.04169216666666, "is_disabled": 0, "bike_id": "78adfcd9f2e7bd8442c378fd8a43270d", "is_reserved": 0, "rental_uris": {"android": "https://dc.lft.to/lastmile_qr_scan", "ios": "https://dc.lft.to/lastmile_qr_scan"}, "lat": 38.914052833333336}, {"type": "electric_scooter", "name": "934fb458c3105e6c25cd87d500dca4f8", "fusion_lat": 0.0, "fusion_lon": 0.0, "lon": -77.022327, "is_disabled": 0, "bike_id": "934fb458c3105e6c25cd87d500dca4f8", "is_reserved": 0, "rental_uris": {"android": "https://dc.lft.to/lastmile_qr_scan", "ios": "https://dc.lft.to/lastmile_qr_scan"}, "lat": 38.91114833333334}, {"type": "electric_scooter", "name": "37dad9a3349f9504dcf67676873d7fbf", "fusion_lat": 0.0, "fusion_lon": 0.0, "lon": -77.0092085, "is_disabled": 0, "bike_id": "37dad9a3349f9504dcf67676873d7fbf", "is_reserved": 0, "rental_uris": {"android": "https://dc.lft.to/lastmile_qr_scan", "ios": "https://dc.lft.to/lastmile_qr_scan"}, "lat": 38.89743416666666}, {"type": "electric_scooter", "name": "b6689e73b8324f954ea30128abd828c8", "fusion_lat": 0.0, "fusion_lon": 0.0, "lon": -77.01914716666667, "is_disabled": 0, "bike_id": "b6689e73b8324f954ea30128abd828c8", "is_reserved": 0, "rental_uris": {"android": "https://dc.lft.to/lastmile_qr_scan", "ios": "https://dc.lft.to/lastmile_qr_scan"}, "lat": 38.917352}, {"type": "electric_scooter", "name": "d65897dccd6e0ce80edcdb832c42887b", "fusion_lat": 0.0, "fusion_lon": 0.0, "lon": -77.07331116666667, "is_disabled": 0, "bike_id": "d65897dccd6e0ce80edcdb832c42887b", "is_reserved": 0, "rental_uris": {"android": "https://dc.lft.to/lastmile_qr_scan", "ios": "https://dc.lft.to/lastmile_qr_scan"}, "lat": 38.92609366666667}, {"type": "electric_scooter", "name": "ee4146cb6d3925df90b16523dd8ccd68", "fusion_lat": 0.0, "fusion_lon": 0.0, "lon": -76.98548133333334, "is_disabled": 0, "bike_id": "ee4146cb6d3925df90b16523dd8ccd68", "is_reserved": 0, "rental_uris": {"android": "https://dc.lft.to/lastmile_qr_scan", "ios": "https://dc.lft.to/lastmile_qr_scan"}, "lat": 38.9070345}, {"type": "electric_scooter", "name": "b76b0a66cf1471fdc03eb4812c3a4a32", "fusion_lat": 0.0, "fusion_lon": 0.0, "lon": -77.01839816666667, "is_disabled": 0, "bike_id": "b76b0a66cf1471fdc03eb4812c3a4a32", "is_reserved": 0, "rental_uris": {"android": "https://dc.lft.to/lastmile_qr_scan", "ios": "https://dc.lft.to/lastmile_qr_scan"}, "lat": 38.92141683333333}, {"type": "electric_scooter", "name": "3d278b5e7301f25809e0b1004087870b", "fusion_lat": 0.0, "fusion_lon": 0.0, "lon": -77.02201783333334, "is_disabled": 0, "bike_id": "3d278b5e7301f25809e0b1004087870b", "is_reserved": 0, "rental_uris": {"android": "https://dc.lft.to/lastmile_qr_scan", "ios": "https://dc.lft.to/lastmile_qr_scan"}, "lat": 38.91439583333333}, {"type": "electric_scooter", "name": "ab1a0659805c3865443723acd98a9ed9", "fusion_lat": 0.0, "fusion_lon": 0.0, "lon": -77.0199965, "is_disabled": 0, "bike_id": "ab1a0659805c3865443723acd98a9ed9", "is_reserved": 0, "rental_uris": {"android": "https://dc.lft.to/lastmile_qr_scan", "ios": "https://dc.lft.to/lastmile_qr_scan"}, "lat": 38.876077}, {"type": "electric_scooter", "name": "e12cee616cebdf2614aa49c15929d906", "fusion_lat": 0.0, "fusion_lon": 0.0, "lon": -77.004559, "is_disabled": 0, "bike_id": "e12cee616cebdf2614aa49c15929d906", "is_reserved": 0, "rental_uris": {"android": "https://dc.lft.to/lastmile_qr_scan", "ios": "https://dc.lft.to/lastmile_qr_scan"}, "lat": 38.8782445}, {"type": "electric_scooter", "name": "6d4298ac650da5e17dc454567ca8c0f1", "fusion_lat": 0.0, "fusion_lon": 0.0, "lon": -77.00471683333333, "is_disabled": 0, "bike_id": "6d4298ac650da5e17dc454567ca8c0f1", "is_reserved": 0, "rental_uris": {"android": "https://dc.lft.to/lastmile_qr_scan", "ios": "https://dc.lft.to/lastmile_qr_scan"}, "lat": 38.911987}, {"type": "electric_scooter", "name": "3c1fd774d98ad05e7b77c7c6d693e3f3", "fusion_lat": 0.0, "fusion_lon": 0.0, "lon": -77.010952, "is_disabled": 0, "bike_id": "3c1fd774d98ad05e7b77c7c6d693e3f3", "is_reserved": 0, "rental_uris": {"android": "https://dc.lft.to/lastmile_qr_scan", "ios": "https://dc.lft.to/lastmile_qr_scan"}, "lat": 38.91631016666667}, {"type": "electric_scooter", "name": "bc1c4e9ed2b6c3436b7b220fa3cea43a", "fusion_lat": 0.0, "fusion_lon": 0.0, "lon": -77.0443925, "is_disabled": 0, "bike_id": "bc1c4e9ed2b6c3436b7b220fa3cea43a", "is_reserved": 0, "rental_uris": {"android": "https://dc.lft.to/lastmile_qr_scan", "ios": "https://dc.lft.to/lastmile_qr_scan"}, "lat": 38.922362666666665}, {"type": "electric_scooter", "name": "859ad6382a31696b7c324d327826bece", "fusion_lat": 0.0, "fusion_lon": 0.0, "lon": -76.99759783333333, "is_disabled": 0, "bike_id": "859ad6382a31696b7c324d327826bece", "is_reserved": 0, "rental_uris": {"android": "https://dc.lft.to/lastmile_qr_scan", "ios": "https://dc.lft.to/lastmile_qr_scan"}, "lat": 38.900437833333335}, {"type": "electric_scooter", "name": "1f7f0fd4ab2365209d531e0bc43680c9", "fusion_lat": 0.0, "fusion_lon": 0.0, "lon": -77.03178666666666, "is_disabled": 0, "bike_id": "1f7f0fd4ab2365209d531e0bc43680c9", "is_reserved": 0, "rental_uris": {"android": "https://dc.lft.to/lastmile_qr_scan", "ios": "https://dc.lft.to/lastmile_qr_scan"}, "lat": 38.897199666666666},