{"data": {"bikes": [{"name": "07878cb36b456b18a24d48041189d975", "lon": -76.997333, "lat": 38.901321333333335, "type": "electric_scooter", "fusion_lon": 0.0, "is_reserved": 0, "bike_id": "07878cb36b456b18a24d48041189d975", "fusion_lat": 0.0, "is_disabled": 0, "rental_uris": {"ios": "https://dc.lft.to/lastmile_qr_scan", "android": "https://dc.lft.to/lastmile_qr_scan"}}, {"name": "866558959f00da779e8546f2b9372932", "lon": -77.062943, "lat": 38.90396716666667, "type": "electric_scooter", "fusion_lon": 0.0, "is_reserved": 0, "bike_id": "866558959f00da779e8546f2b9372932", "fusion_lat": 0.0, "is_disabled": 0, "rental_uris": {"ios": "https://dc.lft.to/lastmile_qr_scan", "android": "https://dc.lft.to/lastmile_qr_scan"}}, {"name": "09ac43d6516e8ecf3e83d49bc76b09dc", "lon": -76.98693266666666, "lat": 38.862570833333336, "type": "electric_scooter", "fusion_lon": 0.0, "is_reserved": 0, "bike_id": "09ac43d6516e8ecf3e83d49bc76b09dc", "fusion_lat": 0.0, "is_disabled": 0, "rental_uris": {"ios": "https://dc.lft.to/lastmile_qr_scan", "android": "https://dc.lft.to/lastmile_qr_scan"}}, {"name": "cfb94c7798f53cdbb76e3658096501e7", "lon": -77.02780316666667, "lat": 38.961505333333335, "type": "electric_scooter", "fusion_lon": 0.0, "is_reserved": 0, "bike_id": "cfb94c7798f53cdbb76e3658096501e7", "fusion_lat": 0.0, "is_disabled": 0, "rental_uris": {"ios": "https://dc.lft.to/lastmile_qr_scan", "android": "https://dc.lft.to/lastmile_qr_scan"}}, {"name": "e7336283549826c539a457d2667bd878", "lon": -77.02642483333334, "lat": 38.891960833333336, "type": "electric_scooter", "fusion_lon": 0.0, "is_reserved": 0, "bike_id": "e7336283549826c539a457d2667bd878", "fusion_lat": 0.0, "is_disabled": 0, "rental_uris": {"ios": "https://dc.lft.to/lastmile_qr_scan", "android": "https://dc.lft.to/lastmile_qr_scan"}}, {"name": "861164d8e6d30aef7109c617329d85ec", "lon": -77.02732516666667, "lat": 38.934230166666666, "type": "electric_scooter", "fusion_lon": 0.0, "is_reserved": 0, "bike_id": "861164d8e6d30aef7109c617329d85ec", "fusion_lat": 0.0, "is_disabled": 0, "rental_uris": {"ios": "https://dc.lft.to/lastmile_qr_scan", "android": "https://dc.lft.to/lastmile_qr_scan"}}, {"name": "6cc653b82c8521ffb4575064b432b642", "lon": -77.00844883333333, "lat": 38.912517666666666, "type": "electric_scooter", "fusion_lon": 0.0, "is_reserved": 0, "bike_id": "6cc653b82c8521ffb4575064b432b642", "fusion_lat": 0.0, "is_disabled": 0, "rental_uris": {"ios": "https://dc.lft.to/lastmile_qr_scan", "android": "https://dc.lft.to/lastmile_qr_scan"}}, {"name": "7800565ef3fa96461d129e1d9ccc745c", "lon": -77.06328916666666, "lat": 38.9076605, "type": "electric_scooter", "fusion_lon": 0.0, "is_reserved": 0, "bike_id": "7800565ef3fa96461d129e1d9ccc745c", "fusion_lat": 0.0, "is_disabled": 0, "rental_uris": {"ios": "https://dc.lft.to/lastmile_qr_scan", "android": "https://dc.lft.to/lastmile_qr_scan"}}, {"name": "3dde24c5a68422f407cbd043e6e459fe", "lon": -77.03280916666667, "lat": 38.936639166666666, "type": "electric_scooter", "fusion_lon": 0.0, "is_reserved": 0, "bike_id": "3dde24c5a68422f407cbd043e6e459fe", "fusion_lat": 0.0, "is_disabled": 0, "rental_uris": {"ios": "https://dc.lft.to/lastmile_qr_scan", "android": "https://dc.lft.to/lastmile_qr_scan"}}, {"name": "21d1e71692c5a42737870a67d6ec516b", "lon": -77.0143585, "lat": 38.91964816666667, "type": "electric_scooter", "fusion_lon": 0.0, "is_reserved": 0, "bike_id": "21d1e71692c5a42737870a67d6ec516b", "fusion_lat": 0.0, "is_disabled": 0, "rental_uris": {"ios": "https://dc.lft.to/lastmile_qr_scan", "android": "https://dc.lft.to/lastmile_qr_scan"}}, {"name": "b4f8e77add2e485e2cb48f2b5b705be2", "lon": -77.0276355, "lat": 38.9542205, "type": "electric_scooter", "fusion_lon": 0.0, "is_reserved": 0, "bike_id": "b4f8e77add2e485e2cb48f2b5b705be2", "fusion_lat": 0.0, "is_disabled": 0, "rental_uris": {"ios": "https://dc.lft.to/lastmile_qr_scan", "android": "https://dc.lft.to/lastmile_qr_scan"}}, {"name": "8eb7a816c2995dc724e3e55155336ac0", "lon": -77.05347283333333, "lat": 38.92349016666667, "type": "electric_scooter", "fusion_lon": 0.0, "is_reserved": 0, "bike_id": "8eb7a816c2995dc724e3e55155336ac0", "fusion_lat": 0.0, "is_disabled": 0, "rental_uris": {"ios": "https://dc.lft.to/lastmile_qr_scan", "android": "https://dc.lft.to/lastmile_qr_scan"}}, {"name": "917849df5f4979804b9cb7342f8fcd0e", "lon": -77.01597633333333, "lat": 38.917987833333335, "type": "electric_scooter", "fusion_lon": 0.0, "is_reserved": 0, "bike_id": "917849df5f4979804b9cb7342f8fcd0e", "fusion_lat": 0.0, "is_disabled": 0, "rental_uris": {"ios": "https://dc.lft.to/lastmile_qr_scan", "android": "https://dc.lft.to/lastmile_qr_scan"}}, {"name": "6507da72a434975361705baf17297757", "lon": -77.03061666666666, "lat": 38.92246266666667, "type": "electric_scooter", "fusion_lon": 0.0, "is_reserved": 0, "bike_id": "6507da72a434975361705baf17297757", "fusion_lat": 0.0, "is_disabled": 0, "rental_uris": {"ios": "https://dc.lft.to/lastmile_qr_scan", "android": "https://dc.lft.to/lastmile_qr_scan"}}, {"name": "ecf2f4e79b1632996af308905a982e17", "lon": -77.02205433333333, "lat": 38.902004833333336, "type": "electric_scooter", "fusion_lon": 0.0, "is_reserved": 0, "bike_id": "ecf2f4e79b1632996af308905a982e17", "fusion_lat": 0.0, "is_disabled": 0, "rental_uris": {"ios": "https://dc.lft.to/lastmile_qr_scan", "android": "https://dc.lft.to/lastmile_qr_scan"}}, {"name": "a423d9b4a043a2df78e266d0bb6701dd", "lon": -77.033237, "lat": 38.91319566666667, "type": "electric_scooter", "fusion_lon": 0.0, "is_reserved": 0, "bike_id": "a423d9b4a043a2df78e266d0bb6701dd", "fusion_lat": 0.0, "is_disabled": 0, "rental_uris": {"ios": "https://dc.lft.to/lastmile_qr_scan", "android": "https://dc.lft.to/lastmile_qr_scan"}}, {"name": "678ce08dac1ae99d0b5e399a0c224b79", "lon": -76.993379, "lat": 38.85985983333333, "type": "electric_scooter", "fusion_lon": 0.0, "is_reserved": 0, "bike_id": "678ce08dac1ae99d0b5e399a0c224b79", "fusion_lat": 0.0, "is_disabled": 0, "rental_uris": {"ios": "https://dc.lft.to/lastmile_qr_scan", "android": "https://dc.lft.to/lastmile_qr_scan"}}, {"name": "8c3692ffaab31ba1ceda0e939b984f21", "lon": -77.02315833333333, "lat": 38.91765633333333, "type": "electric_scooter", "fusion_lon": 0.0, "is_reserved": 0, "bike_id": "8c3692ffaab31ba1ceda0e939b984f21", "fusion_lat": 0.0, "is_disabled": 0, "rental_uris": {"ios": "https://dc.lft.to/lastmile_qr_scan", "android": "https://dc.lft.to/lastmile_qr_scan"}}, {"name": "8ef06b7c19a41130f3553204d7f361e8", "lon": -76.99902916666667, "lat": 38.94687583333334, "type": "electric_scooter", "fusion_lon": 0.0, "is_reserved": 0, "bike_id": "8ef06b7c19a41130f3553204d7f361e8", "fusion_lat": 0.0, "is_disabled": 0, "rental_uris": {"ios": "https://dc.lft.to/lastmile_qr_scan", "android": "https://dc.lft.to/lastmile_qr_scan"}}, {"name": "9ba555f5aad4354173e943aff749a5dd", "lon": -77.04446666666666, "lat": 38.921903666666665, "type": "electric_scooter", "fusion_lon": 0.0, "is_reserved": 0, "bike_id": "9ba555f5aad4354173e943aff749a5dd", "fusion_lat": 0.0, "is_disabled": 0, "rental_uris": {"ios": "https://dc.lft.to/lastmile_qr_scan", "android": "https://dc.lft.to/lastmile_qr_scan"}}, {"name": "24bb36ab6e22a2fa13205845bddaecb6", "lon": -77.0209545, "lat": 38.9214595, "type": "electric_scooter", "fusion_lon": 0.0, "is_reserved": 0, "bike_id": "24bb36ab6e22a2fa13205845bddaecb6", "fusion_lat": 0.0, "is_disabled": 0, "rental_uris": {"ios": "https://dc.lft.to/lastmile_qr_scan", "android": "https://dc.lft.to/lastmile_qr_scan"}}, {"name": "5d89d9f44036d633d377147a29427da0", "lon": -77.02353133333334, "lat": 38.9461835, "type": "electric_scooter", "fusion_lon": 0.0, "is_reserved": 0, "bike_id": "5d89d9f44036d633d377147a29427da0", "fusion_lat": 0.0, "is_disabled": 0, "rental_uris": {"ios": "https://dc.lft.to/lastmile_qr_scan", "android": "https://dc.lft.to/lastmile_qr_scan"}}, {"name": "5974ea51b34ec04806edf7f4c4713668", "lon": -76.9735975, "lat": 38.849620333333334, "type": "electric_scooter", "fusion_lon": 0.0, "is_reserved": 0, "bike_id": "5974ea51b34ec04806edf7f4c4713668", "fusion_lat": 0.0, "is_disabled": 0, "rental_uris": {"ios": "https://dc.lft.to/lastmile_qr_scan", "android": "https://dc.lft.to/lastmile_qr_scan"}}, {"name": "2e943cd7dcd76c30cfd0b49c8274d0ae", "lon": -77.04650566666666, "lat": 39.05498516666667, "type": "electric_bike", "fusion_lon": 0.0, "is_reserved": 0, "bike_id": "2e943cd7dcd76c30cfd0b49c8274d0ae", "fusion_lat": 0.0, "is_disabled": 0, "rental_uris": {"ios": "https://dc.lft.to/lastmile_qr_scan", "android": "https://dc.lft.to/lastmile_qr_scan"}}, {"name": "8c990122f6541354da0315b75880b72b", "lon": -77.01759783333334, "lat": 38.876841666666664, "type": "electric_scooter", "fusion_lon": 0.0, "is_reserved": 0, "bike_id": "8c990122f6541354da0315b75880b72b", "fusion_lat": 0.0, "is_disabled": 0, "rental_uris": {"ios": "https://dc.lft.to/lastmile_qr_scan", "android": "https://dc.lft.to/lastmile_qr_scan"}}, {"name": "bae2271340224723e259a6c339387351", "lon": -77.02407366666667, "lat": 38.919646, "type": "electric_scooter", "fusion_lon": 0.0, "is_reserved": 0, "bike_id": "bae2271340224723e259a6c339387351", "fusion_lat": 0.0, "is_disabled": 0, "rental_uris": {"ios": "https://dc.lft.to/lastmile_qr_scan", "android": "https://dc.lft.to/lastmile_qr_scan"}}, {"name": "f45ab90c599b08dc211b28721ce69996", "lon": -76.956538, "lat": 38.89610583333334, "type": "electric_scooter", "fusion_lon": 0.0, "is_reserved": 0, "bike_id": "f45ab90c599b08dc211b28721ce69996", "fusion_lat": 0.0, "is_disabled": 0, "rental_uris": {"ios": "https://dc.lft.to/lastmile_qr_scan", "android": "https://dc.lft.to/lastmile_qr_scan"}}, {"name": "6a62d5e057819c3b953af4a87dd4f9af", "lon": -77.026073, "lat": 38.962412, "type": "electric_bike", "fusion_lon": 0.0, "is_reserved": 0, "bike_id": "6a62d5e057819c3b953af4a87dd4f9af", "fusion_lat": 0.0, "is_disabled": 0, "rental_uris": {"ios": "https://dc.lft.to/lastmile_qr_scan", "android": "https://dc.lft.to/lastmile_qr_scan"}}, {"name": "bbb53a1f11f34cf14fc0c4acb7a0ad7d", "lon": -77.04736833333334, "lat": 38.913343833333336, "type": "electric_scooter", "fusion_lon": 0.0, "is_reserved": 0, "bike_id": "bbb53a1f11f34cf14fc0c4acb7a0ad7d", "fusion_lat": 0.0, "is_disabled": 0, "rental_uris": {"ios": "https://dc.lft.to/lastmile_qr_scan", "android": "https://dc.lft.to/lastmile_qr_scan"}}, {"name": "4b253316c8348c4e18cd3e80bd75ad81", "lon": -77.0174305, "lat": 38.903758333333336, "type": "electric_scooter", "fusion_lon": 0.0, "is_reserved": 0, "bike_id": "4b253316c8348c4e18cd3e80bd75ad81", "fusion_lat": 0.0, "is_disabled": 0, "rental_uris": {"ios": "https://dc.lft.to/lastmile_qr_scan", "android": "https://dc.lft.to/lastmile_qr_scan"}}, {"name": "c9bca43ce1133827c96267ca7f625475", "lon": -77.02831766666667, "lat": 38.997936833333334, "type": "electric_bike", "fusion_lon": 0.0, "is_reserved": 0, "bike_id": "c9bca43ce1133827c96267ca7f625475", "fusion_lat": 0.0, "is_disabled": 0, "rental_uris": {"ios": "https://dc.lft.to/lastmile_qr_scan", "android": "https://dc.lft.to/lastmile_qr_scan"}}, {"name": "5d6e7e08e0d8233082d2d67039e19742", "lon": -77.009859, "lat": 38.87291183333333, "type": "electric_scooter", "fusion_lon": 0.0, "is_reserved": 0, "bike_id": "5d6e7e08e0d8233082d2d67039e19742", "fusion_lat": 0.0, "is_disabled": 0, "rental_uris": {"ios": "https://dc.lft.to/lastmile_qr_scan", "android": "https://dc.lft.to/lastmile_qr_scan"}}, {"name": "47beb5b60bd893ec9c0cbfb76bdea85d", "lon": -77.07331483333333, "lat": 38.92726183333333, "type": "electric_bike", "fusion_lon": 0.0, "is_reserved": 0, "bike_id": "47beb5b60bd893ec9c0cbfb76bdea85d", "fusion_lat": 0.0, "is_disabled": 0, "rental_uris": {"ios": "https://dc.lft.to/lastmile_qr_scan", "android": "https://dc.lft.to/lastmile_qr_scan"}}, {"name": "ad211cedaba6c18206186584dc3ce814", "lon": -77.03422616666667, "lat": 38.912551666666666, "type": "electric_scooter", "fusion_lon": 0.0, "is_reserved": 0, "bike_id": "ad211cedaba6c18206186584dc3ce814", "fusion_lat": 0.0, "is_disabled": 0, "rental_uris": {"ios": "https://dc.lft.to/lastmile_qr_scan", "android": "https://dc.lft.to/lastmile_qr_scan"}}, {"name": "d98400b2ec6d35bbb12064b421705b3f", "lon": -77.03861, "lat": 38.9155375, "type": "electric_scooter", "fusion_lon": 0.0, "is_reserved": 0, "bike_id": "d98400b2ec6d35bbb12064b421705b3f", "fusion_lat": 0.0, "is_disabled": 0, "rental_uris": {"ios": "https://dc.lft.to/lastmile_qr_scan", "android": "https://dc.lft.to/lastmile_qr_scan"}}, {"name": "842217671ec37bedec5de572dbc11dd1", "lon": -77.04100933333334, "lat": 38.91772866666667, "type": "electric_scooter", "fusion_lon": 0.0, "is_reserved": 0, "bike_id": "842217671ec37bedec5de572dbc11dd1", "fusion_lat": 0.0, "is_disabled": 0, "rental_uris": {"ios": "https://dc.lft.to/lastmile_qr_scan", "android": "https://dc.lft.to/lastmile_qr_scan"}}, {"name": "1f1ad2b617e2c965bf0604ced39882ad", "lon": -77.02138166666667, "lat": 38.937667, "type": "electric_scooter", "fusion_lon": 0.0, "is_reserved": 0, "bike_id": "1f1ad2b617e2c965bf0604ced39882ad", "fusion_lat": 0.0, "is_disabled": 0, "rental_uris": {"ios": "https://dc.lft.to/lastmile_qr_scan", "android": "https://dc.lft.to/lastmile_qr_scan"}}, {"name": "d202ce1a0a56b8dc373e7e8317a7c289", "lon": -77.04652183333333, "lat": 38.915956333333334, "type": "electric_scooter", "fusion_lon": 0.0, "is_reserved": 0, "bike_id": "d202ce1a0a56b8dc373e7e8317a7c289", "fusion_lat": 0.0, "is_disabled": 0, "rental_uris": {"ios": "https://dc.lft.to/lastmile_qr_scan", "android": "https://dc.lft.to/lastmile_qr_scan"}}, {"name": "35eda9d244f0d180ee643b604be333f4", "lon": -77.02807516666667, "lat": 38.881821333333335, "type": "electric_scooter", "fusion_lon": 0.0, "is_reserved": 0, "bike_id": "35eda9d244f0d180ee643b604be333f4", "fusion_lat": 0.0, "is_disabled": 0, "rental_uris": {"ios": "https://dc.lft.to/lastmile_qr_scan", "android": "https://dc.lft.to/lastmile_qr_scan"}}, {"name": "a0237bc4fa05b34c8422188c5fe8eb68", "lon": -77.04337, "lat": 38.90787133333333, "type": "electric_scooter", "fusion_lon": 0.0, "is_reserved": 0, "bike_id": "a0237bc4fa05b34c8422188c5fe8eb68", "fusion_lat": 0.0, "is_disabled": 0, "rental_uris": {"ios": "https://dc.lft.to/lastmile_qr_scan", "android": "https://dc.lft.to/lastmile_qr_scan"}}, {"name": "009127715b86d2313625331965cc4840", "lon": -77.06927133333333, "lat": 38.907834333333334, "type": "electric_scooter", "fusion_lon": 0.0, "is_reserved": 0, "bike_id": "009127715b86d2313625331965cc4840", "fusion_lat": 0.0, "is_disabled": 0, "rental_uris": {"ios": "https://dc.lft.to/lastmile_qr_scan", "android": "https://dc.lft.to/lastmile_qr_scan"}}, {"name": "040788d09f6350fd31bc85849dbc8116", "lon": -77.01747083333333, "lat": 38.88738516666667, "type": "electric_scooter", "fusion_lon": 0.0, "is_reserved": 0, "bike_id": "040788d09f6350fd31bc85849dbc8116", "fusion_lat": 0.0, "is_disabled": 0, "rental_uris": {"ios": "https://dc.lft.to/lastmile_qr_scan", "android": "https://dc.lft.to/lastmile_qr_scan"}}, {"name": "fc7dd188620f1f5e0bfeec306c4002c7", "lon": -77.03094, "lat": 38.931648, "type": "electric_scooter", "fusion_lon": 0.0, "is_reserved": 0, "bike_id": "fc7dd188620f1f5e0bfeec306c4002c7", "fusion_lat": 0.0, "is_disabled": 0, "rental_uris": {"ios": "https://dc.lft.to/lastmile_qr_scan", "android": "https://dc.lft.to/lastmile_qr_scan"}}, {"name": "e0af8347cc4d8f11a93b1264506c133c", "lon": -77.03971016666667, "lat": 38.9025755, "type": "electric_scooter", "fusion_lon": 0.0, "is_reserved": 0, "bike_id": "e0af8347cc4d8f11a93b1264506c133c", "fusion_lat": 0.0, "is_disabled": 0, "rental_uris": {"ios": "https://dc.lft.to/lastmile_qr_scan", "android": "https://dc.lft.to/lastmile_qr_scan"}}, {"name": "59519cc80bd486bf4857619c0b6a83ea", "lon": -77.02393183333334, "lat": 38.92747966666667, "type": "electric_bike", "fusion_lon": 0.0, "is_reserved": 0, "bike_id": "59519cc80bd486bf4857619c0b6a83ea", "fusion_lat": 0.0, "is_disabled": 0, "rental_uris": {"ios": "https://dc.lft.to/lastmile_qr_scan", "android": "https://dc.lft.to/lastmile_qr_scan"}}, {"name": "4cbaf0249203ea63801fced410d8fa7d", "lon": -77.018305, "lat": 38.90956533333333, "type": "electric_scooter", "fusion_lon": 0.0, "is_reserved": 0, "bike_id": "4cbaf0249203ea63801fced410d8fa7d", "fusion_lat": 0.0, "is_disabled": 0, "rental_uris": {"ios": "https://dc.lft.to/lastmile_qr_scan", "android": "https://dc.lft.to/lastmile_qr_scan"}}, {"name": "2388238ce60ca679a967850a35f48b5c", "lon": -77.11057983333333, "lat": 38.870827166666665, "type": "electric_bike", "fusion_lon": 0.0, "is_reserved": 0, "bike_id": "2388238ce60ca679a967850a35f48b5c", "fusion_lat": 0.0, "is_disabled": 0, "rental_uris": {"ios": "https://dc.lft.to/lastmile_qr_scan", "android": "https://dc.lft.to/lastmile_qr_scan"}}, {"name": "f816b1993ff36ac188d5cfe7c85cfc5a", "lon": -77.116084, "lat": 38.85484133333333, "type": "electric_bike", "fusion_lon": 0.0, "is_reserved": 0, "bike_id": "f816b1993ff36ac188d5cfe7c85cfc5a", "fusion_lat": 0.0, "is_disabled": 0, "rental_uris": {"ios": "https://dc.lft.to/lastmile_qr_scan", "android": "https://dc.lft.to/lastmile_qr_scan"}}, {"name": "9713afe4d5e4404fb6dfa7c34626e4f6", "lon": -77.03636966666667, "lat": 38.927460333333336, "type": "electric_scooter", "fusion_lon": 0.0, "is_reserved": 0, "bike_id": "9713afe4d5e4404fb6dfa7c34626e4f6", "fusion_lat": 0.0, "is_disabled": 0, "rental_uris": {"ios": "https://dc.lft.to/lastmile_qr_scan", "android": "https://dc.lft.to/lastmile_qr_scan"}}, {"name": "b22faac9bf4be2a14c088994192abf2d", "lon": -76.93195066666667, "lat": 38.89878983333333, "type": "electric_scooter", "fusion_lon": 0.0, "is_reserved": 0, "bike_id": "b22faac9bf4be2a14c088994192abf2d", "fusion_lat": 0.0, "is_disabled": 0, "rental_uris": {"ios": "https://dc.lft.to/lastmile_qr_scan", "android": "https://dc.lft.to/lastmile_qr_scan"}}, {"name": "de21b0782b105d9fcd6cc30296560abf", "lon": -76.99624983333334, "lat": 38.90091733333333, "type": "electric_scooter", "fusion_lon": 0.0, "is_reserved": 0, "bike_id": "de21b0782b105d9fcd6cc30296560abf", "fusion_lat": 0.0, "is_disabled": 0, "rental_uris": {"ios": "https://dc.lft.to/lastmile_qr_scan", "android": "https://dc.lft.to/lastmile_qr_scan"}}, {"name": "afca59f48ad6bfff5a21ed426add0b71", "lon": -77.04091866666667, "lat": 38.923944, "type": "electric_scooter", "fusion_lon": 0.0, "is_reserved": 0, "bike_id": "afca59f48ad6bfff5a21ed426add0b71", "fusion_lat": 0.0, "is_disabled": 0, "rental_uris": {"ios": "https://dc.lft.to/lastmile_qr_scan", "android": "https://dc.lft.to/lastmile_qr_scan"}}, {"name": "f782d80e05dbc9055177463b984de507", "lon": -77.02710266666666, "lat": 38.92874783333333, "type": "electric_scooter", "fusion_lon": 0.0, "is_reserved": 0, "bike_id": "f782d80e05dbc9055177463b984de507", "fusion_lat": 0.0, "is_disabled": 0, "rental_uris": {"ios": "https://dc.lft.to/lastmile_qr_scan", "android": "https://dc.lft.to/lastmile_qr_scan"}}, {"name": "5d5feb8ce67c4716ce5fd8da5f163cd2", "lon": -77.1273235, "lat": 38.895640666666665, "type": "electric_bike", "fusion_lon": 0.0, "is_reserved": 0, "bike_id": "5d5feb8ce67c4716ce5fd8da5f163cd2", "fusion_lat": 0.0, "is_disabled": 0, "rental_uris": {"ios": "https://dc.lft.to/lastmile_qr_scan", "android": "https://dc.lft.to/lastmile_qr_scan"}}, {"name": "20071d1138d4682ca6192678a6731b65", "lon": -76.99901916666667, "lat": 38.948152, "type": "electric_scooter", "fusion_lon": 0.0, "is_reserved": 0, "bike_id": "20071d1138d4682ca6192678a6731b65", "fusion_lat": 0.0, "is_disabled": 0, "rental_uris": {"ios": "https://dc.lft.to/lastmile_qr_scan", "android": "https://dc.lft.to/lastmile_qr_scan"}}, {"name": "2b8e44a63da537570533eb2e6619a8dd", "lon": -77.02942083333333, "lat": 38.89929266666667, "type": "electric_scooter", "fusion_lon": 0.0, "is_reserved": 0, "bike_id": "2b8e44a63da537570533eb2e6619a8dd", "fusion_lat": 0.0, "is_disabled": 0, "rental_uris": {"ios": "https://dc.lft.to/lastmile_qr_scan", "android": "https://dc.lft.to/lastmile_qr_scan"}}, {"name": "310e5dcecc7d5624665ca5ed25dd4f8e", "lon": -77.02713283333334, "lat": 38.924604333333335, "type": "electric_scooter", "fusion_lon": 0.0, "is_reserved": 0, "bike_id": "310e5dcecc7d5624665ca5ed25dd4f8e", "fusion_lat": 0.0, "is_disabled": 0, "rental_uris": {"ios": "https://dc.lft.to/lastmile_qr_scan", "android": "https://dc.lft.to/lastmile_qr_scan"}}, {"name": "a383b438ebe133b7e22d55ad52dc9698", "lon": -77.02293333333333, "lat": 38.91625233333333, "type": "electric_scooter", "fusion_lon": 0.0, "is_reserved": 0, "bike_id": "a383b438ebe133b7e22d55ad52dc9698", "fusion_lat": 0.0, "is_disabled": 0, "rental_uris": {"ios": "https://dc.lft.to/lastmile_qr_scan", "android": "https://dc.lft.to/lastmile_qr_scan"}}, {"name": "543caedf105bee41921a4b37bd8d2b84", "lon": -76.998548, "lat": 38.8874585, "type": "electric_scooter", "fusion_lon": 0.0, "is_reserved": 0, "bike_id": "543caedf105bee41921a4b37bd8d2b84", "fusion_lat": 0.0, "is_disabled": 0, "rental_uris": {"ios": "https://dc.lft.to/lastmile_qr_scan", "android": "https://dc.lft.to/lastmile_qr_scan"}}, {"name": "e78fdc99aa609eb69e9a7ab943f786d6", "lon": -76.983375, "lat": 38.914927, "type": "electric_scooter", "fusion_lon": 0.0, "is_reserved": 0, "bike_id": "e78fdc99aa609eb69e9a7ab943f786d6", "fusion_lat": 0.0, "is_disabled": 0, "rental_uris": {"ios": "https://dc.lft.to/lastmile_qr_scan", "android": "https://dc.lft.to/lastmile_qr_scan"}}, {"name": "bef9ae89ea07c3191cbfb3d7b064600f", "lon": -77.041929, "lat": 38.92627316666667, "type": "electric_scooter", "fusion_lon": 0.0, "is_reserved": 0, "bike_id": "bef9ae89ea07c3191cbfb3d7b064600f", "fusion_lat": 0.0, "is_disabled": 0, "rental_uris": {"ios": "https://dc.lft.to/lastmile_qr_scan", "android": "https://dc.lft.to/lastmile_qr_scan"}}, {"name": "1187b9ec9b2f563214b295fd1cbeb48e", "lon": -77.05645133333333, "lat": 38.92427933333333, "type": "electric_scooter", "fusion_lon": 0.0, "is_reserved": 0, "bike_id": "1187b9ec9b2f563214b295fd1cbeb48e", "fusion_lat": 0.0, "is_disabled": 0, "rental_uris": {"ios": "https://dc.lft.to/lastmile_qr_scan", "android": "https://dc.lft.to/lastmile_qr_scan"}}, {"name": "77d7af3eb4d8298c6b8b0ea2b33feae4", "lon": -76.98092116666666, "lat": 38.881343333333334, "type": "electric_bike", "fusion_lon": 0.0, "is_reserved": 0, "bike_id": "77d7af3eb4d8298c6b8b0ea2b33feae4", "fusion_lat": 0.0, "is_disabled": 0, "rental_uris": {"ios": "https://dc.lft.to/lastmile_qr_scan", "android": "https://dc.lft.to/lastmile_qr_scan"}}, {"name": "21b71907e23197d18f3ee08748a85f1c", "lon": -76.946335, "lat": 38.898425, "type": "electric_scooter", "fusion_lon": 0.0, "is_reserved": 0, "bike_id": "21b71907e23197d18f3ee08748a85f1c", "fusion_lat": 0.0, "is_disabled": 0, "rental_uris": {"ios": "https://dc.lft.to/lastmile_qr_scan", "android": "https://dc.lft.to/lastmile_qr_scan"}}, {"name": "3273943eef5f124cef907488d97d2279", "lon": -77.01768833333334, "lat": 38.92087733333334, "type": "electric_scooter", "fusion_lon": 0.0, "is_reserved": 0, "bike_id": "3273943eef5f124cef907488d97d2279", "fusion_lat": 0.0, "is_disabled": 0, "rental_uris": {"ios": "https://dc.lft.to/lastmile_qr_scan", "android": "https://dc.lft.to/lastmile_qr_scan"}}, {"name": "1c29f791b8c9d8ccc3784a9b104602a3", "lon": -76.982358, "lat": 38.908861, "type": "electric_scooter", "fusion_lon": 0.0, "is_reserved": 0, "bike_id": "1c29f791b8c9d8ccc3784a9b104602a3", "fusion_lat": 0.0, "is_disabled": 0, "rental_uris": {"ios": "https://dc.lft.to/lastmile_qr_scan", "android": "https://dc.lft.to/lastmile_qr_scan"}}, {"name": "3693c50d4f6be099279c5a7e027f583f", "lon": -77.02951666666667, "lat": 38.9050715, "type": "electric_scooter", "fusion_lon": 0.0, "is_reserved": 0, "bike_id": "3693c50d4f6be099279c5a7e027f583f", "fusion_lat": 0.0, "is_disabled": 0, "rental_uris": {"ios": "https://dc.lft.to/lastmile_qr_scan", "android": "https://dc.lft.to/lastmile_qr_scan"}}, {"name": "78120f84721a423d468ce2e26ea67d5f", "lon": -77.0020545, "lat": 38.90024833333333, "type": "electric_scooter", "fusion_lon": 0.0, "is_reserved": 0, "bike_id": "78120f84721a423d468ce2e26ea67d5f", "fusion_lat": 0.0, "is_disabled": 0, "rental_uris": {"ios": "https://dc.lft.to/lastmile_qr_scan", "android": "https://dc.lft.to/lastmile_qr_scan"}}, {"name": "4d6e820685b1ae5f9b4cbb93119cc201", "lon": -77.02716916666667, "lat": 38.9181965, "type": "electric_scooter", "fusion_lon": 0.0, "is_reserved": 0, "bike_id": "4d6e820685b1ae5f9b4cbb93119cc201", "fusion_lat": 0.0, "is_disabled": 0, "rental_uris": {"ios": "https://dc.lft.to/lastmile_qr_scan", "android": "https://dc.lft.to/lastmile_qr_scan"}}, {"name": "f5c8ac4c50872412938ccf319f057687", "lon": -77.02782666666667, "lat": 38.898328666666664, "type": "electric_scooter", "fusion_lon": 0.0, "is_reserved": 0, "bike_id": "f5c8ac4c50872412938ccf319f057687", "fusion_lat": 0.0, "is_disabled": 0, "rental_uris": {"ios": "https://dc.lft.to/lastmile_qr_scan", "android": "https://dc.lft.to/lastmile_qr_scan"}}, {"name": "95982b003685e7f18d7233ed7446cbf1", "lon": -76.99352966666666, "lat": 38.8450585, "type": "electric_scooter", "fusion_lon": 0.0, "is_reserved": 0, "bike_id": "95982b003685e7f18d7233ed7446cbf1", "fusion_lat": 0.0, "is_disabled": 0, "rental_uris": {"ios": "https://dc.lft.to/lastmile_qr_scan", "android": "https://dc.lft.to/lastmile_qr_scan"}}, {"name": "ac89ad13af6c0cd2b183868bf519bbef", "lon": -76.9113785, "lat": 38.894262166666664, "type": "electric_scooter", "fusion_lon": 0.0, "is_reserved": 0, "bike_id": "ac89ad13af6c0cd2b183868bf519bbef", "fusion_lat": 0.0, "is_disabled": 0, "rental_uris": {"ios": "https://dc.lft.to/lastmile_qr_scan", "android": "https://dc.lft.to/lastmile_qr_scan"}}, {"name": "4304f92fbf834fe61bccc45c8509eee4", "lon": -77.0351835, "lat": 38.92733833333333, "type": "electric_scooter", "fusion_lon": 0.0, "is_reserved": 0, "bike_id": "4304f92fbf834fe61bccc45c8509eee4", "fusion_lat": 0.0, "is_disabled": 0, "rental_uris": {"ios": "https://dc.lft.to/lastmile_qr_scan", "android": "https://dc.lft.to/lastmile_qr_scan"}}, {"name": "14bff5a4dfe33a235f20a0922c14fe40", "lon": -77.002227, "lat": 38.900225166666665, "type": "electric_scooter", "fusion_lon": 0.0, "is_reserved": 0, "bike_id": "14bff5a4dfe33a235f20a0922c14fe40", "fusion_lat": 0.0, "is_disabled": 0, "rental_uris": {"ios": "https://dc.lft.to/lastmile_qr_scan", "android": "https://dc.lft.to/lastmile_qr_scan"}}, {"name": "2a1fa396a5be5a135d3ad87e68ee045c", "lon": -77.0229605, "lat": 38.92802866666667, "type": "electric_scooter", "fusion_lon": 0.0, "is_reserved": 0, "bike_id": "2a1fa396a5be5a135d3ad87e68ee045c", "fusion_lat": 0.0, "is_disabled": 0, "rental_uris": {"ios": "https://dc.lft.to/lastmile_qr_scan", "android": "https://dc.lft.to/lastmile_qr_scan"}}, {"name": "13de3f070ac5916d7fb94bd22b79ace8", "lon": -77.0541975, "lat": 38.902408333333334, "type": "electric_scooter", "fusion_lon": 0.0, "is_reserved": 0, "bike_id": "13de3f070ac5916d7fb94bd22b79ace8", "fusion_lat": 0.0, "is_disabled": 0, "rental_uris": {"ios": "https://dc.lft.to/lastmile_qr_scan", "android": "https://dc.lft.to/lastmile_qr_scan"}}, {"name": "a170c4e908c6b5015ad383a1a5d1dc75", "lon": -77.02814133333334, "lat": 38.91692316666666, "type": "electric_scooter", "fusion_lon": 0.0, "is_reserved": 0, "bike_id": "a170c4e908c6b5015ad383a1a5d1dc75", "fusion_lat": 0.0, "is_disabled": 0, "rental_uris": {"ios": "https://dc.lft.to/lastmile_qr_scan", "android": "https://dc.lft.to/lastmile_qr_scan"}}, {"name": "e027b5cd14485e418d396a64312400a7", "lon": -77.0228735, "lat": 38.894884166666664, "type": "electric_scooter", "fusion_lon": 0.0, "is_reserved": 0, "bike_id": "e027b5cd14485e418d396a64312400a7", "fusion_lat": 0.0, "is_disabled": 0, "rental_uris": {"ios": "https://dc.lft.to/lastmile_qr_scan", "android": "https://dc.lft.to/lastmile_qr_scan"}}, {"name": "f0ae6c05f3b3c9ecd22df658beae9648", "lon": -77.02173033333334, "lat": 38.90207983333333, "type": "electric_scooter", "fusion_lon": 0.0, "is_reserved": 0, "bike_id": "f0ae6c05f3b3c9ecd22df658beae9648", "fusion_lat": 0.0, "is_disabled": 0, "rental_uris": {"ios": "https://dc.lft.to/lastmile_qr_scan", "android": "https://dc.lft.to/lastmile_qr_scan"}}, {"name": "6fc7f2b114e4246e0171c8e4e10ad507", "lon": -77.015117, "lat": 38.910478499999996, "type": "electric_scooter", "fusion_lon": 0.0, "is_reserved": 0, "bike_id": "6fc7f2b114e4246e0171c8e4e10ad507", "fusion_lat": 0.0, "is_disabled": 0, "rental_uris": {"ios": "https://dc.lft.to/lastmile_qr_scan", "android": "https://dc.lft.to/lastmile_qr_scan"}}, {"name": "a49f867cf658efe54f86ab3cddfd94cc", "lon": -77.04102983333334, "lat": 38.917777, "type": "electric_scooter", "fusion_lon": 0.0, "is_reserved": 0, "bike_id": "a49f867cf658efe54f86ab3cddfd94cc", "fusion_lat": 0.0, "is_disabled": 0, "rental_uris": {"ios": "https://dc.lft.to/lastmile_qr_scan", "android": "https://dc.lft.to/lastmile_qr_scan"}}, {"name": "01e60bce979637066493e65543891afa", "lon": -77.043307, "lat": 38.892199, "type": "electric_scooter", "fusion_lon": 0.0, "is_reserved": 0, "bike_id": "01e60bce979637066493e65543891afa", "fusion_lat": 0.0, "is_disabled": 0, "rental_uris": {"ios": "https://dc.lft.to/lastmile_qr_scan", "android": "https://dc.lft.to/lastmile_qr_scan"}}, {"name": "edfa74c9aa0512bc45eb66aa74b25e1f", "lon": -76.99809816666667, "lat": 38.91068333333333, "type": "electric_scooter", "fusion_lon": 0.0, "is_reserved": 0, "bike_id": "edfa74c9aa0512bc45eb66aa74b25e1f", "fusion_lat": 0.0, "is_disabled": 0, "rental_uris": {"ios": "https://dc.lft.to/lastmile_qr_scan", "android": "https://dc.lft.to/lastmile_qr_scan"}}, {"name": "ad2fcccd1fd18b55b0185e71bed2fe24", "lon": -77.03994866666666, "lat": 38.9040005, "type": "electric_scooter", "fusion_lon": 0.0, "is_reserved": 0, "bike_id": "ad2fcccd1fd18b55b0185e71bed2fe24", "fusion_lat": 0.0, "is_disabled": 0, "rental_uris": {"ios": "https://dc.lft.to/lastmile_qr_scan", "android": "https://dc.lft.to/lastmile_qr_scan"}}, {"name": "de6fe47bfcba2ca967d1bdeef958fd6f", "lon": -77.03262583333333, "lat": 38.946249, "type": "electric_scooter", "fusion_lon": 0.0, "is_reserved": 0, "bike_id": "de6fe47bfcba2ca967d1bdeef958fd6f", "fusion_lat": 0.0, "is_disabled": 0, "rental_uris": {"ios": "https://dc.lft.to/lastmile_qr_scan", "android": "https://dc.lft.to/lastmile_qr_scan"}}, {"name": "be0b6e079bbdc0d91efa243f6a5d0120", "lon": -77.008531, "lat": 38.879560166666664, "type": "electric_scooter", "fusion_lon": 0.0, "is_reserved": 0, "bike_id": "be0b6e079bbdc0d91efa243f6a5d0120", "fusion_lat": 0.0, "is_disabled": 0, "rental_uris": {"ios": "https://dc.lft.to/lastmile_qr_scan", "android": "https://dc.lft.to/lastmile_qr_scan"}}, {"name": "e45b6b04cd79786d2033555fd377f933", "lon": -76.98103833333333, "lat": 38.921014, "type": "electric_bike", "fusion_lon": 0.0, "is_reserved": 0, "bike_id": "e45b6b04cd79786d2033555fd377f933", "fusion_lat": 0.0, "is_disabled": 0, "rental_uris": {"ios": "https://dc.lft.to/lastmile_qr_scan", "android": "https://dc.lft.to/lastmile_qr_scan"}}, {"name": "944f5c0d861991633cdeedb277a9d3e7", "lon": -77.03660416666666, "lat": 38.91242066666667, "type": "electric_scooter", "fusion_lon": 0.0, "is_reserved": 0, "bike_id": "944f5c0d861991633cdeedb277a9d3e7", "fusion_lat": 0.0, "is_disabled": 0, "rental_uris": {"ios": "https://dc.lft.to/lastmile_qr_scan", "android": "https://dc.lft.to/lastmile_qr_scan"}}, {"name": "da5a37bb2e87db5a9d910403b7c6c652", "lon": -77.04013866666666, "lat": 38.922353333333334, "type": "electric_scooter", "fusion_lon": 0.0, "is_reserved": 0, "bike_id": "da5a37bb2e87db5a9d910403b7c6c652", "fusion_lat": 0.0, "is_disabled": 0, "rental_uris": {"ios": "https://dc.lft.to/lastmile_qr_scan", "android": "https://dc.lft.to/lastmile_qr_scan"}}, {"name": "fb7fe308d5073be08704f5c4144fa9d7", "lon": -76.90969433333333, "lat": 38.85419916666667, "type": "electric_bike", "fusion_lon": 0.0, "is_reserved": 0, "bike_id": "fb7fe308d5073be08704f5c4144fa9d7", "fusion_lat": 0.0, "is_disabled": 0, "rental_uris": {"ios": "https://dc.lft.to/lastmile_qr_scan", "android": "https://dc.lft.to/lastmile_qr_scan"}}, {"name": "1b45fc0102467ba668b3b711a1a83795", "lon": -77.0433925, "lat": 38.902164, "type": "electric_scooter", "fusion_lon": 0.0, "is_reserved": 0, "bike_id": "1b45fc0102467ba668b3b711a1a83795", "fusion_lat": 0.0, "is_disabled": 0, "rental_uris": {"ios": "https://dc.lft.to/lastmile_qr_scan", "android": "https://dc.lft.to/lastmile_qr_scan"}}, {"name": "412cd55452e5cdfe6c0ae692b144fd1a", "lon": -77.025904, "lat": 38.904976166666664, "type": "electric_scooter", "fusion_lon": 0.0, "is_reserved": 0, "bike_id": "412cd55452e5cdfe6c0ae692b144fd1a", "fusion_lat": 0.0, "is_disabled": 0, "rental_uris": {"ios": "https://dc.lft.to/lastmile_qr_scan", "android": "https://dc.lft.to/lastmile_qr_scan"}}, {"name": "51a31497a7e10eb4ecae2a378410826f", "lon": -77.00476516666667, "lat": 38.874774, "type": "electric_scooter", "fusion_lon": 0.0, "is_reserved": 0, "bike_id": "51a31497a7e10eb4ecae2a378410826f", "fusion_lat": 0.0, "is_disabled": 0, "rental_uris": {"ios": "https://dc.lft.to/lastmile_qr_scan", "android": "https://dc.lft.to/lastmile_qr_scan"}}, {"name": "9aa563ec66729e75361b1eee072b4915", "lon": -76.94188633333333, "lat": 38.8975525, "type": "electric_scooter", "fusion_lon": 0.0, "is_reserved": 0, "bike_id": "9aa563ec66729e75361b1eee072b4915", "fusion_lat": 0.0, "is_disabled": 0, "rental_uris": {"ios": "https://dc.lft.to/lastmile_qr_scan", "android": "https://dc.lft.to/lastmile_qr_scan"}}, {"name": "c8c8a88f4e2187bc12e34ba1a552fdf2", "lon": -77.0640245, "lat": 38.90521433333333, "type": "electric_scooter", "fusion_lon": 0.0, "is_reserved": 0, "bike_id": "c8c8a88f4e2187bc12e34ba1a552fdf2", "fusion_lat": 0.0, "is_disabled": 0, "rental_uris": {"ios": "https://dc.lft.to/lastmile_qr_scan", "android": "https://dc.lft.to/lastmile_qr_scan"}}, {"name": "ec228afbbf3c0f2eb1e3b8c813496b2b", "lon": -77.01756666666667, "lat": 38.876885, "type": "electric_scooter", "fusion_lon": 0.0, "is_reserved": 0, "bike_id": "ec228afbbf3c0f2eb1e3b8c813496b2b", "fusion_lat": 0.0, "is_disabled": 0, "rental_uris": {"ios": "https://dc.lft.to/lastmile_qr_scan", "android": "https://dc.lft.to/lastmile_qr_scan"}}, {"name": "d508e24d840735cc1ffa6eff0bb62cc7", "lon": -77.12024233333334, "lat": 38.8551, "type": "electric_bike", "fusion_lon": 0.0, "is_reserved": 0, "bike_id": "d508e24d840735cc1ffa6eff0bb62cc7", "fusion_lat": 0.0, "is_disabled": 0, "rental_uris": {"ios": "https://dc.lft.to/lastmile_qr_scan", "android": "https://dc.lft.to/lastmile_qr_scan"}}, {"name": "2dfb5acb9599728a6c30ad8ade9cfd72", "lon": -77.00201483333333, "lat": 38.8935015, "type": "electric_scooter", "fusion_lon": 0.0, "is_reserved": 0, "bike_id": "2dfb5acb9599728a6c30ad8ade9cfd72", "fusion_lat": 0.0, "is_disabled": 0, "rental_uris": {"ios": "https://dc.lft.to/lastmile_qr_scan", "android": "https://dc.lft.to/lastmile_qr_scan"}}, {"name": "27a8378420c614c3100bcf915029e2d6", "lon": -77.0419495, "lat": 38.893600666666664, "type": "electric_scooter", "fusion_lon": 0.0, "is_reserved": 0, "bike_id": "27a8378420c614c3100bcf915029e2d6", "fusion_lat": 0.0, "is_disabled": 0, "rental_uris": {"ios": "https://dc.lft.to/lastmile_qr_scan", "android": "https://dc.lft.to/lastmile_qr_scan"}}, {"name": "f2f3a1d7700a094db73f713f18a93afd", "lon": -77.00491066666666, "lat": 38.8968485, "type": "electric_scooter", "fusion_lon": 0.0, "is_reserved": 0, "bike_id": "f2f3a1d7700a094db73f713f18a93afd", "fusion_lat": 0.0, "is_disabled": 0, "rental_uris": {"ios": "https://dc.lft.to/lastmile_qr_scan", "android": "https://dc.lft.to/lastmile_qr_scan"}}, {"name": "013711034fa5b667b3eb1fe2f98a33ac", "lon": -77.03859183333333, "lat": 38.910179666666664, "type": "electric_scooter", "fusion_lon": 0.0, "is_reserved": 0, "bike_id": "013711034fa5b667b3eb1fe2f98a33ac", "fusion_lat": 0.0, "is_disabled": 0, "rental_uris": {"ios": "https://dc.lft.to/lastmile_qr_scan", "android": "https://dc.lft.to/lastmile_qr_scan"}}, {"name": "738f870432003eb6e725ced3406cb308", "lon": -77.045166, "lat": 38.89221766666667, "type": "electric_scooter", "fusion_lon": 0.0, "is_reserved": 0, "bike_id": "738f870432003eb6e725ced3406cb308", "fusion_lat": 0.0, "is_disabled": 0, "rental_uris": {"ios": "https://dc.lft.to/lastmile_qr_scan", "android": "https://dc.lft.to/lastmile_qr_scan"}}, {"name": "a35a69f1ec188fd3536a2fbd83a4177e", "lon": -77.03913833333333, "lat": 38.9175975, "type": "electric_scooter", "fusion_lon": 0.0, "is_reserved": 0, "bike_id": "a35a69f1ec188fd3536a2fbd83a4177e", "fusion_lat": 0.0, "is_disabled": 0, "rental_uris": {"ios": "https://dc.lft.to/lastmile_qr_scan", "android": "https://dc.lft.to/lastmile_qr_scan"}}, {"name": "6160309aaf24e5d3cf72246c2ff41559", "lon": -77.03661933333333, "lat": 38.912435333333335, "type": "electric_scooter", "fusion_lon": 0.0, "is_reserved": 0, "bike_id": "6160309aaf24e5d3cf72246c2ff41559", "fusion_lat": 0.0, "is_disabled": 0, "rental_uris": {"ios": "https://dc.lft.to/lastmile_qr_scan", "android": "https://dc.lft.to/lastmile_qr_scan"}}, {"name": "24def68752cc06044e5464f75a1f2cf0", "lon": -77.0447785, "lat": 38.918696, "type": "electric_scooter", "fusion_lon": 0.0, "is_reserved": 0, "bike_id": "24def68752cc06044e5464f75a1f2cf0", "fusion_lat": 0.0, "is_disabled": 0, "rental_uris": {"ios": "https://dc.lft.to/lastmile_qr_scan", "android": "https://dc.lft.to/lastmile_qr_scan"}}, {"name": "5223b0cf08f356c8ee9c3ca3bff8a251", "lon": -77.00059183333333, "lat": 38.876715833333336, "type": "electric_scooter", "fusion_lon": 0.0, "is_reserved": 0, "bike_id": "5223b0cf08f356c8ee9c3ca3bff8a251", "fusion_lat": 0.0, "is_disabled": 0, "rental_uris": {"ios": "https://dc.lft.to/lastmile_qr_scan", "android": "https://dc.lft.to/lastmile_qr_scan"}}, {"name": "c300e8ac85726c98dc1222093d5ed632", "lon": -77.07194033333333, "lat": 38.95951433333333, "type": "electric_scooter", "fusion_lon": 0.0, "is_reserved": 0, "bike_id": "c300e8ac85726c98dc1222093d5ed632", "fusion_lat": 0.0, "is_disabled": 0, "rental_uris": {"ios": "https://dc.lft.to/lastmile_qr_scan", "android": "https://dc.lft.to/lastmile_qr_scan"}}, {"name": "27d514f0685b1624e0b4738663147b32", "lon": -77.01510666666667, "lat": 38.910478499999996, "type": "electric_scooter", "fusion_lon": 0.0, "is_reserved": 0, "bike_id": "27d514f0685b1624e0b4738663147b32", "fusion_lat": 0.0, "is_disabled": 0, "rental_uris": {"ios": "https://dc.lft.to/lastmile_qr_scan", "android": "https://dc.lft.to/lastmile_qr_scan"}}, {"name": "170d25bb57897582baccb213ac402488", "lon": -77.03864033333333, "lat": 38.91708783333333, "type": "electric_scooter", "fusion_lon": 0.0, "is_reserved": 0, "bike_id": "170d25bb57897582baccb213ac402488", "fusion_lat": 0.0, "is_disabled": 0, "rental_uris": {"ios": "https://dc.lft.to/lastmile_qr_scan", "android": "https://dc.lft.to/lastmile_qr_scan"}}, {"name": "3281dd05f1d9b5e9ee84843bf0c2d57d", "lon": -76.95981133333333, "lat": 38.86989283333333, "type": "electric_bike", "fusion_lon": 0.0, "is_reserved": 0, "bike_id": "3281dd05f1d9b5e9ee84843bf0c2d57d", "fusion_lat": 0.0, "is_disabled": 0, "rental_uris": {"ios": "https://dc.lft.to/lastmile_qr_scan", "android": "https://dc.lft.to/lastmile_qr_scan"}}, {"name": "1a5e318e913ef9d915b3dd60f760edcd", "lon": -77.04134266666667, "lat": 38.92265283333333, "type": "electric_scooter", "fusion_lon": 0.0, "is_reserved": 0, "bike_id": "1a5e318e913ef9d915b3dd60f760edcd", "fusion_lat": 0.0, "is_disabled": 0, "rental_uris": {"ios": "https://dc.lft.to/lastmile_qr_scan", "android": "https://dc.lft.to/lastmile_qr_scan"}}, {"name": "30f1511cbce6843844b0181e6eb6716f", "lon": -77.026196, "lat": 38.905657833333336, "type": "electric_scooter", "fusion_lon": 0.0, "is_reserved": 0, "bike_id": "30f1511cbce6843844b0181e6eb6716f", "fusion_lat": 0.0, "is_disabled": 0, "rental_uris": {"ios": "https://dc.lft.to/lastmile_qr_scan", "android": "https://dc.lft.to/lastmile_qr_scan"}}, {"name": "a2d74173680333bb183d6f11fa51ce82", "lon": -77.039139, "lat": 38.90778783333333, "type": "electric_scooter", "fusion_lon": 0.0, "is_reserved": 0, "bike_id": "a2d74173680333bb183d6f11fa51ce82", "fusion_lat": 0.0, "is_disabled": 0, "rental_uris": {"ios": "https://dc.lft.to/lastmile_qr_scan", "android": "https://dc.lft.to/lastmile_qr_scan"}}, {"name": "7fef8c98c9f24a6ff6222887a943228a", "lon": -77.00895416666667, "lat": 38.90354083333333, "type": "electric_scooter", "fusion_lon": 0.0, "is_reserved": 0, "bike_id": "7fef8c98c9f24a6ff6222887a943228a", "fusion_lat": 0.0, "is_disabled": 0, "rental_uris": {"ios": "https://dc.lft.to/lastmile_qr_scan", "android": "https://dc.lft.to/lastmile_qr_scan"}}, {"name": "b20e440ef75a45df165b25abf6e12e9a", "lon": -76.94941216666666, "lat": 38.894936666666666, "type": "electric_scooter", "fusion_lon": 0.0, "is_reserved": 0, "bike_id": "b20e440ef75a45df165b25abf6e12e9a", "fusion_lat": 0.0, "is_disabled": 0, "rental_uris": {"ios": "https://dc.lft.to/lastmile_qr_scan", "android": "https://dc.lft.to/lastmile_qr_scan"}}, {"name": "88d2e14ee17beee16cd0e1abbd24bd75", "lon": -76.996035, "lat": 38.85690733333333, "type": "electric_scooter", "fusion_lon": 0.0, "is_reserved": 0, "bike_id": "88d2e14ee17beee16cd0e1abbd24bd75", "fusion_lat": 0.0, "is_disabled": 0, "rental_uris": {"ios": "https://dc.lft.to/lastmile_qr_scan", "android": "https://dc.lft.to/lastmile_qr_scan"}}, {"name": "ba659ea0e41fdce46b62528bacf7a318", "lon": -77.00831283333333, "lat": 38.82907516666667, "type": "electric_bike", "fusion_lon": 0.0, "is_reserved": 0, "bike_id": "ba659ea0e41fdce46b62528bacf7a318", "fusion_lat": 0.0, "is_disabled": 0, "rental_uris": {"ios": "https://dc.lft.to/lastmile_qr_scan", "android": "https://dc.lft.to/lastmile_qr_scan"}}, {"name": "20d7b4fd155f9ad1bac37bd6f46db2ea", "lon": -77.03182033333333, "lat": 38.913511166666666, "type": "electric_scooter", "fusion_lon": 0.0, "is_reserved": 0, "bike_id": "20d7b4fd155f9ad1bac37bd6f46db2ea", "fusion_lat": 0.0, "is_disabled": 0, "rental_uris": {"ios": "https://dc.lft.to/lastmile_qr_scan", "android": "https://dc.lft.to/lastmile_qr_scan"}}, {"name": "ec241075e6cd68e42d662b41d3f41ce3", "lon": -77.03798683333333, "lat": 38.91541483333334, "type": "electric_scooter", "fusion_lon": 0.0, "is_reserved": 0, "bike_id": "ec241075e6cd68e42d662b41d3f41ce3", "fusion_lat": 0.0, "is_disabled": 0, "rental_uris": {"ios": "https://dc.lft.to/lastmile_qr_scan", "android": "https://dc.lft.to/lastmile_qr_scan"}}, {"name": "27b0ea6aa9be76a6a08375c75b5bedaf", "lon": -77.03437083333333, "lat": 38.90974966666667, "type": "electric_scooter", "fusion_lon": 0.0, "is_reserved": 0, "bike_id": "27b0ea6aa9be76a6a08375c75b5bedaf", "fusion_lat": 0.0, "is_disabled": 0, "rental_uris": {"ios": "https://dc.lft.to/lastmile_qr_scan", "android": "https://dc.lft.to/lastmile_qr_scan"}}, {"name": "7c0c1e124a2785fc5773681e68956f12", "lon": -77.01187383333334, "lat": 38.90025166666667, "type": "electric_scooter", "fusion_lon": 0.0, "is_reserved": 0, "bike_id": "7c0c1e124a2785fc5773681e68956f12", "fusion_lat": 0.0, "is_disabled": 0, "rental_uris": {"ios": "https://dc.lft.to/lastmile_qr_scan", "android": "https://dc.lft.to/lastmile_qr_scan"}}, {"name": "6cd27c190cadbc6c3298836dd732eb0a", "lon": -76.97424366666667, "lat": 38.90449133333333, "type": "electric_scooter", "fusion_lon": 0.0, "is_reserved": 0, "bike_id": "6cd27c190cadbc6c3298836dd732eb0a", "fusion_lat": 0.0, "is_disabled": 0, "rental_uris": {"ios": "https://dc.lft.to/lastmile_qr_scan", "android": "https://dc.lft.to/lastmile_qr_scan"}}, {"name": "e48a5eeedad767c2ee2032fbbd45acb9", "lon": -76.99870566666667, "lat": 38.90026316666667, "type": "electric_scooter", "fusion_lon": 0.0, "is_reserved": 0, "bike_id": "e48a5eeedad767c2ee2032fbbd45acb9", "fusion_lat": 0.0, "is_disabled": 0, "rental_uris": {"ios": "https://dc.lft.to/lastmile_qr_scan", "android": "https://dc.lft.to/lastmile_qr_scan"}}, {"name": "c8a2f9de272b0b45bd47238359dd19eb", "lon": -77.02694633333333, "lat": 38.90869216666667, "type": "electric_scooter", "fusion_lon": 0.0, "is_reserved": 0, "bike_id": "c8a2f9de272b0b45bd47238359dd19eb", "fusion_lat": 0.0, "is_disabled": 0, "rental_uris": {"ios": "https://dc.lft.to/lastmile_qr_scan", "android": "https://dc.lft.to/lastmile_qr_scan"}}, {"name": "f00edcd7f33c00b91d68b6a4df50b831", "lon": -77.0272135, "lat": 38.91825016666667, "type": "electric_scooter", "fusion_lon": 0.0, "is_reserved": 0, "bike_id": "f00edcd7f33c00b91d68b6a4df50b831", "fusion_lat": 0.0, "is_disabled": 0, "rental_uris": {"ios": "https://dc.lft.to/lastmile_qr_scan", "android": "https://dc.lft.to/lastmile_qr_scan"}}, {"name": "9dca8a5686fb47000f868a987ca4fb26", "lon": -77.00537933333334, "lat": 38.91549766666667, "type": "electric_scooter", "fusion_lon": 0.0, "is_reserved": 0, "bike_id": "9dca8a5686fb47000f868a987ca4fb26", "fusion_lat": 0.0, "is_disabled": 0, "rental_uris": {"ios": "https://dc.lft.to/lastmile_qr_scan", "android": "https://dc.lft.to/lastmile_qr_scan"}}, {"name": "8cfc20e2bf452ec018b2d7cbf1f12f17", "lon": -77.03714416666666, "lat": 38.9170025, "type": "electric_scooter", "fusion_lon": 0.0, "is_reserved": 0, "bike_id": "8cfc20e2bf452ec018b2d7cbf1f12f17", "fusion_lat": 0.0, "is_disabled": 0, "rental_uris": {"ios": "https://dc.lft.to/lastmile_qr_scan", "android": "https://dc.lft.to/lastmile_qr_scan"}}, {"name": "dca89fa62ef1af4f48c7227c2b8ab60f", "lon": -76.97480666666667, "lat": 38.90353366666667, "type": "electric_scooter", "fusion_lon": 0.0, "is_reserved": 0, "bike_id": "dca89fa62ef1af4f48c7227c2b8ab60f", "fusion_lat": 0.0, "is_disabled": 0, "rental_uris": {"ios": "https://dc.lft.to/lastmile_qr_scan", "android": "https://dc.lft.to/lastmile_qr_scan"}}, {"name": "42923e4dd2b69fcbe4116c12813dd33a", "lon": -77.0948505, "lat": 39.030503, "type": "electric_bike", "fusion_lon": 0.0, "is_reserved": 0, "bike_id": "42923e4dd2b69fcbe4116c12813dd33a", "fusion_lat": 0.0, "is_disabled": 0, "rental_uris": {"ios": "https://dc.lft.to/lastmile_qr_scan", "android": "https://dc.lft.to/lastmile_qr_scan"}}, {"name": "2be859763021e349e4327f8c2d8eb06d", "lon": -77.010975, "lat": 38.873021333333334, "type": "electric_bike", "fusion_lon": 0.0, "is_reserved": 0, "bike_id": "2be859763021e349e4327f8c2d8eb06d", "fusion_lat": 0.0, "is_disabled": 0, "rental_uris": {"ios": "https://dc.lft.to/lastmile_qr_scan", "android": "https://dc.lft.to/lastmile_qr_scan"}}, {"name": "1d560bbb03df641982ba63ce56e74017", "lon": -77.02892616666666, "lat": 39.037553333333335, "type": "electric_scooter", "fusion_lon": 0.0, "is_reserved": 0, "bike_id": "1d560bbb03df641982ba63ce56e74017", "fusion_lat": 0.0, "is_disabled": 0, "rental_uris": {"ios": "https://dc.lft.to/lastmile_qr_scan", "android": "https://dc.lft.to/lastmile_qr_scan"}}, {"name": "ad42da018b6a56d231abcc598e4a4c61", "lon": -77.02079516666667, "lat": 38.87571333333333, "type": "electric_scooter", "fusion_lon": 0.0, "is_reserved": 0, "bike_id": "ad42da018b6a56d231abcc598e4a4c61", "fusion_lat": 0.0, "is_disabled": 0, "rental_uris": {"ios": "https://dc.lft.to/lastmile_qr_scan", "android": "https://dc.lft.to/lastmile_qr_scan"}}, {"name": "f979587c0b42b576c2bd64fe2de84953", "lon": -77.05808066666667, "lat": 38.935076333333335, "type": "electric_scooter", "fusion_lon": 0.0, "is_reserved": 0, "bike_id": "f979587c0b42b576c2bd64fe2de84953", "fusion_lat": 0.0, "is_disabled": 0, "rental_uris": {"ios": "https://dc.lft.to/lastmile_qr_scan", "android": "https://dc.lft.to/lastmile_qr_scan"}}, {"name": "0dee13c67791253071c9eb8fffccd687", "lon": -77.02336083333333, "lat": 38.924814, "type": "electric_scooter", "fusion_lon": 0.0, "is_reserved": 0, "bike_id": "0dee13c67791253071c9eb8fffccd687", "fusion_lat": 0.0, "is_disabled": 0, "rental_uris": {"ios": "https://dc.lft.to/lastmile_qr_scan", "android": "https://dc.lft.to/lastmile_qr_scan"}}, {"name": "41cd0a89b43564f2cf748c752c57e1fa", "lon": -77.04883066666666, "lat": 38.9155865, "type": "electric_scooter", "fusion_lon": 0.0, "is_reserved": 0, "bike_id": "41cd0a89b43564f2cf748c752c57e1fa", "fusion_lat": 0.0, "is_disabled": 0, "rental_uris": {"ios": "https://dc.lft.to/lastmile_qr_scan", "android": "https://dc.lft.to/lastmile_qr_scan"}}, {"name": "672001ef56554ec5e4e048c6e0091339", "lon": -76.98838966666666, "lat": 38.9004305, "type": "electric_scooter", "fusion_lon": 0.0, "is_reserved": 0, "bike_id": "672001ef56554ec5e4e048c6e0091339", "fusion_lat": 0.0, "is_disabled": 0, "rental_uris": {"ios": "https://dc.lft.to/lastmile_qr_scan", "android": "https://dc.lft.to/lastmile_qr_scan"}}, {"name": "0ff77ce3a450bc8c7d33542ae58c19c7", "lon": -77.01766016666667, "lat": 38.89079616666667, "type": "electric_scooter", "fusion_lon": 0.0, "is_reserved": 0, "bike_id": "0ff77ce3a450bc8c7d33542ae58c19c7", "fusion_lat": 0.0, "is_disabled": 0, "rental_uris": {"ios": "https://dc.lft.to/lastmile_qr_scan", "android": "https://dc.lft.to/lastmile_qr_scan"}}, {"name": "c933d8a383cc278583d2173a24af7935", "lon": -77.06866283333333, "lat": 38.80578216666667, "type": "electric_bike", "fusion_lon": 0.0, "is_reserved": 0, "bike_id": "c933d8a383cc278583d2173a24af7935", "fusion_lat": 0.0, "is_disabled": 0, "rental_uris": {"ios": "https://dc.lft.to/lastmile_qr_scan", "android": "https://dc.lft.to/lastmile_qr_scan"}}, {"name": "e52cd337c7389e64189193664071da0d", "lon": -77.07364533333333, "lat": 38.9335615, "type": "electric_scooter", "fusion_lon": 0.0, "is_reserved": 0, "bike_id": "e52cd337c7389e64189193664071da0d", "fusion_lat": 0.0, "is_disabled": 0, "rental_uris": {"ios": "https://dc.lft.to/lastmile_qr_scan", "android": "https://dc.lft.to/lastmile_qr_scan"}}, {"name": "080f3a0b0cce84b1772aff17cbb0997c", "lon": -77.0194185, "lat": 38.9470225, "type": "electric_scooter", "fusion_lon": 0.0, "is_reserved": 0, "bike_id": "080f3a0b0cce84b1772aff17cbb0997c", "fusion_lat": 0.0, "is_disabled": 0, "rental_uris": {"ios": "https://dc.lft.to/lastmile_qr_scan", "android": "https://dc.lft.to/lastmile_qr_scan"}}, {"name": "d8d656046a947bfae0bb310d0e257351", "lon": -76.98798266666667, "lat": 38.922099833333334, "type": "electric_bike", "fusion_lon": 0.0, "is_reserved": 0, "bike_id": "d8d656046a947bfae0bb310d0e257351", "fusion_lat": 0.0, "is_disabled": 0, "rental_uris": {"ios": "https://dc.lft.to/lastmile_qr_scan", "android": "https://dc.lft.to/lastmile_qr_scan"}}, {"name": "28162d65f90ed20ea0f50df9692a9d08", "lon": -77.00244866666667, "lat": 38.90260516666667, "type": "electric_scooter", "fusion_lon": 0.0, "is_reserved": 0, "bike_id": "28162d65f90ed20ea0f50df9692a9d08", "fusion_lat": 0.0, "is_disabled": 0, "rental_uris": {"ios": "https://dc.lft.to/lastmile_qr_scan", "android": "https://dc.lft.to/lastmile_qr_scan"}}, {"name": "77f3e5a3e2afad0e22e61a5461fc2054", "lon": -76.92736816666667, "lat": 38.889632666666664, "type": "electric_scooter", "fusion_lon": 0.0, "is_reserved": 0, "bike_id": "77f3e5a3e2afad0e22e61a5461fc2054", "fusion_lat": 0.0, "is_disabled": 0, "rental_uris": {"ios": "https://dc.lft.to/lastmile_qr_scan", "android": "https://dc.lft.to/lastmile_qr_scan"}}, {"name": "35ad0fe2c328ac4d7ae4bfa76c8e18fa", "lon": -77.03729316666667, "lat": 38.91064816666667, "type": "electric_scooter", "fusion_lon": 0.0, "is_reserved": 0, "bike_id": "35ad0fe2c328ac4d7ae4bfa76c8e18fa", "fusion_lat": 0.0, "is_disabled": 0, "rental_uris": {"ios": "https://dc.lft.to/lastmile_qr_scan", "android": "https://dc.lft.to/lastmile_qr_scan"}}, {"name": "c54e5187a5300f1a9ec919a5ae458992", "lon": -77.03832616666666, "lat": 38.92536, "type": "electric_scooter", "fusion_lon": 0.0, "is_reserved": 0, "bike_id": "c54e5187a5300f1a9ec919a5ae458992", "fusion_lat": 0.0, "is_disabled": 0, "rental_uris": {"ios": "https://dc.lft.to/lastmile_qr_scan", "android": "https://dc.lft.to/lastmile_qr_scan"}}, {"name": "d96dbfebea82c29fe8395740f6044135", "lon": -77.00905516666667, "lat": 38.906715, "type": "electric_scooter", "fusion_lon": 0.0, "is_reserved": 0, "bike_id": "d96dbfebea82c29fe8395740f6044135", "fusion_lat": 0.0, "is_disabled": 0, "rental_uris": {"ios": "https://dc.lft.to/lastmile_qr_scan", "android": "https://dc.lft.to/lastmile_qr_scan"}}, {"name": "c5a192510d64ff816a67102df38d5dc8", "lon": -76.931581, "lat": 38.898743, "type": "electric_scooter", "fusion_lon": 0.0, "is_reserved": 0, "bike_id": "c5a192510d64ff816a67102df38d5dc8", "fusion_lat": 0.0, "is_disabled": 0, "rental_uris": {"ios": "https://dc.lft.to/lastmile_qr_scan", "android": "https://dc.lft.to/lastmile_qr_scan"}}, {"name": "ec523f717661f6164840114c2d3138ed", "lon": -77.0397355, "lat": 38.90257916666667, "type": "electric_scooter", "fusion_lon": 0.0, "is_reserved": 0, "bike_id": "ec523f717661f6164840114c2d3138ed", "fusion_lat": 0.0, "is_disabled": 0, "rental_uris": {"ios": "https://dc.lft.to/lastmile_qr_scan", "android": "https://dc.lft.to/lastmile_qr_scan"}}, {"name": "4493674c633eb3a754849e11e28cb52a", "lon": -77.02942316666666, "lat": 38.90480933333333, "type": "electric_scooter", "fusion_lon": 0.0, "is_reserved": 0, "bike_id": "4493674c633eb3a754849e11e28cb52a", "fusion_lat": 0.0, "is_disabled": 0, "rental_uris": {"ios": "https://dc.lft.to/lastmile_qr_scan", "android": "https://dc.lft.to/lastmile_qr_scan"}}, {"name": "6f2ebae7c2904128db7c573f261fd48d", "lon": -77.0232995, "lat": 38.928871, "type": "electric_scooter", "fusion_lon": 0.0, "is_reserved": 0, "bike_id": "6f2ebae7c2904128db7c573f261fd48d", "fusion_lat": 0.0, "is_disabled": 0, "rental_uris": {"ios": "https://dc.lft.to/lastmile_qr_scan", "android": "https://dc.lft.to/lastmile_qr_scan"}}, {"name": "daccd7a2fba6fbbfe3d6ca58bfb73909", "lon": -77.05663066666666, "lat": 38.9053315, "type": "electric_scooter", "fusion_lon": 0.0, "is_reserved": 0, "bike_id": "daccd7a2fba6fbbfe3d6ca58bfb73909", "fusion_lat": 0.0, "is_disabled": 0, "rental_uris": {"ios": "https://dc.lft.to/lastmile_qr_scan", "android": "https://dc.lft.to/lastmile_qr_scan"}}, {"name": "f76de475e7a4f368249b728d7a901466", "lon": -76.985118, "lat": 38.866564, "type": "electric_scooter", "fusion_lon": 0.0, "is_reserved": 0, "bike_id": "f76de475e7a4f368249b728d7a901466", "fusion_lat": 0.0, "is_disabled": 0, "rental_uris": {"ios": "https://dc.lft.to/lastmile_qr_scan", "android": "https://dc.lft.to/lastmile_qr_scan"}}, {"name": "e8f60368aa2b8146e8842d9d2b57bf75", "lon": -77.0467635, "lat": 38.915917666666665, "type": "electric_scooter", "fusion_lon": 0.0, "is_reserved": 0, "bike_id": "e8f60368aa2b8146e8842d9d2b57bf75", "fusion_lat": 0.0, "is_disabled": 0, "rental_uris": {"ios": "https://dc.lft.to/lastmile_qr_scan", "android": "https://dc.lft.to/lastmile_qr_scan"}}, {"name": "f18fd36c96756799446a68988c6fce35", "lon": -77.03500816666667, "lat": 38.91702, "type": "electric_scooter", "fusion_lon": 0.0, "is_reserved": 0, "bike_id": "f18fd36c96756799446a68988c6fce35", "fusion_lat": 0.0, "is_disabled": 0, "rental_uris": {"ios": "https://dc.lft.to/lastmile_qr_scan", "android": "https://dc.lft.to/lastmile_qr_scan"}}, {"name": "7b6ac95f8383fe254e33f553a0367016", "lon": -76.94556116666666, "lat": 38.86491866666667, "type": "electric_scooter", "fusion_lon": 0.0, "is_reserved": 0, "bike_id": "7b6ac95f8383fe254e33f553a0367016", "fusion_lat": 0.0, "is_disabled": 0, "rental_uris": {"ios": "https://dc.lft.to/lastmile_qr_scan", "android": "https://dc.lft.to/lastmile_qr_scan"}}, {"name": "ee5ca83ad369490766a1b78d38f668dd", "lon": -77.02197566666666, "lat": 38.901615666666665, "type": "electric_scooter", "fusion_lon": 0.0, "is_reserved": 0, "bike_id": "ee5ca83ad369490766a1b78d38f668dd", "fusion_lat": 0.0, "is_disabled": 0, "rental_uris": {"ios": "https://dc.lft.to/lastmile_qr_scan", "android": "https://dc.lft.to/lastmile_qr_scan"}}, {"name": "6fa979c382b80da5c1a437d3d1c3e149", "lon": -76.96986733333334, "lat": 38.8561525, "type": "electric_scooter", "fusion_lon": 0.0, "is_reserved": 0, "bike_id": "6fa979c382b80da5c1a437d3d1c3e149", "fusion_lat": 0.0, "is_disabled": 0, "rental_uris": {"ios": "https://dc.lft.to/lastmile_qr_scan", "android": "https://dc.lft.to/lastmile_qr_scan"}}, {"name": "1958c71bd504bb9d43ddfd78f68978c0", "lon": -77.02423283333333, "lat": 38.957270333333334, "type": "electric_scooter", "fusion_lon": 0.0, "is_reserved": 0, "bike_id": "1958c71bd504bb9d43ddfd78f68978c0", "fusion_lat": 0.0, "is_disabled": 0, "rental_uris": {"ios": "https://dc.lft.to/lastmile_qr_scan", "android": "https://dc.lft.to/lastmile_qr_scan"}}, {"name": "48873058157a5a2b3d7365e07d9b9d02", "lon": -77.02196566666667, "lat": 38.90212316666667, "type": "electric_scooter", "fusion_lon": 0.0, "is_reserved": 0, "bike_id": "48873058157a5a2b3d7365e07d9b9d02", "fusion_lat": 0.0, "is_disabled": 0, "rental_uris": {"ios": "https://dc.lft.to/lastmile_qr_scan", "android": "https://dc.lft.to/lastmile_qr_scan"}}, {"name": "dae400af70273761fa8d2367062c0aa0", "lon": -76.94633983333334, "lat": 38.89844633333333, "type": "electric_scooter", "fusion_lon": 0.0, "is_reserved": 0, "bike_id": "dae400af70273761fa8d2367062c0aa0", "fusion_lat": 0.0, "is_disabled": 0, "rental_uris": {"ios": "https://dc.lft.to/lastmile_qr_scan", "android": "https://dc.lft.to/lastmile_qr_scan"}}, {"name": "794ca1767feefc2b71ed0c3c5a42cbe6", "lon": -77.0344505, "lat": 38.91009016666667, "type": "electric_scooter", "fusion_lon": 0.0, "is_reserved": 0, "bike_id": "794ca1767feefc2b71ed0c3c5a42cbe6", "fusion_lat": 0.0, "is_disabled": 0, "rental_uris": {"ios": "https://dc.lft.to/lastmile_qr_scan", "android": "https://dc.lft.to/lastmile_qr_scan"}}, {"name": "a09b9d70081b5f94c96ba61d483a3ec7", "lon": -77.02512783333333, "lat": 38.930953833333334, "type": "electric_scooter", "fusion_lon": 0.0, "is_reserved": 0, "bike_id": "a09b9d70081b5f94c96ba61d483a3ec7", "fusion_lat": 0.0, "is_disabled": 0, "rental_uris": {"ios": "https://dc.lft.to/lastmile_qr_scan", "android": "https://dc.lft.to/lastmile_qr_scan"}}, {"name": "900793e362a80e5a131b7f499f8a6c7a", "lon": -77.0321335, "lat": 38.89224933333333, "type": "electric_scooter", "fusion_lon": 0.0, "is_reserved": 0, "bike_id": "900793e362a80e5a131b7f499f8a6c7a", "fusion_lat": 0.0, "is_disabled": 0, "rental_uris": {"ios": "https://dc.lft.to/lastmile_qr_scan", "android": "https://dc.lft.to/lastmile_qr_scan"}}, {"name": "0398f8b4ef41c9cd3d5525609574baaf", "lon": -76.996073, "lat": 38.88622616666667, "type": "electric_scooter", "fusion_lon": 0.0, "is_reserved": 0, "bike_id": "0398f8b4ef41c9cd3d5525609574baaf", "fusion_lat": 0.0, "is_disabled": 0, "rental_uris": {"ios": "https://dc.lft.to/lastmile_qr_scan", "android": "https://dc.lft.to/lastmile_qr_scan"}}, {"name": "cc62cc1f2c5be797c1fa0c11992e2c5f", "lon": -77.02556783333333, "lat": 38.92479983333333, "type": "electric_scooter", "fusion_lon": 0.0, "is_reserved": 0, "bike_id": "cc62cc1f2c5be797c1fa0c11992e2c5f", "fusion_lat": 0.0, "is_disabled": 0, "rental_uris": {"ios": "https://dc.lft.to/lastmile_qr_scan", "android": "https://dc.lft.to/lastmile_qr_scan"}}, {"name": "96771690cd0b9a7af4aa4f58563cba95", "lon": -76.98305433333333, "lat": 38.90524833333333, "type": "electric_scooter", "fusion_lon": 0.0, "is_reserved": 0, "bike_id": "96771690cd0b9a7af4aa4f58563cba95", "fusion_lat": 0.0, "is_disabled": 0, "rental_uris": {"ios": "https://dc.lft.to/lastmile_qr_scan", "android": "https://dc.lft.to/lastmile_qr_scan"}}, {"name": "8601e043d02a9ad5208d42350e7be740", "lon": -77.025861, "lat": 38.920335, "type": "electric_scooter", "fusion_lon": 0.0, "is_reserved": 0, "bike_id": "8601e043d02a9ad5208d42350e7be740", "fusion_lat": 0.0, "is_disabled": 0, "rental_uris": {"ios": "https://dc.lft.to/lastmile_qr_scan", "android": "https://dc.lft.to/lastmile_qr_scan"}}, {"name": "6cb50945f3b0d54dc51cf05e90b432a0", "lon": -77.03680766666666, "lat": 38.936546, "type": "electric_scooter", "fusion_lon": 0.0, "is_reserved": 0, "bike_id": "6cb50945f3b0d54dc51cf05e90b432a0", "fusion_lat": 0.0, "is_disabled": 0, "rental_uris": {"ios": "https://dc.lft.to/lastmile_qr_scan", "android": "https://dc.lft.to/lastmile_qr_scan"}}, {"name": "1e115a6f066273b91c6da789e67b53c8", "lon": -77.03844916666667, "lat": 38.91117466666667, "type": "electric_scooter", "fusion_lon": 0.0, "is_reserved": 0, "bike_id": "1e115a6f066273b91c6da789e67b53c8", "fusion_lat": 0.0, "is_disabled": 0, "rental_uris": {"ios": "https://dc.lft.to/lastmile_qr_scan", "android": "https://dc.lft.to/lastmile_qr_scan"}}, {"name": "4f48883626118e381d2852dd40bece74", "lon": -77.0038265, "lat": 38.83609083333333, "type": "electric_bike", "fusion_lon": 0.0, "is_reserved": 0, "bike_id": "4f48883626118e381d2852dd40bece74", "fusion_lat": 0.0, "is_disabled": 0, "rental_uris": {"ios": "https://dc.lft.to/lastmile_qr_scan", "android": "https://dc.lft.to/lastmile_qr_scan"}}, {"name": "37a235db173272f45b59e885f9846a2c", "lon": -77.01414016666666, "lat": 38.88121316666667, "type": "electric_scooter", "fusion_lon": 0.0, "is_reserved": 0, "bike_id": "37a235db173272f45b59e885f9846a2c", "fusion_lat": 0.0, "is_disabled": 0, "rental_uris": {"ios": "https://dc.lft.to/lastmile_qr_scan", "android": "https://dc.lft.to/lastmile_qr_scan"}}, {"name": "fa0a43da83433ae488e303de2b92b260", "lon": -77.01437016666667, "lat": 38.919641166666665, "type": "electric_scooter", "fusion_lon": 0.0, "is_reserved": 0, "bike_id": "fa0a43da83433ae488e303de2b92b260", "fusion_lat": 0.0, "is_disabled": 0, "rental_uris": {"ios": "https://dc.lft.to/lastmile_qr_scan", "android": "https://dc.lft.to/lastmile_qr_scan"}}, {"name": "7edb87e65d1e63b5da72d096391317d1", "lon": -77.041398, "lat": 38.9307245, "type": "electric_scooter", "fusion_lon": 0.0, "is_reserved": 0, "bike_id": "7edb87e65d1e63b5da72d096391317d1", "fusion_lat": 0.0, "is_disabled": 0, "rental_uris": {"ios": "https://dc.lft.to/lastmile_qr_scan", "android": "https://dc.lft.to/lastmile_qr_scan"}}, {"name": "1bbe8c81ffbf919aea904c65ef100403", "lon": -77.0232365, "lat": 38.90738433333333, "type": "electric_scooter", "fusion_lon": 0.0, "is_reserved": 0, "bike_id": "1bbe8c81ffbf919aea904c65ef100403", "fusion_lat": 0.0, "is_disabled": 0, "rental_uris": {"ios": "https://dc.lft.to/lastmile_qr_scan", "android": "https://dc.lft.to/lastmile_qr_scan"}}, {"name": "0fbcf59c1d00ddf64f6681790a1bad1c", "lon": -77.046424, "lat": 38.91925666666667, "type": "electric_scooter", "fusion_lon": 0.0, "is_reserved": 0, "bike_id": "0fbcf59c1d00ddf64f6681790a1bad1c", "fusion_lat": 0.0, "is_disabled": 0, "rental_uris": {"ios": "https://dc.lft.to/lastmile_qr_scan", "android": "https://dc.lft.to/lastmile_qr_scan"}}, {"name": "14e0f1d0e55f256022ddb1344e6db956", "lon": -77.02565416666667, "lat": 38.9247505, "type": "electric_scooter", "fusion_lon": 0.0, "is_reserved": 0, "bike_id": "14e0f1d0e55f256022ddb1344e6db956", "fusion_lat": 0.0, "is_disabled": 0, "rental_uris": {"ios": "https://dc.lft.to/lastmile_qr_scan", "android": "https://dc.lft.to/lastmile_qr_scan"}}, {"name": "34b327ce9cef3bf8a7f2fba1b9859842", "lon": -76.98199883333334, "lat": 38.901993166666664, "type": "electric_scooter", "fusion_lon": 0.0, "is_reserved": 0, "bike_id": "34b327ce9cef3bf8a7f2fba1b9859842", "fusion_lat": 0.0, "is_disabled": 0, "rental_uris": {"ios": "https://dc.lft.to/lastmile_qr_scan", "android": "https://dc.lft.to/lastmile_qr_scan"}}, {"name": "271e91cf1bda9ea2f55341a38d46de06", "lon": -77.02679583333334, "lat": 38.9277985, "type": "electric_scooter", "fusion_lon": 0.0, "is_reserved": 0, "bike_id": "271e91cf1bda9ea2f55341a38d46de06", "fusion_lat": 0.0, "is_disabled": 0, "rental_uris": {"ios": "https://dc.lft.to/lastmile_qr_scan", "android": "https://dc.lft.to/lastmile_qr_scan"}}, {"name": "a560a2238e56741b96f2647aac112ded", "lon": -76.98534583333333, "lat": 38.88082, "type": "electric_bike", "fusion_lon": 0.0, "is_reserved": 0, "bike_id": "a560a2238e56741b96f2647aac112ded", "fusion_lat": 0.0, "is_disabled": 0, "rental_uris": {"ios": "https://dc.lft.to/lastmile_qr_scan", "android": "https://dc.lft.to/lastmile_qr_scan"}}, {"name": "8ae814d4a474427e2e5df36a0763feec", "lon": -76.96868233333333, "lat": 38.870916, "type": "electric_scooter", "fusion_lon": 0.0, "is_reserved": 0, "bike_id": "8ae814d4a474427e2e5df36a0763feec", "fusion_lat": 0.0, "is_disabled": 0, "rental_uris": {"ios": "https://dc.lft.to/lastmile_qr_scan", "android": "https://dc.lft.to/lastmile_qr_scan"}}, {"name": "02882f0db22dc4d7c910da12e1bc6f7e", "lon": -77.03114766666667, "lat": 38.91689, "type": "electric_scooter", "fusion_lon": 0.0, "is_reserved": 0, "bike_id": "02882f0db22dc4d7c910da12e1bc6f7e", "fusion_lat": 0.0, "is_disabled": 0, "rental_uris": {"ios": "https://dc.lft.to/lastmile_qr_scan", "android": "https://dc.lft.to/lastmile_qr_scan"}}, {"name": "b11026dc291f4437750513e0f968a031", "lon": -77.03852416666666, "lat": 38.921696, "type": "electric_scooter", "fusion_lon": 0.0, "is_reserved": 0, "bike_id": "b11026dc291f4437750513e0f968a031", "fusion_lat": 0.0, "is_disabled": 0, "rental_uris": {"ios": "https://dc.lft.to/lastmile_qr_scan", "android": "https://dc.lft.to/lastmile_qr_scan"}}, {"name": "25edae59fc3f9e1df4f1d961079d79f4", "lon": -77.03440133333334, "lat": 38.910119333333334, "type": "electric_scooter", "fusion_lon": 0.0, "is_reserved": 0, "bike_id": "25edae59fc3f9e1df4f1d961079d79f4", "fusion_lat": 0.0, "is_disabled": 0, "rental_uris": {"ios": "https://dc.lft.to/lastmile_qr_scan", "android": "https://dc.lft.to/lastmile_qr_scan"}}, {"name": "5a80b54425080dbae3bc1391c655d724", "lon": -77.0229645, "lat": 38.91781833333334, "type": "electric_scooter", "fusion_lon": 0.0, "is_reserved": 0, "bike_id": "5a80b54425080dbae3bc1391c655d724", "fusion_lat": 0.0, "is_disabled": 0, "rental_uris": {"ios": "https://dc.lft.to/lastmile_qr_scan", "android": "https://dc.lft.to/lastmile_qr_scan"}}, {"name": "16b61f80a1b560135db7646f7e1f10f7", "lon": -76.9601105, "lat": 38.896441833333334, "type": "electric_scooter", "fusion_lon": 0.0, "is_reserved": 0, "bike_id": "16b61f80a1b560135db7646f7e1f10f7", "fusion_lat": 0.0, "is_disabled": 0, "rental_uris": {"ios": "https://dc.lft.to/lastmile_qr_scan", "android": "https://dc.lft.to/lastmile_qr_scan"}}, {"name": "93c2a30abbb6e35797d6d2246e83e3b5", "lon": -77.01144633333334, "lat": 38.90642416666667, "type": "electric_scooter", "fusion_lon": 0.0, "is_reserved": 0, "bike_id": "93c2a30abbb6e35797d6d2246e83e3b5", "fusion_lat": 0.0, "is_disabled": 0, "rental_uris": {"ios": "https://dc.lft.to/lastmile_qr_scan", "android": "https://dc.lft.to/lastmile_qr_scan"}}, {"name": "ce1dacda9ff3311db216a67d7a5e99b3", "lon": -77.0022325, "lat": 38.92507583333333, "type": "electric_scooter", "fusion_lon": 0.0, "is_reserved": 0, "bike_id": "ce1dacda9ff3311db216a67d7a5e99b3", "fusion_lat": 0.0, "is_disabled": 0, "rental_uris": {"ios": "https://dc.lft.to/lastmile_qr_scan", "android": "https://dc.lft.to/lastmile_qr_scan"}}, {"name": "3a21a125957169f171ed9d5cb46c0507", "lon": -77.02425716666667, "lat": 38.909652333333334, "type": "electric_scooter", "fusion_lon": 0.0, "is_reserved": 0, "bike_id": "3a21a125957169f171ed9d5cb46c0507", "fusion_lat": 0.0, "is_disabled": 0, "rental_uris": {"ios": "https://dc.lft.to/lastmile_qr_scan", "android": "https://dc.lft.to/lastmile_qr_scan"}}, {"name": "90378cde39c6b3e794c86e33ff9c70cc", "lon": -76.98087433333333, "lat": 38.9535245, "type": "electric_bike", "fusion_lon": 0.0, "is_reserved": 0, "bike_id": "90378cde39c6b3e794c86e33ff9c70cc", "fusion_lat": 0.0, "is_disabled": 0, "rental_uris": {"ios": "https://dc.lft.to/lastmile_qr_scan", "android": "https://dc.lft.to/lastmile_qr_scan"}}, {"name": "8492646771a0fe6940156143246fd0f1", "lon": -76.9901555, "lat": 38.905065666666665, "type": "electric_scooter", "fusion_lon": 0.0, "is_reserved": 0, "bike_id": "8492646771a0fe6940156143246fd0f1", "fusion_lat": 0.0, "is_disabled": 0, "rental_uris": {"ios": "https://dc.lft.to/lastmile_qr_scan", "android": "https://dc.lft.to/lastmile_qr_scan"}}, {"name": "3a2ed5420acb227a67c752cbc4b4b787", "lon": -77.01537916666666, "lat": 38.88740766666667, "type": "electric_scooter", "fusion_lon": 0.0, "is_reserved": 0, "bike_id": "3a2ed5420acb227a67c752cbc4b4b787", "fusion_lat": 0.0, "is_disabled": 0, "rental_uris": {"ios": "https://dc.lft.to/lastmile_qr_scan", "android": "https://dc.lft.to/lastmile_qr_scan"}}, {"name": "cf280acf56674baf2e828df04d0e224f", "lon": -77.04473233333333, "lat": 38.918878166666666, "type": "electric_scooter", "fusion_lon": 0.0, "is_reserved": 0, "bike_id": "cf280acf56674baf2e828df04d0e224f", "fusion_lat": 0.0, "is_disabled": 0, "rental_uris": {"ios": "https://dc.lft.to/lastmile_qr_scan", "android": "https://dc.lft.to/lastmile_qr_scan"}}, {"name": "62ac684bdcb7e52a638b4b7540e6bfcf", "lon": -77.00181366666666, "lat": 38.900050666666665, "type": "electric_scooter", "fusion_lon": 0.0, "is_reserved": 0, "bike_id": "62ac684bdcb7e52a638b4b7540e6bfcf", "fusion_lat": 0.0, "is_disabled": 0, "rental_uris": {"ios": "https://dc.lft.to/lastmile_qr_scan", "android": "https://dc.lft.to/lastmile_qr_scan"}}, {"name": "d5eaf68fa4f2615c87c0fe5dd5839ea6", "lon": -76.9660555, "lat": 38.873834333333335, "type": "electric_scooter", "fusion_lon": 0.0, "is_reserved": 0, "bike_id": "d5eaf68fa4f2615c87c0fe5dd5839ea6", "fusion_lat": 0.0, "is_disabled": 0, "rental_uris": {"ios": "https://dc.lft.to/lastmile_qr_scan", "android": "https://dc.lft.to/lastmile_qr_scan"}}, {"name": "80dcd7b7d8a2f5df3c9e9203a58b1063", "lon": -77.05917383333333, "lat": 38.90101883333333, "type": "electric_scooter", "fusion_lon": 0.0, "is_reserved": 0, "bike_id": "80dcd7b7d8a2f5df3c9e9203a58b1063", "fusion_lat": 0.0, "is_disabled": 0, "rental_uris": {"ios": "https://dc.lft.to/lastmile_qr_scan", "android": "https://dc.lft.to/lastmile_qr_scan"}}, {"name": "5d2e5ebfb45a13b4646c0a60c7fbc46c", "lon": -77.0345, "lat": 38.90571333333333, "type": "electric_scooter", "fusion_lon": 0.0, "is_reserved": 0, "bike_id": "5d2e5ebfb45a13b4646c0a60c7fbc46c", "fusion_lat": 0.0, "is_disabled": 0, "rental_uris": {"ios": "https://dc.lft.to/lastmile_qr_scan", "android": "https://dc.lft.to/lastmile_qr_scan"}}, {"name": "7a294e11e8545f8720da214ed563b85c", "lon": -77.04706816666666, "lat": 38.89728216666666, "type": "electric_scooter", "fusion_lon": 0.0, "is_reserved": 0, "bike_id": "7a294e11e8545f8720da214ed563b85c", "fusion_lat": 0.0, "is_disabled": 0, "rental_uris": {"ios": "https://dc.lft.to/lastmile_qr_scan", "android": "https://dc.lft.to/lastmile_qr_scan"}}, {"name": "7cd826ced4411699c86c6384ab5111c7", "lon": -77.01747533333334, "lat": 38.887398, "type": "electric_scooter", "fusion_lon": 0.0, "is_reserved": 0, "bike_id": "7cd826ced4411699c86c6384ab5111c7", "fusion_lat": 0.0, "is_disabled": 0, "rental_uris": {"ios": "https://dc.lft.to/lastmile_qr_scan", "android": "https://dc.lft.to/lastmile_qr_scan"}}, {"name": "39ab4841b676742ad4f9029f871e642c", "lon": -77.046992, "lat": 38.92171916666667, "type": "electric_scooter", "fusion_lon": 0.0, "is_reserved": 0, "bike_id": "39ab4841b676742ad4f9029f871e642c", "fusion_lat": 0.0, "is_disabled": 0, "rental_uris": {"ios": "https://dc.lft.to/lastmile_qr_scan", "android": "https://dc.lft.to/lastmile_qr_scan"}}, {"name": "a21784e61c4df340112edd691c7e3607", "lon": -77.01198466666666, "lat": 38.9171175, "type": "electric_scooter", "fusion_lon": 0.0, "is_reserved": 0, "bike_id": "a21784e61c4df340112edd691c7e3607", "fusion_lat": 0.0, "is_disabled": 0, "rental_uris": {"ios": "https://dc.lft.to/lastmile_qr_scan", "android": "https://dc.lft.to/lastmile_qr_scan"}}, {"name": "94d062ab1d1fc875cad3edc0f8f503ee", "lon": -77.0514295, "lat": 38.90422566666667, "type": "electric_scooter", "fusion_lon": 0.0, "is_reserved": 0, "bike_id": "94d062ab1d1fc875cad3edc0f8f503ee", "fusion_lat": 0.0, "is_disabled": 0, "rental_uris": {"ios": "https://dc.lft.to/lastmile_qr_scan", "android": "https://dc.lft.to/lastmile_qr_scan"}}, {"name": "07ba2f4ddf2db42ed5f10fccfdff3701", "lon": -76.93646016666666, "lat": 38.87153883333333, "type": "electric_bike", "fusion_lon": 0.0, "is_reserved": 0, "bike_id": "07ba2f4ddf2db42ed5f10fccfdff3701", "fusion_lat": 0.0, "is_disabled": 0, "rental_uris": {"ios": "https://dc.lft.to/lastmile_qr_scan", "android": "https://dc.lft.to/lastmile_qr_scan"}}, {"name": "28c3e830fcafd0b9bdce9ec085edf0df", "lon": -77.02840066666667, "lat": 38.91699533333333, "type": "electric_scooter", "fusion_lon": 0.0, "is_reserved": 0, "bike_id": "28c3e830fcafd0b9bdce9ec085edf0df", "fusion_lat": 0.0, "is_disabled": 0, "rental_uris": {"ios": "https://dc.lft.to/lastmile_qr_scan", "android": "https://dc.lft.to/lastmile_qr_scan"}}, {"name": "40a0476ea58a7e84f5cf2f8b11b70a0d", "lon": -76.97534383333333, "lat": 38.90330133333333, "type": "electric_bike", "fusion_lon": 0.0, "is_reserved": 0, "bike_id": "40a0476ea58a7e84f5cf2f8b11b70a0d", "fusion_lat": 0.0, "is_disabled": 0, "rental_uris": {"ios": "https://dc.lft.to/lastmile_qr_scan", "android": "https://dc.lft.to/lastmile_qr_scan"}}, {"name": "bfa7f079ed5d66d8240f97c5a6be822d", "lon": -77.043932, "lat": 38.921009166666664, "type": "electric_scooter", "fusion_lon": 0.0, "is_reserved": 0, "bike_id": "bfa7f079ed5d66d8240f97c5a6be822d", "fusion_lat": 0.0, "is_disabled": 0, "rental_uris": {"ios": "https://dc.lft.to/lastmile_qr_scan", "android": "https://dc.lft.to/lastmile_qr_scan"}}, {"name": "efd7405b8963e8bd5eedeed14bd7082e", "lon": -77.035003, "lat": 38.924864, "type": "electric_scooter", "fusion_lon": 0.0, "is_reserved": 0, "bike_id": "efd7405b8963e8bd5eedeed14bd7082e", "fusion_lat": 0.0, "is_disabled": 0, "rental_uris": {"ios": "https://dc.lft.to/lastmile_qr_scan", "android": "https://dc.lft.to/lastmile_qr_scan"}}, {"name": "f2af5e458098fb27c762549c72cc45b0", "lon": -77.0669945, "lat": 38.831779833333336, "type": "electric_bike", "fusion_lon": 0.0, "is_reserved": 0, "bike_id": "f2af5e458098fb27c762549c72cc45b0", "fusion_lat": 0.0, "is_disabled": 0, "rental_uris": {"ios": "https://dc.lft.to/lastmile_qr_scan", "android": "https://dc.lft.to/lastmile_qr_scan"}}, {"name": "74ea99e2d343e66446e89410e0c453f8", "lon": -77.03635366666667, "lat": 38.9329185, "type": "electric_bike", "fusion_lon": 0.0, "is_reserved": 0, "bike_id": "74ea99e2d343e66446e89410e0c453f8", "fusion_lat": 0.0, "is_disabled": 0, "rental_uris": {"ios": "https://dc.lft.to/lastmile_qr_scan", "android": "https://dc.lft.to/lastmile_qr_scan"}}, {"name": "443a94f7bd7a758b10721abe0b200838", "lon": -77.04851016666667, "lat": 38.91618483333333, "type": "electric_scooter", "fusion_lon": 0.0, "is_reserved": 0, "bike_id": "443a94f7bd7a758b10721abe0b200838", "fusion_lat": 0.0, "is_disabled": 0, "rental_uris": {"ios": "https://dc.lft.to/lastmile_qr_scan", "android": "https://dc.lft.to/lastmile_qr_scan"}}, {"name": "23dfa986b64d4f2df6d322e9dcecfcd0", "lon": -77.03527416666667, "lat": 38.90665083333333, "type": "electric_scooter", "fusion_lon": 0.0, "is_reserved": 0, "bike_id": "23dfa986b64d4f2df6d322e9dcecfcd0", "fusion_lat": 0.0, "is_disabled": 0, "rental_uris": {"ios": "https://dc.lft.to/lastmile_qr_scan", "android": "https://dc.lft.to/lastmile_qr_scan"}}, {"name": "fc0c40be9392e75c15ab79272899c4e0", "lon": -77.02359333333334, "lat": 38.88681233333333, "type": "electric_scooter", "fusion_lon": 0.0, "is_reserved": 0, "bike_id": "fc0c40be9392e75c15ab79272899c4e0", "fusion_lat": 0.0, "is_disabled": 0, "rental_uris": {"ios": "https://dc.lft.to/lastmile_qr_scan", "android": "https://dc.lft.to/lastmile_qr_scan"}}, {"name": "9c138791aabdabee79ba36dcc68b5ed0", "lon": -76.91915033333333, "lat": 38.88579516666667, "type": "electric_scooter", "fusion_lon": 0.0, "is_reserved": 0, "bike_id": "9c138791aabdabee79ba36dcc68b5ed0", "fusion_lat": 0.0, "is_disabled": 0, "rental_uris": {"ios": "https://dc.lft.to/lastmile_qr_scan", "android": "https://dc.lft.to/lastmile_qr_scan"}}, {"name": "b8edc3be897479b1d6863290fe863daf", "lon": -77.0361715, "lat": 38.932574, "type": "electric_scooter", "fusion_lon": 0.0, "is_reserved": 0, "bike_id": "b8edc3be897479b1d6863290fe863daf", "fusion_lat": 0.0, "is_disabled": 0, "rental_uris": {"ios": "https://dc.lft.to/lastmile_qr_scan", "android": "https://dc.lft.to/lastmile_qr_scan"}}, {"name": "7318f2cfb55a87d352e9f5ea6d09acef", "lon": -77.02780833333334, "lat": 38.9170115, "type": "electric_scooter", "fusion_lon": 0.0, "is_reserved": 0, "bike_id": "7318f2cfb55a87d352e9f5ea6d09acef", "fusion_lat": 0.0, "is_disabled": 0, "rental_uris": {"ios": "https://dc.lft.to/lastmile_qr_scan", "android": "https://dc.lft.to/lastmile_qr_scan"}}, {"name": "01cdfdc202156f5a91eeed3654cf1f76", "lon": -77.0570605, "lat": 38.906147, "type": "electric_scooter", "fusion_lon": 0.0, "is_reserved": 0, "bike_id": "01cdfdc202156f5a91eeed3654cf1f76", "fusion_lat": 0.0, "is_disabled": 0, "rental_uris": {"ios": "https://dc.lft.to/lastmile_qr_scan", "android": "https://dc.lft.to/lastmile_qr_scan"}}, {"name": "f96445f08d5817e327338fd77d2d811f", "lon": -77.00365766666667, "lat": 38.915539833333334, "type": "electric_scooter", "fusion_lon": 0.0, "is_reserved": 0, "bike_id": "f96445f08d5817e327338fd77d2d811f", "fusion_lat": 0.0, "is_disabled": 0, "rental_uris": {"ios": "https://dc.lft.to/lastmile_qr_scan", "android": "https://dc.lft.to/lastmile_qr_scan"}}, {"name": "6b3aa4420bac86c5ff74af5f4cca0897", "lon": -77.0232915, "lat": 38.927016, "type": "electric_scooter", "fusion_lon": 0.0, "is_reserved": 0, "bike_id": "6b3aa4420bac86c5ff74af5f4cca0897", "fusion_lat": 0.0, "is_disabled": 0, "rental_uris": {"ios": "https://dc.lft.to/lastmile_qr_scan", "android": "https://dc.lft.to/lastmile_qr_scan"}}, {"name": "c04d8a859a00e9f8391fb049b6698d22", "lon": -77.02819166666667, "lat": 38.91403533333333, "type": "electric_scooter", "fusion_lon": 0.0, "is_reserved": 0, "bike_id": "c04d8a859a00e9f8391fb049b6698d22", "fusion_lat": 0.0, "is_disabled": 0, "rental_uris": {"ios": "https://dc.lft.to/lastmile_qr_scan", "android": "https://dc.lft.to/lastmile_qr_scan"}}, {"name": "7e1ed85d5bea4c96aa5541e828b563e8", "lon": -77.02970366666666, "lat": 38.905611, "type": "electric_scooter", "fusion_lon": 0.0, "is_reserved": 0, "bike_id": "7e1ed85d5bea4c96aa5541e828b563e8", "fusion_lat": 0.0, "is_disabled": 0, "rental_uris": {"ios": "https://dc.lft.to/lastmile_qr_scan", "android": "https://dc.lft.to/lastmile_qr_scan"}}, {"name": "00f26c8693ee56dd1d43791645415ee1", "lon": -77.064127, "lat": 38.91300583333334, "type": "electric_scooter", "fusion_lon": 0.0, "is_reserved": 0, "bike_id": "00f26c8693ee56dd1d43791645415ee1", "fusion_lat": 0.0, "is_disabled": 0, "rental_uris": {"ios": "https://dc.lft.to/lastmile_qr_scan", "android": "https://dc.lft.to/lastmile_qr_scan"}}, {"name": "be16301d35b2330a2be3fe0348036369", "lon": -77.038601, "lat": 38.916905166666666, "type": "electric_scooter", "fusion_lon": 0.0, "is_reserved": 0, "bike_id": "be16301d35b2330a2be3fe0348036369", "fusion_lat": 0.0, "is_disabled": 0, "rental_uris": {"ios": "https://dc.lft.to/lastmile_qr_scan", "android": "https://dc.lft.to/lastmile_qr_scan"}}, {"name": "154e56c08d3151e87a7adde3d8b1cfc6", "lon": -76.94584433333333, "lat": 38.93742483333333, "type": "electric_bike", "fusion_lon": 0.0, "is_reserved": 0, "bike_id": "154e56c08d3151e87a7adde3d8b1cfc6", "fusion_lat": 0.0, "is_disabled": 0, "rental_uris": {"ios": "https://dc.lft.to/lastmile_qr_scan", "android": "https://dc.lft.to/lastmile_qr_scan"}}, {"name": "71502e1bd99a56701ebe180c111cc014", "lon": -77.038226, "lat": 38.9068785, "type": "electric_scooter", "fusion_lon": 0.0, "is_reserved": 0, "bike_id": "71502e1bd99a56701ebe180c111cc014", "fusion_lat": 0.0, "is_disabled": 0, "rental_uris": {"ios": "https://dc.lft.to/lastmile_qr_scan", "android": "https://dc.lft.to/lastmile_qr_scan"}}, {"name": "3e64f630b0a2434625642cb8ec03a555", "lon": -77.023822, "lat": 38.916708166666666, "type": "electric_scooter", "fusion_lon": 0.0, "is_reserved": 0, "bike_id": "3e64f630b0a2434625642cb8ec03a555", "fusion_lat": 0.0, "is_disabled": 0, "rental_uris": {"ios": "https://dc.lft.to/lastmile_qr_scan", "android": "https://dc.lft.to/lastmile_qr_scan"}}, {"name": "e9dd534036af0e88fffa9f457cf7c402", "lon": -76.9871185, "lat": 38.867033, "type": "electric_scooter", "fusion_lon": 0.0, "is_reserved": 0, "bike_id": "e9dd534036af0e88fffa9f457cf7c402", "fusion_lat": 0.0, "is_disabled": 0, "rental_uris": {"ios": "https://dc.lft.to/lastmile_qr_scan", "android": "https://dc.lft.to/lastmile_qr_scan"}}, {"name": "3e63e2bd04f5902ae0f2cc7de6158f50", "lon": -77.00042416666666, "lat": 38.91901383333333, "type": "electric_scooter", "fusion_lon": 0.0, "is_reserved": 0, "bike_id": "3e63e2bd04f5902ae0f2cc7de6158f50", "fusion_lat": 0.0, "is_disabled": 0, "rental_uris": {"ios": "https://dc.lft.to/lastmile_qr_scan", "android": "https://dc.lft.to/lastmile_qr_scan"}}, {"name": "e426c508f6e2a9e34e5da5d58b21de9a", "lon": -77.0266945, "lat": 38.89715833333333, "type": "electric_scooter", "fusion_lon": 0.0, "is_reserved": 0, "bike_id": "e426c508f6e2a9e34e5da5d58b21de9a", "fusion_lat": 0.0, "is_disabled": 0, "rental_uris": {"ios": "https://dc.lft.to/lastmile_qr_scan", "android": "https://dc.lft.to/lastmile_qr_scan"}}, {"name": "3996ed49f04e67609d813cf133ecf499", "lon": -76.9960835, "lat": 38.903616666666665, "type": "electric_scooter", "fusion_lon": 0.0, "is_reserved": 0, "bike_id": "3996ed49f04e67609d813cf133ecf499", "fusion_lat": 0.0, "is_disabled": 0, "rental_uris": {"ios": "https://dc.lft.to/lastmile_qr_scan", "android": "https://dc.lft.to/lastmile_qr_scan"}}, {"name": "fc13c5fb7ba23f85c05088da7a82253e", "lon": -77.01853366666667, "lat": 38.922814333333335, "type": "electric_scooter", "fusion_lon": 0.0, "is_reserved": 0, "bike_id": "fc13c5fb7ba23f85c05088da7a82253e", "fusion_lat": 0.0, "is_disabled": 0, "rental_uris": {"ios": "https://dc.lft.to/lastmile_qr_scan", "android": "https://dc.lft.to/lastmile_qr_scan"}}, {"name": "bb651414ef12e58b8766bf0bb703e9d4", "lon": -76.99787883333333, "lat": 38.909050666666666, "type": "electric_scooter", "fusion_lon": 0.0, "is_reserved": 0, "bike_id": "bb651414ef12e58b8766bf0bb703e9d4", "fusion_lat": 0.0, "is_disabled": 0, "rental_uris": {"ios": "https://dc.lft.to/lastmile_qr_scan", "android": "https://dc.lft.to/lastmile_qr_scan"}}, {"name": "2312699989a8137887e286355e89c247", "lon": -77.03669816666667, "lat": 38.92724416666667, "type": "electric_scooter", "fusion_lon": 0.0, "is_reserved": 0, "bike_id": "2312699989a8137887e286355e89c247", "fusion_lat": 0.0, "is_disabled": 0, "rental_uris": {"ios": "https://dc.lft.to/lastmile_qr_scan", "android": "https://dc.lft.to/lastmile_qr_scan"}}, {"name": "e75a7d470ba719df37ea9a9c93ec3d38", "lon": -77.04803966666667, "lat": 38.892251, "type": "electric_scooter", "fusion_lon": 0.0, "is_reserved": 0, "bike_id": "e75a7d470ba719df37ea9a9c93ec3d38", "fusion_lat": 0.0, "is_disabled": 0, "rental_uris": {"ios": "https://dc.lft.to/lastmile_qr_scan", "android": "https://dc.lft.to/lastmile_qr_scan"}}, {"name": "f1550946d7e666c63a78e7435819cc2e", "lon": -77.02723683333333, "lat": 38.949570333333334, "type": "electric_scooter", "fusion_lon": 0.0, "is_reserved": 0, "bike_id": "f1550946d7e666c63a78e7435819cc2e", "fusion_lat": 0.0, "is_disabled": 0, "rental_uris": {"ios": "https://dc.lft.to/lastmile_qr_scan", "android": "https://dc.lft.to/lastmile_qr_scan"}}, {"name": "6b4ea25a65c5648b1598899476d39f52", "lon": -77.03204216666667, "lat": 38.91222416666667, "type": "electric_scooter", "fusion_lon": 0.0, "is_reserved": 0, "bike_id": "6b4ea25a65c5648b1598899476d39f52", "fusion_lat": 0.0, "is_disabled": 0, "rental_uris": {"ios": "https://dc.lft.to/lastmile_qr_scan", "android": "https://dc.lft.to/lastmile_qr_scan"}}, {"name": "fc44c79d0ad7ef57fdfce52771f7698e", "lon": -77.02302166666666, "lat": 38.92079916666667, "type": "electric_scooter", "fusion_lon": 0.0, "is_reserved": 0, "bike_id": "fc44c79d0ad7ef57fdfce52771f7698e", "fusion_lat": 0.0, "is_disabled": 0, "rental_uris": {"ios": "https://dc.lft.to/lastmile_qr_scan", "android": "https://dc.lft.to/lastmile_qr_scan"}}, {"name": "a57c014e01bead366ad5e1170388437e", "lon": -76.93614383333333, "lat": 38.8866785, "type": "electric_scooter", "fusion_lon": 0.0, "is_reserved": 0, "bike_id": "a57c014e01bead366ad5e1170388437e", "fusion_lat": 0.0, "is_disabled": 0, "rental_uris": {"ios": "https://dc.lft.to/lastmile_qr_scan", "android": "https://dc.lft.to/lastmile_qr_scan"}}, {"name": "2adfb30c5809364bd972b19315976637", "lon": -77.02427116666667, "lat": 38.9378805, "type": "electric_scooter", "fusion_lon": 0.0, "is_reserved": 0, "bike_id": "2adfb30c5809364bd972b19315976637", "fusion_lat": 0.0, "is_disabled": 0, "rental_uris": {"ios": "https://dc.lft.to/lastmile_qr_scan", "android": "https://dc.lft.to/lastmile_qr_scan"}}, {"name": "a35f55a93d1c08c875f86ed5742b7a03", "lon": -77.03454283333333, "lat": 38.9171095, "type": "electric_scooter", "fusion_lon": 0.0, "is_reserved": 0, "bike_id": "a35f55a93d1c08c875f86ed5742b7a03", "fusion_lat": 0.0, "is_disabled": 0, "rental_uris": {"ios": "https://dc.lft.to/lastmile_qr_scan", "android": "https://dc.lft.to/lastmile_qr_scan"}}, {"name": "87e70479ab0d0de712ca8cc105daa4a6", "lon": -77.01845233333333, "lat": 38.91524366666667, "type": "electric_scooter", "fusion_lon": 0.0, "is_reserved": 0, "bike_id": "87e70479ab0d0de712ca8cc105daa4a6", "fusion_lat": 0.0, "is_disabled": 0, "rental_uris": {"ios": "https://dc.lft.to/lastmile_qr_scan", "android": "https://dc.lft.to/lastmile_qr_scan"}}, {"name": "3c8382f52cd2fc5e24ecd86a0e1b4db6", "lon": -77.030941, "lat": 38.919239, "type": "electric_scooter", "fusion_lon": 0.0, "is_reserved": 0, "bike_id": "3c8382f52cd2fc5e24ecd86a0e1b4db6", "fusion_lat": 0.0, "is_disabled": 0, "rental_uris": {"ios": "https://dc.lft.to/lastmile_qr_scan", "android": "https://dc.lft.to/lastmile_qr_scan"}}, {"name": "5d2ab77e24ce993baa2374c8cedef72b", "lon": -77.02293566666667, "lat": 38.910722, "type": "electric_scooter", "fusion_lon": 0.0, "is_reserved": 0, "bike_id": "5d2ab77e24ce993baa2374c8cedef72b", "fusion_lat": 0.0, "is_disabled": 0, "rental_uris": {"ios": "https://dc.lft.to/lastmile_qr_scan", "android": "https://dc.lft.to/lastmile_qr_scan"}}, {"name": "e3c9bbc8c16d4350c287a9ba46338f67", "lon": -77.0328255, "lat": 38.9387645, "type": "electric_scooter", "fusion_lon": 0.0, "is_reserved": 0, "bike_id": "e3c9bbc8c16d4350c287a9ba46338f67", "fusion_lat": 0.0, "is_disabled": 0, "rental_uris": {"ios": "https://dc.lft.to/lastmile_qr_scan", "android": "https://dc.lft.to/lastmile_qr_scan"}}, {"name": "790a784355380f7579782b8e0c7bb5be", "lon": -77.0381675, "lat": 38.925163833333336, "type": "electric_scooter", "fusion_lon": 0.0, "is_reserved": 0, "bike_id": "790a784355380f7579782b8e0c7bb5be", "fusion_lat": 0.0, "is_disabled": 0, "rental_uris": {"ios": "https://dc.lft.to/lastmile_qr_scan", "android": "https://dc.lft.to/lastmile_qr_scan"}}, {"name": "c870e62780494e6cf576399b3a801ce5", "lon": -76.99946883333334, "lat": 38.842901833333336, "type": "electric_scooter", "fusion_lon": 0.0, "is_reserved": 0, "bike_id": "c870e62780494e6cf576399b3a801ce5", "fusion_lat": 0.0, "is_disabled": 0, "rental_uris": {"ios": "https://dc.lft.to/lastmile_qr_scan", "android": "https://dc.lft.to/lastmile_qr_scan"}}, {"name": "4943b31eaa30801dbb766c3b1409f317", "lon": -77.04336383333333, "lat": 38.8952535, "type": "electric_scooter", "fusion_lon": 0.0, "is_reserved": 0, "bike_id": "4943b31eaa30801dbb766c3b1409f317", "fusion_lat": 0.0, "is_disabled": 0, "rental_uris": {"ios": "https://dc.lft.to/lastmile_qr_scan", "android": "https://dc.lft.to/lastmile_qr_scan"}}, {"name": "adeb77cbcdc23766f8219240d6fc810f", "lon": -76.9854205, "lat": 38.90958466666667, "type": "electric_scooter", "fusion_lon": 0.0, "is_reserved": 0, "bike_id": "adeb77cbcdc23766f8219240d6fc810f", "fusion_lat": 0.0, "is_disabled": 0, "rental_uris": {"ios": "https://dc.lft.to/lastmile_qr_scan", "android": "https://dc.lft.to/lastmile_qr_scan"}}, {"name": "735a51b1656eeff6f0d841122ce36ebe", "lon": -76.95018033333334, "lat": 38.893884, "type": "electric_scooter", "fusion_lon": 0.0, "is_reserved": 0, "bike_id": "735a51b1656eeff6f0d841122ce36ebe", "fusion_lat": 0.0, "is_disabled": 0, "rental_uris": {"ios": "https://dc.lft.to/lastmile_qr_scan", "android": "https://dc.lft.to/lastmile_qr_scan"}}, {"name": "2168bdbcd212e3d383eae8c4b060be9d", "lon": -77.03352633333333, "lat": 38.88623783333333, "type": "electric_scooter", "fusion_lon": 0.0, "is_reserved": 0, "bike_id": "2168bdbcd212e3d383eae8c4b060be9d", "fusion_lat": 0.0, "is_disabled": 0, "rental_uris": {"ios": "https://dc.lft.to/lastmile_qr_scan", "android": "https://dc.lft.to/lastmile_qr_scan"}}, {"name": "576bfb9c552d72859ad964ac68e34582", "lon": -77.02427916666667, "lat": 38.95626133333333, "type": "electric_scooter", "fusion_lon": 0.0, "is_reserved": 0, "bike_id": "576bfb9c552d72859ad964ac68e34582", "fusion_lat": 0.0, "is_disabled": 0, "rental_uris": {"ios": "https://dc.lft.to/lastmile_qr_scan", "android": "https://dc.lft.to/lastmile_qr_scan"}}, {"name": "1289d12636d0b8e9cf2ada2eea4a3e2a", "lon": -77.02503266666666, "lat": 38.91973466666666, "type": "electric_scooter", "fusion_lon": 0.0, "is_reserved": 0, "bike_id": "1289d12636d0b8e9cf2ada2eea4a3e2a", "fusion_lat": 0.0, "is_disabled": 0, "rental_uris": {"ios": "https://dc.lft.to/lastmile_qr_scan", "android": "https://dc.lft.to/lastmile_qr_scan"}}, {"name": "96e4537339cf27c342a5eb69ebf67e03", "lon": -77.02729466666666, "lat": 38.927718, "type": "electric_scooter", "fusion_lon": 0.0, "is_reserved": 0, "bike_id": "96e4537339cf27c342a5eb69ebf67e03", "fusion_lat": 0.0, "is_disabled": 0, "rental_uris": {"ios": "https://dc.lft.to/lastmile_qr_scan", "android": "https://dc.lft.to/lastmile_qr_scan"}}, {"name": "8bf4763fd13854a2d65dd1261dacfea3", "lon": -76.96467416666667, "lat": 38.93446816666667, "type": "electric_scooter", "fusion_lon": 0.0, "is_reserved": 0, "bike_id": "8bf4763fd13854a2d65dd1261dacfea3", "fusion_lat": 0.0, "is_disabled": 0, "rental_uris": {"ios": "https://dc.lft.to/lastmile_qr_scan", "android": "https://dc.lft.to/lastmile_qr_scan"}}, {"name": "72e8cdacb6566c1152a6fe88bb793ee0", "lon": -77.02373016666667, "lat": 38.8792695, "type": "electric_scooter", "fusion_lon": 0.0, "is_reserved": 0, "bike_id": "72e8cdacb6566c1152a6fe88bb793ee0", "fusion_lat": 0.0, "is_disabled": 0, "rental_uris": {"ios": "https://dc.lft.to/lastmile_qr_scan", "android": "https://dc.lft.to/lastmile_qr_scan"}}, {"name": "533f49f1b641643062eeeede19090c15", "lon": -77.0221475, "lat": 38.90575283333333, "type": "electric_scooter", "fusion_lon": 0.0, "is_reserved": 0, "bike_id": "533f49f1b641643062eeeede19090c15", "fusion_lat": 0.0, "is_disabled": 0, "rental_uris": {"ios": "https://dc.lft.to/lastmile_qr_scan", "android": "https://dc.lft.to/lastmile_qr_scan"}}, {"name": "0038cf38a382c1f79617aba7e5ea0c8f", "lon": -77.02530816666666, "lat": 38.942580666666665, "type": "electric_scooter", "fusion_lon": 0.0, "is_reserved": 0, "bike_id": "0038cf38a382c1f79617aba7e5ea0c8f", "fusion_lat": 0.0, "is_disabled": 0, "rental_uris": {"ios": "https://dc.lft.to/lastmile_qr_scan", "android": "https://dc.lft.to/lastmile_qr_scan"}}, {"name": "40d23efdab9f018be532ddbd0e5e391a", "lon": -77.03675283333334, "lat": 38.90377983333333, "type": "electric_scooter", "fusion_lon": 0.0, "is_reserved": 0, "bike_id": "40d23efdab9f018be532ddbd0e5e391a", "fusion_lat": 0.0, "is_disabled": 0, "rental_uris": {"ios": "https://dc.lft.to/lastmile_qr_scan", "android": "https://dc.lft.to/lastmile_qr_scan"}}, {"name": "25796cec46472c95c859109b28d8b333", "lon": -77.08590616666666, "lat": 38.908773833333335, "type": "electric_scooter", "fusion_lon": 0.0, "is_reserved": 0, "bike_id": "25796cec46472c95c859109b28d8b333", "fusion_lat": 0.0, "is_disabled": 0, "rental_uris": {"ios": "https://dc.lft.to/lastmile_qr_scan", "android": "https://dc.lft.to/lastmile_qr_scan"}}, {"name": "e39f368e804912930e383eccb587e1ea", "lon": -77.0288425, "lat": 38.913306666666664, "type": "electric_scooter", "fusion_lon": 0.0, "is_reserved": 0, "bike_id": "e39f368e804912930e383eccb587e1ea", "fusion_lat": 0.0, "is_disabled": 0, "rental_uris": {"ios": "https://dc.lft.to/lastmile_qr_scan", "android": "https://dc.lft.to/lastmile_qr_scan"}}, {"name": "619e295a606134090b5c987d38593c33", "lon": -77.03379466666667, "lat": 38.91036283333333, "type": "electric_scooter", "fusion_lon": 0.0, "is_reserved": 0, "bike_id": "619e295a606134090b5c987d38593c33", "fusion_lat": 0.0, "is_disabled": 0, "rental_uris": {"ios": "https://dc.lft.to/lastmile_qr_scan", "android": "https://dc.lft.to/lastmile_qr_scan"}}, {"name": "9ceed3288b68d0d09538fefd43ea108f", "lon": -77.03295183333333, "lat": 38.9325335, "type": "electric_scooter", "fusion_lon": 0.0, "is_reserved": 0, "bike_id": "9ceed3288b68d0d09538fefd43ea108f", "fusion_lat": 0.0, "is_disabled": 0, "rental_uris": {"ios": "https://dc.lft.to/lastmile_qr_scan", "android": "https://dc.lft.to/lastmile_qr_scan"}}, {"name": "1327feb35fb8ba7937a247511383d789", "lon": -77.032107, "lat": 38.91796766666667, "type": "electric_scooter", "fusion_lon": 0.0, "is_reserved": 0, "bike_id": "1327feb35fb8ba7937a247511383d789", "fusion_lat": 0.0, "is_disabled": 0, "rental_uris": {"ios": "https://dc.lft.to/lastmile_qr_scan", "android": "https://dc.lft.to/lastmile_qr_scan"}}, {"name": "4c526528e9b9835e7ea5337b35f6245b", "lon": -77.031217, "lat": 38.915637333333336, "type": "electric_scooter", "fusion_lon": 0.0, "is_reserved": 0, "bike_id": "4c526528e9b9835e7ea5337b35f6245b", "fusion_lat": 0.0, "is_disabled": 0, "rental_uris": {"ios": "https://dc.lft.to/lastmile_qr_scan", "android": "https://dc.lft.to/lastmile_qr_scan"}}, {"name": "82dc153f1f8b75d20d5212b32ceccb71", "lon": -76.99776183333333, "lat": 38.84430966666667, "type": "electric_scooter", "fusion_lon": 0.0, "is_reserved": 0, "bike_id": "82dc153f1f8b75d20d5212b32ceccb71", "fusion_lat": 0.0, "is_disabled": 0, "rental_uris": {"ios": "https://dc.lft.to/lastmile_qr_scan", "android": "https://dc.lft.to/lastmile_qr_scan"}}, {"name": "7902af9a772a41889c4d70e8587feb19", "lon": -77.0415715, "lat": 38.919162, "type": "electric_scooter", "fusion_lon": 0.0, "is_reserved": 0, "bike_id": "7902af9a772a41889c4d70e8587feb19", "fusion_lat": 0.0, "is_disabled": 0, "rental_uris": {"ios": "https://dc.lft.to/lastmile_qr_scan", "android": "https://dc.lft.to/lastmile_qr_scan"}}, {"name": "f24cd38a64c22bb126c24b75b2cbbdfc", "lon": -76.957533, "lat": 38.88434066666667, "type": "electric_scooter", "fusion_lon": 0.0, "is_reserved": 0, "bike_id": "f24cd38a64c22bb126c24b75b2cbbdfc", "fusion_lat": 0.0, "is_disabled": 0, "rental_uris": {"ios": "https://dc.lft.to/lastmile_qr_scan", "android": "https://dc.lft.to/lastmile_qr_scan"}}, {"name": "ffeb88a9b4eb9d4fae84c1ebb0ca1efa", "lon": -77.050569, "lat": 38.90147966666667, "type": "electric_scooter", "fusion_lon": 0.0, "is_reserved": 0, "bike_id": "ffeb88a9b4eb9d4fae84c1ebb0ca1efa", "fusion_lat": 0.0, "is_disabled": 0, "rental_uris": {"ios": "https://dc.lft.to/lastmile_qr_scan", "android": "https://dc.lft.to/lastmile_qr_scan"}}, {"name": "19ca3151f725142d961dcb1a47ff6a13", "lon": -77.029087, "lat": 38.93325766666667, "type": "electric_scooter", "fusion_lon": 0.0, "is_reserved": 0, "bike_id": "19ca3151f725142d961dcb1a47ff6a13", "fusion_lat": 0.0, "is_disabled": 0, "rental_uris": {"ios": "https://dc.lft.to/lastmile_qr_scan", "android": "https://dc.lft.to/lastmile_qr_scan"}}, {"name": "44910dedd3fbe554cfd72bc914ffed52", "lon": -77.106004, "lat": 38.92892616666666, "type": "electric_bike", "fusion_lon": 0.0, "is_reserved": 0, "bike_id": "44910dedd3fbe554cfd72bc914ffed52", "fusion_lat": 0.0, "is_disabled": 0, "rental_uris": {"ios": "https://dc.lft.to/lastmile_qr_scan", "android": "https://dc.lft.to/lastmile_qr_scan"}}, {"name": "3e713d37505ceba4cfb60e374742c485", "lon": -77.01195016666667, "lat": 38.9030955, "type": "electric_scooter", "fusion_lon": 0.0, "is_reserved": 0, "bike_id": "3e713d37505ceba4cfb60e374742c485", "fusion_lat": 0.0, "is_disabled": 0, "rental_uris": {"ios": "https://dc.lft.to/lastmile_qr_scan", "android": "https://dc.lft.to/lastmile_qr_scan"}}, {"name": "0e0aa1ff69ed67aa49044a7dafa2ce9e", "lon": -76.94966866666667, "lat": 38.8936035, "type": "electric_scooter", "fusion_lon": 0.0, "is_reserved": 0, "bike_id": "0e0aa1ff69ed67aa49044a7dafa2ce9e", "fusion_lat": 0.0, "is_disabled": 0, "rental_uris": {"ios": "https://dc.lft.to/lastmile_qr_scan", "android": "https://dc.lft.to/lastmile_qr_scan"}}, {"name": "ed576138445dbca4cbfa2104bbdcd29e", "lon": -77.00772683333334, "lat": 38.905706333333335, "type": "electric_scooter", "fusion_lon": 0.0, "is_reserved": 0, "bike_id": "ed576138445dbca4cbfa2104bbdcd29e", "fusion_lat": 0.0, "is_disabled": 0, "rental_uris": {"ios": "https://dc.lft.to/lastmile_qr_scan", "android": "https://dc.lft.to/lastmile_qr_scan"}}, {"name": "b67526559055c79cb90d576e4d7b21dd", "lon": -77.029225, "lat": 38.929722166666664, "type": "electric_scooter", "fusion_lon": 0.0, "is_reserved": 0, "bike_id": "b67526559055c79cb90d576e4d7b21dd", "fusion_lat": 0.0, "is_disabled": 0, "rental_uris": {"ios": "https://dc.lft.to/lastmile_qr_scan", "android": "https://dc.lft.to/lastmile_qr_scan"}}, {"name": "0a8080adc1b9fc9830805bc6fd31df81", "lon": -76.98876966666667, "lat": 38.890334333333335, "type": "electric_scooter", "fusion_lon": 0.0, "is_reserved": 0, "bike_id": "0a8080adc1b9fc9830805bc6fd31df81", "fusion_lat": 0.0, "is_disabled": 0, "rental_uris": {"ios": "https://dc.lft.to/lastmile_qr_scan", "android": "https://dc.lft.to/lastmile_qr_scan"}}, {"name": "27cb79ed815aaa2624a66eaa13e71a60", "lon": -77.0486195, "lat": 38.91522583333333, "type": "electric_scooter", "fusion_lon": 0.0, "is_reserved": 0, "bike_id": "27cb79ed815aaa2624a66eaa13e71a60", "fusion_lat": 0.0, "is_disabled": 0, "rental_uris": {"ios": "https://dc.lft.to/lastmile_qr_scan", "android": "https://dc.lft.to/lastmile_qr_scan"}}, {"name": "bd9376f07720193bdcb990673f41efa0", "lon": -77.0411035, "lat": 38.92801583333333, "type": "electric_scooter", "fusion_lon": 0.0, "is_reserved": 0, "bike_id": "bd9376f07720193bdcb990673f41efa0", "fusion_lat": 0.0, "is_disabled": 0, "rental_uris": {"ios": "https://dc.lft.to/lastmile_qr_scan", "android": "https://dc.lft.to/lastmile_qr_scan"}}, {"name": "60abe37034027b27c1ca7c9c9d325a7f", "lon": -77.01345083333334, "lat": 38.899156833333336, "type": "electric_scooter", "fusion_lon": 0.0, "is_reserved": 0, "bike_id": "60abe37034027b27c1ca7c9c9d325a7f", "fusion_lat": 0.0, "is_disabled": 0, "rental_uris": {"ios": "https://dc.lft.to/lastmile_qr_scan", "android": "https://dc.lft.to/lastmile_qr_scan"}}, {"name": "1e1bcf2f700d11884c5867e47b0ca9fe", "lon": -77.02384083333334, "lat": 38.892398666666665, "type": "electric_scooter", "fusion_lon": 0.0, "is_reserved": 0, "bike_id": "1e1bcf2f700d11884c5867e47b0ca9fe", "fusion_lat": 0.0, "is_disabled": 0, "rental_uris": {"ios": "https://dc.lft.to/lastmile_qr_scan", "android": "https://dc.lft.to/lastmile_qr_scan"}}, {"name": "0b0f770771a7c5f7e8a9a3dfe4034a22", "lon": -77.02410933333333, "lat": 38.91962066666667, "type": "electric_scooter", "fusion_lon": 0.0, "is_reserved": 0, "bike_id": "0b0f770771a7c5f7e8a9a3dfe4034a22", "fusion_lat": 0.0, "is_disabled": 0, "rental_uris": {"ios": "https://dc.lft.to/lastmile_qr_scan", "android": "https://dc.lft.to/lastmile_qr_scan"}}, {"name": "4679edd9ec8cc695bc6658fadd762b2f", "lon": -77.04553266666667, "lat": 38.9176925, "type": "electric_scooter", "fusion_lon": 0.0, "is_reserved": 0, "bike_id": "4679edd9ec8cc695bc6658fadd762b2f", "fusion_lat": 0.0, "is_disabled": 0, "rental_uris": {"ios": "https://dc.lft.to/lastmile_qr_scan", "android": "https://dc.lft.to/lastmile_qr_scan"}}, {"name": "e88b156521d6f84c65cb57167a935e90", "lon": -77.0233035, "lat": 38.9360035, "type": "electric_scooter", "fusion_lon": 0.0, "is_reserved": 0, "bike_id": "e88b156521d6f84c65cb57167a935e90", "fusion_lat": 0.0, "is_disabled": 0, "rental_uris": {"ios": "https://dc.lft.to/lastmile_qr_scan", "android": "https://dc.lft.to/lastmile_qr_scan"}}, {"name": "acc33b72c09e9e79a1044509792edbd6", "lon": -77.0294895, "lat": 38.90491183333334, "type": "electric_scooter", "fusion_lon": 0.0, "is_reserved": 0, "bike_id": "acc33b72c09e9e79a1044509792edbd6", "fusion_lat": 0.0, "is_disabled": 0, "rental_uris": {"ios": "https://dc.lft.to/lastmile_qr_scan", "android": "https://dc.lft.to/lastmile_qr_scan"}}, {"name": "53d8e3d1ac2f6f9c5b957a5a89efe464", "lon": -77.0227225, "lat": 38.9163895, "type": "electric_scooter", "fusion_lon": 0.0, "is_reserved": 0, "bike_id": "53d8e3d1ac2f6f9c5b957a5a89efe464", "fusion_lat": 0.0, "is_disabled": 0, "rental_uris": {"ios": "https://dc.lft.to/lastmile_qr_scan", "android": "https://dc.lft.to/lastmile_qr_scan"}},