{"data": {"bikes": [{"lon": -77.0236665, "bike_id": "96d8e8be0ddbce0c1da26c157967acce", "lat": 38.903037, "fusion_lon": 0.0, "fusion_lat": 0.0, "type": "electric_scooter", "name": "96d8e8be0ddbce0c1da26c157967acce", "is_disabled": 0, "rental_uris": {"ios": "https://dc.lft.to/lastmile_qr_scan", "android": "https://dc.lft.to/lastmile_qr_scan"}, "is_reserved": 0}, {"lon": -77.02256566666667, "bike_id": "cc55d5b7f847e91ff8879927745fd27a", "lat": 38.925248833333335, "fusion_lon": 0.0, "fusion_lat": 0.0, "type": "electric_scooter", "name": "cc55d5b7f847e91ff8879927745fd27a", "is_disabled": 0, "rental_uris": {"ios": "https://dc.lft.to/lastmile_qr_scan", "android": "https://dc.lft.to/lastmile_qr_scan"}, "is_reserved": 0}, {"lon": -77.02504266666666, "bike_id": "425e4120fdfd7456d1c7e901906ee0c9", "lat": 38.904226666666666, "fusion_lon": 0.0, "fusion_lat": 0.0, "type": "electric_scooter", "name": "425e4120fdfd7456d1c7e901906ee0c9", "is_disabled": 0, "rental_uris": {"ios": "https://dc.lft.to/lastmile_qr_scan", "android": "https://dc.lft.to/lastmile_qr_scan"}, "is_reserved": 0}, {"lon": -76.98838566666667, "bike_id": "62a1adbfe7441a6143f1852beea76262", "lat": 38.90042183333333, "fusion_lon": 0.0, "fusion_lat": 0.0, "type": "electric_scooter", "name": "62a1adbfe7441a6143f1852beea76262", "is_disabled": 0, "rental_uris": {"ios": "https://dc.lft.to/lastmile_qr_scan", "android": "https://dc.lft.to/lastmile_qr_scan"}, "is_reserved": 0}, {"lon": -77.01547283333333, "bike_id": "736958ab1d192a6abc96feb7d36f69d4", "lat": 38.88513316666667, "fusion_lon": 0.0, "fusion_lat": 0.0, "type": "electric_scooter", "name": "736958ab1d192a6abc96feb7d36f69d4", "is_disabled": 0, "rental_uris": {"ios": "https://dc.lft.to/lastmile_qr_scan", "android": "https://dc.lft.to/lastmile_qr_scan"}, "is_reserved": 0}, {"lon": -77.03758, "bike_id": "7371164fb6236bad028c18f3f7e98991", "lat": 38.91188983333333, "fusion_lon": 0.0, "fusion_lat": 0.0, "type": "electric_scooter", "name": "7371164fb6236bad028c18f3f7e98991", "is_disabled": 0, "rental_uris": {"ios": "https://dc.lft.to/lastmile_qr_scan", "android": "https://dc.lft.to/lastmile_qr_scan"}, "is_reserved": 0}, {"lon": -77.04354, "bike_id": "8268c6f79ede7b5e1288d8816f966977", "lat": 38.915897, "fusion_lon": 0.0, "fusion_lat": 0.0, "type": "electric_scooter", "name": "8268c6f79ede7b5e1288d8816f966977", "is_disabled": 0, "rental_uris": {"ios": "https://dc.lft.to/lastmile_qr_scan", "android": "https://dc.lft.to/lastmile_qr_scan"}, "is_reserved": 0}, {"lon": -76.94998683333333, "bike_id": "6e971604cef2ad938be83b9e8e90df41", "lat": 38.89385033333333, "fusion_lon": 0.0, "fusion_lat": 0.0, "type": "electric_scooter", "name": "6e971604cef2ad938be83b9e8e90df41", "is_disabled": 0, "rental_uris": {"ios": "https://dc.lft.to/lastmile_qr_scan", "android": "https://dc.lft.to/lastmile_qr_scan"}, "is_reserved": 0}, {"lon": -77.00738666666666, "bike_id": "378f7a74474f43e57d618310077ddadd", "lat": 38.898528, "fusion_lon": 0.0, "fusion_lat": 0.0, "type": "electric_scooter", "name": "378f7a74474f43e57d618310077ddadd", "is_disabled": 0, "rental_uris": {"ios": "https://dc.lft.to/lastmile_qr_scan", "android": "https://dc.lft.to/lastmile_qr_scan"}, "is_reserved": 0}, {"lon": -76.99756816666667, "bike_id": "42d077f42251ebf6050ef0793c0cdcf6", "lat": 38.95010966666667, "fusion_lon": 0.0, "fusion_lat": 0.0, "type": "electric_bike", "name": "42d077f42251ebf6050ef0793c0cdcf6", "is_disabled": 0, "rental_uris": {"ios": "https://dc.lft.to/lastmile_qr_scan", "android": "https://dc.lft.to/lastmile_qr_scan"}, "is_reserved": 0}, {"lon": -77.00216416666666, "bike_id": "bc500f5ae5fa8827c2284f5bbd440817", "lat": 38.8851525, "fusion_lon": 0.0, "fusion_lat": 0.0, "type": "electric_scooter", "name": "bc500f5ae5fa8827c2284f5bbd440817", "is_disabled": 0, "rental_uris": {"ios": "https://dc.lft.to/lastmile_qr_scan", "android": "https://dc.lft.to/lastmile_qr_scan"}, "is_reserved": 0}, {"lon": -77.07581633333334, "bike_id": "6ed325ba4e0f20dfa6aa3a42a4efa663", "lat": 38.91223183333334, "fusion_lon": 0.0, "fusion_lat": 0.0, "type": "electric_scooter", "name": "6ed325ba4e0f20dfa6aa3a42a4efa663", "is_disabled": 0, "rental_uris": {"ios": "https://dc.lft.to/lastmile_qr_scan", "android": "https://dc.lft.to/lastmile_qr_scan"}, "is_reserved": 0}, {"lon": -77.03628366666666, "bike_id": "b19e903acc50cb12a912170b37117cde", "lat": 38.91699216666667, "fusion_lon": 0.0, "fusion_lat": 0.0, "type": "electric_scooter", "name": "b19e903acc50cb12a912170b37117cde", "is_disabled": 0, "rental_uris": {"ios": "https://dc.lft.to/lastmile_qr_scan", "android": "https://dc.lft.to/lastmile_qr_scan"}, "is_reserved": 0}, {"lon": -77.048652, "bike_id": "48be7da9f2a2711fdf9f18e6459cd229", "lat": 38.89223233333333, "fusion_lon": 0.0, "fusion_lat": 0.0, "type": "electric_scooter", "name": "48be7da9f2a2711fdf9f18e6459cd229", "is_disabled": 0, "rental_uris": {"ios": "https://dc.lft.to/lastmile_qr_scan", "android": "https://dc.lft.to/lastmile_qr_scan"}, "is_reserved": 0}, {"lon": -77.05131316666667, "bike_id": "da69bac262880138e81ebe5724872997", "lat": 38.923689, "fusion_lon": 0.0, "fusion_lat": 0.0, "type": "electric_scooter", "name": "da69bac262880138e81ebe5724872997", "is_disabled": 0, "rental_uris": {"ios": "https://dc.lft.to/lastmile_qr_scan", "android": "https://dc.lft.to/lastmile_qr_scan"}, "is_reserved": 0}, {"lon": -77.02750316666666, "bike_id": "68949f08837b05331b3d1cfbf5d72cd9", "lat": 38.95439, "fusion_lon": 0.0, "fusion_lat": 0.0, "type": "electric_scooter", "name": "68949f08837b05331b3d1cfbf5d72cd9", "is_disabled": 0, "rental_uris": {"ios": "https://dc.lft.to/lastmile_qr_scan", "android": "https://dc.lft.to/lastmile_qr_scan"}, "is_reserved": 0}, {"lon": -77.021841, "bike_id": "257b2d588a66d61a7d40a257d345ab82", "lat": 38.9019515, "fusion_lon": 0.0, "fusion_lat": 0.0, "type": "electric_scooter", "name": "257b2d588a66d61a7d40a257d345ab82", "is_disabled": 0, "rental_uris": {"ios": "https://dc.lft.to/lastmile_qr_scan", "android": "https://dc.lft.to/lastmile_qr_scan"}, "is_reserved": 0}, {"lon": -76.98462883333333, "bike_id": "5dd30d0219fbba57f955fcb8d28d486b", "lat": 38.903984333333334, "fusion_lon": 0.0, "fusion_lat": 0.0, "type": "electric_scooter", "name": "5dd30d0219fbba57f955fcb8d28d486b", "is_disabled": 0, "rental_uris": {"ios": "https://dc.lft.to/lastmile_qr_scan", "android": "https://dc.lft.to/lastmile_qr_scan"}, "is_reserved": 0}, {"lon": -77.0468665, "bike_id": "ec8ab378152ecc5d416e4c894690e0b1", "lat": 38.900418, "fusion_lon": 0.0, "fusion_lat": 0.0, "type": "electric_scooter", "name": "ec8ab378152ecc5d416e4c894690e0b1", "is_disabled": 0, "rental_uris": {"ios": "https://dc.lft.to/lastmile_qr_scan", "android": "https://dc.lft.to/lastmile_qr_scan"}, "is_reserved": 0}, {"lon": -77.01866133333333, "bike_id": "4c35b398bc9cce87ba64343c3d76fca1", "lat": 38.898422333333336, "fusion_lon": 0.0, "fusion_lat": 0.0, "type": "electric_scooter", "name": "4c35b398bc9cce87ba64343c3d76fca1", "is_disabled": 0, "rental_uris": {"ios": "https://dc.lft.to/lastmile_qr_scan", "android": "https://dc.lft.to/lastmile_qr_scan"}, "is_reserved": 0}, {"lon": -77.01483283333333, "bike_id": "d543e03ab170fd3acb4e2457bd0fa786", "lat": 38.92717316666667, "fusion_lon": 0.0, "fusion_lat": 0.0, "type": "electric_scooter", "name": "d543e03ab170fd3acb4e2457bd0fa786", "is_disabled": 0, "rental_uris": {"ios": "https://dc.lft.to/lastmile_qr_scan", "android": "https://dc.lft.to/lastmile_qr_scan"}, "is_reserved": 0}, {"lon": -77.02002483333334, "bike_id": "ea7bf4626bc031c4b2a31d349ffa3e66", "lat": 38.966316666666664, "fusion_lon": 0.0, "fusion_lat": 0.0, "type": "electric_scooter", "name": "ea7bf4626bc031c4b2a31d349ffa3e66", "is_disabled": 0, "rental_uris": {"ios": "https://dc.lft.to/lastmile_qr_scan", "android": "https://dc.lft.to/lastmile_qr_scan"}, "is_reserved": 0}, {"lon": -77.01668766666667, "bike_id": "d2cb08dc1a0bd4ef546e2ad2f5f807a0", "lat": 38.8771205, "fusion_lon": 0.0, "fusion_lat": 0.0, "type": "electric_scooter", "name": "d2cb08dc1a0bd4ef546e2ad2f5f807a0", "is_disabled": 0, "rental_uris": {"ios": "https://dc.lft.to/lastmile_qr_scan", "android": "https://dc.lft.to/lastmile_qr_scan"}, "is_reserved": 0}, {"lon": -77.05271183333333, "bike_id": "a10f8b8ac57decd4b57f8ef307a6c5c1", "lat": 38.927801333333335, "fusion_lon": 0.0, "fusion_lat": 0.0, "type": "electric_scooter", "name": "a10f8b8ac57decd4b57f8ef307a6c5c1", "is_disabled": 0, "rental_uris": {"ios": "https://dc.lft.to/lastmile_qr_scan", "android": "https://dc.lft.to/lastmile_qr_scan"}, "is_reserved": 0}, {"lon": -76.99608983333333, "bike_id": "22a5f7a80d50b10130df2080de72b7bb", "lat": 38.90394283333333, "fusion_lon": 0.0, "fusion_lat": 0.0, "type": "electric_scooter", "name": "22a5f7a80d50b10130df2080de72b7bb", "is_disabled": 0, "rental_uris": {"ios": "https://dc.lft.to/lastmile_qr_scan", "android": "https://dc.lft.to/lastmile_qr_scan"}, "is_reserved": 0}, {"lon": -77.0639365, "bike_id": "578c03e875d8d806bb087c1fb9505cf9", "lat": 38.94327166666667, "fusion_lon": 0.0, "fusion_lat": 0.0, "type": "electric_scooter", "name": "578c03e875d8d806bb087c1fb9505cf9", "is_disabled": 0, "rental_uris": {"ios": "https://dc.lft.to/lastmile_qr_scan", "android": "https://dc.lft.to/lastmile_qr_scan"}, "is_reserved": 0}, {"lon": -76.990378, "bike_id": "0eddf7937b4a55d6620a3e3d6a9999b9", "lat": 38.902863833333335, "fusion_lon": 0.0, "fusion_lat": 0.0, "type": "electric_scooter", "name": "0eddf7937b4a55d6620a3e3d6a9999b9", "is_disabled": 0, "rental_uris": {"ios": "https://dc.lft.to/lastmile_qr_scan", "android": "https://dc.lft.to/lastmile_qr_scan"}, "is_reserved": 0}, {"lon": -77.043584, "bike_id": "eb15c43f9c5bfc6de644ee19cea4a01a", "lat": 38.906377166666665, "fusion_lon": 0.0, "fusion_lat": 0.0, "type": "electric_scooter", "name": "eb15c43f9c5bfc6de644ee19cea4a01a", "is_disabled": 0, "rental_uris": {"ios": "https://dc.lft.to/lastmile_qr_scan", "android": "https://dc.lft.to/lastmile_qr_scan"}, "is_reserved": 0}, {"lon": -77.0008795, "bike_id": "8d93e3123439ccdf07989059fe4b772b", "lat": 38.894834833333334, "fusion_lon": 0.0, "fusion_lat": 0.0, "type": "electric_scooter", "name": "8d93e3123439ccdf07989059fe4b772b", "is_disabled": 0, "rental_uris": {"ios": "https://dc.lft.to/lastmile_qr_scan", "android": "https://dc.lft.to/lastmile_qr_scan"}, "is_reserved": 0}, {"lon": -77.02505983333333, "bike_id": "3ffa0534e57830d16518e6c65ca3b34b", "lat": 38.939844, "fusion_lon": 0.0, "fusion_lat": 0.0, "type": "electric_scooter", "name": "3ffa0534e57830d16518e6c65ca3b34b", "is_disabled": 0, "rental_uris": {"ios": "https://dc.lft.to/lastmile_qr_scan", "android": "https://dc.lft.to/lastmile_qr_scan"}, "is_reserved": 0}, {"lon": -77.0162595, "bike_id": "36e20b3db780e4fd8d16b0b199bfec33", "lat": 38.906113166666664, "fusion_lon": 0.0, "fusion_lat": 0.0, "type": "electric_scooter", "name": "36e20b3db780e4fd8d16b0b199bfec33", "is_disabled": 0, "rental_uris": {"ios": "https://dc.lft.to/lastmile_qr_scan", "android": "https://dc.lft.to/lastmile_qr_scan"}, "is_reserved": 0}, {"lon": -76.983377, "bike_id": "ac27996a4f24ac39cc25c9c7390a85b7", "lat": 38.8664525, "fusion_lon": 0.0, "fusion_lat": 0.0, "type": "electric_scooter", "name": "ac27996a4f24ac39cc25c9c7390a85b7", "is_disabled": 0, "rental_uris": {"ios": "https://dc.lft.to/lastmile_qr_scan", "android": "https://dc.lft.to/lastmile_qr_scan"}, "is_reserved": 0}, {"lon": -77.01618566666667, "bike_id": "3d61dc6c69145c88465aea9d1aa30245", "lat": 38.903551, "fusion_lon": 0.0, "fusion_lat": 0.0, "type": "electric_scooter", "name": "3d61dc6c69145c88465aea9d1aa30245", "is_disabled": 0, "rental_uris": {"ios": "https://dc.lft.to/lastmile_qr_scan", "android": "https://dc.lft.to/lastmile_qr_scan"}, "is_reserved": 0}, {"lon": -77.04453433333333, "bike_id": "e4fabf54e21484473e331b58e8d97387", "lat": 38.9083095, "fusion_lon": 0.0, "fusion_lat": 0.0, "type": "electric_scooter", "name": "e4fabf54e21484473e331b58e8d97387", "is_disabled": 0, "rental_uris": {"ios": "https://dc.lft.to/lastmile_qr_scan", "android": "https://dc.lft.to/lastmile_qr_scan"}, "is_reserved": 0}, {"lon": -77.0036805, "bike_id": "bb4cf208acbf7c71ff6e6325a088d67e", "lat": 38.89926, "fusion_lon": 0.0, "fusion_lat": 0.0, "type": "electric_scooter", "name": "bb4cf208acbf7c71ff6e6325a088d67e", "is_disabled": 0, "rental_uris": {"ios": "https://dc.lft.to/lastmile_qr_scan", "android": "https://dc.lft.to/lastmile_qr_scan"}, "is_reserved": 0}, {"lon": -77.05826033333334, "bike_id": "d0a3b018fc0536f8e75f4e4dcf3b00fc", "lat": 38.93545683333333, "fusion_lon": 0.0, "fusion_lat": 0.0, "type": "electric_scooter", "name": "d0a3b018fc0536f8e75f4e4dcf3b00fc", "is_disabled": 0, "rental_uris": {"ios": "https://dc.lft.to/lastmile_qr_scan", "android": "https://dc.lft.to/lastmile_qr_scan"}, "is_reserved": 0}, {"lon": -76.99717116666666, "bike_id": "012653097d36aaacc2cb6b38ce8df4cd", "lat": 38.90821066666667, "fusion_lon": 0.0, "fusion_lat": 0.0, "type": "electric_scooter", "name": "012653097d36aaacc2cb6b38ce8df4cd", "is_disabled": 0, "rental_uris": {"ios": "https://dc.lft.to/lastmile_qr_scan", "android": "https://dc.lft.to/lastmile_qr_scan"}, "is_reserved": 0}, {"lon": -77.02528216666667, "bike_id": "5197c77df29f951c68df82dd67da99eb", "lat": 38.93296616666667, "fusion_lon": 0.0, "fusion_lat": 0.0, "type": "electric_scooter", "name": "5197c77df29f951c68df82dd67da99eb", "is_disabled": 0, "rental_uris": {"ios": "https://dc.lft.to/lastmile_qr_scan", "android": "https://dc.lft.to/lastmile_qr_scan"}, "is_reserved": 0}, {"lon": -76.98144516666666, "bike_id": "e886359d509e582d5ce0218ce9895809", "lat": 38.905646833333336, "fusion_lon": 0.0, "fusion_lat": 0.0, "type": "electric_scooter", "name": "e886359d509e582d5ce0218ce9895809", "is_disabled": 0, "rental_uris": {"ios": "https://dc.lft.to/lastmile_qr_scan", "android": "https://dc.lft.to/lastmile_qr_scan"}, "is_reserved": 0}, {"lon": -77.0487825, "bike_id": "b1ede4cea0ca278796133f859f0b7985", "lat": 38.89298616666667, "fusion_lon": 0.0, "fusion_lat": 0.0, "type": "electric_scooter", "name": "b1ede4cea0ca278796133f859f0b7985", "is_disabled": 0, "rental_uris": {"ios": "https://dc.lft.to/lastmile_qr_scan", "android": "https://dc.lft.to/lastmile_qr_scan"}, "is_reserved": 0}, {"lon": -77.01633333333334, "bike_id": "083834e0fc2854b5a5754f3cd8113f20", "lat": 38.9036985, "fusion_lon": 0.0, "fusion_lat": 0.0, "type": "electric_scooter", "name": "083834e0fc2854b5a5754f3cd8113f20", "is_disabled": 0, "rental_uris": {"ios": "https://dc.lft.to/lastmile_qr_scan", "android": "https://dc.lft.to/lastmile_qr_scan"}, "is_reserved": 0}, {"lon": -77.022123, "bike_id": "5690714434641cc360daef0171426e91", "lat": 38.899941, "fusion_lon": 0.0, "fusion_lat": 0.0, "type": "electric_scooter", "name": "5690714434641cc360daef0171426e91", "is_disabled": 0, "rental_uris": {"ios": "https://dc.lft.to/lastmile_qr_scan", "android": "https://dc.lft.to/lastmile_qr_scan"}, "is_reserved": 0}, {"lon": -77.03392833333334, "bike_id": "f7cd1ae979c178d5d289d34db26346f0", "lat": 38.90966983333333, "fusion_lon": 0.0, "fusion_lat": 0.0, "type": "electric_scooter", "name": "f7cd1ae979c178d5d289d34db26346f0", "is_disabled": 0, "rental_uris": {"ios": "https://dc.lft.to/lastmile_qr_scan", "android": "https://dc.lft.to/lastmile_qr_scan"}, "is_reserved": 0}, {"lon": -77.01279266666667, "bike_id": "85c1fe352ad74a38438379d7777fca6c", "lat": 38.915657833333334, "fusion_lon": 0.0, "fusion_lat": 0.0, "type": "electric_scooter", "name": "85c1fe352ad74a38438379d7777fca6c", "is_disabled": 0, "rental_uris": {"ios": "https://dc.lft.to/lastmile_qr_scan", "android": "https://dc.lft.to/lastmile_qr_scan"}, "is_reserved": 0}, {"lon": -76.99775416666667, "bike_id": "9f510cfac15e5d0da920267a115b2c20", "lat": 38.844327666666665, "fusion_lon": 0.0, "fusion_lat": 0.0, "type": "electric_scooter", "name": "9f510cfac15e5d0da920267a115b2c20", "is_disabled": 0, "rental_uris": {"ios": "https://dc.lft.to/lastmile_qr_scan", "android": "https://dc.lft.to/lastmile_qr_scan"}, "is_reserved": 0}, {"lon": -77.0332935, "bike_id": "4c9bb6e91310331853a3632a9612786f", "lat": 38.892276333333335, "fusion_lon": 0.0, "fusion_lat": 0.0, "type": "electric_scooter", "name": "4c9bb6e91310331853a3632a9612786f", "is_disabled": 0, "rental_uris": {"ios": "https://dc.lft.to/lastmile_qr_scan", "android": "https://dc.lft.to/lastmile_qr_scan"}, "is_reserved": 0}, {"lon": -76.9928915, "bike_id": "78609cda606e885085b7085c444db10b", "lat": 38.8849125, "fusion_lon": 0.0, "fusion_lat": 0.0, "type": "electric_scooter", "name": "78609cda606e885085b7085c444db10b", "is_disabled": 0, "rental_uris": {"ios": "https://dc.lft.to/lastmile_qr_scan", "android": "https://dc.lft.to/lastmile_qr_scan"}, "is_reserved": 0}, {"lon": -77.02167, "bike_id": "e2dad70a96e7424b2d7af5fa704c0df1", "lat": 38.919880166666665, "fusion_lon": 0.0, "fusion_lat": 0.0, "type": "electric_scooter", "name": "e2dad70a96e7424b2d7af5fa704c0df1", "is_disabled": 0, "rental_uris": {"ios": "https://dc.lft.to/lastmile_qr_scan", "android": "https://dc.lft.to/lastmile_qr_scan"}, "is_reserved": 0}, {"lon": -76.99192583333334, "bike_id": "03651b6e699ad8cbcf8f4b28a52f4204", "lat": 38.88287066666667, "fusion_lon": 0.0, "fusion_lat": 0.0, "type": "electric_scooter", "name": "03651b6e699ad8cbcf8f4b28a52f4204", "is_disabled": 0, "rental_uris": {"ios": "https://dc.lft.to/lastmile_qr_scan", "android": "https://dc.lft.to/lastmile_qr_scan"}, "is_reserved": 0}, {"lon": -77.04234116666667, "bike_id": "7c60cd9b68c6173b5523c2f552bc7bed", "lat": 38.922270166666664, "fusion_lon": 0.0, "fusion_lat": 0.0, "type": "electric_scooter", "name": "7c60cd9b68c6173b5523c2f552bc7bed", "is_disabled": 0, "rental_uris": {"ios": "https://dc.lft.to/lastmile_qr_scan", "android": "https://dc.lft.to/lastmile_qr_scan"}, "is_reserved": 0}, {"lon": -76.96476533333333, "bike_id": "0f489e93d6a1bb22ec22aacde3a42eea", "lat": 38.908272333333336, "fusion_lon": 0.0, "fusion_lat": 0.0, "type": "electric_bike", "name": "0f489e93d6a1bb22ec22aacde3a42eea", "is_disabled": 0, "rental_uris": {"ios": "https://dc.lft.to/lastmile_qr_scan", "android": "https://dc.lft.to/lastmile_qr_scan"}, "is_reserved": 0}, {"lon": -77.02362866666667, "bike_id": "73c4f456ab43169e4f2effa2162d5498", "lat": 38.896285, "fusion_lon": 0.0, "fusion_lat": 0.0, "type": "electric_scooter", "name": "73c4f456ab43169e4f2effa2162d5498", "is_disabled": 0, "rental_uris": {"ios": "https://dc.lft.to/lastmile_qr_scan", "android": "https://dc.lft.to/lastmile_qr_scan"}, "is_reserved": 0}, {"lon": -77.00195466666666, "bike_id": "404b8627d876b29746de1c70a05892ee", "lat": 38.900433666666665, "fusion_lon": 0.0, "fusion_lat": 0.0, "type": "electric_scooter", "name": "404b8627d876b29746de1c70a05892ee", "is_disabled": 0, "rental_uris": {"ios": "https://dc.lft.to/lastmile_qr_scan", "android": "https://dc.lft.to/lastmile_qr_scan"}, "is_reserved": 0}, {"lon": -77.0383025, "bike_id": "05791b73740440a0a31c222448f144fd", "lat": 38.91202166666667, "fusion_lon": 0.0, "fusion_lat": 0.0, "type": "electric_scooter", "name": "05791b73740440a0a31c222448f144fd", "is_disabled": 0, "rental_uris": {"ios": "https://dc.lft.to/lastmile_qr_scan", "android": "https://dc.lft.to/lastmile_qr_scan"}, "is_reserved": 0}, {"lon": -77.041224, "bike_id": "4c4531be9ccba962bef465e0c2a03d58", "lat": 38.94414116666667, "fusion_lon": 0.0, "fusion_lat": 0.0, "type": "electric_bike", "name": "4c4531be9ccba962bef465e0c2a03d58", "is_disabled": 0, "rental_uris": {"ios": "https://dc.lft.to/lastmile_qr_scan", "android": "https://dc.lft.to/lastmile_qr_scan"}, "is_reserved": 0}, {"lon": -77.0568495, "bike_id": "885c67adff5031f56c175035aabb1d89", "lat": 38.905024833333336, "fusion_lon": 0.0, "fusion_lat": 0.0, "type": "electric_scooter", "name": "885c67adff5031f56c175035aabb1d89", "is_disabled": 0, "rental_uris": {"ios": "https://dc.lft.to/lastmile_qr_scan", "android": "https://dc.lft.to/lastmile_qr_scan"}, "is_reserved": 0}, {"lon": -77.02393716666667, "bike_id": "b97b91a66fec3a3396da2ccdf5371e15", "lat": 38.90302766666667, "fusion_lon": 0.0, "fusion_lat": 0.0, "type": "electric_scooter", "name": "b97b91a66fec3a3396da2ccdf5371e15", "is_disabled": 0, "rental_uris": {"ios": "https://dc.lft.to/lastmile_qr_scan", "android": "https://dc.lft.to/lastmile_qr_scan"}, "is_reserved": 0}, {"lon": -77.05215083333333, "bike_id": "3aee7f41d112451e38142be0f9b60d9c", "lat": 38.924345333333335, "fusion_lon": 0.0, "fusion_lat": 0.0, "type": "electric_scooter", "name": "3aee7f41d112451e38142be0f9b60d9c", "is_disabled": 0, "rental_uris": {"ios": "https://dc.lft.to/lastmile_qr_scan", "android": "https://dc.lft.to/lastmile_qr_scan"}, "is_reserved": 0}, {"lon": -76.98559033333333, "bike_id": "76e7afbc56a4e4789fc37bcbceb75ade", "lat": 38.91036666666667, "fusion_lon": 0.0, "fusion_lat": 0.0, "type": "electric_scooter", "name": "76e7afbc56a4e4789fc37bcbceb75ade", "is_disabled": 0, "rental_uris": {"ios": "https://dc.lft.to/lastmile_qr_scan", "android": "https://dc.lft.to/lastmile_qr_scan"}, "is_reserved": 0}, {"lon": -76.99814833333333, "bike_id": "30aae17ccaf3d651699558b02504618e", "lat": 38.907230166666665, "fusion_lon": 0.0, "fusion_lat": 0.0, "type": "electric_scooter", "name": "30aae17ccaf3d651699558b02504618e", "is_disabled": 0, "rental_uris": {"ios": "https://dc.lft.to/lastmile_qr_scan", "android": "https://dc.lft.to/lastmile_qr_scan"}, "is_reserved": 0}, {"lon": -76.99351733333333, "bike_id": "a7fbe9bb32b7cfbc5fe6d3372d842dcf", "lat": 38.937204333333334, "fusion_lon": 0.0, "fusion_lat": 0.0, "type": "electric_bike", "name": "a7fbe9bb32b7cfbc5fe6d3372d842dcf", "is_disabled": 0, "rental_uris": {"ios": "https://dc.lft.to/lastmile_qr_scan", "android": "https://dc.lft.to/lastmile_qr_scan"}, "is_reserved": 0}, {"lon": -77.05204133333334, "bike_id": "2acf991c3a43236ac8cd7af15a8c3806", "lat": 38.92490866666667, "fusion_lon": 0.0, "fusion_lat": 0.0, "type": "electric_scooter", "name": "2acf991c3a43236ac8cd7af15a8c3806", "is_disabled": 0, "rental_uris": {"ios": "https://dc.lft.to/lastmile_qr_scan", "android": "https://dc.lft.to/lastmile_qr_scan"}, "is_reserved": 0}, {"lon": -77.0401215, "bike_id": "449ff6c2d3c07f5eceef0ef6c111ed4e", "lat": 38.9100185, "fusion_lon": 0.0, "fusion_lat": 0.0, "type": "electric_scooter", "name": "449ff6c2d3c07f5eceef0ef6c111ed4e", "is_disabled": 0, "rental_uris": {"ios": "https://dc.lft.to/lastmile_qr_scan", "android": "https://dc.lft.to/lastmile_qr_scan"}, "is_reserved": 0}, {"lon": -77.04489783333334, "bike_id": "ea533fdede79a332df9b15828e2113a2", "lat": 38.9160465, "fusion_lon": 0.0, "fusion_lat": 0.0, "type": "electric_scooter", "name": "ea533fdede79a332df9b15828e2113a2", "is_disabled": 0, "rental_uris": {"ios": "https://dc.lft.to/lastmile_qr_scan", "android": "https://dc.lft.to/lastmile_qr_scan"}, "is_reserved": 0}, {"lon": -77.05592116666666, "bike_id": "e40c6f3cc110bf72692ec7fb3e9a22a3", "lat": 38.916166833333335, "fusion_lon": 0.0, "fusion_lat": 0.0, "type": "electric_scooter", "name": "e40c6f3cc110bf72692ec7fb3e9a22a3", "is_disabled": 0, "rental_uris": {"ios": "https://dc.lft.to/lastmile_qr_scan", "android": "https://dc.lft.to/lastmile_qr_scan"}, "is_reserved": 0}, {"lon": -77.05173966666666, "bike_id": "3da98845ef72e670c0c2106fc6217c60", "lat": 38.92376083333333, "fusion_lon": 0.0, "fusion_lat": 0.0, "type": "electric_scooter", "name": "3da98845ef72e670c0c2106fc6217c60", "is_disabled": 0, "rental_uris": {"ios": "https://dc.lft.to/lastmile_qr_scan", "android": "https://dc.lft.to/lastmile_qr_scan"}, "is_reserved": 0}, {"lon": -77.03191533333333, "bike_id": "c8c2de0a695e04f359dcd2a78b5c542b", "lat": 38.887331333333336, "fusion_lon": 0.0, "fusion_lat": 0.0, "type": "electric_scooter", "name": "c8c2de0a695e04f359dcd2a78b5c542b", "is_disabled": 0, "rental_uris": {"ios": "https://dc.lft.to/lastmile_qr_scan", "android": "https://dc.lft.to/lastmile_qr_scan"}, "is_reserved": 0}, {"lon": -76.9781605, "bike_id": "6db1a61bbd6d47ccd71011892236a1d2", "lat": 38.90674966666667, "fusion_lon": 0.0, "fusion_lat": 0.0, "type": "electric_scooter", "name": "6db1a61bbd6d47ccd71011892236a1d2", "is_disabled": 0, "rental_uris": {"ios": "https://dc.lft.to/lastmile_qr_scan", "android": "https://dc.lft.to/lastmile_qr_scan"}, "is_reserved": 0}, {"lon": -77.051746, "bike_id": "a7bfb533b883d9cbe516a0e21e44d32f", "lat": 38.92374083333333, "fusion_lon": 0.0, "fusion_lat": 0.0, "type": "electric_scooter", "name": "a7bfb533b883d9cbe516a0e21e44d32f", "is_disabled": 0, "rental_uris": {"ios": "https://dc.lft.to/lastmile_qr_scan", "android": "https://dc.lft.to/lastmile_qr_scan"}, "is_reserved": 0}, {"lon": -77.0011215, "bike_id": "676a97d603783d352aa7d78ce6642b7f", "lat": 38.917115833333334, "fusion_lon": 0.0, "fusion_lat": 0.0, "type": "electric_scooter", "name": "676a97d603783d352aa7d78ce6642b7f", "is_disabled": 0, "rental_uris": {"ios": "https://dc.lft.to/lastmile_qr_scan", "android": "https://dc.lft.to/lastmile_qr_scan"}, "is_reserved": 0}, {"lon": -77.04226233333333, "bike_id": "256b357c3a42b16ea35c98104489b48e", "lat": 38.9141945, "fusion_lon": 0.0, "fusion_lat": 0.0, "type": "electric_scooter", "name": "256b357c3a42b16ea35c98104489b48e", "is_disabled": 0, "rental_uris": {"ios": "https://dc.lft.to/lastmile_qr_scan", "android": "https://dc.lft.to/lastmile_qr_scan"}, "is_reserved": 0}, {"lon": -77.043295, "bike_id": "ecd11739a49db28cf7fec248025d7a73", "lat": 38.9089345, "fusion_lon": 0.0, "fusion_lat": 0.0, "type": "electric_scooter", "name": "ecd11739a49db28cf7fec248025d7a73", "is_disabled": 0, "rental_uris": {"ios": "https://dc.lft.to/lastmile_qr_scan", "android": "https://dc.lft.to/lastmile_qr_scan"}, "is_reserved": 0}, {"lon": -77.03158966666666, "bike_id": "e5fc0b2b3951ac3962e20c70cc3cbd93", "lat": 38.89221783333333, "fusion_lon": 0.0, "fusion_lat": 0.0, "type": "electric_scooter", "name": "e5fc0b2b3951ac3962e20c70cc3cbd93", "is_disabled": 0, "rental_uris": {"ios": "https://dc.lft.to/lastmile_qr_scan", "android": "https://dc.lft.to/lastmile_qr_scan"}, "is_reserved": 0}, {"lon": -77.03543116666667, "bike_id": "5d833f5a7ea6db356dcaa00c00b68d22", "lat": 38.918396, "fusion_lon": 0.0, "fusion_lat": 0.0, "type": "electric_scooter", "name": "5d833f5a7ea6db356dcaa00c00b68d22", "is_disabled": 0, "rental_uris": {"ios": "https://dc.lft.to/lastmile_qr_scan", "android": "https://dc.lft.to/lastmile_qr_scan"}, "is_reserved": 0}, {"lon": -77.04334216666666, "bike_id": "d6331698b5e0263cffbf50538801f972", "lat": 38.904433, "fusion_lon": 0.0, "fusion_lat": 0.0, "type": "electric_scooter", "name": "d6331698b5e0263cffbf50538801f972", "is_disabled": 0, "rental_uris": {"ios": "https://dc.lft.to/lastmile_qr_scan", "android": "https://dc.lft.to/lastmile_qr_scan"}, "is_reserved": 0}, {"lon": -77.00926566666666, "bike_id": "9ffc1c5ebb683c47d7ae586cf2760cd9", "lat": 38.89610583333334, "fusion_lon": 0.0, "fusion_lat": 0.0, "type": "electric_scooter", "name": "9ffc1c5ebb683c47d7ae586cf2760cd9", "is_disabled": 0, "rental_uris": {"ios": "https://dc.lft.to/lastmile_qr_scan", "android": "https://dc.lft.to/lastmile_qr_scan"}, "is_reserved": 0}, {"lon": -76.89541233333334, "bike_id": "a1f3873653e2b761d3d98ea3406bde51", "lat": 38.945616, "fusion_lon": 0.0, "fusion_lat": 0.0, "type": "electric_bike", "name": "a1f3873653e2b761d3d98ea3406bde51", "is_disabled": 0, "rental_uris": {"ios": "https://dc.lft.to/lastmile_qr_scan", "android": "https://dc.lft.to/lastmile_qr_scan"}, "is_reserved": 0}, {"lon": -77.02159266666666, "bike_id": "67b08eee469e09f8cb16f95a5eba99d0", "lat": 38.892183833333334, "fusion_lon": 0.0, "fusion_lat": 0.0, "type": "electric_scooter", "name": "67b08eee469e09f8cb16f95a5eba99d0", "is_disabled": 0, "rental_uris": {"ios": "https://dc.lft.to/lastmile_qr_scan", "android": "https://dc.lft.to/lastmile_qr_scan"}, "is_reserved": 0}, {"lon": -77.02731983333334, "bike_id": "1fd545ad439b921f7e7e479e70a591dd", "lat": 38.94099683333334, "fusion_lon": 0.0, "fusion_lat": 0.0, "type": "electric_scooter", "name": "1fd545ad439b921f7e7e479e70a591dd", "is_disabled": 0, "rental_uris": {"ios": "https://dc.lft.to/lastmile_qr_scan", "android": "https://dc.lft.to/lastmile_qr_scan"}, "is_reserved": 0}, {"lon": -77.022039, "bike_id": "911b9eadafd14b658c22f653229e9d3c", "lat": 38.892700166666664, "fusion_lon": 0.0, "fusion_lat": 0.0, "type": "electric_scooter", "name": "911b9eadafd14b658c22f653229e9d3c", "is_disabled": 0, "rental_uris": {"ios": "https://dc.lft.to/lastmile_qr_scan", "android": "https://dc.lft.to/lastmile_qr_scan"}, "is_reserved": 0}, {"lon": -77.058015, "bike_id": "bf50d0e0490ae57135d0a2f38230b8f3", "lat": 38.90111683333333, "fusion_lon": 0.0, "fusion_lat": 0.0, "type": "electric_scooter", "name": "bf50d0e0490ae57135d0a2f38230b8f3", "is_disabled": 0, "rental_uris": {"ios": "https://dc.lft.to/lastmile_qr_scan", "android": "https://dc.lft.to/lastmile_qr_scan"}, "is_reserved": 0}, {"lon": -77.04518766666666, "bike_id": "402e93d58862e38f4aaaa710aa993db7", "lat": 38.909766166666664, "fusion_lon": 0.0, "fusion_lat": 0.0, "type": "electric_scooter", "name": "402e93d58862e38f4aaaa710aa993db7", "is_disabled": 0, "rental_uris": {"ios": "https://dc.lft.to/lastmile_qr_scan", "android": "https://dc.lft.to/lastmile_qr_scan"}, "is_reserved": 0}, {"lon": -77.0268045, "bike_id": "143d430339dadec4f783fe4eff7d8f53", "lat": 38.9125795, "fusion_lon": 0.0, "fusion_lat": 0.0, "type": "electric_scooter", "name": "143d430339dadec4f783fe4eff7d8f53", "is_disabled": 0, "rental_uris": {"ios": "https://dc.lft.to/lastmile_qr_scan", "android": "https://dc.lft.to/lastmile_qr_scan"}, "is_reserved": 0}, {"lon": -77.033624, "bike_id": "7821e6336cc499fb0e79401ee1fa6f10", "lat": 38.935310666666666, "fusion_lon": 0.0, "fusion_lat": 0.0, "type": "electric_scooter", "name": "7821e6336cc499fb0e79401ee1fa6f10", "is_disabled": 0, "rental_uris": {"ios": "https://dc.lft.to/lastmile_qr_scan", "android": "https://dc.lft.to/lastmile_qr_scan"}, "is_reserved": 0}, {"lon": -76.96216933333334, "bike_id": "21ea15a0da55149d92197e4956e3a613", "lat": 38.877849166666664, "fusion_lon": 0.0, "fusion_lat": 0.0, "type": "electric_scooter", "name": "21ea15a0da55149d92197e4956e3a613", "is_disabled": 0, "rental_uris": {"ios": "https://dc.lft.to/lastmile_qr_scan", "android": "https://dc.lft.to/lastmile_qr_scan"}, "is_reserved": 0}, {"lon": -77.07326583333334, "bike_id": "23bf87a080d499a8c29afc8fa1c54650", "lat": 38.91405316666667, "fusion_lon": 0.0, "fusion_lat": 0.0, "type": "electric_scooter", "name": "23bf87a080d499a8c29afc8fa1c54650", "is_disabled": 0, "rental_uris": {"ios": "https://dc.lft.to/lastmile_qr_scan", "android": "https://dc.lft.to/lastmile_qr_scan"}, "is_reserved": 0}, {"lon": -77.023015, "bike_id": "debc25335bfc7cf46d319785335a7591", "lat": 38.91840966666667, "fusion_lon": 0.0, "fusion_lat": 0.0, "type": "electric_scooter", "name": "debc25335bfc7cf46d319785335a7591", "is_disabled": 0, "rental_uris": {"ios": "https://dc.lft.to/lastmile_qr_scan", "android": "https://dc.lft.to/lastmile_qr_scan"}, "is_reserved": 0}, {"lon": -77.0227415, "bike_id": "31482039accb57016d18a643e26aa482", "lat": 38.92693716666667, "fusion_lon": 0.0, "fusion_lat": 0.0, "type": "electric_scooter", "name": "31482039accb57016d18a643e26aa482", "is_disabled": 0, "rental_uris": {"ios": "https://dc.lft.to/lastmile_qr_scan", "android": "https://dc.lft.to/lastmile_qr_scan"}, "is_reserved": 0}, {"lon": -77.03324833333333, "bike_id": "bf1b8f35275266c9b07395af3d2dd7dc", "lat": 38.93902816666667, "fusion_lon": 0.0, "fusion_lat": 0.0, "type": "electric_scooter", "name": "bf1b8f35275266c9b07395af3d2dd7dc", "is_disabled": 0, "rental_uris": {"ios": "https://dc.lft.to/lastmile_qr_scan", "android": "https://dc.lft.to/lastmile_qr_scan"}, "is_reserved": 0}, {"lon": -77.04208883333334, "bike_id": "0d3c478ab7661a733f71165e0d4f20c2", "lat": 38.9231525, "fusion_lon": 0.0, "fusion_lat": 0.0, "type": "electric_scooter", "name": "0d3c478ab7661a733f71165e0d4f20c2", "is_disabled": 0, "rental_uris": {"ios": "https://dc.lft.to/lastmile_qr_scan", "android": "https://dc.lft.to/lastmile_qr_scan"}, "is_reserved": 0}, {"lon": -77.02401966666666, "bike_id": "6d8123608a17cfeb506dd3f0a3b25140", "lat": 38.905711, "fusion_lon": 0.0, "fusion_lat": 0.0, "type": "electric_scooter", "name": "6d8123608a17cfeb506dd3f0a3b25140", "is_disabled": 0, "rental_uris": {"ios": "https://dc.lft.to/lastmile_qr_scan", "android": "https://dc.lft.to/lastmile_qr_scan"}, "is_reserved": 0}, {"lon": -77.01533566666667, "bike_id": "78e74ce510f477da0b2f4ffbf60036a7", "lat": 38.88740933333333, "fusion_lon": 0.0, "fusion_lat": 0.0, "type": "electric_scooter", "name": "78e74ce510f477da0b2f4ffbf60036a7", "is_disabled": 0, "rental_uris": {"ios": "https://dc.lft.to/lastmile_qr_scan", "android": "https://dc.lft.to/lastmile_qr_scan"}, "is_reserved": 0}, {"lon": -77.03161416666667, "bike_id": "4e316b8d870aac8236b40c55d1a04913", "lat": 38.8922035, "fusion_lon": 0.0, "fusion_lat": 0.0, "type": "electric_scooter", "name": "4e316b8d870aac8236b40c55d1a04913", "is_disabled": 0, "rental_uris": {"ios": "https://dc.lft.to/lastmile_qr_scan", "android": "https://dc.lft.to/lastmile_qr_scan"}, "is_reserved": 0}, {"lon": -77.01074416666667, "bike_id": "ef72f92bc1f10af9e5b8c6ea8c511756", "lat": 38.8944805, "fusion_lon": 0.0, "fusion_lat": 0.0, "type": "electric_scooter", "name": "ef72f92bc1f10af9e5b8c6ea8c511756", "is_disabled": 0, "rental_uris": {"ios": "https://dc.lft.to/lastmile_qr_scan", "android": "https://dc.lft.to/lastmile_qr_scan"}, "is_reserved": 0}, {"lon": -76.98536433333334, "bike_id": "117dbb723b8bc5ca092c55471f041a71", "lat": 38.92513366666667, "fusion_lon": 0.0, "fusion_lat": 0.0, "type": "electric_bike", "name": "117dbb723b8bc5ca092c55471f041a71", "is_disabled": 0, "rental_uris": {"ios": "https://dc.lft.to/lastmile_qr_scan", "android": "https://dc.lft.to/lastmile_qr_scan"}, "is_reserved": 0}, {"lon": -76.98953016666667, "bike_id": "1a4eda46d52bd42c403ad9876736e4e4", "lat": 38.899926666666666, "fusion_lon": 0.0, "fusion_lat": 0.0, "type": "electric_scooter", "name": "1a4eda46d52bd42c403ad9876736e4e4", "is_disabled": 0, "rental_uris": {"ios": "https://dc.lft.to/lastmile_qr_scan", "android": "https://dc.lft.to/lastmile_qr_scan"}, "is_reserved": 0}, {"lon": -77.01528483333334, "bike_id": "49087ecab0ff9ba2ca2faee63e81cba4", "lat": 38.88497733333333, "fusion_lon": 0.0, "fusion_lat": 0.0, "type": "electric_scooter", "name": "49087ecab0ff9ba2ca2faee63e81cba4", "is_disabled": 0, "rental_uris": {"ios": "https://dc.lft.to/lastmile_qr_scan", "android": "https://dc.lft.to/lastmile_qr_scan"}, "is_reserved": 0}, {"lon": -77.02523983333333, "bike_id": "c0d223055a0cdd767a9883ac63ec1533", "lat": 38.930985, "fusion_lon": 0.0, "fusion_lat": 0.0, "type": "electric_scooter", "name": "c0d223055a0cdd767a9883ac63ec1533", "is_disabled": 0, "rental_uris": {"ios": "https://dc.lft.to/lastmile_qr_scan", "android": "https://dc.lft.to/lastmile_qr_scan"}, "is_reserved": 0}, {"lon": -77.0267775, "bike_id": "f79237b0db3d5377a3cf92378f663343", "lat": 38.897549833333336, "fusion_lon": 0.0, "fusion_lat": 0.0, "type": "electric_scooter", "name": "f79237b0db3d5377a3cf92378f663343", "is_disabled": 0, "rental_uris": {"ios": "https://dc.lft.to/lastmile_qr_scan", "android": "https://dc.lft.to/lastmile_qr_scan"}, "is_reserved": 0}, {"lon": -77.10809666666667, "bike_id": "6986a1b0731f5794cef5d216b4b63025", "lat": 38.812056, "fusion_lon": 0.0, "fusion_lat": 0.0, "type": "electric_bike", "name": "6986a1b0731f5794cef5d216b4b63025", "is_disabled": 0, "rental_uris": {"ios": "https://dc.lft.to/lastmile_qr_scan", "android": "https://dc.lft.to/lastmile_qr_scan"}, "is_reserved": 0}, {"lon": -77.000059, "bike_id": "51011da6c42d5b5472ac3aa854f76b75", "lat": 38.89739466666666, "fusion_lon": 0.0, "fusion_lat": 0.0, "type": "electric_scooter", "name": "51011da6c42d5b5472ac3aa854f76b75", "is_disabled": 0, "rental_uris": {"ios": "https://dc.lft.to/lastmile_qr_scan", "android": "https://dc.lft.to/lastmile_qr_scan"}, "is_reserved": 0}, {"lon": -77.03839166666667, "bike_id": "d0cfe26068c439af0ab11a24a422e5c3", "lat": 38.90738066666667, "fusion_lon": 0.0, "fusion_lat": 0.0, "type": "electric_scooter", "name": "d0cfe26068c439af0ab11a24a422e5c3", "is_disabled": 0, "rental_uris": {"ios": "https://dc.lft.to/lastmile_qr_scan", "android": "https://dc.lft.to/lastmile_qr_scan"}, "is_reserved": 0}, {"lon": -76.96492183333334, "bike_id": "6880880fb229be3d7fd2a3f5eb1c26da", "lat": 38.8764665, "fusion_lon": 0.0, "fusion_lat": 0.0, "type": "electric_scooter", "name": "6880880fb229be3d7fd2a3f5eb1c26da", "is_disabled": 0, "rental_uris": {"ios": "https://dc.lft.to/lastmile_qr_scan", "android": "https://dc.lft.to/lastmile_qr_scan"}, "is_reserved": 0}, {"lon": -76.9986095, "bike_id": "a2cb258c5fbd33a65f675d622da37616", "lat": 38.90024533333333, "fusion_lon": 0.0, "fusion_lat": 0.0, "type": "electric_scooter", "name": "a2cb258c5fbd33a65f675d622da37616", "is_disabled": 0, "rental_uris": {"ios": "https://dc.lft.to/lastmile_qr_scan", "android": "https://dc.lft.to/lastmile_qr_scan"}, "is_reserved": 0}, {"lon": -77.03437383333333, "bike_id": "aede0512db5641e9ea5dc7aa6b9e8afa", "lat": 38.909834833333335, "fusion_lon": 0.0, "fusion_lat": 0.0, "type": "electric_scooter", "name": "aede0512db5641e9ea5dc7aa6b9e8afa", "is_disabled": 0, "rental_uris": {"ios": "https://dc.lft.to/lastmile_qr_scan", "android": "https://dc.lft.to/lastmile_qr_scan"}, "is_reserved": 0}, {"lon": -77.01325766666666, "bike_id": "b4b1bbc5c230faad742feecbe60bbe4f", "lat": 38.880524333333334, "fusion_lon": 0.0, "fusion_lat": 0.0, "type": "electric_bike", "name": "b4b1bbc5c230faad742feecbe60bbe4f", "is_disabled": 0, "rental_uris": {"ios": "https://dc.lft.to/lastmile_qr_scan", "android": "https://dc.lft.to/lastmile_qr_scan"}, "is_reserved": 0}, {"lon": -77.00590766666667, "bike_id": "ca9e10bda63dd820a1e9c3499e95e58d", "lat": 38.90036533333333, "fusion_lon": 0.0, "fusion_lat": 0.0, "type": "electric_scooter", "name": "ca9e10bda63dd820a1e9c3499e95e58d", "is_disabled": 0, "rental_uris": {"ios": "https://dc.lft.to/lastmile_qr_scan", "android": "https://dc.lft.to/lastmile_qr_scan"}, "is_reserved": 0}, {"lon": -77.037276, "bike_id": "72426d872eaecfa724792ebdd462e694", "lat": 38.928363, "fusion_lon": 0.0, "fusion_lat": 0.0, "type": "electric_scooter", "name": "72426d872eaecfa724792ebdd462e694", "is_disabled": 0, "rental_uris": {"ios": "https://dc.lft.to/lastmile_qr_scan", "android": "https://dc.lft.to/lastmile_qr_scan"}, "is_reserved": 0}, {"lon": -77.00241616666666, "bike_id": "2c90d241df2e64c401ce820e10215998", "lat": 38.88510566666667, "fusion_lon": 0.0, "fusion_lat": 0.0, "type": "electric_scooter", "name": "2c90d241df2e64c401ce820e10215998", "is_disabled": 0, "rental_uris": {"ios": "https://dc.lft.to/lastmile_qr_scan", "android": "https://dc.lft.to/lastmile_qr_scan"}, "is_reserved": 0}, {"lon": -76.9810095, "bike_id": "952ddb29013e954c3e0271bd36a07b37", "lat": 38.87729, "fusion_lon": 0.0, "fusion_lat": 0.0, "type": "electric_bike", "name": "952ddb29013e954c3e0271bd36a07b37", "is_disabled": 0, "rental_uris": {"ios": "https://dc.lft.to/lastmile_qr_scan", "android": "https://dc.lft.to/lastmile_qr_scan"}, "is_reserved": 0}, {"lon": -76.982456, "bike_id": "a449d2d8aab500aa308a22b5815d983a", "lat": 38.86461383333334, "fusion_lon": 0.0, "fusion_lat": 0.0, "type": "electric_scooter", "name": "a449d2d8aab500aa308a22b5815d983a", "is_disabled": 0, "rental_uris": {"ios": "https://dc.lft.to/lastmile_qr_scan", "android": "https://dc.lft.to/lastmile_qr_scan"}, "is_reserved": 0}, {"lon": -77.04696966666667, "bike_id": "f651d2f6c361109494931a85cb144b5c", "lat": 38.91899466666667, "fusion_lon": 0.0, "fusion_lat": 0.0, "type": "electric_scooter", "name": "f651d2f6c361109494931a85cb144b5c", "is_disabled": 0, "rental_uris": {"ios": "https://dc.lft.to/lastmile_qr_scan", "android": "https://dc.lft.to/lastmile_qr_scan"}, "is_reserved": 0}, {"lon": -77.00298133333334, "bike_id": "923d59578fecc9baf45ad0734b451f6e", "lat": 38.90147533333333, "fusion_lon": 0.0, "fusion_lat": 0.0, "type": "electric_scooter", "name": "923d59578fecc9baf45ad0734b451f6e", "is_disabled": 0, "rental_uris": {"ios": "https://dc.lft.to/lastmile_qr_scan", "android": "https://dc.lft.to/lastmile_qr_scan"}, "is_reserved": 0}, {"lon": -76.998645, "bike_id": "8fe006533f4ebd7d5d9dab7d8fef40c7", "lat": 38.900318166666665, "fusion_lon": 0.0, "fusion_lat": 0.0, "type": "electric_scooter", "name": "8fe006533f4ebd7d5d9dab7d8fef40c7", "is_disabled": 0, "rental_uris": {"ios": "https://dc.lft.to/lastmile_qr_scan", "android": "https://dc.lft.to/lastmile_qr_scan"}, "is_reserved": 0}, {"lon": -76.94945266666667, "bike_id": "50ece7930a129d699486d486b2337f3b", "lat": 38.90363466666667, "fusion_lon": 0.0, "fusion_lat": 0.0, "type": "electric_scooter", "name": "50ece7930a129d699486d486b2337f3b", "is_disabled": 0, "rental_uris": {"ios": "https://dc.lft.to/lastmile_qr_scan", "android": "https://dc.lft.to/lastmile_qr_scan"}, "is_reserved": 0}, {"lon": -77.031515, "bike_id": "762e53eac8095d8c2d98aa81ab3c8d35", "lat": 38.917149333333334, "fusion_lon": 0.0, "fusion_lat": 0.0, "type": "electric_scooter", "name": "762e53eac8095d8c2d98aa81ab3c8d35", "is_disabled": 0, "rental_uris": {"ios": "https://dc.lft.to/lastmile_qr_scan", "android": "https://dc.lft.to/lastmile_qr_scan"}, "is_reserved": 0}, {"lon": -77.01503166666667, "bike_id": "e80fd27855d608b020b54e7fd91f33d5", "lat": 38.94534933333333, "fusion_lon": 0.0, "fusion_lat": 0.0, "type": "electric_scooter", "name": "e80fd27855d608b020b54e7fd91f33d5", "is_disabled": 0, "rental_uris": {"ios": "https://dc.lft.to/lastmile_qr_scan", "android": "https://dc.lft.to/lastmile_qr_scan"}, "is_reserved": 0}, {"lon": -77.00110283333333, "bike_id": "adba7e8b8f5f19d73e60bbaa694deef7", "lat": 38.91971866666667, "fusion_lon": 0.0, "fusion_lat": 0.0, "type": "electric_scooter", "name": "adba7e8b8f5f19d73e60bbaa694deef7", "is_disabled": 0, "rental_uris": {"ios": "https://dc.lft.to/lastmile_qr_scan", "android": "https://dc.lft.to/lastmile_qr_scan"}, "is_reserved": 0}, {"lon": -77.03266566666667, "bike_id": "afa18319fd69e5ac74ce01655b951c9c", "lat": 38.93242083333333, "fusion_lon": 0.0, "fusion_lat": 0.0, "type": "electric_scooter", "name": "afa18319fd69e5ac74ce01655b951c9c", "is_disabled": 0, "rental_uris": {"ios": "https://dc.lft.to/lastmile_qr_scan", "android": "https://dc.lft.to/lastmile_qr_scan"}, "is_reserved": 0}, {"lon": -77.03221183333333, "bike_id": "79bf1b0b87dc1850635265a0e43e5739", "lat": 38.914940333333334, "fusion_lon": 0.0, "fusion_lat": 0.0, "type": "electric_scooter", "name": "79bf1b0b87dc1850635265a0e43e5739", "is_disabled": 0, "rental_uris": {"ios": "https://dc.lft.to/lastmile_qr_scan", "android": "https://dc.lft.to/lastmile_qr_scan"}, "is_reserved": 0}, {"lon": -77.001897, "bike_id": "25619207e877c5d3448063ac11a6c978", "lat": 38.89476466666667, "fusion_lon": 0.0, "fusion_lat": 0.0, "type": "electric_scooter", "name": "25619207e877c5d3448063ac11a6c978", "is_disabled": 0, "rental_uris": {"ios": "https://dc.lft.to/lastmile_qr_scan", "android": "https://dc.lft.to/lastmile_qr_scan"}, "is_reserved": 0}, {"lon": -77.05860866666667, "bike_id": "a0882ec166788db050d61a5643b0fac2", "lat": 38.936065, "fusion_lon": 0.0, "fusion_lat": 0.0, "type": "electric_scooter", "name": "a0882ec166788db050d61a5643b0fac2", "is_disabled": 0, "rental_uris": {"ios": "https://dc.lft.to/lastmile_qr_scan", "android": "https://dc.lft.to/lastmile_qr_scan"}, "is_reserved": 0}, {"lon": -76.997859, "bike_id": "64d889ceab8b7fe2e8487e05299f088c", "lat": 38.890972, "fusion_lon": 0.0, "fusion_lat": 0.0, "type": "electric_scooter", "name": "64d889ceab8b7fe2e8487e05299f088c", "is_disabled": 0, "rental_uris": {"ios": "https://dc.lft.to/lastmile_qr_scan", "android": "https://dc.lft.to/lastmile_qr_scan"}, "is_reserved": 0}, {"lon": -76.97754033333334, "bike_id": "74cb4a421d14ee8d6db837898a078625", "lat": 38.865073833333334, "fusion_lon": 0.0, "fusion_lat": 0.0, "type": "electric_scooter", "name": "74cb4a421d14ee8d6db837898a078625", "is_disabled": 0, "rental_uris": {"ios": "https://dc.lft.to/lastmile_qr_scan", "android": "https://dc.lft.to/lastmile_qr_scan"}, "is_reserved": 0}, {"lon": -77.029806, "bike_id": "6f6411ae7822ab49462cfb46557e4698", "lat": 38.93004616666666, "fusion_lon": 0.0, "fusion_lat": 0.0, "type": "electric_scooter", "name": "6f6411ae7822ab49462cfb46557e4698", "is_disabled": 0, "rental_uris": {"ios": "https://dc.lft.to/lastmile_qr_scan", "android": "https://dc.lft.to/lastmile_qr_scan"}, "is_reserved": 0}, {"lon": -77.12225533333333, "bike_id": "7ea097116e4b33e26c6d46bb693421e1", "lat": 38.853024, "fusion_lon": 0.0, "fusion_lat": 0.0, "type": "electric_bike", "name": "7ea097116e4b33e26c6d46bb693421e1", "is_disabled": 0, "rental_uris": {"ios": "https://dc.lft.to/lastmile_qr_scan", "android": "https://dc.lft.to/lastmile_qr_scan"}, "is_reserved": 0}, {"lon": -77.0415445, "bike_id": "547fd54f7f4a6d7c3757a2b193e5592f", "lat": 38.902414, "fusion_lon": 0.0, "fusion_lat": 0.0, "type": "electric_scooter", "name": "547fd54f7f4a6d7c3757a2b193e5592f", "is_disabled": 0, "rental_uris": {"ios": "https://dc.lft.to/lastmile_qr_scan", "android": "https://dc.lft.to/lastmile_qr_scan"}, "is_reserved": 0}, {"lon": -77.04468866666667, "bike_id": "2966e308425bc3f49c2837da87e369d5", "lat": 38.90302966666667, "fusion_lon": 0.0, "fusion_lat": 0.0, "type": "electric_scooter", "name": "2966e308425bc3f49c2837da87e369d5", "is_disabled": 0, "rental_uris": {"ios": "https://dc.lft.to/lastmile_qr_scan", "android": "https://dc.lft.to/lastmile_qr_scan"}, "is_reserved": 0}, {"lon": -77.01452283333333, "bike_id": "b45ee0f812a336758fde1cbefcdca5b4", "lat": 38.9052225, "fusion_lon": 0.0, "fusion_lat": 0.0, "type": "electric_scooter", "name": "b45ee0f812a336758fde1cbefcdca5b4", "is_disabled": 0, "rental_uris": {"ios": "https://dc.lft.to/lastmile_qr_scan", "android": "https://dc.lft.to/lastmile_qr_scan"}, "is_reserved": 0}, {"lon": -77.02116016666666, "bike_id": "30917cbe5892c96edf47acd4c6ba587a", "lat": 38.91771966666667, "fusion_lon": 0.0, "fusion_lat": 0.0, "type": "electric_scooter", "name": "30917cbe5892c96edf47acd4c6ba587a", "is_disabled": 0, "rental_uris": {"ios": "https://dc.lft.to/lastmile_qr_scan", "android": "https://dc.lft.to/lastmile_qr_scan"}, "is_reserved": 0}, {"lon": -77.01134216666667, "bike_id": "12c77b5ee500bda2f8e61add34a0cc4b", "lat": 38.89487316666667, "fusion_lon": 0.0, "fusion_lat": 0.0, "type": "electric_scooter", "name": "12c77b5ee500bda2f8e61add34a0cc4b", "is_disabled": 0, "rental_uris": {"ios": "https://dc.lft.to/lastmile_qr_scan", "android": "https://dc.lft.to/lastmile_qr_scan"}, "is_reserved": 0}, {"lon": -77.01116466666667, "bike_id": "0c783574b44f26c10bb6eddcb50ecae1", "lat": 38.896011, "fusion_lon": 0.0, "fusion_lat": 0.0, "type": "electric_scooter", "name": "0c783574b44f26c10bb6eddcb50ecae1", "is_disabled": 0, "rental_uris": {"ios": "https://dc.lft.to/lastmile_qr_scan", "android": "https://dc.lft.to/lastmile_qr_scan"}, "is_reserved": 0}, {"lon": -76.98843716666667, "bike_id": "c70b95d70e712b1a23b3f4ec2d446042", "lat": 38.9013215, "fusion_lon": 0.0, "fusion_lat": 0.0, "type": "electric_scooter", "name": "c70b95d70e712b1a23b3f4ec2d446042", "is_disabled": 0, "rental_uris": {"ios": "https://dc.lft.to/lastmile_qr_scan", "android": "https://dc.lft.to/lastmile_qr_scan"}, "is_reserved": 0}, {"lon": -77.04346716666667, "bike_id": "7da1b2965499ce58a2d56325e80c35ae", "lat": 38.9296895, "fusion_lon": 0.0, "fusion_lat": 0.0, "type": "electric_scooter", "name": "7da1b2965499ce58a2d56325e80c35ae", "is_disabled": 0, "rental_uris": {"ios": "https://dc.lft.to/lastmile_qr_scan", "android": "https://dc.lft.to/lastmile_qr_scan"}, "is_reserved": 0}, {"lon": -77.03191166666667, "bike_id": "19307a838d6989f4b0b73230b8fec8c1", "lat": 38.91341716666667, "fusion_lon": 0.0, "fusion_lat": 0.0, "type": "electric_scooter", "name": "19307a838d6989f4b0b73230b8fec8c1", "is_disabled": 0, "rental_uris": {"ios": "https://dc.lft.to/lastmile_qr_scan", "android": "https://dc.lft.to/lastmile_qr_scan"}, "is_reserved": 0}, {"lon": -77.02758366666667, "bike_id": "643ce00a41b1881e93c1e3402e4f1b1f", "lat": 38.892239333333336, "fusion_lon": 0.0, "fusion_lat": 0.0, "type": "electric_scooter", "name": "643ce00a41b1881e93c1e3402e4f1b1f", "is_disabled": 0, "rental_uris": {"ios": "https://dc.lft.to/lastmile_qr_scan", "android": "https://dc.lft.to/lastmile_qr_scan"}, "is_reserved": 0}, {"lon": -76.98179166666667, "bike_id": "d6579c4b1629eb740de20358652155b7", "lat": 38.895849, "fusion_lon": 0.0, "fusion_lat": 0.0, "type": "electric_scooter", "name": "d6579c4b1629eb740de20358652155b7", "is_disabled": 0, "rental_uris": {"ios": "https://dc.lft.to/lastmile_qr_scan", "android": "https://dc.lft.to/lastmile_qr_scan"}, "is_reserved": 0}, {"lon": -77.04232416666666, "bike_id": "481bdf5863a9ab4240d34de2b80fc639", "lat": 38.921909, "fusion_lon": 0.0, "fusion_lat": 0.0, "type": "electric_scooter", "name": "481bdf5863a9ab4240d34de2b80fc639", "is_disabled": 0, "rental_uris": {"ios": "https://dc.lft.to/lastmile_qr_scan", "android": "https://dc.lft.to/lastmile_qr_scan"}, "is_reserved": 0}, {"lon": -77.038504, "bike_id": "21a55e927c167d9c049bd1287c7aed77", "lat": 38.915879, "fusion_lon": 0.0, "fusion_lat": 0.0, "type": "electric_scooter", "name": "21a55e927c167d9c049bd1287c7aed77", "is_disabled": 0, "rental_uris": {"ios": "https://dc.lft.to/lastmile_qr_scan", "android": "https://dc.lft.to/lastmile_qr_scan"}, "is_reserved": 0}, {"lon": -77.031756, "bike_id": "284fd153de38fed1fd968e11efd0a5d6", "lat": 38.91624016666667, "fusion_lon": 0.0, "fusion_lat": 0.0, "type": "electric_scooter", "name": "284fd153de38fed1fd968e11efd0a5d6", "is_disabled": 0, "rental_uris": {"ios": "https://dc.lft.to/lastmile_qr_scan", "android": "https://dc.lft.to/lastmile_qr_scan"}, "is_reserved": 0}, {"lon": -76.93357983333334, "bike_id": "0f86f216ec9410af5c69c05200cdf781", "lat": 38.899241333333336, "fusion_lon": 0.0, "fusion_lat": 0.0, "type": "electric_scooter", "name": "0f86f216ec9410af5c69c05200cdf781", "is_disabled": 0, "rental_uris": {"ios": "https://dc.lft.to/lastmile_qr_scan", "android": "https://dc.lft.to/lastmile_qr_scan"}, "is_reserved": 0}, {"lon": -77.0229355, "bike_id": "afd8cd0af70135d5c20b49d00fec622d", "lat": 38.909928666666666, "fusion_lon": 0.0, "fusion_lat": 0.0, "type": "electric_scooter", "name": "afd8cd0af70135d5c20b49d00fec622d", "is_disabled": 0, "rental_uris": {"ios": "https://dc.lft.to/lastmile_qr_scan", "android": "https://dc.lft.to/lastmile_qr_scan"}, "is_reserved": 0}, {"lon": -77.03203533333334, "bike_id": "92ae91e9afcee98a678384d2a8c09bc5", "lat": 38.93973866666666, "fusion_lon": 0.0, "fusion_lat": 0.0, "type": "electric_scooter", "name": "92ae91e9afcee98a678384d2a8c09bc5", "is_disabled": 0, "rental_uris": {"ios": "https://dc.lft.to/lastmile_qr_scan", "android": "https://dc.lft.to/lastmile_qr_scan"}, "is_reserved": 0}, {"lon": -77.027948, "bike_id": "3eba4778f5b0ddb9dd644688c61db122", "lat": 38.93541666666667, "fusion_lon": 0.0, "fusion_lat": 0.0, "type": "electric_scooter", "name": "3eba4778f5b0ddb9dd644688c61db122", "is_disabled": 0, "rental_uris": {"ios": "https://dc.lft.to/lastmile_qr_scan", "android": "https://dc.lft.to/lastmile_qr_scan"}, "is_reserved": 0}, {"lon": -77.02063983333333, "bike_id": "fc7adb2be5039cfaa7b7f704df308b7a", "lat": 38.901547, "fusion_lon": 0.0, "fusion_lat": 0.0, "type": "electric_scooter", "name": "fc7adb2be5039cfaa7b7f704df308b7a", "is_disabled": 0, "rental_uris": {"ios": "https://dc.lft.to/lastmile_qr_scan", "android": "https://dc.lft.to/lastmile_qr_scan"}, "is_reserved": 0}, {"lon": -77.04433566666667, "bike_id": "c9ce956ebfe53c9565cad7fb02a1f3ad", "lat": 38.9213035, "fusion_lon": 0.0, "fusion_lat": 0.0, "type": "electric_scooter", "name": "c9ce956ebfe53c9565cad7fb02a1f3ad", "is_disabled": 0, "rental_uris": {"ios": "https://dc.lft.to/lastmile_qr_scan", "android": "https://dc.lft.to/lastmile_qr_scan"}, "is_reserved": 0}, {"lon": -77.044397, "bike_id": "3d07ab63f6e1774a2fa7e0b4b73c5a55", "lat": 38.92171733333333, "fusion_lon": 0.0, "fusion_lat": 0.0, "type": "electric_scooter", "name": "3d07ab63f6e1774a2fa7e0b4b73c5a55", "is_disabled": 0, "rental_uris": {"ios": "https://dc.lft.to/lastmile_qr_scan", "android": "https://dc.lft.to/lastmile_qr_scan"}, "is_reserved": 0}, {"lon": -76.97726, "bike_id": "c65ab72d1dd86b317df5c9e4b932780b", "lat": 38.87301933333333, "fusion_lon": 0.0, "fusion_lat": 0.0, "type": "electric_scooter", "name": "c65ab72d1dd86b317df5c9e4b932780b", "is_disabled": 0, "rental_uris": {"ios": "https://dc.lft.to/lastmile_qr_scan", "android": "https://dc.lft.to/lastmile_qr_scan"}, "is_reserved": 0}, {"lon": -77.01421483333333, "bike_id": "e0a89819612827a646a7d80e52119a9e", "lat": 38.928633166666664, "fusion_lon": 0.0, "fusion_lat": 0.0, "type": "electric_scooter", "name": "e0a89819612827a646a7d80e52119a9e", "is_disabled": 0, "rental_uris": {"ios": "https://dc.lft.to/lastmile_qr_scan", "android": "https://dc.lft.to/lastmile_qr_scan"}, "is_reserved": 0}, {"lon": -77.0383875, "bike_id": "9d4d72bd84bf828767408fb362501a47", "lat": 38.93211933333333, "fusion_lon": 0.0, "fusion_lat": 0.0, "type": "electric_scooter", "name": "9d4d72bd84bf828767408fb362501a47", "is_disabled": 0, "rental_uris": {"ios": "https://dc.lft.to/lastmile_qr_scan", "android": "https://dc.lft.to/lastmile_qr_scan"}, "is_reserved": 0}, {"lon": -77.03200483333333, "bike_id": "827a975e18894d58bb4f348edecdb1c0", "lat": 38.910613833333336, "fusion_lon": 0.0, "fusion_lat": 0.0, "type": "electric_scooter", "name": "827a975e18894d58bb4f348edecdb1c0", "is_disabled": 0, "rental_uris": {"ios": "https://dc.lft.to/lastmile_qr_scan", "android": "https://dc.lft.to/lastmile_qr_scan"}, "is_reserved": 0}, {"lon": -77.02083933333333, "bike_id": "8930c19913587c556e0f33fa11da8dc4", "lat": 38.9271255, "fusion_lon": 0.0, "fusion_lat": 0.0, "type": "electric_scooter", "name": "8930c19913587c556e0f33fa11da8dc4", "is_disabled": 0, "rental_uris": {"ios": "https://dc.lft.to/lastmile_qr_scan", "android": "https://dc.lft.to/lastmile_qr_scan"}, "is_reserved": 0}, {"lon": -77.00308216666667, "bike_id": "04f6cc5a1275172b0a394368604e726b", "lat": 38.895061, "fusion_lon": 0.0, "fusion_lat": 0.0, "type": "electric_scooter", "name": "04f6cc5a1275172b0a394368604e726b", "is_disabled": 0, "rental_uris": {"ios": "https://dc.lft.to/lastmile_qr_scan", "android": "https://dc.lft.to/lastmile_qr_scan"}, "is_reserved": 0}, {"lon": -77.021127, "bike_id": "59034a7bd92188145434399457a6f012", "lat": 38.89757383333333, "fusion_lon": 0.0, "fusion_lat": 0.0, "type": "electric_scooter", "name": "59034a7bd92188145434399457a6f012", "is_disabled": 0, "rental_uris": {"ios": "https://dc.lft.to/lastmile_qr_scan", "android": "https://dc.lft.to/lastmile_qr_scan"}, "is_reserved": 0}, {"lon": -77.0469235, "bike_id": "0cef5488f72cba6499bfa8f1d66320e1", "lat": 38.90275716666667, "fusion_lon": 0.0, "fusion_lat": 0.0, "type": "electric_scooter", "name": "0cef5488f72cba6499bfa8f1d66320e1", "is_disabled": 0, "rental_uris": {"ios": "https://dc.lft.to/lastmile_qr_scan", "android": "https://dc.lft.to/lastmile_qr_scan"}, "is_reserved": 0}, {"lon": -77.0201155, "bike_id": "17a18fbc4f700ae599dfbcbdce0fe80c", "lat": 38.92403933333333, "fusion_lon": 0.0, "fusion_lat": 0.0, "type": "electric_scooter", "name": "17a18fbc4f700ae599dfbcbdce0fe80c", "is_disabled": 0, "rental_uris": {"ios": "https://dc.lft.to/lastmile_qr_scan", "android": "https://dc.lft.to/lastmile_qr_scan"}, "is_reserved": 0}, {"lon": -77.05232733333334, "bike_id": "bbd4ea0391e7010ddcfc2e4a0618e8b5", "lat": 38.92463083333333, "fusion_lon": 0.0, "fusion_lat": 0.0, "type": "electric_scooter", "name": "bbd4ea0391e7010ddcfc2e4a0618e8b5", "is_disabled": 0, "rental_uris": {"ios": "https://dc.lft.to/lastmile_qr_scan", "android": "https://dc.lft.to/lastmile_qr_scan"}, "is_reserved": 0}, {"lon": -77.01112716666667, "bike_id": "7bf0d4cec799db6d8c63506beec3e2e9", "lat": 38.90350433333333, "fusion_lon": 0.0, "fusion_lat": 0.0, "type": "electric_scooter", "name": "7bf0d4cec799db6d8c63506beec3e2e9", "is_disabled": 0, "rental_uris": {"ios": "https://dc.lft.to/lastmile_qr_scan", "android": "https://dc.lft.to/lastmile_qr_scan"}, "is_reserved": 0}, {"lon": -77.03038083333334, "bike_id": "f2f1eef968fbe46db797a3fe88f96b23", "lat": 38.8783705, "fusion_lon": 0.0, "fusion_lat": 0.0, "type": "electric_scooter", "name": "f2f1eef968fbe46db797a3fe88f96b23", "is_disabled": 0, "rental_uris": {"ios": "https://dc.lft.to/lastmile_qr_scan", "android": "https://dc.lft.to/lastmile_qr_scan"}, "is_reserved": 0}, {"lon": -77.03175, "bike_id": "2e69b76398c9ee3df6da4df654c5a0db", "lat": 38.909895, "fusion_lon": 0.0, "fusion_lat": 0.0, "type": "electric_scooter", "name": "2e69b76398c9ee3df6da4df654c5a0db", "is_disabled": 0, "rental_uris": {"ios": "https://dc.lft.to/lastmile_qr_scan", "android": "https://dc.lft.to/lastmile_qr_scan"}, "is_reserved": 0}, {"lon": -77.0032695, "bike_id": "e74e7612082a7011be439d31a9664014", "lat": 38.885042166666665, "fusion_lon": 0.0, "fusion_lat": 0.0, "type": "electric_scooter", "name": "e74e7612082a7011be439d31a9664014", "is_disabled": 0, "rental_uris": {"ios": "https://dc.lft.to/lastmile_qr_scan", "android": "https://dc.lft.to/lastmile_qr_scan"}, "is_reserved": 0}, {"lon": -77.050931, "bike_id": "a9381cd81bb73957ebef12a496b7084a", "lat": 38.923117833333336, "fusion_lon": 0.0, "fusion_lat": 0.0, "type": "electric_scooter", "name": "a9381cd81bb73957ebef12a496b7084a", "is_disabled": 0, "rental_uris": {"ios": "https://dc.lft.to/lastmile_qr_scan", "android": "https://dc.lft.to/lastmile_qr_scan"}, "is_reserved": 0}, {"lon": -77.03217216666667, "bike_id": "4240f619d2153aa1436ac98ec8bf26b4", "lat": 38.91474516666667, "fusion_lon": 0.0, "fusion_lat": 0.0, "type": "electric_scooter", "name": "4240f619d2153aa1436ac98ec8bf26b4", "is_disabled": 0, "rental_uris": {"ios": "https://dc.lft.to/lastmile_qr_scan", "android": "https://dc.lft.to/lastmile_qr_scan"}, "is_reserved": 0}, {"lon": -76.98225866666667, "bike_id": "c23df516e38d25c3d472d6223800ad46", "lat": 38.88652866666666, "fusion_lon": 0.0, "fusion_lat": 0.0, "type": "electric_scooter", "name": "c23df516e38d25c3d472d6223800ad46", "is_disabled": 0, "rental_uris": {"ios": "https://dc.lft.to/lastmile_qr_scan", "android": "https://dc.lft.to/lastmile_qr_scan"}, "is_reserved": 0}, {"lon": -77.045695, "bike_id": "d16e198e7f7be427796bbbbf626df5b7", "lat": 38.9086825, "fusion_lon": 0.0, "fusion_lat": 0.0, "type": "electric_scooter", "name": "d16e198e7f7be427796bbbbf626df5b7", "is_disabled": 0, "rental_uris": {"ios": "https://dc.lft.to/lastmile_qr_scan", "android": "https://dc.lft.to/lastmile_qr_scan"}, "is_reserved": 0}, {"lon": -77.03208233333334, "bike_id": "ce5afb096524ae205ef78f8826a830b0", "lat": 38.9134785, "fusion_lon": 0.0, "fusion_lat": 0.0, "type": "electric_scooter", "name": "ce5afb096524ae205ef78f8826a830b0", "is_disabled": 0, "rental_uris": {"ios": "https://dc.lft.to/lastmile_qr_scan", "android": "https://dc.lft.to/lastmile_qr_scan"}, "is_reserved": 0}, {"lon": -77.029597, "bike_id": "171d3c143fc101b47682d9b9f6753622", "lat": 38.91078516666666, "fusion_lon": 0.0, "fusion_lat": 0.0, "type": "electric_scooter", "name": "171d3c143fc101b47682d9b9f6753622", "is_disabled": 0, "rental_uris": {"ios": "https://dc.lft.to/lastmile_qr_scan", "android": "https://dc.lft.to/lastmile_qr_scan"}, "is_reserved": 0}, {"lon": -77.0057345, "bike_id": "ec843ac3b86836a1a87a39a793924c0d", "lat": 38.87475633333333, "fusion_lon": 0.0, "fusion_lat": 0.0, "type": "electric_scooter", "name": "ec843ac3b86836a1a87a39a793924c0d", "is_disabled": 0, "rental_uris": {"ios": "https://dc.lft.to/lastmile_qr_scan", "android": "https://dc.lft.to/lastmile_qr_scan"}, "is_reserved": 0}, {"lon": -77.03179516666667, "bike_id": "acfea73d788e6b6afc3a94c0e8c6172f", "lat": 38.91132316666667, "fusion_lon": 0.0, "fusion_lat": 0.0, "type": "electric_scooter", "name": "acfea73d788e6b6afc3a94c0e8c6172f", "is_disabled": 0, "rental_uris": {"ios": "https://dc.lft.to/lastmile_qr_scan", "android": "https://dc.lft.to/lastmile_qr_scan"}, "is_reserved": 0}, {"lon": -77.02452716666667, "bike_id": "735343958d8aedb955fc5c4b01c28cc9", "lat": 38.937988, "fusion_lon": 0.0, "fusion_lat": 0.0, "type": "electric_scooter", "name": "735343958d8aedb955fc5c4b01c28cc9", "is_disabled": 0, "rental_uris": {"ios": "https://dc.lft.to/lastmile_qr_scan", "android": "https://dc.lft.to/lastmile_qr_scan"}, "is_reserved": 0}, {"lon": -77.0437025, "bike_id": "ed7117e76657079b5fc4e0bbf61fee7b", "lat": 38.90284333333334, "fusion_lon": 0.0, "fusion_lat": 0.0, "type": "electric_scooter", "name": "ed7117e76657079b5fc4e0bbf61fee7b", "is_disabled": 0, "rental_uris": {"ios": "https://dc.lft.to/lastmile_qr_scan", "android": "https://dc.lft.to/lastmile_qr_scan"}, "is_reserved": 0}, {"lon": -77.16628066666667, "bike_id": "e23cfbb6c41a88c53c3e13a4ed2620f6", "lat": 38.8883685, "fusion_lon": 0.0, "fusion_lat": 0.0, "type": "electric_bike", "name": "e23cfbb6c41a88c53c3e13a4ed2620f6", "is_disabled": 0, "rental_uris": {"ios": "https://dc.lft.to/lastmile_qr_scan", "android": "https://dc.lft.to/lastmile_qr_scan"}, "is_reserved": 0}, {"lon": -77.03319633333334, "bike_id": "86618993044e0975767f345848087722", "lat": 38.928944666666666, "fusion_lon": 0.0, "fusion_lat": 0.0, "type": "electric_scooter", "name": "86618993044e0975767f345848087722", "is_disabled": 0, "rental_uris": {"ios": "https://dc.lft.to/lastmile_qr_scan", "android": "https://dc.lft.to/lastmile_qr_scan"}, "is_reserved": 0}, {"lon": -77.03864816666666, "bike_id": "c5a5781ec626e56aabb8b6029595a90f", "lat": 38.90661683333333, "fusion_lon": 0.0, "fusion_lat": 0.0, "type": "electric_scooter", "name": "c5a5781ec626e56aabb8b6029595a90f", "is_disabled": 0, "rental_uris": {"ios": "https://dc.lft.to/lastmile_qr_scan", "android": "https://dc.lft.to/lastmile_qr_scan"}, "is_reserved": 0}, {"lon": -77.00360333333333, "bike_id": "c5ecbe39b46a4e766cb1c242f78a740e", "lat": 38.91679416666667, "fusion_lon": 0.0, "fusion_lat": 0.0, "type": "electric_scooter", "name": "c5ecbe39b46a4e766cb1c242f78a740e", "is_disabled": 0, "rental_uris": {"ios": "https://dc.lft.to/lastmile_qr_scan", "android": "https://dc.lft.to/lastmile_qr_scan"}, "is_reserved": 0}, {"lon": -77.02287866666667, "bike_id": "360d5f7611eb991dd1680ca47ec96e24", "lat": 38.916612666666666, "fusion_lon": 0.0, "fusion_lat": 0.0, "type": "electric_scooter", "name": "360d5f7611eb991dd1680ca47ec96e24", "is_disabled": 0, "rental_uris": {"ios": "https://dc.lft.to/lastmile_qr_scan", "android": "https://dc.lft.to/lastmile_qr_scan"}, "is_reserved": 0}, {"lon": -77.0571325, "bike_id": "47192bfba5e2c31042ec09bf36012153", "lat": 38.93370983333333, "fusion_lon": 0.0, "fusion_lat": 0.0, "type": "electric_scooter", "name": "47192bfba5e2c31042ec09bf36012153", "is_disabled": 0, "rental_uris": {"ios": "https://dc.lft.to/lastmile_qr_scan", "android": "https://dc.lft.to/lastmile_qr_scan"}, "is_reserved": 0}, {"lon": -77.02789816666666, "bike_id": "4c9536387b590032032a76106232876a", "lat": 38.9343035, "fusion_lon": 0.0, "fusion_lat": 0.0, "type": "electric_scooter", "name": "4c9536387b590032032a76106232876a", "is_disabled": 0, "rental_uris": {"ios": "https://dc.lft.to/lastmile_qr_scan", "android": "https://dc.lft.to/lastmile_qr_scan"}, "is_reserved": 0}, {"lon": -76.9823905, "bike_id": "ee7849aa6eb62817b915c7a5aa3b0e30", "lat": 38.91673333333333, "fusion_lon": 0.0, "fusion_lat": 0.0, "type": "electric_scooter", "name": "ee7849aa6eb62817b915c7a5aa3b0e30", "is_disabled": 0, "rental_uris": {"ios": "https://dc.lft.to/lastmile_qr_scan", "android": "https://dc.lft.to/lastmile_qr_scan"}, "is_reserved": 0}, {"lon": -77.05092033333334, "bike_id": "e7ebbd5901c1edf4cb58496daa1b5677", "lat": 38.909736333333335, "fusion_lon": 0.0, "fusion_lat": 0.0, "type": "electric_scooter", "name": "e7ebbd5901c1edf4cb58496daa1b5677", "is_disabled": 0, "rental_uris": {"ios": "https://dc.lft.to/lastmile_qr_scan", "android": "https://dc.lft.to/lastmile_qr_scan"}, "is_reserved": 0}, {"lon": -76.999617, "bike_id": "9b814f1e720eb144bc9784e9fc4aeaba", "lat": 38.90849583333333, "fusion_lon": 0.0, "fusion_lat": 0.0, "type": "electric_scooter", "name": "9b814f1e720eb144bc9784e9fc4aeaba", "is_disabled": 0, "rental_uris": {"ios": "https://dc.lft.to/lastmile_qr_scan", "android": "https://dc.lft.to/lastmile_qr_scan"}, "is_reserved": 0}, {"lon": -77.02794966666667, "bike_id": "0f3276491dd536a1b77fce6294913ccd", "lat": 38.892287, "fusion_lon": 0.0, "fusion_lat": 0.0, "type": "electric_scooter", "name": "0f3276491dd536a1b77fce6294913ccd", "is_disabled": 0, "rental_uris": {"ios": "https://dc.lft.to/lastmile_qr_scan", "android": "https://dc.lft.to/lastmile_qr_scan"}, "is_reserved": 0}, {"lon": -77.04581666666667, "bike_id": "4f61747519f4b77842c3b13ef89a3cd2", "lat": 38.921227333333334, "fusion_lon": 0.0, "fusion_lat": 0.0, "type": "electric_scooter", "name": "4f61747519f4b77842c3b13ef89a3cd2", "is_disabled": 0, "rental_uris": {"ios": "https://dc.lft.to/lastmile_qr_scan", "android": "https://dc.lft.to/lastmile_qr_scan"}, "is_reserved": 0}, {"lon": -77.03697916666667, "bike_id": "2fd4a1aa4c282dfa9897666da5889dd1", "lat": 38.932929, "fusion_lon": 0.0, "fusion_lat": 0.0, "type": "electric_scooter", "name": "2fd4a1aa4c282dfa9897666da5889dd1", "is_disabled": 0, "rental_uris": {"ios": "https://dc.lft.to/lastmile_qr_scan", "android": "https://dc.lft.to/lastmile_qr_scan"}, "is_reserved": 0}, {"lon": -77.005178, "bike_id": "52b8b2611971ef9f9a36079bd2770554", "lat": 38.87912566666667, "fusion_lon": 0.0, "fusion_lat": 0.0, "type": "electric_scooter", "name": "52b8b2611971ef9f9a36079bd2770554", "is_disabled": 0, "rental_uris": {"ios": "https://dc.lft.to/lastmile_qr_scan", "android": "https://dc.lft.to/lastmile_qr_scan"}, "is_reserved": 0}, {"lon": -77.111632, "bike_id": "bad71d2c695c98ce9970b707b3f89ffb", "lat": 38.855152333333336, "fusion_lon": 0.0, "fusion_lat": 0.0, "type": "electric_bike", "name": "bad71d2c695c98ce9970b707b3f89ffb", "is_disabled": 0, "rental_uris": {"ios": "https://dc.lft.to/lastmile_qr_scan", "android": "https://dc.lft.to/lastmile_qr_scan"}, "is_reserved": 0}, {"lon": -77.07295783333333, "bike_id": "738ff873d10856f5ff2cd207693d0db5", "lat": 38.924692, "fusion_lon": 0.0, "fusion_lat": 0.0, "type": "electric_scooter", "name": "738ff873d10856f5ff2cd207693d0db5", "is_disabled": 0, "rental_uris": {"ios": "https://dc.lft.to/lastmile_qr_scan", "android": "https://dc.lft.to/lastmile_qr_scan"}, "is_reserved": 0}, {"lon": -77.10481316666667, "bike_id": "e2857dc0fe738469c3726b37d6d1de09", "lat": 38.856017, "fusion_lon": 0.0, "fusion_lat": 0.0, "type": "electric_bike", "name": "e2857dc0fe738469c3726b37d6d1de09", "is_disabled": 0, "rental_uris": {"ios": "https://dc.lft.to/lastmile_qr_scan", "android": "https://dc.lft.to/lastmile_qr_scan"}, "is_reserved": 0}, {"lon": -77.03378333333333, "bike_id": "0b06b98b21071460641126c72e0fadf2", "lat": 38.90277916666667, "fusion_lon": 0.0, "fusion_lat": 0.0, "type": "electric_scooter", "name": "0b06b98b21071460641126c72e0fadf2", "is_disabled": 0, "rental_uris": {"ios": "https://dc.lft.to/lastmile_qr_scan", "android": "https://dc.lft.to/lastmile_qr_scan"}, "is_reserved": 0}, {"lon": -76.97344516666666, "bike_id": "2cb866c5a46dedaf580a4a673a6f5a62", "lat": 38.865831, "fusion_lon": 0.0, "fusion_lat": 0.0, "type": "electric_scooter", "name": "2cb866c5a46dedaf580a4a673a6f5a62", "is_disabled": 0, "rental_uris": {"ios": "https://dc.lft.to/lastmile_qr_scan", "android": "https://dc.lft.to/lastmile_qr_scan"}, "is_reserved": 0}, {"lon": -77.02715216666667, "bike_id": "0dd7cdae8ee7ce8b9cff9ddd9bdf5500", "lat": 38.91704633333333, "fusion_lon": 0.0, "fusion_lat": 0.0, "type": "electric_scooter", "name": "0dd7cdae8ee7ce8b9cff9ddd9bdf5500", "is_disabled": 0, "rental_uris": {"ios": "https://dc.lft.to/lastmile_qr_scan", "android": "https://dc.lft.to/lastmile_qr_scan"}, "is_reserved": 0}, {"lon": -76.98614716666667, "bike_id": "6d55800763dc0e2c99d9cc4642adce5c", "lat": 38.882848333333335, "fusion_lon": 0.0, "fusion_lat": 0.0, "type": "electric_bike", "name": "6d55800763dc0e2c99d9cc4642adce5c", "is_disabled": 0, "rental_uris": {"ios": "https://dc.lft.to/lastmile_qr_scan", "android": "https://dc.lft.to/lastmile_qr_scan"}, "is_reserved": 0}, {"lon": -77.046059, "bike_id": "fb0ac58a46d62c07019afabfcf25c680", "lat": 39.02464666666667, "fusion_lon": 0.0, "fusion_lat": 0.0, "type": "electric_bike", "name": "fb0ac58a46d62c07019afabfcf25c680", "is_disabled": 0, "rental_uris": {"ios": "https://dc.lft.to/lastmile_qr_scan", "android": "https://dc.lft.to/lastmile_qr_scan"}, "is_reserved": 0}, {"lon": -77.0252815, "bike_id": "11761dd19871ddaa7a2251e18e05bde4", "lat": 38.937576166666666, "fusion_lon": 0.0, "fusion_lat": 0.0, "type": "electric_scooter", "name": "11761dd19871ddaa7a2251e18e05bde4", "is_disabled": 0, "rental_uris": {"ios": "https://dc.lft.to/lastmile_qr_scan", "android": "https://dc.lft.to/lastmile_qr_scan"}, "is_reserved": 0}, {"lon": -77.03044433333334, "bike_id": "7a1878868a63c60dd6525caec481a88d", "lat": 38.91337583333333, "fusion_lon": 0.0, "fusion_lat": 0.0, "type": "electric_scooter", "name": "7a1878868a63c60dd6525caec481a88d", "is_disabled": 0, "rental_uris": {"ios": "https://dc.lft.to/lastmile_qr_scan", "android": "https://dc.lft.to/lastmile_qr_scan"}, "is_reserved": 0}, {"lon": -77.04225883333334, "bike_id": "033e15e37d59ee848071a8b3e3025ed9", "lat": 38.92127116666666, "fusion_lon": 0.0, "fusion_lat": 0.0, "type": "electric_scooter", "name": "033e15e37d59ee848071a8b3e3025ed9", "is_disabled": 0, "rental_uris": {"ios": "https://dc.lft.to/lastmile_qr_scan", "android": "https://dc.lft.to/lastmile_qr_scan"}, "is_reserved": 0}, {"lon": -77.0458605, "bike_id": "4a6d345dceedf0145d0c52d0f6f73ab2", "lat": 38.918634, "fusion_lon": 0.0, "fusion_lat": 0.0, "type": "electric_scooter", "name": "4a6d345dceedf0145d0c52d0f6f73ab2", "is_disabled": 0, "rental_uris": {"ios": "https://dc.lft.to/lastmile_qr_scan", "android": "https://dc.lft.to/lastmile_qr_scan"}, "is_reserved": 0}, {"lon": -77.03226283333333, "bike_id": "fab69e9f5e763dcafdc429448db9d49e", "lat": 38.917123833333335, "fusion_lon": 0.0, "fusion_lat": 0.0, "type": "electric_scooter", "name": "fab69e9f5e763dcafdc429448db9d49e", "is_disabled": 0, "rental_uris": {"ios": "https://dc.lft.to/lastmile_qr_scan", "android": "https://dc.lft.to/lastmile_qr_scan"}, "is_reserved": 0}, {"lon": -76.9732895, "bike_id": "065fdad05467b1fe50416c27c861cc79", "lat": 38.8651555, "fusion_lon": 0.0, "fusion_lat": 0.0, "type": "electric_scooter", "name": "065fdad05467b1fe50416c27c861cc79", "is_disabled": 0, "rental_uris": {"ios": "https://dc.lft.to/lastmile_qr_scan", "android": "https://dc.lft.to/lastmile_qr_scan"}, "is_reserved": 0}, {"lon": -76.98573483333334, "bike_id": "5bb8c8865ea5722297f9a4fc19410281", "lat": 38.883491166666666, "fusion_lon": 0.0, "fusion_lat": 0.0, "type": "electric_scooter", "name": "5bb8c8865ea5722297f9a4fc19410281", "is_disabled": 0, "rental_uris": {"ios": "https://dc.lft.to/lastmile_qr_scan", "android": "https://dc.lft.to/lastmile_qr_scan"}, "is_reserved": 0}, {"lon": -77.04207816666667, "bike_id": "d87c5eca747cff65c0cb858f44932785", "lat": 38.921368333333334, "fusion_lon": 0.0, "fusion_lat": 0.0, "type": "electric_scooter", "name": "d87c5eca747cff65c0cb858f44932785", "is_disabled": 0, "rental_uris": {"ios": "https://dc.lft.to/lastmile_qr_scan", "android": "https://dc.lft.to/lastmile_qr_scan"}, "is_reserved": 0}, {"lon": -77.02115016666667, "bike_id": "96c023f0ef9aaca004791fd0efa94d8f", "lat": 38.89750333333333, "fusion_lon": 0.0, "fusion_lat": 0.0, "type": "electric_scooter", "name": "96c023f0ef9aaca004791fd0efa94d8f", "is_disabled": 0, "rental_uris": {"ios": "https://dc.lft.to/lastmile_qr_scan", "android": "https://dc.lft.to/lastmile_qr_scan"}, "is_reserved": 0}, {"lon": -77.02177266666666, "bike_id": "ba1e04b22338ad72459d4d107771595c", "lat": 38.90002716666667, "fusion_lon": 0.0, "fusion_lat": 0.0, "type": "electric_scooter", "name": "ba1e04b22338ad72459d4d107771595c", "is_disabled": 0, "rental_uris": {"ios": "https://dc.lft.to/lastmile_qr_scan", "android": "https://dc.lft.to/lastmile_qr_scan"}, "is_reserved": 0}, {"lon": -77.0638445, "bike_id": "468a811084df6a7c43d8c63e9b731fc3", "lat": 38.90925266666667, "fusion_lon": 0.0, "fusion_lat": 0.0, "type": "electric_scooter", "name": "468a811084df6a7c43d8c63e9b731fc3", "is_disabled": 0, "rental_uris": {"ios": "https://dc.lft.to/lastmile_qr_scan", "android": "https://dc.lft.to/lastmile_qr_scan"}, "is_reserved": 0}, {"lon": -77.0483025, "bike_id": "1375ad31ff4547d73a00c98545b1d862", "lat": 38.89750333333333, "fusion_lon": 0.0, "fusion_lat": 0.0, "type": "electric_scooter", "name": "1375ad31ff4547d73a00c98545b1d862", "is_disabled": 0, "rental_uris": {"ios": "https://dc.lft.to/lastmile_qr_scan", "android": "https://dc.lft.to/lastmile_qr_scan"}, "is_reserved": 0}, {"lon": -76.98237933333333, "bike_id": "f580d52f2684cf62415bc01841ba8d8d", "lat": 38.91673816666667, "fusion_lon": 0.0, "fusion_lat": 0.0, "type": "electric_scooter", "name": "f580d52f2684cf62415bc01841ba8d8d", "is_disabled": 0, "rental_uris": {"ios": "https://dc.lft.to/lastmile_qr_scan", "android": "https://dc.lft.to/lastmile_qr_scan"}, "is_reserved": 0}, {"lon": -77.06244783333334, "bike_id": "813957e02973de017af08c1493581fb1", "lat": 38.9052675, "fusion_lon": 0.0, "fusion_lat": 0.0, "type": "electric_scooter", "name": "813957e02973de017af08c1493581fb1", "is_disabled": 0, "rental_uris": {"ios": "https://dc.lft.to/lastmile_qr_scan", "android": "https://dc.lft.to/lastmile_qr_scan"}, "is_reserved": 0}, {"lon": -77.01982616666666, "bike_id": "b0c2e2ab4b128bea0ed33aa13702a11e", "lat": 38.91527283333333, "fusion_lon": 0.0, "fusion_lat": 0.0, "type": "electric_scooter", "name": "b0c2e2ab4b128bea0ed33aa13702a11e", "is_disabled": 0, "rental_uris": {"ios": "https://dc.lft.to/lastmile_qr_scan", "android": "https://dc.lft.to/lastmile_qr_scan"}, "is_reserved": 0}, {"lon": -77.031994, "bike_id": "3de1d7e80af20ae88cd18eeb912aa550", "lat": 38.916822333333336, "fusion_lon": 0.0, "fusion_lat": 0.0, "type": "electric_scooter", "name": "3de1d7e80af20ae88cd18eeb912aa550", "is_disabled": 0, "rental_uris": {"ios": "https://dc.lft.to/lastmile_qr_scan", "android": "https://dc.lft.to/lastmile_qr_scan"}, "is_reserved": 0}, {"lon": -77.059079, "bike_id": "c93e7b469855c692ab126cad5af1bc61", "lat": 38.90540816666667, "fusion_lon": 0.0, "fusion_lat": 0.0, "type": "electric_scooter", "name": "c93e7b469855c692ab126cad5af1bc61", "is_disabled": 0, "rental_uris": {"ios": "https://dc.lft.to/lastmile_qr_scan", "android": "https://dc.lft.to/lastmile_qr_scan"}, "is_reserved": 0}, {"lon": -77.03181066666667, "bike_id": "73169c94fe1303233ea19342809bee31", "lat": 38.9112645, "fusion_lon": 0.0, "fusion_lat": 0.0, "type": "electric_scooter", "name": "73169c94fe1303233ea19342809bee31", "is_disabled": 0, "rental_uris": {"ios": "https://dc.lft.to/lastmile_qr_scan", "android": "https://dc.lft.to/lastmile_qr_scan"}, "is_reserved": 0}, {"lon": -77.03579833333333, "bike_id": "408c138f07d2f8fa8831426688b0e029", "lat": 38.907581666666665, "fusion_lon": 0.0, "fusion_lat": 0.0, "type": "electric_scooter", "name": "408c138f07d2f8fa8831426688b0e029", "is_disabled": 0, "rental_uris": {"ios": "https://dc.lft.to/lastmile_qr_scan", "android": "https://dc.lft.to/lastmile_qr_scan"}, "is_reserved": 0}, {"lon": -77.02213516666667, "bike_id": "c706ab1d692d38f3fce70e5953cced08", "lat": 38.90007216666667, "fusion_lon": 0.0, "fusion_lat": 0.0, "type": "electric_scooter", "name": "c706ab1d692d38f3fce70e5953cced08", "is_disabled": 0, "rental_uris": {"ios": "https://dc.lft.to/lastmile_qr_scan", "android": "https://dc.lft.to/lastmile_qr_scan"}, "is_reserved": 0}, {"lon": -77.0227955, "bike_id": "200b25614d12f90d50195c2ab997c117", "lat": 38.92744233333333, "fusion_lon": 0.0, "fusion_lat": 0.0, "type": "electric_scooter", "name": "200b25614d12f90d50195c2ab997c117", "is_disabled": 0, "rental_uris": {"ios": "https://dc.lft.to/lastmile_qr_scan", "android": "https://dc.lft.to/lastmile_qr_scan"}, "is_reserved": 0}, {"lon": -76.97493766666666, "bike_id": "4b5e419a567d44036c3457cdb0c05c60", "lat": 38.919297666666665, "fusion_lon": 0.0, "fusion_lat": 0.0, "type": "electric_scooter", "name": "4b5e419a567d44036c3457cdb0c05c60", "is_disabled": 0, "rental_uris": {"ios": "https://dc.lft.to/lastmile_qr_scan", "android": "https://dc.lft.to/lastmile_qr_scan"}, "is_reserved": 0}, {"lon": -76.99353316666667, "bike_id": "c2fec0a6da3c3d0ad1d4889954343121", "lat": 38.845081666666665, "fusion_lon": 0.0, "fusion_lat": 0.0, "type": "electric_bike", "name": "c2fec0a6da3c3d0ad1d4889954343121", "is_disabled": 0, "rental_uris": {"ios": "https://dc.lft.to/lastmile_qr_scan", "android": "https://dc.lft.to/lastmile_qr_scan"}, "is_reserved": 0}, {"lon": -76.94400266666666, "bike_id": "7d95ecb6ad306eacd0d7fd222958e77e", "lat": 38.88143633333333, "fusion_lon": 0.0, "fusion_lat": 0.0, "type": "electric_scooter", "name": "7d95ecb6ad306eacd0d7fd222958e77e", "is_disabled": 0, "rental_uris": {"ios": "https://dc.lft.to/lastmile_qr_scan", "android": "https://dc.lft.to/lastmile_qr_scan"}, "is_reserved": 0}, {"lon": -77.045772, "bike_id": "d0d4b18ceace5410d7d5266786223552", "lat": 38.9212085, "fusion_lon": 0.0, "fusion_lat": 0.0, "type": "electric_scooter", "name": "d0d4b18ceace5410d7d5266786223552", "is_disabled": 0, "rental_uris": {"ios": "https://dc.lft.to/lastmile_qr_scan", "android": "https://dc.lft.to/lastmile_qr_scan"}, "is_reserved": 0}, {"lon": -77.01368616666667, "bike_id": "c7e76ec472120d5d1dac6293a5dc5563", "lat": 38.887087, "fusion_lon": 0.0, "fusion_lat": 0.0, "type": "electric_scooter", "name": "c7e76ec472120d5d1dac6293a5dc5563", "is_disabled": 0, "rental_uris": {"ios": "https://dc.lft.to/lastmile_qr_scan", "android": "https://dc.lft.to/lastmile_qr_scan"}, "is_reserved": 0}, {"lon": -77.03288266666667, "bike_id": "e11d52de2f7321d5c716b9c679cc9bc1", "lat": 38.923328833333336, "fusion_lon": 0.0, "fusion_lat": 0.0, "type": "electric_scooter", "name": "e11d52de2f7321d5c716b9c679cc9bc1", "is_disabled": 0, "rental_uris": {"ios": "https://dc.lft.to/lastmile_qr_scan", "android": "https://dc.lft.to/lastmile_qr_scan"}, "is_reserved": 0}, {"lon": -77.06295166666666, "bike_id": "1d31a13ca5c1f1219f272e4dbd7d371e", "lat": 38.90396233333333, "fusion_lon": 0.0, "fusion_lat": 0.0, "type": "electric_scooter", "name": "1d31a13ca5c1f1219f272e4dbd7d371e", "is_disabled": 0, "rental_uris": {"ios": "https://dc.lft.to/lastmile_qr_scan", "android": "https://dc.lft.to/lastmile_qr_scan"}, "is_reserved": 0}, {"lon": -77.02496566666667, "bike_id": "ce107141b76ed7cc7dedbf86504e706a", "lat": 38.92102966666667, "fusion_lon": 0.0, "fusion_lat": 0.0, "type": "electric_scooter", "name": "ce107141b76ed7cc7dedbf86504e706a", "is_disabled": 0, "rental_uris": {"ios": "https://dc.lft.to/lastmile_qr_scan", "android": "https://dc.lft.to/lastmile_qr_scan"}, "is_reserved": 0}, {"lon": -77.02513883333333, "bike_id": "dc4bf4d566105b6eda08fd90d9325abc", "lat": 38.94207433333333, "fusion_lon": 0.0, "fusion_lat": 0.0, "type": "electric_scooter", "name": "dc4bf4d566105b6eda08fd90d9325abc", "is_disabled": 0, "rental_uris": {"ios": "https://dc.lft.to/lastmile_qr_scan", "android": "https://dc.lft.to/lastmile_qr_scan"}, "is_reserved": 0}, {"lon": -77.0174145, "bike_id": "c84b7c4601f8113c53a7510bc207f756", "lat": 38.882120666666665, "fusion_lon": 0.0, "fusion_lat": 0.0, "type": "electric_scooter", "name": "c84b7c4601f8113c53a7510bc207f756", "is_disabled": 0, "rental_uris": {"ios": "https://dc.lft.to/lastmile_qr_scan", "android": "https://dc.lft.to/lastmile_qr_scan"}, "is_reserved": 0}, {"lon": -76.99702483333333, "bike_id": "ea5570b691a8cb4fc68076f7cffcb9f7", "lat": 38.84436683333333, "fusion_lon": 0.0, "fusion_lat": 0.0, "type": "electric_scooter", "name": "ea5570b691a8cb4fc68076f7cffcb9f7", "is_disabled": 0, "rental_uris": {"ios": "https://dc.lft.to/lastmile_qr_scan", "android": "https://dc.lft.to/lastmile_qr_scan"}, "is_reserved": 0}, {"lon": -77.11911533333334, "bike_id": "43fd7dc0546553091decde3cc36acf2f", "lat": 38.88095, "fusion_lon": 0.0, "fusion_lat": 0.0, "type": "electric_bike", "name": "43fd7dc0546553091decde3cc36acf2f", "is_disabled": 0, "rental_uris": {"ios": "https://dc.lft.to/lastmile_qr_scan", "android": "https://dc.lft.to/lastmile_qr_scan"}, "is_reserved": 0}, {"lon": -77.0053565, "bike_id": "3ceb5413f0aca8155b397f06b79d9a43", "lat": 38.875495, "fusion_lon": 0.0, "fusion_lat": 0.0, "type": "electric_scooter", "name": "3ceb5413f0aca8155b397f06b79d9a43", "is_disabled": 0, "rental_uris": {"ios": "https://dc.lft.to/lastmile_qr_scan", "android": "https://dc.lft.to/lastmile_qr_scan"}, "is_reserved": 0}, {"lon": -77.03838833333333, "bike_id": "7436dd59acf3e25c6f1dc17a7696de0e", "lat": 38.911232, "fusion_lon": 0.0, "fusion_lat": 0.0, "type": "electric_scooter", "name": "7436dd59acf3e25c6f1dc17a7696de0e", "is_disabled": 0, "rental_uris": {"ios": "https://dc.lft.to/lastmile_qr_scan", "android": "https://dc.lft.to/lastmile_qr_scan"}, "is_reserved": 0}, {"lon": -76.97890833333334, "bike_id": "3e0cb051119cb15be9a42abc834cd93f", "lat": 38.88539433333333, "fusion_lon": 0.0, "fusion_lat": 0.0, "type": "electric_scooter", "name": "3e0cb051119cb15be9a42abc834cd93f", "is_disabled": 0, "rental_uris": {"ios": "https://dc.lft.to/lastmile_qr_scan", "android": "https://dc.lft.to/lastmile_qr_scan"}, "is_reserved": 0}, {"lon": -76.98553733333334, "bike_id": "e89b47558f64bc2ce555a67641ff6ee7", "lat": 38.907241, "fusion_lon": 0.0, "fusion_lat": 0.0, "type": "electric_scooter", "name": "e89b47558f64bc2ce555a67641ff6ee7", "is_disabled": 0, "rental_uris": {"ios": "https://dc.lft.to/lastmile_qr_scan", "android": "https://dc.lft.to/lastmile_qr_scan"}, "is_reserved": 0}, {"lon": -76.9833495, "bike_id": "5ff73bf11a91c82a1225a4ad0c5aabe7", "lat": 38.89551766666666, "fusion_lon": 0.0, "fusion_lat": 0.0, "type": "electric_scooter", "name": "5ff73bf11a91c82a1225a4ad0c5aabe7", "is_disabled": 0, "rental_uris": {"ios": "https://dc.lft.to/lastmile_qr_scan", "android": "https://dc.lft.to/lastmile_qr_scan"}, "is_reserved": 0}, {"lon": -77.027588, "bike_id": "9c792e4876c685c91da16c965efde977", "lat": 38.927741166666664, "fusion_lon": 0.0, "fusion_lat": 0.0, "type": "electric_scooter", "name": "9c792e4876c685c91da16c965efde977", "is_disabled": 0, "rental_uris": {"ios": "https://dc.lft.to/lastmile_qr_scan", "android": "https://dc.lft.to/lastmile_qr_scan"}, "is_reserved": 0}, {"lon": -77.03161466666667, "bike_id": "227e331d2a1aba6a6bc77af102b308dd", "lat": 38.8922185, "fusion_lon": 0.0, "fusion_lat": 0.0, "type": "electric_scooter", "name": "227e331d2a1aba6a6bc77af102b308dd", "is_disabled": 0, "rental_uris": {"ios": "https://dc.lft.to/lastmile_qr_scan", "android": "https://dc.lft.to/lastmile_qr_scan"}, "is_reserved": 0}, {"lon": -77.029712, "bike_id": "fcaac433cbab0a83a60d6e9b3a15b6e4", "lat": 38.91277783333334, "fusion_lon": 0.0, "fusion_lat": 0.0, "type": "electric_scooter", "name": "fcaac433cbab0a83a60d6e9b3a15b6e4", "is_disabled": 0, "rental_uris": {"ios": "https://dc.lft.to/lastmile_qr_scan", "android": "https://dc.lft.to/lastmile_qr_scan"}, "is_reserved": 0}, {"lon": -76.97969316666666, "bike_id": "322307b4ebdd064648411e8a82d223c2", "lat": 38.89953216666667, "fusion_lon": 0.0, "fusion_lat": 0.0, "type": "electric_scooter", "name": "322307b4ebdd064648411e8a82d223c2", "is_disabled": 0, "rental_uris": {"ios": "https://dc.lft.to/lastmile_qr_scan", "android": "https://dc.lft.to/lastmile_qr_scan"}, "is_reserved": 0}, {"lon": -77.03237633333333, "bike_id": "13c5f65311d4dd4c281ce00d23680ff7", "lat": 38.92787216666667, "fusion_lon": 0.0, "fusion_lat": 0.0, "type": "electric_scooter", "name": "13c5f65311d4dd4c281ce00d23680ff7", "is_disabled": 0, "rental_uris": {"ios": "https://dc.lft.to/lastmile_qr_scan", "android": "https://dc.lft.to/lastmile_qr_scan"}, "is_reserved": 0}, {"lon": -77.01834416666667, "bike_id": "341ab9cdafba453d3cd039374c47fc49", "lat": 38.909374166666666, "fusion_lon": 0.0, "fusion_lat": 0.0, "type": "electric_scooter", "name": "341ab9cdafba453d3cd039374c47fc49", "is_disabled": 0, "rental_uris": {"ios": "https://dc.lft.to/lastmile_qr_scan", "android": "https://dc.lft.to/lastmile_qr_scan"}, "is_reserved": 0}, {"lon": -77.02612416666666, "bike_id": "14c26fc0f8c0a166d8e6311f27f43263", "lat": 38.900983833333335, "fusion_lon": 0.0, "fusion_lat": 0.0, "type": "electric_scooter", "name": "14c26fc0f8c0a166d8e6311f27f43263", "is_disabled": 0, "rental_uris": {"ios": "https://dc.lft.to/lastmile_qr_scan", "android": "https://dc.lft.to/lastmile_qr_scan"}, "is_reserved": 0}, {"lon": -77.03277433333334, "bike_id": "8afb11871cf1a993994469ce3bf0b248", "lat": 38.905776833333334, "fusion_lon": 0.0, "fusion_lat": 0.0, "type": "electric_scooter", "name": "8afb11871cf1a993994469ce3bf0b248", "is_disabled": 0, "rental_uris": {"ios": "https://dc.lft.to/lastmile_qr_scan", "android": "https://dc.lft.to/lastmile_qr_scan"}, "is_reserved": 0}, {"lon": -76.95195266666667, "bike_id": "2462baba82e8591b39152df76a5a2da7", "lat": 38.9001105, "fusion_lon": 0.0, "fusion_lat": 0.0, "type": "electric_scooter", "name": "2462baba82e8591b39152df76a5a2da7", "is_disabled": 0, "rental_uris": {"ios": "https://dc.lft.to/lastmile_qr_scan", "android": "https://dc.lft.to/lastmile_qr_scan"}, "is_reserved": 0}, {"lon": -77.04453633333334, "bike_id": "ab4ff6f8dff7dee4ae91310cfa0f1385", "lat": 38.9194685, "fusion_lon": 0.0, "fusion_lat": 0.0, "type": "electric_scooter", "name": "ab4ff6f8dff7dee4ae91310cfa0f1385", "is_disabled": 0, "rental_uris": {"ios": "https://dc.lft.to/lastmile_qr_scan", "android": "https://dc.lft.to/lastmile_qr_scan"}, "is_reserved": 0}, {"lon": -77.0219745, "bike_id": "51a4ed93cc65917aabf3e4fc9f035684", "lat": 38.91137666666667, "fusion_lon": 0.0, "fusion_lat": 0.0, "type": "electric_scooter", "name": "51a4ed93cc65917aabf3e4fc9f035684", "is_disabled": 0, "rental_uris": {"ios": "https://dc.lft.to/lastmile_qr_scan", "android": "https://dc.lft.to/lastmile_qr_scan"}, "is_reserved": 0}, {"lon": -77.03477783333334, "bike_id": "9ef5b4036ba4c8fd75110fff5f322580", "lat": 38.92882083333333, "fusion_lon": 0.0, "fusion_lat": 0.0, "type": "electric_scooter", "name": "9ef5b4036ba4c8fd75110fff5f322580", "is_disabled": 0, "rental_uris": {"ios": "https://dc.lft.to/lastmile_qr_scan", "android": "https://dc.lft.to/lastmile_qr_scan"}, "is_reserved": 0}, {"lon": -77.03849833333334, "bike_id": "2f76bed6e2ee9df4781d887aea9c13c6", "lat": 38.93136, "fusion_lon": 0.0, "fusion_lat": 0.0, "type": "electric_scooter", "name": "2f76bed6e2ee9df4781d887aea9c13c6", "is_disabled": 0, "rental_uris": {"ios": "https://dc.lft.to/lastmile_qr_scan", "android": "https://dc.lft.to/lastmile_qr_scan"}, "is_reserved": 0}, {"lon": -76.98810966666667, "bike_id": "63168d88d092a77dd583592201d7c8b9", "lat": 38.858352833333335, "fusion_lon": 0.0, "fusion_lat": 0.0, "type": "electric_scooter", "name": "63168d88d092a77dd583592201d7c8b9", "is_disabled": 0, "rental_uris": {"ios": "https://dc.lft.to/lastmile_qr_scan", "android": "https://dc.lft.to/lastmile_qr_scan"}, "is_reserved": 0}, {"lon": -77.0121115, "bike_id": "f868959e1c667e5641ec28494804890d", "lat": 38.91245583333333, "fusion_lon": 0.0, "fusion_lat": 0.0, "type": "electric_scooter", "name": "f868959e1c667e5641ec28494804890d", "is_disabled": 0, "rental_uris": {"ios": "https://dc.lft.to/lastmile_qr_scan", "android": "https://dc.lft.to/lastmile_qr_scan"}, "is_reserved": 0}, {"lon": -76.93173266666666, "bike_id": "be53e685d44c154884f7f353b9115615", "lat": 38.89891, "fusion_lon": 0.0, "fusion_lat": 0.0, "type": "electric_scooter", "name": "be53e685d44c154884f7f353b9115615", "is_disabled": 0, "rental_uris": {"ios": "https://dc.lft.to/lastmile_qr_scan", "android": "https://dc.lft.to/lastmile_qr_scan"}, "is_reserved": 0}, {"lon": -77.03374133333334, "bike_id": "90761eb6f05eaf24000dd1f8a69bd233", "lat": 38.909655666666666, "fusion_lon": 0.0, "fusion_lat": 0.0, "type": "electric_scooter", "name": "90761eb6f05eaf24000dd1f8a69bd233", "is_disabled": 0, "rental_uris": {"ios": "https://dc.lft.to/lastmile_qr_scan", "android": "https://dc.lft.to/lastmile_qr_scan"}, "is_reserved": 0}, {"lon": -77.02167966666667, "bike_id": "8f990d6e4771424f934226b6bd50ba35", "lat": 38.91495533333333, "fusion_lon": 0.0, "fusion_lat": 0.0, "type": "electric_scooter", "name": "8f990d6e4771424f934226b6bd50ba35", "is_disabled": 0, "rental_uris": {"ios": "https://dc.lft.to/lastmile_qr_scan", "android": "https://dc.lft.to/lastmile_qr_scan"}, "is_reserved": 0}, {"lon": -76.94960333333333, "bike_id": "78f4b51dee76a197b83f3bfe3115ef92", "lat": 38.89446483333333, "fusion_lon": 0.0, "fusion_lat": 0.0, "type": "electric_scooter", "name": "78f4b51dee76a197b83f3bfe3115ef92", "is_disabled": 0, "rental_uris": {"ios": "https://dc.lft.to/lastmile_qr_scan", "android": "https://dc.lft.to/lastmile_qr_scan"}, "is_reserved": 0}, {"lon": -76.9956615, "bike_id": "d18df985ba302e160bebb0af2b9e5556", "lat": 38.85184433333333, "fusion_lon": 0.0, "fusion_lat": 0.0, "type": "electric_bike", "name": "d18df985ba302e160bebb0af2b9e5556", "is_disabled": 0, "rental_uris": {"ios": "https://dc.lft.to/lastmile_qr_scan", "android": "https://dc.lft.to/lastmile_qr_scan"}, "is_reserved": 0}, {"lon": -77.02447333333333, "bike_id": "ab95132eb14a85c0439b79bf3c61ec8c", "lat": 38.9183965, "fusion_lon": 0.0, "fusion_lat": 0.0, "type": "electric_scooter", "name": "ab95132eb14a85c0439b79bf3c61ec8c", "is_disabled": 0, "rental_uris": {"ios": "https://dc.lft.to/lastmile_qr_scan", "android": "https://dc.lft.to/lastmile_qr_scan"}, "is_reserved": 0}, {"lon": -76.93363083333334, "bike_id": "6f81b9096c9580c340ae2fb4736b9802", "lat": 38.89922033333333, "fusion_lon": 0.0, "fusion_lat": 0.0, "type": "electric_scooter", "name": "6f81b9096c9580c340ae2fb4736b9802", "is_disabled": 0, "rental_uris": {"ios": "https://dc.lft.to/lastmile_qr_scan", "android": "https://dc.lft.to/lastmile_qr_scan"}, "is_reserved": 0}, {"lon": -76.99603683333333, "bike_id": "c0073e34b43c6ea0cafb50d0b88ca07b", "lat": 38.88319383333334, "fusion_lon": 0.0, "fusion_lat": 0.0, "type": "electric_scooter", "name": "c0073e34b43c6ea0cafb50d0b88ca07b", "is_disabled": 0, "rental_uris": {"ios": "https://dc.lft.to/lastmile_qr_scan", "android": "https://dc.lft.to/lastmile_qr_scan"}, "is_reserved": 0}, {"lon": -77.02972466666667, "bike_id": "3a2c0a8a5a6f4f5cfd25216d8c7a9b56", "lat": 38.91248933333333, "fusion_lon": 0.0, "fusion_lat": 0.0, "type": "electric_scooter", "name": "3a2c0a8a5a6f4f5cfd25216d8c7a9b56", "is_disabled": 0, "rental_uris": {"ios": "https://dc.lft.to/lastmile_qr_scan", "android": "https://dc.lft.to/lastmile_qr_scan"}, "is_reserved": 0}, {"lon": -76.99873916666667, "bike_id": "28bcd17d6940e11088ce03ee0d76dff2", "lat": 38.907563833333334, "fusion_lon": 0.0, "fusion_lat": 0.0, "type": "electric_scooter", "name": "28bcd17d6940e11088ce03ee0d76dff2", "is_disabled": 0, "rental_uris": {"ios": "https://dc.lft.to/lastmile_qr_scan", "android": "https://dc.lft.to/lastmile_qr_scan"}, "is_reserved": 0}, {"lon": -76.96089116666667, "bike_id": "dc3eef806e2a6c5d066a2255cdadf76a", "lat": 38.91864133333333, "fusion_lon": 0.0, "fusion_lat": 0.0, "type": "electric_bike", "name": "dc3eef806e2a6c5d066a2255cdadf76a", "is_disabled": 0, "rental_uris": {"ios": "https://dc.lft.to/lastmile_qr_scan", "android": "https://dc.lft.to/lastmile_qr_scan"}, "is_reserved": 0}, {"lon": -77.04365333333334, "bike_id": "6f3b672525e153aaacf06f3aabde62e4", "lat": 38.921684, "fusion_lon": 0.0, "fusion_lat": 0.0, "type": "electric_scooter", "name": "6f3b672525e153aaacf06f3aabde62e4", "is_disabled": 0, "rental_uris": {"ios": "https://dc.lft.to/lastmile_qr_scan", "android": "https://dc.lft.to/lastmile_qr_scan"}, "is_reserved": 0}, {"lon": -77.038601, "bike_id": "5152c70a1b1701fc9e194fba05f03443", "lat": 38.90772283333333, "fusion_lon": 0.0, "fusion_lat": 0.0, "type": "electric_scooter", "name": "5152c70a1b1701fc9e194fba05f03443", "is_disabled": 0, "rental_uris": {"ios": "https://dc.lft.to/lastmile_qr_scan", "android": "https://dc.lft.to/lastmile_qr_scan"}, "is_reserved": 0}, {"lon": -77.03052183333334, "bike_id": "96778cc61deb28f62ae4c6e40d0cdfda", "lat": 38.9079975, "fusion_lon": 0.0, "fusion_lat": 0.0, "type": "electric_scooter", "name": "96778cc61deb28f62ae4c6e40d0cdfda", "is_disabled": 0, "rental_uris": {"ios": "https://dc.lft.to/lastmile_qr_scan", "android": "https://dc.lft.to/lastmile_qr_scan"}, "is_reserved": 0}, {"lon": -76.994872, "bike_id": "e07c751b2378dcc7738063542488637a", "lat": 38.915745333333334, "fusion_lon": 0.0, "fusion_lat": 0.0, "type": "electric_scooter", "name": "e07c751b2378dcc7738063542488637a", "is_disabled": 0, "rental_uris": {"ios": "https://dc.lft.to/lastmile_qr_scan", "android": "https://dc.lft.to/lastmile_qr_scan"}, "is_reserved": 0}, {"lon": -76.98592133333334, "bike_id": "4a918ceaf56c6b9e60965a73cbe73eb9", "lat": 38.908190166666664, "fusion_lon": 0.0, "fusion_lat": 0.0, "type": "electric_scooter", "name": "4a918ceaf56c6b9e60965a73cbe73eb9", "is_disabled": 0, "rental_uris": {"ios": "https://dc.lft.to/lastmile_qr_scan", "android": "https://dc.lft.to/lastmile_qr_scan"}, "is_reserved": 0}, {"lon": -76.98254316666667, "bike_id": "084bbd0afb12b650db9f78d8272ba240", "lat": 38.90855483333333, "fusion_lon": 0.0, "fusion_lat": 0.0, "type": "electric_scooter", "name": "084bbd0afb12b650db9f78d8272ba240", "is_disabled": 0, "rental_uris": {"ios": "https://dc.lft.to/lastmile_qr_scan", "android": "https://dc.lft.to/lastmile_qr_scan"}, "is_reserved": 0}, {"lon": -76.94439016666666, "bike_id": "b7ebf500b6111dcb5ebfcf5d3e41b170", "lat": 38.90045633333333, "fusion_lon": 0.0, "fusion_lat": 0.0, "type": "electric_scooter", "name": "b7ebf500b6111dcb5ebfcf5d3e41b170", "is_disabled": 0, "rental_uris": {"ios": "https://dc.lft.to/lastmile_qr_scan", "android": "https://dc.lft.to/lastmile_qr_scan"}, "is_reserved": 0}, {"lon": -77.007913, "bike_id": "f680f2a118b8acaedbc401261b6be560", "lat": 38.89668266666666, "fusion_lon": 0.0, "fusion_lat": 0.0, "type": "electric_scooter", "name": "f680f2a118b8acaedbc401261b6be560", "is_disabled": 0, "rental_uris": {"ios": "https://dc.lft.to/lastmile_qr_scan", "android": "https://dc.lft.to/lastmile_qr_scan"}, "is_reserved": 0}, {"lon": -76.99407983333333, "bike_id": "81f9a261538a44cafad60139cb09f6fe", "lat": 38.83143316666666, "fusion_lon": 0.0, "fusion_lat": 0.0, "type": "electric_bike", "name": "81f9a261538a44cafad60139cb09f6fe", "is_disabled": 0, "rental_uris": {"ios": "https://dc.lft.to/lastmile_qr_scan", "android": "https://dc.lft.to/lastmile_qr_scan"}, "is_reserved": 0}, {"lon": -77.03662566666667, "bike_id": "877902b41ab745383b578d0aec061900", "lat": 38.917561, "fusion_lon": 0.0, "fusion_lat": 0.0, "type": "electric_scooter", "name": "877902b41ab745383b578d0aec061900", "is_disabled": 0, "rental_uris": {"ios": "https://dc.lft.to/lastmile_qr_scan", "android": "https://dc.lft.to/lastmile_qr_scan"}, "is_reserved": 0}, {"lon": -77.01553283333334, "bike_id": "ff97a4f0915d412354b0b376959e3729", "lat": 38.8917335, "fusion_lon": 0.0, "fusion_lat": 0.0, "type": "electric_scooter", "name": "ff97a4f0915d412354b0b376959e3729", "is_disabled": 0, "rental_uris": {"ios": "https://dc.lft.to/lastmile_qr_scan", "android": "https://dc.lft.to/lastmile_qr_scan"}, "is_reserved": 0}, {"lon": -77.10096383333334, "bike_id": "bfc8256174c1196718c4f4881a57482b", "lat": 38.959568, "fusion_lon": 0.0, "fusion_lat": 0.0, "type": "electric_bike", "name": "bfc8256174c1196718c4f4881a57482b", "is_disabled": 0, "rental_uris": {"ios": "https://dc.lft.to/lastmile_qr_scan", "android": "https://dc.lft.to/lastmile_qr_scan"}, "is_reserved": 0}, {"lon": -76.93354266666667, "bike_id": "044ca35fd6f3ceddcd1ab4357662bbb9", "lat": 38.899199833333334, "fusion_lon": 0.0, "fusion_lat": 0.0, "type": "electric_scooter", "name": "044ca35fd6f3ceddcd1ab4357662bbb9", "is_disabled": 0, "rental_uris": {"ios": "https://dc.lft.to/lastmile_qr_scan", "android": "https://dc.lft.to/lastmile_qr_scan"}, "is_reserved": 0}, {"lon": -77.01156983333334, "bike_id": "3fd2121426542923e697583678581fd6", "lat": 38.914106, "fusion_lon": 0.0, "fusion_lat": 0.0, "type": "electric_scooter", "name": "3fd2121426542923e697583678581fd6", "is_disabled": 0, "rental_uris": {"ios": "https://dc.lft.to/lastmile_qr_scan", "android": "https://dc.lft.to/lastmile_qr_scan"}, "is_reserved": 0}, {"lon": -76.98495783333334, "bike_id": "b2ff950e5189238a48b0c7b0894231a2", "lat": 38.920122166666665, "fusion_lon": 0.0, "fusion_lat": 0.0, "type": "electric_scooter", "name": "b2ff950e5189238a48b0c7b0894231a2", "is_disabled": 0, "rental_uris": {"ios": "https://dc.lft.to/lastmile_qr_scan", "android": "https://dc.lft.to/lastmile_qr_scan"}, "is_reserved": 0}, {"lon": -76.9687935, "bike_id": "d1ecaa0d1e0e6422de56f42d1a91f8b1", "lat": 38.95576466666667, "fusion_lon": 0.0, "fusion_lat": 0.0, "type": "electric_bike", "name": "d1ecaa0d1e0e6422de56f42d1a91f8b1", "is_disabled": 0, "rental_uris": {"ios": "https://dc.lft.to/lastmile_qr_scan", "android": "https://dc.lft.to/lastmile_qr_scan"}, "is_reserved": 0}, {"lon": -77.00973066666667, "bike_id": "81280324b974652c4228070d5839e45a", "lat": 38.897358833333335, "fusion_lon": 0.0, "fusion_lat": 0.0, "type": "electric_scooter", "name": "81280324b974652c4228070d5839e45a", "is_disabled": 0, "rental_uris": {"ios": "https://dc.lft.to/lastmile_qr_scan", "android": "https://dc.lft.to/lastmile_qr_scan"}, "is_reserved": 0}, {"lon": -77.02678383333334, "bike_id": "9f50ace3ee1da8be6f3571d6961487e7", "lat": 38.927885, "fusion_lon": 0.0, "fusion_lat": 0.0, "type": "electric_scooter", "name": "9f50ace3ee1da8be6f3571d6961487e7", "is_disabled": 0, "rental_uris": {"ios": "https://dc.lft.to/lastmile_qr_scan", "android": "https://dc.lft.to/lastmile_qr_scan"}, "is_reserved": 0}, {"lon": -77.022886, "bike_id": "acd77570812710712507ba60fc8afabd", "lat": 38.897118, "fusion_lon": 0.0, "fusion_lat": 0.0, "type": "electric_scooter", "name": "acd77570812710712507ba60fc8afabd", "is_disabled": 0, "rental_uris": {"ios": "https://dc.lft.to/lastmile_qr_scan", "android": "https://dc.lft.to/lastmile_qr_scan"}, "is_reserved": 0}, {"lon": -77.02544666666667, "bike_id": "2af4b8e5f6d67b8279c928cf55ef4acc", "lat": 38.9226205, "fusion_lon": 0.0, "fusion_lat": 0.0, "type": "electric_scooter", "name": "2af4b8e5f6d67b8279c928cf55ef4acc", "is_disabled": 0, "rental_uris": {"ios": "https://dc.lft.to/lastmile_qr_scan", "android": "https://dc.lft.to/lastmile_qr_scan"}, "is_reserved": 0}, {"lon": -77.03172366666666, "bike_id": "288fb8a17dcb4aeb20be319e485f9f40", "lat": 38.915803333333336, "fusion_lon": 0.0, "fusion_lat": 0.0, "type": "electric_scooter", "name": "288fb8a17dcb4aeb20be319e485f9f40", "is_disabled": 0, "rental_uris": {"ios": "https://dc.lft.to/lastmile_qr_scan", "android": "https://dc.lft.to/lastmile_qr_scan"}, "is_reserved": 0}, {"lon": -77.1157555, "bike_id": "09f753a755d345148c94b628b853aa9f", "lat": 38.993494, "fusion_lon": 0.0, "fusion_lat": 0.0, "type": "electric_bike", "name": "09f753a755d345148c94b628b853aa9f", "is_disabled": 0, "rental_uris": {"ios": "https://dc.lft.to/lastmile_qr_scan", "android": "https://dc.lft.to/lastmile_qr_scan"}, "is_reserved": 0}, {"lon": -77.014795, "bike_id": "31a12b3dfb9ef0cfe894253518328220", "lat": 38.9588335, "fusion_lon": 0.0, "fusion_lat": 0.0, "type": "electric_scooter", "name": "31a12b3dfb9ef0cfe894253518328220", "is_disabled": 0, "rental_uris": {"ios": "https://dc.lft.to/lastmile_qr_scan", "android": "https://dc.lft.to/lastmile_qr_scan"}, "is_reserved": 0}, {"lon": -77.03255516666667, "bike_id": "ada67652ab53fc3702bd86384a957425", "lat": 38.9095955, "fusion_lon": 0.0, "fusion_lat": 0.0, "type": "electric_scooter", "name": "ada67652ab53fc3702bd86384a957425", "is_disabled": 0, "rental_uris": {"ios": "https://dc.lft.to/lastmile_qr_scan", "android": "https://dc.lft.to/lastmile_qr_scan"}, "is_reserved": 0}, {"lon": -77.138951, "bike_id": "569938a954f79189969b5b4d27895f91", "lat": 38.89667083333333, "fusion_lon": 0.0, "fusion_lat": 0.0, "type": "electric_bike", "name": "569938a954f79189969b5b4d27895f91", "is_disabled": 0, "rental_uris": {"ios": "https://dc.lft.to/lastmile_qr_scan", "android": "https://dc.lft.to/lastmile_qr_scan"}, "is_reserved": 0},