{"data": {"bikes": [{"is_disabled": 0, "fusion_lon": 0.0, "fusion_lat": 0.0, "lat": 38.92821566666667, "type": "electric_scooter", "lon": -77.01409666666666, "bike_id": "8189951126873dc30990f186bb0b9b6b", "rental_uris": {"android": "https://dc.lft.to/lastmile_qr_scan", "ios": "https://dc.lft.to/lastmile_qr_scan"}, "name": "8189951126873dc30990f186bb0b9b6b", "is_reserved": 0}, {"is_disabled": 0, "fusion_lon": 0.0, "fusion_lat": 0.0, "lat": 38.918412000000004, "type": "electric_scooter", "lon": -77.0253915, "bike_id": "50f1ee95ac3aba5bf32f594c6a065ae1", "rental_uris": {"android": "https://dc.lft.to/lastmile_qr_scan", "ios": "https://dc.lft.to/lastmile_qr_scan"}, "name": "50f1ee95ac3aba5bf32f594c6a065ae1", "is_reserved": 0}, {"is_disabled": 0, "fusion_lon": 0.0, "fusion_lat": 0.0, "lat": 38.9302645, "type": "electric_scooter", "lon": -77.03803766666667, "bike_id": "bf0b3d5fe3df6dfe2f6bbc1b6f35c3f7", "rental_uris": {"android": "https://dc.lft.to/lastmile_qr_scan", "ios": "https://dc.lft.to/lastmile_qr_scan"}, "name": "bf0b3d5fe3df6dfe2f6bbc1b6f35c3f7", "is_reserved": 0}, {"is_disabled": 0, "fusion_lon": 0.0, "fusion_lat": 0.0, "lat": 38.854396, "type": "electric_bike", "lon": -76.90960266666667, "bike_id": "714a4bd0281b99d98e5f5b9ed4fb1d3d", "rental_uris": {"android": "https://dc.lft.to/lastmile_qr_scan", "ios": "https://dc.lft.to/lastmile_qr_scan"}, "name": "714a4bd0281b99d98e5f5b9ed4fb1d3d", "is_reserved": 0}, {"is_disabled": 0, "fusion_lon": 0.0, "fusion_lat": 0.0, "lat": 38.86134633333333, "type": "electric_scooter", "lon": -76.9856965, "bike_id": "42af8be830f956c9679d11bd748ab2af", "rental_uris": {"android": "https://dc.lft.to/lastmile_qr_scan", "ios": "https://dc.lft.to/lastmile_qr_scan"}, "name": "42af8be830f956c9679d11bd748ab2af", "is_reserved": 0}, {"is_disabled": 0, "fusion_lon": 0.0, "fusion_lat": 0.0, "lat": 38.893764, "type": "electric_scooter", "lon": -76.94992516666667, "bike_id": "cacff4ac2ee8e77ee3716f559856fe6f", "rental_uris": {"android": "https://dc.lft.to/lastmile_qr_scan", "ios": "https://dc.lft.to/lastmile_qr_scan"}, "name": "cacff4ac2ee8e77ee3716f559856fe6f", "is_reserved": 0}, {"is_disabled": 0, "fusion_lon": 0.0, "fusion_lat": 0.0, "lat": 38.92733483333333, "type": "electric_scooter", "lon": -77.02244766666666, "bike_id": "6bd253d4b13316ffda65d913107c8ee2", "rental_uris": {"android": "https://dc.lft.to/lastmile_qr_scan", "ios": "https://dc.lft.to/lastmile_qr_scan"}, "name": "6bd253d4b13316ffda65d913107c8ee2", "is_reserved": 0}, {"is_disabled": 0, "fusion_lon": 0.0, "fusion_lat": 0.0, "lat": 38.9330935, "type": "electric_scooter", "lon": -77.0326885, "bike_id": "767ca1f05a9f32c89564f2ca339a7060", "rental_uris": {"android": "https://dc.lft.to/lastmile_qr_scan", "ios": "https://dc.lft.to/lastmile_qr_scan"}, "name": "767ca1f05a9f32c89564f2ca339a7060", "is_reserved": 0}, {"is_disabled": 0, "fusion_lon": 0.0, "fusion_lat": 0.0, "lat": 38.90573033333333, "type": "electric_scooter", "lon": -77.02495066666667, "bike_id": "dc4292e76d4a1b11ca7852cf0c5b110e", "rental_uris": {"android": "https://dc.lft.to/lastmile_qr_scan", "ios": "https://dc.lft.to/lastmile_qr_scan"}, "name": "dc4292e76d4a1b11ca7852cf0c5b110e", "is_reserved": 0}, {"is_disabled": 0, "fusion_lon": 0.0, "fusion_lat": 0.0, "lat": 38.920959333333336, "type": "electric_scooter", "lon": -77.025966, "bike_id": "40798769bce46e076401de70feb28e7d", "rental_uris": {"android": "https://dc.lft.to/lastmile_qr_scan", "ios": "https://dc.lft.to/lastmile_qr_scan"}, "name": "40798769bce46e076401de70feb28e7d", "is_reserved": 0}, {"is_disabled": 0, "fusion_lon": 0.0, "fusion_lat": 0.0, "lat": 38.91986433333334, "type": "electric_scooter", "lon": -77.04168216666666, "bike_id": "48f5b8b085c54af32cf6cf33b7c5d55e", "rental_uris": {"android": "https://dc.lft.to/lastmile_qr_scan", "ios": "https://dc.lft.to/lastmile_qr_scan"}, "name": "48f5b8b085c54af32cf6cf33b7c5d55e", "is_reserved": 0}, {"is_disabled": 0, "fusion_lon": 0.0, "fusion_lat": 0.0, "lat": 38.908385333333335, "type": "electric_scooter", "lon": -77.03467933333333, "bike_id": "94cadd96d46b1158b561ef0f16f33e17", "rental_uris": {"android": "https://dc.lft.to/lastmile_qr_scan", "ios": "https://dc.lft.to/lastmile_qr_scan"}, "name": "94cadd96d46b1158b561ef0f16f33e17", "is_reserved": 0}, {"is_disabled": 0, "fusion_lon": 0.0, "fusion_lat": 0.0, "lat": 38.89578233333334, "type": "electric_bike", "lon": -76.976214, "bike_id": "258c9b5bd3ef5a5a66c244867df20df8", "rental_uris": {"android": "https://dc.lft.to/lastmile_qr_scan", "ios": "https://dc.lft.to/lastmile_qr_scan"}, "name": "258c9b5bd3ef5a5a66c244867df20df8", "is_reserved": 0}, {"is_disabled": 0, "fusion_lon": 0.0, "fusion_lat": 0.0, "lat": 38.88451833333333, "type": "electric_scooter", "lon": -76.95097033333333, "bike_id": "72400fd1ddb5d315b4306dde577e202d", "rental_uris": {"android": "https://dc.lft.to/lastmile_qr_scan", "ios": "https://dc.lft.to/lastmile_qr_scan"}, "name": "72400fd1ddb5d315b4306dde577e202d", "is_reserved": 0}, {"is_disabled": 0, "fusion_lon": 0.0, "fusion_lat": 0.0, "lat": 38.923553, "type": "electric_scooter", "lon": -77.03910683333334, "bike_id": "687541bd7454d91b33df7469459c0524", "rental_uris": {"android": "https://dc.lft.to/lastmile_qr_scan", "ios": "https://dc.lft.to/lastmile_qr_scan"}, "name": "687541bd7454d91b33df7469459c0524", "is_reserved": 0}, {"is_disabled": 0, "fusion_lon": 0.0, "fusion_lat": 0.0, "lat": 38.90687916666667, "type": "electric_scooter", "lon": -77.03777083333334, "bike_id": "a644603c163460c7643bb18741a2d637", "rental_uris": {"android": "https://dc.lft.to/lastmile_qr_scan", "ios": "https://dc.lft.to/lastmile_qr_scan"}, "name": "a644603c163460c7643bb18741a2d637", "is_reserved": 0}, {"is_disabled": 0, "fusion_lon": 0.0, "fusion_lat": 0.0, "lat": 38.90079216666667, "type": "electric_scooter", "lon": -77.0477885, "bike_id": "2a945c739cb36bda56279ea9b0163668", "rental_uris": {"android": "https://dc.lft.to/lastmile_qr_scan", "ios": "https://dc.lft.to/lastmile_qr_scan"}, "name": "2a945c739cb36bda56279ea9b0163668", "is_reserved": 0}, {"is_disabled": 0, "fusion_lon": 0.0, "fusion_lat": 0.0, "lat": 38.908547, "type": "electric_scooter", "lon": -77.04352766666666, "bike_id": "d468788f8428f16274ac5cd29e13778d", "rental_uris": {"android": "https://dc.lft.to/lastmile_qr_scan", "ios": "https://dc.lft.to/lastmile_qr_scan"}, "name": "d468788f8428f16274ac5cd29e13778d", "is_reserved": 0}, {"is_disabled": 0, "fusion_lon": 0.0, "fusion_lat": 0.0, "lat": 38.87717283333333, "type": "electric_scooter", "lon": -77.01766016666667, "bike_id": "1f034af94b2281c92234070a9cebfecb", "rental_uris": {"android": "https://dc.lft.to/lastmile_qr_scan", "ios": "https://dc.lft.to/lastmile_qr_scan"}, "name": "1f034af94b2281c92234070a9cebfecb", "is_reserved": 0}, {"is_disabled": 0, "fusion_lon": 0.0, "fusion_lat": 0.0, "lat": 38.934140666666664, "type": "electric_scooter", "lon": -77.04269316666667, "bike_id": "e28679f774c049f4303bf7b7fd98b3c3", "rental_uris": {"android": "https://dc.lft.to/lastmile_qr_scan", "ios": "https://dc.lft.to/lastmile_qr_scan"}, "name": "e28679f774c049f4303bf7b7fd98b3c3", "is_reserved": 0}, {"is_disabled": 0, "fusion_lon": 0.0, "fusion_lat": 0.0, "lat": 38.92243666666667, "type": "electric_scooter", "lon": -77.036671, "bike_id": "d6bb180b04fba460bf760f250722c857", "rental_uris": {"android": "https://dc.lft.to/lastmile_qr_scan", "ios": "https://dc.lft.to/lastmile_qr_scan"}, "name": "d6bb180b04fba460bf760f250722c857", "is_reserved": 0}, {"is_disabled": 0, "fusion_lon": 0.0, "fusion_lat": 0.0, "lat": 38.9356475, "type": "electric_scooter", "lon": -77.02495616666667, "bike_id": "70c77ba5168f9c68be0d22338f41a914", "rental_uris": {"android": "https://dc.lft.to/lastmile_qr_scan", "ios": "https://dc.lft.to/lastmile_qr_scan"}, "name": "70c77ba5168f9c68be0d22338f41a914", "is_reserved": 0}, {"is_disabled": 0, "fusion_lon": 0.0, "fusion_lat": 0.0, "lat": 38.900495666666664, "type": "electric_scooter", "lon": -77.00198033333334, "bike_id": "3c2faf8a362fcc911f5edba0c34b7934", "rental_uris": {"android": "https://dc.lft.to/lastmile_qr_scan", "ios": "https://dc.lft.to/lastmile_qr_scan"}, "name": "3c2faf8a362fcc911f5edba0c34b7934", "is_reserved": 0}, {"is_disabled": 0, "fusion_lon": 0.0, "fusion_lat": 0.0, "lat": 38.90684533333334, "type": "electric_bike", "lon": -76.95196066666666, "bike_id": "626f5b7376e41e5805c44a3b295160b6", "rental_uris": {"android": "https://dc.lft.to/lastmile_qr_scan", "ios": "https://dc.lft.to/lastmile_qr_scan"}, "name": "626f5b7376e41e5805c44a3b295160b6", "is_reserved": 0}, {"is_disabled": 0, "fusion_lon": 0.0, "fusion_lat": 0.0, "lat": 38.906485333333336, "type": "electric_scooter", "lon": -77.0294915, "bike_id": "1885dea0ce3735d4596947ddfd4d258a", "rental_uris": {"android": "https://dc.lft.to/lastmile_qr_scan", "ios": "https://dc.lft.to/lastmile_qr_scan"}, "name": "1885dea0ce3735d4596947ddfd4d258a", "is_reserved": 0}, {"is_disabled": 0, "fusion_lon": 0.0, "fusion_lat": 0.0, "lat": 38.885088833333334, "type": "electric_scooter", "lon": -76.99852016666667, "bike_id": "41f1dccdc6d464233294b45c6281d64b", "rental_uris": {"android": "https://dc.lft.to/lastmile_qr_scan", "ios": "https://dc.lft.to/lastmile_qr_scan"}, "name": "41f1dccdc6d464233294b45c6281d64b", "is_reserved": 0}, {"is_disabled": 0, "fusion_lon": 0.0, "fusion_lat": 0.0, "lat": 38.880226, "type": "electric_scooter", "lon": -76.93117083333334, "bike_id": "26beb324a4e493952184fd095443d015", "rental_uris": {"android": "https://dc.lft.to/lastmile_qr_scan", "ios": "https://dc.lft.to/lastmile_qr_scan"}, "name": "26beb324a4e493952184fd095443d015", "is_reserved": 0}, {"is_disabled": 0, "fusion_lon": 0.0, "fusion_lat": 0.0, "lat": 38.905818833333335, "type": "electric_scooter", "lon": -77.0238455, "bike_id": "5959f05d0a0d7487948daea54b0afe4b", "rental_uris": {"android": "https://dc.lft.to/lastmile_qr_scan", "ios": "https://dc.lft.to/lastmile_qr_scan"}, "name": "5959f05d0a0d7487948daea54b0afe4b", "is_reserved": 0}, {"is_disabled": 0, "fusion_lon": 0.0, "fusion_lat": 0.0, "lat": 38.9203485, "type": "electric_scooter", "lon": -77.0258595, "bike_id": "f4f0e61013eb13851c87a69fb9eb5c4f", "rental_uris": {"android": "https://dc.lft.to/lastmile_qr_scan", "ios": "https://dc.lft.to/lastmile_qr_scan"}, "name": "f4f0e61013eb13851c87a69fb9eb5c4f", "is_reserved": 0}, {"is_disabled": 0, "fusion_lon": 0.0, "fusion_lat": 0.0, "lat": 38.91539916666667, "type": "electric_scooter", "lon": -77.03215066666667, "bike_id": "1bf25a9de610047bda2a4168c9e81c42", "rental_uris": {"android": "https://dc.lft.to/lastmile_qr_scan", "ios": "https://dc.lft.to/lastmile_qr_scan"}, "name": "1bf25a9de610047bda2a4168c9e81c42", "is_reserved": 0}, {"is_disabled": 0, "fusion_lon": 0.0, "fusion_lat": 0.0, "lat": 38.89534866666666, "type": "electric_scooter", "lon": -77.0284345, "bike_id": "509bae38ce6bc2a54b7029b8165ea092", "rental_uris": {"android": "https://dc.lft.to/lastmile_qr_scan", "ios": "https://dc.lft.to/lastmile_qr_scan"}, "name": "509bae38ce6bc2a54b7029b8165ea092", "is_reserved": 0}, {"is_disabled": 0, "fusion_lon": 0.0, "fusion_lat": 0.0, "lat": 38.85334183333333, "type": "electric_scooter", "lon": -76.96598916666667, "bike_id": "fd4f53729a9cf6929fd7f6129bbb2115", "rental_uris": {"android": "https://dc.lft.to/lastmile_qr_scan", "ios": "https://dc.lft.to/lastmile_qr_scan"}, "name": "fd4f53729a9cf6929fd7f6129bbb2115", "is_reserved": 0}, {"is_disabled": 0, "fusion_lon": 0.0, "fusion_lat": 0.0, "lat": 38.98831216666667, "type": "electric_bike", "lon": -76.987451, "bike_id": "52f7c133fcbf2cb3b6a768bbf306c75a", "rental_uris": {"android": "https://dc.lft.to/lastmile_qr_scan", "ios": "https://dc.lft.to/lastmile_qr_scan"}, "name": "52f7c133fcbf2cb3b6a768bbf306c75a", "is_reserved": 0}, {"is_disabled": 0, "fusion_lon": 0.0, "fusion_lat": 0.0, "lat": 38.876635666666665, "type": "electric_scooter", "lon": -77.0081665, "bike_id": "aca480e00761adfb20bef38642b2038f", "rental_uris": {"android": "https://dc.lft.to/lastmile_qr_scan", "ios": "https://dc.lft.to/lastmile_qr_scan"}, "name": "aca480e00761adfb20bef38642b2038f", "is_reserved": 0}, {"is_disabled": 0, "fusion_lon": 0.0, "fusion_lat": 0.0, "lat": 38.892078, "type": "electric_bike", "lon": -76.985526, "bike_id": "ef7d5d3d4c7e13e3f7322c5e5db61e95", "rental_uris": {"android": "https://dc.lft.to/lastmile_qr_scan", "ios": "https://dc.lft.to/lastmile_qr_scan"}, "name": "ef7d5d3d4c7e13e3f7322c5e5db61e95", "is_reserved": 0}, {"is_disabled": 0, "fusion_lon": 0.0, "fusion_lat": 0.0, "lat": 38.8983465, "type": "electric_scooter", "lon": -77.02943716666667, "bike_id": "77c1941c582606c1d906c78fdfcc2fd3", "rental_uris": {"android": "https://dc.lft.to/lastmile_qr_scan", "ios": "https://dc.lft.to/lastmile_qr_scan"}, "name": "77c1941c582606c1d906c78fdfcc2fd3", "is_reserved": 0}, {"is_disabled": 0, "fusion_lon": 0.0, "fusion_lat": 0.0, "lat": 38.9172065, "type": "electric_bike", "lon": -77.221176, "bike_id": "0f62b00145aa4989c7df89d055944abf", "rental_uris": {"android": "https://dc.lft.to/lastmile_qr_scan", "ios": "https://dc.lft.to/lastmile_qr_scan"}, "name": "0f62b00145aa4989c7df89d055944abf", "is_reserved": 0}, {"is_disabled": 0, "fusion_lon": 0.0, "fusion_lat": 0.0, "lat": 38.953260666666665, "type": "electric_scooter", "lon": -77.068543, "bike_id": "c132ce0fcaab0028b346ffa449a7e71f", "rental_uris": {"android": "https://dc.lft.to/lastmile_qr_scan", "ios": "https://dc.lft.to/lastmile_qr_scan"}, "name": "c132ce0fcaab0028b346ffa449a7e71f", "is_reserved": 0}, {"is_disabled": 0, "fusion_lon": 0.0, "fusion_lat": 0.0, "lat": 39.038826, "type": "electric_bike", "lon": -77.10913316666667, "bike_id": "4834c94f67a9719a02391687669e4544", "rental_uris": {"android": "https://dc.lft.to/lastmile_qr_scan", "ios": "https://dc.lft.to/lastmile_qr_scan"}, "name": "4834c94f67a9719a02391687669e4544", "is_reserved": 0}, {"is_disabled": 0, "fusion_lon": 0.0, "fusion_lat": 0.0, "lat": 38.86661383333333, "type": "electric_scooter", "lon": -76.9888795, "bike_id": "26317510c92cc72e0f7aae4ad47b8ea7", "rental_uris": {"android": "https://dc.lft.to/lastmile_qr_scan", "ios": "https://dc.lft.to/lastmile_qr_scan"}, "name": "26317510c92cc72e0f7aae4ad47b8ea7", "is_reserved": 0}, {"is_disabled": 0, "fusion_lon": 0.0, "fusion_lat": 0.0, "lat": 38.936741833333336, "type": "electric_bike", "lon": -76.95206016666667, "bike_id": "9e1286da2d9767c5ad244ab1c99d7899", "rental_uris": {"android": "https://dc.lft.to/lastmile_qr_scan", "ios": "https://dc.lft.to/lastmile_qr_scan"}, "name": "9e1286da2d9767c5ad244ab1c99d7899", "is_reserved": 0}, {"is_disabled": 0, "fusion_lon": 0.0, "fusion_lat": 0.0, "lat": 38.897380166666665, "type": "electric_scooter", "lon": -77.003738, "bike_id": "e1d64a44164cb59a2278ac48212c6c00", "rental_uris": {"android": "https://dc.lft.to/lastmile_qr_scan", "ios": "https://dc.lft.to/lastmile_qr_scan"}, "name": "e1d64a44164cb59a2278ac48212c6c00", "is_reserved": 0}, {"is_disabled": 0, "fusion_lon": 0.0, "fusion_lat": 0.0, "lat": 38.956082333333335, "type": "electric_scooter", "lon": -77.0279075, "bike_id": "3fedad74ff398fc3803b8638466e8142", "rental_uris": {"android": "https://dc.lft.to/lastmile_qr_scan", "ios": "https://dc.lft.to/lastmile_qr_scan"}, "name": "3fedad74ff398fc3803b8638466e8142", "is_reserved": 0}, {"is_disabled": 0, "fusion_lon": 0.0, "fusion_lat": 0.0, "lat": 38.93866366666666, "type": "electric_scooter", "lon": -77.02649616666666, "bike_id": "8e3e7d0c596c39d58a7e571f87544dc2", "rental_uris": {"android": "https://dc.lft.to/lastmile_qr_scan", "ios": "https://dc.lft.to/lastmile_qr_scan"}, "name": "8e3e7d0c596c39d58a7e571f87544dc2", "is_reserved": 0}, {"is_disabled": 0, "fusion_lon": 0.0, "fusion_lat": 0.0, "lat": 38.91708916666666, "type": "electric_scooter", "lon": -77.02893516666667, "bike_id": "3942bed95f841d2494155e40739b86c6", "rental_uris": {"android": "https://dc.lft.to/lastmile_qr_scan", "ios": "https://dc.lft.to/lastmile_qr_scan"}, "name": "3942bed95f841d2494155e40739b86c6", "is_reserved": 0}, {"is_disabled": 0, "fusion_lon": 0.0, "fusion_lat": 0.0, "lat": 38.87575283333334, "type": "electric_scooter", "lon": -77.02082916666667, "bike_id": "9b81bd69985852ef298fdd203f5538e4", "rental_uris": {"android": "https://dc.lft.to/lastmile_qr_scan", "ios": "https://dc.lft.to/lastmile_qr_scan"}, "name": "9b81bd69985852ef298fdd203f5538e4", "is_reserved": 0}, {"is_disabled": 0, "fusion_lon": 0.0, "fusion_lat": 0.0, "lat": 38.9168, "type": "electric_scooter", "lon": -77.01583366666667, "bike_id": "4858a86d1eb6aaa21b20118c677dfafe", "rental_uris": {"android": "https://dc.lft.to/lastmile_qr_scan", "ios": "https://dc.lft.to/lastmile_qr_scan"}, "name": "4858a86d1eb6aaa21b20118c677dfafe", "is_reserved": 0}, {"is_disabled": 0, "fusion_lon": 0.0, "fusion_lat": 0.0, "lat": 38.90358283333333, "type": "electric_scooter", "lon": -77.01113383333333, "bike_id": "4fdef65a0a086300d96a818a8062518e", "rental_uris": {"android": "https://dc.lft.to/lastmile_qr_scan", "ios": "https://dc.lft.to/lastmile_qr_scan"}, "name": "4fdef65a0a086300d96a818a8062518e", "is_reserved": 0}, {"is_disabled": 0, "fusion_lon": 0.0, "fusion_lat": 0.0, "lat": 38.90594983333333, "type": "electric_scooter", "lon": -77.02393133333334, "bike_id": "372263409c70ebf18f1f7534132787c1", "rental_uris": {"android": "https://dc.lft.to/lastmile_qr_scan", "ios": "https://dc.lft.to/lastmile_qr_scan"}, "name": "372263409c70ebf18f1f7534132787c1", "is_reserved": 0}, {"is_disabled": 0, "fusion_lon": 0.0, "fusion_lat": 0.0, "lat": 38.9966815, "type": "electric_bike", "lon": -76.991433, "bike_id": "5271f899b666a8a01da369aa03d9eace", "rental_uris": {"android": "https://dc.lft.to/lastmile_qr_scan", "ios": "https://dc.lft.to/lastmile_qr_scan"}, "name": "5271f899b666a8a01da369aa03d9eace", "is_reserved": 0}, {"is_disabled": 0, "fusion_lon": 0.0, "fusion_lat": 0.0, "lat": 38.8984125, "type": "electric_scooter", "lon": -77.022218, "bike_id": "c00c46ee83540512df433ce1822b4d83", "rental_uris": {"android": "https://dc.lft.to/lastmile_qr_scan", "ios": "https://dc.lft.to/lastmile_qr_scan"}, "name": "c00c46ee83540512df433ce1822b4d83", "is_reserved": 0}, {"is_disabled": 0, "fusion_lon": 0.0, "fusion_lat": 0.0, "lat": 38.9266565, "type": "electric_scooter", "lon": -77.0227815, "bike_id": "e3ea771e2aeaadd30115180e862b2caa", "rental_uris": {"android": "https://dc.lft.to/lastmile_qr_scan", "ios": "https://dc.lft.to/lastmile_qr_scan"}, "name": "e3ea771e2aeaadd30115180e862b2caa", "is_reserved": 0}, {"is_disabled": 0, "fusion_lon": 0.0, "fusion_lat": 0.0, "lat": 38.90954283333333, "type": "electric_scooter", "lon": -77.02719866666666, "bike_id": "c3c69f78b35f5b076fc6546a18f66b30", "rental_uris": {"android": "https://dc.lft.to/lastmile_qr_scan", "ios": "https://dc.lft.to/lastmile_qr_scan"}, "name": "c3c69f78b35f5b076fc6546a18f66b30", "is_reserved": 0}, {"is_disabled": 0, "fusion_lon": 0.0, "fusion_lat": 0.0, "lat": 38.9021385, "type": "electric_scooter", "lon": -77.04819883333333, "bike_id": "6612f0cafee3751d8df89779bd5df725", "rental_uris": {"android": "https://dc.lft.to/lastmile_qr_scan", "ios": "https://dc.lft.to/lastmile_qr_scan"}, "name": "6612f0cafee3751d8df89779bd5df725", "is_reserved": 0}, {"is_disabled": 0, "fusion_lon": 0.0, "fusion_lat": 0.0, "lat": 38.925527333333335, "type": "electric_scooter", "lon": -77.0530495, "bike_id": "a5d03ce8f1309496870bec4765e518b4", "rental_uris": {"android": "https://dc.lft.to/lastmile_qr_scan", "ios": "https://dc.lft.to/lastmile_qr_scan"}, "name": "a5d03ce8f1309496870bec4765e518b4", "is_reserved": 0}, {"is_disabled": 0, "fusion_lon": 0.0, "fusion_lat": 0.0, "lat": 38.93487983333333, "type": "electric_scooter", "lon": -77.03286416666667, "bike_id": "f6a7367e81942eb7f09c9de7e5269837", "rental_uris": {"android": "https://dc.lft.to/lastmile_qr_scan", "ios": "https://dc.lft.to/lastmile_qr_scan"}, "name": "f6a7367e81942eb7f09c9de7e5269837", "is_reserved": 0}, {"is_disabled": 0, "fusion_lon": 0.0, "fusion_lat": 0.0, "lat": 38.90375983333333, "type": "electric_scooter", "lon": -77.01773866666667, "bike_id": "4932af96697d5515b1c08d730f3b0d3d", "rental_uris": {"android": "https://dc.lft.to/lastmile_qr_scan", "ios": "https://dc.lft.to/lastmile_qr_scan"}, "name": "4932af96697d5515b1c08d730f3b0d3d", "is_reserved": 0}, {"is_disabled": 0, "fusion_lon": 0.0, "fusion_lat": 0.0, "lat": 38.82873433333334, "type": "electric_bike", "lon": -77.11230366666666, "bike_id": "52661013436e2a81bf35e017a82bc5eb", "rental_uris": {"android": "https://dc.lft.to/lastmile_qr_scan", "ios": "https://dc.lft.to/lastmile_qr_scan"}, "name": "52661013436e2a81bf35e017a82bc5eb", "is_reserved": 0}, {"is_disabled": 0, "fusion_lon": 0.0, "fusion_lat": 0.0, "lat": 38.9014855, "type": "electric_scooter", "lon": -77.02189633333333, "bike_id": "b67b2813cd7f53160ac041129cdf38a5", "rental_uris": {"android": "https://dc.lft.to/lastmile_qr_scan", "ios": "https://dc.lft.to/lastmile_qr_scan"}, "name": "b67b2813cd7f53160ac041129cdf38a5", "is_reserved": 0}, {"is_disabled": 0, "fusion_lon": 0.0, "fusion_lat": 0.0, "lat": 38.917074166666666, "type": "electric_scooter", "lon": -77.02844216666666, "bike_id": "5031dfa589fba79739ee5e94395a38dc", "rental_uris": {"android": "https://dc.lft.to/lastmile_qr_scan", "ios": "https://dc.lft.to/lastmile_qr_scan"}, "name": "5031dfa589fba79739ee5e94395a38dc", "is_reserved": 0}, {"is_disabled": 0, "fusion_lon": 0.0, "fusion_lat": 0.0, "lat": 38.9182455, "type": "electric_scooter", "lon": -77.040117, "bike_id": "c5e372c8106691b717471b80866b89bf", "rental_uris": {"android": "https://dc.lft.to/lastmile_qr_scan", "ios": "https://dc.lft.to/lastmile_qr_scan"}, "name": "c5e372c8106691b717471b80866b89bf", "is_reserved": 0}, {"is_disabled": 0, "fusion_lon": 0.0, "fusion_lat": 0.0, "lat": 38.9026105, "type": "electric_scooter", "lon": -77.0611345, "bike_id": "4c8acdbb88958b3f5f8ee53ddf74ad73", "rental_uris": {"android": "https://dc.lft.to/lastmile_qr_scan", "ios": "https://dc.lft.to/lastmile_qr_scan"}, "name": "4c8acdbb88958b3f5f8ee53ddf74ad73", "is_reserved": 0}, {"is_disabled": 0, "fusion_lon": 0.0, "fusion_lat": 0.0, "lat": 38.89739683333333, "type": "electric_scooter", "lon": -77.021518, "bike_id": "8d634cbdc0fa7bad5d15b5c490e95b81", "rental_uris": {"android": "https://dc.lft.to/lastmile_qr_scan", "ios": "https://dc.lft.to/lastmile_qr_scan"}, "name": "8d634cbdc0fa7bad5d15b5c490e95b81", "is_reserved": 0}, {"is_disabled": 0, "fusion_lon": 0.0, "fusion_lat": 0.0, "lat": 39.00018166666667, "type": "electric_bike", "lon": -76.87286566666667, "bike_id": "bf7cadaad95bd413eb133ad209e8d39a", "rental_uris": {"android": "https://dc.lft.to/lastmile_qr_scan", "ios": "https://dc.lft.to/lastmile_qr_scan"}, "name": "bf7cadaad95bd413eb133ad209e8d39a", "is_reserved": 0}, {"is_disabled": 0, "fusion_lon": 0.0, "fusion_lat": 0.0, "lat": 38.90665416666667, "type": "electric_scooter", "lon": -77.04348516666667, "bike_id": "a4e58fc8b14416571b1fb5757bad020a", "rental_uris": {"android": "https://dc.lft.to/lastmile_qr_scan", "ios": "https://dc.lft.to/lastmile_qr_scan"}, "name": "a4e58fc8b14416571b1fb5757bad020a", "is_reserved": 0}, {"is_disabled": 0, "fusion_lon": 0.0, "fusion_lat": 0.0, "lat": 38.911060166666665, "type": "electric_scooter", "lon": -77.002156, "bike_id": "fc4fe65ab39492259d362738b20dfa1f", "rental_uris": {"android": "https://dc.lft.to/lastmile_qr_scan", "ios": "https://dc.lft.to/lastmile_qr_scan"}, "name": "fc4fe65ab39492259d362738b20dfa1f", "is_reserved": 0}, {"is_disabled": 0, "fusion_lon": 0.0, "fusion_lat": 0.0, "lat": 38.985980833333336, "type": "electric_bike", "lon": -77.03751616666666, "bike_id": "7e6b481707dc2e8f9f08c45b7fb62d8a", "rental_uris": {"android": "https://dc.lft.to/lastmile_qr_scan", "ios": "https://dc.lft.to/lastmile_qr_scan"}, "name": "7e6b481707dc2e8f9f08c45b7fb62d8a", "is_reserved": 0}, {"is_disabled": 0, "fusion_lon": 0.0, "fusion_lat": 0.0, "lat": 38.925887833333334, "type": "electric_scooter", "lon": -77.0375865, "bike_id": "9368b10f39a08c225c6df14ee336aa2d", "rental_uris": {"android": "https://dc.lft.to/lastmile_qr_scan", "ios": "https://dc.lft.to/lastmile_qr_scan"}, "name": "9368b10f39a08c225c6df14ee336aa2d", "is_reserved": 0}, {"is_disabled": 0, "fusion_lon": 0.0, "fusion_lat": 0.0, "lat": 38.91278783333333, "type": "electric_scooter", "lon": -77.03853783333334, "bike_id": "c69e83d473a1f47501971469af540c0f", "rental_uris": {"android": "https://dc.lft.to/lastmile_qr_scan", "ios": "https://dc.lft.to/lastmile_qr_scan"}, "name": "c69e83d473a1f47501971469af540c0f", "is_reserved": 0}, {"is_disabled": 0, "fusion_lon": 0.0, "fusion_lat": 0.0, "lat": 38.89781166666667, "type": "electric_scooter", "lon": -77.050182, "bike_id": "677d0012c3904920b4d4aaf650b5daeb", "rental_uris": {"android": "https://dc.lft.to/lastmile_qr_scan", "ios": "https://dc.lft.to/lastmile_qr_scan"}, "name": "677d0012c3904920b4d4aaf650b5daeb", "is_reserved": 0}, {"is_disabled": 0, "fusion_lon": 0.0, "fusion_lat": 0.0, "lat": 38.898371166666664, "type": "electric_scooter", "lon": -76.94634683333334, "bike_id": "f2ef6f2e32b4cd91e7bf305465c52ba2", "rental_uris": {"android": "https://dc.lft.to/lastmile_qr_scan", "ios": "https://dc.lft.to/lastmile_qr_scan"}, "name": "f2ef6f2e32b4cd91e7bf305465c52ba2", "is_reserved": 0}, {"is_disabled": 0, "fusion_lon": 0.0, "fusion_lat": 0.0, "lat": 38.866978333333336, "type": "electric_scooter", "lon": -76.98711183333333, "bike_id": "cb604bd8d0fab66b036e25b5021d6898", "rental_uris": {"android": "https://dc.lft.to/lastmile_qr_scan", "ios": "https://dc.lft.to/lastmile_qr_scan"}, "name": "cb604bd8d0fab66b036e25b5021d6898", "is_reserved": 0}, {"is_disabled": 0, "fusion_lon": 0.0, "fusion_lat": 0.0, "lat": 38.94108416666667, "type": "electric_scooter", "lon": -77.06137733333334, "bike_id": "c8a33711328ce4298f2399aeb54d4a02", "rental_uris": {"android": "https://dc.lft.to/lastmile_qr_scan", "ios": "https://dc.lft.to/lastmile_qr_scan"}, "name": "c8a33711328ce4298f2399aeb54d4a02", "is_reserved": 0}, {"is_disabled": 0, "fusion_lon": 0.0, "fusion_lat": 0.0, "lat": 38.912718166666664, "type": "electric_scooter", "lon": -77.02226716666667, "bike_id": "9144998f404b80fa1f441e1616fd0256", "rental_uris": {"android": "https://dc.lft.to/lastmile_qr_scan", "ios": "https://dc.lft.to/lastmile_qr_scan"}, "name": "9144998f404b80fa1f441e1616fd0256", "is_reserved": 0}, {"is_disabled": 0, "fusion_lon": 0.0, "fusion_lat": 0.0, "lat": 38.89739333333333, "type": "electric_scooter", "lon": -77.04808183333333, "bike_id": "7715caa630880d5c80ea98b1746711de", "rental_uris": {"android": "https://dc.lft.to/lastmile_qr_scan", "ios": "https://dc.lft.to/lastmile_qr_scan"}, "name": "7715caa630880d5c80ea98b1746711de", "is_reserved": 0}, {"is_disabled": 0, "fusion_lon": 0.0, "fusion_lat": 0.0, "lat": 38.924423166666664, "type": "electric_scooter", "lon": -77.02610316666667, "bike_id": "a1cdf4e5bac28a8e008ae3da5345a078", "rental_uris": {"android": "https://dc.lft.to/lastmile_qr_scan", "ios": "https://dc.lft.to/lastmile_qr_scan"}, "name": "a1cdf4e5bac28a8e008ae3da5345a078", "is_reserved": 0}, {"is_disabled": 0, "fusion_lon": 0.0, "fusion_lat": 0.0, "lat": 38.906543666666664, "type": "electric_scooter", "lon": -77.0088975, "bike_id": "3d0c7c03489b9098e40ac5714a3f17e5", "rental_uris": {"android": "https://dc.lft.to/lastmile_qr_scan", "ios": "https://dc.lft.to/lastmile_qr_scan"}, "name": "3d0c7c03489b9098e40ac5714a3f17e5", "is_reserved": 0}, {"is_disabled": 0, "fusion_lon": 0.0, "fusion_lat": 0.0, "lat": 38.967312166666666, "type": "electric_scooter", "lon": -77.02764083333334, "bike_id": "adfe2008d105616199a9b8ac31e80072", "rental_uris": {"android": "https://dc.lft.to/lastmile_qr_scan", "ios": "https://dc.lft.to/lastmile_qr_scan"}, "name": "adfe2008d105616199a9b8ac31e80072", "is_reserved": 0}, {"is_disabled": 0, "fusion_lon": 0.0, "fusion_lat": 0.0, "lat": 38.920891, "type": "electric_scooter", "lon": -77.034885, "bike_id": "1b02497bdc40166d247bb3c819026820", "rental_uris": {"android": "https://dc.lft.to/lastmile_qr_scan", "ios": "https://dc.lft.to/lastmile_qr_scan"}, "name": "1b02497bdc40166d247bb3c819026820", "is_reserved": 0}, {"is_disabled": 0, "fusion_lon": 0.0, "fusion_lat": 0.0, "lat": 38.92389033333333, "type": "electric_scooter", "lon": -77.02909916666667, "bike_id": "8e5efd4f26c11c86a545fe12a158d792", "rental_uris": {"android": "https://dc.lft.to/lastmile_qr_scan", "ios": "https://dc.lft.to/lastmile_qr_scan"}, "name": "8e5efd4f26c11c86a545fe12a158d792", "is_reserved": 0}, {"is_disabled": 0, "fusion_lon": 0.0, "fusion_lat": 0.0, "lat": 38.912198, "type": "electric_scooter", "lon": -77.02723766666666, "bike_id": "3c9b32c391de7d43711caf64d0c907a0", "rental_uris": {"android": "https://dc.lft.to/lastmile_qr_scan", "ios": "https://dc.lft.to/lastmile_qr_scan"}, "name": "3c9b32c391de7d43711caf64d0c907a0", "is_reserved": 0}, {"is_disabled": 0, "fusion_lon": 0.0, "fusion_lat": 0.0, "lat": 38.92117616666667, "type": "electric_scooter", "lon": -77.04392216666666, "bike_id": "cf493ffca955361fe6223ca46df152ee", "rental_uris": {"android": "https://dc.lft.to/lastmile_qr_scan", "ios": "https://dc.lft.to/lastmile_qr_scan"}, "name": "cf493ffca955361fe6223ca46df152ee", "is_reserved": 0}, {"is_disabled": 0, "fusion_lon": 0.0, "fusion_lat": 0.0, "lat": 38.89531233333334, "type": "electric_scooter", "lon": -77.03208466666666, "bike_id": "2aba633d5d16a9a6648497dad3fa2878", "rental_uris": {"android": "https://dc.lft.to/lastmile_qr_scan", "ios": "https://dc.lft.to/lastmile_qr_scan"}, "name": "2aba633d5d16a9a6648497dad3fa2878", "is_reserved": 0}, {"is_disabled": 0, "fusion_lon": 0.0, "fusion_lat": 0.0, "lat": 38.846235, "type": "electric_scooter", "lon": -76.99630333333333, "bike_id": "ffded10873cf134f89dd496be47e930f", "rental_uris": {"android": "https://dc.lft.to/lastmile_qr_scan", "ios": "https://dc.lft.to/lastmile_qr_scan"}, "name": "ffded10873cf134f89dd496be47e930f", "is_reserved": 0}, {"is_disabled": 0, "fusion_lon": 0.0, "fusion_lat": 0.0, "lat": 38.9087045, "type": "electric_scooter", "lon": -77.03011716666667, "bike_id": "c3f43aef5c68b39cd3a60ff19923a0d6", "rental_uris": {"android": "https://dc.lft.to/lastmile_qr_scan", "ios": "https://dc.lft.to/lastmile_qr_scan"}, "name": "c3f43aef5c68b39cd3a60ff19923a0d6", "is_reserved": 0}, {"is_disabled": 0, "fusion_lon": 0.0, "fusion_lat": 0.0, "lat": 38.894251833333335, "type": "electric_scooter", "lon": -76.9122125, "bike_id": "1f045df8b33ef7edf1029f3547a720ba", "rental_uris": {"android": "https://dc.lft.to/lastmile_qr_scan", "ios": "https://dc.lft.to/lastmile_qr_scan"}, "name": "1f045df8b33ef7edf1029f3547a720ba", "is_reserved": 0}, {"is_disabled": 0, "fusion_lon": 0.0, "fusion_lat": 0.0, "lat": 38.9371, "type": "electric_scooter", "lon": -77.0610725, "bike_id": "ad4f15bea8c5dea0e0a9dfbea695e710", "rental_uris": {"android": "https://dc.lft.to/lastmile_qr_scan", "ios": "https://dc.lft.to/lastmile_qr_scan"}, "name": "ad4f15bea8c5dea0e0a9dfbea695e710", "is_reserved": 0}, {"is_disabled": 0, "fusion_lon": 0.0, "fusion_lat": 0.0, "lat": 38.838151333333336, "type": "electric_scooter", "lon": -77.0043625, "bike_id": "522c210ad015a60a7ca7491f91da891a", "rental_uris": {"android": "https://dc.lft.to/lastmile_qr_scan", "ios": "https://dc.lft.to/lastmile_qr_scan"}, "name": "522c210ad015a60a7ca7491f91da891a", "is_reserved": 0}, {"is_disabled": 0, "fusion_lon": 0.0, "fusion_lat": 0.0, "lat": 38.9207955, "type": "electric_scooter", "lon": -77.0241025, "bike_id": "81610e841145af5f31da4871decedd31", "rental_uris": {"android": "https://dc.lft.to/lastmile_qr_scan", "ios": "https://dc.lft.to/lastmile_qr_scan"}, "name": "81610e841145af5f31da4871decedd31", "is_reserved": 0}, {"is_disabled": 0, "fusion_lon": 0.0, "fusion_lat": 0.0, "lat": 38.9370945, "type": "electric_scooter", "lon": -77.02438033333334, "bike_id": "df266bc70864b77d2fa97ab0c750d39f", "rental_uris": {"android": "https://dc.lft.to/lastmile_qr_scan", "ios": "https://dc.lft.to/lastmile_qr_scan"}, "name": "df266bc70864b77d2fa97ab0c750d39f", "is_reserved": 0}, {"is_disabled": 0, "fusion_lon": 0.0, "fusion_lat": 0.0, "lat": 38.89555433333334, "type": "electric_scooter", "lon": -77.01106916666667, "bike_id": "6ab57f10e54ce77821fdf27bb1a0e61f", "rental_uris": {"android": "https://dc.lft.to/lastmile_qr_scan", "ios": "https://dc.lft.to/lastmile_qr_scan"}, "name": "6ab57f10e54ce77821fdf27bb1a0e61f", "is_reserved": 0}, {"is_disabled": 0, "fusion_lon": 0.0, "fusion_lat": 0.0, "lat": 38.892236833333335, "type": "electric_scooter", "lon": -77.04357016666667, "bike_id": "ae81e5a0005930b54042c567053fc7b7", "rental_uris": {"android": "https://dc.lft.to/lastmile_qr_scan", "ios": "https://dc.lft.to/lastmile_qr_scan"}, "name": "ae81e5a0005930b54042c567053fc7b7", "is_reserved": 0}, {"is_disabled": 0, "fusion_lon": 0.0, "fusion_lat": 0.0, "lat": 38.90494316666667, "type": "electric_scooter", "lon": -77.02975366666666, "bike_id": "1930fcf77e3180414fa947df2687f526", "rental_uris": {"android": "https://dc.lft.to/lastmile_qr_scan", "ios": "https://dc.lft.to/lastmile_qr_scan"}, "name": "1930fcf77e3180414fa947df2687f526", "is_reserved": 0}, {"is_disabled": 0, "fusion_lon": 0.0, "fusion_lat": 0.0, "lat": 38.91190483333333, "type": "electric_scooter", "lon": -77.04157983333333, "bike_id": "5ef82fa6623da88252fbb229ade05ada", "rental_uris": {"android": "https://dc.lft.to/lastmile_qr_scan", "ios": "https://dc.lft.to/lastmile_qr_scan"}, "name": "5ef82fa6623da88252fbb229ade05ada", "is_reserved": 0}, {"is_disabled": 0, "fusion_lon": 0.0, "fusion_lat": 0.0, "lat": 38.855482333333335, "type": "electric_bike", "lon": -77.10723466666667, "bike_id": "2b93edf62698e5517a96b902032ce445", "rental_uris": {"android": "https://dc.lft.to/lastmile_qr_scan", "ios": "https://dc.lft.to/lastmile_qr_scan"}, "name": "2b93edf62698e5517a96b902032ce445", "is_reserved": 0}, {"is_disabled": 0, "fusion_lon": 0.0, "fusion_lat": 0.0, "lat": 38.860419666666665, "type": "electric_scooter", "lon": -76.996866, "bike_id": "e4e809e5dc421dc83bd989d08f399a05", "rental_uris": {"android": "https://dc.lft.to/lastmile_qr_scan", "ios": "https://dc.lft.to/lastmile_qr_scan"}, "name": "e4e809e5dc421dc83bd989d08f399a05", "is_reserved": 0}, {"is_disabled": 0, "fusion_lon": 0.0, "fusion_lat": 0.0, "lat": 38.9993685, "type": "electric_bike", "lon": -77.00124766666667, "bike_id": "d95740b4d8efb0f0cc57471c18a36613", "rental_uris": {"android": "https://dc.lft.to/lastmile_qr_scan", "ios": "https://dc.lft.to/lastmile_qr_scan"}, "name": "d95740b4d8efb0f0cc57471c18a36613", "is_reserved": 0}, {"is_disabled": 0, "fusion_lon": 0.0, "fusion_lat": 0.0, "lat": 38.899935, "type": "electric_scooter", "lon": -77.03212683333334, "bike_id": "d739e2df973de50a8450e0a6a9f8aba5", "rental_uris": {"android": "https://dc.lft.to/lastmile_qr_scan", "ios": "https://dc.lft.to/lastmile_qr_scan"}, "name": "d739e2df973de50a8450e0a6a9f8aba5", "is_reserved": 0}, {"is_disabled": 0, "fusion_lon": 0.0, "fusion_lat": 0.0, "lat": 38.8419095, "type": "electric_bike", "lon": -77.0774525, "bike_id": "7a109e2b1c2c192db136d13d1bb7fb38", "rental_uris": {"android": "https://dc.lft.to/lastmile_qr_scan", "ios": "https://dc.lft.to/lastmile_qr_scan"}, "name": "7a109e2b1c2c192db136d13d1bb7fb38", "is_reserved": 0}, {"is_disabled": 0, "fusion_lon": 0.0, "fusion_lat": 0.0, "lat": 38.89506333333333, "type": "electric_scooter", "lon": -76.9487645, "bike_id": "40244c9903631bd32ff3f029b3e99a07", "rental_uris": {"android": "https://dc.lft.to/lastmile_qr_scan", "ios": "https://dc.lft.to/lastmile_qr_scan"}, "name": "40244c9903631bd32ff3f029b3e99a07", "is_reserved": 0}, {"is_disabled": 0, "fusion_lon": 0.0, "fusion_lat": 0.0, "lat": 39.095940666666664, "type": "electric_bike", "lon": -77.14777266666667, "bike_id": "db226402a4e6e29d68dcf712c9025e65", "rental_uris": {"android": "https://dc.lft.to/lastmile_qr_scan", "ios": "https://dc.lft.to/lastmile_qr_scan"}, "name": "db226402a4e6e29d68dcf712c9025e65", "is_reserved": 0}, {"is_disabled": 0, "fusion_lon": 0.0, "fusion_lat": 0.0, "lat": 38.892249, "type": "electric_scooter", "lon": -77.0226195, "bike_id": "77b60865400e8622cc1ceb90cd071e6d", "rental_uris": {"android": "https://dc.lft.to/lastmile_qr_scan", "ios": "https://dc.lft.to/lastmile_qr_scan"}, "name": "77b60865400e8622cc1ceb90cd071e6d", "is_reserved": 0}, {"is_disabled": 0, "fusion_lon": 0.0, "fusion_lat": 0.0, "lat": 38.89912566666667, "type": "electric_scooter", "lon": -76.93351066666666, "bike_id": "ab1c750f015cd693e5e73934373c8a61", "rental_uris": {"android": "https://dc.lft.to/lastmile_qr_scan", "ios": "https://dc.lft.to/lastmile_qr_scan"}, "name": "ab1c750f015cd693e5e73934373c8a61", "is_reserved": 0}, {"is_disabled": 0, "fusion_lon": 0.0, "fusion_lat": 0.0, "lat": 38.915486333333334, "type": "electric_scooter", "lon": -77.012301, "bike_id": "6e870b54dcc3feea84cfb0d3a19ba11e", "rental_uris": {"android": "https://dc.lft.to/lastmile_qr_scan", "ios": "https://dc.lft.to/lastmile_qr_scan"}, "name": "6e870b54dcc3feea84cfb0d3a19ba11e", "is_reserved": 0}, {"is_disabled": 0, "fusion_lon": 0.0, "fusion_lat": 0.0, "lat": 38.9023955, "type": "electric_scooter", "lon": -77.00208416666666, "bike_id": "85df781f9d5e5f55e7fd0b459d3460a0", "rental_uris": {"android": "https://dc.lft.to/lastmile_qr_scan", "ios": "https://dc.lft.to/lastmile_qr_scan"}, "name": "85df781f9d5e5f55e7fd0b459d3460a0", "is_reserved": 0}, {"is_disabled": 0, "fusion_lon": 0.0, "fusion_lat": 0.0, "lat": 38.918844, "type": "electric_scooter", "lon": -77.0417405, "bike_id": "3bbf8e1ba1f9ee42710183c634e6185f", "rental_uris": {"android": "https://dc.lft.to/lastmile_qr_scan", "ios": "https://dc.lft.to/lastmile_qr_scan"}, "name": "3bbf8e1ba1f9ee42710183c634e6185f", "is_reserved": 0}, {"is_disabled": 0, "fusion_lon": 0.0, "fusion_lat": 0.0, "lat": 38.88001383333334, "type": "electric_bike", "lon": -76.91599033333334, "bike_id": "744ed5bce2d6870bafdbe044f2757d97", "rental_uris": {"android": "https://dc.lft.to/lastmile_qr_scan", "ios": "https://dc.lft.to/lastmile_qr_scan"}, "name": "744ed5bce2d6870bafdbe044f2757d97", "is_reserved": 0}, {"is_disabled": 0, "fusion_lon": 0.0, "fusion_lat": 0.0, "lat": 38.8967505, "type": "electric_scooter", "lon": -77.05034866666666, "bike_id": "ed8090bbb3d1431fdf133118d94e52a1", "rental_uris": {"android": "https://dc.lft.to/lastmile_qr_scan", "ios": "https://dc.lft.to/lastmile_qr_scan"}, "name": "ed8090bbb3d1431fdf133118d94e52a1", "is_reserved": 0}, {"is_disabled": 0, "fusion_lon": 0.0, "fusion_lat": 0.0, "lat": 38.956194833333335, "type": "electric_scooter", "lon": -77.03284933333333, "bike_id": "35490c4fe13c69e11de0ae66d50c2cc4", "rental_uris": {"android": "https://dc.lft.to/lastmile_qr_scan", "ios": "https://dc.lft.to/lastmile_qr_scan"}, "name": "35490c4fe13c69e11de0ae66d50c2cc4", "is_reserved": 0}, {"is_disabled": 0, "fusion_lon": 0.0, "fusion_lat": 0.0, "lat": 38.91777916666667, "type": "electric_scooter", "lon": -77.03439716666666, "bike_id": "7147aafba3ea89efa0fe3c9167f2d4f4", "rental_uris": {"android": "https://dc.lft.to/lastmile_qr_scan", "ios": "https://dc.lft.to/lastmile_qr_scan"}, "name": "7147aafba3ea89efa0fe3c9167f2d4f4", "is_reserved": 0}, {"is_disabled": 0, "fusion_lon": 0.0, "fusion_lat": 0.0, "lat": 38.90683466666667, "type": "electric_scooter", "lon": -77.03650533333334, "bike_id": "3eadb7c6ae9354d31f9e053a4d6e421b", "rental_uris": {"android": "https://dc.lft.to/lastmile_qr_scan", "ios": "https://dc.lft.to/lastmile_qr_scan"}, "name": "3eadb7c6ae9354d31f9e053a4d6e421b", "is_reserved": 0}, {"is_disabled": 0, "fusion_lon": 0.0, "fusion_lat": 0.0, "lat": 38.96650016666667, "type": "electric_bike", "lon": -76.930254, "bike_id": "6420bcab16931e8b7fe0a80f443f2bba", "rental_uris": {"android": "https://dc.lft.to/lastmile_qr_scan", "ios": "https://dc.lft.to/lastmile_qr_scan"}, "name": "6420bcab16931e8b7fe0a80f443f2bba", "is_reserved": 0}, {"is_disabled": 0, "fusion_lon": 0.0, "fusion_lat": 0.0, "lat": 38.917879666666664, "type": "electric_scooter", "lon": -77.0231355, "bike_id": "0d71a6edec1dcfbe188aba313e45f014", "rental_uris": {"android": "https://dc.lft.to/lastmile_qr_scan", "ios": "https://dc.lft.to/lastmile_qr_scan"}, "name": "0d71a6edec1dcfbe188aba313e45f014", "is_reserved": 0}, {"is_disabled": 0, "fusion_lon": 0.0, "fusion_lat": 0.0, "lat": 38.90422816666667, "type": "electric_scooter", "lon": -77.02605966666667, "bike_id": "335984fe964e3fa9ae80a50c8c2d8a1e", "rental_uris": {"android": "https://dc.lft.to/lastmile_qr_scan", "ios": "https://dc.lft.to/lastmile_qr_scan"}, "name": "335984fe964e3fa9ae80a50c8c2d8a1e", "is_reserved": 0}, {"is_disabled": 0, "fusion_lon": 0.0, "fusion_lat": 0.0, "lat": 38.95401366666667, "type": "electric_scooter", "lon": -77.02755183333333, "bike_id": "8a4d86e6cac7de737095355fc6af726f", "rental_uris": {"android": "https://dc.lft.to/lastmile_qr_scan", "ios": "https://dc.lft.to/lastmile_qr_scan"}, "name": "8a4d86e6cac7de737095355fc6af726f", "is_reserved": 0}, {"is_disabled": 0, "fusion_lon": 0.0, "fusion_lat": 0.0, "lat": 38.927159, "type": "electric_scooter", "lon": -77.0535875, "bike_id": "ee4b0ce16b6d7b6ad16264cdc154687b", "rental_uris": {"android": "https://dc.lft.to/lastmile_qr_scan", "ios": "https://dc.lft.to/lastmile_qr_scan"}, "name": "ee4b0ce16b6d7b6ad16264cdc154687b", "is_reserved": 0}, {"is_disabled": 0, "fusion_lon": 0.0, "fusion_lat": 0.0, "lat": 38.902596333333335, "type": "electric_scooter", "lon": -77.0181235, "bike_id": "02a2b161c0fd83e17f17662ffc1e923a", "rental_uris": {"android": "https://dc.lft.to/lastmile_qr_scan", "ios": "https://dc.lft.to/lastmile_qr_scan"}, "name": "02a2b161c0fd83e17f17662ffc1e923a", "is_reserved": 0}, {"is_disabled": 0, "fusion_lon": 0.0, "fusion_lat": 0.0, "lat": 38.92791716666667, "type": "electric_scooter", "lon": -77.03109916666666, "bike_id": "96a26587f74ce27038258a85bbeda495", "rental_uris": {"android": "https://dc.lft.to/lastmile_qr_scan", "ios": "https://dc.lft.to/lastmile_qr_scan"}, "name": "96a26587f74ce27038258a85bbeda495", "is_reserved": 0}, {"is_disabled": 0, "fusion_lon": 0.0, "fusion_lat": 0.0, "lat": 38.93543916666667, "type": "electric_scooter", "lon": -77.03410216666667, "bike_id": "6bf07b62c07e07666940dc4750a277c5", "rental_uris": {"android": "https://dc.lft.to/lastmile_qr_scan", "ios": "https://dc.lft.to/lastmile_qr_scan"}, "name": "6bf07b62c07e07666940dc4750a277c5", "is_reserved": 0}, {"is_disabled": 0, "fusion_lon": 0.0, "fusion_lat": 0.0, "lat": 38.9419515, "type": "electric_scooter", "lon": -77.03333166666667, "bike_id": "0399f7999cbbc018b767d4c9d4b5baae", "rental_uris": {"android": "https://dc.lft.to/lastmile_qr_scan", "ios": "https://dc.lft.to/lastmile_qr_scan"}, "name": "0399f7999cbbc018b767d4c9d4b5baae", "is_reserved": 0}, {"is_disabled": 0, "fusion_lon": 0.0, "fusion_lat": 0.0, "lat": 38.908333, "type": "electric_scooter", "lon": -77.04883316666667, "bike_id": "afa41ad52e57b84cae4a9d6c8bfb195c", "rental_uris": {"android": "https://dc.lft.to/lastmile_qr_scan", "ios": "https://dc.lft.to/lastmile_qr_scan"}, "name": "afa41ad52e57b84cae4a9d6c8bfb195c", "is_reserved": 0}, {"is_disabled": 0, "fusion_lon": 0.0, "fusion_lat": 0.0, "lat": 38.91219666666667, "type": "electric_scooter", "lon": -77.02713033333333, "bike_id": "1a2b714d799f604e765580186eff3d34", "rental_uris": {"android": "https://dc.lft.to/lastmile_qr_scan", "ios": "https://dc.lft.to/lastmile_qr_scan"}, "name": "1a2b714d799f604e765580186eff3d34", "is_reserved": 0}, {"is_disabled": 0, "fusion_lon": 0.0, "fusion_lat": 0.0, "lat": 38.85790683333333, "type": "electric_bike", "lon": -76.98756416666667, "bike_id": "becba8eb8e12a1b7ec58518da2259e2f", "rental_uris": {"android": "https://dc.lft.to/lastmile_qr_scan", "ios": "https://dc.lft.to/lastmile_qr_scan"}, "name": "becba8eb8e12a1b7ec58518da2259e2f", "is_reserved": 0}, {"is_disabled": 0, "fusion_lon": 0.0, "fusion_lat": 0.0, "lat": 38.8874495, "type": "electric_scooter", "lon": -77.02572666666667, "bike_id": "8aabc7ea8aff5760a0d0e6aed4614a9b", "rental_uris": {"android": "https://dc.lft.to/lastmile_qr_scan", "ios": "https://dc.lft.to/lastmile_qr_scan"}, "name": "8aabc7ea8aff5760a0d0e6aed4614a9b", "is_reserved": 0}, {"is_disabled": 0, "fusion_lon": 0.0, "fusion_lat": 0.0, "lat": 38.908564, "type": "electric_scooter", "lon": -76.99804983333334, "bike_id": "032ffb9969210f4d434d180e6b6aae45", "rental_uris": {"android": "https://dc.lft.to/lastmile_qr_scan", "ios": "https://dc.lft.to/lastmile_qr_scan"}, "name": "032ffb9969210f4d434d180e6b6aae45", "is_reserved": 0}, {"is_disabled": 0, "fusion_lon": 0.0, "fusion_lat": 0.0, "lat": 38.88119983333333, "type": "electric_scooter", "lon": -77.016703, "bike_id": "599683922aa5770cdec85a4d0737c2ef", "rental_uris": {"android": "https://dc.lft.to/lastmile_qr_scan", "ios": "https://dc.lft.to/lastmile_qr_scan"}, "name": "599683922aa5770cdec85a4d0737c2ef", "is_reserved": 0}, {"is_disabled": 0, "fusion_lon": 0.0, "fusion_lat": 0.0, "lat": 38.90273783333333, "type": "electric_scooter", "lon": -77.0177405, "bike_id": "2361f862bc8cf510af00542b542754e0", "rental_uris": {"android": "https://dc.lft.to/lastmile_qr_scan", "ios": "https://dc.lft.to/lastmile_qr_scan"}, "name": "2361f862bc8cf510af00542b542754e0", "is_reserved": 0}, {"is_disabled": 0, "fusion_lon": 0.0, "fusion_lat": 0.0, "lat": 38.905354333333335, "type": "electric_scooter", "lon": -77.057074, "bike_id": "65e595267f718c08f0430c1cfa835e20", "rental_uris": {"android": "https://dc.lft.to/lastmile_qr_scan", "ios": "https://dc.lft.to/lastmile_qr_scan"}, "name": "65e595267f718c08f0430c1cfa835e20", "is_reserved": 0}, {"is_disabled": 0, "fusion_lon": 0.0, "fusion_lat": 0.0, "lat": 38.92475916666667, "type": "electric_scooter", "lon": -77.0306165, "bike_id": "2798dd4b4fb17c43fc821a13cd359089", "rental_uris": {"android": "https://dc.lft.to/lastmile_qr_scan", "ios": "https://dc.lft.to/lastmile_qr_scan"}, "name": "2798dd4b4fb17c43fc821a13cd359089", "is_reserved": 0}, {"is_disabled": 0, "fusion_lon": 0.0, "fusion_lat": 0.0, "lat": 38.91958316666667, "type": "electric_scooter", "lon": -77.00079333333333, "bike_id": "0fe6727502fbfa63f38f42bb20a4f3a2", "rental_uris": {"android": "https://dc.lft.to/lastmile_qr_scan", "ios": "https://dc.lft.to/lastmile_qr_scan"}, "name": "0fe6727502fbfa63f38f42bb20a4f3a2", "is_reserved": 0}, {"is_disabled": 0, "fusion_lon": 0.0, "fusion_lat": 0.0, "lat": 38.92587733333333, "type": "electric_scooter", "lon": -77.032114, "bike_id": "d0cdf1dc3b2278200aed5d7c1a9a2c45", "rental_uris": {"android": "https://dc.lft.to/lastmile_qr_scan", "ios": "https://dc.lft.to/lastmile_qr_scan"}, "name": "d0cdf1dc3b2278200aed5d7c1a9a2c45", "is_reserved": 0}, {"is_disabled": 0, "fusion_lon": 0.0, "fusion_lat": 0.0, "lat": 38.9087185, "type": "electric_scooter", "lon": -77.02697266666667, "bike_id": "c597f285f55cf346e97767c4cb8eecba", "rental_uris": {"android": "https://dc.lft.to/lastmile_qr_scan", "ios": "https://dc.lft.to/lastmile_qr_scan"}, "name": "c597f285f55cf346e97767c4cb8eecba", "is_reserved": 0}, {"is_disabled": 0, "fusion_lon": 0.0, "fusion_lat": 0.0, "lat": 38.917094666666664, "type": "electric_scooter", "lon": -77.03474516666667, "bike_id": "c51e1d9c7531eecacb670d0cfcd3b631", "rental_uris": {"android": "https://dc.lft.to/lastmile_qr_scan", "ios": "https://dc.lft.to/lastmile_qr_scan"}, "name": "c51e1d9c7531eecacb670d0cfcd3b631", "is_reserved": 0}, {"is_disabled": 0, "fusion_lon": 0.0, "fusion_lat": 0.0, "lat": 38.9006795, "type": "electric_scooter", "lon": -77.01293966666667, "bike_id": "058b58933cb8e7fcef4ca284f0084b22", "rental_uris": {"android": "https://dc.lft.to/lastmile_qr_scan", "ios": "https://dc.lft.to/lastmile_qr_scan"}, "name": "058b58933cb8e7fcef4ca284f0084b22", "is_reserved": 0}, {"is_disabled": 0, "fusion_lon": 0.0, "fusion_lat": 0.0, "lat": 38.880196, "type": "electric_bike", "lon": -76.96073833333334, "bike_id": "135bf9437175281d7e2f2d83cbe241b9", "rental_uris": {"android": "https://dc.lft.to/lastmile_qr_scan", "ios": "https://dc.lft.to/lastmile_qr_scan"}, "name": "135bf9437175281d7e2f2d83cbe241b9", "is_reserved": 0}, {"is_disabled": 0, "fusion_lon": 0.0, "fusion_lat": 0.0, "lat": 38.9195505, "type": "electric_scooter", "lon": -77.016572, "bike_id": "956db307f4224846c765ecf9601692e0", "rental_uris": {"android": "https://dc.lft.to/lastmile_qr_scan", "ios": "https://dc.lft.to/lastmile_qr_scan"}, "name": "956db307f4224846c765ecf9601692e0", "is_reserved": 0}, {"is_disabled": 0, "fusion_lon": 0.0, "fusion_lat": 0.0, "lat": 38.93760066666667, "type": "electric_scooter", "lon": -77.02499566666667, "bike_id": "9233f9314cdfef989e10f42417ffa2dd", "rental_uris": {"android": "https://dc.lft.to/lastmile_qr_scan", "ios": "https://dc.lft.to/lastmile_qr_scan"}, "name": "9233f9314cdfef989e10f42417ffa2dd", "is_reserved": 0}, {"is_disabled": 0, "fusion_lon": 0.0, "fusion_lat": 0.0, "lat": 38.89364616666667, "type": "electric_scooter", "lon": -76.94024916666666, "bike_id": "e04a270f19761d09cd04c32fe85d6310", "rental_uris": {"android": "https://dc.lft.to/lastmile_qr_scan", "ios": "https://dc.lft.to/lastmile_qr_scan"}, "name": "e04a270f19761d09cd04c32fe85d6310", "is_reserved": 0}, {"is_disabled": 0, "fusion_lon": 0.0, "fusion_lat": 0.0, "lat": 38.90100616666667, "type": "electric_scooter", "lon": -77.0316815, "bike_id": "63fa3640b899f1daa675617fc2707085", "rental_uris": {"android": "https://dc.lft.to/lastmile_qr_scan", "ios": "https://dc.lft.to/lastmile_qr_scan"}, "name": "63fa3640b899f1daa675617fc2707085", "is_reserved": 0}, {"is_disabled": 0, "fusion_lon": 0.0, "fusion_lat": 0.0, "lat": 38.92110433333333, "type": "electric_scooter", "lon": -77.04234916666667, "bike_id": "a4827a1ab3280cef2c3a6181470c12d9", "rental_uris": {"android": "https://dc.lft.to/lastmile_qr_scan", "ios": "https://dc.lft.to/lastmile_qr_scan"}, "name": "a4827a1ab3280cef2c3a6181470c12d9", "is_reserved": 0}, {"is_disabled": 0, "fusion_lon": 0.0, "fusion_lat": 0.0, "lat": 38.90687366666667, "type": "electric_bike", "lon": -76.95197783333333, "bike_id": "7acfe1140d9cf5107d9aed30ea03b844", "rental_uris": {"android": "https://dc.lft.to/lastmile_qr_scan", "ios": "https://dc.lft.to/lastmile_qr_scan"}, "name": "7acfe1140d9cf5107d9aed30ea03b844", "is_reserved": 0}, {"is_disabled": 0, "fusion_lon": 0.0, "fusion_lat": 0.0, "lat": 38.92296566666667, "type": "electric_scooter", "lon": -76.99383433333334, "bike_id": "11abb9cfb0a2c265134858b71bfe836a", "rental_uris": {"android": "https://dc.lft.to/lastmile_qr_scan", "ios": "https://dc.lft.to/lastmile_qr_scan"}, "name": "11abb9cfb0a2c265134858b71bfe836a", "is_reserved": 0}, {"is_disabled": 0, "fusion_lon": 0.0, "fusion_lat": 0.0, "lat": 38.932497833333336, "type": "electric_scooter", "lon": -77.0327305, "bike_id": "0acf8e54c4f86dddc8373b4e16a143d9", "rental_uris": {"android": "https://dc.lft.to/lastmile_qr_scan", "ios": "https://dc.lft.to/lastmile_qr_scan"}, "name": "0acf8e54c4f86dddc8373b4e16a143d9", "is_reserved": 0}, {"is_disabled": 0, "fusion_lon": 0.0, "fusion_lat": 0.0, "lat": 38.95784233333333, "type": "electric_bike", "lon": -76.940875, "bike_id": "4ec072a81a167638be842619f4389aad", "rental_uris": {"android": "https://dc.lft.to/lastmile_qr_scan", "ios": "https://dc.lft.to/lastmile_qr_scan"}, "name": "4ec072a81a167638be842619f4389aad", "is_reserved": 0}, {"is_disabled": 0, "fusion_lon": 0.0, "fusion_lat": 0.0, "lat": 38.91745233333333, "type": "electric_scooter", "lon": -77.01712866666666, "bike_id": "1270b9ca7c2d3d9e24cae78329b6f89e", "rental_uris": {"android": "https://dc.lft.to/lastmile_qr_scan", "ios": "https://dc.lft.to/lastmile_qr_scan"}, "name": "1270b9ca7c2d3d9e24cae78329b6f89e", "is_reserved": 0}, {"is_disabled": 0, "fusion_lon": 0.0, "fusion_lat": 0.0, "lat": 38.90689866666666, "type": "electric_bike", "lon": -77.03584216666667, "bike_id": "882f9423093bb568a3d225e283c8147d", "rental_uris": {"android": "https://dc.lft.to/lastmile_qr_scan", "ios": "https://dc.lft.to/lastmile_qr_scan"}, "name": "882f9423093bb568a3d225e283c8147d", "is_reserved": 0}, {"is_disabled": 0, "fusion_lon": 0.0, "fusion_lat": 0.0, "lat": 38.91219783333333, "type": "electric_scooter", "lon": -77.03844633333334, "bike_id": "58964bb1b3c9886d96013ded2cfa131a", "rental_uris": {"android": "https://dc.lft.to/lastmile_qr_scan", "ios": "https://dc.lft.to/lastmile_qr_scan"}, "name": "58964bb1b3c9886d96013ded2cfa131a", "is_reserved": 0}, {"is_disabled": 0, "fusion_lon": 0.0, "fusion_lat": 0.0, "lat": 38.8969825, "type": "electric_scooter", "lon": -77.00502116666667, "bike_id": "f979ccc77884b552aa807a155f7b7f66", "rental_uris": {"android": "https://dc.lft.to/lastmile_qr_scan", "ios": "https://dc.lft.to/lastmile_qr_scan"}, "name": "f979ccc77884b552aa807a155f7b7f66", "is_reserved": 0}, {"is_disabled": 0, "fusion_lon": 0.0, "fusion_lat": 0.0, "lat": 39.058131333333336, "type": "electric_bike", "lon": -77.12624616666666, "bike_id": "fa87d9a0d8cecf79ba0d8e0073ac5a39", "rental_uris": {"android": "https://dc.lft.to/lastmile_qr_scan", "ios": "https://dc.lft.to/lastmile_qr_scan"}, "name": "fa87d9a0d8cecf79ba0d8e0073ac5a39", "is_reserved": 0}, {"is_disabled": 0, "fusion_lon": 0.0, "fusion_lat": 0.0, "lat": 38.92812266666667, "type": "electric_scooter", "lon": -77.02347983333334, "bike_id": "7a4c8dfac94f4a8722be7dd931e176f5", "rental_uris": {"android": "https://dc.lft.to/lastmile_qr_scan", "ios": "https://dc.lft.to/lastmile_qr_scan"}, "name": "7a4c8dfac94f4a8722be7dd931e176f5", "is_reserved": 0}, {"is_disabled": 0, "fusion_lon": 0.0, "fusion_lat": 0.0, "lat": 38.9416395, "type": "electric_bike", "lon": -77.00186883333333, "bike_id": "d0e749967ade78eced944120ede44ba8", "rental_uris": {"android": "https://dc.lft.to/lastmile_qr_scan", "ios": "https://dc.lft.to/lastmile_qr_scan"}, "name": "d0e749967ade78eced944120ede44ba8", "is_reserved": 0}, {"is_disabled": 0, "fusion_lon": 0.0, "fusion_lat": 0.0, "lat": 38.8767435, "type": "electric_bike", "lon": -77.01425983333333, "bike_id": "9194586df582173593901deabc676346", "rental_uris": {"android": "https://dc.lft.to/lastmile_qr_scan", "ios": "https://dc.lft.to/lastmile_qr_scan"}, "name": "9194586df582173593901deabc676346", "is_reserved": 0}, {"is_disabled": 0, "fusion_lon": 0.0, "fusion_lat": 0.0, "lat": 38.9297345, "type": "electric_scooter", "lon": -77.00535466666666, "bike_id": "cbd7a4d3afb21a8976ab92963177a0e9", "rental_uris": {"android": "https://dc.lft.to/lastmile_qr_scan", "ios": "https://dc.lft.to/lastmile_qr_scan"}, "name": "cbd7a4d3afb21a8976ab92963177a0e9", "is_reserved": 0}, {"is_disabled": 0, "fusion_lon": 0.0, "fusion_lat": 0.0, "lat": 38.89230833333333, "type": "electric_scooter", "lon": -77.03183633333333, "bike_id": "b4f29129addb97092ee1982821f41e82", "rental_uris": {"android": "https://dc.lft.to/lastmile_qr_scan", "ios": "https://dc.lft.to/lastmile_qr_scan"}, "name": "b4f29129addb97092ee1982821f41e82", "is_reserved": 0}, {"is_disabled": 0, "fusion_lon": 0.0, "fusion_lat": 0.0, "lat": 38.902137833333335, "type": "electric_scooter", "lon": -76.98214833333333, "bike_id": "9cd05b0f85625a12a901c698c1d2c085", "rental_uris": {"android": "https://dc.lft.to/lastmile_qr_scan", "ios": "https://dc.lft.to/lastmile_qr_scan"}, "name": "9cd05b0f85625a12a901c698c1d2c085", "is_reserved": 0}, {"is_disabled": 0, "fusion_lon": 0.0, "fusion_lat": 0.0, "lat": 38.89849916666667, "type": "electric_scooter", "lon": -77.02920433333334, "bike_id": "91af1e332e9ccc49b856dcc22c1e0da1", "rental_uris": {"android": "https://dc.lft.to/lastmile_qr_scan", "ios": "https://dc.lft.to/lastmile_qr_scan"}, "name": "91af1e332e9ccc49b856dcc22c1e0da1", "is_reserved": 0}, {"is_disabled": 0, "fusion_lon": 0.0, "fusion_lat": 0.0, "lat": 38.91419883333333, "type": "electric_scooter", "lon": -77.037606, "bike_id": "ccfeff460021790be44f9e11f664567f", "rental_uris": {"android": "https://dc.lft.to/lastmile_qr_scan", "ios": "https://dc.lft.to/lastmile_qr_scan"}, "name": "ccfeff460021790be44f9e11f664567f", "is_reserved": 0}, {"is_disabled": 0, "fusion_lon": 0.0, "fusion_lat": 0.0, "lat": 38.93108566666667, "type": "electric_scooter", "lon": -77.04124883333333, "bike_id": "d5aeb09f0d0b2d1a7e9161ed7c8ef4b4", "rental_uris": {"android": "https://dc.lft.to/lastmile_qr_scan", "ios": "https://dc.lft.to/lastmile_qr_scan"}, "name": "d5aeb09f0d0b2d1a7e9161ed7c8ef4b4", "is_reserved": 0}, {"is_disabled": 0, "fusion_lon": 0.0, "fusion_lat": 0.0, "lat": 38.9112815, "type": "electric_scooter", "lon": -77.031928, "bike_id": "3c096836650fe6279b269125a2ddfdf2", "rental_uris": {"android": "https://dc.lft.to/lastmile_qr_scan", "ios": "https://dc.lft.to/lastmile_qr_scan"}, "name": "3c096836650fe6279b269125a2ddfdf2", "is_reserved": 0}, {"is_disabled": 0, "fusion_lon": 0.0, "fusion_lat": 0.0, "lat": 38.910392333333334, "type": "electric_scooter", "lon": -77.01379483333334, "bike_id": "d7b42a44ce454d8f72ce6f54108fcb00", "rental_uris": {"android": "https://dc.lft.to/lastmile_qr_scan", "ios": "https://dc.lft.to/lastmile_qr_scan"}, "name": "d7b42a44ce454d8f72ce6f54108fcb00", "is_reserved": 0}, {"is_disabled": 0, "fusion_lon": 0.0, "fusion_lat": 0.0, "lat": 38.892235, "type": "electric_scooter", "lon": -77.02263016666667, "bike_id": "3dbe2ff8676944e375f95de698b73143", "rental_uris": {"android": "https://dc.lft.to/lastmile_qr_scan", "ios": "https://dc.lft.to/lastmile_qr_scan"}, "name": "3dbe2ff8676944e375f95de698b73143", "is_reserved": 0}, {"is_disabled": 0, "fusion_lon": 0.0, "fusion_lat": 0.0, "lat": 38.91925033333333, "type": "electric_scooter", "lon": -77.030261, "bike_id": "bf740a96409a0e47742fb2af20481779", "rental_uris": {"android": "https://dc.lft.to/lastmile_qr_scan", "ios": "https://dc.lft.to/lastmile_qr_scan"}, "name": "bf740a96409a0e47742fb2af20481779", "is_reserved": 0}, {"is_disabled": 0, "fusion_lon": 0.0, "fusion_lat": 0.0, "lat": 38.949861, "type": "electric_scooter", "lon": -77.0270585, "bike_id": "d983d17dc434cc7c6cc65f47c19706bf", "rental_uris": {"android": "https://dc.lft.to/lastmile_qr_scan", "ios": "https://dc.lft.to/lastmile_qr_scan"}, "name": "d983d17dc434cc7c6cc65f47c19706bf", "is_reserved": 0}, {"is_disabled": 0, "fusion_lon": 0.0, "fusion_lat": 0.0, "lat": 38.89516066666667, "type": "electric_scooter", "lon": -77.01082, "bike_id": "088928fd46525b6b099d71641a1eec56", "rental_uris": {"android": "https://dc.lft.to/lastmile_qr_scan", "ios": "https://dc.lft.to/lastmile_qr_scan"}, "name": "088928fd46525b6b099d71641a1eec56", "is_reserved": 0}, {"is_disabled": 0, "fusion_lon": 0.0, "fusion_lat": 0.0, "lat": 38.89170466666667, "type": "electric_scooter", "lon": -77.0154755, "bike_id": "c37ecc6be74cec8842d583ce8700859f", "rental_uris": {"android": "https://dc.lft.to/lastmile_qr_scan", "ios": "https://dc.lft.to/lastmile_qr_scan"}, "name": "c37ecc6be74cec8842d583ce8700859f", "is_reserved": 0}, {"is_disabled": 0, "fusion_lon": 0.0, "fusion_lat": 0.0, "lat": 38.8451935, "type": "electric_bike", "lon": -77.0779455, "bike_id": "08941cdb3f5a62017483787f51d2f3ac", "rental_uris": {"android": "https://dc.lft.to/lastmile_qr_scan", "ios": "https://dc.lft.to/lastmile_qr_scan"}, "name": "08941cdb3f5a62017483787f51d2f3ac", "is_reserved": 0}, {"is_disabled": 0, "fusion_lon": 0.0, "fusion_lat": 0.0, "lat": 38.901338333333335, "type": "electric_scooter", "lon": -77.01772916666667, "bike_id": "0b6581884099fbbd54a122f6e926aa32", "rental_uris": {"android": "https://dc.lft.to/lastmile_qr_scan", "ios": "https://dc.lft.to/lastmile_qr_scan"}, "name": "0b6581884099fbbd54a122f6e926aa32", "is_reserved": 0}, {"is_disabled": 0, "fusion_lon": 0.0, "fusion_lat": 0.0, "lat": 38.918303333333334, "type": "electric_scooter", "lon": -77.012161, "bike_id": "03dd6750ff656485e942616e25c9a8ad", "rental_uris": {"android": "https://dc.lft.to/lastmile_qr_scan", "ios": "https://dc.lft.to/lastmile_qr_scan"}, "name": "03dd6750ff656485e942616e25c9a8ad", "is_reserved": 0}, {"is_disabled": 0, "fusion_lon": 0.0, "fusion_lat": 0.0, "lat": 38.92472883333333, "type": "electric_scooter", "lon": -77.02988533333334, "bike_id": "cb3fb2ba2455b51221d82eb2617c02fd", "rental_uris": {"android": "https://dc.lft.to/lastmile_qr_scan", "ios": "https://dc.lft.to/lastmile_qr_scan"}, "name": "cb3fb2ba2455b51221d82eb2617c02fd", "is_reserved": 0}, {"is_disabled": 0, "fusion_lon": 0.0, "fusion_lat": 0.0, "lat": 38.92050016666666, "type": "electric_scooter", "lon": -77.026161, "bike_id": "78a7a9b70d588abc2007429a62c35631", "rental_uris": {"android": "https://dc.lft.to/lastmile_qr_scan", "ios": "https://dc.lft.to/lastmile_qr_scan"}, "name": "78a7a9b70d588abc2007429a62c35631", "is_reserved": 0}, {"is_disabled": 0, "fusion_lon": 0.0, "fusion_lat": 0.0, "lat": 38.908385, "type": "electric_scooter", "lon": -76.99697783333333, "bike_id": "5fde1398489edaf67e68a97a4249ac5b", "rental_uris": {"android": "https://dc.lft.to/lastmile_qr_scan", "ios": "https://dc.lft.to/lastmile_qr_scan"}, "name": "5fde1398489edaf67e68a97a4249ac5b", "is_reserved": 0}, {"is_disabled": 0, "fusion_lon": 0.0, "fusion_lat": 0.0, "lat": 38.9021805, "type": "electric_scooter", "lon": -77.02369733333333, "bike_id": "faa13d05f0b88a7a61feec67c5ef01d2", "rental_uris": {"android": "https://dc.lft.to/lastmile_qr_scan", "ios": "https://dc.lft.to/lastmile_qr_scan"}, "name": "faa13d05f0b88a7a61feec67c5ef01d2", "is_reserved": 0}, {"is_disabled": 0, "fusion_lon": 0.0, "fusion_lat": 0.0, "lat": 38.905894333333336, "type": "electric_scooter", "lon": -77.03356683333334, "bike_id": "2de19695cc92ee2f4872ba1b9ef89f3f", "rental_uris": {"android": "https://dc.lft.to/lastmile_qr_scan", "ios": "https://dc.lft.to/lastmile_qr_scan"}, "name": "2de19695cc92ee2f4872ba1b9ef89f3f", "is_reserved": 0}, {"is_disabled": 0, "fusion_lon": 0.0, "fusion_lat": 0.0, "lat": 38.903636666666664, "type": "electric_scooter", "lon": -77.06268633333333, "bike_id": "49e72a5af1c83df7c51e6040849c51bc", "rental_uris": {"android": "https://dc.lft.to/lastmile_qr_scan", "ios": "https://dc.lft.to/lastmile_qr_scan"}, "name": "49e72a5af1c83df7c51e6040849c51bc", "is_reserved": 0}, {"is_disabled": 0, "fusion_lon": 0.0, "fusion_lat": 0.0, "lat": 38.9185795, "type": "electric_scooter", "lon": -77.04172533333333, "bike_id": "11ba8d090ff993a24f4f6284677e044b", "rental_uris": {"android": "https://dc.lft.to/lastmile_qr_scan", "ios": "https://dc.lft.to/lastmile_qr_scan"}, "name": "11ba8d090ff993a24f4f6284677e044b", "is_reserved": 0}, {"is_disabled": 0, "fusion_lon": 0.0, "fusion_lat": 0.0, "lat": 38.91821683333333, "type": "electric_scooter", "lon": -77.03197966666667, "bike_id": "ae42d1568b14d3a519b4b8e9dcf6e939", "rental_uris": {"android": "https://dc.lft.to/lastmile_qr_scan", "ios": "https://dc.lft.to/lastmile_qr_scan"}, "name": "ae42d1568b14d3a519b4b8e9dcf6e939", "is_reserved": 0}, {"is_disabled": 0, "fusion_lon": 0.0, "fusion_lat": 0.0, "lat": 38.9186015, "type": "electric_bike", "lon": -76.96178683333333, "bike_id": "39c261bc271f7449d42cdc47057015cf", "rental_uris": {"android": "https://dc.lft.to/lastmile_qr_scan", "ios": "https://dc.lft.to/lastmile_qr_scan"}, "name": "39c261bc271f7449d42cdc47057015cf", "is_reserved": 0}, {"is_disabled": 0, "fusion_lon": 0.0, "fusion_lat": 0.0, "lat": 38.932802833333334, "type": "electric_scooter", "lon": -76.99690333333334, "bike_id": "06c12423d9d572bc26f3e797073efd03", "rental_uris": {"android": "https://dc.lft.to/lastmile_qr_scan", "ios": "https://dc.lft.to/lastmile_qr_scan"}, "name": "06c12423d9d572bc26f3e797073efd03", "is_reserved": 0}, {"is_disabled": 0, "fusion_lon": 0.0, "fusion_lat": 0.0, "lat": 38.914708833333336, "type": "electric_scooter", "lon": -77.04396383333334, "bike_id": "55f9408c7c3113bbbf5db797ec6befbc", "rental_uris": {"android": "https://dc.lft.to/lastmile_qr_scan", "ios": "https://dc.lft.to/lastmile_qr_scan"}, "name": "55f9408c7c3113bbbf5db797ec6befbc", "is_reserved": 0}, {"is_disabled": 0, "fusion_lon": 0.0, "fusion_lat": 0.0, "lat": 38.899832833333335, "type": "electric_scooter", "lon": -77.02695016666667, "bike_id": "7945bd8eb17ed0c42b5562efb6b36f5f", "rental_uris": {"android": "https://dc.lft.to/lastmile_qr_scan", "ios": "https://dc.lft.to/lastmile_qr_scan"}, "name": "7945bd8eb17ed0c42b5562efb6b36f5f", "is_reserved": 0}, {"is_disabled": 0, "fusion_lon": 0.0, "fusion_lat": 0.0, "lat": 38.89907933333333, "type": "electric_scooter", "lon": -76.93383083333333, "bike_id": "34af3841eecaf6161004372e914d4da0", "rental_uris": {"android": "https://dc.lft.to/lastmile_qr_scan", "ios": "https://dc.lft.to/lastmile_qr_scan"}, "name": "34af3841eecaf6161004372e914d4da0", "is_reserved": 0}, {"is_disabled": 0, "fusion_lon": 0.0, "fusion_lat": 0.0, "lat": 38.920156666666664, "type": "electric_scooter", "lon": -77.02410633333334, "bike_id": "cd266df57493049cc3c6fcd60b8cc4d7", "rental_uris": {"android": "https://dc.lft.to/lastmile_qr_scan", "ios": "https://dc.lft.to/lastmile_qr_scan"}, "name": "cd266df57493049cc3c6fcd60b8cc4d7", "is_reserved": 0}, {"is_disabled": 0, "fusion_lon": 0.0, "fusion_lat": 0.0, "lat": 38.871433, "type": "electric_scooter", "lon": -76.97892866666666, "bike_id": "b09d47dc4ded028cc5f117efa133c3f8", "rental_uris": {"android": "https://dc.lft.to/lastmile_qr_scan", "ios": "https://dc.lft.to/lastmile_qr_scan"}, "name": "b09d47dc4ded028cc5f117efa133c3f8", "is_reserved": 0}, {"is_disabled": 0, "fusion_lon": 0.0, "fusion_lat": 0.0, "lat": 38.96924833333333, "type": "electric_bike", "lon": -77.02622033333333, "bike_id": "de2f7c4f2c3d57e3783dcc4e9c1cb9e7", "rental_uris": {"android": "https://dc.lft.to/lastmile_qr_scan", "ios": "https://dc.lft.to/lastmile_qr_scan"}, "name": "de2f7c4f2c3d57e3783dcc4e9c1cb9e7", "is_reserved": 0}, {"is_disabled": 0, "fusion_lon": 0.0, "fusion_lat": 0.0, "lat": 38.961180666666664, "type": "electric_bike", "lon": -77.06900266666666, "bike_id": "9cd64f7059e4642dcd7996ea2913e9b5", "rental_uris": {"android": "https://dc.lft.to/lastmile_qr_scan", "ios": "https://dc.lft.to/lastmile_qr_scan"}, "name": "9cd64f7059e4642dcd7996ea2913e9b5", "is_reserved": 0}, {"is_disabled": 0, "fusion_lon": 0.0, "fusion_lat": 0.0, "lat": 38.88736933333333, "type": "electric_scooter", "lon": -77.015375, "bike_id": "101a83aad380bd79376ef9a2976e7ab3", "rental_uris": {"android": "https://dc.lft.to/lastmile_qr_scan", "ios": "https://dc.lft.to/lastmile_qr_scan"}, "name": "101a83aad380bd79376ef9a2976e7ab3", "is_reserved": 0}, {"is_disabled": 0, "fusion_lon": 0.0, "fusion_lat": 0.0, "lat": 38.9005235, "type": "electric_scooter", "lon": -77.0007535, "bike_id": "61972734f9563286fd595c65828d6b28", "rental_uris": {"android": "https://dc.lft.to/lastmile_qr_scan", "ios": "https://dc.lft.to/lastmile_qr_scan"}, "name": "61972734f9563286fd595c65828d6b28", "is_reserved": 0}, {"is_disabled": 0, "fusion_lon": 0.0, "fusion_lat": 0.0, "lat": 38.916938333333334, "type": "electric_scooter", "lon": -77.032188, "bike_id": "83a68d7f1e56131455fb24115d6db8d5", "rental_uris": {"android": "https://dc.lft.to/lastmile_qr_scan", "ios": "https://dc.lft.to/lastmile_qr_scan"}, "name": "83a68d7f1e56131455fb24115d6db8d5", "is_reserved": 0}, {"is_disabled": 0, "fusion_lon": 0.0, "fusion_lat": 0.0, "lat": 38.935646166666665, "type": "electric_scooter", "lon": -77.02969183333333, "bike_id": "95687446452aaceaf226baa22744160f", "rental_uris": {"android": "https://dc.lft.to/lastmile_qr_scan", "ios": "https://dc.lft.to/lastmile_qr_scan"}, "name": "95687446452aaceaf226baa22744160f", "is_reserved": 0}, {"is_disabled": 0, "fusion_lon": 0.0, "fusion_lat": 0.0, "lat": 38.89208633333333, "type": "electric_scooter", "lon": -76.98803433333333, "bike_id": "0a1d818ae2b1a90fdba18e6e0e735d97", "rental_uris": {"android": "https://dc.lft.to/lastmile_qr_scan", "ios": "https://dc.lft.to/lastmile_qr_scan"}, "name": "0a1d818ae2b1a90fdba18e6e0e735d97", "is_reserved": 0}, {"is_disabled": 0, "fusion_lon": 0.0, "fusion_lat": 0.0, "lat": 38.924256166666666, "type": "electric_scooter", "lon": -77.05629283333333, "bike_id": "c45bfbfd717e3c26206942f9d3244b0f", "rental_uris": {"android": "https://dc.lft.to/lastmile_qr_scan", "ios": "https://dc.lft.to/lastmile_qr_scan"}, "name": "c45bfbfd717e3c26206942f9d3244b0f", "is_reserved": 0}, {"is_disabled": 0, "fusion_lon": 0.0, "fusion_lat": 0.0, "lat": 38.90738983333333, "type": "electric_scooter", "lon": -77.0347, "bike_id": "3963124fe4cec912146173de08c3ae14", "rental_uris": {"android": "https://dc.lft.to/lastmile_qr_scan", "ios": "https://dc.lft.to/lastmile_qr_scan"}, "name": "3963124fe4cec912146173de08c3ae14", "is_reserved": 0}, {"is_disabled": 0, "fusion_lon": 0.0, "fusion_lat": 0.0, "lat": 38.9866785, "type": "electric_scooter", "lon": -77.02645816666667, "bike_id": "953138a5511a6837d7da4bfd0b0202d5", "rental_uris": {"android": "https://dc.lft.to/lastmile_qr_scan", "ios": "https://dc.lft.to/lastmile_qr_scan"}, "name": "953138a5511a6837d7da4bfd0b0202d5", "is_reserved": 0}, {"is_disabled": 0, "fusion_lon": 0.0, "fusion_lat": 0.0, "lat": 38.908133666666664, "type": "electric_scooter", "lon": -77.04104683333334, "bike_id": "db9ea2e3a4fa06f565d2df95c9c39bbb", "rental_uris": {"android": "https://dc.lft.to/lastmile_qr_scan", "ios": "https://dc.lft.to/lastmile_qr_scan"}, "name": "db9ea2e3a4fa06f565d2df95c9c39bbb", "is_reserved": 0}, {"is_disabled": 0, "fusion_lon": 0.0, "fusion_lat": 0.0, "lat": 38.91273283333334, "type": "electric_scooter", "lon": -77.02230316666666, "bike_id": "122899b10eaf78f0d95c4de527a8a602", "rental_uris": {"android": "https://dc.lft.to/lastmile_qr_scan", "ios": "https://dc.lft.to/lastmile_qr_scan"}, "name": "122899b10eaf78f0d95c4de527a8a602", "is_reserved": 0}, {"is_disabled": 0, "fusion_lon": 0.0, "fusion_lat": 0.0, "lat": 38.9508765, "type": "electric_bike", "lon": -76.96561416666667, "bike_id": "3a69da6141a755a340d01ca22bf979a2", "rental_uris": {"android": "https://dc.lft.to/lastmile_qr_scan", "ios": "https://dc.lft.to/lastmile_qr_scan"}, "name": "3a69da6141a755a340d01ca22bf979a2", "is_reserved": 0}, {"is_disabled": 0, "fusion_lon": 0.0, "fusion_lat": 0.0, "lat": 38.907335833333335, "type": "electric_scooter", "lon": -77.02376483333333, "bike_id": "3b407ca6403ff9220c01cc08efacaea6", "rental_uris": {"android": "https://dc.lft.to/lastmile_qr_scan", "ios": "https://dc.lft.to/lastmile_qr_scan"}, "name": "3b407ca6403ff9220c01cc08efacaea6", "is_reserved": 0}, {"is_disabled": 0, "fusion_lon": 0.0, "fusion_lat": 0.0, "lat": 38.92208683333333, "type": "electric_bike", "lon": -77.0366015, "bike_id": "3fdf7ae84f7ba7519e1ee3d84a07941e", "rental_uris": {"android": "https://dc.lft.to/lastmile_qr_scan", "ios": "https://dc.lft.to/lastmile_qr_scan"}, "name": "3fdf7ae84f7ba7519e1ee3d84a07941e", "is_reserved": 0}, {"is_disabled": 0, "fusion_lon": 0.0, "fusion_lat": 0.0, "lat": 38.898256, "type": "electric_scooter", "lon": -77.02947933333333, "bike_id": "e3059f3e079c68533a5adb277511d55d", "rental_uris": {"android": "https://dc.lft.to/lastmile_qr_scan", "ios": "https://dc.lft.to/lastmile_qr_scan"}, "name": "e3059f3e079c68533a5adb277511d55d", "is_reserved": 0}, {"is_disabled": 0, "fusion_lon": 0.0, "fusion_lat": 0.0, "lat": 38.89359, "type": "electric_scooter", "lon": -76.93987866666667, "bike_id": "c4dff735a65c6af48fcf83b2e4eaac73", "rental_uris": {"android": "https://dc.lft.to/lastmile_qr_scan", "ios": "https://dc.lft.to/lastmile_qr_scan"}, "name": "c4dff735a65c6af48fcf83b2e4eaac73", "is_reserved": 0}, {"is_disabled": 0, "fusion_lon": 0.0, "fusion_lat": 0.0, "lat": 38.896092, "type": "electric_scooter", "lon": -77.02662283333333, "bike_id": "19b1f39118effce2c70c621144824e70", "rental_uris": {"android": "https://dc.lft.to/lastmile_qr_scan", "ios": "https://dc.lft.to/lastmile_qr_scan"}, "name": "19b1f39118effce2c70c621144824e70", "is_reserved": 0}, {"is_disabled": 0, "fusion_lon": 0.0, "fusion_lat": 0.0, "lat": 38.91986966666666, "type": "electric_scooter", "lon": -77.0317875, "bike_id": "24b60f862059295b6e048b4b877bda72", "rental_uris": {"android": "https://dc.lft.to/lastmile_qr_scan", "ios": "https://dc.lft.to/lastmile_qr_scan"}, "name": "24b60f862059295b6e048b4b877bda72", "is_reserved": 0}, {"is_disabled": 0, "fusion_lon": 0.0, "fusion_lat": 0.0, "lat": 38.9355515, "type": "electric_bike", "lon": -77.08197933333334, "bike_id": "7671bd88f013d8db233544e414674180", "rental_uris": {"android": "https://dc.lft.to/lastmile_qr_scan", "ios": "https://dc.lft.to/lastmile_qr_scan"}, "name": "7671bd88f013d8db233544e414674180", "is_reserved": 0}, {"is_disabled": 0, "fusion_lon": 0.0, "fusion_lat": 0.0, "lat": 38.91940666666667, "type": "electric_scooter", "lon": -77.07058083333334, "bike_id": "a8cbb9a2db1c2bbc89c8a05a5094679b", "rental_uris": {"android": "https://dc.lft.to/lastmile_qr_scan", "ios": "https://dc.lft.to/lastmile_qr_scan"}, "name": "a8cbb9a2db1c2bbc89c8a05a5094679b", "is_reserved": 0}, {"is_disabled": 0, "fusion_lon": 0.0, "fusion_lat": 0.0, "lat": 38.92584216666667, "type": "electric_scooter", "lon": -77.0321015, "bike_id": "4231b14abadc8c65263b11e71b75f1b1", "rental_uris": {"android": "https://dc.lft.to/lastmile_qr_scan", "ios": "https://dc.lft.to/lastmile_qr_scan"}, "name": "4231b14abadc8c65263b11e71b75f1b1", "is_reserved": 0}, {"is_disabled": 0, "fusion_lon": 0.0, "fusion_lat": 0.0, "lat": 38.873887, "type": "electric_scooter", "lon": -77.00197766666666, "bike_id": "705eb6d448d17db42499991762b3b79d", "rental_uris": {"android": "https://dc.lft.to/lastmile_qr_scan", "ios": "https://dc.lft.to/lastmile_qr_scan"}, "name": "705eb6d448d17db42499991762b3b79d", "is_reserved": 0}, {"is_disabled": 0, "fusion_lon": 0.0, "fusion_lat": 0.0, "lat": 39.007899333333334, "type": "electric_bike", "lon": -76.99570916666667, "bike_id": "4024bd39933f1a5936130132368eb94e", "rental_uris": {"android": "https://dc.lft.to/lastmile_qr_scan", "ios": "https://dc.lft.to/lastmile_qr_scan"}, "name": "4024bd39933f1a5936130132368eb94e", "is_reserved": 0}, {"is_disabled": 0, "fusion_lon": 0.0, "fusion_lat": 0.0, "lat": 38.866995333333335, "type": "electric_scooter", "lon": -76.9871215, "bike_id": "a8f30e0c0ec114a087ad7ea5244f240a", "rental_uris": {"android": "https://dc.lft.to/lastmile_qr_scan", "ios": "https://dc.lft.to/lastmile_qr_scan"}, "name": "a8f30e0c0ec114a087ad7ea5244f240a", "is_reserved": 0}, {"is_disabled": 0, "fusion_lon": 0.0, "fusion_lat": 0.0, "lat": 38.906504, "type": "electric_scooter", "lon": -77.045205, "bike_id": "1ec8a07f9b7af25b9303323d45a8cad4", "rental_uris": {"android": "https://dc.lft.to/lastmile_qr_scan", "ios": "https://dc.lft.to/lastmile_qr_scan"}, "name": "1ec8a07f9b7af25b9303323d45a8cad4", "is_reserved": 0}, {"is_disabled": 0, "fusion_lon": 0.0, "fusion_lat": 0.0, "lat": 38.903048166666665, "type": "electric_scooter", "lon": -77.02385916666667, "bike_id": "b9a02f28afee49cd187c50506bdffa3a", "rental_uris": {"android": "https://dc.lft.to/lastmile_qr_scan", "ios": "https://dc.lft.to/lastmile_qr_scan"}, "name": "b9a02f28afee49cd187c50506bdffa3a", "is_reserved": 0}, {"is_disabled": 0, "fusion_lon": 0.0, "fusion_lat": 0.0, "lat": 38.9390035, "type": "electric_scooter", "lon": -77.0330995, "bike_id": "5c7d820519b3848bbdb00a0cbcb42db9", "rental_uris": {"android": "https://dc.lft.to/lastmile_qr_scan", "ios": "https://dc.lft.to/lastmile_qr_scan"}, "name": "5c7d820519b3848bbdb00a0cbcb42db9", "is_reserved": 0}, {"is_disabled": 0, "fusion_lon": 0.0, "fusion_lat": 0.0, "lat": 38.942872, "type": "electric_bike", "lon": -77.069241, "bike_id": "fab710716106a97bdc5fb9aa9c22bab3", "rental_uris": {"android": "https://dc.lft.to/lastmile_qr_scan", "ios": "https://dc.lft.to/lastmile_qr_scan"}, "name": "fab710716106a97bdc5fb9aa9c22bab3", "is_reserved": 0}, {"is_disabled": 0, "fusion_lon": 0.0, "fusion_lat": 0.0, "lat": 38.917755166666666, "type": "electric_scooter", "lon": -77.0295835, "bike_id": "dba0e6e0151e1db1b16a964bf3543b02", "rental_uris": {"android": "https://dc.lft.to/lastmile_qr_scan", "ios": "https://dc.lft.to/lastmile_qr_scan"}, "name": "dba0e6e0151e1db1b16a964bf3543b02", "is_reserved": 0}, {"is_disabled": 0, "fusion_lon": 0.0, "fusion_lat": 0.0, "lat": 38.91732016666667, "type": "electric_scooter", "lon": -77.00507083333333, "bike_id": "68e5ead7491e1dff36c3c707bfe4a9df", "rental_uris": {"android": "https://dc.lft.to/lastmile_qr_scan", "ios": "https://dc.lft.to/lastmile_qr_scan"}, "name": "68e5ead7491e1dff36c3c707bfe4a9df", "is_reserved": 0}, {"is_disabled": 0, "fusion_lon": 0.0, "fusion_lat": 0.0, "lat": 38.899747, "type": "electric_scooter", "lon": -77.016235, "bike_id": "bb96f405641605fcc7f384bff81250be", "rental_uris": {"android": "https://dc.lft.to/lastmile_qr_scan", "ios": "https://dc.lft.to/lastmile_qr_scan"}, "name": "bb96f405641605fcc7f384bff81250be", "is_reserved": 0}, {"is_disabled": 0, "fusion_lon": 0.0, "fusion_lat": 0.0, "lat": 38.9336685, "type": "electric_scooter", "lon": -77.05749683333333, "bike_id": "f9d6d9f51d276d010ce862878c61d3a0", "rental_uris": {"android": "https://dc.lft.to/lastmile_qr_scan", "ios": "https://dc.lft.to/lastmile_qr_scan"}, "name": "f9d6d9f51d276d010ce862878c61d3a0", "is_reserved": 0}, {"is_disabled": 0, "fusion_lon": 0.0, "fusion_lat": 0.0, "lat": 38.91707683333333, "type": "electric_bike", "lon": -77.09563033333333, "bike_id": "177770e3c8738e6967f5b38a749eef4b", "rental_uris": {"android": "https://dc.lft.to/lastmile_qr_scan", "ios": "https://dc.lft.to/lastmile_qr_scan"}, "name": "177770e3c8738e6967f5b38a749eef4b", "is_reserved": 0}, {"is_disabled": 0, "fusion_lon": 0.0, "fusion_lat": 0.0, "lat": 38.909606833333335, "type": "electric_scooter", "lon": -77.03948816666667, "bike_id": "4e1ba83dbeb3c8c80023b8390cc18e9c", "rental_uris": {"android": "https://dc.lft.to/lastmile_qr_scan", "ios": "https://dc.lft.to/lastmile_qr_scan"}, "name": "4e1ba83dbeb3c8c80023b8390cc18e9c", "is_reserved": 0}, {"is_disabled": 0, "fusion_lon": 0.0, "fusion_lat": 0.0, "lat": 38.94897916666667, "type": "electric_bike", "lon": -76.96370783333333, "bike_id": "f83c0dbee51b6eaf36e34e97fee2d2f6", "rental_uris": {"android": "https://dc.lft.to/lastmile_qr_scan", "ios": "https://dc.lft.to/lastmile_qr_scan"}, "name": "f83c0dbee51b6eaf36e34e97fee2d2f6", "is_reserved": 0}, {"is_disabled": 0, "fusion_lon": 0.0, "fusion_lat": 0.0, "lat": 38.927737666666665, "type": "electric_scooter", "lon": -77.02776716666666, "bike_id": "2c9eca50eb68ebda663e6fb2dca548d2", "rental_uris": {"android": "https://dc.lft.to/lastmile_qr_scan", "ios": "https://dc.lft.to/lastmile_qr_scan"}, "name": "2c9eca50eb68ebda663e6fb2dca548d2", "is_reserved": 0}, {"is_disabled": 0, "fusion_lon": 0.0, "fusion_lat": 0.0, "lat": 38.928151166666666, "type": "electric_scooter", "lon": -77.02348783333333, "bike_id": "a75563211259ed97bb3e6012b4605259", "rental_uris": {"android": "https://dc.lft.to/lastmile_qr_scan", "ios": "https://dc.lft.to/lastmile_qr_scan"}, "name": "a75563211259ed97bb3e6012b4605259", "is_reserved": 0}, {"is_disabled": 0, "fusion_lon": 0.0, "fusion_lat": 0.0, "lat": 38.934165666666665, "type": "electric_scooter", "lon": -77.0196545, "bike_id": "b9b914a28bcdb8d6be5f5c2e175580d9", "rental_uris": {"android": "https://dc.lft.to/lastmile_qr_scan", "ios": "https://dc.lft.to/lastmile_qr_scan"}, "name": "b9b914a28bcdb8d6be5f5c2e175580d9", "is_reserved": 0}, {"is_disabled": 0, "fusion_lon": 0.0, "fusion_lat": 0.0, "lat": 38.865087333333335, "type": "electric_scooter", "lon": -76.9900335, "bike_id": "74f63b857f05b0267d519cfc05a97dbe", "rental_uris": {"android": "https://dc.lft.to/lastmile_qr_scan", "ios": "https://dc.lft.to/lastmile_qr_scan"}, "name": "74f63b857f05b0267d519cfc05a97dbe", "is_reserved": 0}, {"is_disabled": 0, "fusion_lon": 0.0, "fusion_lat": 0.0, "lat": 38.924928666666666, "type": "electric_scooter", "lon": -77.03928366666666, "bike_id": "6ea2ced132d72724faafc16a245c0fb9", "rental_uris": {"android": "https://dc.lft.to/lastmile_qr_scan", "ios": "https://dc.lft.to/lastmile_qr_scan"}, "name": "6ea2ced132d72724faafc16a245c0fb9", "is_reserved": 0}, {"is_disabled": 0, "fusion_lon": 0.0, "fusion_lat": 0.0, "lat": 39.0527295, "type": "electric_bike", "lon": -77.04383816666666, "bike_id": "2267049679a1911cf3e605c6ebdd21e0", "rental_uris": {"android": "https://dc.lft.to/lastmile_qr_scan", "ios": "https://dc.lft.to/lastmile_qr_scan"}, "name": "2267049679a1911cf3e605c6ebdd21e0", "is_reserved": 0}, {"is_disabled": 0, "fusion_lon": 0.0, "fusion_lat": 0.0, "lat": 38.918045666666664, "type": "electric_scooter", "lon": -77.04035, "bike_id": "524d779f94dbf57b22295af335c33569", "rental_uris": {"android": "https://dc.lft.to/lastmile_qr_scan", "ios": "https://dc.lft.to/lastmile_qr_scan"}, "name": "524d779f94dbf57b22295af335c33569", "is_reserved": 0}, {"is_disabled": 0, "fusion_lon": 0.0, "fusion_lat": 0.0, "lat": 38.8819285, "type": "electric_bike", "lon": -77.10725483333333, "bike_id": "b2d0b3287c7e16e4a985fe01b65beaea", "rental_uris": {"android": "https://dc.lft.to/lastmile_qr_scan", "ios": "https://dc.lft.to/lastmile_qr_scan"}, "name": "b2d0b3287c7e16e4a985fe01b65beaea", "is_reserved": 0}, {"is_disabled": 0, "fusion_lon": 0.0, "fusion_lat": 0.0, "lat": 38.902455833333335, "type": "electric_scooter", "lon": -77.01943333333334, "bike_id": "9f3d3ec45069f6d066b43b608945158c", "rental_uris": {"android": "https://dc.lft.to/lastmile_qr_scan", "ios": "https://dc.lft.to/lastmile_qr_scan"}, "name": "9f3d3ec45069f6d066b43b608945158c", "is_reserved": 0}, {"is_disabled": 0, "fusion_lon": 0.0, "fusion_lat": 0.0, "lat": 38.92499316666667, "type": "electric_scooter", "lon": -76.9957155, "bike_id": "2a50a4e81f43177ce40c9f9859c3adae", "rental_uris": {"android": "https://dc.lft.to/lastmile_qr_scan", "ios": "https://dc.lft.to/lastmile_qr_scan"}, "name": "2a50a4e81f43177ce40c9f9859c3adae", "is_reserved": 0}, {"is_disabled": 0, "fusion_lon": 0.0, "fusion_lat": 0.0, "lat": 38.8834705, "type": "electric_scooter", "lon": -76.94176716666666, "bike_id": "46487e7ddd7ab7bbaf47b58f48a0a62e", "rental_uris": {"android": "https://dc.lft.to/lastmile_qr_scan", "ios": "https://dc.lft.to/lastmile_qr_scan"}, "name": "46487e7ddd7ab7bbaf47b58f48a0a62e", "is_reserved": 0}, {"is_disabled": 0, "fusion_lon": 0.0, "fusion_lat": 0.0, "lat": 38.89997616666667, "type": "electric_scooter", "lon": -76.9223185, "bike_id": "a3339518015cf29403dcb226cbe0e479", "rental_uris": {"android": "https://dc.lft.to/lastmile_qr_scan", "ios": "https://dc.lft.to/lastmile_qr_scan"}, "name": "a3339518015cf29403dcb226cbe0e479", "is_reserved": 0}, {"is_disabled": 0, "fusion_lon": 0.0, "fusion_lat": 0.0, "lat": 38.85207183333333, "type": "electric_bike", "lon": -77.1012775, "bike_id": "27bb20fe3fc50f55b0c8bf2680abaa94", "rental_uris": {"android": "https://dc.lft.to/lastmile_qr_scan", "ios": "https://dc.lft.to/lastmile_qr_scan"}, "name": "27bb20fe3fc50f55b0c8bf2680abaa94", "is_reserved": 0}, {"is_disabled": 0, "fusion_lon": 0.0, "fusion_lat": 0.0, "lat": 38.918164166666664, "type": "electric_scooter", "lon": -77.01020533333333, "bike_id": "15842bd143f50d009745092501ffc71e", "rental_uris": {"android": "https://dc.lft.to/lastmile_qr_scan", "ios": "https://dc.lft.to/lastmile_qr_scan"}, "name": "15842bd143f50d009745092501ffc71e", "is_reserved": 0}, {"is_disabled": 0, "fusion_lon": 0.0, "fusion_lat": 0.0, "lat": 38.91054233333333, "type": "electric_scooter", "lon": -77.04348733333333, "bike_id": "fd29bbebc9773023f5d875fc4d5ef088", "rental_uris": {"android": "https://dc.lft.to/lastmile_qr_scan", "ios": "https://dc.lft.to/lastmile_qr_scan"}, "name": "fd29bbebc9773023f5d875fc4d5ef088", "is_reserved": 0}, {"is_disabled": 0, "fusion_lon": 0.0, "fusion_lat": 0.0, "lat": 38.90534316666667, "type": "electric_scooter", "lon": -77.05090966666667, "bike_id": "741444b338ba299a521f0f1b9f770ae0", "rental_uris": {"android": "https://dc.lft.to/lastmile_qr_scan", "ios": "https://dc.lft.to/lastmile_qr_scan"}, "name": "741444b338ba299a521f0f1b9f770ae0", "is_reserved": 0}, {"is_disabled": 0, "fusion_lon": 0.0, "fusion_lat": 0.0, "lat": 38.92531366666667, "type": "electric_scooter", "lon": -77.04430366666666, "bike_id": "8b8c63a8c1442e095f672a3918be48a6", "rental_uris": {"android": "https://dc.lft.to/lastmile_qr_scan", "ios": "https://dc.lft.to/lastmile_qr_scan"}, "name": "8b8c63a8c1442e095f672a3918be48a6", "is_reserved": 0}, {"is_disabled": 0, "fusion_lon": 0.0, "fusion_lat": 0.0, "lat": 38.900175833333336, "type": "electric_scooter", "lon": -76.99877466666666, "bike_id": "0243865406b78c7eac95f17c8365f763", "rental_uris": {"android": "https://dc.lft.to/lastmile_qr_scan", "ios": "https://dc.lft.to/lastmile_qr_scan"}, "name": "0243865406b78c7eac95f17c8365f763", "is_reserved": 0}, {"is_disabled": 0, "fusion_lon": 0.0, "fusion_lat": 0.0, "lat": 38.9156015, "type": "electric_scooter", "lon": -77.03151983333333, "bike_id": "2d7d05b98606884fb9b522f2aa42512b", "rental_uris": {"android": "https://dc.lft.to/lastmile_qr_scan", "ios": "https://dc.lft.to/lastmile_qr_scan"}, "name": "2d7d05b98606884fb9b522f2aa42512b", "is_reserved": 0}, {"is_disabled": 0, "fusion_lon": 0.0, "fusion_lat": 0.0, "lat": 38.91623233333333, "type": "electric_scooter", "lon": -77.040284, "bike_id": "4740cad88e15488bf3962369d927f218", "rental_uris": {"android": "https://dc.lft.to/lastmile_qr_scan", "ios": "https://dc.lft.to/lastmile_qr_scan"}, "name": "4740cad88e15488bf3962369d927f218", "is_reserved": 0}, {"is_disabled": 0, "fusion_lon": 0.0, "fusion_lat": 0.0, "lat": 38.895374333333336, "type": "electric_scooter", "lon": -77.04128716666666, "bike_id": "fffcc83b940daf1071bc322e4a6382e2", "rental_uris": {"android": "https://dc.lft.to/lastmile_qr_scan", "ios": "https://dc.lft.to/lastmile_qr_scan"}, "name": "fffcc83b940daf1071bc322e4a6382e2", "is_reserved": 0}, {"is_disabled": 0, "fusion_lon": 0.0, "fusion_lat": 0.0, "lat": 38.898365166666665, "type": "electric_scooter", "lon": -76.9463675, "bike_id": "e86d88e2fbd55a83ea6c38916436f85f", "rental_uris": {"android": "https://dc.lft.to/lastmile_qr_scan", "ios": "https://dc.lft.to/lastmile_qr_scan"}, "name": "e86d88e2fbd55a83ea6c38916436f85f", "is_reserved": 0}, {"is_disabled": 0, "fusion_lon": 0.0, "fusion_lat": 0.0, "lat": 38.91129766666667, "type": "electric_scooter", "lon": -77.05939683333334, "bike_id": "011dc52d7f9553ba0831965707ff65e2", "rental_uris": {"android": "https://dc.lft.to/lastmile_qr_scan", "ios": "https://dc.lft.to/lastmile_qr_scan"}, "name": "011dc52d7f9553ba0831965707ff65e2", "is_reserved": 0}, {"is_disabled": 0, "fusion_lon": 0.0, "fusion_lat": 0.0, "lat": 38.884852333333335, "type": "electric_scooter", "lon": -76.92960916666667, "bike_id": "4fb7228b69a0719626db2a4a4c31a2ee", "rental_uris": {"android": "https://dc.lft.to/lastmile_qr_scan", "ios": "https://dc.lft.to/lastmile_qr_scan"}, "name": "4fb7228b69a0719626db2a4a4c31a2ee", "is_reserved": 0}, {"is_disabled": 0, "fusion_lon": 0.0, "fusion_lat": 0.0, "lat": 38.90388016666667, "type": "electric_scooter", "lon": -77.04871716666666, "bike_id": "0fb613aa179a576e7b605424025a403c", "rental_uris": {"android": "https://dc.lft.to/lastmile_qr_scan", "ios": "https://dc.lft.to/lastmile_qr_scan"}, "name": "0fb613aa179a576e7b605424025a403c", "is_reserved": 0}, {"is_disabled": 0, "fusion_lon": 0.0, "fusion_lat": 0.0, "lat": 38.91428533333333, "type": "electric_scooter", "lon": -77.03184366666666, "bike_id": "04ca63f07d97c09633e9bbe41f253b54", "rental_uris": {"android": "https://dc.lft.to/lastmile_qr_scan", "ios": "https://dc.lft.to/lastmile_qr_scan"}, "name": "04ca63f07d97c09633e9bbe41f253b54", "is_reserved": 0}, {"is_disabled": 0, "fusion_lon": 0.0, "fusion_lat": 0.0, "lat": 38.922498166666664, "type": "electric_scooter", "lon": -77.0366405, "bike_id": "3b782105a556c3d8a46bbbe1d4f35185", "rental_uris": {"android": "https://dc.lft.to/lastmile_qr_scan", "ios": "https://dc.lft.to/lastmile_qr_scan"}, "name": "3b782105a556c3d8a46bbbe1d4f35185", "is_reserved": 0}, {"is_disabled": 0, "fusion_lon": 0.0, "fusion_lat": 0.0, "lat": 38.89751066666667, "type": "electric_scooter", "lon": -77.05143683333333, "bike_id": "1dcc170d35942774aefcae975bf8c3b8", "rental_uris": {"android": "https://dc.lft.to/lastmile_qr_scan", "ios": "https://dc.lft.to/lastmile_qr_scan"}, "name": "1dcc170d35942774aefcae975bf8c3b8", "is_reserved": 0}, {"is_disabled": 0, "fusion_lon": 0.0, "fusion_lat": 0.0, "lat": 38.915673, "type": "electric_scooter", "lon": -77.038726, "bike_id": "383d73a88a9a25c44dfdd43dfd8a2167", "rental_uris": {"android": "https://dc.lft.to/lastmile_qr_scan", "ios": "https://dc.lft.to/lastmile_qr_scan"}, "name": "383d73a88a9a25c44dfdd43dfd8a2167", "is_reserved": 0}, {"is_disabled": 0, "fusion_lon": 0.0, "fusion_lat": 0.0, "lat": 38.865966, "type": "electric_bike", "lon": -76.93230816666667, "bike_id": "906b31c213e24cc177a26609738e00bd", "rental_uris": {"android": "https://dc.lft.to/lastmile_qr_scan", "ios": "https://dc.lft.to/lastmile_qr_scan"}, "name": "906b31c213e24cc177a26609738e00bd", "is_reserved": 0}, {"is_disabled": 0, "fusion_lon": 0.0, "fusion_lat": 0.0, "lat": 38.897368666666665, "type": "electric_scooter", "lon": -77.04717483333333, "bike_id": "db94d4e963033e4a6b7a50f0d7f8d3b2", "rental_uris": {"android": "https://dc.lft.to/lastmile_qr_scan", "ios": "https://dc.lft.to/lastmile_qr_scan"}, "name": "db94d4e963033e4a6b7a50f0d7f8d3b2", "is_reserved": 0}, {"is_disabled": 0, "fusion_lon": 0.0, "fusion_lat": 0.0, "lat": 38.852109666666664, "type": "electric_bike", "lon": -77.12753116666667, "bike_id": "5a21f04ecce3415a9eb678c85003e03c", "rental_uris": {"android": "https://dc.lft.to/lastmile_qr_scan", "ios": "https://dc.lft.to/lastmile_qr_scan"}, "name": "5a21f04ecce3415a9eb678c85003e03c", "is_reserved": 0}, {"is_disabled": 0, "fusion_lon": 0.0, "fusion_lat": 0.0, "lat": 38.915343, "type": "electric_scooter", "lon": -77.021908, "bike_id": "f9846b1e3c319f704ca402f67f82a298", "rental_uris": {"android": "https://dc.lft.to/lastmile_qr_scan", "ios": "https://dc.lft.to/lastmile_qr_scan"}, "name": "f9846b1e3c319f704ca402f67f82a298", "is_reserved": 0}, {"is_disabled": 0, "fusion_lon": 0.0, "fusion_lat": 0.0, "lat": 38.91546983333333, "type": "electric_scooter", "lon": -77.0315005, "bike_id": "78d1d7c1b1163a13565f6e86d2a1b8e5", "rental_uris": {"android": "https://dc.lft.to/lastmile_qr_scan", "ios": "https://dc.lft.to/lastmile_qr_scan"}, "name": "78d1d7c1b1163a13565f6e86d2a1b8e5", "is_reserved": 0}, {"is_disabled": 0, "fusion_lon": 0.0, "fusion_lat": 0.0, "lat": 38.944970833333336, "type": "electric_bike", "lon": -77.006858, "bike_id": "7b0f8263cf2f86649a91bf612daa59f6", "rental_uris": {"android": "https://dc.lft.to/lastmile_qr_scan", "ios": "https://dc.lft.to/lastmile_qr_scan"}, "name": "7b0f8263cf2f86649a91bf612daa59f6", "is_reserved": 0}, {"is_disabled": 0, "fusion_lon": 0.0, "fusion_lat": 0.0, "lat": 38.9180765, "type": "electric_scooter", "lon": -77.035664, "bike_id": "8249bcf83dba7363f7bee512146f1a39", "rental_uris": {"android": "https://dc.lft.to/lastmile_qr_scan", "ios": "https://dc.lft.to/lastmile_qr_scan"}, "name": "8249bcf83dba7363f7bee512146f1a39", "is_reserved": 0}, {"is_disabled": 0, "fusion_lon": 0.0, "fusion_lat": 0.0, "lat": 38.892505, "type": "electric_scooter", "lon": -76.998522, "bike_id": "596e3f4ee28db4c56be3ea44f383d2f2", "rental_uris": {"android": "https://dc.lft.to/lastmile_qr_scan", "ios": "https://dc.lft.to/lastmile_qr_scan"}, "name": "596e3f4ee28db4c56be3ea44f383d2f2", "is_reserved": 0}, {"is_disabled": 0, "fusion_lon": 0.0, "fusion_lat": 0.0, "lat": 38.914087333333335, "type": "electric_scooter", "lon": -77.01311, "bike_id": "9854228ae9954a4c0c2974a8afecedf0", "rental_uris": {"android": "https://dc.lft.to/lastmile_qr_scan", "ios": "https://dc.lft.to/lastmile_qr_scan"}, "name": "9854228ae9954a4c0c2974a8afecedf0", "is_reserved": 0}, {"is_disabled": 0, "fusion_lon": 0.0, "fusion_lat": 0.0, "lat": 38.908611, "type": "electric_scooter", "lon": -77.04365883333334, "bike_id": "85e80d4b6ee77629a26f2e7aff72a616", "rental_uris": {"android": "https://dc.lft.to/lastmile_qr_scan", "ios": "https://dc.lft.to/lastmile_qr_scan"}, "name": "85e80d4b6ee77629a26f2e7aff72a616", "is_reserved": 0}, {"is_disabled": 0, "fusion_lon": 0.0, "fusion_lat": 0.0, "lat": 38.919327833333334, "type": "electric_scooter", "lon": -77.03433233333334, "bike_id": "9a1aee8e90c8e6a7603e6229d11659bd", "rental_uris": {"android": "https://dc.lft.to/lastmile_qr_scan", "ios": "https://dc.lft.to/lastmile_qr_scan"}, "name": "9a1aee8e90c8e6a7603e6229d11659bd", "is_reserved": 0}, {"is_disabled": 0, "fusion_lon": 0.0, "fusion_lat": 0.0, "lat": 38.899666833333335, "type": "electric_scooter", "lon": -76.98707566666667, "bike_id": "54b954ac0d09a47ac1a60f0e15c15ac1", "rental_uris": {"android": "https://dc.lft.to/lastmile_qr_scan", "ios": "https://dc.lft.to/lastmile_qr_scan"}, "name": "54b954ac0d09a47ac1a60f0e15c15ac1", "is_reserved": 0}, {"is_disabled": 0, "fusion_lon": 0.0, "fusion_lat": 0.0, "lat": 38.915485333333336, "type": "electric_scooter", "lon": -77.02371683333334, "bike_id": "341db3267fdaee94476b021de5f80338", "rental_uris": {"android": "https://dc.lft.to/lastmile_qr_scan", "ios": "https://dc.lft.to/lastmile_qr_scan"}, "name": "341db3267fdaee94476b021de5f80338", "is_reserved": 0}, {"is_disabled": 0, "fusion_lon": 0.0, "fusion_lat": 0.0, "lat": 38.9199565, "type": "electric_scooter", "lon": -76.98398566666667, "bike_id": "eee83b7db46f75466145e11e8c58fa2e", "rental_uris": {"android": "https://dc.lft.to/lastmile_qr_scan", "ios": "https://dc.lft.to/lastmile_qr_scan"}, "name": "eee83b7db46f75466145e11e8c58fa2e", "is_reserved": 0}, {"is_disabled": 0, "fusion_lon": 0.0, "fusion_lat": 0.0, "lat": 38.93313333333333, "type": "electric_scooter", "lon": -77.032651, "bike_id": "4d43de62efed4ca8035f70b93f35eca6", "rental_uris": {"android": "https://dc.lft.to/lastmile_qr_scan", "ios": "https://dc.lft.to/lastmile_qr_scan"}, "name": "4d43de62efed4ca8035f70b93f35eca6", "is_reserved": 0}, {"is_disabled": 0, "fusion_lon": 0.0, "fusion_lat": 0.0, "lat": 38.917738166666666, "type": "electric_scooter", "lon": -77.03214816666667, "bike_id": "e7b34b498a15fb9c82cb912ee646b2a4", "rental_uris": {"android": "https://dc.lft.to/lastmile_qr_scan", "ios": "https://dc.lft.to/lastmile_qr_scan"}, "name": "e7b34b498a15fb9c82cb912ee646b2a4", "is_reserved": 0}, {"is_disabled": 0, "fusion_lon": 0.0, "fusion_lat": 0.0, "lat": 38.90156316666667, "type": "electric_scooter", "lon": -77.03995183333333, "bike_id": "678fa9c3351e7e4a0d1aa455c6abec03", "rental_uris": {"android": "https://dc.lft.to/lastmile_qr_scan", "ios": "https://dc.lft.to/lastmile_qr_scan"}, "name": "678fa9c3351e7e4a0d1aa455c6abec03", "is_reserved": 0}, {"is_disabled": 0, "fusion_lon": 0.0, "fusion_lat": 0.0, "lat": 38.89358583333333, "type": "electric_scooter", "lon": -76.98474816666666, "bike_id": "f112b5dcbdf8936b4793d4cc1a0e1d58", "rental_uris": {"android": "https://dc.lft.to/lastmile_qr_scan", "ios": "https://dc.lft.to/lastmile_qr_scan"}, "name": "f112b5dcbdf8936b4793d4cc1a0e1d58", "is_reserved": 0}, {"is_disabled": 0, "fusion_lon": 0.0, "fusion_lat": 0.0, "lat": 38.900285, "type": "electric_scooter", "lon": -77.00219433333334, "bike_id": "f4a4650cfe055ea5e9029f9cdd45c640", "rental_uris": {"android": "https://dc.lft.to/lastmile_qr_scan", "ios": "https://dc.lft.to/lastmile_qr_scan"}, "name": "f4a4650cfe055ea5e9029f9cdd45c640", "is_reserved": 0}, {"is_disabled": 0, "fusion_lon": 0.0, "fusion_lat": 0.0, "lat": 38.9140935, "type": "electric_scooter", "lon": -77.03992116666667, "bike_id": "f4e6deb6b4b4049f4f28c3084dec7126", "rental_uris": {"android": "https://dc.lft.to/lastmile_qr_scan", "ios": "https://dc.lft.to/lastmile_qr_scan"}, "name": "f4e6deb6b4b4049f4f28c3084dec7126", "is_reserved": 0}, {"is_disabled": 0, "fusion_lon": 0.0, "fusion_lat": 0.0, "lat": 38.88740833333333, "type": "electric_scooter", "lon": -77.01535983333333, "bike_id": "7aae3b4f0e73908de31207965f3a843e", "rental_uris": {"android": "https://dc.lft.to/lastmile_qr_scan", "ios": "https://dc.lft.to/lastmile_qr_scan"}, "name": "7aae3b4f0e73908de31207965f3a843e", "is_reserved": 0}, {"is_disabled": 0, "fusion_lon": 0.0, "fusion_lat": 0.0, "lat": 38.91820333333333, "type": "electric_scooter", "lon": -77.02475383333334, "bike_id": "18d4baf26b2c7b38995bb0770dc30ba4", "rental_uris": {"android": "https://dc.lft.to/lastmile_qr_scan", "ios": "https://dc.lft.to/lastmile_qr_scan"}, "name": "18d4baf26b2c7b38995bb0770dc30ba4", "is_reserved": 0}, {"is_disabled": 0, "fusion_lon": 0.0, "fusion_lat": 0.0, "lat": 38.905119666666664, "type": "electric_scooter", "lon": -77.03421216666666, "bike_id": "018b2e2b8a5b7017a25ec3bc0320108d", "rental_uris": {"android": "https://dc.lft.to/lastmile_qr_scan", "ios": "https://dc.lft.to/lastmile_qr_scan"}, "name": "018b2e2b8a5b7017a25ec3bc0320108d", "is_reserved": 0}, {"is_disabled": 0, "fusion_lon": 0.0, "fusion_lat": 0.0, "lat": 38.883357, "type": "electric_scooter", "lon": -77.01635116666667, "bike_id": "30bf5a743265b92d3b658c2ad796f507", "rental_uris": {"android": "https://dc.lft.to/lastmile_qr_scan", "ios": "https://dc.lft.to/lastmile_qr_scan"}, "name": "30bf5a743265b92d3b658c2ad796f507", "is_reserved": 0}, {"is_disabled": 0, "fusion_lon": 0.0, "fusion_lat": 0.0, "lat": 38.924786, "type": "electric_scooter", "lon": -77.02818366666666, "bike_id": "091225854a293631125322f5bf5de6a2", "rental_uris": {"android": "https://dc.lft.to/lastmile_qr_scan", "ios": "https://dc.lft.to/lastmile_qr_scan"}, "name": "091225854a293631125322f5bf5de6a2", "is_reserved": 0}, {"is_disabled": 0, "fusion_lon": 0.0, "fusion_lat": 0.0, "lat": 38.90172066666667, "type": "electric_scooter", "lon": -77.02583483333333, "bike_id": "3778a85acaf76e0c51545282beb17960", "rental_uris": {"android": "https://dc.lft.to/lastmile_qr_scan", "ios": "https://dc.lft.to/lastmile_qr_scan"}, "name": "3778a85acaf76e0c51545282beb17960", "is_reserved": 0}, {"is_disabled": 0, "fusion_lon": 0.0, "fusion_lat": 0.0, "lat": 38.89233516666667, "type": "electric_scooter", "lon": -77.03182566666666, "bike_id": "265cfb27647fc0c25d10a31e126dd6a1", "rental_uris": {"android": "https://dc.lft.to/lastmile_qr_scan", "ios": "https://dc.lft.to/lastmile_qr_scan"}, "name": "265cfb27647fc0c25d10a31e126dd6a1", "is_reserved": 0}, {"is_disabled": 0, "fusion_lon": 0.0, "fusion_lat": 0.0, "lat": 38.9207745, "type": "electric_scooter", "lon": -77.031677, "bike_id": "eb6562c7f4ce2e73b987e208403afa83", "rental_uris": {"android": "https://dc.lft.to/lastmile_qr_scan", "ios": "https://dc.lft.to/lastmile_qr_scan"}, "name": "eb6562c7f4ce2e73b987e208403afa83", "is_reserved": 0}, {"is_disabled": 0, "fusion_lon": 0.0, "fusion_lat": 0.0, "lat": 38.842026, "type": "electric_bike", "lon": -77.106899, "bike_id": "bd65bd09a1f98b6265769d821ba7dabe", "rental_uris": {"android": "https://dc.lft.to/lastmile_qr_scan", "ios": "https://dc.lft.to/lastmile_qr_scan"}, "name": "bd65bd09a1f98b6265769d821ba7dabe", "is_reserved": 0}, {"is_disabled": 0, "fusion_lon": 0.0, "fusion_lat": 0.0, "lat": 38.91265833333333, "type": "electric_scooter", "lon": -77.047757, "bike_id": "c97c50ef28cb9ad880a3964eab7e9835", "rental_uris": {"android": "https://dc.lft.to/lastmile_qr_scan", "ios": "https://dc.lft.to/lastmile_qr_scan"}, "name": "c97c50ef28cb9ad880a3964eab7e9835", "is_reserved": 0}, {"is_disabled": 0, "fusion_lon": 0.0, "fusion_lat": 0.0, "lat": 38.858096833333335, "type": "electric_scooter", "lon": -76.98656683333333, "bike_id": "cbc9bf3f96c48480caf001353ecaeb16", "rental_uris": {"android": "https://dc.lft.to/lastmile_qr_scan", "ios": "https://dc.lft.to/lastmile_qr_scan"}, "name": "cbc9bf3f96c48480caf001353ecaeb16", "is_reserved": 0}, {"is_disabled": 0, "fusion_lon": 0.0, "fusion_lat": 0.0, "lat": 38.90131733333333, "type": "electric_scooter", "lon": -77.01199433333333, "bike_id": "f9f8b16b6e0d2f46b813ba53c3e5f07d", "rental_uris": {"android": "https://dc.lft.to/lastmile_qr_scan", "ios": "https://dc.lft.to/lastmile_qr_scan"}, "name": "f9f8b16b6e0d2f46b813ba53c3e5f07d", "is_reserved": 0}, {"is_disabled": 0, "fusion_lon": 0.0, "fusion_lat": 0.0, "lat": 38.91265816666667, "type": "electric_scooter", "lon": -77.0170025, "bike_id": "1f078afcc4f4ef9903e68363b44ab3c3", "rental_uris": {"android": "https://dc.lft.to/lastmile_qr_scan", "ios": "https://dc.lft.to/lastmile_qr_scan"}, "name": "1f078afcc4f4ef9903e68363b44ab3c3", "is_reserved": 0}, {"is_disabled": 0, "fusion_lon": 0.0, "fusion_lat": 0.0, "lat": 38.92830983333333, "type": "electric_scooter", "lon": -77.02260483333333, "bike_id": "aa8a2fa641545a64b1938d25a9059858", "rental_uris": {"android": "https://dc.lft.to/lastmile_qr_scan", "ios": "https://dc.lft.to/lastmile_qr_scan"}, "name": "aa8a2fa641545a64b1938d25a9059858", "is_reserved": 0},