{"data": {"bikes": [{"bike_id": "edc9b77847dbfd3d2a6cd7c89baef3a9", "lat": 38.86631916666666, "is_disabled": 0, "lon": -76.98303283333334, "fusion_lon": 0.0, "is_reserved": 0, "fusion_lat": 0.0, "rental_uris": {"android": "https://dc.lft.to/lastmile_qr_scan", "ios": "https://dc.lft.to/lastmile_qr_scan"}, "type": "electric_scooter", "name": "edc9b77847dbfd3d2a6cd7c89baef3a9"}, {"bike_id": "b797a5ce212167e8680d257a9007b1ea", "lat": 38.8844135, "is_disabled": 0, "lon": -76.94222433333333, "fusion_lon": 0.0, "is_reserved": 0, "fusion_lat": 0.0, "rental_uris": {"android": "https://dc.lft.to/lastmile_qr_scan", "ios": "https://dc.lft.to/lastmile_qr_scan"}, "type": "electric_scooter", "name": "b797a5ce212167e8680d257a9007b1ea"}, {"bike_id": "c4153b9ab782dacd724ce8e67b1616f6", "lat": 38.92101266666667, "is_disabled": 0, "lon": -77.0254405, "fusion_lon": 0.0, "is_reserved": 0, "fusion_lat": 0.0, "rental_uris": {"android": "https://dc.lft.to/lastmile_qr_scan", "ios": "https://dc.lft.to/lastmile_qr_scan"}, "type": "electric_scooter", "name": "c4153b9ab782dacd724ce8e67b1616f6"}, {"bike_id": "532c1ebd059cf406d32e02fd54a80cbf", "lat": 38.9219015, "is_disabled": 0, "lon": -77.04707516666667, "fusion_lon": 0.0, "is_reserved": 0, "fusion_lat": 0.0, "rental_uris": {"android": "https://dc.lft.to/lastmile_qr_scan", "ios": "https://dc.lft.to/lastmile_qr_scan"}, "type": "electric_scooter", "name": "532c1ebd059cf406d32e02fd54a80cbf"}, {"bike_id": "2489b4dbbaecd2295d573135cbc72ec0", "lat": 38.903739333333334, "is_disabled": 0, "lon": -76.99508183333333, "fusion_lon": 0.0, "is_reserved": 0, "fusion_lat": 0.0, "rental_uris": {"android": "https://dc.lft.to/lastmile_qr_scan", "ios": "https://dc.lft.to/lastmile_qr_scan"}, "type": "electric_scooter", "name": "2489b4dbbaecd2295d573135cbc72ec0"}, {"bike_id": "3191ae4235dd2167be17951426e1a179", "lat": 38.90546966666667, "is_disabled": 0, "lon": -77.0465265, "fusion_lon": 0.0, "is_reserved": 0, "fusion_lat": 0.0, "rental_uris": {"android": "https://dc.lft.to/lastmile_qr_scan", "ios": "https://dc.lft.to/lastmile_qr_scan"}, "type": "electric_scooter", "name": "3191ae4235dd2167be17951426e1a179"}, {"bike_id": "ad4dfd1e40774fb6e64dac91687755a3", "lat": 38.935388333333336, "is_disabled": 0, "lon": -77.08238716666666, "fusion_lon": 0.0, "is_reserved": 0, "fusion_lat": 0.0, "rental_uris": {"android": "https://dc.lft.to/lastmile_qr_scan", "ios": "https://dc.lft.to/lastmile_qr_scan"}, "type": "electric_bike", "name": "ad4dfd1e40774fb6e64dac91687755a3"}, {"bike_id": "fa219c035fb00f7df6e7e7c765a206ce", "lat": 38.91694966666667, "is_disabled": 0, "lon": -77.02571233333333, "fusion_lon": 0.0, "is_reserved": 0, "fusion_lat": 0.0, "rental_uris": {"android": "https://dc.lft.to/lastmile_qr_scan", "ios": "https://dc.lft.to/lastmile_qr_scan"}, "type": "electric_scooter", "name": "fa219c035fb00f7df6e7e7c765a206ce"}, {"bike_id": "174dca2a19d6399a074150c6d6be5f0a", "lat": 38.878195833333336, "is_disabled": 0, "lon": -77.00738583333333, "fusion_lon": 0.0, "is_reserved": 0, "fusion_lat": 0.0, "rental_uris": {"android": "https://dc.lft.to/lastmile_qr_scan", "ios": "https://dc.lft.to/lastmile_qr_scan"}, "type": "electric_scooter", "name": "174dca2a19d6399a074150c6d6be5f0a"}, {"bike_id": "5552c089df6fa5bfecd2d4be73a254cb", "lat": 38.9241265, "is_disabled": 0, "lon": -77.05190733333333, "fusion_lon": 0.0, "is_reserved": 0, "fusion_lat": 0.0, "rental_uris": {"android": "https://dc.lft.to/lastmile_qr_scan", "ios": "https://dc.lft.to/lastmile_qr_scan"}, "type": "electric_scooter", "name": "5552c089df6fa5bfecd2d4be73a254cb"}, {"bike_id": "583ded9079fab1e547dea777e7a433d3", "lat": 38.924314333333335, "is_disabled": 0, "lon": -77.02024783333333, "fusion_lon": 0.0, "is_reserved": 0, "fusion_lat": 0.0, "rental_uris": {"android": "https://dc.lft.to/lastmile_qr_scan", "ios": "https://dc.lft.to/lastmile_qr_scan"}, "type": "electric_scooter", "name": "583ded9079fab1e547dea777e7a433d3"}, {"bike_id": "db15e8c37eca34f4e9bab4105b99fe22", "lat": 38.919959666666664, "is_disabled": 0, "lon": -77.03211283333333, "fusion_lon": 0.0, "is_reserved": 0, "fusion_lat": 0.0, "rental_uris": {"android": "https://dc.lft.to/lastmile_qr_scan", "ios": "https://dc.lft.to/lastmile_qr_scan"}, "type": "electric_scooter", "name": "db15e8c37eca34f4e9bab4105b99fe22"}, {"bike_id": "9ac6baaf9e38dd744d8b40f692f75e9d", "lat": 38.842768, "is_disabled": 0, "lon": -76.98840483333333, "fusion_lon": 0.0, "is_reserved": 0, "fusion_lat": 0.0, "rental_uris": {"android": "https://dc.lft.to/lastmile_qr_scan", "ios": "https://dc.lft.to/lastmile_qr_scan"}, "type": "electric_bike", "name": "9ac6baaf9e38dd744d8b40f692f75e9d"}, {"bike_id": "062707f47516ab0bff627c0c2e9ad4e4", "lat": 38.91739883333334, "is_disabled": 0, "lon": -77.02809466666666, "fusion_lon": 0.0, "is_reserved": 0, "fusion_lat": 0.0, "rental_uris": {"android": "https://dc.lft.to/lastmile_qr_scan", "ios": "https://dc.lft.to/lastmile_qr_scan"}, "type": "electric_scooter", "name": "062707f47516ab0bff627c0c2e9ad4e4"}, {"bike_id": "ed04cf3b142422d4be8a7cd15881d1ca", "lat": 38.89220916666667, "is_disabled": 0, "lon": -77.032143, "fusion_lon": 0.0, "is_reserved": 0, "fusion_lat": 0.0, "rental_uris": {"android": "https://dc.lft.to/lastmile_qr_scan", "ios": "https://dc.lft.to/lastmile_qr_scan"}, "type": "electric_scooter", "name": "ed04cf3b142422d4be8a7cd15881d1ca"}, {"bike_id": "785060c9e21bc8f08f42b27a2683a56f", "lat": 38.93733916666667, "is_disabled": 0, "lon": -77.03271366666667, "fusion_lon": 0.0, "is_reserved": 0, "fusion_lat": 0.0, "rental_uris": {"android": "https://dc.lft.to/lastmile_qr_scan", "ios": "https://dc.lft.to/lastmile_qr_scan"}, "type": "electric_scooter", "name": "785060c9e21bc8f08f42b27a2683a56f"}, {"bike_id": "c722341740e912a47be7e9af26daa35c", "lat": 38.927293666666664, "is_disabled": 0, "lon": -77.05254316666667, "fusion_lon": 0.0, "is_reserved": 0, "fusion_lat": 0.0, "rental_uris": {"android": "https://dc.lft.to/lastmile_qr_scan", "ios": "https://dc.lft.to/lastmile_qr_scan"}, "type": "electric_scooter", "name": "c722341740e912a47be7e9af26daa35c"}, {"bike_id": "d110b27573c8436770b4478ede278609", "lat": 38.915682833333335, "is_disabled": 0, "lon": -77.03723333333333, "fusion_lon": 0.0, "is_reserved": 0, "fusion_lat": 0.0, "rental_uris": {"android": "https://dc.lft.to/lastmile_qr_scan", "ios": "https://dc.lft.to/lastmile_qr_scan"}, "type": "electric_scooter", "name": "d110b27573c8436770b4478ede278609"}, {"bike_id": "26074b2596c913b2edba0e86a7173df5", "lat": 38.905917333333335, "is_disabled": 0, "lon": -77.04720916666666, "fusion_lon": 0.0, "is_reserved": 0, "fusion_lat": 0.0, "rental_uris": {"android": "https://dc.lft.to/lastmile_qr_scan", "ios": "https://dc.lft.to/lastmile_qr_scan"}, "type": "electric_scooter", "name": "26074b2596c913b2edba0e86a7173df5"}, {"bike_id": "1d432fb81b819c05cdb7773bd5141699", "lat": 38.79982, "is_disabled": 0, "lon": -77.12981966666666, "fusion_lon": 0.0, "is_reserved": 0, "fusion_lat": 0.0, "rental_uris": {"android": "https://dc.lft.to/lastmile_qr_scan", "ios": "https://dc.lft.to/lastmile_qr_scan"}, "type": "electric_bike", "name": "1d432fb81b819c05cdb7773bd5141699"}, {"bike_id": "74e8a586c0cc1e3abccb9e069eb93a28", "lat": 38.876775, "is_disabled": 0, "lon": -77.0178835, "fusion_lon": 0.0, "is_reserved": 0, "fusion_lat": 0.0, "rental_uris": {"android": "https://dc.lft.to/lastmile_qr_scan", "ios": "https://dc.lft.to/lastmile_qr_scan"}, "type": "electric_scooter", "name": "74e8a586c0cc1e3abccb9e069eb93a28"}, {"bike_id": "ad6599577650705236dbc02af3297c67", "lat": 38.926286, "is_disabled": 0, "lon": -76.9962425, "fusion_lon": 0.0, "is_reserved": 0, "fusion_lat": 0.0, "rental_uris": {"android": "https://dc.lft.to/lastmile_qr_scan", "ios": "https://dc.lft.to/lastmile_qr_scan"}, "type": "electric_scooter", "name": "ad6599577650705236dbc02af3297c67"}, {"bike_id": "cbf71af30c4541a399fb0d36017151dc", "lat": 38.897614, "is_disabled": 0, "lon": -76.986491, "fusion_lon": 0.0, "is_reserved": 0, "fusion_lat": 0.0, "rental_uris": {"android": "https://dc.lft.to/lastmile_qr_scan", "ios": "https://dc.lft.to/lastmile_qr_scan"}, "type": "electric_scooter", "name": "cbf71af30c4541a399fb0d36017151dc"}, {"bike_id": "1cd85e645dde6408ae64b68cf078afe0", "lat": 38.8956025, "is_disabled": 0, "lon": -77.02172716666666, "fusion_lon": 0.0, "is_reserved": 0, "fusion_lat": 0.0, "rental_uris": {"android": "https://dc.lft.to/lastmile_qr_scan", "ios": "https://dc.lft.to/lastmile_qr_scan"}, "type": "electric_scooter", "name": "1cd85e645dde6408ae64b68cf078afe0"}, {"bike_id": "27a0e941cab7b9c21387dabfbc00a885", "lat": 38.9199545, "is_disabled": 0, "lon": -77.02175016666666, "fusion_lon": 0.0, "is_reserved": 0, "fusion_lat": 0.0, "rental_uris": {"android": "https://dc.lft.to/lastmile_qr_scan", "ios": "https://dc.lft.to/lastmile_qr_scan"}, "type": "electric_scooter", "name": "27a0e941cab7b9c21387dabfbc00a885"}, {"bike_id": "28973b7198d71078cef91b483d0b4bbb", "lat": 38.88139966666667, "is_disabled": 0, "lon": -77.0270985, "fusion_lon": 0.0, "is_reserved": 0, "fusion_lat": 0.0, "rental_uris": {"android": "https://dc.lft.to/lastmile_qr_scan", "ios": "https://dc.lft.to/lastmile_qr_scan"}, "type": "electric_scooter", "name": "28973b7198d71078cef91b483d0b4bbb"}, {"bike_id": "11718a27ab29071d288ca0477e82f528", "lat": 38.898498833333335, "is_disabled": 0, "lon": -77.0286045, "fusion_lon": 0.0, "is_reserved": 0, "fusion_lat": 0.0, "rental_uris": {"android": "https://dc.lft.to/lastmile_qr_scan", "ios": "https://dc.lft.to/lastmile_qr_scan"}, "type": "electric_scooter", "name": "11718a27ab29071d288ca0477e82f528"}, {"bike_id": "4dab35417a467dd23b1a3873a24c7e0c", "lat": 38.906252333333335, "is_disabled": 0, "lon": -76.982823, "fusion_lon": 0.0, "is_reserved": 0, "fusion_lat": 0.0, "rental_uris": {"android": "https://dc.lft.to/lastmile_qr_scan", "ios": "https://dc.lft.to/lastmile_qr_scan"}, "type": "electric_bike", "name": "4dab35417a467dd23b1a3873a24c7e0c"}, {"bike_id": "13b584f243cf0d1ae0312acbe34c4468", "lat": 38.9140965, "is_disabled": 0, "lon": -77.035496, "fusion_lon": 0.0, "is_reserved": 0, "fusion_lat": 0.0, "rental_uris": {"android": "https://dc.lft.to/lastmile_qr_scan", "ios": "https://dc.lft.to/lastmile_qr_scan"}, "type": "electric_scooter", "name": "13b584f243cf0d1ae0312acbe34c4468"}, {"bike_id": "fd4189b0dc9b2aadd8f18f5413771673", "lat": 38.8964345, "is_disabled": 0, "lon": -77.0400095, "fusion_lon": 0.0, "is_reserved": 0, "fusion_lat": 0.0, "rental_uris": {"android": "https://dc.lft.to/lastmile_qr_scan", "ios": "https://dc.lft.to/lastmile_qr_scan"}, "type": "electric_scooter", "name": "fd4189b0dc9b2aadd8f18f5413771673"}, {"bike_id": "a1c25a9fc33a0d1e488abd01b040586a", "lat": 38.892480666666664, "is_disabled": 0, "lon": -77.02198033333333, "fusion_lon": 0.0, "is_reserved": 0, "fusion_lat": 0.0, "rental_uris": {"android": "https://dc.lft.to/lastmile_qr_scan", "ios": "https://dc.lft.to/lastmile_qr_scan"}, "type": "electric_scooter", "name": "a1c25a9fc33a0d1e488abd01b040586a"}, {"bike_id": "a5dc63abf5a3ee4cd820637c55419991", "lat": 38.887500333333335, "is_disabled": 0, "lon": -76.9923705, "fusion_lon": 0.0, "is_reserved": 0, "fusion_lat": 0.0, "rental_uris": {"android": "https://dc.lft.to/lastmile_qr_scan", "ios": "https://dc.lft.to/lastmile_qr_scan"}, "type": "electric_scooter", "name": "a5dc63abf5a3ee4cd820637c55419991"}, {"bike_id": "3b9b46c29f2bca9ff378a7328e53cf5e", "lat": 38.9056695, "is_disabled": 0, "lon": -77.0071475, "fusion_lon": 0.0, "is_reserved": 0, "fusion_lat": 0.0, "rental_uris": {"android": "https://dc.lft.to/lastmile_qr_scan", "ios": "https://dc.lft.to/lastmile_qr_scan"}, "type": "electric_scooter", "name": "3b9b46c29f2bca9ff378a7328e53cf5e"}, {"bike_id": "f2b7b52a37bce18c18db72c8fa533348", "lat": 38.90231216666667, "is_disabled": 0, "lon": -77.04557533333333, "fusion_lon": 0.0, "is_reserved": 0, "fusion_lat": 0.0, "rental_uris": {"android": "https://dc.lft.to/lastmile_qr_scan", "ios": "https://dc.lft.to/lastmile_qr_scan"}, "type": "electric_scooter", "name": "f2b7b52a37bce18c18db72c8fa533348"}, {"bike_id": "50884f9f15e4c27037b30b1e497a5e96", "lat": 38.88492016666667, "is_disabled": 0, "lon": -77.00710933333333, "fusion_lon": 0.0, "is_reserved": 0, "fusion_lat": 0.0, "rental_uris": {"android": "https://dc.lft.to/lastmile_qr_scan", "ios": "https://dc.lft.to/lastmile_qr_scan"}, "type": "electric_scooter", "name": "50884f9f15e4c27037b30b1e497a5e96"}, {"bike_id": "7290c3052ceccedf2243fedba7ae6f84", "lat": 38.925737166666664, "is_disabled": 0, "lon": -77.02883983333334, "fusion_lon": 0.0, "is_reserved": 0, "fusion_lat": 0.0, "rental_uris": {"android": "https://dc.lft.to/lastmile_qr_scan", "ios": "https://dc.lft.to/lastmile_qr_scan"}, "type": "electric_scooter", "name": "7290c3052ceccedf2243fedba7ae6f84"}, {"bike_id": "c0b0c0bc1b2a064141c488ab2b17b7f9", "lat": 38.980437, "is_disabled": 0, "lon": -76.95794783333334, "fusion_lon": 0.0, "is_reserved": 0, "fusion_lat": 0.0, "rental_uris": {"android": "https://dc.lft.to/lastmile_qr_scan", "ios": "https://dc.lft.to/lastmile_qr_scan"}, "type": "electric_bike", "name": "c0b0c0bc1b2a064141c488ab2b17b7f9"}, {"bike_id": "fccb85f82e9caadbc725d620b2264347", "lat": 38.91028216666667, "is_disabled": 0, "lon": -77.07552, "fusion_lon": 0.0, "is_reserved": 0, "fusion_lat": 0.0, "rental_uris": {"android": "https://dc.lft.to/lastmile_qr_scan", "ios": "https://dc.lft.to/lastmile_qr_scan"}, "type": "electric_scooter", "name": "fccb85f82e9caadbc725d620b2264347"}, {"bike_id": "3a35885a567b87fa0eb3d6fe10167dfe", "lat": 38.90305166666667, "is_disabled": 0, "lon": -77.02622916666667, "fusion_lon": 0.0, "is_reserved": 0, "fusion_lat": 0.0, "rental_uris": {"android": "https://dc.lft.to/lastmile_qr_scan", "ios": "https://dc.lft.to/lastmile_qr_scan"}, "type": "electric_scooter", "name": "3a35885a567b87fa0eb3d6fe10167dfe"}, {"bike_id": "002142faec4c796bebbe91f4bdee5e91", "lat": 38.905486, "is_disabled": 0, "lon": -77.04104383333333, "fusion_lon": 0.0, "is_reserved": 0, "fusion_lat": 0.0, "rental_uris": {"android": "https://dc.lft.to/lastmile_qr_scan", "ios": "https://dc.lft.to/lastmile_qr_scan"}, "type": "electric_scooter", "name": "002142faec4c796bebbe91f4bdee5e91"}, {"bike_id": "6b10c12c73e9774f74084fc043eb6172", "lat": 38.902121666666666, "is_disabled": 0, "lon": -77.03377683333333, "fusion_lon": 0.0, "is_reserved": 0, "fusion_lat": 0.0, "rental_uris": {"android": "https://dc.lft.to/lastmile_qr_scan", "ios": "https://dc.lft.to/lastmile_qr_scan"}, "type": "electric_scooter", "name": "6b10c12c73e9774f74084fc043eb6172"}, {"bike_id": "ab1957743d0f11b177bc81425667ff00", "lat": 38.919107, "is_disabled": 0, "lon": -77.0362545, "fusion_lon": 0.0, "is_reserved": 0, "fusion_lat": 0.0, "rental_uris": {"android": "https://dc.lft.to/lastmile_qr_scan", "ios": "https://dc.lft.to/lastmile_qr_scan"}, "type": "electric_scooter", "name": "ab1957743d0f11b177bc81425667ff00"}, {"bike_id": "4a5c576129fc07191b21eecd5675e593", "lat": 38.96112383333333, "is_disabled": 0, "lon": -77.0333125, "fusion_lon": 0.0, "is_reserved": 0, "fusion_lat": 0.0, "rental_uris": {"android": "https://dc.lft.to/lastmile_qr_scan", "ios": "https://dc.lft.to/lastmile_qr_scan"}, "type": "electric_scooter", "name": "4a5c576129fc07191b21eecd5675e593"}, {"bike_id": "a9f6cd3200cb03c8e9c8aed8984c470a", "lat": 38.928425833333336, "is_disabled": 0, "lon": -77.01587016666667, "fusion_lon": 0.0, "is_reserved": 0, "fusion_lat": 0.0, "rental_uris": {"android": "https://dc.lft.to/lastmile_qr_scan", "ios": "https://dc.lft.to/lastmile_qr_scan"}, "type": "electric_scooter", "name": "a9f6cd3200cb03c8e9c8aed8984c470a"}, {"bike_id": "75d037ff887125973667e74d6edbc014", "lat": 38.8763045, "is_disabled": 0, "lon": -76.997989, "fusion_lon": 0.0, "is_reserved": 0, "fusion_lat": 0.0, "rental_uris": {"android": "https://dc.lft.to/lastmile_qr_scan", "ios": "https://dc.lft.to/lastmile_qr_scan"}, "type": "electric_scooter", "name": "75d037ff887125973667e74d6edbc014"}, {"bike_id": "22c56a7c93b79e4eb42165c51b9fe525", "lat": 38.941977333333334, "is_disabled": 0, "lon": -77.02516266666666, "fusion_lon": 0.0, "is_reserved": 0, "fusion_lat": 0.0, "rental_uris": {"android": "https://dc.lft.to/lastmile_qr_scan", "ios": "https://dc.lft.to/lastmile_qr_scan"}, "type": "electric_scooter", "name": "22c56a7c93b79e4eb42165c51b9fe525"}, {"bike_id": "6f43a267ec1db0c377544eae8b696b89", "lat": 38.8899375, "is_disabled": 0, "lon": -77.00347516666666, "fusion_lon": 0.0, "is_reserved": 0, "fusion_lat": 0.0, "rental_uris": {"android": "https://dc.lft.to/lastmile_qr_scan", "ios": "https://dc.lft.to/lastmile_qr_scan"}, "type": "electric_scooter", "name": "6f43a267ec1db0c377544eae8b696b89"}, {"bike_id": "61dbdc3240bda601889314e158fb94bf", "lat": 38.91562183333333, "is_disabled": 0, "lon": -77.04166883333333, "fusion_lon": 0.0, "is_reserved": 0, "fusion_lat": 0.0, "rental_uris": {"android": "https://dc.lft.to/lastmile_qr_scan", "ios": "https://dc.lft.to/lastmile_qr_scan"}, "type": "electric_scooter", "name": "61dbdc3240bda601889314e158fb94bf"}, {"bike_id": "824b1ef1267e41e96c3eb49d331061a6", "lat": 38.92166566666667, "is_disabled": 0, "lon": -77.02026783333334, "fusion_lon": 0.0, "is_reserved": 0, "fusion_lat": 0.0, "rental_uris": {"android": "https://dc.lft.to/lastmile_qr_scan", "ios": "https://dc.lft.to/lastmile_qr_scan"}, "type": "electric_scooter", "name": "824b1ef1267e41e96c3eb49d331061a6"}, {"bike_id": "23700ebffe8a8d4dc28f01c5e4ba6a75", "lat": 38.90644616666667, "is_disabled": 0, "lon": -77.01764616666667, "fusion_lon": 0.0, "is_reserved": 0, "fusion_lat": 0.0, "rental_uris": {"android": "https://dc.lft.to/lastmile_qr_scan", "ios": "https://dc.lft.to/lastmile_qr_scan"}, "type": "electric_scooter", "name": "23700ebffe8a8d4dc28f01c5e4ba6a75"}, {"bike_id": "87223b1ed9c3b9291ce774c03db8a57a", "lat": 38.87661633333333, "is_disabled": 0, "lon": -77.000599, "fusion_lon": 0.0, "is_reserved": 0, "fusion_lat": 0.0, "rental_uris": {"android": "https://dc.lft.to/lastmile_qr_scan", "ios": "https://dc.lft.to/lastmile_qr_scan"}, "type": "electric_scooter", "name": "87223b1ed9c3b9291ce774c03db8a57a"}, {"bike_id": "33d9cb8500ba6ddd88942f84beb1b441", "lat": 38.877195666666665, "is_disabled": 0, "lon": -77.0175005, "fusion_lon": 0.0, "is_reserved": 0, "fusion_lat": 0.0, "rental_uris": {"android": "https://dc.lft.to/lastmile_qr_scan", "ios": "https://dc.lft.to/lastmile_qr_scan"}, "type": "electric_scooter", "name": "33d9cb8500ba6ddd88942f84beb1b441"}, {"bike_id": "f309ddd1d89379eaedc24d49f13cedcf", "lat": 38.93226833333333, "is_disabled": 0, "lon": -77.023761, "fusion_lon": 0.0, "is_reserved": 0, "fusion_lat": 0.0, "rental_uris": {"android": "https://dc.lft.to/lastmile_qr_scan", "ios": "https://dc.lft.to/lastmile_qr_scan"}, "type": "electric_scooter", "name": "f309ddd1d89379eaedc24d49f13cedcf"}, {"bike_id": "9ba8e24800ceba73983d7b7c5d1d7f7c", "lat": 38.905746, "is_disabled": 0, "lon": -77.03827916666667, "fusion_lon": 0.0, "is_reserved": 0, "fusion_lat": 0.0, "rental_uris": {"android": "https://dc.lft.to/lastmile_qr_scan", "ios": "https://dc.lft.to/lastmile_qr_scan"}, "type": "electric_scooter", "name": "9ba8e24800ceba73983d7b7c5d1d7f7c"}, {"bike_id": "e106fc7eb1b7599691e5e8933a8a5bcb", "lat": 38.92393533333333, "is_disabled": 0, "lon": -77.02691166666666, "fusion_lon": 0.0, "is_reserved": 0, "fusion_lat": 0.0, "rental_uris": {"android": "https://dc.lft.to/lastmile_qr_scan", "ios": "https://dc.lft.to/lastmile_qr_scan"}, "type": "electric_scooter", "name": "e106fc7eb1b7599691e5e8933a8a5bcb"}, {"bike_id": "a6e3274670a6fefaf7fd6b8994fb821e", "lat": 38.91408233333333, "is_disabled": 0, "lon": -77.03220633333333, "fusion_lon": 0.0, "is_reserved": 0, "fusion_lat": 0.0, "rental_uris": {"android": "https://dc.lft.to/lastmile_qr_scan", "ios": "https://dc.lft.to/lastmile_qr_scan"}, "type": "electric_scooter", "name": "a6e3274670a6fefaf7fd6b8994fb821e"}, {"bike_id": "a26dd5b9a556ab8d7ad4dca8f25843a2", "lat": 38.936222, "is_disabled": 0, "lon": -77.02480233333333, "fusion_lon": 0.0, "is_reserved": 0, "fusion_lat": 0.0, "rental_uris": {"android": "https://dc.lft.to/lastmile_qr_scan", "ios": "https://dc.lft.to/lastmile_qr_scan"}, "type": "electric_scooter", "name": "a26dd5b9a556ab8d7ad4dca8f25843a2"}, {"bike_id": "d7433ff407b0137b05bffe446c882c7b", "lat": 38.8953515, "is_disabled": 0, "lon": -77.0465, "fusion_lon": 0.0, "is_reserved": 0, "fusion_lat": 0.0, "rental_uris": {"android": "https://dc.lft.to/lastmile_qr_scan", "ios": "https://dc.lft.to/lastmile_qr_scan"}, "type": "electric_scooter", "name": "d7433ff407b0137b05bffe446c882c7b"}, {"bike_id": "3507c351670a881f813ce2cd3d4a7d83", "lat": 38.9406495, "is_disabled": 0, "lon": -77.003941, "fusion_lon": 0.0, "is_reserved": 0, "fusion_lat": 0.0, "rental_uris": {"android": "https://dc.lft.to/lastmile_qr_scan", "ios": "https://dc.lft.to/lastmile_qr_scan"}, "type": "electric_scooter", "name": "3507c351670a881f813ce2cd3d4a7d83"}, {"bike_id": "0fe4bf8ff80f0af4b87d2064cc89d2e4", "lat": 38.944024, "is_disabled": 0, "lon": -77.0551435, "fusion_lon": 0.0, "is_reserved": 0, "fusion_lat": 0.0, "rental_uris": {"android": "https://dc.lft.to/lastmile_qr_scan", "ios": "https://dc.lft.to/lastmile_qr_scan"}, "type": "electric_bike", "name": "0fe4bf8ff80f0af4b87d2064cc89d2e4"}, {"bike_id": "bd21e480abab34050907e3c800314318", "lat": 38.9076865, "is_disabled": 0, "lon": -77.03766316666666, "fusion_lon": 0.0, "is_reserved": 0, "fusion_lat": 0.0, "rental_uris": {"android": "https://dc.lft.to/lastmile_qr_scan", "ios": "https://dc.lft.to/lastmile_qr_scan"}, "type": "electric_scooter", "name": "bd21e480abab34050907e3c800314318"}, {"bike_id": "2621547bc3d1244b2a6dc260786fb46f", "lat": 38.892239333333336, "is_disabled": 0, "lon": -77.03991933333333, "fusion_lon": 0.0, "is_reserved": 0, "fusion_lat": 0.0, "rental_uris": {"android": "https://dc.lft.to/lastmile_qr_scan", "ios": "https://dc.lft.to/lastmile_qr_scan"}, "type": "electric_scooter", "name": "2621547bc3d1244b2a6dc260786fb46f"}, {"bike_id": "02978d0e39a3625207cabb67af35871f", "lat": 38.90552383333333, "is_disabled": 0, "lon": -77.046557, "fusion_lon": 0.0, "is_reserved": 0, "fusion_lat": 0.0, "rental_uris": {"android": "https://dc.lft.to/lastmile_qr_scan", "ios": "https://dc.lft.to/lastmile_qr_scan"}, "type": "electric_scooter", "name": "02978d0e39a3625207cabb67af35871f"}, {"bike_id": "d6bb2a92a8a934414dec6f1097d6ebb5", "lat": 38.92423383333333, "is_disabled": 0, "lon": -77.0422885, "fusion_lon": 0.0, "is_reserved": 0, "fusion_lat": 0.0, "rental_uris": {"android": "https://dc.lft.to/lastmile_qr_scan", "ios": "https://dc.lft.to/lastmile_qr_scan"}, "type": "electric_scooter", "name": "d6bb2a92a8a934414dec6f1097d6ebb5"}, {"bike_id": "c40df7aab3a493a79c1e207a79bab52e", "lat": 38.922380833333335, "is_disabled": 0, "lon": -77.04451133333333, "fusion_lon": 0.0, "is_reserved": 0, "fusion_lat": 0.0, "rental_uris": {"android": "https://dc.lft.to/lastmile_qr_scan", "ios": "https://dc.lft.to/lastmile_qr_scan"}, "type": "electric_scooter", "name": "c40df7aab3a493a79c1e207a79bab52e"}, {"bike_id": "7a3649e221d9c81b78a7af6b2d2b2dee", "lat": 38.911702166666664, "is_disabled": 0, "lon": -77.01607516666667, "fusion_lon": 0.0, "is_reserved": 0, "fusion_lat": 0.0, "rental_uris": {"android": "https://dc.lft.to/lastmile_qr_scan", "ios": "https://dc.lft.to/lastmile_qr_scan"}, "type": "electric_scooter", "name": "7a3649e221d9c81b78a7af6b2d2b2dee"}, {"bike_id": "4f6ddf20f8aa4c81f7496fb487ce09f3", "lat": 38.892794333333335, "is_disabled": 0, "lon": -77.04665866666667, "fusion_lon": 0.0, "is_reserved": 0, "fusion_lat": 0.0, "rental_uris": {"android": "https://dc.lft.to/lastmile_qr_scan", "ios": "https://dc.lft.to/lastmile_qr_scan"}, "type": "electric_scooter", "name": "4f6ddf20f8aa4c81f7496fb487ce09f3"}, {"bike_id": "889fea0f6401e1dfaaf5bebacdae782d", "lat": 38.8922345, "is_disabled": 0, "lon": -77.04860183333334, "fusion_lon": 0.0, "is_reserved": 0, "fusion_lat": 0.0, "rental_uris": {"android": "https://dc.lft.to/lastmile_qr_scan", "ios": "https://dc.lft.to/lastmile_qr_scan"}, "type": "electric_scooter", "name": "889fea0f6401e1dfaaf5bebacdae782d"}, {"bike_id": "566fc909e67de7fe090b86df8d511fb1", "lat": 38.910244666666664, "is_disabled": 0, "lon": -77.04880816666666, "fusion_lon": 0.0, "is_reserved": 0, "fusion_lat": 0.0, "rental_uris": {"android": "https://dc.lft.to/lastmile_qr_scan", "ios": "https://dc.lft.to/lastmile_qr_scan"}, "type": "electric_scooter", "name": "566fc909e67de7fe090b86df8d511fb1"}, {"bike_id": "cc0eeb2d9f5bdff4a098fd0860a460c7", "lat": 38.91484033333333, "is_disabled": 0, "lon": -77.01888783333334, "fusion_lon": 0.0, "is_reserved": 0, "fusion_lat": 0.0, "rental_uris": {"android": "https://dc.lft.to/lastmile_qr_scan", "ios": "https://dc.lft.to/lastmile_qr_scan"}, "type": "electric_scooter", "name": "cc0eeb2d9f5bdff4a098fd0860a460c7"}, {"bike_id": "e74eb448f51eb9efe6444def131a0dbe", "lat": 38.89554666666667, "is_disabled": 0, "lon": -77.00915666666667, "fusion_lon": 0.0, "is_reserved": 0, "fusion_lat": 0.0, "rental_uris": {"android": "https://dc.lft.to/lastmile_qr_scan", "ios": "https://dc.lft.to/lastmile_qr_scan"}, "type": "electric_scooter", "name": "e74eb448f51eb9efe6444def131a0dbe"}, {"bike_id": "827b813ff611766774cefd40ed824435", "lat": 38.925189333333336, "is_disabled": 0, "lon": -77.02257416666667, "fusion_lon": 0.0, "is_reserved": 0, "fusion_lat": 0.0, "rental_uris": {"android": "https://dc.lft.to/lastmile_qr_scan", "ios": "https://dc.lft.to/lastmile_qr_scan"}, "type": "electric_scooter", "name": "827b813ff611766774cefd40ed824435"}, {"bike_id": "b228432902b837187a184b0032942034", "lat": 38.892658, "is_disabled": 0, "lon": -77.04201583333334, "fusion_lon": 0.0, "is_reserved": 0, "fusion_lat": 0.0, "rental_uris": {"android": "https://dc.lft.to/lastmile_qr_scan", "ios": "https://dc.lft.to/lastmile_qr_scan"}, "type": "electric_scooter", "name": "b228432902b837187a184b0032942034"}, {"bike_id": "334490300fb2515d0e707d47edda614d", "lat": 38.8808325, "is_disabled": 0, "lon": -76.98512666666667, "fusion_lon": 0.0, "is_reserved": 0, "fusion_lat": 0.0, "rental_uris": {"android": "https://dc.lft.to/lastmile_qr_scan", "ios": "https://dc.lft.to/lastmile_qr_scan"}, "type": "electric_scooter", "name": "334490300fb2515d0e707d47edda614d"}, {"bike_id": "b76bdbf982332ba815550247cbaa853f", "lat": 38.9047885, "is_disabled": 0, "lon": -77.01872516666667, "fusion_lon": 0.0, "is_reserved": 0, "fusion_lat": 0.0, "rental_uris": {"android": "https://dc.lft.to/lastmile_qr_scan", "ios": "https://dc.lft.to/lastmile_qr_scan"}, "type": "electric_scooter", "name": "b76bdbf982332ba815550247cbaa853f"}, {"bike_id": "332e63315f8e1ad3330ab5fdfece7469", "lat": 38.91415216666667, "is_disabled": 0, "lon": -77.04505466666667, "fusion_lon": 0.0, "is_reserved": 0, "fusion_lat": 0.0, "rental_uris": {"android": "https://dc.lft.to/lastmile_qr_scan", "ios": "https://dc.lft.to/lastmile_qr_scan"}, "type": "electric_scooter", "name": "332e63315f8e1ad3330ab5fdfece7469"}, {"bike_id": "3e1a18bc1b2e811a310a5ad56c83c5ea", "lat": 38.90588183333333, "is_disabled": 0, "lon": -77.04334216666666, "fusion_lon": 0.0, "is_reserved": 0, "fusion_lat": 0.0, "rental_uris": {"android": "https://dc.lft.to/lastmile_qr_scan", "ios": "https://dc.lft.to/lastmile_qr_scan"}, "type": "electric_scooter", "name": "3e1a18bc1b2e811a310a5ad56c83c5ea"}, {"bike_id": "7ce555a3b80b0449d075e12024fd2757", "lat": 38.903772333333336, "is_disabled": 0, "lon": -77.01752716666667, "fusion_lon": 0.0, "is_reserved": 0, "fusion_lat": 0.0, "rental_uris": {"android": "https://dc.lft.to/lastmile_qr_scan", "ios": "https://dc.lft.to/lastmile_qr_scan"}, "type": "electric_bike", "name": "7ce555a3b80b0449d075e12024fd2757"}, {"bike_id": "bbc6930a8bb9a195567aa7ac4606c37e", "lat": 38.89698816666667, "is_disabled": 0, "lon": -77.02469, "fusion_lon": 0.0, "is_reserved": 0, "fusion_lat": 0.0, "rental_uris": {"android": "https://dc.lft.to/lastmile_qr_scan", "ios": "https://dc.lft.to/lastmile_qr_scan"}, "type": "electric_scooter", "name": "bbc6930a8bb9a195567aa7ac4606c37e"}, {"bike_id": "fc5bc94658c7a6da0aacd9dfcbd0aa57", "lat": 38.91435933333333, "is_disabled": 0, "lon": -77.04177116666666, "fusion_lon": 0.0, "is_reserved": 0, "fusion_lat": 0.0, "rental_uris": {"android": "https://dc.lft.to/lastmile_qr_scan", "ios": "https://dc.lft.to/lastmile_qr_scan"}, "type": "electric_scooter", "name": "fc5bc94658c7a6da0aacd9dfcbd0aa57"}, {"bike_id": "a31195315bc5290fa67a8dcc97145884", "lat": 38.923269166666664, "is_disabled": 0, "lon": -77.02041133333333, "fusion_lon": 0.0, "is_reserved": 0, "fusion_lat": 0.0, "rental_uris": {"android": "https://dc.lft.to/lastmile_qr_scan", "ios": "https://dc.lft.to/lastmile_qr_scan"}, "type": "electric_scooter", "name": "a31195315bc5290fa67a8dcc97145884"}, {"bike_id": "c368edb8f282145be18587f6b21af53e", "lat": 38.91806483333333, "is_disabled": 0, "lon": -77.03434566666667, "fusion_lon": 0.0, "is_reserved": 0, "fusion_lat": 0.0, "rental_uris": {"android": "https://dc.lft.to/lastmile_qr_scan", "ios": "https://dc.lft.to/lastmile_qr_scan"}, "type": "electric_scooter", "name": "c368edb8f282145be18587f6b21af53e"}, {"bike_id": "6110ee082ab3a9753d7444e7edba3ff1", "lat": 38.903055333333334, "is_disabled": 0, "lon": -76.97806533333333, "fusion_lon": 0.0, "is_reserved": 0, "fusion_lat": 0.0, "rental_uris": {"android": "https://dc.lft.to/lastmile_qr_scan", "ios": "https://dc.lft.to/lastmile_qr_scan"}, "type": "electric_scooter", "name": "6110ee082ab3a9753d7444e7edba3ff1"}, {"bike_id": "4242aeac75a3e0a7ed5cf9e81a90b720", "lat": 38.89218616666667, "is_disabled": 0, "lon": -77.044728, "fusion_lon": 0.0, "is_reserved": 0, "fusion_lat": 0.0, "rental_uris": {"android": "https://dc.lft.to/lastmile_qr_scan", "ios": "https://dc.lft.to/lastmile_qr_scan"}, "type": "electric_scooter", "name": "4242aeac75a3e0a7ed5cf9e81a90b720"}, {"bike_id": "f4ea3d1270c602361adacb724d81c78c", "lat": 38.9335285, "is_disabled": 0, "lon": -77.07231483333334, "fusion_lon": 0.0, "is_reserved": 0, "fusion_lat": 0.0, "rental_uris": {"android": "https://dc.lft.to/lastmile_qr_scan", "ios": "https://dc.lft.to/lastmile_qr_scan"}, "type": "electric_scooter", "name": "f4ea3d1270c602361adacb724d81c78c"}, {"bike_id": "6fab4416e8fd155213dfd3facfeeaddc", "lat": 38.90117466666667, "is_disabled": 0, "lon": -77.060247, "fusion_lon": 0.0, "is_reserved": 0, "fusion_lat": 0.0, "rental_uris": {"android": "https://dc.lft.to/lastmile_qr_scan", "ios": "https://dc.lft.to/lastmile_qr_scan"}, "type": "electric_scooter", "name": "6fab4416e8fd155213dfd3facfeeaddc"}, {"bike_id": "39a12f55812a83037d6655aac8db815f", "lat": 38.92479466666666, "is_disabled": 0, "lon": -77.03904783333333, "fusion_lon": 0.0, "is_reserved": 0, "fusion_lat": 0.0, "rental_uris": {"android": "https://dc.lft.to/lastmile_qr_scan", "ios": "https://dc.lft.to/lastmile_qr_scan"}, "type": "electric_scooter", "name": "39a12f55812a83037d6655aac8db815f"}, {"bike_id": "d65e192f680cc36759454e45984bffa2", "lat": 38.9383075, "is_disabled": 0, "lon": -77.029796, "fusion_lon": 0.0, "is_reserved": 0, "fusion_lat": 0.0, "rental_uris": {"android": "https://dc.lft.to/lastmile_qr_scan", "ios": "https://dc.lft.to/lastmile_qr_scan"}, "type": "electric_scooter", "name": "d65e192f680cc36759454e45984bffa2"}, {"bike_id": "e22b348142d097cb0088ceca4ffb1300", "lat": 38.92026216666667, "is_disabled": 0, "lon": -77.0407615, "fusion_lon": 0.0, "is_reserved": 0, "fusion_lat": 0.0, "rental_uris": {"android": "https://dc.lft.to/lastmile_qr_scan", "ios": "https://dc.lft.to/lastmile_qr_scan"}, "type": "electric_scooter", "name": "e22b348142d097cb0088ceca4ffb1300"}, {"bike_id": "2221679db4b20d299f247c1591082e1b", "lat": 38.887071666666664, "is_disabled": 0, "lon": -77.0282485, "fusion_lon": 0.0, "is_reserved": 0, "fusion_lat": 0.0, "rental_uris": {"android": "https://dc.lft.to/lastmile_qr_scan", "ios": "https://dc.lft.to/lastmile_qr_scan"}, "type": "electric_scooter", "name": "2221679db4b20d299f247c1591082e1b"}, {"bike_id": "fba523963ef029308de340ce4257fffb", "lat": 38.89223, "is_disabled": 0, "lon": -77.043374, "fusion_lon": 0.0, "is_reserved": 0, "fusion_lat": 0.0, "rental_uris": {"android": "https://dc.lft.to/lastmile_qr_scan", "ios": "https://dc.lft.to/lastmile_qr_scan"}, "type": "electric_scooter", "name": "fba523963ef029308de340ce4257fffb"}, {"bike_id": "2c5f2f9f9665e84edbddea58ca19917d", "lat": 38.920616, "is_disabled": 0, "lon": -77.03259966666667, "fusion_lon": 0.0, "is_reserved": 0, "fusion_lat": 0.0, "rental_uris": {"android": "https://dc.lft.to/lastmile_qr_scan", "ios": "https://dc.lft.to/lastmile_qr_scan"}, "type": "electric_scooter", "name": "2c5f2f9f9665e84edbddea58ca19917d"}, {"bike_id": "6bbb2d08ea0f22e8434b013cff4e75c1", "lat": 38.896174333333335, "is_disabled": 0, "lon": -76.90738216666666, "fusion_lon": 0.0, "is_reserved": 0, "fusion_lat": 0.0, "rental_uris": {"android": "https://dc.lft.to/lastmile_qr_scan", "ios": "https://dc.lft.to/lastmile_qr_scan"}, "type": "electric_bike", "name": "6bbb2d08ea0f22e8434b013cff4e75c1"}, {"bike_id": "94d614b81b76c572b37c772572be3615", "lat": 38.925009833333334, "is_disabled": 0, "lon": -77.03881933333334, "fusion_lon": 0.0, "is_reserved": 0, "fusion_lat": 0.0, "rental_uris": {"android": "https://dc.lft.to/lastmile_qr_scan", "ios": "https://dc.lft.to/lastmile_qr_scan"}, "type": "electric_scooter", "name": "94d614b81b76c572b37c772572be3615"}, {"bike_id": "9a7b84523e777745164d7f8977e0d584", "lat": 38.9166525, "is_disabled": 0, "lon": -77.0229275, "fusion_lon": 0.0, "is_reserved": 0, "fusion_lat": 0.0, "rental_uris": {"android": "https://dc.lft.to/lastmile_qr_scan", "ios": "https://dc.lft.to/lastmile_qr_scan"}, "type": "electric_scooter", "name": "9a7b84523e777745164d7f8977e0d584"}, {"bike_id": "784d1a702dec346598ed1f5484aea81f", "lat": 38.920556166666664, "is_disabled": 0, "lon": -77.03192016666667, "fusion_lon": 0.0, "is_reserved": 0, "fusion_lat": 0.0, "rental_uris": {"android": "https://dc.lft.to/lastmile_qr_scan", "ios": "https://dc.lft.to/lastmile_qr_scan"}, "type": "electric_scooter", "name": "784d1a702dec346598ed1f5484aea81f"}, {"bike_id": "0e28a60b6b92bfd5a2b56178617c9098", "lat": 38.920812166666664, "is_disabled": 0, "lon": -77.02405616666667, "fusion_lon": 0.0, "is_reserved": 0, "fusion_lat": 0.0, "rental_uris": {"android": "https://dc.lft.to/lastmile_qr_scan", "ios": "https://dc.lft.to/lastmile_qr_scan"}, "type": "electric_scooter", "name": "0e28a60b6b92bfd5a2b56178617c9098"}, {"bike_id": "88ce8745e882f9c986e5c49384457830", "lat": 38.92058, "is_disabled": 0, "lon": -77.023659, "fusion_lon": 0.0, "is_reserved": 0, "fusion_lat": 0.0, "rental_uris": {"android": "https://dc.lft.to/lastmile_qr_scan", "ios": "https://dc.lft.to/lastmile_qr_scan"}, "type": "electric_scooter", "name": "88ce8745e882f9c986e5c49384457830"}, {"bike_id": "73c1c60b6480c4b1456cbdc0087dbdce", "lat": 38.9156665, "is_disabled": 0, "lon": -77.020067, "fusion_lon": 0.0, "is_reserved": 0, "fusion_lat": 0.0, "rental_uris": {"android": "https://dc.lft.to/lastmile_qr_scan", "ios": "https://dc.lft.to/lastmile_qr_scan"}, "type": "electric_scooter", "name": "73c1c60b6480c4b1456cbdc0087dbdce"}, {"bike_id": "76c6db319b7bd88b13789db32991617e", "lat": 38.921589, "is_disabled": 0, "lon": -77.03384383333334, "fusion_lon": 0.0, "is_reserved": 0, "fusion_lat": 0.0, "rental_uris": {"android": "https://dc.lft.to/lastmile_qr_scan", "ios": "https://dc.lft.to/lastmile_qr_scan"}, "type": "electric_scooter", "name": "76c6db319b7bd88b13789db32991617e"}, {"bike_id": "f46c6cbb3485582cc55e1e008f500d2f", "lat": 38.919427, "is_disabled": 0, "lon": -77.02516716666666, "fusion_lon": 0.0, "is_reserved": 0, "fusion_lat": 0.0, "rental_uris": {"android": "https://dc.lft.to/lastmile_qr_scan", "ios": "https://dc.lft.to/lastmile_qr_scan"}, "type": "electric_scooter", "name": "f46c6cbb3485582cc55e1e008f500d2f"}, {"bike_id": "1647bbbb731b5a95d8dd4f68022197ea", "lat": 38.910588, "is_disabled": 0, "lon": -77.00912016666666, "fusion_lon": 0.0, "is_reserved": 0, "fusion_lat": 0.0, "rental_uris": {"android": "https://dc.lft.to/lastmile_qr_scan", "ios": "https://dc.lft.to/lastmile_qr_scan"}, "type": "electric_scooter", "name": "1647bbbb731b5a95d8dd4f68022197ea"}, {"bike_id": "aad9f6ce6786399aa165e950297426b2", "lat": 38.9342775, "is_disabled": 0, "lon": -77.03993583333333, "fusion_lon": 0.0, "is_reserved": 0, "fusion_lat": 0.0, "rental_uris": {"android": "https://dc.lft.to/lastmile_qr_scan", "ios": "https://dc.lft.to/lastmile_qr_scan"}, "type": "electric_scooter", "name": "aad9f6ce6786399aa165e950297426b2"}, {"bike_id": "bf4d75644d368d568c845f44b6cf17f7", "lat": 38.8649795, "is_disabled": 0, "lon": -76.98986516666666, "fusion_lon": 0.0, "is_reserved": 0, "fusion_lat": 0.0, "rental_uris": {"android": "https://dc.lft.to/lastmile_qr_scan", "ios": "https://dc.lft.to/lastmile_qr_scan"}, "type": "electric_scooter", "name": "bf4d75644d368d568c845f44b6cf17f7"}, {"bike_id": "559ed98f2c32c894c72de8e1d2a19973", "lat": 38.90069483333333, "is_disabled": 0, "lon": -77.02542066666666, "fusion_lon": 0.0, "is_reserved": 0, "fusion_lat": 0.0, "rental_uris": {"android": "https://dc.lft.to/lastmile_qr_scan", "ios": "https://dc.lft.to/lastmile_qr_scan"}, "type": "electric_scooter", "name": "559ed98f2c32c894c72de8e1d2a19973"}, {"bike_id": "33f18738577588ea38d765b3e3108c1a", "lat": 38.8922255, "is_disabled": 0, "lon": -77.048603, "fusion_lon": 0.0, "is_reserved": 0, "fusion_lat": 0.0, "rental_uris": {"android": "https://dc.lft.to/lastmile_qr_scan", "ios": "https://dc.lft.to/lastmile_qr_scan"}, "type": "electric_scooter", "name": "33f18738577588ea38d765b3e3108c1a"}, {"bike_id": "1c629330c9dfe08ec220eca8f1cff566", "lat": 38.920311166666664, "is_disabled": 0, "lon": -77.01213566666667, "fusion_lon": 0.0, "is_reserved": 0, "fusion_lat": 0.0, "rental_uris": {"android": "https://dc.lft.to/lastmile_qr_scan", "ios": "https://dc.lft.to/lastmile_qr_scan"}, "type": "electric_scooter", "name": "1c629330c9dfe08ec220eca8f1cff566"}, {"bike_id": "e97a9078ba1168b19b3294c58642a29b", "lat": 38.936826, "is_disabled": 0, "lon": -77.036269, "fusion_lon": 0.0, "is_reserved": 0, "fusion_lat": 0.0, "rental_uris": {"android": "https://dc.lft.to/lastmile_qr_scan", "ios": "https://dc.lft.to/lastmile_qr_scan"}, "type": "electric_scooter", "name": "e97a9078ba1168b19b3294c58642a29b"}, {"bike_id": "2ec65956ad2074de8e42db23f5a8b70a", "lat": 38.903793, "is_disabled": 0, "lon": -77.0476005, "fusion_lon": 0.0, "is_reserved": 0, "fusion_lat": 0.0, "rental_uris": {"android": "https://dc.lft.to/lastmile_qr_scan", "ios": "https://dc.lft.to/lastmile_qr_scan"}, "type": "electric_scooter", "name": "2ec65956ad2074de8e42db23f5a8b70a"}, {"bike_id": "2f2fc21cd43321cd65df2fcd7ab73369", "lat": 38.918978, "is_disabled": 0, "lon": -77.0210395, "fusion_lon": 0.0, "is_reserved": 0, "fusion_lat": 0.0, "rental_uris": {"android": "https://dc.lft.to/lastmile_qr_scan", "ios": "https://dc.lft.to/lastmile_qr_scan"}, "type": "electric_scooter", "name": "2f2fc21cd43321cd65df2fcd7ab73369"}, {"bike_id": "24df8399a44dc40480a844fba345373d", "lat": 38.91191533333333, "is_disabled": 0, "lon": -76.987386, "fusion_lon": 0.0, "is_reserved": 0, "fusion_lat": 0.0, "rental_uris": {"android": "https://dc.lft.to/lastmile_qr_scan", "ios": "https://dc.lft.to/lastmile_qr_scan"}, "type": "electric_scooter", "name": "24df8399a44dc40480a844fba345373d"}, {"bike_id": "a5077f49502220a5e765be6b01d5363d", "lat": 38.89758366666667, "is_disabled": 0, "lon": -77.02697033333334, "fusion_lon": 0.0, "is_reserved": 0, "fusion_lat": 0.0, "rental_uris": {"android": "https://dc.lft.to/lastmile_qr_scan", "ios": "https://dc.lft.to/lastmile_qr_scan"}, "type": "electric_scooter", "name": "a5077f49502220a5e765be6b01d5363d"}, {"bike_id": "82f1e96d71cc3928b04c6d5b70e7e923", "lat": 38.934725666666665, "is_disabled": 0, "lon": -77.04138316666666, "fusion_lon": 0.0, "is_reserved": 0, "fusion_lat": 0.0, "rental_uris": {"android": "https://dc.lft.to/lastmile_qr_scan", "ios": "https://dc.lft.to/lastmile_qr_scan"}, "type": "electric_scooter", "name": "82f1e96d71cc3928b04c6d5b70e7e923"}, {"bike_id": "ec7c63b5194737352776ef63c929aaa1", "lat": 38.89892366666667, "is_disabled": 0, "lon": -77.02167966666667, "fusion_lon": 0.0, "is_reserved": 0, "fusion_lat": 0.0, "rental_uris": {"android": "https://dc.lft.to/lastmile_qr_scan", "ios": "https://dc.lft.to/lastmile_qr_scan"}, "type": "electric_scooter", "name": "ec7c63b5194737352776ef63c929aaa1"}, {"bike_id": "f2a2bda04c00248958a185e3bb0e2057", "lat": 38.909462166666664, "is_disabled": 0, "lon": -77.01635816666666, "fusion_lon": 0.0, "is_reserved": 0, "fusion_lat": 0.0, "rental_uris": {"android": "https://dc.lft.to/lastmile_qr_scan", "ios": "https://dc.lft.to/lastmile_qr_scan"}, "type": "electric_bike", "name": "f2a2bda04c00248958a185e3bb0e2057"}, {"bike_id": "94886846eaee13804a751cc4d93e8161", "lat": 38.905366666666666, "is_disabled": 0, "lon": -77.03989583333333, "fusion_lon": 0.0, "is_reserved": 0, "fusion_lat": 0.0, "rental_uris": {"android": "https://dc.lft.to/lastmile_qr_scan", "ios": "https://dc.lft.to/lastmile_qr_scan"}, "type": "electric_scooter", "name": "94886846eaee13804a751cc4d93e8161"}, {"bike_id": "43a271cebd2de867e5337d383a23601c", "lat": 38.9068625, "is_disabled": 0, "lon": -77.00587966666667, "fusion_lon": 0.0, "is_reserved": 0, "fusion_lat": 0.0, "rental_uris": {"android": "https://dc.lft.to/lastmile_qr_scan", "ios": "https://dc.lft.to/lastmile_qr_scan"}, "type": "electric_scooter", "name": "43a271cebd2de867e5337d383a23601c"}, {"bike_id": "bce6ef16208ea02a0f6f2bf40dd87fd7", "lat": 38.900898833333336, "is_disabled": 0, "lon": -77.04991, "fusion_lon": 0.0, "is_reserved": 0, "fusion_lat": 0.0, "rental_uris": {"android": "https://dc.lft.to/lastmile_qr_scan", "ios": "https://dc.lft.to/lastmile_qr_scan"}, "type": "electric_scooter", "name": "bce6ef16208ea02a0f6f2bf40dd87fd7"}, {"bike_id": "843ba8608d7f328e0f554f98b941a8f1", "lat": 38.909572, "is_disabled": 0, "lon": -77.04460033333334, "fusion_lon": 0.0, "is_reserved": 0, "fusion_lat": 0.0, "rental_uris": {"android": "https://dc.lft.to/lastmile_qr_scan", "ios": "https://dc.lft.to/lastmile_qr_scan"}, "type": "electric_scooter", "name": "843ba8608d7f328e0f554f98b941a8f1"}, {"bike_id": "d5ee81ec3f7fc3f9bc8bc983f56228f9", "lat": 38.9069245, "is_disabled": 0, "lon": -77.04512383333334, "fusion_lon": 0.0, "is_reserved": 0, "fusion_lat": 0.0, "rental_uris": {"android": "https://dc.lft.to/lastmile_qr_scan", "ios": "https://dc.lft.to/lastmile_qr_scan"}, "type": "electric_scooter", "name": "d5ee81ec3f7fc3f9bc8bc983f56228f9"}, {"bike_id": "4459fad04639422394ac7306a8473062", "lat": 38.90552916666667, "is_disabled": 0, "lon": -77.03249433333333, "fusion_lon": 0.0, "is_reserved": 0, "fusion_lat": 0.0, "rental_uris": {"android": "https://dc.lft.to/lastmile_qr_scan", "ios": "https://dc.lft.to/lastmile_qr_scan"}, "type": "electric_scooter", "name": "4459fad04639422394ac7306a8473062"}, {"bike_id": "1ae825d85592083aabccc0b98888e100", "lat": 38.904619, "is_disabled": 0, "lon": -76.9949685, "fusion_lon": 0.0, "is_reserved": 0, "fusion_lat": 0.0, "rental_uris": {"android": "https://dc.lft.to/lastmile_qr_scan", "ios": "https://dc.lft.to/lastmile_qr_scan"}, "type": "electric_scooter", "name": "1ae825d85592083aabccc0b98888e100"}, {"bike_id": "48cd100a0e3593498d36738cd960e742", "lat": 38.922501, "is_disabled": 0, "lon": -77.02007466666667, "fusion_lon": 0.0, "is_reserved": 0, "fusion_lat": 0.0, "rental_uris": {"android": "https://dc.lft.to/lastmile_qr_scan", "ios": "https://dc.lft.to/lastmile_qr_scan"}, "type": "electric_scooter", "name": "48cd100a0e3593498d36738cd960e742"}, {"bike_id": "e6c3bd5e4bfe15ec5357d8625c1cc742", "lat": 38.91921116666666, "is_disabled": 0, "lon": -77.07936783333334, "fusion_lon": 0.0, "is_reserved": 0, "fusion_lat": 0.0, "rental_uris": {"android": "https://dc.lft.to/lastmile_qr_scan", "ios": "https://dc.lft.to/lastmile_qr_scan"}, "type": "electric_scooter", "name": "e6c3bd5e4bfe15ec5357d8625c1cc742"}, {"bike_id": "81fbd33de7d8c7f073394ba50e875d6d", "lat": 38.923348, "is_disabled": 0, "lon": -77.01896666666667, "fusion_lon": 0.0, "is_reserved": 0, "fusion_lat": 0.0, "rental_uris": {"android": "https://dc.lft.to/lastmile_qr_scan", "ios": "https://dc.lft.to/lastmile_qr_scan"}, "type": "electric_scooter", "name": "81fbd33de7d8c7f073394ba50e875d6d"}, {"bike_id": "607dbf8adee35e5ee28cf77af05c756a", "lat": 38.876708666666666, "is_disabled": 0, "lon": -77.00286933333334, "fusion_lon": 0.0, "is_reserved": 0, "fusion_lat": 0.0, "rental_uris": {"android": "https://dc.lft.to/lastmile_qr_scan", "ios": "https://dc.lft.to/lastmile_qr_scan"}, "type": "electric_scooter", "name": "607dbf8adee35e5ee28cf77af05c756a"}, {"bike_id": "1b3ada5ebe50b5e7e22a056f4d6ff8cb", "lat": 38.922991333333336, "is_disabled": 0, "lon": -77.02328133333333, "fusion_lon": 0.0, "is_reserved": 0, "fusion_lat": 0.0, "rental_uris": {"android": "https://dc.lft.to/lastmile_qr_scan", "ios": "https://dc.lft.to/lastmile_qr_scan"}, "type": "electric_scooter", "name": "1b3ada5ebe50b5e7e22a056f4d6ff8cb"}, {"bike_id": "b1d586d24aa2f5e87a2229e446862fba", "lat": 38.933151, "is_disabled": 0, "lon": -77.02934183333333, "fusion_lon": 0.0, "is_reserved": 0, "fusion_lat": 0.0, "rental_uris": {"android": "https://dc.lft.to/lastmile_qr_scan", "ios": "https://dc.lft.to/lastmile_qr_scan"}, "type": "electric_scooter", "name": "b1d586d24aa2f5e87a2229e446862fba"}, {"bike_id": "a00cf5c3197c044bdbd2fff61177a4e8", "lat": 38.913198333333334, "is_disabled": 0, "lon": -77.04711233333333, "fusion_lon": 0.0, "is_reserved": 0, "fusion_lat": 0.0, "rental_uris": {"android": "https://dc.lft.to/lastmile_qr_scan", "ios": "https://dc.lft.to/lastmile_qr_scan"}, "type": "electric_scooter", "name": "a00cf5c3197c044bdbd2fff61177a4e8"}, {"bike_id": "8e0f372904c13922d2ab86c26aa3705b", "lat": 38.914267833333334, "is_disabled": 0, "lon": -77.04585533333334, "fusion_lon": 0.0, "is_reserved": 0, "fusion_lat": 0.0, "rental_uris": {"android": "https://dc.lft.to/lastmile_qr_scan", "ios": "https://dc.lft.to/lastmile_qr_scan"}, "type": "electric_scooter", "name": "8e0f372904c13922d2ab86c26aa3705b"}, {"bike_id": "0fc452a95e10f3d1f6958d9d3394468a", "lat": 38.918735833333336, "is_disabled": 0, "lon": -77.0447755, "fusion_lon": 0.0, "is_reserved": 0, "fusion_lat": 0.0, "rental_uris": {"android": "https://dc.lft.to/lastmile_qr_scan", "ios": "https://dc.lft.to/lastmile_qr_scan"}, "type": "electric_scooter", "name": "0fc452a95e10f3d1f6958d9d3394468a"}, {"bike_id": "64571a6374049c08a56a5ca06dc06428", "lat": 38.88484916666667, "is_disabled": 0, "lon": -77.034756, "fusion_lon": 0.0, "is_reserved": 0, "fusion_lat": 0.0, "rental_uris": {"android": "https://dc.lft.to/lastmile_qr_scan", "ios": "https://dc.lft.to/lastmile_qr_scan"}, "type": "electric_scooter", "name": "64571a6374049c08a56a5ca06dc06428"}, {"bike_id": "0aa3b93b95a6520d58f1ca80bc143fbc", "lat": 38.9261345, "is_disabled": 0, "lon": -77.03691833333333, "fusion_lon": 0.0, "is_reserved": 0, "fusion_lat": 0.0, "rental_uris": {"android": "https://dc.lft.to/lastmile_qr_scan", "ios": "https://dc.lft.to/lastmile_qr_scan"}, "type": "electric_scooter", "name": "0aa3b93b95a6520d58f1ca80bc143fbc"}, {"bike_id": "38bc8b56b9aaf8d7b1fb56cf3c11a0f1", "lat": 38.887018166666664, "is_disabled": 0, "lon": -77.028167, "fusion_lon": 0.0, "is_reserved": 0, "fusion_lat": 0.0, "rental_uris": {"android": "https://dc.lft.to/lastmile_qr_scan", "ios": "https://dc.lft.to/lastmile_qr_scan"}, "type": "electric_scooter", "name": "38bc8b56b9aaf8d7b1fb56cf3c11a0f1"}, {"bike_id": "c7219a42842b132af72e20de34754fe1", "lat": 38.9345925, "is_disabled": 0, "lon": -77.03243083333334, "fusion_lon": 0.0, "is_reserved": 0, "fusion_lat": 0.0, "rental_uris": {"android": "https://dc.lft.to/lastmile_qr_scan", "ios": "https://dc.lft.to/lastmile_qr_scan"}, "type": "electric_scooter", "name": "c7219a42842b132af72e20de34754fe1"}, {"bike_id": "a3107e0ffcedba93a73c7972a5848e1c", "lat": 38.90902366666667, "is_disabled": 0, "lon": -77.04895333333333, "fusion_lon": 0.0, "is_reserved": 0, "fusion_lat": 0.0, "rental_uris": {"android": "https://dc.lft.to/lastmile_qr_scan", "ios": "https://dc.lft.to/lastmile_qr_scan"}, "type": "electric_scooter", "name": "a3107e0ffcedba93a73c7972a5848e1c"}, {"bike_id": "78a8f9a936d2e2f463b19012090a7f7c", "lat": 38.857781, "is_disabled": 0, "lon": -76.97324966666666, "fusion_lon": 0.0, "is_reserved": 0, "fusion_lat": 0.0, "rental_uris": {"android": "https://dc.lft.to/lastmile_qr_scan", "ios": "https://dc.lft.to/lastmile_qr_scan"}, "type": "electric_bike", "name": "78a8f9a936d2e2f463b19012090a7f7c"}, {"bike_id": "b203ca2eb4b9de0e1cb4fd6ff93a06be", "lat": 38.927459666666664, "is_disabled": 0, "lon": -77.02528533333333, "fusion_lon": 0.0, "is_reserved": 0, "fusion_lat": 0.0, "rental_uris": {"android": "https://dc.lft.to/lastmile_qr_scan", "ios": "https://dc.lft.to/lastmile_qr_scan"}, "type": "electric_scooter", "name": "b203ca2eb4b9de0e1cb4fd6ff93a06be"}, {"bike_id": "24dcc3169986ffb9cbc405ed6ccb209e", "lat": 38.90820333333333, "is_disabled": 0, "lon": -77.03913016666667, "fusion_lon": 0.0, "is_reserved": 0, "fusion_lat": 0.0, "rental_uris": {"android": "https://dc.lft.to/lastmile_qr_scan", "ios": "https://dc.lft.to/lastmile_qr_scan"}, "type": "electric_scooter", "name": "24dcc3169986ffb9cbc405ed6ccb209e"}, {"bike_id": "d535135b0920f2cc788c2113c22bf7c3", "lat": 38.934224, "is_disabled": 0, "lon": -77.04424066666667, "fusion_lon": 0.0, "is_reserved": 0, "fusion_lat": 0.0, "rental_uris": {"android": "https://dc.lft.to/lastmile_qr_scan", "ios": "https://dc.lft.to/lastmile_qr_scan"}, "type": "electric_scooter", "name": "d535135b0920f2cc788c2113c22bf7c3"}, {"bike_id": "a264e1bb5b78dcc9aa10468eec16a182", "lat": 38.921646, "is_disabled": 0, "lon": -77.0219745, "fusion_lon": 0.0, "is_reserved": 0, "fusion_lat": 0.0, "rental_uris": {"android": "https://dc.lft.to/lastmile_qr_scan", "ios": "https://dc.lft.to/lastmile_qr_scan"}, "type": "electric_scooter", "name": "a264e1bb5b78dcc9aa10468eec16a182"}, {"bike_id": "05904520a44c85f423ef5853e891bff5", "lat": 38.9168275, "is_disabled": 0, "lon": -76.98036883333333, "fusion_lon": 0.0, "is_reserved": 0, "fusion_lat": 0.0, "rental_uris": {"android": "https://dc.lft.to/lastmile_qr_scan", "ios": "https://dc.lft.to/lastmile_qr_scan"}, "type": "electric_scooter", "name": "05904520a44c85f423ef5853e891bff5"}, {"bike_id": "18e22a1786b6e6cdaa2461d979ff4b72", "lat": 38.90234866666667, "is_disabled": 0, "lon": -77.02825966666667, "fusion_lon": 0.0, "is_reserved": 0, "fusion_lat": 0.0, "rental_uris": {"android": "https://dc.lft.to/lastmile_qr_scan", "ios": "https://dc.lft.to/lastmile_qr_scan"}, "type": "electric_scooter", "name": "18e22a1786b6e6cdaa2461d979ff4b72"}, {"bike_id": "c669c6d801aa4359738bc9f91b47bd99", "lat": 38.919483166666666, "is_disabled": 0, "lon": -77.01783983333333, "fusion_lon": 0.0, "is_reserved": 0, "fusion_lat": 0.0, "rental_uris": {"android": "https://dc.lft.to/lastmile_qr_scan", "ios": "https://dc.lft.to/lastmile_qr_scan"}, "type": "electric_scooter", "name": "c669c6d801aa4359738bc9f91b47bd99"}, {"bike_id": "93dda66666ea7896644cf0b4c1041a1f", "lat": 38.913351, "is_disabled": 0, "lon": -77.048684, "fusion_lon": 0.0, "is_reserved": 0, "fusion_lat": 0.0, "rental_uris": {"android": "https://dc.lft.to/lastmile_qr_scan", "ios": "https://dc.lft.to/lastmile_qr_scan"}, "type": "electric_scooter", "name": "93dda66666ea7896644cf0b4c1041a1f"}, {"bike_id": "904b20bcd17dc0702bc82009c8360e85", "lat": 38.91945333333334, "is_disabled": 0, "lon": -77.018038, "fusion_lon": 0.0, "is_reserved": 0, "fusion_lat": 0.0, "rental_uris": {"android": "https://dc.lft.to/lastmile_qr_scan", "ios": "https://dc.lft.to/lastmile_qr_scan"}, "type": "electric_scooter", "name": "904b20bcd17dc0702bc82009c8360e85"}, {"bike_id": "1a21732fabee413afafb543ccd0431d1", "lat": 38.901234, "is_disabled": 0, "lon": -77.015813, "fusion_lon": 0.0, "is_reserved": 0, "fusion_lat": 0.0, "rental_uris": {"android": "https://dc.lft.to/lastmile_qr_scan", "ios": "https://dc.lft.to/lastmile_qr_scan"}, "type": "electric_bike", "name": "1a21732fabee413afafb543ccd0431d1"}, {"bike_id": "e2bfab671d7c53e49ab0ce8334a2f96d", "lat": 38.9346635, "is_disabled": 0, "lon": -77.0411075, "fusion_lon": 0.0, "is_reserved": 0, "fusion_lat": 0.0, "rental_uris": {"android": "https://dc.lft.to/lastmile_qr_scan", "ios": "https://dc.lft.to/lastmile_qr_scan"}, "type": "electric_scooter", "name": "e2bfab671d7c53e49ab0ce8334a2f96d"}, {"bike_id": "f66253270c9f3bee676fa4a8cdb616a6", "lat": 38.863313166666664, "is_disabled": 0, "lon": -76.98717416666666, "fusion_lon": 0.0, "is_reserved": 0, "fusion_lat": 0.0, "rental_uris": {"android": "https://dc.lft.to/lastmile_qr_scan", "ios": "https://dc.lft.to/lastmile_qr_scan"}, "type": "electric_bike", "name": "f66253270c9f3bee676fa4a8cdb616a6"}, {"bike_id": "c4c74213d62b938a1766c903bb08b105", "lat": 38.8873345, "is_disabled": 0, "lon": -77.022095, "fusion_lon": 0.0, "is_reserved": 0, "fusion_lat": 0.0, "rental_uris": {"android": "https://dc.lft.to/lastmile_qr_scan", "ios": "https://dc.lft.to/lastmile_qr_scan"}, "type": "electric_scooter", "name": "c4c74213d62b938a1766c903bb08b105"}, {"bike_id": "ca910a005d11cae81de0e4ed10e1d92a", "lat": 38.8905825, "is_disabled": 0, "lon": -77.02301966666667, "fusion_lon": 0.0, "is_reserved": 0, "fusion_lat": 0.0, "rental_uris": {"android": "https://dc.lft.to/lastmile_qr_scan", "ios": "https://dc.lft.to/lastmile_qr_scan"}, "type": "electric_scooter", "name": "ca910a005d11cae81de0e4ed10e1d92a"}, {"bike_id": "01d2a97989ce7ea72d39b57047310672", "lat": 38.841010833333335, "is_disabled": 0, "lon": -77.08940066666666, "fusion_lon": 0.0, "is_reserved": 0, "fusion_lat": 0.0, "rental_uris": {"android": "https://dc.lft.to/lastmile_qr_scan", "ios": "https://dc.lft.to/lastmile_qr_scan"}, "type": "electric_bike", "name": "01d2a97989ce7ea72d39b57047310672"}, {"bike_id": "d903126a270af68ef246ccd9f55dc8d3", "lat": 38.913304333333336, "is_disabled": 0, "lon": -77.04966033333334, "fusion_lon": 0.0, "is_reserved": 0, "fusion_lat": 0.0, "rental_uris": {"android": "https://dc.lft.to/lastmile_qr_scan", "ios": "https://dc.lft.to/lastmile_qr_scan"}, "type": "electric_scooter", "name": "d903126a270af68ef246ccd9f55dc8d3"}, {"bike_id": "b0af35b49b1b6f78618f6d49125bfbb1", "lat": 38.92256483333333, "is_disabled": 0, "lon": -77.0182815, "fusion_lon": 0.0, "is_reserved": 0, "fusion_lat": 0.0, "rental_uris": {"android": "https://dc.lft.to/lastmile_qr_scan", "ios": "https://dc.lft.to/lastmile_qr_scan"}, "type": "electric_scooter", "name": "b0af35b49b1b6f78618f6d49125bfbb1"}, {"bike_id": "c5e17f4da364f7c001b8fbe8f4ea70d1", "lat": 38.90041683333333, "is_disabled": 0, "lon": -77.03466333333333, "fusion_lon": 0.0, "is_reserved": 0, "fusion_lat": 0.0, "rental_uris": {"android": "https://dc.lft.to/lastmile_qr_scan", "ios": "https://dc.lft.to/lastmile_qr_scan"}, "type": "electric_bike", "name": "c5e17f4da364f7c001b8fbe8f4ea70d1"}, {"bike_id": "f5896fa8d89819ffe0ed7f46a9b6e3ba", "lat": 38.91994966666667, "is_disabled": 0, "lon": -77.03219683333333, "fusion_lon": 0.0, "is_reserved": 0, "fusion_lat": 0.0, "rental_uris": {"android": "https://dc.lft.to/lastmile_qr_scan", "ios": "https://dc.lft.to/lastmile_qr_scan"}, "type": "electric_scooter", "name": "f5896fa8d89819ffe0ed7f46a9b6e3ba"}, {"bike_id": "3d7e507ec9c8795cff726c55f07fe2e9", "lat": 38.885370333333334, "is_disabled": 0, "lon": -77.01098266666666, "fusion_lon": 0.0, "is_reserved": 0, "fusion_lat": 0.0, "rental_uris": {"android": "https://dc.lft.to/lastmile_qr_scan", "ios": "https://dc.lft.to/lastmile_qr_scan"}, "type": "electric_scooter", "name": "3d7e507ec9c8795cff726c55f07fe2e9"}, {"bike_id": "393e1aefc82d39bcab2060646a27062e", "lat": 38.900598, "is_disabled": 0, "lon": -76.99835566666667, "fusion_lon": 0.0, "is_reserved": 0, "fusion_lat": 0.0, "rental_uris": {"android": "https://dc.lft.to/lastmile_qr_scan", "ios": "https://dc.lft.to/lastmile_qr_scan"}, "type": "electric_scooter", "name": "393e1aefc82d39bcab2060646a27062e"}, {"bike_id": "0e00be03de6efe7bb00613157c5ee899", "lat": 38.90563566666667, "is_disabled": 0, "lon": -77.00680883333334, "fusion_lon": 0.0, "is_reserved": 0, "fusion_lat": 0.0, "rental_uris": {"android": "https://dc.lft.to/lastmile_qr_scan", "ios": "https://dc.lft.to/lastmile_qr_scan"}, "type": "electric_scooter", "name": "0e00be03de6efe7bb00613157c5ee899"}, {"bike_id": "b15c5f63e0e78f8cd0d24b0e321e0cae", "lat": 38.88395583333333, "is_disabled": 0, "lon": -77.02947116666667, "fusion_lon": 0.0, "is_reserved": 0, "fusion_lat": 0.0, "rental_uris": {"android": "https://dc.lft.to/lastmile_qr_scan", "ios": "https://dc.lft.to/lastmile_qr_scan"}, "type": "electric_scooter", "name": "b15c5f63e0e78f8cd0d24b0e321e0cae"}, {"bike_id": "1e79b2e3c3e36c603a37c94b37d075fb", "lat": 38.881409, "is_disabled": 0, "lon": -77.02712266666667, "fusion_lon": 0.0, "is_reserved": 0, "fusion_lat": 0.0, "rental_uris": {"android": "https://dc.lft.to/lastmile_qr_scan", "ios": "https://dc.lft.to/lastmile_qr_scan"}, "type": "electric_scooter", "name": "1e79b2e3c3e36c603a37c94b37d075fb"}, {"bike_id": "b71e4d376a0f2a3c1758367440d3a863", "lat": 38.92703133333333, "is_disabled": 0, "lon": -77.03766166666666, "fusion_lon": 0.0, "is_reserved": 0, "fusion_lat": 0.0, "rental_uris": {"android": "https://dc.lft.to/lastmile_qr_scan", "ios": "https://dc.lft.to/lastmile_qr_scan"}, "type": "electric_scooter", "name": "b71e4d376a0f2a3c1758367440d3a863"}, {"bike_id": "1163863c671cae43bf441653865e4290", "lat": 38.9222595, "is_disabled": 0, "lon": -77.04697633333333, "fusion_lon": 0.0, "is_reserved": 0, "fusion_lat": 0.0, "rental_uris": {"android": "https://dc.lft.to/lastmile_qr_scan", "ios": "https://dc.lft.to/lastmile_qr_scan"}, "type": "electric_scooter", "name": "1163863c671cae43bf441653865e4290"}, {"bike_id": "63ad02ee6e3e3991ba41e7d649ea484f", "lat": 38.9041215, "is_disabled": 0, "lon": -76.97328616666667, "fusion_lon": 0.0, "is_reserved": 0, "fusion_lat": 0.0, "rental_uris": {"android": "https://dc.lft.to/lastmile_qr_scan", "ios": "https://dc.lft.to/lastmile_qr_scan"}, "type": "electric_scooter", "name": "63ad02ee6e3e3991ba41e7d649ea484f"}, {"bike_id": "63dbf8440d14a7f3fab788407adf8e09", "lat": 38.91264233333333, "is_disabled": 0, "lon": -77.02246433333333, "fusion_lon": 0.0, "is_reserved": 0, "fusion_lat": 0.0, "rental_uris": {"android": "https://dc.lft.to/lastmile_qr_scan", "ios": "https://dc.lft.to/lastmile_qr_scan"}, "type": "electric_scooter", "name": "63dbf8440d14a7f3fab788407adf8e09"}, {"bike_id": "3a4d0fdb2029308cb6e99eda2f7ac1f4", "lat": 38.91730916666667, "is_disabled": 0, "lon": -77.06948866666667, "fusion_lon": 0.0, "is_reserved": 0, "fusion_lat": 0.0, "rental_uris": {"android": "https://dc.lft.to/lastmile_qr_scan", "ios": "https://dc.lft.to/lastmile_qr_scan"}, "type": "electric_scooter", "name": "3a4d0fdb2029308cb6e99eda2f7ac1f4"}, {"bike_id": "9ad155bb06969c6992db7449b3bc0e97", "lat": 38.861977, "is_disabled": 0, "lon": -76.99507316666667, "fusion_lon": 0.0, "is_reserved": 0, "fusion_lat": 0.0, "rental_uris": {"android": "https://dc.lft.to/lastmile_qr_scan", "ios": "https://dc.lft.to/lastmile_qr_scan"}, "type": "electric_scooter", "name": "9ad155bb06969c6992db7449b3bc0e97"}, {"bike_id": "b087a39eeacf4d07b55cb8271e743d9b", "lat": 38.924071, "is_disabled": 0, "lon": -77.02005966666667, "fusion_lon": 0.0, "is_reserved": 0, "fusion_lat": 0.0, "rental_uris": {"android": "https://dc.lft.to/lastmile_qr_scan", "ios": "https://dc.lft.to/lastmile_qr_scan"}, "type": "electric_scooter", "name": "b087a39eeacf4d07b55cb8271e743d9b"}, {"bike_id": "d242dad98818d92a89c3ca74b4c6d58b", "lat": 38.92029683333333, "is_disabled": 0, "lon": -77.03389716666666, "fusion_lon": 0.0, "is_reserved": 0, "fusion_lat": 0.0, "rental_uris": {"android": "https://dc.lft.to/lastmile_qr_scan", "ios": "https://dc.lft.to/lastmile_qr_scan"}, "type": "electric_scooter", "name": "d242dad98818d92a89c3ca74b4c6d58b"}, {"bike_id": "7375bed641902db752c45ddba66473d8", "lat": 38.9592185, "is_disabled": 0, "lon": -76.99438116666667, "fusion_lon": 0.0, "is_reserved": 0, "fusion_lat": 0.0, "rental_uris": {"android": "https://dc.lft.to/lastmile_qr_scan", "ios": "https://dc.lft.to/lastmile_qr_scan"}, "type": "electric_scooter", "name": "7375bed641902db752c45ddba66473d8"}, {"bike_id": "864b8d3a711e8834fdc0ba8fbbc7b69f", "lat": 38.885023833333335, "is_disabled": 0, "lon": -77.0056725, "fusion_lon": 0.0, "is_reserved": 0, "fusion_lat": 0.0, "rental_uris": {"android": "https://dc.lft.to/lastmile_qr_scan", "ios": "https://dc.lft.to/lastmile_qr_scan"}, "type": "electric_scooter", "name": "864b8d3a711e8834fdc0ba8fbbc7b69f"}, {"bike_id": "e48c2c86d227c762434d5fa17790b7d6", "lat": 38.901128666666665, "is_disabled": 0, "lon": -77.03827833333334, "fusion_lon": 0.0, "is_reserved": 0, "fusion_lat": 0.0, "rental_uris": {"android": "https://dc.lft.to/lastmile_qr_scan", "ios": "https://dc.lft.to/lastmile_qr_scan"}, "type": "electric_scooter", "name": "e48c2c86d227c762434d5fa17790b7d6"}, {"bike_id": "1be2c9af2c744c8e91e67aaca9411b08", "lat": 38.9244485, "is_disabled": 0, "lon": -76.990167, "fusion_lon": 0.0, "is_reserved": 0, "fusion_lat": 0.0, "rental_uris": {"android": "https://dc.lft.to/lastmile_qr_scan", "ios": "https://dc.lft.to/lastmile_qr_scan"}, "type": "electric_scooter", "name": "1be2c9af2c744c8e91e67aaca9411b08"}, {"bike_id": "a68a72e8e5b40b7e37631b29a288e1c9", "lat": 38.91589366666667, "is_disabled": 0, "lon": -77.04348983333334, "fusion_lon": 0.0, "is_reserved": 0, "fusion_lat": 0.0, "rental_uris": {"android": "https://dc.lft.to/lastmile_qr_scan", "ios": "https://dc.lft.to/lastmile_qr_scan"}, "type": "electric_scooter", "name": "a68a72e8e5b40b7e37631b29a288e1c9"}, {"bike_id": "d7c2bc461e3ffb3e9ba737e636bbddf0", "lat": 38.908659166666666, "is_disabled": 0, "lon": -76.98494616666666, "fusion_lon": 0.0, "is_reserved": 0, "fusion_lat": 0.0, "rental_uris": {"android": "https://dc.lft.to/lastmile_qr_scan", "ios": "https://dc.lft.to/lastmile_qr_scan"}, "type": "electric_scooter", "name": "d7c2bc461e3ffb3e9ba737e636bbddf0"}, {"bike_id": "c23a8e27a0f0f9ac2357c67a38c77b36", "lat": 38.906573, "is_disabled": 0, "lon": -77.0270315, "fusion_lon": 0.0, "is_reserved": 0, "fusion_lat": 0.0, "rental_uris": {"android": "https://dc.lft.to/lastmile_qr_scan", "ios": "https://dc.lft.to/lastmile_qr_scan"}, "type": "electric_scooter", "name": "c23a8e27a0f0f9ac2357c67a38c77b36"}, {"bike_id": "d03126ce28e5ac66e09682a08f66fdcd", "lat": 38.916822333333336, "is_disabled": 0, "lon": -77.03177683333334, "fusion_lon": 0.0, "is_reserved": 0, "fusion_lat": 0.0, "rental_uris": {"android": "https://dc.lft.to/lastmile_qr_scan", "ios": "https://dc.lft.to/lastmile_qr_scan"}, "type": "electric_scooter", "name": "d03126ce28e5ac66e09682a08f66fdcd"}, {"bike_id": "218f275a3786a6ce0781ce8d2a2815eb", "lat": 38.923733, "is_disabled": 0, "lon": -77.01985066666667, "fusion_lon": 0.0, "is_reserved": 0, "fusion_lat": 0.0, "rental_uris": {"android": "https://dc.lft.to/lastmile_qr_scan", "ios": "https://dc.lft.to/lastmile_qr_scan"}, "type": "electric_scooter", "name": "218f275a3786a6ce0781ce8d2a2815eb"}, {"bike_id": "b42a26bfad9df58c1bdc41471b6a313a", "lat": 38.924607, "is_disabled": 0, "lon": -77.057505, "fusion_lon": 0.0, "is_reserved": 0, "fusion_lat": 0.0, "rental_uris": {"android": "https://dc.lft.to/lastmile_qr_scan", "ios": "https://dc.lft.to/lastmile_qr_scan"}, "type": "electric_scooter", "name": "b42a26bfad9df58c1bdc41471b6a313a"}, {"bike_id": "345a684b8e08288c6d8a8369f9f4cb06", "lat": 38.922221, "is_disabled": 0, "lon": -77.02238, "fusion_lon": 0.0, "is_reserved": 0, "fusion_lat": 0.0, "rental_uris": {"android": "https://dc.lft.to/lastmile_qr_scan", "ios": "https://dc.lft.to/lastmile_qr_scan"}, "type": "electric_scooter", "name": "345a684b8e08288c6d8a8369f9f4cb06"}, {"bike_id": "04f5b57f51f68cef78c56dc9b6a304a7", "lat": 38.91208666666667, "is_disabled": 0, "lon": -77.04335966666666, "fusion_lon": 0.0, "is_reserved": 0, "fusion_lat": 0.0, "rental_uris": {"android": "https://dc.lft.to/lastmile_qr_scan", "ios": "https://dc.lft.to/lastmile_qr_scan"}, "type": "electric_scooter", "name": "04f5b57f51f68cef78c56dc9b6a304a7"}, {"bike_id": "a1d0e7a13c8f1e3217466c65f9dd9b16", "lat": 38.919512, "is_disabled": 0, "lon": -77.01780183333334, "fusion_lon": 0.0, "is_reserved": 0, "fusion_lat": 0.0, "rental_uris": {"android": "https://dc.lft.to/lastmile_qr_scan", "ios": "https://dc.lft.to/lastmile_qr_scan"}, "type": "electric_scooter", "name": "a1d0e7a13c8f1e3217466c65f9dd9b16"}, {"bike_id": "3c6cba179952b311885ea11929849c28", "lat": 38.89217266666667, "is_disabled": 0, "lon": -77.0321915, "fusion_lon": 0.0, "is_reserved": 0, "fusion_lat": 0.0, "rental_uris": {"android": "https://dc.lft.to/lastmile_qr_scan", "ios": "https://dc.lft.to/lastmile_qr_scan"}, "type": "electric_scooter", "name": "3c6cba179952b311885ea11929849c28"}, {"bike_id": "1426f37c98269413a547655f4029cb94", "lat": 38.91312166666667, "is_disabled": 0, "lon": -77.0317925, "fusion_lon": 0.0, "is_reserved": 0, "fusion_lat": 0.0, "rental_uris": {"android": "https://dc.lft.to/lastmile_qr_scan", "ios": "https://dc.lft.to/lastmile_qr_scan"}, "type": "electric_scooter", "name": "1426f37c98269413a547655f4029cb94"}, {"bike_id": "b11958738e6ab3ec56cf0e2def0adb61", "lat": 38.8948565, "is_disabled": 0, "lon": -77.0218895, "fusion_lon": 0.0, "is_reserved": 0, "fusion_lat": 0.0, "rental_uris": {"android": "https://dc.lft.to/lastmile_qr_scan", "ios": "https://dc.lft.to/lastmile_qr_scan"}, "type": "electric_scooter", "name": "b11958738e6ab3ec56cf0e2def0adb61"}, {"bike_id": "4d6e7138da187caddea05c07a81f9611", "lat": 38.904825, "is_disabled": 0, "lon": -77.03491666666666, "fusion_lon": 0.0, "is_reserved": 0, "fusion_lat": 0.0, "rental_uris": {"android": "https://dc.lft.to/lastmile_qr_scan", "ios": "https://dc.lft.to/lastmile_qr_scan"}, "type": "electric_scooter", "name": "4d6e7138da187caddea05c07a81f9611"}, {"bike_id": "1b06c2c7072fb087471395bc4a6b9a7a", "lat": 38.878637833333336, "is_disabled": 0, "lon": -76.96259383333333, "fusion_lon": 0.0, "is_reserved": 0, "fusion_lat": 0.0, "rental_uris": {"android": "https://dc.lft.to/lastmile_qr_scan", "ios": "https://dc.lft.to/lastmile_qr_scan"}, "type": "electric_scooter", "name": "1b06c2c7072fb087471395bc4a6b9a7a"}, {"bike_id": "6e0955062b8dcf55198dbc85414e26be", "lat": 38.933507, "is_disabled": 0, "lon": -77.02962233333334, "fusion_lon": 0.0, "is_reserved": 0, "fusion_lat": 0.0, "rental_uris": {"android": "https://dc.lft.to/lastmile_qr_scan", "ios": "https://dc.lft.to/lastmile_qr_scan"}, "type": "electric_scooter", "name": "6e0955062b8dcf55198dbc85414e26be"}, {"bike_id": "c61cadda7bd8832610f4081f7ed2fd6c", "lat": 38.92339616666667, "is_disabled": 0, "lon": -77.05393333333333, "fusion_lon": 0.0, "is_reserved": 0, "fusion_lat": 0.0, "rental_uris": {"android": "https://dc.lft.to/lastmile_qr_scan", "ios": "https://dc.lft.to/lastmile_qr_scan"}, "type": "electric_scooter", "name": "c61cadda7bd8832610f4081f7ed2fd6c"}, {"bike_id": "899599d8c79ee08ce83a49c533759077", "lat": 38.873954499999996, "is_disabled": 0, "lon": -76.969812, "fusion_lon": 0.0, "is_reserved": 0, "fusion_lat": 0.0, "rental_uris": {"android": "https://dc.lft.to/lastmile_qr_scan", "ios": "https://dc.lft.to/lastmile_qr_scan"}, "type": "electric_scooter", "name": "899599d8c79ee08ce83a49c533759077"}, {"bike_id": "01a06c1fa93c9386fc39592655b6ddd3", "lat": 38.97467, "is_disabled": 0, "lon": -77.01207666666667, "fusion_lon": 0.0, "is_reserved": 0, "fusion_lat": 0.0, "rental_uris": {"android": "https://dc.lft.to/lastmile_qr_scan", "ios": "https://dc.lft.to/lastmile_qr_scan"}, "type": "electric_bike", "name": "01a06c1fa93c9386fc39592655b6ddd3"}, {"bike_id": "12119041cb7e26b79adab385d00c5d90", "lat": 38.86583866666667, "is_disabled": 0, "lon": -76.98051883333333, "fusion_lon": 0.0, "is_reserved": 0, "fusion_lat": 0.0, "rental_uris": {"android": "https://dc.lft.to/lastmile_qr_scan", "ios": "https://dc.lft.to/lastmile_qr_scan"}, "type": "electric_bike", "name": "12119041cb7e26b79adab385d00c5d90"}, {"bike_id": "7ee3c59b906f7defdeb0c14f43b5c9f5", "lat": 38.894626, "is_disabled": 0, "lon": -77.01864166666667, "fusion_lon": 0.0, "is_reserved": 0, "fusion_lat": 0.0, "rental_uris": {"android": "https://dc.lft.to/lastmile_qr_scan", "ios": "https://dc.lft.to/lastmile_qr_scan"}, "type": "electric_scooter", "name": "7ee3c59b906f7defdeb0c14f43b5c9f5"}, {"bike_id": "577a7505a4d1ccb084471a362dfbdaf9", "lat": 38.92852933333333, "is_disabled": 0, "lon": -77.03296183333333, "fusion_lon": 0.0, "is_reserved": 0, "fusion_lat": 0.0, "rental_uris": {"android": "https://dc.lft.to/lastmile_qr_scan", "ios": "https://dc.lft.to/lastmile_qr_scan"}, "type": "electric_scooter", "name": "577a7505a4d1ccb084471a362dfbdaf9"}, {"bike_id": "b6269503c026f8d67b089ac55557ea09", "lat": 38.88425516666667, "is_disabled": 0, "lon": -76.95752066666667, "fusion_lon": 0.0, "is_reserved": 0, "fusion_lat": 0.0, "rental_uris": {"android": "https://dc.lft.to/lastmile_qr_scan", "ios": "https://dc.lft.to/lastmile_qr_scan"}, "type": "electric_scooter", "name": "b6269503c026f8d67b089ac55557ea09"}, {"bike_id": "198a2b71b4caa731d168fc72cd268fb4", "lat": 38.916159, "is_disabled": 0, "lon": -77.04588883333334, "fusion_lon": 0.0, "is_reserved": 0, "fusion_lat": 0.0, "rental_uris": {"android": "https://dc.lft.to/lastmile_qr_scan", "ios": "https://dc.lft.to/lastmile_qr_scan"}, "type": "electric_scooter", "name": "198a2b71b4caa731d168fc72cd268fb4"}, {"bike_id": "d8b3819575307a5ae6c68bd45d4403bf", "lat": 38.908651, "is_disabled": 0, "lon": -77.00366, "fusion_lon": 0.0, "is_reserved": 0, "fusion_lat": 0.0, "rental_uris": {"android": "https://dc.lft.to/lastmile_qr_scan", "ios": "https://dc.lft.to/lastmile_qr_scan"}, "type": "electric_scooter", "name": "d8b3819575307a5ae6c68bd45d4403bf"}, {"bike_id": "89cbfc33ba90e6fb4df74c164bb2534d", "lat": 38.912574166666666, "is_disabled": 0, "lon": -77.04164366666667, "fusion_lon": 0.0, "is_reserved": 0, "fusion_lat": 0.0, "rental_uris": {"android": "https://dc.lft.to/lastmile_qr_scan", "ios": "https://dc.lft.to/lastmile_qr_scan"}, "type": "electric_scooter", "name": "89cbfc33ba90e6fb4df74c164bb2534d"}, {"bike_id": "ca8a782d7f4a2909440c7d5dd235ba04", "lat": 38.8922155, "is_disabled": 0, "lon": -77.03220516666667, "fusion_lon": 0.0, "is_reserved": 0, "fusion_lat": 0.0, "rental_uris": {"android": "https://dc.lft.to/lastmile_qr_scan", "ios": "https://dc.lft.to/lastmile_qr_scan"}, "type": "electric_scooter", "name": "ca8a782d7f4a2909440c7d5dd235ba04"}, {"bike_id": "c4e1178a88741bcd4c951f93855b1bec", "lat": 38.90723583333333, "is_disabled": 0, "lon": -77.04006133333333, "fusion_lon": 0.0, "is_reserved": 0, "fusion_lat": 0.0, "rental_uris": {"android": "https://dc.lft.to/lastmile_qr_scan", "ios": "https://dc.lft.to/lastmile_qr_scan"}, "type": "electric_scooter", "name": "c4e1178a88741bcd4c951f93855b1bec"}, {"bike_id": "0d803552c92a535eafd016980fcc46ec", "lat": 38.926995833333336, "is_disabled": 0, "lon": -77.0537395, "fusion_lon": 0.0, "is_reserved": 0, "fusion_lat": 0.0, "rental_uris": {"android": "https://dc.lft.to/lastmile_qr_scan", "ios": "https://dc.lft.to/lastmile_qr_scan"}, "type": "electric_scooter", "name": "0d803552c92a535eafd016980fcc46ec"}, {"bike_id": "539785a14500b886dd30dd3b7e93c1bf", "lat": 38.944462, "is_disabled": 0, "lon": -77.02799833333333, "fusion_lon": 0.0, "is_reserved": 0, "fusion_lat": 0.0, "rental_uris": {"android": "https://dc.lft.to/lastmile_qr_scan", "ios": "https://dc.lft.to/lastmile_qr_scan"}, "type": "electric_scooter", "name": "539785a14500b886dd30dd3b7e93c1bf"}, {"bike_id": "e8c67a6458cbe4b9d3e2a89d7a061197", "lat": 38.879928166666666, "is_disabled": 0, "lon": -77.012841, "fusion_lon": 0.0, "is_reserved": 0, "fusion_lat": 0.0, "rental_uris": {"android": "https://dc.lft.to/lastmile_qr_scan", "ios": "https://dc.lft.to/lastmile_qr_scan"}, "type": "electric_scooter", "name": "e8c67a6458cbe4b9d3e2a89d7a061197"}, {"bike_id": "f8664871b0a8209fba482d23afd0dfb9", "lat": 38.91425666666667, "is_disabled": 0, "lon": -77.04498, "fusion_lon": 0.0, "is_reserved": 0, "fusion_lat": 0.0, "rental_uris": {"android": "https://dc.lft.to/lastmile_qr_scan", "ios": "https://dc.lft.to/lastmile_qr_scan"}, "type": "electric_scooter", "name": "f8664871b0a8209fba482d23afd0dfb9"}, {"bike_id": "fb6d472ecd3bbcbe80831d86245b6515", "lat": 38.93393, "is_disabled": 0, "lon": -77.04553066666666, "fusion_lon": 0.0, "is_reserved": 0, "fusion_lat": 0.0, "rental_uris": {"android": "https://dc.lft.to/lastmile_qr_scan", "ios": "https://dc.lft.to/lastmile_qr_scan"}, "type": "electric_scooter", "name": "fb6d472ecd3bbcbe80831d86245b6515"}, {"bike_id": "baf4f4669bebd14511339266517e26ec", "lat": 38.89193866666667, "is_disabled": 0, "lon": -77.02375633333334, "fusion_lon": 0.0, "is_reserved": 0, "fusion_lat": 0.0, "rental_uris": {"android": "https://dc.lft.to/lastmile_qr_scan", "ios": "https://dc.lft.to/lastmile_qr_scan"}, "type": "electric_scooter", "name": "baf4f4669bebd14511339266517e26ec"}, {"bike_id": "5116442beeed30863a2277cb1d51cceb", "lat": 38.91751816666667, "is_disabled": 0, "lon": -77.03911616666667, "fusion_lon": 0.0, "is_reserved": 0, "fusion_lat": 0.0, "rental_uris": {"android": "https://dc.lft.to/lastmile_qr_scan", "ios": "https://dc.lft.to/lastmile_qr_scan"}, "type": "electric_scooter", "name": "5116442beeed30863a2277cb1d51cceb"}, {"bike_id": "3d63910001343217061b460215ea3287", "lat": 38.8974045, "is_disabled": 0, "lon": -77.00920466666666, "fusion_lon": 0.0, "is_reserved": 0, "fusion_lat": 0.0, "rental_uris": {"android": "https://dc.lft.to/lastmile_qr_scan", "ios": "https://dc.lft.to/lastmile_qr_scan"}, "type": "electric_scooter", "name": "3d63910001343217061b460215ea3287"}, {"bike_id": "9dd48492d10688f74d7ba2b04dcdfbba", "lat": 38.863563666666664, "is_disabled": 0, "lon": -76.99041216666667, "fusion_lon": 0.0, "is_reserved": 0, "fusion_lat": 0.0, "rental_uris": {"android": "https://dc.lft.to/lastmile_qr_scan", "ios": "https://dc.lft.to/lastmile_qr_scan"}, "type": "electric_scooter", "name": "9dd48492d10688f74d7ba2b04dcdfbba"}, {"bike_id": "a4312b93a07e1adbc2d45e920ecbf709", "lat": 38.921700333333334, "is_disabled": 0, "lon": -76.99847416666667, "fusion_lon": 0.0, "is_reserved": 0, "fusion_lat": 0.0, "rental_uris": {"android": "https://dc.lft.to/lastmile_qr_scan", "ios": "https://dc.lft.to/lastmile_qr_scan"}, "type": "electric_scooter", "name": "a4312b93a07e1adbc2d45e920ecbf709"}, {"bike_id": "aeece28c785036df76d6cc59dbf595fd", "lat": 38.89886766666667, "is_disabled": 0, "lon": -76.93175483333333, "fusion_lon": 0.0, "is_reserved": 0, "fusion_lat": 0.0, "rental_uris": {"android": "https://dc.lft.to/lastmile_qr_scan", "ios": "https://dc.lft.to/lastmile_qr_scan"}, "type": "electric_scooter", "name": "aeece28c785036df76d6cc59dbf595fd"}, {"bike_id": "e99f472647bd97e31b1c12d28046f336", "lat": 38.90471016666667, "is_disabled": 0, "lon": -77.03573883333334, "fusion_lon": 0.0, "is_reserved": 0, "fusion_lat": 0.0, "rental_uris": {"android": "https://dc.lft.to/lastmile_qr_scan", "ios": "https://dc.lft.to/lastmile_qr_scan"}, "type": "electric_scooter", "name": "e99f472647bd97e31b1c12d28046f336"}, {"bike_id": "083e3af8126127d96d93e030c1dae4ec", "lat": 38.9194335, "is_disabled": 0, "lon": -77.01783466666667, "fusion_lon": 0.0, "is_reserved": 0, "fusion_lat": 0.0, "rental_uris": {"android": "https://dc.lft.to/lastmile_qr_scan", "ios": "https://dc.lft.to/lastmile_qr_scan"}, "type": "electric_scooter", "name": "083e3af8126127d96d93e030c1dae4ec"}, {"bike_id": "b7939143e01cfd0f2c6081f09544ec2b", "lat": 38.908686833333334, "is_disabled": 0, "lon": -77.0228095, "fusion_lon": 0.0, "is_reserved": 0, "fusion_lat": 0.0, "rental_uris": {"android": "https://dc.lft.to/lastmile_qr_scan", "ios": "https://dc.lft.to/lastmile_qr_scan"}, "type": "electric_scooter", "name": "b7939143e01cfd0f2c6081f09544ec2b"}, {"bike_id": "472fc4ddc2d8eb470b431c7d413a96de", "lat": 38.9168765, "is_disabled": 0, "lon": -77.0284125, "fusion_lon": 0.0, "is_reserved": 0, "fusion_lat": 0.0, "rental_uris": {"android": "https://dc.lft.to/lastmile_qr_scan", "ios": "https://dc.lft.to/lastmile_qr_scan"}, "type": "electric_scooter", "name": "472fc4ddc2d8eb470b431c7d413a96de"}, {"bike_id": "1b51fab06aba91e4809f45e8290b2787", "lat": 38.897386, "is_disabled": 0, "lon": -77.00776783333333, "fusion_lon": 0.0, "is_reserved": 0, "fusion_lat": 0.0, "rental_uris": {"android": "https://dc.lft.to/lastmile_qr_scan", "ios": "https://dc.lft.to/lastmile_qr_scan"}, "type": "electric_scooter", "name": "1b51fab06aba91e4809f45e8290b2787"}, {"bike_id": "02ccdd77adbfd5b5ec1e9f7cd0c11deb", "lat": 38.94190433333333, "is_disabled": 0, "lon": -77.0384425, "fusion_lon": 0.0, "is_reserved": 0, "fusion_lat": 0.0, "rental_uris": {"android": "https://dc.lft.to/lastmile_qr_scan", "ios": "https://dc.lft.to/lastmile_qr_scan"}, "type": "electric_scooter", "name": "02ccdd77adbfd5b5ec1e9f7cd0c11deb"}, {"bike_id": "e5ca63712d633126d96f782a74635d09", "lat": 38.906934666666665, "is_disabled": 0, "lon": -76.9850555, "fusion_lon": 0.0, "is_reserved": 0, "fusion_lat": 0.0, "rental_uris": {"android": "https://dc.lft.to/lastmile_qr_scan", "ios": "https://dc.lft.to/lastmile_qr_scan"}, "type": "electric_scooter", "name": "e5ca63712d633126d96f782a74635d09"}, {"bike_id": "25a26479c2f9cfcc8d9a8eb28150ece1", "lat": 38.92338133333333, "is_disabled": 0, "lon": -77.03516933333333, "fusion_lon": 0.0, "is_reserved": 0, "fusion_lat": 0.0, "rental_uris": {"android": "https://dc.lft.to/lastmile_qr_scan", "ios": "https://dc.lft.to/lastmile_qr_scan"}, "type": "electric_scooter", "name": "25a26479c2f9cfcc8d9a8eb28150ece1"}, {"bike_id": "407fb948cac86aa83e2fcb3edad92bc2", "lat": 38.92122466666667, "is_disabled": 0, "lon": -77.04219216666667, "fusion_lon": 0.0, "is_reserved": 0, "fusion_lat": 0.0, "rental_uris": {"android": "https://dc.lft.to/lastmile_qr_scan", "ios": "https://dc.lft.to/lastmile_qr_scan"}, "type": "electric_scooter", "name": "407fb948cac86aa83e2fcb3edad92bc2"}, {"bike_id": "300f2f18ac70a73f0fd962ef53dc963b", "lat": 38.887443, "is_disabled": 0, "lon": -77.02568633333334, "fusion_lon": 0.0, "is_reserved": 0, "fusion_lat": 0.0, "rental_uris": {"android": "https://dc.lft.to/lastmile_qr_scan", "ios": "https://dc.lft.to/lastmile_qr_scan"}, "type": "electric_scooter", "name": "300f2f18ac70a73f0fd962ef53dc963b"}, {"bike_id": "bf360b0be08118354552efae6c64a8b7", "lat": 38.93548366666667, "is_disabled": 0, "lon": -77.03416883333334, "fusion_lon": 0.0, "is_reserved": 0, "fusion_lat": 0.0, "rental_uris": {"android": "https://dc.lft.to/lastmile_qr_scan", "ios": "https://dc.lft.to/lastmile_qr_scan"}, "type": "electric_scooter", "name": "bf360b0be08118354552efae6c64a8b7"}, {"bike_id": "f73fae6f23c384d89a96912aab5f09e3", "lat": 38.92101516666666, "is_disabled": 0, "lon": -77.04701733333333, "fusion_lon": 0.0, "is_reserved": 0, "fusion_lat": 0.0, "rental_uris": {"android": "https://dc.lft.to/lastmile_qr_scan", "ios": "https://dc.lft.to/lastmile_qr_scan"}, "type": "electric_scooter", "name": "f73fae6f23c384d89a96912aab5f09e3"}, {"bike_id": "c87cd7929a1d1432a8e01402b7c2d1ec", "lat": 38.910065333333336, "is_disabled": 0, "lon": -77.03182133333334, "fusion_lon": 0.0, "is_reserved": 0, "fusion_lat": 0.0, "rental_uris": {"android": "https://dc.lft.to/lastmile_qr_scan", "ios": "https://dc.lft.to/lastmile_qr_scan"}, "type": "electric_scooter", "name": "c87cd7929a1d1432a8e01402b7c2d1ec"}, {"bike_id": "5f098d4f94779a74b690b4a474c00b7e", "lat": 38.923727166666666, "is_disabled": 0, "lon": -77.03791016666666, "fusion_lon": 0.0, "is_reserved": 0, "fusion_lat": 0.0, "rental_uris": {"android": "https://dc.lft.to/lastmile_qr_scan", "ios": "https://dc.lft.to/lastmile_qr_scan"}, "type": "electric_scooter", "name": "5f098d4f94779a74b690b4a474c00b7e"}, {"bike_id": "8ef7a0e1a196bd18f97a1f899f55750a", "lat": 38.918191666666665, "is_disabled": 0, "lon": -77.028916, "fusion_lon": 0.0, "is_reserved": 0, "fusion_lat": 0.0, "rental_uris": {"android": "https://dc.lft.to/lastmile_qr_scan", "ios": "https://dc.lft.to/lastmile_qr_scan"}, "type": "electric_scooter", "name": "8ef7a0e1a196bd18f97a1f899f55750a"}, {"bike_id": "2b231f1a91a2cda463b0025f967ab98e", "lat": 38.9204015, "is_disabled": 0, "lon": -77.07155366666667, "fusion_lon": 0.0, "is_reserved": 0, "fusion_lat": 0.0, "rental_uris": {"android": "https://dc.lft.to/lastmile_qr_scan", "ios": "https://dc.lft.to/lastmile_qr_scan"}, "type": "electric_bike", "name": "2b231f1a91a2cda463b0025f967ab98e"}, {"bike_id": "676cff1d7226de947015dcd5f9aa756b", "lat": 38.9498745, "is_disabled": 0, "lon": -77.0081225, "fusion_lon": 0.0, "is_reserved": 0, "fusion_lat": 0.0, "rental_uris": {"android": "https://dc.lft.to/lastmile_qr_scan", "ios": "https://dc.lft.to/lastmile_qr_scan"}, "type": "electric_scooter", "name": "676cff1d7226de947015dcd5f9aa756b"}, {"bike_id": "b35a5ef0680c1c19c77d1b7102c0d93a", "lat": 38.89733, "is_disabled": 0, "lon": -77.05529083333333, "fusion_lon": 0.0, "is_reserved": 0, "fusion_lat": 0.0, "rental_uris": {"android": "https://dc.lft.to/lastmile_qr_scan", "ios": "https://dc.lft.to/lastmile_qr_scan"}, "type": "electric_scooter", "name": "b35a5ef0680c1c19c77d1b7102c0d93a"}, {"bike_id": "ebf244cb7f2c38418c3d8b9bbee612c9", "lat": 38.87579216666666, "is_disabled": 0, "lon": -77.2341055, "fusion_lon": 0.0, "is_reserved": 0, "fusion_lat": 0.0, "rental_uris": {"android": "https://dc.lft.to/lastmile_qr_scan", "ios": "https://dc.lft.to/lastmile_qr_scan"}, "type": "electric_bike", "name": "ebf244cb7f2c38418c3d8b9bbee612c9"}, {"bike_id": "5956c02a9fe04d150f5545383c753639", "lat": 38.907131166666666, "is_disabled": 0, "lon": -77.040092, "fusion_lon": 0.0, "is_reserved": 0, "fusion_lat": 0.0, "rental_uris": {"android": "https://dc.lft.to/lastmile_qr_scan", "ios": "https://dc.lft.to/lastmile_qr_scan"}, "type": "electric_scooter", "name": "5956c02a9fe04d150f5545383c753639"}, {"bike_id": "4176306a4b7d15b3b80e218ffaf5d5e5", "lat": 38.878470666666665, "is_disabled": 0, "lon": -77.00034516666666, "fusion_lon": 0.0, "is_reserved": 0, "fusion_lat": 0.0, "rental_uris": {"android": "https://dc.lft.to/lastmile_qr_scan", "ios": "https://dc.lft.to/lastmile_qr_scan"}, "type": "electric_scooter", "name": "4176306a4b7d15b3b80e218ffaf5d5e5"}, {"bike_id": "05be9b05d24c9c8f604c884a2dea6667", "lat": 38.932214, "is_disabled": 0, "lon": -77.03885733333334, "fusion_lon": 0.0, "is_reserved": 0, "fusion_lat": 0.0, "rental_uris": {"android": "https://dc.lft.to/lastmile_qr_scan", "ios": "https://dc.lft.to/lastmile_qr_scan"}, "type": "electric_scooter", "name": "05be9b05d24c9c8f604c884a2dea6667"}, {"bike_id": "dd2a8f0f8d38a0aab55ba5ebac2240a3", "lat": 38.9208115, "is_disabled": 0, "lon": -77.07548983333334, "fusion_lon": 0.0, "is_reserved": 0, "fusion_lat": 0.0, "rental_uris": {"android": "https://dc.lft.to/lastmile_qr_scan", "ios": "https://dc.lft.to/lastmile_qr_scan"}, "type": "electric_scooter", "name": "dd2a8f0f8d38a0aab55ba5ebac2240a3"}, {"bike_id": "d77e914c80a311adb548611376516744", "lat": 38.902541666666664, "is_disabled": 0, "lon": -77.03891216666666, "fusion_lon": 0.0, "is_reserved": 0, "fusion_lat": 0.0, "rental_uris": {"android": "https://dc.lft.to/lastmile_qr_scan", "ios": "https://dc.lft.to/lastmile_qr_scan"}, "type": "electric_scooter", "name": "d77e914c80a311adb548611376516744"}, {"bike_id": "fee231740a23ba0495267b64be67da00", "lat": 38.902241, "is_disabled": 0, "lon": -76.941972, "fusion_lon": 0.0, "is_reserved": 0, "fusion_lat": 0.0, "rental_uris": {"android": "https://dc.lft.to/lastmile_qr_scan", "ios": "https://dc.lft.to/lastmile_qr_scan"}, "type": "electric_scooter", "name": "fee231740a23ba0495267b64be67da00"}, {"bike_id": "7b3851616167cc964de8de312c8bb793", "lat": 38.89616183333333, "is_disabled": 0, "lon": -77.04594816666666, "fusion_lon": 0.0, "is_reserved": 0, "fusion_lat": 0.0, "rental_uris": {"android": "https://dc.lft.to/lastmile_qr_scan", "ios": "https://dc.lft.to/lastmile_qr_scan"}, "type": "electric_scooter", "name": "7b3851616167cc964de8de312c8bb793"}, {"bike_id": "dc72ed016592b095e3f00a88f81c1fc8", "lat": 38.90549516666667, "is_disabled": 0, "lon": -76.994889, "fusion_lon": 0.0, "is_reserved": 0, "fusion_lat": 0.0, "rental_uris": {"android": "https://dc.lft.to/lastmile_qr_scan", "ios": "https://dc.lft.to/lastmile_qr_scan"}, "type": "electric_scooter", "name": "dc72ed016592b095e3f00a88f81c1fc8"}, {"bike_id": "6609ff1c2fad7f985e2d99b8858cc390", "lat": 38.9017185, "is_disabled": 0, "lon": -77.02518333333333, "fusion_lon": 0.0, "is_reserved": 0, "fusion_lat": 0.0, "rental_uris": {"android": "https://dc.lft.to/lastmile_qr_scan", "ios": "https://dc.lft.to/lastmile_qr_scan"}, "type": "electric_scooter", "name": "6609ff1c2fad7f985e2d99b8858cc390"}, {"bike_id": "d97ead54489a9c47030a5bf0a8aba09f", "lat": 38.91950283333333, "is_disabled": 0, "lon": -77.02524066666666, "fusion_lon": 0.0, "is_reserved": 0, "fusion_lat": 0.0, "rental_uris": {"android": "https://dc.lft.to/lastmile_qr_scan", "ios": "https://dc.lft.to/lastmile_qr_scan"}, "type": "electric_scooter", "name": "d97ead54489a9c47030a5bf0a8aba09f"}, {"bike_id": "758fb4868d6263a9c10bbf5c36b5614a", "lat": 38.914339, "is_disabled": 0, "lon": -77.04175033333334, "fusion_lon": 0.0, "is_reserved": 0, "fusion_lat": 0.0, "rental_uris": {"android": "https://dc.lft.to/lastmile_qr_scan", "ios": "https://dc.lft.to/lastmile_qr_scan"}, "type": "electric_scooter", "name": "758fb4868d6263a9c10bbf5c36b5614a"}, {"bike_id": "1dca4038cd513d916bea9f2f758ce567", "lat": 38.905342833333336, "is_disabled": 0, "lon": -77.03446766666667, "fusion_lon": 0.0, "is_reserved": 0, "fusion_lat": 0.0, "rental_uris": {"android": "https://dc.lft.to/lastmile_qr_scan", "ios": "https://dc.lft.to/lastmile_qr_scan"}, "type": "electric_scooter", "name": "1dca4038cd513d916bea9f2f758ce567"}, {"bike_id": "5c20dd84268eebf8c11f3da95fda7388", "lat": 38.9012125, "is_disabled": 0, "lon": -77.04419666666666, "fusion_lon": 0.0, "is_reserved": 0, "fusion_lat": 0.0, "rental_uris": {"android": "https://dc.lft.to/lastmile_qr_scan", "ios": "https://dc.lft.to/lastmile_qr_scan"}, "type": "electric_scooter", "name": "5c20dd84268eebf8c11f3da95fda7388"}, {"bike_id": "e74436fac07c2bf6b22e9fef03c9774b", "lat": 38.883432166666665, "is_disabled": 0, "lon": -76.93500183333333, "fusion_lon": 0.0, "is_reserved": 0, "fusion_lat": 0.0, "rental_uris": {"android": "https://dc.lft.to/lastmile_qr_scan", "ios": "https://dc.lft.to/lastmile_qr_scan"}, "type": "electric_scooter", "name": "e74436fac07c2bf6b22e9fef03c9774b"}, {"bike_id": "8fff16384cfc60bbd6ab80d9e2b6c376", "lat": 38.92046633333333, "is_disabled": 0, "lon": -77.01668233333334, "fusion_lon": 0.0, "is_reserved": 0, "fusion_lat": 0.0, "rental_uris": {"android": "https://dc.lft.to/lastmile_qr_scan", "ios": "https://dc.lft.to/lastmile_qr_scan"}, "type": "electric_scooter", "name": "8fff16384cfc60bbd6ab80d9e2b6c376"}, {"bike_id": "6c1723b33593f03bc7afea85f5fe1f4f", "lat": 38.91893366666667, "is_disabled": 0, "lon": -77.0382245, "fusion_lon": 0.0, "is_reserved": 0, "fusion_lat": 0.0, "rental_uris": {"android": "https://dc.lft.to/lastmile_qr_scan", "ios": "https://dc.lft.to/lastmile_qr_scan"}, "type": "electric_scooter", "name": "6c1723b33593f03bc7afea85f5fe1f4f"}, {"bike_id": "0bb455eb3162ff8810474451937f6c9f", "lat": 38.909063333333336, "is_disabled": 0, "lon": -77.0726605, "fusion_lon": 0.0, "is_reserved": 0, "fusion_lat": 0.0, "rental_uris": {"android": "https://dc.lft.to/lastmile_qr_scan", "ios": "https://dc.lft.to/lastmile_qr_scan"}, "type": "electric_scooter", "name": "0bb455eb3162ff8810474451937f6c9f"}, {"bike_id": "5ac8459fad6d3fde6de62936f1ffe8f0", "lat": 38.92741516666667, "is_disabled": 0, "lon": -77.02527166666667, "fusion_lon": 0.0, "is_reserved": 0, "fusion_lat": 0.0, "rental_uris": {"android": "https://dc.lft.to/lastmile_qr_scan", "ios": "https://dc.lft.to/lastmile_qr_scan"}, "type": "electric_scooter", "name": "5ac8459fad6d3fde6de62936f1ffe8f0"}, {"bike_id": "2c80ed63a85892eee78097a5a1b149d5", "lat": 38.90411133333333, "is_disabled": 0, "lon": -76.97330433333333, "fusion_lon": 0.0, "is_reserved": 0, "fusion_lat": 0.0, "rental_uris": {"android": "https://dc.lft.to/lastmile_qr_scan", "ios": "https://dc.lft.to/lastmile_qr_scan"}, "type": "electric_scooter", "name": "2c80ed63a85892eee78097a5a1b149d5"}, {"bike_id": "4696058dc3b2398d1262650f7865a86f", "lat": 38.89857683333334, "is_disabled": 0, "lon": -77.033211, "fusion_lon": 0.0, "is_reserved": 0, "fusion_lat": 0.0, "rental_uris": {"android": "https://dc.lft.to/lastmile_qr_scan", "ios": "https://dc.lft.to/lastmile_qr_scan"}, "type": "electric_scooter", "name": "4696058dc3b2398d1262650f7865a86f"}, {"bike_id": "9640474d6b2704e2d2dde7fe78682c75", "lat": 38.899975, "is_disabled": 0, "lon": -77.0247955, "fusion_lon": 0.0, "is_reserved": 0, "fusion_lat": 0.0, "rental_uris": {"android": "https://dc.lft.to/lastmile_qr_scan", "ios": "https://dc.lft.to/lastmile_qr_scan"}, "type": "electric_scooter", "name": "9640474d6b2704e2d2dde7fe78682c75"}, {"bike_id": "137405f14e499156d2c313f24988e7a5", "lat": 38.9044895, "is_disabled": 0, "lon": -77.03451616666666, "fusion_lon": 0.0, "is_reserved": 0, "fusion_lat": 0.0, "rental_uris": {"android": "https://dc.lft.to/lastmile_qr_scan", "ios": "https://dc.lft.to/lastmile_qr_scan"}, "type": "electric_scooter", "name": "137405f14e499156d2c313f24988e7a5"}, {"bike_id": "26e94ec03f88cd96b3d93c18a4cc345d", "lat": 38.921033666666666, "is_disabled": 0, "lon": -77.02207483333333, "fusion_lon": 0.0, "is_reserved": 0, "fusion_lat": 0.0, "rental_uris": {"android": "https://dc.lft.to/lastmile_qr_scan", "ios": "https://dc.lft.to/lastmile_qr_scan"}, "type": "electric_scooter", "name": "26e94ec03f88cd96b3d93c18a4cc345d"}, {"bike_id": "1126d0d339a4becba3237f7c5521666d", "lat": 38.91200283333333, "is_disabled": 0, "lon": -76.98767933333333, "fusion_lon": 0.0, "is_reserved": 0, "fusion_lat": 0.0, "rental_uris": {"android": "https://dc.lft.to/lastmile_qr_scan", "ios": "https://dc.lft.to/lastmile_qr_scan"}, "type": "electric_scooter", "name": "1126d0d339a4becba3237f7c5521666d"}, {"bike_id": "de054f2aabfacfc34a3e7b8491d0feb8", "lat": 38.892361, "is_disabled": 0, "lon": -77.04672183333334, "fusion_lon": 0.0, "is_reserved": 0, "fusion_lat": 0.0, "rental_uris": {"android": "https://dc.lft.to/lastmile_qr_scan", "ios": "https://dc.lft.to/lastmile_qr_scan"}, "type": "electric_scooter", "name": "de054f2aabfacfc34a3e7b8491d0feb8"}, {"bike_id": "315993b19c57028ffb5146b8373ab36f", "lat": 38.89217883333333, "is_disabled": 0, "lon": -77.03344116666666, "fusion_lon": 0.0, "is_reserved": 0, "fusion_lat": 0.0, "rental_uris": {"android": "https://dc.lft.to/lastmile_qr_scan", "ios": "https://dc.lft.to/lastmile_qr_scan"}, "type": "electric_scooter", "name": "315993b19c57028ffb5146b8373ab36f"}, {"bike_id": "5f0c6001879a4f6957b8dd6c3cc08b61", "lat": 38.91977583333333, "is_disabled": 0, "lon": -77.04084333333333, "fusion_lon": 0.0, "is_reserved": 0, "fusion_lat": 0.0, "rental_uris": {"android": "https://dc.lft.to/lastmile_qr_scan", "ios": "https://dc.lft.to/lastmile_qr_scan"}, "type": "electric_scooter", "name": "5f0c6001879a4f6957b8dd6c3cc08b61"}, {"bike_id": "53766e1eddcf83759bab0c0fa2aaaa34", "lat": 38.8921805, "is_disabled": 0, "lon": -77.04513616666667, "fusion_lon": 0.0, "is_reserved": 0, "fusion_lat": 0.0, "rental_uris": {"android": "https://dc.lft.to/lastmile_qr_scan", "ios": "https://dc.lft.to/lastmile_qr_scan"}, "type": "electric_scooter", "name": "53766e1eddcf83759bab0c0fa2aaaa34"}, {"bike_id": "736cb17a62fce1db074b50a8f9156abd", "lat": 38.8862895, "is_disabled": 0, "lon": -77.02235033333334, "fusion_lon": 0.0, "is_reserved": 0, "fusion_lat": 0.0, "rental_uris": {"android": "https://dc.lft.to/lastmile_qr_scan", "ios": "https://dc.lft.to/lastmile_qr_scan"}, "type": "electric_scooter", "name": "736cb17a62fce1db074b50a8f9156abd"}, {"bike_id": "e9fcbea489150e6690c9d66432e381a3", "lat": 38.9184745, "is_disabled": 0, "lon": -77.0899735, "fusion_lon": 0.0, "is_reserved": 0, "fusion_lat": 0.0, "rental_uris": {"android": "https://dc.lft.to/lastmile_qr_scan", "ios": "https://dc.lft.to/lastmile_qr_scan"}, "type": "electric_scooter", "name": "e9fcbea489150e6690c9d66432e381a3"}, {"bike_id": "4e988d1d46b6a2582be5f12653969701", "lat": 38.8871015, "is_disabled": 0, "lon": -77.02201683333334, "fusion_lon": 0.0, "is_reserved": 0, "fusion_lat": 0.0, "rental_uris": {"android": "https://dc.lft.to/lastmile_qr_scan", "ios": "https://dc.lft.to/lastmile_qr_scan"}, "type": "electric_scooter", "name": "4e988d1d46b6a2582be5f12653969701"}, {"bike_id": "2176bfccadf52e0e16c24691c4eb6cbb", "lat": 38.87168833333333, "is_disabled": 0, "lon": -77.005809, "fusion_lon": 0.0, "is_reserved": 0, "fusion_lat": 0.0, "rental_uris": {"android": "https://dc.lft.to/lastmile_qr_scan", "ios": "https://dc.lft.to/lastmile_qr_scan"}, "type": "electric_scooter", "name": "2176bfccadf52e0e16c24691c4eb6cbb"}, {"bike_id": "ca395bd395bbf26b142c167ff5f7c5bd", "lat": 38.917804333333336, "is_disabled": 0, "lon": -77.02309583333333, "fusion_lon": 0.0, "is_reserved": 0, "fusion_lat": 0.0, "rental_uris": {"android": "https://dc.lft.to/lastmile_qr_scan", "ios": "https://dc.lft.to/lastmile_qr_scan"}, "type": "electric_scooter", "name": "ca395bd395bbf26b142c167ff5f7c5bd"}, {"bike_id": "d800c31d422a76582835d7b1f022a57b", "lat": 38.8197815, "is_disabled": 0, "lon": -76.9981245, "fusion_lon": 0.0, "is_reserved": 0, "fusion_lat": 0.0, "rental_uris": {"android": "https://dc.lft.to/lastmile_qr_scan", "ios": "https://dc.lft.to/lastmile_qr_scan"}, "type": "electric_bike", "name": "d800c31d422a76582835d7b1f022a57b"}, {"bike_id": "c435b943e51b0cf83fb7fe2b3ee678ef", "lat": 38.89171983333333, "is_disabled": 0, "lon": -76.92660433333333, "fusion_lon": 0.0, "is_reserved": 0, "fusion_lat": 0.0, "rental_uris": {"android": "https://dc.lft.to/lastmile_qr_scan", "ios": "https://dc.lft.to/lastmile_qr_scan"}, "type": "electric_scooter", "name": "c435b943e51b0cf83fb7fe2b3ee678ef"}, {"bike_id": "ad053d2ea3318fedeeac06732fd32c5d", "lat": 38.906529666666664, "is_disabled": 0, "lon": -76.983923, "fusion_lon": 0.0, "is_reserved": 0, "fusion_lat": 0.0, "rental_uris": {"android": "https://dc.lft.to/lastmile_qr_scan", "ios": "https://dc.lft.to/lastmile_qr_scan"}, "type": "electric_scooter", "name": "ad053d2ea3318fedeeac06732fd32c5d"}, {"bike_id": "6a32f884b7fa407b894bb6031c28d9c9", "lat": 38.8959, "is_disabled": 0, "lon": -77.04758283333334, "fusion_lon": 0.0, "is_reserved": 0, "fusion_lat": 0.0, "rental_uris": {"android": "https://dc.lft.to/lastmile_qr_scan", "ios": "https://dc.lft.to/lastmile_qr_scan"}, "type": "electric_scooter", "name": "6a32f884b7fa407b894bb6031c28d9c9"}, {"bike_id": "c047dabb12f8dd950237a6cf58c7fe1b", "lat": 38.935219333333336, "is_disabled": 0, "lon": -77.05436383333333, "fusion_lon": 0.0, "is_reserved": 0, "fusion_lat": 0.0, "rental_uris": {"android": "https://dc.lft.to/lastmile_qr_scan", "ios": "https://dc.lft.to/lastmile_qr_scan"}, "type": "electric_scooter", "name": "c047dabb12f8dd950237a6cf58c7fe1b"}, {"bike_id": "149cd2e69c14f54cb4604adcce8ca6ae", "lat": 38.90168933333333, "is_disabled": 0, "lon": -77.02475333333334, "fusion_lon": 0.0, "is_reserved": 0, "fusion_lat": 0.0, "rental_uris": {"android": "https://dc.lft.to/lastmile_qr_scan", "ios": "https://dc.lft.to/lastmile_qr_scan"}, "type": "electric_scooter", "name": "149cd2e69c14f54cb4604adcce8ca6ae"}, {"bike_id": "edca1fccaad5f0510383da3ca5aaef52", "lat": 38.877645333333334, "is_disabled": 0, "lon": -76.9961245, "fusion_lon": 0.0, "is_reserved": 0, "fusion_lat": 0.0, "rental_uris": {"android": "https://dc.lft.to/lastmile_qr_scan", "ios": "https://dc.lft.to/lastmile_qr_scan"}, "type": "electric_scooter", "name": "edca1fccaad5f0510383da3ca5aaef52"}, {"bike_id": "30e3cdc860c5834542bef642fb41204c", "lat": 38.87668516666667, "is_disabled": 0, "lon": -76.931168, "fusion_lon": 0.0, "is_reserved": 0, "fusion_lat": 0.0, "rental_uris": {"android": "https://dc.lft.to/lastmile_qr_scan", "ios": "https://dc.lft.to/lastmile_qr_scan"}, "type": "electric_scooter", "name": "30e3cdc860c5834542bef642fb41204c"}, {"bike_id": "8aae6fc3a869623881549cf05c1573fd", "lat": 38.92653683333333, "is_disabled": 0, "lon": -77.02429733333334, "fusion_lon": 0.0, "is_reserved": 0, "fusion_lat": 0.0, "rental_uris": {"android": "https://dc.lft.to/lastmile_qr_scan", "ios": "https://dc.lft.to/lastmile_qr_scan"}, "type": "electric_scooter", "name": "8aae6fc3a869623881549cf05c1573fd"}, {"bike_id": "72f7d7a965e8adf8837c7362e3947699", "lat": 38.942426, "is_disabled": 0, "lon": -77.05870533333334, "fusion_lon": 0.0, "is_reserved": 0, "fusion_lat": 0.0, "rental_uris": {"android": "https://dc.lft.to/lastmile_qr_scan", "ios": "https://dc.lft.to/lastmile_qr_scan"}, "type": "electric_scooter", "name": "72f7d7a965e8adf8837c7362e3947699"}, {"bike_id": "bc436e0922caee55c01e46f11e6eae8c", "lat": 38.920995166666664, "is_disabled": 0, "lon": -77.03124516666666, "fusion_lon": 0.0, "is_reserved": 0, "fusion_lat": 0.0, "rental_uris": {"android": "https://dc.lft.to/lastmile_qr_scan", "ios": "https://dc.lft.to/lastmile_qr_scan"}, "type": "electric_scooter", "name": "bc436e0922caee55c01e46f11e6eae8c"}, {"bike_id": "7c7fe30781cee04d66bddaf0dcfd86f5", "lat": 38.957624333333335, "is_disabled": 0, "lon": -77.014913, "fusion_lon": 0.0, "is_reserved": 0, "fusion_lat": 0.0, "rental_uris": {"android": "https://dc.lft.to/lastmile_qr_scan", "ios": "https://dc.lft.to/lastmile_qr_scan"}, "type": "electric_scooter", "name": "7c7fe30781cee04d66bddaf0dcfd86f5"}, {"bike_id": "e3b386920ef968c47db5a6e6f9693edc", "lat": 38.9040865, "is_disabled": 0, "lon": -77.067873, "fusion_lon": 0.0, "is_reserved": 0, "fusion_lat": 0.0, "rental_uris": {"android": "https://dc.lft.to/lastmile_qr_scan", "ios": "https://dc.lft.to/lastmile_qr_scan"}, "type": "electric_scooter", "name": "e3b386920ef968c47db5a6e6f9693edc"}, {"bike_id": "5b92245bdbce20755ed39f2b9024dbfc", "lat": 38.9207225, "is_disabled": 0, "lon": -77.02517416666667, "fusion_lon": 0.0, "is_reserved": 0, "fusion_lat": 0.0, "rental_uris": {"android": "https://dc.lft.to/lastmile_qr_scan", "ios": "https://dc.lft.to/lastmile_qr_scan"}, "type": "electric_scooter", "name": "5b92245bdbce20755ed39f2b9024dbfc"}, {"bike_id": "6dbe926fe69a8559c9083f4a9ea46a5a", "lat": 38.9002945, "is_disabled": 0, "lon": -76.97221666666667, "fusion_lon": 0.0, "is_reserved": 0, "fusion_lat": 0.0, "rental_uris": {"android": "https://dc.lft.to/lastmile_qr_scan", "ios": "https://dc.lft.to/lastmile_qr_scan"}, "type": "electric_bike", "name": "6dbe926fe69a8559c9083f4a9ea46a5a"}, {"bike_id": "13a849588ad0fb0377adb89dfd4ee6d3", "lat": 38.883707, "is_disabled": 0, "lon": -76.99521333333334, "fusion_lon": 0.0, "is_reserved": 0, "fusion_lat": 0.0, "rental_uris": {"android": "https://dc.lft.to/lastmile_qr_scan", "ios": "https://dc.lft.to/lastmile_qr_scan"}, "type": "electric_scooter", "name": "13a849588ad0fb0377adb89dfd4ee6d3"}, {"bike_id": "bb770c530cd35153e473760a7d83c20f", "lat": 38.9243695, "is_disabled": 0, "lon": -77.0389495, "fusion_lon": 0.0, "is_reserved": 0, "fusion_lat": 0.0, "rental_uris": {"android": "https://dc.lft.to/lastmile_qr_scan", "ios": "https://dc.lft.to/lastmile_qr_scan"}, "type": "electric_scooter", "name": "bb770c530cd35153e473760a7d83c20f"}, {"bike_id": "29cf83d72054d877e7a2ce5320346826", "lat": 38.92202616666667, "is_disabled": 0, "lon": -77.041851, "fusion_lon": 0.0, "is_reserved": 0, "fusion_lat": 0.0, "rental_uris": {"android": "https://dc.lft.to/lastmile_qr_scan", "ios": "https://dc.lft.to/lastmile_qr_scan"}, "type": "electric_scooter", "name": "29cf83d72054d877e7a2ce5320346826"}, {"bike_id": "98002e4ea4d6fa5a32e1ddca26bc6a3b", "lat": 38.89360516666667, "is_disabled": 0, "lon": -76.9474885, "fusion_lon": 0.0, "is_reserved": 0, "fusion_lat": 0.0, "rental_uris": {"android": "https://dc.lft.to/lastmile_qr_scan", "ios": "https://dc.lft.to/lastmile_qr_scan"}, "type": "electric_scooter", "name": "98002e4ea4d6fa5a32e1ddca26bc6a3b"},