{"data": {"bikes": [{"rental_uris": {"ios": "https://dc.lft.to/lastmile_qr_scan", "android": "https://dc.lft.to/lastmile_qr_scan"}, "lon": -77.04934633333333, "type": "electric_scooter", "fusion_lat": 0.0, "lat": 38.908902, "name": "30671995cb7e44244cd76f34a51f041e", "fusion_lon": 0.0, "bike_id": "30671995cb7e44244cd76f34a51f041e", "is_disabled": 0, "is_reserved": 0}, {"rental_uris": {"ios": "https://dc.lft.to/lastmile_qr_scan", "android": "https://dc.lft.to/lastmile_qr_scan"}, "lon": -77.03562816666667, "type": "electric_scooter", "fusion_lat": 0.0, "lat": 38.92737733333333, "name": "49364358650f60d3b7a28854c60e21de", "fusion_lon": 0.0, "bike_id": "49364358650f60d3b7a28854c60e21de", "is_disabled": 0, "is_reserved": 0}, {"rental_uris": {"ios": "https://dc.lft.to/lastmile_qr_scan", "android": "https://dc.lft.to/lastmile_qr_scan"}, "lon": -77.051543, "type": "electric_scooter", "fusion_lat": 0.0, "lat": 38.900769833333335, "name": "2484760ce6967ad9caad72f609958faf", "fusion_lon": 0.0, "bike_id": "2484760ce6967ad9caad72f609958faf", "is_disabled": 0, "is_reserved": 0}, {"rental_uris": {"ios": "https://dc.lft.to/lastmile_qr_scan", "android": "https://dc.lft.to/lastmile_qr_scan"}, "lon": -77.06885533333333, "type": "electric_scooter", "fusion_lat": 0.0, "lat": 38.905077, "name": "22ea3717da8997bb2568c3f36ca99ed8", "fusion_lon": 0.0, "bike_id": "22ea3717da8997bb2568c3f36ca99ed8", "is_disabled": 0, "is_reserved": 0}, {"rental_uris": {"ios": "https://dc.lft.to/lastmile_qr_scan", "android": "https://dc.lft.to/lastmile_qr_scan"}, "lon": -76.98829816666667, "type": "electric_scooter", "fusion_lat": 0.0, "lat": 38.88013733333333, "name": "a24d2eb7f516f94ed05d0bc6185264aa", "fusion_lon": 0.0, "bike_id": "a24d2eb7f516f94ed05d0bc6185264aa", "is_disabled": 0, "is_reserved": 0}, {"rental_uris": {"ios": "https://dc.lft.to/lastmile_qr_scan", "android": "https://dc.lft.to/lastmile_qr_scan"}, "lon": -77.03581316666667, "type": "electric_scooter", "fusion_lat": 0.0, "lat": 38.94244316666666, "name": "8b6d3f58b0a06207cb1360ef2a111a0e", "fusion_lon": 0.0, "bike_id": "8b6d3f58b0a06207cb1360ef2a111a0e", "is_disabled": 0, "is_reserved": 0}, {"rental_uris": {"ios": "https://dc.lft.to/lastmile_qr_scan", "android": "https://dc.lft.to/lastmile_qr_scan"}, "lon": -77.03515183333333, "type": "electric_scooter", "fusion_lat": 0.0, "lat": 38.931061, "name": "5324a15ef7c07deeb5ad00d3060a58ff", "fusion_lon": 0.0, "bike_id": "5324a15ef7c07deeb5ad00d3060a58ff", "is_disabled": 0, "is_reserved": 0}, {"rental_uris": {"ios": "https://dc.lft.to/lastmile_qr_scan", "android": "https://dc.lft.to/lastmile_qr_scan"}, "lon": -77.03216233333333, "type": "electric_scooter", "fusion_lat": 0.0, "lat": 38.911923333333334, "name": "0042e6ba8edbd08197a222d98e46c9bb", "fusion_lon": 0.0, "bike_id": "0042e6ba8edbd08197a222d98e46c9bb", "is_disabled": 0, "is_reserved": 0}, {"rental_uris": {"ios": "https://dc.lft.to/lastmile_qr_scan", "android": "https://dc.lft.to/lastmile_qr_scan"}, "lon": -76.9499925, "type": "electric_scooter", "fusion_lat": 0.0, "lat": 38.89371466666667, "name": "6376a7aca16d959a0f20b84d5b293e63", "fusion_lon": 0.0, "bike_id": "6376a7aca16d959a0f20b84d5b293e63", "is_disabled": 0, "is_reserved": 0}, {"rental_uris": {"ios": "https://dc.lft.to/lastmile_qr_scan", "android": "https://dc.lft.to/lastmile_qr_scan"}, "lon": -77.18282233333333, "type": "electric_bike", "fusion_lat": 0.0, "lat": 38.88341716666667, "name": "2451a34c7cff638782ed57f38247af14", "fusion_lon": 0.0, "bike_id": "2451a34c7cff638782ed57f38247af14", "is_disabled": 0, "is_reserved": 0}, {"rental_uris": {"ios": "https://dc.lft.to/lastmile_qr_scan", "android": "https://dc.lft.to/lastmile_qr_scan"}, "lon": -77.081966, "type": "electric_scooter", "fusion_lat": 0.0, "lat": 38.92001166666667, "name": "e715ef97601dd7f7bc84dd3601d28ed1", "fusion_lon": 0.0, "bike_id": "e715ef97601dd7f7bc84dd3601d28ed1", "is_disabled": 0, "is_reserved": 0}, {"rental_uris": {"ios": "https://dc.lft.to/lastmile_qr_scan", "android": "https://dc.lft.to/lastmile_qr_scan"}, "lon": -76.97819333333334, "type": "electric_scooter", "fusion_lat": 0.0, "lat": 38.895172333333335, "name": "a9a2423f4c3d986e4a0d7618d0631c1c", "fusion_lon": 0.0, "bike_id": "a9a2423f4c3d986e4a0d7618d0631c1c", "is_disabled": 0, "is_reserved": 0}, {"rental_uris": {"ios": "https://dc.lft.to/lastmile_qr_scan", "android": "https://dc.lft.to/lastmile_qr_scan"}, "lon": -77.071356, "type": "electric_scooter", "fusion_lat": 0.0, "lat": 38.9272315, "name": "5c37b5796fa33c7d45f3e04cbeab0e82", "fusion_lon": 0.0, "bike_id": "5c37b5796fa33c7d45f3e04cbeab0e82", "is_disabled": 0, "is_reserved": 0}, {"rental_uris": {"ios": "https://dc.lft.to/lastmile_qr_scan", "android": "https://dc.lft.to/lastmile_qr_scan"}, "lon": -77.02390166666666, "type": "electric_scooter", "fusion_lat": 0.0, "lat": 38.899091166666665, "name": "aa04b749060b7b3ec54eadaffa4f30b7", "fusion_lon": 0.0, "bike_id": "aa04b749060b7b3ec54eadaffa4f30b7", "is_disabled": 0, "is_reserved": 0}, {"rental_uris": {"ios": "https://dc.lft.to/lastmile_qr_scan", "android": "https://dc.lft.to/lastmile_qr_scan"}, "lon": -76.97424883333333, "type": "electric_bike", "fusion_lat": 0.0, "lat": 38.932057, "name": "1d7b5a46f68b4c1b331f4c38568ae21c", "fusion_lon": 0.0, "bike_id": "1d7b5a46f68b4c1b331f4c38568ae21c", "is_disabled": 0, "is_reserved": 0}, {"rental_uris": {"ios": "https://dc.lft.to/lastmile_qr_scan", "android": "https://dc.lft.to/lastmile_qr_scan"}, "lon": -77.01675783333333, "type": "electric_scooter", "fusion_lat": 0.0, "lat": 38.90479716666667, "name": "84426d4b6a6b86c206fc69310abeb327", "fusion_lon": 0.0, "bike_id": "84426d4b6a6b86c206fc69310abeb327", "is_disabled": 0, "is_reserved": 0}, {"rental_uris": {"ios": "https://dc.lft.to/lastmile_qr_scan", "android": "https://dc.lft.to/lastmile_qr_scan"}, "lon": -77.042462, "type": "electric_scooter", "fusion_lat": 0.0, "lat": 38.9220425, "name": "6c642159d1a88364f6e2ed4db6b31070", "fusion_lon": 0.0, "bike_id": "6c642159d1a88364f6e2ed4db6b31070", "is_disabled": 0, "is_reserved": 0}, {"rental_uris": {"ios": "https://dc.lft.to/lastmile_qr_scan", "android": "https://dc.lft.to/lastmile_qr_scan"}, "lon": -77.06766783333333, "type": "electric_bike", "fusion_lat": 0.0, "lat": 38.9154385, "name": "cfc1b3b2ca3016c90f5ff6fa52fa7d40", "fusion_lon": 0.0, "bike_id": "cfc1b3b2ca3016c90f5ff6fa52fa7d40", "is_disabled": 0, "is_reserved": 0}, {"rental_uris": {"ios": "https://dc.lft.to/lastmile_qr_scan", "android": "https://dc.lft.to/lastmile_qr_scan"}, "lon": -76.98963783333333, "type": "electric_scooter", "fusion_lat": 0.0, "lat": 38.900306, "name": "808c1f309c141a9150e67031df650487", "fusion_lon": 0.0, "bike_id": "808c1f309c141a9150e67031df650487", "is_disabled": 0, "is_reserved": 0}, {"rental_uris": {"ios": "https://dc.lft.to/lastmile_qr_scan", "android": "https://dc.lft.to/lastmile_qr_scan"}, "lon": -77.03224116666667, "type": "electric_scooter", "fusion_lat": 0.0, "lat": 38.9266845, "name": "47aca920272bf66c18d72a5fe29a5d48", "fusion_lon": 0.0, "bike_id": "47aca920272bf66c18d72a5fe29a5d48", "is_disabled": 0, "is_reserved": 0}, {"rental_uris": {"ios": "https://dc.lft.to/lastmile_qr_scan", "android": "https://dc.lft.to/lastmile_qr_scan"}, "lon": -77.02278183333334, "type": "electric_scooter", "fusion_lat": 0.0, "lat": 38.878368, "name": "994997a72aa8cab0f0e7a8d855d705ae", "fusion_lon": 0.0, "bike_id": "994997a72aa8cab0f0e7a8d855d705ae", "is_disabled": 0, "is_reserved": 0}, {"rental_uris": {"ios": "https://dc.lft.to/lastmile_qr_scan", "android": "https://dc.lft.to/lastmile_qr_scan"}, "lon": -77.12899316666666, "type": "electric_bike", "fusion_lat": 0.0, "lat": 38.86374883333333, "name": "5fe4b93375d419284ad146521e55d21f", "fusion_lon": 0.0, "bike_id": "5fe4b93375d419284ad146521e55d21f", "is_disabled": 0, "is_reserved": 0}, {"rental_uris": {"ios": "https://dc.lft.to/lastmile_qr_scan", "android": "https://dc.lft.to/lastmile_qr_scan"}, "lon": -77.04726483333333, "type": "electric_scooter", "fusion_lat": 0.0, "lat": 38.89732216666667, "name": "4571c8efffdeb7da5db5fa962a9ceb20", "fusion_lon": 0.0, "bike_id": "4571c8efffdeb7da5db5fa962a9ceb20", "is_disabled": 0, "is_reserved": 0}, {"rental_uris": {"ios": "https://dc.lft.to/lastmile_qr_scan", "android": "https://dc.lft.to/lastmile_qr_scan"}, "lon": -77.0153405, "type": "electric_scooter", "fusion_lat": 0.0, "lat": 38.88737183333333, "name": "44734c16f395b16f97296ce7e060f3d1", "fusion_lon": 0.0, "bike_id": "44734c16f395b16f97296ce7e060f3d1", "is_disabled": 0, "is_reserved": 0}, {"rental_uris": {"ios": "https://dc.lft.to/lastmile_qr_scan", "android": "https://dc.lft.to/lastmile_qr_scan"}, "lon": -77.031054, "type": "electric_scooter", "fusion_lat": 0.0, "lat": 38.8947235, "name": "b48c13b4ba89bc7c61c0187124f7bec3", "fusion_lon": 0.0, "bike_id": "b48c13b4ba89bc7c61c0187124f7bec3", "is_disabled": 0, "is_reserved": 0}, {"rental_uris": {"ios": "https://dc.lft.to/lastmile_qr_scan", "android": "https://dc.lft.to/lastmile_qr_scan"}, "lon": -77.05457633333333, "type": "electric_scooter", "fusion_lat": 0.0, "lat": 38.92901083333334, "name": "964e25ecafa08918819d93865e1617fc", "fusion_lon": 0.0, "bike_id": "964e25ecafa08918819d93865e1617fc", "is_disabled": 0, "is_reserved": 0}, {"rental_uris": {"ios": "https://dc.lft.to/lastmile_qr_scan", "android": "https://dc.lft.to/lastmile_qr_scan"}, "lon": -77.03182566666666, "type": "electric_scooter", "fusion_lat": 0.0, "lat": 38.92968533333333, "name": "de6ff92f622520ea4f15e0c004b408f7", "fusion_lon": 0.0, "bike_id": "de6ff92f622520ea4f15e0c004b408f7", "is_disabled": 0, "is_reserved": 0}, {"rental_uris": {"ios": "https://dc.lft.to/lastmile_qr_scan", "android": "https://dc.lft.to/lastmile_qr_scan"}, "lon": -77.0328235, "type": "electric_scooter", "fusion_lat": 0.0, "lat": 38.908470333333334, "name": "ebe6ed016a7d452a16d012b0942126f8", "fusion_lon": 0.0, "bike_id": "ebe6ed016a7d452a16d012b0942126f8", "is_disabled": 0, "is_reserved": 0}, {"rental_uris": {"ios": "https://dc.lft.to/lastmile_qr_scan", "android": "https://dc.lft.to/lastmile_qr_scan"}, "lon": -77.105037, "type": "electric_bike", "fusion_lat": 0.0, "lat": 38.92844783333334, "name": "6041ddb25f2351a68c399f43d6ecaf12", "fusion_lon": 0.0, "bike_id": "6041ddb25f2351a68c399f43d6ecaf12", "is_disabled": 0, "is_reserved": 0}, {"rental_uris": {"ios": "https://dc.lft.to/lastmile_qr_scan", "android": "https://dc.lft.to/lastmile_qr_scan"}, "lon": -77.07356716666666, "type": "electric_bike", "fusion_lat": 0.0, "lat": 38.961927, "name": "adc22e99aa323195de0e34452e095d0d", "fusion_lon": 0.0, "bike_id": "adc22e99aa323195de0e34452e095d0d", "is_disabled": 0, "is_reserved": 0}, {"rental_uris": {"ios": "https://dc.lft.to/lastmile_qr_scan", "android": "https://dc.lft.to/lastmile_qr_scan"}, "lon": -77.04127, "type": "electric_scooter", "fusion_lat": 0.0, "lat": 38.92433116666667, "name": "3e1aecedf3038d75ecaa6d3f9c4e1fcb", "fusion_lon": 0.0, "bike_id": "3e1aecedf3038d75ecaa6d3f9c4e1fcb", "is_disabled": 0, "is_reserved": 0}, {"rental_uris": {"ios": "https://dc.lft.to/lastmile_qr_scan", "android": "https://dc.lft.to/lastmile_qr_scan"}, "lon": -77.0332285, "type": "electric_scooter", "fusion_lat": 0.0, "lat": 38.919883, "name": "fe1d3109b26907e7e04eb5b4e4b16524", "fusion_lon": 0.0, "bike_id": "fe1d3109b26907e7e04eb5b4e4b16524", "is_disabled": 0, "is_reserved": 0}, {"rental_uris": {"ios": "https://dc.lft.to/lastmile_qr_scan", "android": "https://dc.lft.to/lastmile_qr_scan"}, "lon": -77.03289033333333, "type": "electric_scooter", "fusion_lat": 0.0, "lat": 38.928773166666666, "name": "6451042c32964239ef0c7ec79c6c6364", "fusion_lon": 0.0, "bike_id": "6451042c32964239ef0c7ec79c6c6364", "is_disabled": 0, "is_reserved": 0}, {"rental_uris": {"ios": "https://dc.lft.to/lastmile_qr_scan", "android": "https://dc.lft.to/lastmile_qr_scan"}, "lon": -77.02276683333334, "type": "electric_scooter", "fusion_lat": 0.0, "lat": 38.917617166666666, "name": "cc7d836dba7dab463534c60a764f66d4", "fusion_lon": 0.0, "bike_id": "cc7d836dba7dab463534c60a764f66d4", "is_disabled": 0, "is_reserved": 0}, {"rental_uris": {"ios": "https://dc.lft.to/lastmile_qr_scan", "android": "https://dc.lft.to/lastmile_qr_scan"}, "lon": -76.97341316666666, "type": "electric_scooter", "fusion_lat": 0.0, "lat": 38.86204433333333, "name": "704022169749ecb40672565a18c52f1f", "fusion_lon": 0.0, "bike_id": "704022169749ecb40672565a18c52f1f", "is_disabled": 0, "is_reserved": 0}, {"rental_uris": {"ios": "https://dc.lft.to/lastmile_qr_scan", "android": "https://dc.lft.to/lastmile_qr_scan"}, "lon": -76.93230333333334, "type": "electric_bike", "fusion_lat": 0.0, "lat": 38.86590833333333, "name": "0f9229eedb2566c2fd426bd816f2710a", "fusion_lon": 0.0, "bike_id": "0f9229eedb2566c2fd426bd816f2710a", "is_disabled": 0, "is_reserved": 0}, {"rental_uris": {"ios": "https://dc.lft.to/lastmile_qr_scan", "android": "https://dc.lft.to/lastmile_qr_scan"}, "lon": -77.019701, "type": "electric_scooter", "fusion_lat": 0.0, "lat": 38.87840933333333, "name": "f882859e6922b3aa5cd55383295a4096", "fusion_lon": 0.0, "bike_id": "f882859e6922b3aa5cd55383295a4096", "is_disabled": 0, "is_reserved": 0}, {"rental_uris": {"ios": "https://dc.lft.to/lastmile_qr_scan", "android": "https://dc.lft.to/lastmile_qr_scan"}, "lon": -77.12957566666667, "type": "electric_bike", "fusion_lat": 0.0, "lat": 38.852186833333334, "name": "769d2c5dce4428afaac3b370d884aa6a", "fusion_lon": 0.0, "bike_id": "769d2c5dce4428afaac3b370d884aa6a", "is_disabled": 0, "is_reserved": 0}, {"rental_uris": {"ios": "https://dc.lft.to/lastmile_qr_scan", "android": "https://dc.lft.to/lastmile_qr_scan"}, "lon": -77.03963416666667, "type": "electric_scooter", "fusion_lat": 0.0, "lat": 38.90716316666666, "name": "34e99bc47466294bb852d6f86dcdf720", "fusion_lon": 0.0, "bike_id": "34e99bc47466294bb852d6f86dcdf720", "is_disabled": 0, "is_reserved": 0}, {"rental_uris": {"ios": "https://dc.lft.to/lastmile_qr_scan", "android": "https://dc.lft.to/lastmile_qr_scan"}, "lon": -76.97289833333333, "type": "electric_scooter", "fusion_lat": 0.0, "lat": 38.90338533333333, "name": "8b189b429a063cfec78f4abf00515fef", "fusion_lon": 0.0, "bike_id": "8b189b429a063cfec78f4abf00515fef", "is_disabled": 0, "is_reserved": 0}, {"rental_uris": {"ios": "https://dc.lft.to/lastmile_qr_scan", "android": "https://dc.lft.to/lastmile_qr_scan"}, "lon": -76.99689066666667, "type": "electric_scooter", "fusion_lat": 0.0, "lat": 38.90083516666667, "name": "f1852d18d88951f02c0d0727b5b2fd1f", "fusion_lon": 0.0, "bike_id": "f1852d18d88951f02c0d0727b5b2fd1f", "is_disabled": 0, "is_reserved": 0}, {"rental_uris": {"ios": "https://dc.lft.to/lastmile_qr_scan", "android": "https://dc.lft.to/lastmile_qr_scan"}, "lon": -76.94755533333333, "type": "electric_scooter", "fusion_lat": 0.0, "lat": 38.900521833333336, "name": "2da8e76ac269440de349d3d8aa320d69", "fusion_lon": 0.0, "bike_id": "2da8e76ac269440de349d3d8aa320d69", "is_disabled": 0, "is_reserved": 0}, {"rental_uris": {"ios": "https://dc.lft.to/lastmile_qr_scan", "android": "https://dc.lft.to/lastmile_qr_scan"}, "lon": -77.04347666666666, "type": "electric_scooter", "fusion_lat": 0.0, "lat": 38.915923, "name": "685c0358c729ee9523e89f033c1609cf", "fusion_lon": 0.0, "bike_id": "685c0358c729ee9523e89f033c1609cf", "is_disabled": 0, "is_reserved": 0}, {"rental_uris": {"ios": "https://dc.lft.to/lastmile_qr_scan", "android": "https://dc.lft.to/lastmile_qr_scan"}, "lon": -76.98375633333333, "type": "electric_scooter", "fusion_lat": 0.0, "lat": 38.895522, "name": "e4dadc751d1e5e708c9828e18495fde0", "fusion_lon": 0.0, "bike_id": "e4dadc751d1e5e708c9828e18495fde0", "is_disabled": 0, "is_reserved": 0}, {"rental_uris": {"ios": "https://dc.lft.to/lastmile_qr_scan", "android": "https://dc.lft.to/lastmile_qr_scan"}, "lon": -77.04806766666667, "type": "electric_bike", "fusion_lat": 0.0, "lat": 38.888140666666665, "name": "814cf10cbe9276705e8046d80e7ff72b", "fusion_lon": 0.0, "bike_id": "814cf10cbe9276705e8046d80e7ff72b", "is_disabled": 0, "is_reserved": 0}, {"rental_uris": {"ios": "https://dc.lft.to/lastmile_qr_scan", "android": "https://dc.lft.to/lastmile_qr_scan"}, "lon": -77.00212133333333, "type": "electric_scooter", "fusion_lat": 0.0, "lat": 38.9003035, "name": "6341fc730988b656a7460e7e3844ac37", "fusion_lon": 0.0, "bike_id": "6341fc730988b656a7460e7e3844ac37", "is_disabled": 0, "is_reserved": 0}, {"rental_uris": {"ios": "https://dc.lft.to/lastmile_qr_scan", "android": "https://dc.lft.to/lastmile_qr_scan"}, "lon": -77.05474833333334, "type": "electric_scooter", "fusion_lat": 0.0, "lat": 38.893895, "name": "d7e39ebeb879d2accd0f21bd7f6494bd", "fusion_lon": 0.0, "bike_id": "d7e39ebeb879d2accd0f21bd7f6494bd", "is_disabled": 0, "is_reserved": 0}, {"rental_uris": {"ios": "https://dc.lft.to/lastmile_qr_scan", "android": "https://dc.lft.to/lastmile_qr_scan"}, "lon": -76.95988066666666, "type": "electric_scooter", "fusion_lat": 0.0, "lat": 38.88044466666667, "name": "7a25ea49a07e2a4c76fedf8c4d72586e", "fusion_lon": 0.0, "bike_id": "7a25ea49a07e2a4c76fedf8c4d72586e", "is_disabled": 0, "is_reserved": 0}, {"rental_uris": {"ios": "https://dc.lft.to/lastmile_qr_scan", "android": "https://dc.lft.to/lastmile_qr_scan"}, "lon": -77.0232165, "type": "electric_scooter", "fusion_lat": 0.0, "lat": 38.93059066666667, "name": "1614ee4e60fba153b8ddcdb77f4c0e24", "fusion_lon": 0.0, "bike_id": "1614ee4e60fba153b8ddcdb77f4c0e24", "is_disabled": 0, "is_reserved": 0}, {"rental_uris": {"ios": "https://dc.lft.to/lastmile_qr_scan", "android": "https://dc.lft.to/lastmile_qr_scan"}, "lon": -77.02221216666666, "type": "electric_scooter", "fusion_lat": 0.0, "lat": 38.89604833333333, "name": "1c31356af56ec771be0ec19eb57b598c", "fusion_lon": 0.0, "bike_id": "1c31356af56ec771be0ec19eb57b598c", "is_disabled": 0, "is_reserved": 0}, {"rental_uris": {"ios": "https://dc.lft.to/lastmile_qr_scan", "android": "https://dc.lft.to/lastmile_qr_scan"}, "lon": -76.95895566666667, "type": "electric_bike", "fusion_lat": 0.0, "lat": 38.985038333333335, "name": "26bc4c8e880639fdad31324f73c7c5c1", "fusion_lon": 0.0, "bike_id": "26bc4c8e880639fdad31324f73c7c5c1", "is_disabled": 0, "is_reserved": 0}, {"rental_uris": {"ios": "https://dc.lft.to/lastmile_qr_scan", "android": "https://dc.lft.to/lastmile_qr_scan"}, "lon": -77.0363825, "type": "electric_scooter", "fusion_lat": 0.0, "lat": 38.917317833333335, "name": "c651d1f6088dc3967ec02bfae51cfea6", "fusion_lon": 0.0, "bike_id": "c651d1f6088dc3967ec02bfae51cfea6", "is_disabled": 0, "is_reserved": 0}, {"rental_uris": {"ios": "https://dc.lft.to/lastmile_qr_scan", "android": "https://dc.lft.to/lastmile_qr_scan"}, "lon": -77.091592, "type": "electric_bike", "fusion_lat": 0.0, "lat": 38.96757266666667, "name": "5ad7ad9c5e6f4ef50046f206a015278a", "fusion_lon": 0.0, "bike_id": "5ad7ad9c5e6f4ef50046f206a015278a", "is_disabled": 0, "is_reserved": 0}, {"rental_uris": {"ios": "https://dc.lft.to/lastmile_qr_scan", "android": "https://dc.lft.to/lastmile_qr_scan"}, "lon": -77.0345165, "type": "electric_scooter", "fusion_lat": 0.0, "lat": 38.9097445, "name": "cadef8877392735f1601c129e1db4f61", "fusion_lon": 0.0, "bike_id": "cadef8877392735f1601c129e1db4f61", "is_disabled": 0, "is_reserved": 0}, {"rental_uris": {"ios": "https://dc.lft.to/lastmile_qr_scan", "android": "https://dc.lft.to/lastmile_qr_scan"}, "lon": -77.02349783333334, "type": "electric_scooter", "fusion_lat": 0.0, "lat": 38.883365833333336, "name": "700e7c3ed33b85835c33d0a02ee95ccd", "fusion_lon": 0.0, "bike_id": "700e7c3ed33b85835c33d0a02ee95ccd", "is_disabled": 0, "is_reserved": 0}, {"rental_uris": {"ios": "https://dc.lft.to/lastmile_qr_scan", "android": "https://dc.lft.to/lastmile_qr_scan"}, "lon": -77.012254, "type": "electric_scooter", "fusion_lat": 0.0, "lat": 38.9149895, "name": "0355792d23b40a16e6a36b606688507c", "fusion_lon": 0.0, "bike_id": "0355792d23b40a16e6a36b606688507c", "is_disabled": 0, "is_reserved": 0}, {"rental_uris": {"ios": "https://dc.lft.to/lastmile_qr_scan", "android": "https://dc.lft.to/lastmile_qr_scan"}, "lon": -76.98511983333333, "type": "electric_scooter", "fusion_lat": 0.0, "lat": 38.900874333333334, "name": "f0d86cf1aac172e7c6b51afd4569a2cc", "fusion_lon": 0.0, "bike_id": "f0d86cf1aac172e7c6b51afd4569a2cc", "is_disabled": 0, "is_reserved": 0}, {"rental_uris": {"ios": "https://dc.lft.to/lastmile_qr_scan", "android": "https://dc.lft.to/lastmile_qr_scan"}, "lon": -77.13093233333333, "type": "electric_bike", "fusion_lat": 0.0, "lat": 38.8615955, "name": "d9965124645ded223d5b12681bb2b987", "fusion_lon": 0.0, "bike_id": "d9965124645ded223d5b12681bb2b987", "is_disabled": 0, "is_reserved": 0}, {"rental_uris": {"ios": "https://dc.lft.to/lastmile_qr_scan", "android": "https://dc.lft.to/lastmile_qr_scan"}, "lon": -77.04755733333333, "type": "electric_scooter", "fusion_lat": 0.0, "lat": 38.89730466666666, "name": "bed11934b6c495f38c7270275906ed19", "fusion_lon": 0.0, "bike_id": "bed11934b6c495f38c7270275906ed19", "is_disabled": 0, "is_reserved": 0}, {"rental_uris": {"ios": "https://dc.lft.to/lastmile_qr_scan", "android": "https://dc.lft.to/lastmile_qr_scan"}, "lon": -77.03838283333333, "type": "electric_scooter", "fusion_lat": 0.0, "lat": 38.90774183333333, "name": "2a6097877639b9ae04d29f9f2c5d2f82", "fusion_lon": 0.0, "bike_id": "2a6097877639b9ae04d29f9f2c5d2f82", "is_disabled": 0, "is_reserved": 0}, {"rental_uris": {"ios": "https://dc.lft.to/lastmile_qr_scan", "android": "https://dc.lft.to/lastmile_qr_scan"}, "lon": -77.0435065, "type": "electric_scooter", "fusion_lat": 0.0, "lat": 38.91592266666667, "name": "cf8740db4b8affc54d68ed8dacdc624e", "fusion_lon": 0.0, "bike_id": "cf8740db4b8affc54d68ed8dacdc624e", "is_disabled": 0, "is_reserved": 0}, {"rental_uris": {"ios": "https://dc.lft.to/lastmile_qr_scan", "android": "https://dc.lft.to/lastmile_qr_scan"}, "lon": -77.03362916666667, "type": "electric_scooter", "fusion_lat": 0.0, "lat": 38.909751, "name": "ef97f3632d8fc213c38e619b1adc4d11", "fusion_lon": 0.0, "bike_id": "ef97f3632d8fc213c38e619b1adc4d11", "is_disabled": 0, "is_reserved": 0}, {"rental_uris": {"ios": "https://dc.lft.to/lastmile_qr_scan", "android": "https://dc.lft.to/lastmile_qr_scan"}, "lon": -77.02272666666667, "type": "electric_scooter", "fusion_lat": 0.0, "lat": 38.878305833333336, "name": "f432bee1787a65d7ec7973eef48fbea5", "fusion_lon": 0.0, "bike_id": "f432bee1787a65d7ec7973eef48fbea5", "is_disabled": 0, "is_reserved": 0}, {"rental_uris": {"ios": "https://dc.lft.to/lastmile_qr_scan", "android": "https://dc.lft.to/lastmile_qr_scan"}, "lon": -77.03649783333333, "type": "electric_scooter", "fusion_lat": 0.0, "lat": 38.95503883333333, "name": "cafd88637c26b4aa9f9d06195ddd15f9", "fusion_lon": 0.0, "bike_id": "cafd88637c26b4aa9f9d06195ddd15f9", "is_disabled": 0, "is_reserved": 0}, {"rental_uris": {"ios": "https://dc.lft.to/lastmile_qr_scan", "android": "https://dc.lft.to/lastmile_qr_scan"}, "lon": -77.02969016666667, "type": "electric_scooter", "fusion_lat": 0.0, "lat": 38.90502883333333, "name": "7c02d52feb398674c1795a1919545092", "fusion_lon": 0.0, "bike_id": "7c02d52feb398674c1795a1919545092", "is_disabled": 0, "is_reserved": 0}, {"rental_uris": {"ios": "https://dc.lft.to/lastmile_qr_scan", "android": "https://dc.lft.to/lastmile_qr_scan"}, "lon": -77.008064, "type": "electric_scooter", "fusion_lat": 0.0, "lat": 38.91402933333333, "name": "da2692fbd343bc5a142455ac177cfc30", "fusion_lon": 0.0, "bike_id": "da2692fbd343bc5a142455ac177cfc30", "is_disabled": 0, "is_reserved": 0}, {"rental_uris": {"ios": "https://dc.lft.to/lastmile_qr_scan", "android": "https://dc.lft.to/lastmile_qr_scan"}, "lon": -77.0384995, "type": "electric_bike", "fusion_lat": 0.0, "lat": 38.912054166666664, "name": "0f1fc1bde9cdcf2d0b7638d6783e5e28", "fusion_lon": 0.0, "bike_id": "0f1fc1bde9cdcf2d0b7638d6783e5e28", "is_disabled": 0, "is_reserved": 0}, {"rental_uris": {"ios": "https://dc.lft.to/lastmile_qr_scan", "android": "https://dc.lft.to/lastmile_qr_scan"}, "lon": -77.02217166666667, "type": "electric_scooter", "fusion_lat": 0.0, "lat": 38.905686333333335, "name": "8b292a1b34b7bac4be5337a7f7db2d64", "fusion_lon": 0.0, "bike_id": "8b292a1b34b7bac4be5337a7f7db2d64", "is_disabled": 0, "is_reserved": 0}, {"rental_uris": {"ios": "https://dc.lft.to/lastmile_qr_scan", "android": "https://dc.lft.to/lastmile_qr_scan"}, "lon": -77.02582216666667, "type": "electric_scooter", "fusion_lat": 0.0, "lat": 38.880703833333335, "name": "331c33bb0e4f636c74d6b96a3d587319", "fusion_lon": 0.0, "bike_id": "331c33bb0e4f636c74d6b96a3d587319", "is_disabled": 0, "is_reserved": 0}, {"rental_uris": {"ios": "https://dc.lft.to/lastmile_qr_scan", "android": "https://dc.lft.to/lastmile_qr_scan"}, "lon": -77.02376016666666, "type": "electric_scooter", "fusion_lat": 0.0, "lat": 38.93690266666667, "name": "c94ada33d90a7f0402a7a6166bacd00f", "fusion_lon": 0.0, "bike_id": "c94ada33d90a7f0402a7a6166bacd00f", "is_disabled": 0, "is_reserved": 0}, {"rental_uris": {"ios": "https://dc.lft.to/lastmile_qr_scan", "android": "https://dc.lft.to/lastmile_qr_scan"}, "lon": -77.110517, "type": "electric_bike", "fusion_lat": 0.0, "lat": 38.87075566666667, "name": "f16b32ae803df2d3a60ab9522e82242b", "fusion_lon": 0.0, "bike_id": "f16b32ae803df2d3a60ab9522e82242b", "is_disabled": 0, "is_reserved": 0}, {"rental_uris": {"ios": "https://dc.lft.to/lastmile_qr_scan", "android": "https://dc.lft.to/lastmile_qr_scan"}, "lon": -76.9802435, "type": "electric_scooter", "fusion_lat": 0.0, "lat": 38.88765933333333, "name": "569414043096680ffc928abd721e567a", "fusion_lon": 0.0, "bike_id": "569414043096680ffc928abd721e567a", "is_disabled": 0, "is_reserved": 0}, {"rental_uris": {"ios": "https://dc.lft.to/lastmile_qr_scan", "android": "https://dc.lft.to/lastmile_qr_scan"}, "lon": -77.040416, "type": "electric_scooter", "fusion_lat": 0.0, "lat": 38.92466233333333, "name": "40ea56dcbfc0c372553cd299a8af12fd", "fusion_lon": 0.0, "bike_id": "40ea56dcbfc0c372553cd299a8af12fd", "is_disabled": 0, "is_reserved": 0}, {"rental_uris": {"ios": "https://dc.lft.to/lastmile_qr_scan", "android": "https://dc.lft.to/lastmile_qr_scan"}, "lon": -77.07016433333334, "type": "electric_bike", "fusion_lat": 0.0, "lat": 38.918695166666666, "name": "b0058b51becbb23a869f316c5370a811", "fusion_lon": 0.0, "bike_id": "b0058b51becbb23a869f316c5370a811", "is_disabled": 0, "is_reserved": 0}, {"rental_uris": {"ios": "https://dc.lft.to/lastmile_qr_scan", "android": "https://dc.lft.to/lastmile_qr_scan"}, "lon": -77.04726033333333, "type": "electric_scooter", "fusion_lat": 0.0, "lat": 38.89739266666667, "name": "cbf7b8f4eb14057767c318f8b7c8b566", "fusion_lon": 0.0, "bike_id": "cbf7b8f4eb14057767c318f8b7c8b566", "is_disabled": 0, "is_reserved": 0}, {"rental_uris": {"ios": "https://dc.lft.to/lastmile_qr_scan", "android": "https://dc.lft.to/lastmile_qr_scan"}, "lon": -77.03318866666666, "type": "electric_scooter", "fusion_lat": 0.0, "lat": 38.9264645, "name": "aacbbbd490c11e09388f8382656e3d06", "fusion_lon": 0.0, "bike_id": "aacbbbd490c11e09388f8382656e3d06", "is_disabled": 0, "is_reserved": 0}, {"rental_uris": {"ios": "https://dc.lft.to/lastmile_qr_scan", "android": "https://dc.lft.to/lastmile_qr_scan"}, "lon": -77.029688, "type": "electric_scooter", "fusion_lat": 0.0, "lat": 38.910603, "name": "6cc23da37569c6a8c0775e56fdaaa2aa", "fusion_lon": 0.0, "bike_id": "6cc23da37569c6a8c0775e56fdaaa2aa", "is_disabled": 0, "is_reserved": 0}, {"rental_uris": {"ios": "https://dc.lft.to/lastmile_qr_scan", "android": "https://dc.lft.to/lastmile_qr_scan"}, "lon": -76.98710366666667, "type": "electric_scooter", "fusion_lat": 0.0, "lat": 38.86699733333333, "name": "c88e404bcb92486a16d6fc12145965a9", "fusion_lon": 0.0, "bike_id": "c88e404bcb92486a16d6fc12145965a9", "is_disabled": 0, "is_reserved": 0}, {"rental_uris": {"ios": "https://dc.lft.to/lastmile_qr_scan", "android": "https://dc.lft.to/lastmile_qr_scan"}, "lon": -77.00514966666667, "type": "electric_scooter", "fusion_lat": 0.0, "lat": 38.89674266666667, "name": "137438c0d1b6268f992b25eb53e5a4ff", "fusion_lon": 0.0, "bike_id": "137438c0d1b6268f992b25eb53e5a4ff", "is_disabled": 0, "is_reserved": 0}, {"rental_uris": {"ios": "https://dc.lft.to/lastmile_qr_scan", "android": "https://dc.lft.to/lastmile_qr_scan"}, "lon": -77.03738183333333, "type": "electric_scooter", "fusion_lat": 0.0, "lat": 38.91704166666667, "name": "c070bf1673251a4d60631892876b83ed", "fusion_lon": 0.0, "bike_id": "c070bf1673251a4d60631892876b83ed", "is_disabled": 0, "is_reserved": 0}, {"rental_uris": {"ios": "https://dc.lft.to/lastmile_qr_scan", "android": "https://dc.lft.to/lastmile_qr_scan"}, "lon": -76.99827666666667, "type": "electric_scooter", "fusion_lat": 0.0, "lat": 38.92333083333333, "name": "1f7bd9c90ce97525530fd245c8b8f97b", "fusion_lon": 0.0, "bike_id": "1f7bd9c90ce97525530fd245c8b8f97b", "is_disabled": 0, "is_reserved": 0}, {"rental_uris": {"ios": "https://dc.lft.to/lastmile_qr_scan", "android": "https://dc.lft.to/lastmile_qr_scan"}, "lon": -76.97272183333334, "type": "electric_bike", "fusion_lat": 0.0, "lat": 38.919686166666665, "name": "066a792d6f86e48ab94b0c79d4c13d11", "fusion_lon": 0.0, "bike_id": "066a792d6f86e48ab94b0c79d4c13d11", "is_disabled": 0, "is_reserved": 0}, {"rental_uris": {"ios": "https://dc.lft.to/lastmile_qr_scan", "android": "https://dc.lft.to/lastmile_qr_scan"}, "lon": -77.04253416666667, "type": "electric_scooter", "fusion_lat": 0.0, "lat": 38.915944, "name": "cd83345294d4a83c86d60a8f9c9eb772", "fusion_lon": 0.0, "bike_id": "cd83345294d4a83c86d60a8f9c9eb772", "is_disabled": 0, "is_reserved": 0}, {"rental_uris": {"ios": "https://dc.lft.to/lastmile_qr_scan", "android": "https://dc.lft.to/lastmile_qr_scan"}, "lon": -77.0371625, "type": "electric_scooter", "fusion_lat": 0.0, "lat": 38.905715666666666, "name": "d500d5e63484becf19fdabe4ac91b2ec", "fusion_lon": 0.0, "bike_id": "d500d5e63484becf19fdabe4ac91b2ec", "is_disabled": 0, "is_reserved": 0}, {"rental_uris": {"ios": "https://dc.lft.to/lastmile_qr_scan", "android": "https://dc.lft.to/lastmile_qr_scan"}, "lon": -77.0588035, "type": "electric_scooter", "fusion_lat": 0.0, "lat": 38.936346, "name": "b95f7a0cac81571ddaea68832b698756", "fusion_lon": 0.0, "bike_id": "b95f7a0cac81571ddaea68832b698756", "is_disabled": 0, "is_reserved": 0}, {"rental_uris": {"ios": "https://dc.lft.to/lastmile_qr_scan", "android": "https://dc.lft.to/lastmile_qr_scan"}, "lon": -77.02161283333334, "type": "electric_scooter", "fusion_lat": 0.0, "lat": 38.92610583333333, "name": "07f85fe8c613b504c75c39c9da417315", "fusion_lon": 0.0, "bike_id": "07f85fe8c613b504c75c39c9da417315", "is_disabled": 0, "is_reserved": 0}, {"rental_uris": {"ios": "https://dc.lft.to/lastmile_qr_scan", "android": "https://dc.lft.to/lastmile_qr_scan"}, "lon": -77.0222075, "type": "electric_scooter", "fusion_lat": 0.0, "lat": 38.938668, "name": "1b2d0ccd3255f347a75f26dbffdbfcb6", "fusion_lon": 0.0, "bike_id": "1b2d0ccd3255f347a75f26dbffdbfcb6", "is_disabled": 0, "is_reserved": 0}, {"rental_uris": {"ios": "https://dc.lft.to/lastmile_qr_scan", "android": "https://dc.lft.to/lastmile_qr_scan"}, "lon": -77.03476333333333, "type": "electric_scooter", "fusion_lat": 0.0, "lat": 38.920570166666664, "name": "02f93e134070e281e75e911a43ef3bbe", "fusion_lon": 0.0, "bike_id": "02f93e134070e281e75e911a43ef3bbe", "is_disabled": 0, "is_reserved": 0}, {"rental_uris": {"ios": "https://dc.lft.to/lastmile_qr_scan", "android": "https://dc.lft.to/lastmile_qr_scan"}, "lon": -76.986151, "type": "electric_scooter", "fusion_lat": 0.0, "lat": 38.86823966666667, "name": "7bfda060a2f6c0f64857ec174ced3b07", "fusion_lon": 0.0, "bike_id": "7bfda060a2f6c0f64857ec174ced3b07", "is_disabled": 0, "is_reserved": 0}, {"rental_uris": {"ios": "https://dc.lft.to/lastmile_qr_scan", "android": "https://dc.lft.to/lastmile_qr_scan"}, "lon": -77.0450565, "type": "electric_scooter", "fusion_lat": 0.0, "lat": 38.91194616666667, "name": "2a9a741aab02e332262b49e82e4f990f", "fusion_lon": 0.0, "bike_id": "2a9a741aab02e332262b49e82e4f990f", "is_disabled": 0, "is_reserved": 0}, {"rental_uris": {"ios": "https://dc.lft.to/lastmile_qr_scan", "android": "https://dc.lft.to/lastmile_qr_scan"}, "lon": -77.03098966666667, "type": "electric_scooter", "fusion_lat": 0.0, "lat": 38.914106, "name": "7e6344a6fc743fa7cce09bf7e33a4d66", "fusion_lon": 0.0, "bike_id": "7e6344a6fc743fa7cce09bf7e33a4d66", "is_disabled": 0, "is_reserved": 0}, {"rental_uris": {"ios": "https://dc.lft.to/lastmile_qr_scan", "android": "https://dc.lft.to/lastmile_qr_scan"}, "lon": -77.02601433333334, "type": "electric_scooter", "fusion_lat": 0.0, "lat": 38.90211333333333, "name": "6a20784c6a90826373f53b3f222901d6", "fusion_lon": 0.0, "bike_id": "6a20784c6a90826373f53b3f222901d6", "is_disabled": 0, "is_reserved": 0}, {"rental_uris": {"ios": "https://dc.lft.to/lastmile_qr_scan", "android": "https://dc.lft.to/lastmile_qr_scan"}, "lon": -76.95411566666667, "type": "electric_scooter", "fusion_lat": 0.0, "lat": 38.8899185, "name": "bc548fcc1a39c49db6032e1835875322", "fusion_lon": 0.0, "bike_id": "bc548fcc1a39c49db6032e1835875322", "is_disabled": 0, "is_reserved": 0}, {"rental_uris": {"ios": "https://dc.lft.to/lastmile_qr_scan", "android": "https://dc.lft.to/lastmile_qr_scan"}, "lon": -77.04872, "type": "electric_scooter", "fusion_lat": 0.0, "lat": 38.90065716666667, "name": "b7e08ce4072ea991409710d60a8c2bec", "fusion_lon": 0.0, "bike_id": "b7e08ce4072ea991409710d60a8c2bec", "is_disabled": 0, "is_reserved": 0}, {"rental_uris": {"ios": "https://dc.lft.to/lastmile_qr_scan", "android": "https://dc.lft.to/lastmile_qr_scan"}, "lon": -77.10711366666666, "type": "electric_bike", "fusion_lat": 0.0, "lat": 38.85546383333333, "name": "d4aaf3d2e18b79e81b6e2b98c9218718", "fusion_lon": 0.0, "bike_id": "d4aaf3d2e18b79e81b6e2b98c9218718", "is_disabled": 0, "is_reserved": 0}, {"rental_uris": {"ios": "https://dc.lft.to/lastmile_qr_scan", "android": "https://dc.lft.to/lastmile_qr_scan"}, "lon": -77.02125366666667, "type": "electric_scooter", "fusion_lat": 0.0, "lat": 38.897447666666665, "name": "338f371b326bfd1a9d0f127601a1954a", "fusion_lon": 0.0, "bike_id": "338f371b326bfd1a9d0f127601a1954a", "is_disabled": 0, "is_reserved": 0}, {"rental_uris": {"ios": "https://dc.lft.to/lastmile_qr_scan", "android": "https://dc.lft.to/lastmile_qr_scan"}, "lon": -77.070916, "type": "electric_scooter", "fusion_lat": 0.0, "lat": 38.899081333333335, "name": "bb66a41c12be64b9ac2069b8aa0f52ec", "fusion_lon": 0.0, "bike_id": "bb66a41c12be64b9ac2069b8aa0f52ec", "is_disabled": 0, "is_reserved": 0}, {"rental_uris": {"ios": "https://dc.lft.to/lastmile_qr_scan", "android": "https://dc.lft.to/lastmile_qr_scan"}, "lon": -76.94871016666667, "type": "electric_scooter", "fusion_lat": 0.0, "lat": 38.8947945, "name": "284805117831b2eb8c4a357235d2f695", "fusion_lon": 0.0, "bike_id": "284805117831b2eb8c4a357235d2f695", "is_disabled": 0, "is_reserved": 0}, {"rental_uris": {"ios": "https://dc.lft.to/lastmile_qr_scan", "android": "https://dc.lft.to/lastmile_qr_scan"}, "lon": -77.07595466666666, "type": "electric_scooter", "fusion_lat": 0.0, "lat": 38.912132666666665, "name": "1c7bf99b0103c60cc42c94d6c4143dde", "fusion_lon": 0.0, "bike_id": "1c7bf99b0103c60cc42c94d6c4143dde", "is_disabled": 0, "is_reserved": 0}, {"rental_uris": {"ios": "https://dc.lft.to/lastmile_qr_scan", "android": "https://dc.lft.to/lastmile_qr_scan"}, "lon": -77.03355216666667, "type": "electric_bike", "fusion_lat": 0.0, "lat": 38.9289265, "name": "f2429aee06cec6e8426441740d5ebb05", "fusion_lon": 0.0, "bike_id": "f2429aee06cec6e8426441740d5ebb05", "is_disabled": 0, "is_reserved": 0}, {"rental_uris": {"ios": "https://dc.lft.to/lastmile_qr_scan", "android": "https://dc.lft.to/lastmile_qr_scan"}, "lon": -77.03001816666666, "type": "electric_scooter", "fusion_lat": 0.0, "lat": 38.92480466666667, "name": "7da6612d230cc553b71aa827d54810fb", "fusion_lon": 0.0, "bike_id": "7da6612d230cc553b71aa827d54810fb", "is_disabled": 0, "is_reserved": 0}, {"rental_uris": {"ios": "https://dc.lft.to/lastmile_qr_scan", "android": "https://dc.lft.to/lastmile_qr_scan"}, "lon": -77.12743533333334, "type": "electric_bike", "fusion_lat": 0.0, "lat": 38.888176, "name": "c1242400a5bd2c7050ff4358797a72db", "fusion_lon": 0.0, "bike_id": "c1242400a5bd2c7050ff4358797a72db", "is_disabled": 0, "is_reserved": 0}, {"rental_uris": {"ios": "https://dc.lft.to/lastmile_qr_scan", "android": "https://dc.lft.to/lastmile_qr_scan"}, "lon": -77.02605066666666, "type": "electric_scooter", "fusion_lat": 0.0, "lat": 38.91692616666667, "name": "62db0073907e5d5d94ed5a5447189793", "fusion_lon": 0.0, "bike_id": "62db0073907e5d5d94ed5a5447189793", "is_disabled": 0, "is_reserved": 0}, {"rental_uris": {"ios": "https://dc.lft.to/lastmile_qr_scan", "android": "https://dc.lft.to/lastmile_qr_scan"}, "lon": -77.032625, "type": "electric_scooter", "fusion_lat": 0.0, "lat": 38.91119583333333, "name": "f0ea0aec552a061c7de8c6b92ba6b412", "fusion_lon": 0.0, "bike_id": "f0ea0aec552a061c7de8c6b92ba6b412", "is_disabled": 0, "is_reserved": 0}, {"rental_uris": {"ios": "https://dc.lft.to/lastmile_qr_scan", "android": "https://dc.lft.to/lastmile_qr_scan"}, "lon": -76.93794966666667, "type": "electric_scooter", "fusion_lat": 0.0, "lat": 38.912842833333336, "name": "34d129a2ce897c88672e582f74a127fb", "fusion_lon": 0.0, "bike_id": "34d129a2ce897c88672e582f74a127fb", "is_disabled": 0, "is_reserved": 0}, {"rental_uris": {"ios": "https://dc.lft.to/lastmile_qr_scan", "android": "https://dc.lft.to/lastmile_qr_scan"}, "lon": -76.9788865, "type": "electric_scooter", "fusion_lat": 0.0, "lat": 38.916734166666664, "name": "e62cb3440843d5739c5a0deda6766e8f", "fusion_lon": 0.0, "bike_id": "e62cb3440843d5739c5a0deda6766e8f", "is_disabled": 0, "is_reserved": 0}, {"rental_uris": {"ios": "https://dc.lft.to/lastmile_qr_scan", "android": "https://dc.lft.to/lastmile_qr_scan"}, "lon": -76.98775216666667, "type": "electric_scooter", "fusion_lat": 0.0, "lat": 38.91171166666667, "name": "ed949f814fa3761a9b4905407bb27fc7", "fusion_lon": 0.0, "bike_id": "ed949f814fa3761a9b4905407bb27fc7", "is_disabled": 0, "is_reserved": 0}, {"rental_uris": {"ios": "https://dc.lft.to/lastmile_qr_scan", "android": "https://dc.lft.to/lastmile_qr_scan"}, "lon": -77.00852483333334, "type": "electric_scooter", "fusion_lat": 0.0, "lat": 38.925962, "name": "febf04fd000665ae3ed43f698a304201", "fusion_lon": 0.0, "bike_id": "febf04fd000665ae3ed43f698a304201", "is_disabled": 0, "is_reserved": 0}, {"rental_uris": {"ios": "https://dc.lft.to/lastmile_qr_scan", "android": "https://dc.lft.to/lastmile_qr_scan"}, "lon": -76.99544166666666, "type": "electric_scooter", "fusion_lat": 0.0, "lat": 38.926665, "name": "8ccdae2173e4a2793593ff6b54f2ccdd", "fusion_lon": 0.0, "bike_id": "8ccdae2173e4a2793593ff6b54f2ccdd", "is_disabled": 0, "is_reserved": 0}, {"rental_uris": {"ios": "https://dc.lft.to/lastmile_qr_scan", "android": "https://dc.lft.to/lastmile_qr_scan"}, "lon": -77.08362, "type": "electric_scooter", "fusion_lat": 0.0, "lat": 38.93031633333333, "name": "c81ae9ccf9a4ebbb7b42734b0fed1d12", "fusion_lon": 0.0, "bike_id": "c81ae9ccf9a4ebbb7b42734b0fed1d12", "is_disabled": 0, "is_reserved": 0}, {"rental_uris": {"ios": "https://dc.lft.to/lastmile_qr_scan", "android": "https://dc.lft.to/lastmile_qr_scan"}, "lon": -77.0514265, "type": "electric_scooter", "fusion_lat": 0.0, "lat": 38.902313166666666, "name": "cf61cce2a44f95260e61765d9f859b77", "fusion_lon": 0.0, "bike_id": "cf61cce2a44f95260e61765d9f859b77", "is_disabled": 0, "is_reserved": 0}, {"rental_uris": {"ios": "https://dc.lft.to/lastmile_qr_scan", "android": "https://dc.lft.to/lastmile_qr_scan"}, "lon": -77.03925, "type": "electric_scooter", "fusion_lat": 0.0, "lat": 38.899593, "name": "54a987256adeb7c3831e8d37c7d30a5f", "fusion_lon": 0.0, "bike_id": "54a987256adeb7c3831e8d37c7d30a5f", "is_disabled": 0, "is_reserved": 0}, {"rental_uris": {"ios": "https://dc.lft.to/lastmile_qr_scan", "android": "https://dc.lft.to/lastmile_qr_scan"}, "lon": -77.01762133333334, "type": "electric_scooter", "fusion_lat": 0.0, "lat": 38.93897333333334, "name": "a9da3927e7d1d1789b7b3e4ceb6185b2", "fusion_lon": 0.0, "bike_id": "a9da3927e7d1d1789b7b3e4ceb6185b2", "is_disabled": 0, "is_reserved": 0}, {"rental_uris": {"ios": "https://dc.lft.to/lastmile_qr_scan", "android": "https://dc.lft.to/lastmile_qr_scan"}, "lon": -77.05141916666666, "type": "electric_scooter", "fusion_lat": 0.0, "lat": 38.897483666666666, "name": "49fd25f368abde84c44acbad81914287", "fusion_lon": 0.0, "bike_id": "49fd25f368abde84c44acbad81914287", "is_disabled": 0, "is_reserved": 0}, {"rental_uris": {"ios": "https://dc.lft.to/lastmile_qr_scan", "android": "https://dc.lft.to/lastmile_qr_scan"}, "lon": -77.03358, "type": "electric_scooter", "fusion_lat": 0.0, "lat": 38.92862266666667, "name": "edb66f35f5f0f793a899928c566458b7", "fusion_lon": 0.0, "bike_id": "edb66f35f5f0f793a899928c566458b7", "is_disabled": 0, "is_reserved": 0}, {"rental_uris": {"ios": "https://dc.lft.to/lastmile_qr_scan", "android": "https://dc.lft.to/lastmile_qr_scan"}, "lon": -77.056805, "type": "electric_scooter", "fusion_lat": 0.0, "lat": 38.9370045, "name": "fdd1b67d407c76afb14e30282afba550", "fusion_lon": 0.0, "bike_id": "fdd1b67d407c76afb14e30282afba550", "is_disabled": 0, "is_reserved": 0}, {"rental_uris": {"ios": "https://dc.lft.to/lastmile_qr_scan", "android": "https://dc.lft.to/lastmile_qr_scan"}, "lon": -77.0010335, "type": "electric_scooter", "fusion_lat": 0.0, "lat": 38.87324183333333, "name": "b54765bd4639659d29ff5c8eb222aa63", "fusion_lon": 0.0, "bike_id": "b54765bd4639659d29ff5c8eb222aa63", "is_disabled": 0, "is_reserved": 0}, {"rental_uris": {"ios": "https://dc.lft.to/lastmile_qr_scan", "android": "https://dc.lft.to/lastmile_qr_scan"}, "lon": -77.00405766666667, "type": "electric_scooter", "fusion_lat": 0.0, "lat": 38.917466, "name": "9f4545e628d885ffead45a38f82435c9", "fusion_lon": 0.0, "bike_id": "9f4545e628d885ffead45a38f82435c9", "is_disabled": 0, "is_reserved": 0}, {"rental_uris": {"ios": "https://dc.lft.to/lastmile_qr_scan", "android": "https://dc.lft.to/lastmile_qr_scan"}, "lon": -77.048076, "type": "electric_scooter", "fusion_lat": 0.0, "lat": 38.897304, "name": "c28abd81e67b593fa28c79b48d2e046c", "fusion_lon": 0.0, "bike_id": "c28abd81e67b593fa28c79b48d2e046c", "is_disabled": 0, "is_reserved": 0}, {"rental_uris": {"ios": "https://dc.lft.to/lastmile_qr_scan", "android": "https://dc.lft.to/lastmile_qr_scan"}, "lon": -77.05803233333333, "type": "electric_scooter", "fusion_lat": 0.0, "lat": 38.9029655, "name": "5707061743c241741d81a93fa9fcd6b3", "fusion_lon": 0.0, "bike_id": "5707061743c241741d81a93fa9fcd6b3", "is_disabled": 0, "is_reserved": 0}, {"rental_uris": {"ios": "https://dc.lft.to/lastmile_qr_scan", "android": "https://dc.lft.to/lastmile_qr_scan"}, "lon": -76.93542166666667, "type": "electric_bike", "fusion_lat": 0.0, "lat": 38.951842166666665, "name": "58207155351b14b0cb13bdfc8a724b52", "fusion_lon": 0.0, "bike_id": "58207155351b14b0cb13bdfc8a724b52", "is_disabled": 0, "is_reserved": 0}, {"rental_uris": {"ios": "https://dc.lft.to/lastmile_qr_scan", "android": "https://dc.lft.to/lastmile_qr_scan"}, "lon": -76.97329266666667, "type": "electric_scooter", "fusion_lat": 0.0, "lat": 38.904796, "name": "9e5403517eb2494e828bdceef611a40f", "fusion_lon": 0.0, "bike_id": "9e5403517eb2494e828bdceef611a40f", "is_disabled": 0, "is_reserved": 0}, {"rental_uris": {"ios": "https://dc.lft.to/lastmile_qr_scan", "android": "https://dc.lft.to/lastmile_qr_scan"}, "lon": -77.0768285, "type": "electric_bike", "fusion_lat": 0.0, "lat": 38.83190183333333, "name": "612f0b6a83004400d17d5cae8ad96770", "fusion_lon": 0.0, "bike_id": "612f0b6a83004400d17d5cae8ad96770", "is_disabled": 0, "is_reserved": 0}, {"rental_uris": {"ios": "https://dc.lft.to/lastmile_qr_scan", "android": "https://dc.lft.to/lastmile_qr_scan"}, "lon": -77.0437855, "type": "electric_scooter", "fusion_lat": 0.0, "lat": 38.9206875, "name": "db6e1d051905185b4659edb88b0d6070", "fusion_lon": 0.0, "bike_id": "db6e1d051905185b4659edb88b0d6070", "is_disabled": 0, "is_reserved": 0}, {"rental_uris": {"ios": "https://dc.lft.to/lastmile_qr_scan", "android": "https://dc.lft.to/lastmile_qr_scan"}, "lon": -77.021896, "type": "electric_scooter", "fusion_lat": 0.0, "lat": 38.915056166666666, "name": "711aa1e7df1cfddc84a7f4550fc1985f", "fusion_lon": 0.0, "bike_id": "711aa1e7df1cfddc84a7f4550fc1985f", "is_disabled": 0, "is_reserved": 0}, {"rental_uris": {"ios": "https://dc.lft.to/lastmile_qr_scan", "android": "https://dc.lft.to/lastmile_qr_scan"}, "lon": -77.043863, "type": "electric_scooter", "fusion_lat": 0.0, "lat": 38.916516666666666, "name": "b856a51a2926f65f5896e74148f7fd55", "fusion_lon": 0.0, "bike_id": "b856a51a2926f65f5896e74148f7fd55", "is_disabled": 0, "is_reserved": 0}, {"rental_uris": {"ios": "https://dc.lft.to/lastmile_qr_scan", "android": "https://dc.lft.to/lastmile_qr_scan"}, "lon": -77.0322705, "type": "electric_scooter", "fusion_lat": 0.0, "lat": 38.9257435, "name": "541f78c808e8aa1c15c20aeb8e64103a", "fusion_lon": 0.0, "bike_id": "541f78c808e8aa1c15c20aeb8e64103a", "is_disabled": 0, "is_reserved": 0}, {"rental_uris": {"ios": "https://dc.lft.to/lastmile_qr_scan", "android": "https://dc.lft.to/lastmile_qr_scan"}, "lon": -77.03727216666667, "type": "electric_scooter", "fusion_lat": 0.0, "lat": 38.933532166666666, "name": "4a8a87408b254391185448a942106d3a", "fusion_lon": 0.0, "bike_id": "4a8a87408b254391185448a942106d3a", "is_disabled": 0, "is_reserved": 0}, {"rental_uris": {"ios": "https://dc.lft.to/lastmile_qr_scan", "android": "https://dc.lft.to/lastmile_qr_scan"}, "lon": -76.97814633333333, "type": "electric_scooter", "fusion_lat": 0.0, "lat": 38.906734, "name": "24fe397c0a5cd88e6f3c69cb7430d9fd", "fusion_lon": 0.0, "bike_id": "24fe397c0a5cd88e6f3c69cb7430d9fd", "is_disabled": 0, "is_reserved": 0}, {"rental_uris": {"ios": "https://dc.lft.to/lastmile_qr_scan", "android": "https://dc.lft.to/lastmile_qr_scan"}, "lon": -77.02411616666667, "type": "electric_scooter", "fusion_lat": 0.0, "lat": 38.892196166666665, "name": "c46af15f212f7710758b05e53a6e5862", "fusion_lon": 0.0, "bike_id": "c46af15f212f7710758b05e53a6e5862", "is_disabled": 0, "is_reserved": 0}, {"rental_uris": {"ios": "https://dc.lft.to/lastmile_qr_scan", "android": "https://dc.lft.to/lastmile_qr_scan"}, "lon": -77.02176333333334, "type": "electric_scooter", "fusion_lat": 0.0, "lat": 38.894361, "name": "f82da00d6d55a370ba3e9045c45f2ca6", "fusion_lon": 0.0, "bike_id": "f82da00d6d55a370ba3e9045c45f2ca6", "is_disabled": 0, "is_reserved": 0}, {"rental_uris": {"ios": "https://dc.lft.to/lastmile_qr_scan", "android": "https://dc.lft.to/lastmile_qr_scan"}, "lon": -77.05147483333333, "type": "electric_scooter", "fusion_lat": 0.0, "lat": 38.902310666666665, "name": "5f3be5fb09591c1206e14101b9280b22", "fusion_lon": 0.0, "bike_id": "5f3be5fb09591c1206e14101b9280b22", "is_disabled": 0, "is_reserved": 0}, {"rental_uris": {"ios": "https://dc.lft.to/lastmile_qr_scan", "android": "https://dc.lft.to/lastmile_qr_scan"}, "lon": -77.1121175, "type": "electric_bike", "fusion_lat": 0.0, "lat": 38.813063666666665, "name": "daf7c50c2c1e9fc0d08f5bb4ebe766a1", "fusion_lon": 0.0, "bike_id": "daf7c50c2c1e9fc0d08f5bb4ebe766a1", "is_disabled": 0, "is_reserved": 0}, {"rental_uris": {"ios": "https://dc.lft.to/lastmile_qr_scan", "android": "https://dc.lft.to/lastmile_qr_scan"}, "lon": -77.0384115, "type": "electric_scooter", "fusion_lat": 0.0, "lat": 38.915552166666664, "name": "a257741d48a7730a00b9b4ec406ab33d", "fusion_lon": 0.0, "bike_id": "a257741d48a7730a00b9b4ec406ab33d", "is_disabled": 0, "is_reserved": 0}, {"rental_uris": {"ios": "https://dc.lft.to/lastmile_qr_scan", "android": "https://dc.lft.to/lastmile_qr_scan"}, "lon": -77.1226105, "type": "electric_bike", "fusion_lat": 0.0, "lat": 38.891854333333335, "name": "001dd8f23cd7948b8235047c824efd68", "fusion_lon": 0.0, "bike_id": "001dd8f23cd7948b8235047c824efd68", "is_disabled": 0, "is_reserved": 0}, {"rental_uris": {"ios": "https://dc.lft.to/lastmile_qr_scan", "android": "https://dc.lft.to/lastmile_qr_scan"}, "lon": -76.935105, "type": "electric_bike", "fusion_lat": 0.0, "lat": 38.955405666666664, "name": "f18e5653a9c45666977363cdc15a92b3", "fusion_lon": 0.0, "bike_id": "f18e5653a9c45666977363cdc15a92b3", "is_disabled": 0, "is_reserved": 0}, {"rental_uris": {"ios": "https://dc.lft.to/lastmile_qr_scan", "android": "https://dc.lft.to/lastmile_qr_scan"}, "lon": -77.04511733333334, "type": "electric_scooter", "fusion_lat": 0.0, "lat": 38.915750833333334, "name": "08dbf762c55e540830b950c5b16a2303", "fusion_lon": 0.0, "bike_id": "08dbf762c55e540830b950c5b16a2303", "is_disabled": 0, "is_reserved": 0}, {"rental_uris": {"ios": "https://dc.lft.to/lastmile_qr_scan", "android": "https://dc.lft.to/lastmile_qr_scan"}, "lon": -77.02105066666667, "type": "electric_scooter", "fusion_lat": 0.0, "lat": 38.879216666666665, "name": "99cbf69f592dcb459ff4541eafae711e", "fusion_lon": 0.0, "bike_id": "99cbf69f592dcb459ff4541eafae711e", "is_disabled": 0, "is_reserved": 0}, {"rental_uris": {"ios": "https://dc.lft.to/lastmile_qr_scan", "android": "https://dc.lft.to/lastmile_qr_scan"}, "lon": -76.93173333333333, "type": "electric_scooter", "fusion_lat": 0.0, "lat": 38.8988335, "name": "d2d75e6fbeb3236cafeb844fbe9360f8", "fusion_lon": 0.0, "bike_id": "d2d75e6fbeb3236cafeb844fbe9360f8", "is_disabled": 0, "is_reserved": 0}, {"rental_uris": {"ios": "https://dc.lft.to/lastmile_qr_scan", "android": "https://dc.lft.to/lastmile_qr_scan"}, "lon": -76.97503866666666, "type": "electric_scooter", "fusion_lat": 0.0, "lat": 38.86918883333333, "name": "d1f286821b1eca686004cc85072ee7f2", "fusion_lon": 0.0, "bike_id": "d1f286821b1eca686004cc85072ee7f2", "is_disabled": 0, "is_reserved": 0}, {"rental_uris": {"ios": "https://dc.lft.to/lastmile_qr_scan", "android": "https://dc.lft.to/lastmile_qr_scan"}, "lon": -77.07253366666667, "type": "electric_scooter", "fusion_lat": 0.0, "lat": 38.933196333333335, "name": "4f68d31ebc149f72df3b3927d993e468", "fusion_lon": 0.0, "bike_id": "4f68d31ebc149f72df3b3927d993e468", "is_disabled": 0, "is_reserved": 0}, {"rental_uris": {"ios": "https://dc.lft.to/lastmile_qr_scan", "android": "https://dc.lft.to/lastmile_qr_scan"}, "lon": -77.059008, "type": "electric_scooter", "fusion_lat": 0.0, "lat": 38.90217766666667, "name": "32ffc0ec15594b9e2686313c84dd3b24", "fusion_lon": 0.0, "bike_id": "32ffc0ec15594b9e2686313c84dd3b24", "is_disabled": 0, "is_reserved": 0}, {"rental_uris": {"ios": "https://dc.lft.to/lastmile_qr_scan", "android": "https://dc.lft.to/lastmile_qr_scan"}, "lon": -77.02071283333333, "type": "electric_scooter", "fusion_lat": 0.0, "lat": 38.91550216666667, "name": "b96274d3883db1691a9947d5eb7b6db5", "fusion_lon": 0.0, "bike_id": "b96274d3883db1691a9947d5eb7b6db5", "is_disabled": 0, "is_reserved": 0}, {"rental_uris": {"ios": "https://dc.lft.to/lastmile_qr_scan", "android": "https://dc.lft.to/lastmile_qr_scan"}, "lon": -77.02194283333333, "type": "electric_scooter", "fusion_lat": 0.0, "lat": 38.898762833333336, "name": "590e728abeaee42ef47043e195d83a76", "fusion_lon": 0.0, "bike_id": "590e728abeaee42ef47043e195d83a76", "is_disabled": 0, "is_reserved": 0}, {"rental_uris": {"ios": "https://dc.lft.to/lastmile_qr_scan", "android": "https://dc.lft.to/lastmile_qr_scan"}, "lon": -76.99506983333333, "type": "electric_scooter", "fusion_lat": 0.0, "lat": 38.899557333333334, "name": "ab1771964bac2fe52f54844702cd85d6", "fusion_lon": 0.0, "bike_id": "ab1771964bac2fe52f54844702cd85d6", "is_disabled": 0, "is_reserved": 0}, {"rental_uris": {"ios": "https://dc.lft.to/lastmile_qr_scan", "android": "https://dc.lft.to/lastmile_qr_scan"}, "lon": -77.03774516666667, "type": "electric_scooter", "fusion_lat": 0.0, "lat": 38.915541833333336, "name": "9944434dbeed2b8ee577b1fe4165fdd2", "fusion_lon": 0.0, "bike_id": "9944434dbeed2b8ee577b1fe4165fdd2", "is_disabled": 0, "is_reserved": 0}, {"rental_uris": {"ios": "https://dc.lft.to/lastmile_qr_scan", "android": "https://dc.lft.to/lastmile_qr_scan"}, "lon": -77.0254825, "type": "electric_scooter", "fusion_lat": 0.0, "lat": 38.88639716666667, "name": "ca1639c141c8061f5ff8a4bd6ab6ce4a", "fusion_lon": 0.0, "bike_id": "ca1639c141c8061f5ff8a4bd6ab6ce4a", "is_disabled": 0, "is_reserved": 0}, {"rental_uris": {"ios": "https://dc.lft.to/lastmile_qr_scan", "android": "https://dc.lft.to/lastmile_qr_scan"}, "lon": -77.02454783333333, "type": "electric_scooter", "fusion_lat": 0.0, "lat": 38.92400083333333, "name": "7936eafd81714cd28c501b760508262c", "fusion_lon": 0.0, "bike_id": "7936eafd81714cd28c501b760508262c", "is_disabled": 0, "is_reserved": 0}, {"rental_uris": {"ios": "https://dc.lft.to/lastmile_qr_scan", "android": "https://dc.lft.to/lastmile_qr_scan"}, "lon": -77.00676333333334, "type": "electric_scooter", "fusion_lat": 0.0, "lat": 38.90001216666667, "name": "9cb69dbd0b30e2967f6615a7d44eb22e", "fusion_lon": 0.0, "bike_id": "9cb69dbd0b30e2967f6615a7d44eb22e", "is_disabled": 0, "is_reserved": 0}, {"rental_uris": {"ios": "https://dc.lft.to/lastmile_qr_scan", "android": "https://dc.lft.to/lastmile_qr_scan"}, "lon": -76.99747666666667, "type": "electric_scooter", "fusion_lat": 0.0, "lat": 38.90010383333333, "name": "c9f92e8eab80d071bc9dd0ce8f7b33fd", "fusion_lon": 0.0, "bike_id": "c9f92e8eab80d071bc9dd0ce8f7b33fd", "is_disabled": 0, "is_reserved": 0}, {"rental_uris": {"ios": "https://dc.lft.to/lastmile_qr_scan", "android": "https://dc.lft.to/lastmile_qr_scan"}, "lon": -77.02166, "type": "electric_scooter", "fusion_lat": 0.0, "lat": 38.942917, "name": "3acfc4605f35eac45571b4f12450a68e", "fusion_lon": 0.0, "bike_id": "3acfc4605f35eac45571b4f12450a68e", "is_disabled": 0, "is_reserved": 0}, {"rental_uris": {"ios": "https://dc.lft.to/lastmile_qr_scan", "android": "https://dc.lft.to/lastmile_qr_scan"}, "lon": -76.96088016666667, "type": "electric_scooter", "fusion_lat": 0.0, "lat": 38.8742155, "name": "a9f0ae559f8b13aba89af0246cbd8636", "fusion_lon": 0.0, "bike_id": "a9f0ae559f8b13aba89af0246cbd8636", "is_disabled": 0, "is_reserved": 0}, {"rental_uris": {"ios": "https://dc.lft.to/lastmile_qr_scan", "android": "https://dc.lft.to/lastmile_qr_scan"}, "lon": -77.03316316666667, "type": "electric_scooter", "fusion_lat": 0.0, "lat": 38.898755, "name": "19548ad68864d8fe82c51427c2bb787f", "fusion_lon": 0.0, "bike_id": "19548ad68864d8fe82c51427c2bb787f", "is_disabled": 0, "is_reserved": 0}, {"rental_uris": {"ios": "https://dc.lft.to/lastmile_qr_scan", "android": "https://dc.lft.to/lastmile_qr_scan"}, "lon": -76.98972333333333, "type": "electric_scooter", "fusion_lat": 0.0, "lat": 38.859224833333336, "name": "c90730205a0d5d8b901e6a4be093b421", "fusion_lon": 0.0, "bike_id": "c90730205a0d5d8b901e6a4be093b421", "is_disabled": 0, "is_reserved": 0}, {"rental_uris": {"ios": "https://dc.lft.to/lastmile_qr_scan", "android": "https://dc.lft.to/lastmile_qr_scan"}, "lon": -77.03814033333333, "type": "electric_scooter", "fusion_lat": 0.0, "lat": 38.93393, "name": "410f2e30a59a14417db7fbbc0c13bbf5", "fusion_lon": 0.0, "bike_id": "410f2e30a59a14417db7fbbc0c13bbf5", "is_disabled": 0, "is_reserved": 0}, {"rental_uris": {"ios": "https://dc.lft.to/lastmile_qr_scan", "android": "https://dc.lft.to/lastmile_qr_scan"}, "lon": -77.0362695, "type": "electric_bike", "fusion_lat": 0.0, "lat": 38.956053, "name": "b9b5ebaa0ca37221c48071cc23c1969d", "fusion_lon": 0.0, "bike_id": "b9b5ebaa0ca37221c48071cc23c1969d", "is_disabled": 0, "is_reserved": 0}, {"rental_uris": {"ios": "https://dc.lft.to/lastmile_qr_scan", "android": "https://dc.lft.to/lastmile_qr_scan"}, "lon": -77.02531983333333, "type": "electric_scooter", "fusion_lat": 0.0, "lat": 38.94304183333333, "name": "2ba98efb3eaf5fadd40d7d32ca7f442a", "fusion_lon": 0.0, "bike_id": "2ba98efb3eaf5fadd40d7d32ca7f442a", "is_disabled": 0, "is_reserved": 0}, {"rental_uris": {"ios": "https://dc.lft.to/lastmile_qr_scan", "android": "https://dc.lft.to/lastmile_qr_scan"}, "lon": -76.95000616666667, "type": "electric_scooter", "fusion_lat": 0.0, "lat": 38.89372383333333, "name": "9d657f80dbc8a119e9390bb2862938a0", "fusion_lon": 0.0, "bike_id": "9d657f80dbc8a119e9390bb2862938a0", "is_disabled": 0, "is_reserved": 0}, {"rental_uris": {"ios": "https://dc.lft.to/lastmile_qr_scan", "android": "https://dc.lft.to/lastmile_qr_scan"}, "lon": -77.0489405, "type": "electric_scooter", "fusion_lat": 0.0, "lat": 38.89663016666667, "name": "fb1dbbafee3fe3be299a210759174e26", "fusion_lon": 0.0, "bike_id": "fb1dbbafee3fe3be299a210759174e26", "is_disabled": 0, "is_reserved": 0}, {"rental_uris": {"ios": "https://dc.lft.to/lastmile_qr_scan", "android": "https://dc.lft.to/lastmile_qr_scan"}, "lon": -77.0353675, "type": "electric_scooter", "fusion_lat": 0.0, "lat": 38.92620983333333, "name": "77fdd65b76f0d71f0bf8a1043305fa7d", "fusion_lon": 0.0, "bike_id": "77fdd65b76f0d71f0bf8a1043305fa7d", "is_disabled": 0, "is_reserved": 0}, {"rental_uris": {"ios": "https://dc.lft.to/lastmile_qr_scan", "android": "https://dc.lft.to/lastmile_qr_scan"}, "lon": -77.03145383333333, "type": "electric_scooter", "fusion_lat": 0.0, "lat": 38.906382, "name": "412e7bb1b50f8f69e0d1e3791828e0c0", "fusion_lon": 0.0, "bike_id": "412e7bb1b50f8f69e0d1e3791828e0c0", "is_disabled": 0, "is_reserved": 0}, {"rental_uris": {"ios": "https://dc.lft.to/lastmile_qr_scan", "android": "https://dc.lft.to/lastmile_qr_scan"}, "lon": -77.033202, "type": "electric_scooter", "fusion_lat": 0.0, "lat": 38.90005583333333, "name": "129c1184cae0b2c7dbae25e5fc9eb4bf", "fusion_lon": 0.0, "bike_id": "129c1184cae0b2c7dbae25e5fc9eb4bf", "is_disabled": 0, "is_reserved": 0}, {"rental_uris": {"ios": "https://dc.lft.to/lastmile_qr_scan", "android": "https://dc.lft.to/lastmile_qr_scan"}, "lon": -77.023848, "type": "electric_scooter", "fusion_lat": 0.0, "lat": 38.92504816666667, "name": "b7c066ba5fa494fe4ba485809437ae39", "fusion_lon": 0.0, "bike_id": "b7c066ba5fa494fe4ba485809437ae39", "is_disabled": 0, "is_reserved": 0}, {"rental_uris": {"ios": "https://dc.lft.to/lastmile_qr_scan", "android": "https://dc.lft.to/lastmile_qr_scan"}, "lon": -76.97703733333333, "type": "electric_scooter", "fusion_lat": 0.0, "lat": 38.897053, "name": "e0b214c2c23ae35d73dbbba2270f720b", "fusion_lon": 0.0, "bike_id": "e0b214c2c23ae35d73dbbba2270f720b", "is_disabled": 0, "is_reserved": 0}, {"rental_uris": {"ios": "https://dc.lft.to/lastmile_qr_scan", "android": "https://dc.lft.to/lastmile_qr_scan"}, "lon": -77.03562166666667, "type": "electric_scooter", "fusion_lat": 0.0, "lat": 38.91808133333333, "name": "47f97e980ffcb115fd4e0ccc5e8b8a98", "fusion_lon": 0.0, "bike_id": "47f97e980ffcb115fd4e0ccc5e8b8a98", "is_disabled": 0, "is_reserved": 0}, {"rental_uris": {"ios": "https://dc.lft.to/lastmile_qr_scan", "android": "https://dc.lft.to/lastmile_qr_scan"}, "lon": -77.042559, "type": "electric_scooter", "fusion_lat": 0.0, "lat": 38.92251, "name": "f2cdbde39c57e9402f93bd779e2f5456", "fusion_lon": 0.0, "bike_id": "f2cdbde39c57e9402f93bd779e2f5456", "is_disabled": 0, "is_reserved": 0}, {"rental_uris": {"ios": "https://dc.lft.to/lastmile_qr_scan", "android": "https://dc.lft.to/lastmile_qr_scan"}, "lon": -77.041397, "type": "electric_scooter", "fusion_lat": 0.0, "lat": 38.899983166666665, "name": "755b40f4910884836118836152f6b0d0", "fusion_lon": 0.0, "bike_id": "755b40f4910884836118836152f6b0d0", "is_disabled": 0, "is_reserved": 0}, {"rental_uris": {"ios": "https://dc.lft.to/lastmile_qr_scan", "android": "https://dc.lft.to/lastmile_qr_scan"}, "lon": -77.0167555, "type": "electric_scooter", "fusion_lat": 0.0, "lat": 38.90052433333334, "name": "747133cd6c456fd4835c85666bf94dfb", "fusion_lon": 0.0, "bike_id": "747133cd6c456fd4835c85666bf94dfb", "is_disabled": 0, "is_reserved": 0}, {"rental_uris": {"ios": "https://dc.lft.to/lastmile_qr_scan", "android": "https://dc.lft.to/lastmile_qr_scan"}, "lon": -77.09623683333334, "type": "electric_bike", "fusion_lat": 0.0, "lat": 38.845694333333334, "name": "93efcea69f688ffda2e6b7131b457074", "fusion_lon": 0.0, "bike_id": "93efcea69f688ffda2e6b7131b457074", "is_disabled": 0, "is_reserved": 0}, {"rental_uris": {"ios": "https://dc.lft.to/lastmile_qr_scan", "android": "https://dc.lft.to/lastmile_qr_scan"}, "lon": -77.03815566666667, "type": "electric_scooter", "fusion_lat": 0.0, "lat": 38.93110466666667, "name": "ed50e17761601d98db4b6e457f5c918f", "fusion_lon": 0.0, "bike_id": "ed50e17761601d98db4b6e457f5c918f", "is_disabled": 0, "is_reserved": 0}, {"rental_uris": {"ios": "https://dc.lft.to/lastmile_qr_scan", "android": "https://dc.lft.to/lastmile_qr_scan"}, "lon": -77.02737533333334, "type": "electric_scooter", "fusion_lat": 0.0, "lat": 38.89613033333333, "name": "a8e9d3b59b18891d9d67b32065b3a823", "fusion_lon": 0.0, "bike_id": "a8e9d3b59b18891d9d67b32065b3a823", "is_disabled": 0, "is_reserved": 0}, {"rental_uris": {"ios": "https://dc.lft.to/lastmile_qr_scan", "android": "https://dc.lft.to/lastmile_qr_scan"}, "lon": -77.03580616666666, "type": "electric_scooter", "fusion_lat": 0.0, "lat": 38.93391183333333, "name": "3c5a9ac20371b5a0e08d0798ef919086", "fusion_lon": 0.0, "bike_id": "3c5a9ac20371b5a0e08d0798ef919086", "is_disabled": 0, "is_reserved": 0}, {"rental_uris": {"ios": "https://dc.lft.to/lastmile_qr_scan", "android": "https://dc.lft.to/lastmile_qr_scan"}, "lon": -77.04618633333334, "type": "electric_bike", "fusion_lat": 0.0, "lat": 38.99907833333333, "name": "978e12e0a8afb52e913bf5b01027611b", "fusion_lon": 0.0, "bike_id": "978e12e0a8afb52e913bf5b01027611b", "is_disabled": 0, "is_reserved": 0}, {"rental_uris": {"ios": "https://dc.lft.to/lastmile_qr_scan", "android": "https://dc.lft.to/lastmile_qr_scan"}, "lon": -77.06468216666667, "type": "electric_bike", "fusion_lat": 0.0, "lat": 38.973795833333334, "name": "989ea4e41e6179a95a1e38ef429dccc2", "fusion_lon": 0.0, "bike_id": "989ea4e41e6179a95a1e38ef429dccc2", "is_disabled": 0, "is_reserved": 0}, {"rental_uris": {"ios": "https://dc.lft.to/lastmile_qr_scan", "android": "https://dc.lft.to/lastmile_qr_scan"}, "lon": -77.03839766666667, "type": "electric_scooter", "fusion_lat": 0.0, "lat": 38.907734, "name": "406cd5c7771e87122c83ad18729c80ce", "fusion_lon": 0.0, "bike_id": "406cd5c7771e87122c83ad18729c80ce", "is_disabled": 0, "is_reserved": 0}, {"rental_uris": {"ios": "https://dc.lft.to/lastmile_qr_scan", "android": "https://dc.lft.to/lastmile_qr_scan"}, "lon": -76.97488933333334, "type": "electric_bike", "fusion_lat": 0.0, "lat": 38.920054666666665, "name": "4e565ea6ba7515b7e30c8e54a37c9bf8", "fusion_lon": 0.0, "bike_id": "4e565ea6ba7515b7e30c8e54a37c9bf8", "is_disabled": 0, "is_reserved": 0}, {"rental_uris": {"ios": "https://dc.lft.to/lastmile_qr_scan", "android": "https://dc.lft.to/lastmile_qr_scan"}, "lon": -77.032252, "type": "electric_scooter", "fusion_lat": 0.0, "lat": 38.92670016666667, "name": "4a66a81bd907808017729b2b1b15d93b", "fusion_lon": 0.0, "bike_id": "4a66a81bd907808017729b2b1b15d93b", "is_disabled": 0, "is_reserved": 0}, {"rental_uris": {"ios": "https://dc.lft.to/lastmile_qr_scan", "android": "https://dc.lft.to/lastmile_qr_scan"}, "lon": -77.0486665, "type": "electric_scooter", "fusion_lat": 0.0, "lat": 38.90847816666667, "name": "1049afffeba2f1d1b21179567da35d03", "fusion_lon": 0.0, "bike_id": "1049afffeba2f1d1b21179567da35d03", "is_disabled": 0, "is_reserved": 0}, {"rental_uris": {"ios": "https://dc.lft.to/lastmile_qr_scan", "android": "https://dc.lft.to/lastmile_qr_scan"}, "lon": -77.06088833333334, "type": "electric_scooter", "fusion_lat": 0.0, "lat": 38.91268683333333, "name": "087a25aa1b8ceae1fe9e5009e77a5c7b", "fusion_lon": 0.0, "bike_id": "087a25aa1b8ceae1fe9e5009e77a5c7b", "is_disabled": 0, "is_reserved": 0}, {"rental_uris": {"ios": "https://dc.lft.to/lastmile_qr_scan", "android": "https://dc.lft.to/lastmile_qr_scan"}, "lon": -77.04171116666667, "type": "electric_scooter", "fusion_lat": 0.0, "lat": 38.919017333333336, "name": "e5112d94a84883c69cd5d44717f3c4a7", "fusion_lon": 0.0, "bike_id": "e5112d94a84883c69cd5d44717f3c4a7", "is_disabled": 0, "is_reserved": 0}, {"rental_uris": {"ios": "https://dc.lft.to/lastmile_qr_scan", "android": "https://dc.lft.to/lastmile_qr_scan"}, "lon": -77.0344275, "type": "electric_scooter", "fusion_lat": 0.0, "lat": 38.90967166666667, "name": "adced80f9a813dfcf9b8f0c99703075d", "fusion_lon": 0.0, "bike_id": "adced80f9a813dfcf9b8f0c99703075d", "is_disabled": 0, "is_reserved": 0}, {"rental_uris": {"ios": "https://dc.lft.to/lastmile_qr_scan", "android": "https://dc.lft.to/lastmile_qr_scan"}, "lon": -77.00888933333333, "type": "electric_scooter", "fusion_lat": 0.0, "lat": 38.91417966666667, "name": "800798a799f7349d2fb0069b6b7cfd35", "fusion_lon": 0.0, "bike_id": "800798a799f7349d2fb0069b6b7cfd35", "is_disabled": 0, "is_reserved": 0}, {"rental_uris": {"ios": "https://dc.lft.to/lastmile_qr_scan", "android": "https://dc.lft.to/lastmile_qr_scan"}, "lon": -77.02339416666666, "type": "electric_scooter", "fusion_lat": 0.0, "lat": 38.925127, "name": "14bd9ed406b6c7306af9d6ba92a028b3", "fusion_lon": 0.0, "bike_id": "14bd9ed406b6c7306af9d6ba92a028b3", "is_disabled": 0, "is_reserved": 0}, {"rental_uris": {"ios": "https://dc.lft.to/lastmile_qr_scan", "android": "https://dc.lft.to/lastmile_qr_scan"}, "lon": -76.93737283333333, "type": "electric_scooter", "fusion_lat": 0.0, "lat": 38.89016183333333, "name": "593d9e2dc14d2fdf832746970596fbc3", "fusion_lon": 0.0, "bike_id": "593d9e2dc14d2fdf832746970596fbc3", "is_disabled": 0, "is_reserved": 0}, {"rental_uris": {"ios": "https://dc.lft.to/lastmile_qr_scan", "android": "https://dc.lft.to/lastmile_qr_scan"}, "lon": -77.034576, "type": "electric_scooter", "fusion_lat": 0.0, "lat": 38.90945516666667, "name": "35f55aca499fec7bb3621ec810cff7c6", "fusion_lon": 0.0, "bike_id": "35f55aca499fec7bb3621ec810cff7c6", "is_disabled": 0, "is_reserved": 0}, {"rental_uris": {"ios": "https://dc.lft.to/lastmile_qr_scan", "android": "https://dc.lft.to/lastmile_qr_scan"}, "lon": -77.03526166666667, "type": "electric_scooter", "fusion_lat": 0.0, "lat": 38.935944666666664, "name": "7b6dc62ec304578a1d88b6a280c7d3a7", "fusion_lon": 0.0, "bike_id": "7b6dc62ec304578a1d88b6a280c7d3a7", "is_disabled": 0, "is_reserved": 0}, {"rental_uris": {"ios": "https://dc.lft.to/lastmile_qr_scan", "android": "https://dc.lft.to/lastmile_qr_scan"}, "lon": -76.97410433333333, "type": "electric_scooter", "fusion_lat": 0.0, "lat": 38.901542166666665, "name": "8f46c0bdb4e64cd6014a1c34834a4182", "fusion_lon": 0.0, "bike_id": "8f46c0bdb4e64cd6014a1c34834a4182", "is_disabled": 0, "is_reserved": 0}, {"rental_uris": {"ios": "https://dc.lft.to/lastmile_qr_scan", "android": "https://dc.lft.to/lastmile_qr_scan"}, "lon": -76.93717366666667, "type": "electric_scooter", "fusion_lat": 0.0, "lat": 38.8959255, "name": "631148ed20ea8b82428bcf8fc80ad494", "fusion_lon": 0.0, "bike_id": "631148ed20ea8b82428bcf8fc80ad494", "is_disabled": 0, "is_reserved": 0}, {"rental_uris": {"ios": "https://dc.lft.to/lastmile_qr_scan", "android": "https://dc.lft.to/lastmile_qr_scan"}, "lon": -77.04112, "type": "electric_scooter", "fusion_lat": 0.0, "lat": 38.924482833333336, "name": "970eddd08b7fa63f4d09899c8f2cb7ee", "fusion_lon": 0.0, "bike_id": "970eddd08b7fa63f4d09899c8f2cb7ee", "is_disabled": 0, "is_reserved": 0}, {"rental_uris": {"ios": "https://dc.lft.to/lastmile_qr_scan", "android": "https://dc.lft.to/lastmile_qr_scan"}, "lon": -77.00918533333333, "type": "electric_scooter", "fusion_lat": 0.0, "lat": 38.89611133333333, "name": "00332630f8dbaa2d8ed294bf14aab2cb", "fusion_lon": 0.0, "bike_id": "00332630f8dbaa2d8ed294bf14aab2cb", "is_disabled": 0, "is_reserved": 0}, {"rental_uris": {"ios": "https://dc.lft.to/lastmile_qr_scan", "android": "https://dc.lft.to/lastmile_qr_scan"}, "lon": -77.005472, "type": "electric_bike", "fusion_lat": 0.0, "lat": 38.87921733333334, "name": "bbae02729e78e2793fc954904fdd5b5f", "fusion_lon": 0.0, "bike_id": "bbae02729e78e2793fc954904fdd5b5f", "is_disabled": 0, "is_reserved": 0}, {"rental_uris": {"ios": "https://dc.lft.to/lastmile_qr_scan", "android": "https://dc.lft.to/lastmile_qr_scan"}, "lon": -77.02020216666666, "type": "electric_scooter", "fusion_lat": 0.0, "lat": 38.9155355, "name": "aca2f49b62ce8aafaf477a77f24033dd", "fusion_lon": 0.0, "bike_id": "aca2f49b62ce8aafaf477a77f24033dd", "is_disabled": 0, "is_reserved": 0}, {"rental_uris": {"ios": "https://dc.lft.to/lastmile_qr_scan", "android": "https://dc.lft.to/lastmile_qr_scan"}, "lon": -77.02601033333333, "type": "electric_scooter", "fusion_lat": 0.0, "lat": 38.8968255, "name": "2b241b0fe908d70f17748e34e617911e", "fusion_lon": 0.0, "bike_id": "2b241b0fe908d70f17748e34e617911e", "is_disabled": 0, "is_reserved": 0}, {"rental_uris": {"ios": "https://dc.lft.to/lastmile_qr_scan", "android": "https://dc.lft.to/lastmile_qr_scan"}, "lon": -77.02540316666666, "type": "electric_scooter", "fusion_lat": 0.0, "lat": 38.934994333333336, "name": "4c46193655e9a9a4142888c616c35f3d", "fusion_lon": 0.0, "bike_id": "4c46193655e9a9a4142888c616c35f3d", "is_disabled": 0, "is_reserved": 0}, {"rental_uris": {"ios": "https://dc.lft.to/lastmile_qr_scan", "android": "https://dc.lft.to/lastmile_qr_scan"}, "lon": -77.03764166666667, "type": "electric_scooter", "fusion_lat": 0.0, "lat": 38.91704133333333, "name": "e6db027e14f984a78db5b7a1a2dfccaa", "fusion_lon": 0.0, "bike_id": "e6db027e14f984a78db5b7a1a2dfccaa", "is_disabled": 0, "is_reserved": 0}, {"rental_uris": {"ios": "https://dc.lft.to/lastmile_qr_scan", "android": "https://dc.lft.to/lastmile_qr_scan"}, "lon": -77.0418665, "type": "electric_scooter", "fusion_lat": 0.0, "lat": 38.92045483333333, "name": "178de92e6b1f364bc02e72858dbdd42e", "fusion_lon": 0.0, "bike_id": "178de92e6b1f364bc02e72858dbdd42e", "is_disabled": 0, "is_reserved": 0}, {"rental_uris": {"ios": "https://dc.lft.to/lastmile_qr_scan", "android": "https://dc.lft.to/lastmile_qr_scan"}, "lon": -77.04872733333333, "type": "electric_scooter", "fusion_lat": 0.0, "lat": 38.900613666666665, "name": "b24db80c61a65249693838d5031c55cd", "fusion_lon": 0.0, "bike_id": "b24db80c61a65249693838d5031c55cd", "is_disabled": 0, "is_reserved": 0}, {"rental_uris": {"ios": "https://dc.lft.to/lastmile_qr_scan", "android": "https://dc.lft.to/lastmile_qr_scan"}, "lon": -76.965045, "type": "electric_scooter", "fusion_lat": 0.0, "lat": 38.876479333333336, "name": "5c73d67307b743be248e963dcd91bd30", "fusion_lon": 0.0, "bike_id": "5c73d67307b743be248e963dcd91bd30", "is_disabled": 0, "is_reserved": 0}, {"rental_uris": {"ios": "https://dc.lft.to/lastmile_qr_scan", "android": "https://dc.lft.to/lastmile_qr_scan"}, "lon": -77.0363445, "type": "electric_scooter", "fusion_lat": 0.0, "lat": 38.9264995, "name": "fce1821bbf6106fa2f3d801df2804b76", "fusion_lon": 0.0, "bike_id": "fce1821bbf6106fa2f3d801df2804b76", "is_disabled": 0, "is_reserved": 0}, {"rental_uris": {"ios": "https://dc.lft.to/lastmile_qr_scan", "android": "https://dc.lft.to/lastmile_qr_scan"}, "lon": -77.00424883333334, "type": "electric_scooter", "fusion_lat": 0.0, "lat": 38.90389783333333, "name": "106bb91bdd0da57dd8198850d85839fa", "fusion_lon": 0.0, "bike_id": "106bb91bdd0da57dd8198850d85839fa", "is_disabled": 0, "is_reserved": 0}, {"rental_uris": {"ios": "https://dc.lft.to/lastmile_qr_scan", "android": "https://dc.lft.to/lastmile_qr_scan"}, "lon": -77.0468765, "type": "electric_scooter", "fusion_lat": 0.0, "lat": 38.89604283333333, "name": "a11cf0f066e3e0923f4c42d09627ea87", "fusion_lon": 0.0, "bike_id": "a11cf0f066e3e0923f4c42d09627ea87", "is_disabled": 0, "is_reserved": 0}, {"rental_uris": {"ios": "https://dc.lft.to/lastmile_qr_scan", "android": "https://dc.lft.to/lastmile_qr_scan"}, "lon": -77.03914866666666, "type": "electric_scooter", "fusion_lat": 0.0, "lat": 38.8998215, "name": "0a6bd9f26ee44742b7554c85f69f0fae", "fusion_lon": 0.0, "bike_id": "0a6bd9f26ee44742b7554c85f69f0fae", "is_disabled": 0, "is_reserved": 0}, {"rental_uris": {"ios": "https://dc.lft.to/lastmile_qr_scan", "android": "https://dc.lft.to/lastmile_qr_scan"}, "lon": -76.99484816666667, "type": "electric_scooter", "fusion_lat": 0.0, "lat": 38.86215466666667, "name": "48cfb5f7e3b8231a077100f0cd1cf768", "fusion_lon": 0.0, "bike_id": "48cfb5f7e3b8231a077100f0cd1cf768", "is_disabled": 0, "is_reserved": 0}, {"rental_uris": {"ios": "https://dc.lft.to/lastmile_qr_scan", "android": "https://dc.lft.to/lastmile_qr_scan"}, "lon": -77.023024, "type": "electric_scooter", "fusion_lat": 0.0, "lat": 38.92882566666667, "name": "560eb77bb5e69556da12ed275facc28d", "fusion_lon": 0.0, "bike_id": "560eb77bb5e69556da12ed275facc28d", "is_disabled": 0, "is_reserved": 0}, {"rental_uris": {"ios": "https://dc.lft.to/lastmile_qr_scan", "android": "https://dc.lft.to/lastmile_qr_scan"}, "lon": -77.03353383333334, "type": "electric_bike", "fusion_lat": 0.0, "lat": 38.968069166666666, "name": "6f235b1258b6589be8556b3359ccc528", "fusion_lon": 0.0, "bike_id": "6f235b1258b6589be8556b3359ccc528", "is_disabled": 0, "is_reserved": 0}, {"rental_uris": {"ios": "https://dc.lft.to/lastmile_qr_scan", "android": "https://dc.lft.to/lastmile_qr_scan"}, "lon": -77.02715383333333, "type": "electric_scooter", "fusion_lat": 0.0, "lat": 38.924820833333335, "name": "c34f40993308667cb4911dc188b2d93b", "fusion_lon": 0.0, "bike_id": "c34f40993308667cb4911dc188b2d93b", "is_disabled": 0, "is_reserved": 0}, {"rental_uris": {"ios": "https://dc.lft.to/lastmile_qr_scan", "android": "https://dc.lft.to/lastmile_qr_scan"}, "lon": -77.04495133333333, "type": "electric_scooter", "fusion_lat": 0.0, "lat": 38.912242166666665, "name": "ecb13c15fb59b1e57f6c676a6e927350", "fusion_lon": 0.0, "bike_id": "ecb13c15fb59b1e57f6c676a6e927350", "is_disabled": 0, "is_reserved": 0}, {"rental_uris": {"ios": "https://dc.lft.to/lastmile_qr_scan", "android": "https://dc.lft.to/lastmile_qr_scan"}, "lon": -77.0059005, "type": "electric_bike", "fusion_lat": 0.0, "lat": 38.9039885, "name": "0a30a38306ef2ec6837cd4fb39b31446", "fusion_lon": 0.0, "bike_id": "0a30a38306ef2ec6837cd4fb39b31446", "is_disabled": 0, "is_reserved": 0}, {"rental_uris": {"ios": "https://dc.lft.to/lastmile_qr_scan", "android": "https://dc.lft.to/lastmile_qr_scan"}, "lon": -77.0313235, "type": "electric_scooter", "fusion_lat": 0.0, "lat": 38.89985683333333, "name": "a36f8a4a45bd77c1b4ec6ec5317fcc40", "fusion_lon": 0.0, "bike_id": "a36f8a4a45bd77c1b4ec6ec5317fcc40", "is_disabled": 0, "is_reserved": 0}, {"rental_uris": {"ios": "https://dc.lft.to/lastmile_qr_scan", "android": "https://dc.lft.to/lastmile_qr_scan"}, "lon": -77.03130983333334, "type": "electric_scooter", "fusion_lat": 0.0, "lat": 38.9134, "name": "dd9ee098fdbb15dc48fe849ad02ee587", "fusion_lon": 0.0, "bike_id": "dd9ee098fdbb15dc48fe849ad02ee587", "is_disabled": 0, "is_reserved": 0}, {"rental_uris": {"ios": "https://dc.lft.to/lastmile_qr_scan", "android": "https://dc.lft.to/lastmile_qr_scan"}, "lon": -77.02894133333334, "type": "electric_scooter", "fusion_lat": 0.0, "lat": 38.925667833333335, "name": "b54798bac813586f0368d7b2421d0658", "fusion_lon": 0.0, "bike_id": "b54798bac813586f0368d7b2421d0658", "is_disabled": 0, "is_reserved": 0}, {"rental_uris": {"ios": "https://dc.lft.to/lastmile_qr_scan", "android": "https://dc.lft.to/lastmile_qr_scan"}, "lon": -77.05882983333333, "type": "electric_scooter", "fusion_lat": 0.0, "lat": 38.93635916666667, "name": "370a0b345923dea137bd3c5bfe257302", "fusion_lon": 0.0, "bike_id": "370a0b345923dea137bd3c5bfe257302", "is_disabled": 0, "is_reserved": 0}, {"rental_uris": {"ios": "https://dc.lft.to/lastmile_qr_scan", "android": "https://dc.lft.to/lastmile_qr_scan"}, "lon": -77.04021433333334, "type": "electric_scooter", "fusion_lat": 0.0, "lat": 38.91839133333333, "name": "8e2042d6a05582ca9fc431b8b029a2f4", "fusion_lon": 0.0, "bike_id": "8e2042d6a05582ca9fc431b8b029a2f4", "is_disabled": 0, "is_reserved": 0}, {"rental_uris": {"ios": "https://dc.lft.to/lastmile_qr_scan", "android": "https://dc.lft.to/lastmile_qr_scan"}, "lon": -77.02975, "type": "electric_scooter", "fusion_lat": 0.0, "lat": 38.8971455, "name": "150ec7856a8fce330bb8b545398d9fc5", "fusion_lon": 0.0, "bike_id": "150ec7856a8fce330bb8b545398d9fc5", "is_disabled": 0, "is_reserved": 0}, {"rental_uris": {"ios": "https://dc.lft.to/lastmile_qr_scan", "android": "https://dc.lft.to/lastmile_qr_scan"}, "lon": -77.026823, "type": "electric_scooter", "fusion_lat": 0.0, "lat": 38.903509666666665, "name": "b1615dc6a2ff08aaeedea931139fa2c2", "fusion_lon": 0.0, "bike_id": "b1615dc6a2ff08aaeedea931139fa2c2", "is_disabled": 0, "is_reserved": 0}, {"rental_uris": {"ios": "https://dc.lft.to/lastmile_qr_scan", "android": "https://dc.lft.to/lastmile_qr_scan"}, "lon": -77.02406283333333, "type": "electric_scooter", "fusion_lat": 0.0, "lat": 38.930888, "name": "9ade7c937eae94a0df3b219b8ab6a7ac", "fusion_lon": 0.0, "bike_id": "9ade7c937eae94a0df3b219b8ab6a7ac", "is_disabled": 0, "is_reserved": 0}, {"rental_uris": {"ios": "https://dc.lft.to/lastmile_qr_scan", "android": "https://dc.lft.to/lastmile_qr_scan"}, "lon": -77.04686283333334, "type": "electric_scooter", "fusion_lat": 0.0, "lat": 38.892219, "name": "495c63182b8c945e15081c789e48839e", "fusion_lon": 0.0, "bike_id": "495c63182b8c945e15081c789e48839e", "is_disabled": 0, "is_reserved": 0}, {"rental_uris": {"ios": "https://dc.lft.to/lastmile_qr_scan", "android": "https://dc.lft.to/lastmile_qr_scan"}, "lon": -77.03131883333333, "type": "electric_scooter", "fusion_lat": 0.0, "lat": 38.91691566666667, "name": "f9972ea799c90ce5cbe0edacf2d49022", "fusion_lon": 0.0, "bike_id": "f9972ea799c90ce5cbe0edacf2d49022", "is_disabled": 0, "is_reserved": 0}, {"rental_uris": {"ios": "https://dc.lft.to/lastmile_qr_scan", "android": "https://dc.lft.to/lastmile_qr_scan"}, "lon": -77.04833233333333, "type": "electric_scooter", "fusion_lat": 0.0, "lat": 38.9203985, "name": "f1617532531295755623cf052c96fedb", "fusion_lon": 0.0, "bike_id": "f1617532531295755623cf052c96fedb", "is_disabled": 0, "is_reserved": 0}, {"rental_uris": {"ios": "https://dc.lft.to/lastmile_qr_scan", "android": "https://dc.lft.to/lastmile_qr_scan"}, "lon": -76.9043205, "type": "electric_bike", "fusion_lat": 0.0, "lat": 38.89769066666667, "name": "73986c6e0120a5851c3bf4daa59261ba", "fusion_lon": 0.0, "bike_id": "73986c6e0120a5851c3bf4daa59261ba", "is_disabled": 0, "is_reserved": 0}, {"rental_uris": {"ios": "https://dc.lft.to/lastmile_qr_scan", "android": "https://dc.lft.to/lastmile_qr_scan"}, "lon": -77.0238915, "type": "electric_scooter", "fusion_lat": 0.0, "lat": 38.89535766666667, "name": "c8a6c8f2d13f01c5443613b8f7191393", "fusion_lon": 0.0, "bike_id": "c8a6c8f2d13f01c5443613b8f7191393", "is_disabled": 0, "is_reserved": 0}, {"rental_uris": {"ios": "https://dc.lft.to/lastmile_qr_scan", "android": "https://dc.lft.to/lastmile_qr_scan"}, "lon": -77.01968983333333, "type": "electric_scooter", "fusion_lat": 0.0, "lat": 38.93416033333333, "name": "a638c6ae466c9dedf437140c732bcd2c", "fusion_lon": 0.0, "bike_id": "a638c6ae466c9dedf437140c732bcd2c", "is_disabled": 0, "is_reserved": 0}, {"rental_uris": {"ios": "https://dc.lft.to/lastmile_qr_scan", "android": "https://dc.lft.to/lastmile_qr_scan"}, "lon": -77.03282566666667, "type": "electric_scooter", "fusion_lat": 0.0, "lat": 38.93895283333333, "name": "226bc0a4f9f1a1dbc65379ed353eadf1", "fusion_lon": 0.0, "bike_id": "226bc0a4f9f1a1dbc65379ed353eadf1", "is_disabled": 0, "is_reserved": 0}, {"rental_uris": {"ios": "https://dc.lft.to/lastmile_qr_scan", "android": "https://dc.lft.to/lastmile_qr_scan"}, "lon": -76.986904, "type": "electric_scooter", "fusion_lat": 0.0, "lat": 38.907004, "name": "a454733f2828518a3fd0c7f63aa76617", "fusion_lon": 0.0, "bike_id": "a454733f2828518a3fd0c7f63aa76617", "is_disabled": 0, "is_reserved": 0}, {"rental_uris": {"ios": "https://dc.lft.to/lastmile_qr_scan", "android": "https://dc.lft.to/lastmile_qr_scan"}, "lon": -77.046797, "type": "electric_scooter", "fusion_lat": 0.0, "lat": 38.900601, "name": "29f6d8761cd686e2f29b8bc624553a8b", "fusion_lon": 0.0, "bike_id": "29f6d8761cd686e2f29b8bc624553a8b", "is_disabled": 0, "is_reserved": 0}, {"rental_uris": {"ios": "https://dc.lft.to/lastmile_qr_scan", "android": "https://dc.lft.to/lastmile_qr_scan"}, "lon": -77.01684516666667, "type": "electric_bike", "fusion_lat": 0.0, "lat": 38.9751865, "name": "9b3a6d71bd14b35ce676a63bab85b9e8", "fusion_lon": 0.0, "bike_id": "9b3a6d71bd14b35ce676a63bab85b9e8", "is_disabled": 0, "is_reserved": 0}, {"rental_uris": {"ios": "https://dc.lft.to/lastmile_qr_scan", "android": "https://dc.lft.to/lastmile_qr_scan"}, "lon": -77.031784, "type": "electric_scooter", "fusion_lat": 0.0, "lat": 38.89949583333333, "name": "093e42ad98849788876d75ba69c03da7", "fusion_lon": 0.0, "bike_id": "093e42ad98849788876d75ba69c03da7", "is_disabled": 0, "is_reserved": 0}, {"rental_uris": {"ios": "https://dc.lft.to/lastmile_qr_scan", "android": "https://dc.lft.to/lastmile_qr_scan"}, "lon": -77.02419683333333, "type": "electric_scooter", "fusion_lat": 0.0, "lat": 38.92654433333333, "name": "b2f6058378324e9beae1667c67ed1197", "fusion_lon": 0.0, "bike_id": "b2f6058378324e9beae1667c67ed1197", "is_disabled": 0, "is_reserved": 0}, {"rental_uris": {"ios": "https://dc.lft.to/lastmile_qr_scan", "android": "https://dc.lft.to/lastmile_qr_scan"}, "lon": -77.0426825, "type": "electric_scooter", "fusion_lat": 0.0, "lat": 38.895847833333335, "name": "84c5b382b76f6bf5c372b85895de5958", "fusion_lon": 0.0, "bike_id": "84c5b382b76f6bf5c372b85895de5958", "is_disabled": 0, "is_reserved": 0}, {"rental_uris": {"ios": "https://dc.lft.to/lastmile_qr_scan", "android": "https://dc.lft.to/lastmile_qr_scan"}, "lon": -76.9886885, "type": "electric_scooter", "fusion_lat": 0.0, "lat": 38.832191, "name": "893e4945376d843623e85436c593c5a4", "fusion_lon": 0.0, "bike_id": "893e4945376d843623e85436c593c5a4", "is_disabled": 0, "is_reserved": 0}, {"rental_uris": {"ios": "https://dc.lft.to/lastmile_qr_scan", "android": "https://dc.lft.to/lastmile_qr_scan"}, "lon": -77.0640055, "type": "electric_bike", "fusion_lat": 0.0, "lat": 38.843477166666666, "name": "a4ba2ed6e118fea2e1b5df43a399a2df", "fusion_lon": 0.0, "bike_id": "a4ba2ed6e118fea2e1b5df43a399a2df", "is_disabled": 0, "is_reserved": 0}, {"rental_uris": {"ios": "https://dc.lft.to/lastmile_qr_scan", "android": "https://dc.lft.to/lastmile_qr_scan"}, "lon": -77.054015, "type": "electric_scooter", "fusion_lat": 0.0, "lat": 38.90265, "name": "9b4ae9967e70fd73c8d6bc97f146babb", "fusion_lon": 0.0, "bike_id": "9b4ae9967e70fd73c8d6bc97f146babb", "is_disabled": 0, "is_reserved": 0}, {"rental_uris": {"ios": "https://dc.lft.to/lastmile_qr_scan", "android": "https://dc.lft.to/lastmile_qr_scan"}, "lon": -77.0118025, "type": "electric_scooter", "fusion_lat": 0.0, "lat": 38.91106083333333, "name": "86ad03e448ad9009fe39313905030ee3", "fusion_lon": 0.0, "bike_id": "86ad03e448ad9009fe39313905030ee3", "is_disabled": 0, "is_reserved": 0}, {"rental_uris": {"ios": "https://dc.lft.to/lastmile_qr_scan", "android": "https://dc.lft.to/lastmile_qr_scan"}, "lon": -76.93177416666667, "type": "electric_scooter", "fusion_lat": 0.0, "lat": 38.898858, "name": "3e8acd063d78c912119938e3d7669a5b", "fusion_lon": 0.0, "bike_id": "3e8acd063d78c912119938e3d7669a5b", "is_disabled": 0, "is_reserved": 0}, {"rental_uris": {"ios": "https://dc.lft.to/lastmile_qr_scan", "android": "https://dc.lft.to/lastmile_qr_scan"}, "lon": -77.02163116666667, "type": "electric_scooter", "fusion_lat": 0.0, "lat": 38.94226183333333, "name": "805308d1fe9db9e4f79e73ae75fc31b8", "fusion_lon": 0.0, "bike_id": "805308d1fe9db9e4f79e73ae75fc31b8", "is_disabled": 0, "is_reserved": 0}, {"rental_uris": {"ios": "https://dc.lft.to/lastmile_qr_scan", "android": "https://dc.lft.to/lastmile_qr_scan"}, "lon": -77.026554, "type": "electric_scooter", "fusion_lat": 0.0, "lat": 38.91057433333334, "name": "80014d8ae69a49694c66cb5ae403b4c4", "fusion_lon": 0.0, "bike_id": "80014d8ae69a49694c66cb5ae403b4c4", "is_disabled": 0, "is_reserved": 0}, {"rental_uris": {"ios": "https://dc.lft.to/lastmile_qr_scan", "android": "https://dc.lft.to/lastmile_qr_scan"}, "lon": -77.03318466666667, "type": "electric_scooter", "fusion_lat": 0.0, "lat": 38.93035116666667, "name": "ea1ccc6388e11c53b9c1189633f1e542", "fusion_lon": 0.0, "bike_id": "ea1ccc6388e11c53b9c1189633f1e542", "is_disabled": 0, "is_reserved": 0}, {"rental_uris": {"ios": "https://dc.lft.to/lastmile_qr_scan", "android": "https://dc.lft.to/lastmile_qr_scan"}, "lon": -77.03186083333334, "type": "electric_scooter", "fusion_lat": 0.0, "lat": 38.9248755, "name": "2b967501519882538f4441cae546075f", "fusion_lon": 0.0, "bike_id": "2b967501519882538f4441cae546075f", "is_disabled": 0, "is_reserved": 0}, {"rental_uris": {"ios": "https://dc.lft.to/lastmile_qr_scan", "android": "https://dc.lft.to/lastmile_qr_scan"}, "lon": -77.0106835, "type": "electric_scooter", "fusion_lat": 0.0, "lat": 38.875791166666666, "name": "ed8ea148b4024c0ce14ac90ee1268422", "fusion_lon": 0.0, "bike_id": "ed8ea148b4024c0ce14ac90ee1268422", "is_disabled": 0, "is_reserved": 0}, {"rental_uris": {"ios": "https://dc.lft.to/lastmile_qr_scan", "android": "https://dc.lft.to/lastmile_qr_scan"}, "lon": -77.02669366666667, "type": "electric_scooter", "fusion_lat": 0.0, "lat": 38.895777333333335, "name": "40226e80f5a3dba4a57bf0d53ab869fa", "fusion_lon": 0.0, "bike_id": "40226e80f5a3dba4a57bf0d53ab869fa", "is_disabled": 0, "is_reserved": 0}, {"rental_uris": {"ios": "https://dc.lft.to/lastmile_qr_scan", "android": "https://dc.lft.to/lastmile_qr_scan"}, "lon": -77.02590066666667, "type": "electric_scooter", "fusion_lat": 0.0, "lat": 38.90493883333333, "name": "4afb74e6aea63a24adc50a03be49059a", "fusion_lon": 0.0, "bike_id": "4afb74e6aea63a24adc50a03be49059a", "is_disabled": 0, "is_reserved": 0}, {"rental_uris": {"ios": "https://dc.lft.to/lastmile_qr_scan", "android": "https://dc.lft.to/lastmile_qr_scan"}, "lon": -76.96528116666667, "type": "electric_bike", "fusion_lat": 0.0, "lat": 38.87473716666667, "name": "4807b420976385b2f4f13f27e833a913", "fusion_lon": 0.0, "bike_id": "4807b420976385b2f4f13f27e833a913", "is_disabled": 0, "is_reserved": 0}, {"rental_uris": {"ios": "https://dc.lft.to/lastmile_qr_scan", "android": "https://dc.lft.to/lastmile_qr_scan"}, "lon": -77.02000183333334, "type": "electric_scooter", "fusion_lat": 0.0, "lat": 38.886060666666665, "name": "dd082fd669c69386bf681cf6de9b0635", "fusion_lon": 0.0, "bike_id": "dd082fd669c69386bf681cf6de9b0635", "is_disabled": 0, "is_reserved": 0}, {"rental_uris": {"ios": "https://dc.lft.to/lastmile_qr_scan", "android": "https://dc.lft.to/lastmile_qr_scan"}, "lon": -77.00256883333333, "type": "electric_scooter", "fusion_lat": 0.0, "lat": 38.90259066666667, "name": "d5f15cdb865e1d65e9112236ef48e308", "fusion_lon": 0.0, "bike_id": "d5f15cdb865e1d65e9112236ef48e308", "is_disabled": 0, "is_reserved": 0}, {"rental_uris": {"ios": "https://dc.lft.to/lastmile_qr_scan", "android": "https://dc.lft.to/lastmile_qr_scan"}, "lon": -77.10615566666667, "type": "electric_bike", "fusion_lat": 0.0, "lat": 38.83723483333333, "name": "431a2afda0d43030c560b373fd2ac338", "fusion_lon": 0.0, "bike_id": "431a2afda0d43030c560b373fd2ac338", "is_disabled": 0, "is_reserved": 0}, {"rental_uris": {"ios": "https://dc.lft.to/lastmile_qr_scan", "android": "https://dc.lft.to/lastmile_qr_scan"}, "lon": -77.027881, "type": "electric_scooter", "fusion_lat": 0.0, "lat": 38.89220133333333, "name": "138bb201034f1984d6a29a3d079a1abc", "fusion_lon": 0.0, "bike_id": "138bb201034f1984d6a29a3d079a1abc", "is_disabled": 0, "is_reserved": 0}, {"rental_uris": {"ios": "https://dc.lft.to/lastmile_qr_scan", "android": "https://dc.lft.to/lastmile_qr_scan"}, "lon": -76.98889, "type": "electric_scooter", "fusion_lat": 0.0, "lat": 38.86661616666667, "name": "36d56931c27af047eaf8e63f12bf7a9b", "fusion_lon": 0.0, "bike_id": "36d56931c27af047eaf8e63f12bf7a9b", "is_disabled": 0, "is_reserved": 0}, {"rental_uris": {"ios": "https://dc.lft.to/lastmile_qr_scan", "android": "https://dc.lft.to/lastmile_qr_scan"}, "lon": -76.99049133333334, "type": "electric_bike", "fusion_lat": 0.0, "lat": 38.92454033333333, "name": "627e54f52d67c625de34ca1fd15c37df", "fusion_lon": 0.0, "bike_id": "627e54f52d67c625de34ca1fd15c37df", "is_disabled": 0, "is_reserved": 0}, {"rental_uris": {"ios": "https://dc.lft.to/lastmile_qr_scan", "android": "https://dc.lft.to/lastmile_qr_scan"}, "lon": -77.01624233333334, "type": "electric_scooter", "fusion_lat": 0.0, "lat": 38.90038333333333, "name": "c3eee54aab3e7ffe3e5dfbb30fa3846b", "fusion_lon": 0.0, "bike_id": "c3eee54aab3e7ffe3e5dfbb30fa3846b", "is_disabled": 0, "is_reserved": 0}, {"rental_uris": {"ios": "https://dc.lft.to/lastmile_qr_scan", "android": "https://dc.lft.to/lastmile_qr_scan"}, "lon": -77.0708045, "type": "electric_bike", "fusion_lat": 0.0, "lat": 38.95552633333333, "name": "795eb48f5fcdcfd32d0bf6015bbcd91d", "fusion_lon": 0.0, "bike_id": "795eb48f5fcdcfd32d0bf6015bbcd91d", "is_disabled": 0, "is_reserved": 0}, {"rental_uris": {"ios": "https://dc.lft.to/lastmile_qr_scan", "android": "https://dc.lft.to/lastmile_qr_scan"}, "lon": -77.03823183333333, "type": "electric_scooter", "fusion_lat": 0.0, "lat": 38.93119083333333, "name": "195bdfa37ce4cd4358c957e380d10e0c", "fusion_lon": 0.0, "bike_id": "195bdfa37ce4cd4358c957e380d10e0c", "is_disabled": 0, "is_reserved": 0}, {"rental_uris": {"ios": "https://dc.lft.to/lastmile_qr_scan", "android": "https://dc.lft.to/lastmile_qr_scan"}, "lon": -77.01984766666666, "type": "electric_scooter", "fusion_lat": 0.0, "lat": 38.900635333333334, "name": "fdc85558aafd501e26e3dc39c5961a5b", "fusion_lon": 0.0, "bike_id": "fdc85558aafd501e26e3dc39c5961a5b", "is_disabled": 0, "is_reserved": 0}, {"rental_uris": {"ios": "https://dc.lft.to/lastmile_qr_scan", "android": "https://dc.lft.to/lastmile_qr_scan"}, "lon": -77.0252485, "type": "electric_scooter", "fusion_lat": 0.0, "lat": 38.90115133333333, "name": "3d4e956a72da0cf1bb8d7d8548ec7829", "fusion_lon": 0.0, "bike_id": "3d4e956a72da0cf1bb8d7d8548ec7829", "is_disabled": 0, "is_reserved": 0}, {"rental_uris": {"ios": "https://dc.lft.to/lastmile_qr_scan", "android": "https://dc.lft.to/lastmile_qr_scan"}, "lon": -76.94626516666666, "type": "electric_bike", "fusion_lat": 0.0, "lat": 38.83242116666667, "name": "8a15f6dcc62bd0759279ef04bf920063", "fusion_lon": 0.0, "bike_id": "8a15f6dcc62bd0759279ef04bf920063", "is_disabled": 0, "is_reserved": 0}, {"rental_uris": {"ios": "https://dc.lft.to/lastmile_qr_scan", "android": "https://dc.lft.to/lastmile_qr_scan"}, "lon": -77.04368133333334, "type": "electric_scooter", "fusion_lat": 0.0, "lat": 38.9333235, "name": "e49d12f74c178ddc18a2da7e1e14f167", "fusion_lon": 0.0, "bike_id": "e49d12f74c178ddc18a2da7e1e14f167", "is_disabled": 0, "is_reserved": 0}, {"rental_uris": {"ios": "https://dc.lft.to/lastmile_qr_scan", "android": "https://dc.lft.to/lastmile_qr_scan"}, "lon": -77.0296245, "type": "electric_scooter", "fusion_lat": 0.0, "lat": 38.908283833333336, "name": "9c9c46247afc14cebf65370d549b4cff", "fusion_lon": 0.0, "bike_id": "9c9c46247afc14cebf65370d549b4cff", "is_disabled": 0, "is_reserved": 0}, {"rental_uris": {"ios": "https://dc.lft.to/lastmile_qr_scan", "android": "https://dc.lft.to/lastmile_qr_scan"}, "lon": -77.02168916666666, "type": "electric_scooter", "fusion_lat": 0.0, "lat": 38.89397183333333, "name": "3d30fa203d207be621d6ca8c36353d1f", "fusion_lon": 0.0, "bike_id": "3d30fa203d207be621d6ca8c36353d1f", "is_disabled": 0, "is_reserved": 0}, {"rental_uris": {"ios": "https://dc.lft.to/lastmile_qr_scan", "android": "https://dc.lft.to/lastmile_qr_scan"}, "lon": -76.93927183333334, "type": "electric_scooter", "fusion_lat": 0.0, "lat": 38.893010833333335, "name": "6f20b7dc078a3e0f699580279dc45df8", "fusion_lon": 0.0, "bike_id": "6f20b7dc078a3e0f699580279dc45df8", "is_disabled": 0, "is_reserved": 0}, {"rental_uris": {"ios": "https://dc.lft.to/lastmile_qr_scan", "android": "https://dc.lft.to/lastmile_qr_scan"}, "lon": -77.04422733333334, "type": "electric_scooter", "fusion_lat": 0.0, "lat": 38.911288666666664, "name": "5068d5e17b8ae52d9a71f0e6a196f216", "fusion_lon": 0.0, "bike_id": "5068d5e17b8ae52d9a71f0e6a196f216", "is_disabled": 0, "is_reserved": 0}, {"rental_uris": {"ios": "https://dc.lft.to/lastmile_qr_scan", "android": "https://dc.lft.to/lastmile_qr_scan"}, "lon": -77.0428305, "type": "electric_bike", "fusion_lat": 0.0, "lat": 38.90735433333333, "name": "cf6ac0d5ad39663ae0ab1a2aa13be1a9", "fusion_lon": 0.0, "bike_id": "cf6ac0d5ad39663ae0ab1a2aa13be1a9", "is_disabled": 0, "is_reserved": 0}, {"rental_uris": {"ios": "https://dc.lft.to/lastmile_qr_scan", "android": "https://dc.lft.to/lastmile_qr_scan"}, "lon": -76.9905695, "type": "electric_scooter", "fusion_lat": 0.0, "lat": 38.86358933333333, "name": "2dc8df9096acdb9c1d8b9606ca9d9ae8", "fusion_lon": 0.0, "bike_id": "2dc8df9096acdb9c1d8b9606ca9d9ae8", "is_disabled": 0, "is_reserved": 0}, {"rental_uris": {"ios": "https://dc.lft.to/lastmile_qr_scan", "android": "https://dc.lft.to/lastmile_qr_scan"}, "lon": -76.93162133333334, "type": "electric_bike", "fusion_lat": 0.0, "lat": 38.90863133333333, "name": "08cc2f741d14c3a34fbf99d0460511ec", "fusion_lon": 0.0, "bike_id": "08cc2f741d14c3a34fbf99d0460511ec", "is_disabled": 0, "is_reserved": 0}, {"rental_uris": {"ios": "https://dc.lft.to/lastmile_qr_scan", "android": "https://dc.lft.to/lastmile_qr_scan"}, "lon": -77.02014583333333, "type": "electric_scooter", "fusion_lat": 0.0, "lat": 38.899022, "name": "abd7b7b15b392ee61f727a22b518ac78", "fusion_lon": 0.0, "bike_id": "abd7b7b15b392ee61f727a22b518ac78", "is_disabled": 0, "is_reserved": 0}, {"rental_uris": {"ios": "https://dc.lft.to/lastmile_qr_scan", "android": "https://dc.lft.to/lastmile_qr_scan"}, "lon": -77.02244083333333, "type": "electric_scooter", "fusion_lat": 0.0, "lat": 38.9243775, "name": "e91b657ccef8986c597e0eecf64a8e01", "fusion_lon": 0.0, "bike_id": "e91b657ccef8986c597e0eecf64a8e01", "is_disabled": 0, "is_reserved": 0}, {"rental_uris": {"ios": "https://dc.lft.to/lastmile_qr_scan", "android": "https://dc.lft.to/lastmile_qr_scan"}, "lon": -77.003739, "type": "electric_bike", "fusion_lat": 0.0, "lat": 38.83603383333333, "name": "4cf06867da34d6fe99312c540694e59f", "fusion_lon": 0.0, "bike_id": "4cf06867da34d6fe99312c540694e59f", "is_disabled": 0, "is_reserved": 0}, {"rental_uris": {"ios": "https://dc.lft.to/lastmile_qr_scan", "android": "https://dc.lft.to/lastmile_qr_scan"}, "lon": -77.02798916666667, "type": "electric_scooter", "fusion_lat": 0.0, "lat": 38.961376333333334, "name": "824f4a3be63a2fbdfdd6cbe35e5ed862", "fusion_lon": 0.0, "bike_id": "824f4a3be63a2fbdfdd6cbe35e5ed862", "is_disabled": 0, "is_reserved": 0}, {"rental_uris": {"ios": "https://dc.lft.to/lastmile_qr_scan", "android": "https://dc.lft.to/lastmile_qr_scan"}, "lon": -77.040131, "type": "electric_scooter", "fusion_lat": 0.0, "lat": 38.921724166666664, "name": "cff0ad4a609ed155d74fa9d59ec45d1d", "fusion_lon": 0.0, "bike_id": "cff0ad4a609ed155d74fa9d59ec45d1d", "is_disabled": 0, "is_reserved": 0}, {"rental_uris": {"ios": "https://dc.lft.to/lastmile_qr_scan", "android": "https://dc.lft.to/lastmile_qr_scan"}, "lon": -77.0628185, "type": "electric_scooter", "fusion_lat": 0.0, "lat": 38.912372833333336, "name": "c8fcd722237af074a3b8a22eee662f01", "fusion_lon": 0.0, "bike_id": "c8fcd722237af074a3b8a22eee662f01", "is_disabled": 0, "is_reserved": 0}, {"rental_uris": {"ios": "https://dc.lft.to/lastmile_qr_scan", "android": "https://dc.lft.to/lastmile_qr_scan"}, "lon": -76.99776266666667, "type": "electric_scooter", "fusion_lat": 0.0, "lat": 38.8442215, "name": "05984b85a7c6af2f70bd31de765f51ca", "fusion_lon": 0.0, "bike_id": "05984b85a7c6af2f70bd31de765f51ca", "is_disabled": 0, "is_reserved": 0}, {"rental_uris": {"ios": "https://dc.lft.to/lastmile_qr_scan", "android": "https://dc.lft.to/lastmile_qr_scan"}, "lon": -77.01798583333333, "type": "electric_scooter", "fusion_lat": 0.0, "lat": 38.9411515, "name": "16f2ca23e80ab068f92522faa49209a3", "fusion_lon": 0.0, "bike_id": "16f2ca23e80ab068f92522faa49209a3", "is_disabled": 0, "is_reserved": 0}, {"rental_uris": {"ios": "https://dc.lft.to/lastmile_qr_scan", "android": "https://dc.lft.to/lastmile_qr_scan"}, "lon": -77.0425815, "type": "electric_scooter", "fusion_lat": 0.0, "lat": 38.910471666666666, "name": "4909d2195a40155ac1fc385662bf23ff", "fusion_lon": 0.0, "bike_id": "4909d2195a40155ac1fc385662bf23ff", "is_disabled": 0, "is_reserved": 0}, {"rental_uris": {"ios": "https://dc.lft.to/lastmile_qr_scan", "android": "https://dc.lft.to/lastmile_qr_scan"}, "lon": -76.94983066666667, "type": "electric_scooter", "fusion_lat": 0.0, "lat": 38.89360966666667, "name": "5f3c330eb915ab57c80284d4c45549d0", "fusion_lon": 0.0, "bike_id": "5f3c330eb915ab57c80284d4c45549d0", "is_disabled": 0, "is_reserved": 0}, {"rental_uris": {"ios": "https://dc.lft.to/lastmile_qr_scan", "android": "https://dc.lft.to/lastmile_qr_scan"}, "lon": -77.0295995, "type": "electric_scooter", "fusion_lat": 0.0, "lat": 38.900540166666666, "name": "e0acc24493b9bc81c0bf480b46849250", "fusion_lon": 0.0, "bike_id": "e0acc24493b9bc81c0bf480b46849250", "is_disabled": 0, "is_reserved": 0}, {"rental_uris": {"ios": "https://dc.lft.to/lastmile_qr_scan", "android": "https://dc.lft.to/lastmile_qr_scan"}, "lon": -77.02473533333334, "type": "electric_scooter", "fusion_lat": 0.0, "lat": 38.917060666666664, "name": "2b410e0c8f1ffa4cb5d5cd37b305bb77", "fusion_lon": 0.0, "bike_id": "2b410e0c8f1ffa4cb5d5cd37b305bb77", "is_disabled": 0, "is_reserved": 0}, {"rental_uris": {"ios": "https://dc.lft.to/lastmile_qr_scan", "android": "https://dc.lft.to/lastmile_qr_scan"}, "lon": -77.05081333333334, "type": "electric_scooter", "fusion_lat": 0.0, "lat": 38.900327833333336, "name": "25a1fc473dbc4d944c3dd140605fcf58", "fusion_lon": 0.0, "bike_id": "25a1fc473dbc4d944c3dd140605fcf58", "is_disabled": 0, "is_reserved": 0}, {"rental_uris": {"ios": "https://dc.lft.to/lastmile_qr_scan", "android": "https://dc.lft.to/lastmile_qr_scan"}, "lon": -77.0250045, "type": "electric_scooter", "fusion_lat": 0.0, "lat": 38.9172145, "name": "be53abe8fabe9b94302650561ebaf19b", "fusion_lon": 0.0, "bike_id": "be53abe8fabe9b94302650561ebaf19b", "is_disabled": 0, "is_reserved": 0}, {"rental_uris": {"ios": "https://dc.lft.to/lastmile_qr_scan", "android": "https://dc.lft.to/lastmile_qr_scan"}, "lon": -77.03233883333333, "type": "electric_scooter", "fusion_lat": 0.0, "lat": 38.9248265, "name": "ab2f18a730e1541091f9f923103f272b", "fusion_lon": 0.0, "bike_id": "ab2f18a730e1541091f9f923103f272b", "is_disabled": 0, "is_reserved": 0}, {"rental_uris": {"ios": "https://dc.lft.to/lastmile_qr_scan", "android": "https://dc.lft.to/lastmile_qr_scan"}, "lon": -77.0367, "type": "electric_scooter", "fusion_lat": 0.0, "lat": 38.90356383333334, "name": "88175772698d883d1f6536ebc7e84b05", "fusion_lon": 0.0, "bike_id": "88175772698d883d1f6536ebc7e84b05", "is_disabled": 0, "is_reserved": 0}, {"rental_uris": {"ios": "https://dc.lft.to/lastmile_qr_scan", "android": "https://dc.lft.to/lastmile_qr_scan"}, "lon": -77.02055683333333, "type": "electric_scooter", "fusion_lat": 0.0, "lat": 38.89480416666667, "name": "e0512994318878a130a0694e9cbdff13", "fusion_lon": 0.0, "bike_id": "e0512994318878a130a0694e9cbdff13", "is_disabled": 0, "is_reserved": 0}, {"rental_uris": {"ios": "https://dc.lft.to/lastmile_qr_scan", "android": "https://dc.lft.to/lastmile_qr_scan"}, "lon": -77.04267166666666, "type": "electric_scooter", "fusion_lat": 0.0, "lat": 38.922371166666665, "name": "d2903c1948c2f975c1b913751218b589", "fusion_lon": 0.0, "bike_id": "d2903c1948c2f975c1b913751218b589", "is_disabled": 0, "is_reserved": 0}, {"rental_uris": {"ios": "https://dc.lft.to/lastmile_qr_scan", "android": "https://dc.lft.to/lastmile_qr_scan"}, "lon": -77.02458533333333, "type": "electric_scooter", "fusion_lat": 0.0, "lat": 38.93821116666667, "name": "0fb1d3f461f08748c30d7935a096c020", "fusion_lon": 0.0, "bike_id": "0fb1d3f461f08748c30d7935a096c020", "is_disabled": 0, "is_reserved": 0}, {"rental_uris": {"ios": "https://dc.lft.to/lastmile_qr_scan", "android": "https://dc.lft.to/lastmile_qr_scan"}, "lon": -77.06943466666667, "type": "electric_scooter", "fusion_lat": 0.0, "lat": 38.905115, "name": "d70f4a353a27ab99e0a630fb009c17ea", "fusion_lon": 0.0, "bike_id": "d70f4a353a27ab99e0a630fb009c17ea", "is_disabled": 0, "is_reserved": 0}, {"rental_uris": {"ios": "https://dc.lft.to/lastmile_qr_scan", "android": "https://dc.lft.to/lastmile_qr_scan"},