{"data": {"bikes": [{"bike_id": "9a15560d8a4699415694cc51326a44ec", "fusion_lon": 0.0, "type": "electric_scooter", "name": "9a15560d8a4699415694cc51326a44ec", "rental_uris": {"android": "https://dc.lft.to/lastmile_qr_scan", "ios": "https://dc.lft.to/lastmile_qr_scan"}, "fusion_lat": 0.0, "lat": 38.94629116666667, "is_disabled": 0, "lon": -77.01844166666666, "is_reserved": 0}, {"bike_id": "4e26f99bfe9a7ce2003e41836cc67826", "fusion_lon": 0.0, "type": "electric_scooter", "name": "4e26f99bfe9a7ce2003e41836cc67826", "rental_uris": {"android": "https://dc.lft.to/lastmile_qr_scan", "ios": "https://dc.lft.to/lastmile_qr_scan"}, "fusion_lat": 0.0, "lat": 38.95845966666667, "is_disabled": 0, "lon": -77.029049, "is_reserved": 0}, {"bike_id": "16da4857af578c4716e03fb8efaaac4e", "fusion_lon": 0.0, "type": "electric_scooter", "name": "16da4857af578c4716e03fb8efaaac4e", "rental_uris": {"android": "https://dc.lft.to/lastmile_qr_scan", "ios": "https://dc.lft.to/lastmile_qr_scan"}, "fusion_lat": 0.0, "lat": 38.896187, "is_disabled": 0, "lon": -76.999362, "is_reserved": 0}, {"bike_id": "dd29d7fe5e4257258b2b0f80ff348216", "fusion_lon": 0.0, "type": "electric_bike", "name": "dd29d7fe5e4257258b2b0f80ff348216", "rental_uris": {"android": "https://dc.lft.to/lastmile_qr_scan", "ios": "https://dc.lft.to/lastmile_qr_scan"}, "fusion_lat": 0.0, "lat": 38.90973816666666, "is_disabled": 0, "lon": -77.0882635, "is_reserved": 0}, {"bike_id": "36e1c06c9784f8895912a0200b789410", "fusion_lon": 0.0, "type": "electric_scooter", "name": "36e1c06c9784f8895912a0200b789410", "rental_uris": {"android": "https://dc.lft.to/lastmile_qr_scan", "ios": "https://dc.lft.to/lastmile_qr_scan"}, "fusion_lat": 0.0, "lat": 38.914947833333336, "is_disabled": 0, "lon": -77.012075, "is_reserved": 0}, {"bike_id": "aa1a29e28fad9636d148c4ec91e0d890", "fusion_lon": 0.0, "type": "electric_scooter", "name": "aa1a29e28fad9636d148c4ec91e0d890", "rental_uris": {"android": "https://dc.lft.to/lastmile_qr_scan", "ios": "https://dc.lft.to/lastmile_qr_scan"}, "fusion_lat": 0.0, "lat": 38.884675, "is_disabled": 0, "lon": -77.02348833333333, "is_reserved": 0}, {"bike_id": "4d61c5e7b05262fc9db653d4b257e460", "fusion_lon": 0.0, "type": "electric_scooter", "name": "4d61c5e7b05262fc9db653d4b257e460", "rental_uris": {"android": "https://dc.lft.to/lastmile_qr_scan", "ios": "https://dc.lft.to/lastmile_qr_scan"}, "fusion_lat": 0.0, "lat": 38.908690666666665, "is_disabled": 0, "lon": -77.03258983333333, "is_reserved": 0}, {"bike_id": "303b05ff595744cd4527f2f739af2c9f", "fusion_lon": 0.0, "type": "electric_scooter", "name": "303b05ff595744cd4527f2f739af2c9f", "rental_uris": {"android": "https://dc.lft.to/lastmile_qr_scan", "ios": "https://dc.lft.to/lastmile_qr_scan"}, "fusion_lat": 0.0, "lat": 38.867134666666665, "is_disabled": 0, "lon": -76.98732666666666, "is_reserved": 0}, {"bike_id": "dad92494db016765c7c5a73d6129c9a6", "fusion_lon": 0.0, "type": "electric_scooter", "name": "dad92494db016765c7c5a73d6129c9a6", "rental_uris": {"android": "https://dc.lft.to/lastmile_qr_scan", "ios": "https://dc.lft.to/lastmile_qr_scan"}, "fusion_lat": 0.0, "lat": 38.902458833333334, "is_disabled": 0, "lon": -77.03276266666667, "is_reserved": 0}, {"bike_id": "cb6d6b88a434423dcbb05fa18e922a95", "fusion_lon": 0.0, "type": "electric_scooter", "name": "cb6d6b88a434423dcbb05fa18e922a95", "rental_uris": {"android": "https://dc.lft.to/lastmile_qr_scan", "ios": "https://dc.lft.to/lastmile_qr_scan"}, "fusion_lat": 0.0, "lat": 38.92403133333333, "is_disabled": 0, "lon": -77.04093783333333, "is_reserved": 0}, {"bike_id": "021cee388496299886de36dd9287adff", "fusion_lon": 0.0, "type": "electric_scooter", "name": "021cee388496299886de36dd9287adff", "rental_uris": {"android": "https://dc.lft.to/lastmile_qr_scan", "ios": "https://dc.lft.to/lastmile_qr_scan"}, "fusion_lat": 0.0, "lat": 38.952069, "is_disabled": 0, "lon": -77.06780633333334, "is_reserved": 0}, {"bike_id": "f0d7a04b2508c70d841081f1a4112e77", "fusion_lon": 0.0, "type": "electric_scooter", "name": "f0d7a04b2508c70d841081f1a4112e77", "rental_uris": {"android": "https://dc.lft.to/lastmile_qr_scan", "ios": "https://dc.lft.to/lastmile_qr_scan"}, "fusion_lat": 0.0, "lat": 38.94994666666667, "is_disabled": 0, "lon": -77.01845783333333, "is_reserved": 0}, {"bike_id": "200b6489f534a97f559f0cf2e7dbcfe2", "fusion_lon": 0.0, "type": "electric_scooter", "name": "200b6489f534a97f559f0cf2e7dbcfe2", "rental_uris": {"android": "https://dc.lft.to/lastmile_qr_scan", "ios": "https://dc.lft.to/lastmile_qr_scan"}, "fusion_lat": 0.0, "lat": 38.9303715, "is_disabled": 0, "lon": -77.03303883333334, "is_reserved": 0}, {"bike_id": "149ac57b53db8a90478dac7fd5786895", "fusion_lon": 0.0, "type": "electric_scooter", "name": "149ac57b53db8a90478dac7fd5786895", "rental_uris": {"android": "https://dc.lft.to/lastmile_qr_scan", "ios": "https://dc.lft.to/lastmile_qr_scan"}, "fusion_lat": 0.0, "lat": 38.9191515, "is_disabled": 0, "lon": -77.03183983333334, "is_reserved": 0}, {"bike_id": "f910ce39542682e4c81a27411ba09656", "fusion_lon": 0.0, "type": "electric_scooter", "name": "f910ce39542682e4c81a27411ba09656", "rental_uris": {"android": "https://dc.lft.to/lastmile_qr_scan", "ios": "https://dc.lft.to/lastmile_qr_scan"}, "fusion_lat": 0.0, "lat": 38.93959866666667, "is_disabled": 0, "lon": -77.02494433333334, "is_reserved": 0}, {"bike_id": "71a811a7970628fd54e8fe16cd578834", "fusion_lon": 0.0, "type": "electric_scooter", "name": "71a811a7970628fd54e8fe16cd578834", "rental_uris": {"android": "https://dc.lft.to/lastmile_qr_scan", "ios": "https://dc.lft.to/lastmile_qr_scan"}, "fusion_lat": 0.0, "lat": 38.928751166666665, "is_disabled": 0, "lon": -77.0281835, "is_reserved": 0}, {"bike_id": "02003e2033d6de1326bf61815e4a842f", "fusion_lon": 0.0, "type": "electric_scooter", "name": "02003e2033d6de1326bf61815e4a842f", "rental_uris": {"android": "https://dc.lft.to/lastmile_qr_scan", "ios": "https://dc.lft.to/lastmile_qr_scan"}, "fusion_lat": 0.0, "lat": 38.921249833333334, "is_disabled": 0, "lon": -77.04432833333334, "is_reserved": 0}, {"bike_id": "8241ef08c25cd7a14a80d18fd50db505", "fusion_lon": 0.0, "type": "electric_scooter", "name": "8241ef08c25cd7a14a80d18fd50db505", "rental_uris": {"android": "https://dc.lft.to/lastmile_qr_scan", "ios": "https://dc.lft.to/lastmile_qr_scan"}, "fusion_lat": 0.0, "lat": 38.95521683333333, "is_disabled": 0, "lon": -77.0073895, "is_reserved": 0}, {"bike_id": "26e252ccd6932b949f72ce623ad0094b", "fusion_lon": 0.0, "type": "electric_scooter", "name": "26e252ccd6932b949f72ce623ad0094b", "rental_uris": {"android": "https://dc.lft.to/lastmile_qr_scan", "ios": "https://dc.lft.to/lastmile_qr_scan"}, "fusion_lat": 0.0, "lat": 38.905409166666665, "is_disabled": 0, "lon": -77.02183516666666, "is_reserved": 0}, {"bike_id": "1562d308ee47b83dfa53cb5f164b2248", "fusion_lon": 0.0, "type": "electric_scooter", "name": "1562d308ee47b83dfa53cb5f164b2248", "rental_uris": {"android": "https://dc.lft.to/lastmile_qr_scan", "ios": "https://dc.lft.to/lastmile_qr_scan"}, "fusion_lat": 0.0, "lat": 38.924227333333334, "is_disabled": 0, "lon": -77.020059, "is_reserved": 0}, {"bike_id": "dd5beb075372250edf24941a437c3a04", "fusion_lon": 0.0, "type": "electric_scooter", "name": "dd5beb075372250edf24941a437c3a04", "rental_uris": {"android": "https://dc.lft.to/lastmile_qr_scan", "ios": "https://dc.lft.to/lastmile_qr_scan"}, "fusion_lat": 0.0, "lat": 38.902203166666666, "is_disabled": 0, "lon": -77.00212383333333, "is_reserved": 0}, {"bike_id": "6b2fd0311f616d242f17baf89b0de7bd", "fusion_lon": 0.0, "type": "electric_scooter", "name": "6b2fd0311f616d242f17baf89b0de7bd", "rental_uris": {"android": "https://dc.lft.to/lastmile_qr_scan", "ios": "https://dc.lft.to/lastmile_qr_scan"}, "fusion_lat": 0.0, "lat": 38.885068, "is_disabled": 0, "lon": -77.03352416666667, "is_reserved": 0}, {"bike_id": "4063bf606632c56402ed42f325cacafa", "fusion_lon": 0.0, "type": "electric_scooter", "name": "4063bf606632c56402ed42f325cacafa", "rental_uris": {"android": "https://dc.lft.to/lastmile_qr_scan", "ios": "https://dc.lft.to/lastmile_qr_scan"}, "fusion_lat": 0.0, "lat": 38.92164016666667, "is_disabled": 0, "lon": -77.03391233333333, "is_reserved": 0}, {"bike_id": "5c176b6e7d6799c47d3fc845be69b3d4", "fusion_lon": 0.0, "type": "electric_scooter", "name": "5c176b6e7d6799c47d3fc845be69b3d4", "rental_uris": {"android": "https://dc.lft.to/lastmile_qr_scan", "ios": "https://dc.lft.to/lastmile_qr_scan"}, "fusion_lat": 0.0, "lat": 38.9387955, "is_disabled": 0, "lon": -77.03283266666666, "is_reserved": 0}, {"bike_id": "6e9b03c27b495e74cb9bc8d3c083911e", "fusion_lon": 0.0, "type": "electric_scooter", "name": "6e9b03c27b495e74cb9bc8d3c083911e", "rental_uris": {"android": "https://dc.lft.to/lastmile_qr_scan", "ios": "https://dc.lft.to/lastmile_qr_scan"}, "fusion_lat": 0.0, "lat": 38.88301033333333, "is_disabled": 0, "lon": -76.94855483333333, "is_reserved": 0}, {"bike_id": "55476a657ada9076b4c967ea16dad4a8", "fusion_lon": 0.0, "type": "electric_scooter", "name": "55476a657ada9076b4c967ea16dad4a8", "rental_uris": {"android": "https://dc.lft.to/lastmile_qr_scan", "ios": "https://dc.lft.to/lastmile_qr_scan"}, "fusion_lat": 0.0, "lat": 38.89487, "is_disabled": 0, "lon": -76.9483995, "is_reserved": 0}, {"bike_id": "4c7349161d9119169a8e73386a0e9d61", "fusion_lon": 0.0, "type": "electric_scooter", "name": "4c7349161d9119169a8e73386a0e9d61", "rental_uris": {"android": "https://dc.lft.to/lastmile_qr_scan", "ios": "https://dc.lft.to/lastmile_qr_scan"}, "fusion_lat": 0.0, "lat": 38.857572, "is_disabled": 0, "lon": -76.99312683333333, "is_reserved": 0}, {"bike_id": "b201e3b8ae3e7fedb2075bc45f813c9f", "fusion_lon": 0.0, "type": "electric_scooter", "name": "b201e3b8ae3e7fedb2075bc45f813c9f", "rental_uris": {"android": "https://dc.lft.to/lastmile_qr_scan", "ios": "https://dc.lft.to/lastmile_qr_scan"}, "fusion_lat": 0.0, "lat": 38.921273, "is_disabled": 0, "lon": -77.04575833333334, "is_reserved": 0}, {"bike_id": "38218c28990f0e86f8c95176d93f2711", "fusion_lon": 0.0, "type": "electric_scooter", "name": "38218c28990f0e86f8c95176d93f2711", "rental_uris": {"android": "https://dc.lft.to/lastmile_qr_scan", "ios": "https://dc.lft.to/lastmile_qr_scan"}, "fusion_lat": 0.0, "lat": 38.8969065, "is_disabled": 0, "lon": -76.99272666666667, "is_reserved": 0}, {"bike_id": "541ea1308331ae4603dc362d8359b30a", "fusion_lon": 0.0, "type": "electric_scooter", "name": "541ea1308331ae4603dc362d8359b30a", "rental_uris": {"android": "https://dc.lft.to/lastmile_qr_scan", "ios": "https://dc.lft.to/lastmile_qr_scan"}, "fusion_lat": 0.0, "lat": 38.9441585, "is_disabled": 0, "lon": -77.055194, "is_reserved": 0}, {"bike_id": "388caaa6010ba81742262b1b4e375fd9", "fusion_lon": 0.0, "type": "electric_scooter", "name": "388caaa6010ba81742262b1b4e375fd9", "rental_uris": {"android": "https://dc.lft.to/lastmile_qr_scan", "ios": "https://dc.lft.to/lastmile_qr_scan"}, "fusion_lat": 0.0, "lat": 38.92692266666667, "is_disabled": 0, "lon": -77.03601783333333, "is_reserved": 0}, {"bike_id": "40ea68b941c4ca0b9bf56af3ea5741aa", "fusion_lon": 0.0, "type": "electric_scooter", "name": "40ea68b941c4ca0b9bf56af3ea5741aa", "rental_uris": {"android": "https://dc.lft.to/lastmile_qr_scan", "ios": "https://dc.lft.to/lastmile_qr_scan"}, "fusion_lat": 0.0, "lat": 38.8988455, "is_disabled": 0, "lon": -76.93175466666666, "is_reserved": 0}, {"bike_id": "3bc598be1262169251b221b97faf7d95", "fusion_lon": 0.0, "type": "electric_scooter", "name": "3bc598be1262169251b221b97faf7d95", "rental_uris": {"android": "https://dc.lft.to/lastmile_qr_scan", "ios": "https://dc.lft.to/lastmile_qr_scan"}, "fusion_lat": 0.0, "lat": 38.9181185, "is_disabled": 0, "lon": -77.03464583333333, "is_reserved": 0}, {"bike_id": "58a94a4ac7b7f8827023389cf7ffb2f1", "fusion_lon": 0.0, "type": "electric_scooter", "name": "58a94a4ac7b7f8827023389cf7ffb2f1", "rental_uris": {"android": "https://dc.lft.to/lastmile_qr_scan", "ios": "https://dc.lft.to/lastmile_qr_scan"}, "fusion_lat": 0.0, "lat": 38.91773366666666, "is_disabled": 0, "lon": -77.01454766666667, "is_reserved": 0}, {"bike_id": "106f0788455542a059357f826c31dbdc", "fusion_lon": 0.0, "type": "electric_scooter", "name": "106f0788455542a059357f826c31dbdc", "rental_uris": {"android": "https://dc.lft.to/lastmile_qr_scan", "ios": "https://dc.lft.to/lastmile_qr_scan"}, "fusion_lat": 0.0, "lat": 38.89483716666667, "is_disabled": 0, "lon": -76.99514516666666, "is_reserved": 0}, {"bike_id": "1cba2cbf8ed88e01ece9def7af804a60", "fusion_lon": 0.0, "type": "electric_scooter", "name": "1cba2cbf8ed88e01ece9def7af804a60", "rental_uris": {"android": "https://dc.lft.to/lastmile_qr_scan", "ios": "https://dc.lft.to/lastmile_qr_scan"}, "fusion_lat": 0.0, "lat": 38.926209, "is_disabled": 0, "lon": -77.052952, "is_reserved": 0}, {"bike_id": "e47f8af24ce92f0a23203606b11c4cfb", "fusion_lon": 0.0, "type": "electric_scooter", "name": "e47f8af24ce92f0a23203606b11c4cfb", "rental_uris": {"android": "https://dc.lft.to/lastmile_qr_scan", "ios": "https://dc.lft.to/lastmile_qr_scan"}, "fusion_lat": 0.0, "lat": 38.89740033333333, "is_disabled": 0, "lon": -77.00045683333333, "is_reserved": 0}, {"bike_id": "f4a5c911fb183db94778fe9bd3447956", "fusion_lon": 0.0, "type": "electric_scooter", "name": "f4a5c911fb183db94778fe9bd3447956", "rental_uris": {"android": "https://dc.lft.to/lastmile_qr_scan", "ios": "https://dc.lft.to/lastmile_qr_scan"}, "fusion_lat": 0.0, "lat": 38.921218, "is_disabled": 0, "lon": -77.036613, "is_reserved": 0}, {"bike_id": "26919f7d33a0fae23360d83508864887", "fusion_lon": 0.0, "type": "electric_scooter", "name": "26919f7d33a0fae23360d83508864887", "rental_uris": {"android": "https://dc.lft.to/lastmile_qr_scan", "ios": "https://dc.lft.to/lastmile_qr_scan"}, "fusion_lat": 0.0, "lat": 38.92230166666667, "is_disabled": 0, "lon": -77.0463755, "is_reserved": 0}, {"bike_id": "3fb77f986ae2a8a2b3e268e51f94c7e6", "fusion_lon": 0.0, "type": "electric_scooter", "name": "3fb77f986ae2a8a2b3e268e51f94c7e6", "rental_uris": {"android": "https://dc.lft.to/lastmile_qr_scan", "ios": "https://dc.lft.to/lastmile_qr_scan"}, "fusion_lat": 0.0, "lat": 38.887504, "is_disabled": 0, "lon": -77.01607783333333, "is_reserved": 0}, {"bike_id": "3e74d7dd2acc1ccf616edc05601fcc21", "fusion_lon": 0.0, "type": "electric_scooter", "name": "3e74d7dd2acc1ccf616edc05601fcc21", "rental_uris": {"android": "https://dc.lft.to/lastmile_qr_scan", "ios": "https://dc.lft.to/lastmile_qr_scan"}, "fusion_lat": 0.0, "lat": 38.9127065, "is_disabled": 0, "lon": -77.02232433333333, "is_reserved": 0}, {"bike_id": "ee78b330bf7bc1eb9bb0641975e1074f", "fusion_lon": 0.0, "type": "electric_scooter", "name": "ee78b330bf7bc1eb9bb0641975e1074f", "rental_uris": {"android": "https://dc.lft.to/lastmile_qr_scan", "ios": "https://dc.lft.to/lastmile_qr_scan"}, "fusion_lat": 0.0, "lat": 38.92676316666667, "is_disabled": 0, "lon": -77.07830016666666, "is_reserved": 0}, {"bike_id": "e5565b97225f4917b32983dcdbeb1470", "fusion_lon": 0.0, "type": "electric_scooter", "name": "e5565b97225f4917b32983dcdbeb1470", "rental_uris": {"android": "https://dc.lft.to/lastmile_qr_scan", "ios": "https://dc.lft.to/lastmile_qr_scan"}, "fusion_lat": 0.0, "lat": 38.88740383333333, "is_disabled": 0, "lon": -77.02269016666666, "is_reserved": 0}, {"bike_id": "4177268d24e03ef9d696e49e83e8bd2f", "fusion_lon": 0.0, "type": "electric_scooter", "name": "4177268d24e03ef9d696e49e83e8bd2f", "rental_uris": {"android": "https://dc.lft.to/lastmile_qr_scan", "ios": "https://dc.lft.to/lastmile_qr_scan"}, "fusion_lat": 0.0, "lat": 38.885996, "is_disabled": 0, "lon": -77.022095, "is_reserved": 0}, {"bike_id": "98cf94bb2ac8ab9f8fdebf9b58a5150b", "fusion_lon": 0.0, "type": "electric_bike", "name": "98cf94bb2ac8ab9f8fdebf9b58a5150b", "rental_uris": {"android": "https://dc.lft.to/lastmile_qr_scan", "ios": "https://dc.lft.to/lastmile_qr_scan"}, "fusion_lat": 0.0, "lat": 38.94205933333333, "is_disabled": 0, "lon": -76.9662655, "is_reserved": 0}, {"bike_id": "314501b597342cc02833496ac4033caa", "fusion_lon": 0.0, "type": "electric_scooter", "name": "314501b597342cc02833496ac4033caa", "rental_uris": {"android": "https://dc.lft.to/lastmile_qr_scan", "ios": "https://dc.lft.to/lastmile_qr_scan"}, "fusion_lat": 0.0, "lat": 38.90017566666667, "is_disabled": 0, "lon": -76.9869625, "is_reserved": 0}, {"bike_id": "266994785d3f77c547092ce40a7c5e12", "fusion_lon": 0.0, "type": "electric_scooter", "name": "266994785d3f77c547092ce40a7c5e12", "rental_uris": {"android": "https://dc.lft.to/lastmile_qr_scan", "ios": "https://dc.lft.to/lastmile_qr_scan"}, "fusion_lat": 0.0, "lat": 38.93866216666667, "is_disabled": 0, "lon": -77.02651666666667, "is_reserved": 0}, {"bike_id": "d458b4c8db0180b8d058fbe31157f04d", "fusion_lon": 0.0, "type": "electric_scooter", "name": "d458b4c8db0180b8d058fbe31157f04d", "rental_uris": {"android": "https://dc.lft.to/lastmile_qr_scan", "ios": "https://dc.lft.to/lastmile_qr_scan"}, "fusion_lat": 0.0, "lat": 38.922466, "is_disabled": 0, "lon": -77.09957433333334, "is_reserved": 0}, {"bike_id": "1225bc16d8f225cab50a151b5179a298", "fusion_lon": 0.0, "type": "electric_bike", "name": "1225bc16d8f225cab50a151b5179a298", "rental_uris": {"android": "https://dc.lft.to/lastmile_qr_scan", "ios": "https://dc.lft.to/lastmile_qr_scan"}, "fusion_lat": 0.0, "lat": 38.962601, "is_disabled": 0, "lon": -77.01075466666667, "is_reserved": 0}, {"bike_id": "05e14882427aac3a60b4997b0a8b4a89", "fusion_lon": 0.0, "type": "electric_bike", "name": "05e14882427aac3a60b4997b0a8b4a89", "rental_uris": {"android": "https://dc.lft.to/lastmile_qr_scan", "ios": "https://dc.lft.to/lastmile_qr_scan"}, "fusion_lat": 0.0, "lat": 38.885319333333335, "is_disabled": 0, "lon": -76.935679, "is_reserved": 0}, {"bike_id": "20f859a3388d095ea7996ddd6d0b5484", "fusion_lon": 0.0, "type": "electric_scooter", "name": "20f859a3388d095ea7996ddd6d0b5484", "rental_uris": {"android": "https://dc.lft.to/lastmile_qr_scan", "ios": "https://dc.lft.to/lastmile_qr_scan"}, "fusion_lat": 0.0, "lat": 38.92797366666667, "is_disabled": 0, "lon": -77.03074666666667, "is_reserved": 0}, {"bike_id": "c50584d01fe5340f2c74b39cbc64b131", "fusion_lon": 0.0, "type": "electric_scooter", "name": "c50584d01fe5340f2c74b39cbc64b131", "rental_uris": {"android": "https://dc.lft.to/lastmile_qr_scan", "ios": "https://dc.lft.to/lastmile_qr_scan"}, "fusion_lat": 0.0, "lat": 38.933596, "is_disabled": 0, "lon": -77.03732433333333, "is_reserved": 0}, {"bike_id": "a656f663e25b9e427a65e806e481b3fe", "fusion_lon": 0.0, "type": "electric_scooter", "name": "a656f663e25b9e427a65e806e481b3fe", "rental_uris": {"android": "https://dc.lft.to/lastmile_qr_scan", "ios": "https://dc.lft.to/lastmile_qr_scan"}, "fusion_lat": 0.0, "lat": 38.93384783333333, "is_disabled": 0, "lon": -77.0310815, "is_reserved": 0}, {"bike_id": "d500345c8a8d6878e17e6778066f1099", "fusion_lon": 0.0, "type": "electric_bike", "name": "d500345c8a8d6878e17e6778066f1099", "rental_uris": {"android": "https://dc.lft.to/lastmile_qr_scan", "ios": "https://dc.lft.to/lastmile_qr_scan"}, "fusion_lat": 0.0, "lat": 38.90570916666667, "is_disabled": 0, "lon": -77.01708533333333, "is_reserved": 0}, {"bike_id": "47211be5e65298def4ff35c2eb32b1d1", "fusion_lon": 0.0, "type": "electric_scooter", "name": "47211be5e65298def4ff35c2eb32b1d1", "rental_uris": {"android": "https://dc.lft.to/lastmile_qr_scan", "ios": "https://dc.lft.to/lastmile_qr_scan"}, "fusion_lat": 0.0, "lat": 38.902405333333334, "is_disabled": 0, "lon": -77.02952833333333, "is_reserved": 0}, {"bike_id": "f6441ada6db92c6aeb5a3c8b4f1c304f", "fusion_lon": 0.0, "type": "electric_scooter", "name": "f6441ada6db92c6aeb5a3c8b4f1c304f", "rental_uris": {"android": "https://dc.lft.to/lastmile_qr_scan", "ios": "https://dc.lft.to/lastmile_qr_scan"}, "fusion_lat": 0.0, "lat": 38.8546245, "is_disabled": 0, "lon": -76.98614883333333, "is_reserved": 0}, {"bike_id": "885f4c9c23577b99eb5788309ad6000a", "fusion_lon": 0.0, "type": "electric_scooter", "name": "885f4c9c23577b99eb5788309ad6000a", "rental_uris": {"android": "https://dc.lft.to/lastmile_qr_scan", "ios": "https://dc.lft.to/lastmile_qr_scan"}, "fusion_lat": 0.0, "lat": 38.91768, "is_disabled": 0, "lon": -77.04060433333333, "is_reserved": 0}, {"bike_id": "32d494915f1158cd93e796e08933abac", "fusion_lon": 0.0, "type": "electric_scooter", "name": "32d494915f1158cd93e796e08933abac", "rental_uris": {"android": "https://dc.lft.to/lastmile_qr_scan", "ios": "https://dc.lft.to/lastmile_qr_scan"}, "fusion_lat": 0.0, "lat": 38.910501333333336, "is_disabled": 0, "lon": -77.0092865, "is_reserved": 0}, {"bike_id": "fa77ddd0d609bc37f18ced7c3c981ce7", "fusion_lon": 0.0, "type": "electric_bike", "name": "fa77ddd0d609bc37f18ced7c3c981ce7", "rental_uris": {"android": "https://dc.lft.to/lastmile_qr_scan", "ios": "https://dc.lft.to/lastmile_qr_scan"}, "fusion_lat": 0.0, "lat": 38.83920616666666, "is_disabled": 0, "lon": -76.998396, "is_reserved": 0}, {"bike_id": "be61d4a382e18f3f1411e82e5321e450", "fusion_lon": 0.0, "type": "electric_scooter", "name": "be61d4a382e18f3f1411e82e5321e450", "rental_uris": {"android": "https://dc.lft.to/lastmile_qr_scan", "ios": "https://dc.lft.to/lastmile_qr_scan"}, "fusion_lat": 0.0, "lat": 38.887420166666665, "is_disabled": 0, "lon": -77.02830333333333, "is_reserved": 0}, {"bike_id": "7df87b72dcaf42f822e2cf6f9ce39fc2", "fusion_lon": 0.0, "type": "electric_bike", "name": "7df87b72dcaf42f822e2cf6f9ce39fc2", "rental_uris": {"android": "https://dc.lft.to/lastmile_qr_scan", "ios": "https://dc.lft.to/lastmile_qr_scan"}, "fusion_lat": 0.0, "lat": 38.919261, "is_disabled": 0, "lon": -77.070538, "is_reserved": 0}, {"bike_id": "f708a59ffe4b1fa918fe1e137212d913", "fusion_lon": 0.0, "type": "electric_scooter", "name": "f708a59ffe4b1fa918fe1e137212d913", "rental_uris": {"android": "https://dc.lft.to/lastmile_qr_scan", "ios": "https://dc.lft.to/lastmile_qr_scan"}, "fusion_lat": 0.0, "lat": 38.903788666666664, "is_disabled": 0, "lon": -76.98022066666667, "is_reserved": 0}, {"bike_id": "83aa44f8c3f4eab5b1a7e93e36547757", "fusion_lon": 0.0, "type": "electric_scooter", "name": "83aa44f8c3f4eab5b1a7e93e36547757", "rental_uris": {"android": "https://dc.lft.to/lastmile_qr_scan", "ios": "https://dc.lft.to/lastmile_qr_scan"}, "fusion_lat": 0.0, "lat": 38.905674166666664, "is_disabled": 0, "lon": -77.01681183333334, "is_reserved": 0}, {"bike_id": "aa971a94dafc034790c8f8cd0c5f96d3", "fusion_lon": 0.0, "type": "electric_scooter", "name": "aa971a94dafc034790c8f8cd0c5f96d3", "rental_uris": {"android": "https://dc.lft.to/lastmile_qr_scan", "ios": "https://dc.lft.to/lastmile_qr_scan"}, "fusion_lat": 0.0, "lat": 38.919271, "is_disabled": 0, "lon": -77.07893716666666, "is_reserved": 0}, {"bike_id": "151425ac55566880f114dce9fefa68b8", "fusion_lon": 0.0, "type": "electric_scooter", "name": "151425ac55566880f114dce9fefa68b8", "rental_uris": {"android": "https://dc.lft.to/lastmile_qr_scan", "ios": "https://dc.lft.to/lastmile_qr_scan"}, "fusion_lat": 0.0, "lat": 38.926437, "is_disabled": 0, "lon": -77.03697, "is_reserved": 0}, {"bike_id": "2b398fee874ef3f972347e02ab36c6dc", "fusion_lon": 0.0, "type": "electric_scooter", "name": "2b398fee874ef3f972347e02ab36c6dc", "rental_uris": {"android": "https://dc.lft.to/lastmile_qr_scan", "ios": "https://dc.lft.to/lastmile_qr_scan"}, "fusion_lat": 0.0, "lat": 38.9170335, "is_disabled": 0, "lon": -77.007966, "is_reserved": 0}, {"bike_id": "8003d1b9e6e9b23e9a863cd9eb985e7a", "fusion_lon": 0.0, "type": "electric_scooter", "name": "8003d1b9e6e9b23e9a863cd9eb985e7a", "rental_uris": {"android": "https://dc.lft.to/lastmile_qr_scan", "ios": "https://dc.lft.to/lastmile_qr_scan"}, "fusion_lat": 0.0, "lat": 38.87245816666667, "is_disabled": 0, "lon": -77.01057283333333, "is_reserved": 0}, {"bike_id": "f9a760a50270f27cad722b92ee2d0b3d", "fusion_lon": 0.0, "type": "electric_scooter", "name": "f9a760a50270f27cad722b92ee2d0b3d", "rental_uris": {"android": "https://dc.lft.to/lastmile_qr_scan", "ios": "https://dc.lft.to/lastmile_qr_scan"}, "fusion_lat": 0.0, "lat": 38.928479833333334, "is_disabled": 0, "lon": -77.0158885, "is_reserved": 0}, {"bike_id": "6f3475ac9f70c2efb6a2175568694e29", "fusion_lon": 0.0, "type": "electric_scooter", "name": "6f3475ac9f70c2efb6a2175568694e29", "rental_uris": {"android": "https://dc.lft.to/lastmile_qr_scan", "ios": "https://dc.lft.to/lastmile_qr_scan"}, "fusion_lat": 0.0, "lat": 38.916802, "is_disabled": 0, "lon": -77.02973183333333, "is_reserved": 0}, {"bike_id": "1b59da0f019da6124064c51ba90d5db0", "fusion_lon": 0.0, "type": "electric_scooter", "name": "1b59da0f019da6124064c51ba90d5db0", "rental_uris": {"android": "https://dc.lft.to/lastmile_qr_scan", "ios": "https://dc.lft.to/lastmile_qr_scan"}, "fusion_lat": 0.0, "lat": 38.916971, "is_disabled": 0, "lon": -77.00524616666667, "is_reserved": 0}, {"bike_id": "1ad992090666a2f8ce6c95f410c5c697", "fusion_lon": 0.0, "type": "electric_scooter", "name": "1ad992090666a2f8ce6c95f410c5c697", "rental_uris": {"android": "https://dc.lft.to/lastmile_qr_scan", "ios": "https://dc.lft.to/lastmile_qr_scan"}, "fusion_lat": 0.0, "lat": 38.93880333333333, "is_disabled": 0, "lon": -77.024822, "is_reserved": 0}, {"bike_id": "a749664e9e5686f417665841c7eb5783", "fusion_lon": 0.0, "type": "electric_scooter", "name": "a749664e9e5686f417665841c7eb5783", "rental_uris": {"android": "https://dc.lft.to/lastmile_qr_scan", "ios": "https://dc.lft.to/lastmile_qr_scan"}, "fusion_lat": 0.0, "lat": 38.918099, "is_disabled": 0, "lon": -77.03439116666667, "is_reserved": 0}, {"bike_id": "dcc937d6bf30102fb587755d83c3967e", "fusion_lon": 0.0, "type": "electric_scooter", "name": "dcc937d6bf30102fb587755d83c3967e", "rental_uris": {"android": "https://dc.lft.to/lastmile_qr_scan", "ios": "https://dc.lft.to/lastmile_qr_scan"}, "fusion_lat": 0.0, "lat": 38.917222, "is_disabled": 0, "lon": -77.03855216666666, "is_reserved": 0}, {"bike_id": "de64d06a4ab7e3a5d2511626a9889650", "fusion_lon": 0.0, "type": "electric_bike", "name": "de64d06a4ab7e3a5d2511626a9889650", "rental_uris": {"android": "https://dc.lft.to/lastmile_qr_scan", "ios": "https://dc.lft.to/lastmile_qr_scan"}, "fusion_lat": 0.0, "lat": 38.8957945, "is_disabled": 0, "lon": -76.9762545, "is_reserved": 0}, {"bike_id": "a950bc988f1b403ad010435f927d7c4d", "fusion_lon": 0.0, "type": "electric_scooter", "name": "a950bc988f1b403ad010435f927d7c4d", "rental_uris": {"android": "https://dc.lft.to/lastmile_qr_scan", "ios": "https://dc.lft.to/lastmile_qr_scan"}, "fusion_lat": 0.0, "lat": 38.8968205, "is_disabled": 0, "lon": -76.94727866666666, "is_reserved": 0}, {"bike_id": "84950fc80a8b27347b02492339e020de", "fusion_lon": 0.0, "type": "electric_scooter", "name": "84950fc80a8b27347b02492339e020de", "rental_uris": {"android": "https://dc.lft.to/lastmile_qr_scan", "ios": "https://dc.lft.to/lastmile_qr_scan"}, "fusion_lat": 0.0, "lat": 38.8429235, "is_disabled": 0, "lon": -76.9994675, "is_reserved": 0}, {"bike_id": "3e98859b9ce8a9047b8adc2e8fc1b0b2", "fusion_lon": 0.0, "type": "electric_scooter", "name": "3e98859b9ce8a9047b8adc2e8fc1b0b2", "rental_uris": {"android": "https://dc.lft.to/lastmile_qr_scan", "ios": "https://dc.lft.to/lastmile_qr_scan"}, "fusion_lat": 0.0, "lat": 38.900459833333336, "is_disabled": 0, "lon": -77.03323183333333, "is_reserved": 0}, {"bike_id": "5106fa16b9470eb1820f2ff842d702e1", "fusion_lon": 0.0, "type": "electric_bike", "name": "5106fa16b9470eb1820f2ff842d702e1", "rental_uris": {"android": "https://dc.lft.to/lastmile_qr_scan", "ios": "https://dc.lft.to/lastmile_qr_scan"}, "fusion_lat": 0.0, "lat": 38.8521065, "is_disabled": 0, "lon": -77.04644816666666, "is_reserved": 0}, {"bike_id": "7b5061a2579c05039cad2f3accc82a30", "fusion_lon": 0.0, "type": "electric_scooter", "name": "7b5061a2579c05039cad2f3accc82a30", "rental_uris": {"android": "https://dc.lft.to/lastmile_qr_scan", "ios": "https://dc.lft.to/lastmile_qr_scan"}, "fusion_lat": 0.0, "lat": 38.91736133333333, "is_disabled": 0, "lon": -77.02286866666667, "is_reserved": 0}, {"bike_id": "96b9eb2f35716e09ca1d77db649f6d92", "fusion_lon": 0.0, "type": "electric_scooter", "name": "96b9eb2f35716e09ca1d77db649f6d92", "rental_uris": {"android": "https://dc.lft.to/lastmile_qr_scan", "ios": "https://dc.lft.to/lastmile_qr_scan"}, "fusion_lat": 0.0, "lat": 38.90406183333333, "is_disabled": 0, "lon": -77.06271783333334, "is_reserved": 0}, {"bike_id": "9a57bd0990df53771859c5cdcdfcb9dd", "fusion_lon": 0.0, "type": "electric_scooter", "name": "9a57bd0990df53771859c5cdcdfcb9dd", "rental_uris": {"android": "https://dc.lft.to/lastmile_qr_scan", "ios": "https://dc.lft.to/lastmile_qr_scan"}, "fusion_lat": 0.0, "lat": 38.885012333333336, "is_disabled": 0, "lon": -77.0056135, "is_reserved": 0}, {"bike_id": "cc5a721a2897a695a4a94f785bb420de", "fusion_lon": 0.0, "type": "electric_scooter", "name": "cc5a721a2897a695a4a94f785bb420de", "rental_uris": {"android": "https://dc.lft.to/lastmile_qr_scan", "ios": "https://dc.lft.to/lastmile_qr_scan"}, "fusion_lat": 0.0, "lat": 38.900946, "is_disabled": 0, "lon": -77.05066066666667, "is_reserved": 0}, {"bike_id": "772b2f268a42a4587a0d89682729aca8", "fusion_lon": 0.0, "type": "electric_bike", "name": "772b2f268a42a4587a0d89682729aca8", "rental_uris": {"android": "https://dc.lft.to/lastmile_qr_scan", "ios": "https://dc.lft.to/lastmile_qr_scan"}, "fusion_lat": 0.0, "lat": 38.974063666666666, "is_disabled": 0, "lon": -77.0250165, "is_reserved": 0}, {"bike_id": "60348f4eb8dc4b07485c52020c998288", "fusion_lon": 0.0, "type": "electric_scooter", "name": "60348f4eb8dc4b07485c52020c998288", "rental_uris": {"android": "https://dc.lft.to/lastmile_qr_scan", "ios": "https://dc.lft.to/lastmile_qr_scan"}, "fusion_lat": 0.0, "lat": 38.89488033333333, "is_disabled": 0, "lon": -77.0111095, "is_reserved": 0}, {"bike_id": "2c66fadbe776e0e1e739682c81853f0e", "fusion_lon": 0.0, "type": "electric_scooter", "name": "2c66fadbe776e0e1e739682c81853f0e", "rental_uris": {"android": "https://dc.lft.to/lastmile_qr_scan", "ios": "https://dc.lft.to/lastmile_qr_scan"}, "fusion_lat": 0.0, "lat": 38.927912, "is_disabled": 0, "lon": -77.03145133333334, "is_reserved": 0}, {"bike_id": "ca31f1e1c81073237cd0a55bf8f88abe", "fusion_lon": 0.0, "type": "electric_scooter", "name": "ca31f1e1c81073237cd0a55bf8f88abe", "rental_uris": {"android": "https://dc.lft.to/lastmile_qr_scan", "ios": "https://dc.lft.to/lastmile_qr_scan"}, "fusion_lat": 0.0, "lat": 38.93254833333334, "is_disabled": 0, "lon": -77.03879566666667, "is_reserved": 0}, {"bike_id": "5ba85270a0143d9e8beb219d91a3781b", "fusion_lon": 0.0, "type": "electric_scooter", "name": "5ba85270a0143d9e8beb219d91a3781b", "rental_uris": {"android": "https://dc.lft.to/lastmile_qr_scan", "ios": "https://dc.lft.to/lastmile_qr_scan"}, "fusion_lat": 0.0, "lat": 38.87780766666667, "is_disabled": 0, "lon": -77.014407, "is_reserved": 0}, {"bike_id": "9ce7ce1728a837027bd27bb14014af38", "fusion_lon": 0.0, "type": "electric_scooter", "name": "9ce7ce1728a837027bd27bb14014af38", "rental_uris": {"android": "https://dc.lft.to/lastmile_qr_scan", "ios": "https://dc.lft.to/lastmile_qr_scan"}, "fusion_lat": 0.0, "lat": 38.901952333333334, "is_disabled": 0, "lon": -77.02370566666667, "is_reserved": 0}, {"bike_id": "95880e9276e09de9a112afa98bf0ca8b", "fusion_lon": 0.0, "type": "electric_scooter", "name": "95880e9276e09de9a112afa98bf0ca8b", "rental_uris": {"android": "https://dc.lft.to/lastmile_qr_scan", "ios": "https://dc.lft.to/lastmile_qr_scan"}, "fusion_lat": 0.0, "lat": 38.883016833333336, "is_disabled": 0, "lon": -76.94853233333333, "is_reserved": 0}, {"bike_id": "6cebf85240d6def687d4fd3641db4807", "fusion_lon": 0.0, "type": "electric_scooter", "name": "6cebf85240d6def687d4fd3641db4807", "rental_uris": {"android": "https://dc.lft.to/lastmile_qr_scan", "ios": "https://dc.lft.to/lastmile_qr_scan"}, "fusion_lat": 0.0, "lat": 38.844977166666666, "is_disabled": 0, "lon": -76.987512, "is_reserved": 0}, {"bike_id": "f69f36b8f645b4b8d84f331a1bcf22a2", "fusion_lon": 0.0, "type": "electric_scooter", "name": "f69f36b8f645b4b8d84f331a1bcf22a2", "rental_uris": {"android": "https://dc.lft.to/lastmile_qr_scan", "ios": "https://dc.lft.to/lastmile_qr_scan"}, "fusion_lat": 0.0, "lat": 38.929123833333335, "is_disabled": 0, "lon": -77.036419, "is_reserved": 0}, {"bike_id": "e1d49e6cd0d47da193d140ecd085772e", "fusion_lon": 0.0, "type": "electric_scooter", "name": "e1d49e6cd0d47da193d140ecd085772e", "rental_uris": {"android": "https://dc.lft.to/lastmile_qr_scan", "ios": "https://dc.lft.to/lastmile_qr_scan"}, "fusion_lat": 0.0, "lat": 38.91175583333333, "is_disabled": 0, "lon": -77.03664066666667, "is_reserved": 0}, {"bike_id": "aab3471335e534355d28039f918259e8", "fusion_lon": 0.0, "type": "electric_scooter", "name": "aab3471335e534355d28039f918259e8", "rental_uris": {"android": "https://dc.lft.to/lastmile_qr_scan", "ios": "https://dc.lft.to/lastmile_qr_scan"}, "fusion_lat": 0.0, "lat": 38.89222766666666, "is_disabled": 0, "lon": -77.02629883333333, "is_reserved": 0}, {"bike_id": "ac9f218777d8801c71835858f4463dce", "fusion_lon": 0.0, "type": "electric_bike", "name": "ac9f218777d8801c71835858f4463dce", "rental_uris": {"android": "https://dc.lft.to/lastmile_qr_scan", "ios": "https://dc.lft.to/lastmile_qr_scan"}, "fusion_lat": 0.0, "lat": 39.05348, "is_disabled": 0, "lon": -77.1359725, "is_reserved": 0}, {"bike_id": "bd90656533163cdc053c59ba1282ea6a", "fusion_lon": 0.0, "type": "electric_bike", "name": "bd90656533163cdc053c59ba1282ea6a", "rental_uris": {"android": "https://dc.lft.to/lastmile_qr_scan", "ios": "https://dc.lft.to/lastmile_qr_scan"}, "fusion_lat": 0.0, "lat": 38.843385, "is_disabled": 0, "lon": -77.06426066666667, "is_reserved": 0}, {"bike_id": "ef008eaea66787348926bdb033fab9d2", "fusion_lon": 0.0, "type": "electric_scooter", "name": "ef008eaea66787348926bdb033fab9d2", "rental_uris": {"android": "https://dc.lft.to/lastmile_qr_scan", "ios": "https://dc.lft.to/lastmile_qr_scan"}, "fusion_lat": 0.0, "lat": 38.9287095, "is_disabled": 0, "lon": -77.03471266666666, "is_reserved": 0}, {"bike_id": "944e2d8aa4cd5906874cc213d6b37a13", "fusion_lon": 0.0, "type": "electric_bike", "name": "944e2d8aa4cd5906874cc213d6b37a13", "rental_uris": {"android": "https://dc.lft.to/lastmile_qr_scan", "ios": "https://dc.lft.to/lastmile_qr_scan"}, "fusion_lat": 0.0, "lat": 38.96761883333333, "is_disabled": 0, "lon": -77.09162583333334, "is_reserved": 0}, {"bike_id": "a67e2e85dd52e42ef0e24798a742bcf3", "fusion_lon": 0.0, "type": "electric_scooter", "name": "a67e2e85dd52e42ef0e24798a742bcf3", "rental_uris": {"android": "https://dc.lft.to/lastmile_qr_scan", "ios": "https://dc.lft.to/lastmile_qr_scan"}, "fusion_lat": 0.0, "lat": 38.855290833333335, "is_disabled": 0, "lon": -76.969183, "is_reserved": 0}, {"bike_id": "aaa0e95acc18c0799d4062770b420528", "fusion_lon": 0.0, "type": "electric_scooter", "name": "aaa0e95acc18c0799d4062770b420528", "rental_uris": {"android": "https://dc.lft.to/lastmile_qr_scan", "ios": "https://dc.lft.to/lastmile_qr_scan"}, "fusion_lat": 0.0, "lat": 38.912645833333336, "is_disabled": 0, "lon": -77.03262866666667, "is_reserved": 0}, {"bike_id": "0e458bdd8ade81f12cffadee24e86c5c", "fusion_lon": 0.0, "type": "electric_scooter", "name": "0e458bdd8ade81f12cffadee24e86c5c", "rental_uris": {"android": "https://dc.lft.to/lastmile_qr_scan", "ios": "https://dc.lft.to/lastmile_qr_scan"}, "fusion_lat": 0.0, "lat": 38.93235466666667, "is_disabled": 0, "lon": -77.03869766666666, "is_reserved": 0}, {"bike_id": "9fe582d832b14f1a97b61de7c6a45b6c", "fusion_lon": 0.0, "type": "electric_scooter", "name": "9fe582d832b14f1a97b61de7c6a45b6c", "rental_uris": {"android": "https://dc.lft.to/lastmile_qr_scan", "ios": "https://dc.lft.to/lastmile_qr_scan"}, "fusion_lat": 0.0, "lat": 38.973778, "is_disabled": 0, "lon": -77.03120266666667, "is_reserved": 0}, {"bike_id": "6adfcf718559fdc9b9df69456f1d5b4e", "fusion_lon": 0.0, "type": "electric_scooter", "name": "6adfcf718559fdc9b9df69456f1d5b4e", "rental_uris": {"android": "https://dc.lft.to/lastmile_qr_scan", "ios": "https://dc.lft.to/lastmile_qr_scan"}, "fusion_lat": 0.0, "lat": 38.937016166666666, "is_disabled": 0, "lon": -77.05595266666667, "is_reserved": 0}, {"bike_id": "104175782191a5bceedd92aa7693298a", "fusion_lon": 0.0, "type": "electric_scooter", "name": "104175782191a5bceedd92aa7693298a", "rental_uris": {"android": "https://dc.lft.to/lastmile_qr_scan", "ios": "https://dc.lft.to/lastmile_qr_scan"}, "fusion_lat": 0.0, "lat": 38.91037883333333, "is_disabled": 0, "lon": -77.03382183333333, "is_reserved": 0}, {"bike_id": "7d8c31fc68b1194fbf410fa6f76947be", "fusion_lon": 0.0, "type": "electric_bike", "name": "7d8c31fc68b1194fbf410fa6f76947be", "rental_uris": {"android": "https://dc.lft.to/lastmile_qr_scan", "ios": "https://dc.lft.to/lastmile_qr_scan"}, "fusion_lat": 0.0, "lat": 38.96201116666667, "is_disabled": 0, "lon": -77.02616483333334, "is_reserved": 0}, {"bike_id": "fd308a12fd9b8cbb099ee5dd780b4e17", "fusion_lon": 0.0, "type": "electric_bike", "name": "fd308a12fd9b8cbb099ee5dd780b4e17", "rental_uris": {"android": "https://dc.lft.to/lastmile_qr_scan", "ios": "https://dc.lft.to/lastmile_qr_scan"}, "fusion_lat": 0.0, "lat": 38.916791833333335, "is_disabled": 0, "lon": -77.02406966666666, "is_reserved": 0}, {"bike_id": "988a482b41ef99c9787e531e2b4e645e", "fusion_lon": 0.0, "type": "electric_scooter", "name": "988a482b41ef99c9787e531e2b4e645e", "rental_uris": {"android": "https://dc.lft.to/lastmile_qr_scan", "ios": "https://dc.lft.to/lastmile_qr_scan"}, "fusion_lat": 0.0, "lat": 38.92498833333333, "is_disabled": 0, "lon": -77.02149233333333, "is_reserved": 0}, {"bike_id": "264526e70383fc0f7a89c75c3ba2f949", "fusion_lon": 0.0, "type": "electric_scooter", "name": "264526e70383fc0f7a89c75c3ba2f949", "rental_uris": {"android": "https://dc.lft.to/lastmile_qr_scan", "ios": "https://dc.lft.to/lastmile_qr_scan"}, "fusion_lat": 0.0, "lat": 38.88365183333333, "is_disabled": 0, "lon": -77.02335016666666, "is_reserved": 0}, {"bike_id": "2d703efa5945eb2aa366bd77763bd2a2", "fusion_lon": 0.0, "type": "electric_scooter", "name": "2d703efa5945eb2aa366bd77763bd2a2", "rental_uris": {"android": "https://dc.lft.to/lastmile_qr_scan", "ios": "https://dc.lft.to/lastmile_qr_scan"}, "fusion_lat": 0.0, "lat": 38.874285, "is_disabled": 0, "lon": -77.0440635, "is_reserved": 0}, {"bike_id": "f8f039320a3cf8f76b2695801adef786", "fusion_lon": 0.0, "type": "electric_scooter", "name": "f8f039320a3cf8f76b2695801adef786", "rental_uris": {"android": "https://dc.lft.to/lastmile_qr_scan", "ios": "https://dc.lft.to/lastmile_qr_scan"}, "fusion_lat": 0.0, "lat": 38.91176166666666, "is_disabled": 0, "lon": -77.03866066666667, "is_reserved": 0}, {"bike_id": "e4301acad10dd32a253babe71d2b3afd", "fusion_lon": 0.0, "type": "electric_scooter", "name": "e4301acad10dd32a253babe71d2b3afd", "rental_uris": {"android": "https://dc.lft.to/lastmile_qr_scan", "ios": "https://dc.lft.to/lastmile_qr_scan"}, "fusion_lat": 0.0, "lat": 38.930726666666665, "is_disabled": 0, "lon": -77.03263, "is_reserved": 0}, {"bike_id": "07728889ac7a7f57c150d1e06dc6baba", "fusion_lon": 0.0, "type": "electric_scooter", "name": "07728889ac7a7f57c150d1e06dc6baba", "rental_uris": {"android": "https://dc.lft.to/lastmile_qr_scan", "ios": "https://dc.lft.to/lastmile_qr_scan"}, "fusion_lat": 0.0, "lat": 38.903551, "is_disabled": 0, "lon": -77.03444783333333, "is_reserved": 0}, {"bike_id": "dc0cd64927fe6df7e070ab08a9e7d592", "fusion_lon": 0.0, "type": "electric_scooter", "name": "dc0cd64927fe6df7e070ab08a9e7d592", "rental_uris": {"android": "https://dc.lft.to/lastmile_qr_scan", "ios": "https://dc.lft.to/lastmile_qr_scan"}, "fusion_lat": 0.0, "lat": 38.90052433333334, "is_disabled": 0, "lon": -77.01322066666667, "is_reserved": 0}, {"bike_id": "767be3aa8cccbaf9c69942a84fb4a6b9", "fusion_lon": 0.0, "type": "electric_scooter", "name": "767be3aa8cccbaf9c69942a84fb4a6b9", "rental_uris": {"android": "https://dc.lft.to/lastmile_qr_scan", "ios": "https://dc.lft.to/lastmile_qr_scan"}, "fusion_lat": 0.0, "lat": 38.95972716666667, "is_disabled": 0, "lon": -77.00730333333334, "is_reserved": 0}, {"bike_id": "72cd9fd36ca7641da631164aa3cb7680", "fusion_lon": 0.0, "type": "electric_bike", "name": "72cd9fd36ca7641da631164aa3cb7680", "rental_uris": {"android": "https://dc.lft.to/lastmile_qr_scan", "ios": "https://dc.lft.to/lastmile_qr_scan"}, "fusion_lat": 0.0, "lat": 38.87677816666667, "is_disabled": 0, "lon": -77.014583, "is_reserved": 0}, {"bike_id": "594cb9ff1f2c9f7bfd142c9ee25bb316", "fusion_lon": 0.0, "type": "electric_scooter", "name": "594cb9ff1f2c9f7bfd142c9ee25bb316", "rental_uris": {"android": "https://dc.lft.to/lastmile_qr_scan", "ios": "https://dc.lft.to/lastmile_qr_scan"}, "fusion_lat": 0.0, "lat": 38.9496765, "is_disabled": 0, "lon": -77.0676445, "is_reserved": 0}, {"bike_id": "f7b5fa2fae9085171eb54207dc5a3950", "fusion_lon": 0.0, "type": "electric_scooter", "name": "f7b5fa2fae9085171eb54207dc5a3950", "rental_uris": {"android": "https://dc.lft.to/lastmile_qr_scan", "ios": "https://dc.lft.to/lastmile_qr_scan"}, "fusion_lat": 0.0, "lat": 38.922228, "is_disabled": 0, "lon": -77.042404, "is_reserved": 0}, {"bike_id": "32dcc2f24f02add89fbc6fcbe98c35c4", "fusion_lon": 0.0, "type": "electric_bike", "name": "32dcc2f24f02add89fbc6fcbe98c35c4", "rental_uris": {"android": "https://dc.lft.to/lastmile_qr_scan", "ios": "https://dc.lft.to/lastmile_qr_scan"}, "fusion_lat": 0.0, "lat": 38.84481233333333, "is_disabled": 0, "lon": -76.9721975, "is_reserved": 0}, {"bike_id": "413d5249cae679bedc6ec4a1a64292c2", "fusion_lon": 0.0, "type": "electric_bike", "name": "413d5249cae679bedc6ec4a1a64292c2", "rental_uris": {"android": "https://dc.lft.to/lastmile_qr_scan", "ios": "https://dc.lft.to/lastmile_qr_scan"}, "fusion_lat": 0.0, "lat": 38.92223933333333, "is_disabled": 0, "lon": -77.02238, "is_reserved": 0}, {"bike_id": "97b6ddabcac97f74edd3c30c5ca48510", "fusion_lon": 0.0, "type": "electric_scooter", "name": "97b6ddabcac97f74edd3c30c5ca48510", "rental_uris": {"android": "https://dc.lft.to/lastmile_qr_scan", "ios": "https://dc.lft.to/lastmile_qr_scan"}, "fusion_lat": 0.0, "lat": 38.919732833333335, "is_disabled": 0, "lon": -77.01811283333333, "is_reserved": 0}, {"bike_id": "4f5b47b535de9f989bf1894911c32f67", "fusion_lon": 0.0, "type": "electric_scooter", "name": "4f5b47b535de9f989bf1894911c32f67", "rental_uris": {"android": "https://dc.lft.to/lastmile_qr_scan", "ios": "https://dc.lft.to/lastmile_qr_scan"}, "fusion_lat": 0.0, "lat": 38.90014566666667, "is_disabled": 0, "lon": -76.99126516666666, "is_reserved": 0}, {"bike_id": "ab38131a2476ef8d2f065490b2221c2a", "fusion_lon": 0.0, "type": "electric_bike", "name": "ab38131a2476ef8d2f065490b2221c2a", "rental_uris": {"android": "https://dc.lft.to/lastmile_qr_scan", "ios": "https://dc.lft.to/lastmile_qr_scan"}, "fusion_lat": 0.0, "lat": 38.8460435, "is_disabled": 0, "lon": -76.96878716666667, "is_reserved": 0}, {"bike_id": "1458d95fdb2abda57d2d9861739efe60", "fusion_lon": 0.0, "type": "electric_scooter", "name": "1458d95fdb2abda57d2d9861739efe60", "rental_uris": {"android": "https://dc.lft.to/lastmile_qr_scan", "ios": "https://dc.lft.to/lastmile_qr_scan"}, "fusion_lat": 0.0, "lat": 38.9242215, "is_disabled": 0, "lon": -77.03639566666666, "is_reserved": 0}, {"bike_id": "a2d306576607c3a41d84afae008cdae4", "fusion_lon": 0.0, "type": "electric_scooter", "name": "a2d306576607c3a41d84afae008cdae4", "rental_uris": {"android": "https://dc.lft.to/lastmile_qr_scan", "ios": "https://dc.lft.to/lastmile_qr_scan"}, "fusion_lat": 0.0, "lat": 38.90276516666667, "is_disabled": 0, "lon": -77.00917533333333, "is_reserved": 0}, {"bike_id": "1521581c79b85dd2f41f20238306e6c3", "fusion_lon": 0.0, "type": "electric_scooter", "name": "1521581c79b85dd2f41f20238306e6c3", "rental_uris": {"android": "https://dc.lft.to/lastmile_qr_scan", "ios": "https://dc.lft.to/lastmile_qr_scan"}, "fusion_lat": 0.0, "lat": 38.9386315, "is_disabled": 0, "lon": -77.02664116666666, "is_reserved": 0}, {"bike_id": "6ef992b4b8863d195174cf304ae92c9b", "fusion_lon": 0.0, "type": "electric_bike", "name": "6ef992b4b8863d195174cf304ae92c9b", "rental_uris": {"android": "https://dc.lft.to/lastmile_qr_scan", "ios": "https://dc.lft.to/lastmile_qr_scan"}, "fusion_lat": 0.0, "lat": 38.85424783333333, "is_disabled": 0, "lon": -76.9096115, "is_reserved": 0}, {"bike_id": "ee9b51aad392aba6e6d20cf24becc2a8", "fusion_lon": 0.0, "type": "electric_scooter", "name": "ee9b51aad392aba6e6d20cf24becc2a8", "rental_uris": {"android": "https://dc.lft.to/lastmile_qr_scan", "ios": "https://dc.lft.to/lastmile_qr_scan"}, "fusion_lat": 0.0, "lat": 38.895311166666666, "is_disabled": 0, "lon": -77.03349566666667, "is_reserved": 0}, {"bike_id": "490ab85b96deccb2a2ed98becc61e7c7", "fusion_lon": 0.0, "type": "electric_scooter", "name": "490ab85b96deccb2a2ed98becc61e7c7", "rental_uris": {"android": "https://dc.lft.to/lastmile_qr_scan", "ios": "https://dc.lft.to/lastmile_qr_scan"}, "fusion_lat": 0.0, "lat": 38.8874475, "is_disabled": 0, "lon": -77.0186775, "is_reserved": 0}, {"bike_id": "bcb57ff3ceff3bff8375a8a8a5b0d2ef", "fusion_lon": 0.0, "type": "electric_scooter", "name": "bcb57ff3ceff3bff8375a8a8a5b0d2ef", "rental_uris": {"android": "https://dc.lft.to/lastmile_qr_scan", "ios": "https://dc.lft.to/lastmile_qr_scan"}, "fusion_lat": 0.0, "lat": 38.909448, "is_disabled": 0, "lon": -77.02694133333334, "is_reserved": 0}, {"bike_id": "e7ba5b4c2f31316e954f58cd7e747299", "fusion_lon": 0.0, "type": "electric_scooter", "name": "e7ba5b4c2f31316e954f58cd7e747299", "rental_uris": {"android": "https://dc.lft.to/lastmile_qr_scan", "ios": "https://dc.lft.to/lastmile_qr_scan"}, "fusion_lat": 0.0, "lat": 38.909532166666665, "is_disabled": 0, "lon": -77.0237125, "is_reserved": 0}, {"bike_id": "75fa7217b640c05a590a0d5c37aec9d9", "fusion_lon": 0.0, "type": "electric_scooter", "name": "75fa7217b640c05a590a0d5c37aec9d9", "rental_uris": {"android": "https://dc.lft.to/lastmile_qr_scan", "ios": "https://dc.lft.to/lastmile_qr_scan"}, "fusion_lat": 0.0, "lat": 38.930618833333334, "is_disabled": 0, "lon": -77.04180833333334, "is_reserved": 0}, {"bike_id": "b255020ad8573029efba4a113ef30078", "fusion_lon": 0.0, "type": "electric_scooter", "name": "b255020ad8573029efba4a113ef30078", "rental_uris": {"android": "https://dc.lft.to/lastmile_qr_scan", "ios": "https://dc.lft.to/lastmile_qr_scan"}, "fusion_lat": 0.0, "lat": 38.90004583333333, "is_disabled": 0, "lon": -77.00189616666667, "is_reserved": 0}, {"bike_id": "1867cd37102844a2c7a8edd7e7f35d05", "fusion_lon": 0.0, "type": "electric_scooter", "name": "1867cd37102844a2c7a8edd7e7f35d05", "rental_uris": {"android": "https://dc.lft.to/lastmile_qr_scan", "ios": "https://dc.lft.to/lastmile_qr_scan"}, "fusion_lat": 0.0, "lat": 38.917106833333335, "is_disabled": 0, "lon": -77.03214183333333, "is_reserved": 0}, {"bike_id": "1a3de82d912ddeff59ac7208ea02c14e", "fusion_lon": 0.0, "type": "electric_scooter", "name": "1a3de82d912ddeff59ac7208ea02c14e", "rental_uris": {"android": "https://dc.lft.to/lastmile_qr_scan", "ios": "https://dc.lft.to/lastmile_qr_scan"}, "fusion_lat": 0.0, "lat": 38.917872833333334, "is_disabled": 0, "lon": -76.97339416666667, "is_reserved": 0}, {"bike_id": "082ea679f48d1ce57e687388a3168c8a", "fusion_lon": 0.0, "type": "electric_scooter", "name": "082ea679f48d1ce57e687388a3168c8a", "rental_uris": {"android": "https://dc.lft.to/lastmile_qr_scan", "ios": "https://dc.lft.to/lastmile_qr_scan"}, "fusion_lat": 0.0, "lat": 38.9181585, "is_disabled": 0, "lon": -77.02485916666667, "is_reserved": 0}, {"bike_id": "3484a84e3ecffbd89f2e00ba00cb73d9", "fusion_lon": 0.0, "type": "electric_bike", "name": "3484a84e3ecffbd89f2e00ba00cb73d9", "rental_uris": {"android": "https://dc.lft.to/lastmile_qr_scan", "ios": "https://dc.lft.to/lastmile_qr_scan"}, "fusion_lat": 0.0, "lat": 39.099402166666664, "is_disabled": 0, "lon": -77.1879475, "is_reserved": 0}, {"bike_id": "d659561798c3bf5a43d5cd6fa14d7fac", "fusion_lon": 0.0, "type": "electric_bike", "name": "d659561798c3bf5a43d5cd6fa14d7fac", "rental_uris": {"android": "https://dc.lft.to/lastmile_qr_scan", "ios": "https://dc.lft.to/lastmile_qr_scan"}, "fusion_lat": 0.0, "lat": 38.99966, "is_disabled": 0, "lon": -77.0512, "is_reserved": 0}, {"bike_id": "37a9014a40aae105cb097fcde5be98b7", "fusion_lon": 0.0, "type": "electric_scooter", "name": "37a9014a40aae105cb097fcde5be98b7", "rental_uris": {"android": "https://dc.lft.to/lastmile_qr_scan", "ios": "https://dc.lft.to/lastmile_qr_scan"}, "fusion_lat": 0.0, "lat": 38.877055666666664, "is_disabled": 0, "lon": -77.00292133333333, "is_reserved": 0}, {"bike_id": "b47bb5889157077571958dcaedb1440e", "fusion_lon": 0.0, "type": "electric_bike", "name": "b47bb5889157077571958dcaedb1440e", "rental_uris": {"android": "https://dc.lft.to/lastmile_qr_scan", "ios": "https://dc.lft.to/lastmile_qr_scan"}, "fusion_lat": 0.0, "lat": 39.00382583333333, "is_disabled": 0, "lon": -77.01298716666666, "is_reserved": 0}, {"bike_id": "894ac34f4cba951d7af2cd3378944db2", "fusion_lon": 0.0, "type": "electric_scooter", "name": "894ac34f4cba951d7af2cd3378944db2", "rental_uris": {"android": "https://dc.lft.to/lastmile_qr_scan", "ios": "https://dc.lft.to/lastmile_qr_scan"}, "fusion_lat": 0.0, "lat": 38.90354716666667, "is_disabled": 0, "lon": -77.01123916666667, "is_reserved": 0}, {"bike_id": "1f342277514ac21c1cf7dff23c9c0748", "fusion_lon": 0.0, "type": "electric_bike", "name": "1f342277514ac21c1cf7dff23c9c0748", "rental_uris": {"android": "https://dc.lft.to/lastmile_qr_scan", "ios": "https://dc.lft.to/lastmile_qr_scan"}, "fusion_lat": 0.0, "lat": 38.8584565, "is_disabled": 0, "lon": -77.09749583333334, "is_reserved": 0}, {"bike_id": "2f5c60d4d471f7317c76547c66e532b1", "fusion_lon": 0.0, "type": "electric_scooter", "name": "2f5c60d4d471f7317c76547c66e532b1", "rental_uris": {"android": "https://dc.lft.to/lastmile_qr_scan", "ios": "https://dc.lft.to/lastmile_qr_scan"}, "fusion_lat": 0.0, "lat": 38.91335, "is_disabled": 0, "lon": -77.04837416666666, "is_reserved": 0}, {"bike_id": "1e25c8074533a5887104522a3b75b787", "fusion_lon": 0.0, "type": "electric_scooter", "name": "1e25c8074533a5887104522a3b75b787", "rental_uris": {"android": "https://dc.lft.to/lastmile_qr_scan", "ios": "https://dc.lft.to/lastmile_qr_scan"}, "fusion_lat": 0.0, "lat": 38.89228766666667, "is_disabled": 0, "lon": -77.02546416666667, "is_reserved": 0}, {"bike_id": "75412cfdd8af551eaee2fab7c9344d52", "fusion_lon": 0.0, "type": "electric_scooter", "name": "75412cfdd8af551eaee2fab7c9344d52", "rental_uris": {"android": "https://dc.lft.to/lastmile_qr_scan", "ios": "https://dc.lft.to/lastmile_qr_scan"}, "fusion_lat": 0.0, "lat": 38.9152, "is_disabled": 0, "lon": -77.03190983333333, "is_reserved": 0}, {"bike_id": "b79580a7bb9b4634c6fca404d296cda8", "fusion_lon": 0.0, "type": "electric_scooter", "name": "b79580a7bb9b4634c6fca404d296cda8", "rental_uris": {"android": "https://dc.lft.to/lastmile_qr_scan", "ios": "https://dc.lft.to/lastmile_qr_scan"}, "fusion_lat": 0.0, "lat": 38.89486983333333, "is_disabled": 0, "lon": -76.9484175, "is_reserved": 0}, {"bike_id": "e034c626a2560f16c0586cae882f438b", "fusion_lon": 0.0, "type": "electric_scooter", "name": "e034c626a2560f16c0586cae882f438b", "rental_uris": {"android": "https://dc.lft.to/lastmile_qr_scan", "ios": "https://dc.lft.to/lastmile_qr_scan"}, "fusion_lat": 0.0, "lat": 38.900351, "is_disabled": 0, "lon": -76.9962735, "is_reserved": 0}, {"bike_id": "cf9af3355031c7859cdda00be9825ec3", "fusion_lon": 0.0, "type": "electric_scooter", "name": "cf9af3355031c7859cdda00be9825ec3", "rental_uris": {"android": "https://dc.lft.to/lastmile_qr_scan", "ios": "https://dc.lft.to/lastmile_qr_scan"}, "fusion_lat": 0.0, "lat": 38.906763166666664, "is_disabled": 0, "lon": -77.02706766666667, "is_reserved": 0}, {"bike_id": "d916c59fd08cffc3e8ff724dead13e79", "fusion_lon": 0.0, "type": "electric_scooter", "name": "d916c59fd08cffc3e8ff724dead13e79", "rental_uris": {"android": "https://dc.lft.to/lastmile_qr_scan", "ios": "https://dc.lft.to/lastmile_qr_scan"}, "fusion_lat": 0.0, "lat": 38.88594666666667, "is_disabled": 0, "lon": -77.017217, "is_reserved": 0}, {"bike_id": "bf7181c2b74bbfd5baf524eb47a3f651", "fusion_lon": 0.0, "type": "electric_scooter", "name": "bf7181c2b74bbfd5baf524eb47a3f651", "rental_uris": {"android": "https://dc.lft.to/lastmile_qr_scan", "ios": "https://dc.lft.to/lastmile_qr_scan"}, "fusion_lat": 0.0, "lat": 38.917816, "is_disabled": 0, "lon": -77.02309416666667, "is_reserved": 0}, {"bike_id": "b422725f9a475cf19e59f115a7166406", "fusion_lon": 0.0, "type": "electric_scooter", "name": "b422725f9a475cf19e59f115a7166406", "rental_uris": {"android": "https://dc.lft.to/lastmile_qr_scan", "ios": "https://dc.lft.to/lastmile_qr_scan"}, "fusion_lat": 0.0, "lat": 38.90843733333333, "is_disabled": 0, "lon": -77.03352566666666, "is_reserved": 0}, {"bike_id": "72e80f4419343fce6b20feace4452098", "fusion_lon": 0.0, "type": "electric_scooter", "name": "72e80f4419343fce6b20feace4452098", "rental_uris": {"android": "https://dc.lft.to/lastmile_qr_scan", "ios": "https://dc.lft.to/lastmile_qr_scan"}, "fusion_lat": 0.0, "lat": 38.87711483333333, "is_disabled": 0, "lon": -77.006096, "is_reserved": 0}, {"bike_id": "58c30ea9232cd4e755650f9ef157b03a", "fusion_lon": 0.0, "type": "electric_scooter", "name": "58c30ea9232cd4e755650f9ef157b03a", "rental_uris": {"android": "https://dc.lft.to/lastmile_qr_scan", "ios": "https://dc.lft.to/lastmile_qr_scan"}, "fusion_lat": 0.0, "lat": 38.89970233333333, "is_disabled": 0, "lon": -77.03350633333334, "is_reserved": 0}, {"bike_id": "d8b9b2f58dfe93cc17aedc5ce6451f33", "fusion_lon": 0.0, "type": "electric_scooter", "name": "d8b9b2f58dfe93cc17aedc5ce6451f33", "rental_uris": {"android": "https://dc.lft.to/lastmile_qr_scan", "ios": "https://dc.lft.to/lastmile_qr_scan"}, "fusion_lat": 0.0, "lat": 38.9235445, "is_disabled": 0, "lon": -77.0405915, "is_reserved": 0}, {"bike_id": "2a8905909b2365e62ef4861f4f695e94", "fusion_lon": 0.0, "type": "electric_scooter", "name": "2a8905909b2365e62ef4861f4f695e94", "rental_uris": {"android": "https://dc.lft.to/lastmile_qr_scan", "ios": "https://dc.lft.to/lastmile_qr_scan"}, "fusion_lat": 0.0, "lat": 38.9170995, "is_disabled": 0, "lon": -77.0321345, "is_reserved": 0}, {"bike_id": "d31ead9ef8ca3e9db71b88503a292df1", "fusion_lon": 0.0, "type": "electric_scooter", "name": "d31ead9ef8ca3e9db71b88503a292df1", "rental_uris": {"android": "https://dc.lft.to/lastmile_qr_scan", "ios": "https://dc.lft.to/lastmile_qr_scan"}, "fusion_lat": 0.0, "lat": 38.913221, "is_disabled": 0, "lon": -77.01686383333333, "is_reserved": 0}, {"bike_id": "1ddac3232693b6cd0b6724103c93fa22", "fusion_lon": 0.0, "type": "electric_scooter", "name": "1ddac3232693b6cd0b6724103c93fa22", "rental_uris": {"android": "https://dc.lft.to/lastmile_qr_scan", "ios": "https://dc.lft.to/lastmile_qr_scan"}, "fusion_lat": 0.0, "lat": 38.875495666666666, "is_disabled": 0, "lon": -76.96488966666666, "is_reserved": 0}, {"bike_id": "bdde35699ed72f48b9c4d2480549d721", "fusion_lon": 0.0, "type": "electric_bike", "name": "bdde35699ed72f48b9c4d2480549d721", "rental_uris": {"android": "https://dc.lft.to/lastmile_qr_scan", "ios": "https://dc.lft.to/lastmile_qr_scan"}, "fusion_lat": 0.0, "lat": 38.827282, "is_disabled": 0, "lon": -77.00860333333334, "is_reserved": 0}, {"bike_id": "477db504561d7b686ad0c59336b3ffbc", "fusion_lon": 0.0, "type": "electric_scooter", "name": "477db504561d7b686ad0c59336b3ffbc", "rental_uris": {"android": "https://dc.lft.to/lastmile_qr_scan", "ios": "https://dc.lft.to/lastmile_qr_scan"}, "fusion_lat": 0.0, "lat": 38.855898, "is_disabled": 0, "lon": -76.9855565, "is_reserved": 0}, {"bike_id": "435dbb28c2c2bf64e67defb1ce11f65c", "fusion_lon": 0.0, "type": "electric_scooter", "name": "435dbb28c2c2bf64e67defb1ce11f65c", "rental_uris": {"android": "https://dc.lft.to/lastmile_qr_scan", "ios": "https://dc.lft.to/lastmile_qr_scan"}, "fusion_lat": 0.0, "lat": 38.934835166666666, "is_disabled": 0, "lon": -77.0727035, "is_reserved": 0}, {"bike_id": "7e78781dc912b41605ff460a52f9f834", "fusion_lon": 0.0, "type": "electric_scooter", "name": "7e78781dc912b41605ff460a52f9f834", "rental_uris": {"android": "https://dc.lft.to/lastmile_qr_scan", "ios": "https://dc.lft.to/lastmile_qr_scan"}, "fusion_lat": 0.0, "lat": 38.9087385, "is_disabled": 0, "lon": -77.03456983333334, "is_reserved": 0}, {"bike_id": "12c1cea16b052b1220c69dcca25135b0", "fusion_lon": 0.0, "type": "electric_scooter", "name": "12c1cea16b052b1220c69dcca25135b0", "rental_uris": {"android": "https://dc.lft.to/lastmile_qr_scan", "ios": "https://dc.lft.to/lastmile_qr_scan"}, "fusion_lat": 0.0, "lat": 38.900357166666666, "is_disabled": 0, "lon": -77.0261365, "is_reserved": 0}, {"bike_id": "0d8358d7d28a7a952d2543a115be6fb2", "fusion_lon": 0.0, "type": "electric_scooter", "name": "0d8358d7d28a7a952d2543a115be6fb2", "rental_uris": {"android": "https://dc.lft.to/lastmile_qr_scan", "ios": "https://dc.lft.to/lastmile_qr_scan"}, "fusion_lat": 0.0, "lat": 38.943236, "is_disabled": 0, "lon": -77.0736845, "is_reserved": 0}, {"bike_id": "ddc5a59a5c62578227eddfcf7216a329", "fusion_lon": 0.0, "type": "electric_scooter", "name": "ddc5a59a5c62578227eddfcf7216a329", "rental_uris": {"android": "https://dc.lft.to/lastmile_qr_scan", "ios": "https://dc.lft.to/lastmile_qr_scan"}, "fusion_lat": 0.0, "lat": 38.908377, "is_disabled": 0, "lon": -77.03665816666667, "is_reserved": 0}, {"bike_id": "cf0ea4867b0f2fedf055de065946acd1", "fusion_lon": 0.0, "type": "electric_scooter", "name": "cf0ea4867b0f2fedf055de065946acd1", "rental_uris": {"android": "https://dc.lft.to/lastmile_qr_scan", "ios": "https://dc.lft.to/lastmile_qr_scan"}, "fusion_lat": 0.0, "lat": 38.90556216666667, "is_disabled": 0, "lon": -77.0061315, "is_reserved": 0}, {"bike_id": "fb99a7305eca56f8ff0da9bde36e9775", "fusion_lon": 0.0, "type": "electric_scooter", "name": "fb99a7305eca56f8ff0da9bde36e9775", "rental_uris": {"android": "https://dc.lft.to/lastmile_qr_scan", "ios": "https://dc.lft.to/lastmile_qr_scan"}, "fusion_lat": 0.0, "lat": 38.918835333333334, "is_disabled": 0, "lon": -77.02187583333334, "is_reserved": 0}, {"bike_id": "b08bae19569db552f7fe02f9ce473928", "fusion_lon": 0.0, "type": "electric_scooter", "name": "b08bae19569db552f7fe02f9ce473928", "rental_uris": {"android": "https://dc.lft.to/lastmile_qr_scan", "ios": "https://dc.lft.to/lastmile_qr_scan"}, "fusion_lat": 0.0, "lat": 38.910278, "is_disabled": 0, "lon": -77.02928333333334, "is_reserved": 0}, {"bike_id": "dda3ff59669d7c3ccd8d30cd970733a7", "fusion_lon": 0.0, "type": "electric_scooter", "name": "dda3ff59669d7c3ccd8d30cd970733a7", "rental_uris": {"android": "https://dc.lft.to/lastmile_qr_scan", "ios": "https://dc.lft.to/lastmile_qr_scan"}, "fusion_lat": 0.0, "lat": 38.892256333333336, "is_disabled": 0, "lon": -77.02686916666667, "is_reserved": 0}, {"bike_id": "6ec2611a908e85f779dc7c92484caf4e", "fusion_lon": 0.0, "type": "electric_scooter", "name": "6ec2611a908e85f779dc7c92484caf4e", "rental_uris": {"android": "https://dc.lft.to/lastmile_qr_scan", "ios": "https://dc.lft.to/lastmile_qr_scan"}, "fusion_lat": 0.0, "lat": 38.90083816666667, "is_disabled": 0, "lon": -76.93872883333333, "is_reserved": 0}, {"bike_id": "c7905660d2974439ea0f6dbd342a72ef", "fusion_lon": 0.0, "type": "electric_scooter", "name": "c7905660d2974439ea0f6dbd342a72ef", "rental_uris": {"android": "https://dc.lft.to/lastmile_qr_scan", "ios": "https://dc.lft.to/lastmile_qr_scan"}, "fusion_lat": 0.0, "lat": 38.92514966666667, "is_disabled": 0, "lon": -77.05233133333333, "is_reserved": 0}, {"bike_id": "160956f79da95436c36a9d4b20757426", "fusion_lon": 0.0, "type": "electric_scooter", "name": "160956f79da95436c36a9d4b20757426", "rental_uris": {"android": "https://dc.lft.to/lastmile_qr_scan", "ios": "https://dc.lft.to/lastmile_qr_scan"}, "fusion_lat": 0.0, "lat": 38.895286666666664, "is_disabled": 0, "lon": -76.94899866666667, "is_reserved": 0}, {"bike_id": "3f7ce6a14f75f04475177f5c8bdfe68e", "fusion_lon": 0.0, "type": "electric_scooter", "name": "3f7ce6a14f75f04475177f5c8bdfe68e", "rental_uris": {"android": "https://dc.lft.to/lastmile_qr_scan", "ios": "https://dc.lft.to/lastmile_qr_scan"}, "fusion_lat": 0.0, "lat": 38.91981283333333, "is_disabled": 0, "lon": -77.03968633333334, "is_reserved": 0}, {"bike_id": "bc4c39733af86d45e085dbee9ce7825e", "fusion_lon": 0.0, "type": "electric_scooter", "name": "bc4c39733af86d45e085dbee9ce7825e", "rental_uris": {"android": "https://dc.lft.to/lastmile_qr_scan", "ios": "https://dc.lft.to/lastmile_qr_scan"}, "fusion_lat": 0.0, "lat": 38.903591166666665, "is_disabled": 0, "lon": -77.01110216666666, "is_reserved": 0}, {"bike_id": "9a64363268e82a2c14dbfb22c33144d5", "fusion_lon": 0.0, "type": "electric_scooter", "name": "9a64363268e82a2c14dbfb22c33144d5", "rental_uris": {"android": "https://dc.lft.to/lastmile_qr_scan", "ios": "https://dc.lft.to/lastmile_qr_scan"}, "fusion_lat": 0.0, "lat": 38.912708, "is_disabled": 0, "lon": -77.02228133333334, "is_reserved": 0}, {"bike_id": "bad90e10ec3d7a2874994495fdcfbb3f", "fusion_lon": 0.0, "type": "electric_scooter", "name": "bad90e10ec3d7a2874994495fdcfbb3f", "rental_uris": {"android": "https://dc.lft.to/lastmile_qr_scan", "ios": "https://dc.lft.to/lastmile_qr_scan"}, "fusion_lat": 0.0, "lat": 38.91599, "is_disabled": 0, "lon": -77.02816816666666, "is_reserved": 0}, {"bike_id": "75096f08670e970f0e6cb3e64e03ad47", "fusion_lon": 0.0, "type": "electric_bike", "name": "75096f08670e970f0e6cb3e64e03ad47", "rental_uris": {"android": "https://dc.lft.to/lastmile_qr_scan", "ios": "https://dc.lft.to/lastmile_qr_scan"}, "fusion_lat": 0.0, "lat": 38.942878666666665, "is_disabled": 0, "lon": -77.02800016666667, "is_reserved": 0}, {"bike_id": "2c91cb69dd6e5783f1aa279ce03064a6", "fusion_lon": 0.0, "type": "electric_scooter", "name": "2c91cb69dd6e5783f1aa279ce03064a6", "rental_uris": {"android": "https://dc.lft.to/lastmile_qr_scan", "ios": "https://dc.lft.to/lastmile_qr_scan"}, "fusion_lat": 0.0, "lat": 38.92330716666667, "is_disabled": 0, "lon": -77.03899233333334, "is_reserved": 0}, {"bike_id": "95ab3e3794a5b88b7efca41602b82fc7", "fusion_lon": 0.0, "type": "electric_bike", "name": "95ab3e3794a5b88b7efca41602b82fc7", "rental_uris": {"android": "https://dc.lft.to/lastmile_qr_scan", "ios": "https://dc.lft.to/lastmile_qr_scan"}, "fusion_lat": 0.0, "lat": 38.95269166666667, "is_disabled": 0, "lon": -77.06974316666667, "is_reserved": 0}, {"bike_id": "aefe552a43c46fbb3e99b47f4bca843d", "fusion_lon": 0.0, "type": "electric_scooter", "name": "aefe552a43c46fbb3e99b47f4bca843d", "rental_uris": {"android": "https://dc.lft.to/lastmile_qr_scan", "ios": "https://dc.lft.to/lastmile_qr_scan"}, "fusion_lat": 0.0, "lat": 38.909455, "is_disabled": 0, "lon": -77.02695266666667, "is_reserved": 0}, {"bike_id": "c92ddb534e4ad45642f8615ef3345012", "fusion_lon": 0.0, "type": "electric_scooter", "name": "c92ddb534e4ad45642f8615ef3345012", "rental_uris": {"android": "https://dc.lft.to/lastmile_qr_scan", "ios": "https://dc.lft.to/lastmile_qr_scan"}, "fusion_lat": 0.0, "lat": 38.87630816666667, "is_disabled": 0, "lon": -76.96523966666666, "is_reserved": 0}, {"bike_id": "6a13e666a0f2b08c8b8bcf5f4b83e78d", "fusion_lon": 0.0, "type": "electric_scooter", "name": "6a13e666a0f2b08c8b8bcf5f4b83e78d", "rental_uris": {"android": "https://dc.lft.to/lastmile_qr_scan", "ios": "https://dc.lft.to/lastmile_qr_scan"}, "fusion_lat": 0.0, "lat": 38.89221516666667, "is_disabled": 0, "lon": -77.02719183333333, "is_reserved": 0}, {"bike_id": "79142dfd86aadc9939ebb0cfb0ef00d6", "fusion_lon": 0.0, "type": "electric_scooter", "name": "79142dfd86aadc9939ebb0cfb0ef00d6", "rental_uris": {"android": "https://dc.lft.to/lastmile_qr_scan", "ios": "https://dc.lft.to/lastmile_qr_scan"}, "fusion_lat": 0.0, "lat": 38.9176865, "is_disabled": 0, "lon": -77.04062416666666, "is_reserved": 0}, {"bike_id": "7a505423d038d4dd185b4da1ed3a7c38", "fusion_lon": 0.0, "type": "electric_scooter", "name": "7a505423d038d4dd185b4da1ed3a7c38", "rental_uris": {"android": "https://dc.lft.to/lastmile_qr_scan", "ios": "https://dc.lft.to/lastmile_qr_scan"}, "fusion_lat": 0.0, "lat": 38.928508666666666, "is_disabled": 0, "lon": -77.0140535, "is_reserved": 0}, {"bike_id": "eb1ec04a3cd9a7a335e1ae1ebb2b28a0", "fusion_lon": 0.0, "type": "electric_scooter", "name": "eb1ec04a3cd9a7a335e1ae1ebb2b28a0", "rental_uris": {"android": "https://dc.lft.to/lastmile_qr_scan", "ios": "https://dc.lft.to/lastmile_qr_scan"}, "fusion_lat": 0.0, "lat": 38.9436615, "is_disabled": 0, "lon": -77.06111283333334, "is_reserved": 0}, {"bike_id": "fb9947f7409170dae8d277e663f4fdc7", "fusion_lon": 0.0, "type": "electric_scooter", "name": "fb9947f7409170dae8d277e663f4fdc7", "rental_uris": {"android": "https://dc.lft.to/lastmile_qr_scan", "ios": "https://dc.lft.to/lastmile_qr_scan"}, "fusion_lat": 0.0, "lat": 38.90414766666667, "is_disabled": 0, "lon": -77.04997316666666, "is_reserved": 0}, {"bike_id": "6408fbb3353be090bb8ef6d4fb0833f4", "fusion_lon": 0.0, "type": "electric_scooter", "name": "6408fbb3353be090bb8ef6d4fb0833f4", "rental_uris": {"android": "https://dc.lft.to/lastmile_qr_scan", "ios": "https://dc.lft.to/lastmile_qr_scan"}, "fusion_lat": 0.0, "lat": 38.90545733333333, "is_disabled": 0, "lon": -77.0218075, "is_reserved": 0}, {"bike_id": "42b3b0d303f966e23838373634cb634b", "fusion_lon": 0.0, "type": "electric_scooter", "name": "42b3b0d303f966e23838373634cb634b", "rental_uris": {"android": "https://dc.lft.to/lastmile_qr_scan", "ios": "https://dc.lft.to/lastmile_qr_scan"}, "fusion_lat": 0.0, "lat": 38.922362666666665, "is_disabled": 0, "lon": -77.0460685, "is_reserved": 0}, {"bike_id": "db4029a34faa76d7ad7daa602eaba651", "fusion_lon": 0.0, "type": "electric_scooter", "name": "db4029a34faa76d7ad7daa602eaba651", "rental_uris": {"android": "https://dc.lft.to/lastmile_qr_scan", "ios": "https://dc.lft.to/lastmile_qr_scan"}, "fusion_lat": 0.0, "lat": 38.895494666666664, "is_disabled": 0, "lon": -76.9915965, "is_reserved": 0}, {"bike_id": "54f845e0d26d4e6e4784425c4ee3245d", "fusion_lon": 0.0, "type": "electric_scooter", "name": "54f845e0d26d4e6e4784425c4ee3245d", "rental_uris": {"android": "https://dc.lft.to/lastmile_qr_scan", "ios": "https://dc.lft.to/lastmile_qr_scan"}, "fusion_lat": 0.0, "lat": 38.92433, "is_disabled": 0, "lon": -77.0202625, "is_reserved": 0}, {"bike_id": "fa6f6f44267d085d976b579a41d76a3a", "fusion_lon": 0.0, "type": "electric_scooter", "name": "fa6f6f44267d085d976b579a41d76a3a", "rental_uris": {"android": "https://dc.lft.to/lastmile_qr_scan", "ios": "https://dc.lft.to/lastmile_qr_scan"}, "fusion_lat": 0.0, "lat": 38.922719, "is_disabled": 0, "lon": -77.03418216666667, "is_reserved": 0}, {"bike_id": "3741f496f533b9f67599b602a78c9d38", "fusion_lon": 0.0, "type": "electric_scooter", "name": "3741f496f533b9f67599b602a78c9d38", "rental_uris": {"android": "https://dc.lft.to/lastmile_qr_scan", "ios": "https://dc.lft.to/lastmile_qr_scan"}, "fusion_lat": 0.0, "lat": 38.9162095, "is_disabled": 0, "lon": -77.04174116666667, "is_reserved": 0}, {"bike_id": "b4a266572aa9a406eef241c1d637386f", "fusion_lon": 0.0, "type": "electric_scooter", "name": "b4a266572aa9a406eef241c1d637386f", "rental_uris": {"android": "https://dc.lft.to/lastmile_qr_scan", "ios": "https://dc.lft.to/lastmile_qr_scan"}, "fusion_lat": 0.0, "lat": 38.864050166666665, "is_disabled": 0, "lon": -76.99027166666667, "is_reserved": 0}, {"bike_id": "59f73c5611fbbd8a10a56ea08f1aa563", "fusion_lon": 0.0, "type": "electric_scooter", "name": "59f73c5611fbbd8a10a56ea08f1aa563", "rental_uris": {"android": "https://dc.lft.to/lastmile_qr_scan", "ios": "https://dc.lft.to/lastmile_qr_scan"}, "fusion_lat": 0.0, "lat": 38.90355, "is_disabled": 0, "lon": -77.06771083333334, "is_reserved": 0}, {"bike_id": "6555467400040b55280210254d69cd4c", "fusion_lon": 0.0, "type": "electric_scooter", "name": "6555467400040b55280210254d69cd4c", "rental_uris": {"android": "https://dc.lft.to/lastmile_qr_scan", "ios": "https://dc.lft.to/lastmile_qr_scan"}, "fusion_lat": 0.0, "lat": 38.934308333333334, "is_disabled": 0, "lon": -77.05848166666667, "is_reserved": 0}, {"bike_id": "aa18cde2cd3405f506aaff352c642af1", "fusion_lon": 0.0, "type": "electric_scooter", "name": "aa18cde2cd3405f506aaff352c642af1", "rental_uris": {"android": "https://dc.lft.to/lastmile_qr_scan", "ios": "https://dc.lft.to/lastmile_qr_scan"}, "fusion_lat": 0.0, "lat": 38.89369516666667, "is_disabled": 0, "lon": -76.94970466666666, "is_reserved": 0}, {"bike_id": "111c9d9aef04d8940f7be7251a633812", "fusion_lon": 0.0, "type": "electric_scooter", "name": "111c9d9aef04d8940f7be7251a633812", "rental_uris": {"android": "https://dc.lft.to/lastmile_qr_scan", "ios": "https://dc.lft.to/lastmile_qr_scan"}, "fusion_lat": 0.0, "lat": 38.884111833333336, "is_disabled": 0, "lon": -77.030547, "is_reserved": 0}, {"bike_id": "0790bca90dcd3a1670b8eac58f0d621d", "fusion_lon": 0.0, "type": "electric_scooter", "name": "0790bca90dcd3a1670b8eac58f0d621d", "rental_uris": {"android": "https://dc.lft.to/lastmile_qr_scan", "ios": "https://dc.lft.to/lastmile_qr_scan"}, "fusion_lat": 0.0, "lat": 38.90247083333333, "is_disabled": 0, "lon": -77.03953533333333, "is_reserved": 0}, {"bike_id": "5e9a149e7ec854724035cb40d91b82f0", "fusion_lon": 0.0, "type": "electric_scooter", "name": "5e9a149e7ec854724035cb40d91b82f0", "rental_uris": {"android": "https://dc.lft.to/lastmile_qr_scan", "ios": "https://dc.lft.to/lastmile_qr_scan"}, "fusion_lat": 0.0, "lat": 38.900823333333335, "is_disabled": 0, "lon": -76.93018983333333, "is_reserved": 0}, {"bike_id": "cbb5cc1fd40aae8ac925d9287c621bd4", "fusion_lon": 0.0, "type": "electric_scooter", "name": "cbb5cc1fd40aae8ac925d9287c621bd4", "rental_uris": {"android": "https://dc.lft.to/lastmile_qr_scan", "ios": "https://dc.lft.to/lastmile_qr_scan"}, "fusion_lat": 0.0, "lat": 38.8843345, "is_disabled": 0, "lon": -76.95753183333333, "is_reserved": 0}, {"bike_id": "631814c968e427814d3b9ca509e7e88d", "fusion_lon": 0.0, "type": "electric_scooter", "name": "631814c968e427814d3b9ca509e7e88d", "rental_uris": {"android": "https://dc.lft.to/lastmile_qr_scan", "ios": "https://dc.lft.to/lastmile_qr_scan"}, "fusion_lat": 0.0, "lat": 38.901421, "is_disabled": 0, "lon": -77.03304616666667, "is_reserved": 0}, {"bike_id": "8ce24419e1c5758778ccd9b1156bba2e", "fusion_lon": 0.0, "type": "electric_scooter", "name": "8ce24419e1c5758778ccd9b1156bba2e", "rental_uris": {"android": "https://dc.lft.to/lastmile_qr_scan", "ios": "https://dc.lft.to/lastmile_qr_scan"}, "fusion_lat": 0.0, "lat": 38.92621833333333, "is_disabled": 0, "lon": -77.04326633333334, "is_reserved": 0}, {"bike_id": "f78c61d3d694e46e5fec50a6f32d6981", "fusion_lon": 0.0, "type": "electric_scooter", "name": "f78c61d3d694e46e5fec50a6f32d6981", "rental_uris": {"android": "https://dc.lft.to/lastmile_qr_scan", "ios": "https://dc.lft.to/lastmile_qr_scan"}, "fusion_lat": 0.0, "lat": 38.918222666666665, "is_disabled": 0, "lon": -77.03841083333333, "is_reserved": 0}, {"bike_id": "8f7836414f78cb3c1a6ed5f7cdea85fe", "fusion_lon": 0.0, "type": "electric_scooter", "name": "8f7836414f78cb3c1a6ed5f7cdea85fe", "rental_uris": {"android": "https://dc.lft.to/lastmile_qr_scan", "ios": "https://dc.lft.to/lastmile_qr_scan"}, "fusion_lat": 0.0, "lat": 38.917271166666666, "is_disabled": 0, "lon": -77.0191365, "is_reserved": 0}, {"bike_id": "238c19ec68576d85826c81c6c67826bf", "fusion_lon": 0.0, "type": "electric_bike", "name": "238c19ec68576d85826c81c6c67826bf", "rental_uris": {"android": "https://dc.lft.to/lastmile_qr_scan", "ios": "https://dc.lft.to/lastmile_qr_scan"}, "fusion_lat": 0.0, "lat": 38.872345833333334, "is_disabled": 0, "lon": -76.93198366666667, "is_reserved": 0}, {"bike_id": "52dd9bfb11eb55c64aaa2680b34431ce", "fusion_lon": 0.0, "type": "electric_scooter", "name": "52dd9bfb11eb55c64aaa2680b34431ce", "rental_uris": {"android": "https://dc.lft.to/lastmile_qr_scan", "ios": "https://dc.lft.to/lastmile_qr_scan"}, "fusion_lat": 0.0, "lat": 38.956489, "is_disabled": 0, "lon": -77.032869, "is_reserved": 0}, {"bike_id": "f29b7a81b8a618de6c4cfdebb6bfc8be", "fusion_lon": 0.0, "type": "electric_scooter", "name": "f29b7a81b8a618de6c4cfdebb6bfc8be", "rental_uris": {"android": "https://dc.lft.to/lastmile_qr_scan", "ios": "https://dc.lft.to/lastmile_qr_scan"}, "fusion_lat": 0.0, "lat": 38.950002166666664, "is_disabled": 0, "lon": -77.0270885, "is_reserved": 0}, {"bike_id": "2f42126c6b25eb19e5d028d917e186f6", "fusion_lon": 0.0, "type": "electric_scooter", "name": "2f42126c6b25eb19e5d028d917e186f6", "rental_uris": {"android": "https://dc.lft.to/lastmile_qr_scan", "ios": "https://dc.lft.to/lastmile_qr_scan"}, "fusion_lat": 0.0, "lat": 38.91988966666667, "is_disabled": 0, "lon": -77.032674, "is_reserved": 0}, {"bike_id": "c0cbfe227a17d4d5cfc336574bd3867a", "fusion_lon": 0.0, "type": "electric_scooter", "name": "c0cbfe227a17d4d5cfc336574bd3867a", "rental_uris": {"android": "https://dc.lft.to/lastmile_qr_scan", "ios": "https://dc.lft.to/lastmile_qr_scan"}, "fusion_lat": 0.0, "lat": 38.902429, "is_disabled": 0, "lon": -77.00206466666667, "is_reserved": 0}, {"bike_id": "f677e25434e4e1465b393a10bd17b741", "fusion_lon": 0.0, "type": "electric_scooter", "name": "f677e25434e4e1465b393a10bd17b741", "rental_uris": {"android": "https://dc.lft.to/lastmile_qr_scan", "ios": "https://dc.lft.to/lastmile_qr_scan"}, "fusion_lat": 0.0, "lat": 38.904787666666664, "is_disabled": 0, "lon": -77.03836416666667, "is_reserved": 0}, {"bike_id": "d0cb9280e8c766fc498c2b97e433c164", "fusion_lon": 0.0, "type": "electric_bike", "name": "d0cb9280e8c766fc498c2b97e433c164", "rental_uris": {"android": "https://dc.lft.to/lastmile_qr_scan", "ios": "https://dc.lft.to/lastmile_qr_scan"}, "fusion_lat": 0.0, "lat": 38.8410995, "is_disabled": 0, "lon": -77.089396, "is_reserved": 0}, {"bike_id": "4b0365e7169f6c74fdd704b2938dfe3c", "fusion_lon": 0.0, "type": "electric_scooter", "name": "4b0365e7169f6c74fdd704b2938dfe3c", "rental_uris": {"android": "https://dc.lft.to/lastmile_qr_scan", "ios": "https://dc.lft.to/lastmile_qr_scan"}, "fusion_lat": 0.0, "lat": 38.9249845, "is_disabled": 0, "lon": -77.02255433333333, "is_reserved": 0}, {"bike_id": "94318e4ed78fcea689f20e66c804214b", "fusion_lon": 0.0, "type": "electric_scooter", "name": "94318e4ed78fcea689f20e66c804214b", "rental_uris": {"android": "https://dc.lft.to/lastmile_qr_scan", "ios": "https://dc.lft.to/lastmile_qr_scan"}, "fusion_lat": 0.0, "lat": 38.90254766666666, "is_disabled": 0, "lon": -77.0196965, "is_reserved": 0}, {"bike_id": "c278f0deabc03fea88830ac07d82ac29", "fusion_lon": 0.0, "type": "electric_scooter", "name": "c278f0deabc03fea88830ac07d82ac29", "rental_uris": {"android": "https://dc.lft.to/lastmile_qr_scan", "ios": "https://dc.lft.to/lastmile_qr_scan"}, "fusion_lat": 0.0, "lat": 38.886763333333334, "is_disabled": 0, "lon": -76.95240466666667, "is_reserved": 0}, {"bike_id": "3fd80bd75ba194df5fe6c867ec46608a", "fusion_lon": 0.0, "type": "electric_scooter", "name": "3fd80bd75ba194df5fe6c867ec46608a", "rental_uris": {"android": "https://dc.lft.to/lastmile_qr_scan", "ios": "https://dc.lft.to/lastmile_qr_scan"}, "fusion_lat": 0.0, "lat": 38.95628933333333, "is_disabled": 0, "lon": -77.02988183333333, "is_reserved": 0}, {"bike_id": "81a8f9061f96c7bb06584b4854d242bd", "fusion_lon": 0.0, "type": "electric_scooter", "name": "81a8f9061f96c7bb06584b4854d242bd", "rental_uris": {"android": "https://dc.lft.to/lastmile_qr_scan", "ios": "https://dc.lft.to/lastmile_qr_scan"}, "fusion_lat": 0.0, "lat": 38.90566416666667, "is_disabled": 0, "lon": -77.02791916666666, "is_reserved": 0}, {"bike_id": "9c6b77158118c0eb95cfe05cd7d3737e", "fusion_lon": 0.0, "type": "electric_bike", "name": "9c6b77158118c0eb95cfe05cd7d3737e", "rental_uris": {"android": "https://dc.lft.to/lastmile_qr_scan", "ios": "https://dc.lft.to/lastmile_qr_scan"}, "fusion_lat": 0.0, "lat": 38.812489166666666, "is_disabled": 0, "lon": -77.040695, "is_reserved": 0}, {"bike_id": "ae7b5da80ed325e1a64f8af90879515f", "fusion_lon": 0.0, "type": "electric_bike", "name": "ae7b5da80ed325e1a64f8af90879515f", "rental_uris": {"android": "https://dc.lft.to/lastmile_qr_scan", "ios": "https://dc.lft.to/lastmile_qr_scan"}, "fusion_lat": 0.0, "lat": 38.924142333333336, "is_disabled": 0, "lon": -77.0504695, "is_reserved": 0}, {"bike_id": "b10d23a9a50db78d663d395bf1523e77", "fusion_lon": 0.0, "type": "electric_scooter", "name": "b10d23a9a50db78d663d395bf1523e77", "rental_uris": {"android": "https://dc.lft.to/lastmile_qr_scan", "ios": "https://dc.lft.to/lastmile_qr_scan"}, "fusion_lat": 0.0, "lat": 38.913832166666666, "is_disabled": 0, "lon": -77.01702466666667, "is_reserved": 0}, {"bike_id": "27e3fcce24a8c249dd3b9bac0919e78a", "fusion_lon": 0.0, "type": "electric_scooter", "name": "27e3fcce24a8c249dd3b9bac0919e78a", "rental_uris": {"android": "https://dc.lft.to/lastmile_qr_scan", "ios": "https://dc.lft.to/lastmile_qr_scan"}, "fusion_lat": 0.0, "lat": 38.912715, "is_disabled": 0, "lon": -77.02225733333333, "is_reserved": 0}, {"bike_id": "f75dd135aaaf057542ecce9f3a4bd91a", "fusion_lon": 0.0, "type": "electric_scooter", "name": "f75dd135aaaf057542ecce9f3a4bd91a", "rental_uris": {"android": "https://dc.lft.to/lastmile_qr_scan", "ios": "https://dc.lft.to/lastmile_qr_scan"}, "fusion_lat": 0.0, "lat": 38.926022833333334, "is_disabled": 0, "lon": -77.02159966666666, "is_reserved": 0}, {"bike_id": "03d568ebfcba8d4af31ff1930236f2df", "fusion_lon": 0.0, "type": "electric_bike", "name": "03d568ebfcba8d4af31ff1930236f2df", "rental_uris": {"android": "https://dc.lft.to/lastmile_qr_scan", "ios": "https://dc.lft.to/lastmile_qr_scan"}, "fusion_lat": 0.0, "lat": 38.918132166666666, "is_disabled": 0, "lon": -77.10181333333334, "is_reserved": 0}, {"bike_id": "0fa15ac52c8a7308238373cf7b328d1e", "fusion_lon": 0.0, "type": "electric_scooter", "name": "0fa15ac52c8a7308238373cf7b328d1e", "rental_uris": {"android": "https://dc.lft.to/lastmile_qr_scan", "ios": "https://dc.lft.to/lastmile_qr_scan"}, "fusion_lat": 0.0, "lat": 38.887209, "is_disabled": 0, "lon": -77.02201766666667, "is_reserved": 0}, {"bike_id": "e3340b349e00454f9967f9a945f6f46f", "fusion_lon": 0.0, "type": "electric_scooter", "name": "e3340b349e00454f9967f9a945f6f46f", "rental_uris": {"android": "https://dc.lft.to/lastmile_qr_scan", "ios": "https://dc.lft.to/lastmile_qr_scan"}, "fusion_lat": 0.0, "lat": 38.87874866666667, "is_disabled": 0, "lon": -77.0057435, "is_reserved": 0}, {"bike_id": "a34294f32ac645fa52beb2b9225e29d0", "fusion_lon": 0.0, "type": "electric_scooter", "name": "a34294f32ac645fa52beb2b9225e29d0", "rental_uris": {"android": "https://dc.lft.to/lastmile_qr_scan", "ios": "https://dc.lft.to/lastmile_qr_scan"}, "fusion_lat": 0.0, "lat": 38.93692433333333, "is_disabled": 0, "lon": -77.0328195, "is_reserved": 0}, {"bike_id": "794125627a8f0ac02ecfa12837aa8a31", "fusion_lon": 0.0, "type": "electric_bike", "name": "794125627a8f0ac02ecfa12837aa8a31", "rental_uris": {"android": "https://dc.lft.to/lastmile_qr_scan", "ios": "https://dc.lft.to/lastmile_qr_scan"}, "fusion_lat": 0.0, "lat": 38.906931166666666, "is_disabled": 0, "lon": -76.95253933333333, "is_reserved": 0}, {"bike_id": "a7c24471bbced25254a2f35dee3cfa94", "fusion_lon": 0.0, "type": "electric_bike", "name": "a7c24471bbced25254a2f35dee3cfa94", "rental_uris": {"android": "https://dc.lft.to/lastmile_qr_scan", "ios": "https://dc.lft.to/lastmile_qr_scan"}, "fusion_lat": 0.0, "lat": 38.812381333333335, "is_disabled": 0, "lon": -77.11251366666667, "is_reserved": 0}, {"bike_id": "2c971e41432f3518362652d4dc5163f2", "fusion_lon": 0.0, "type": "electric_scooter", "name": "2c971e41432f3518362652d4dc5163f2", "rental_uris": {"android": "https://dc.lft.to/lastmile_qr_scan", "ios": "https://dc.lft.to/lastmile_qr_scan"}, "fusion_lat": 0.0, "lat": 38.900093, "is_disabled": 0, "lon": -77.00147766666667, "is_reserved": 0}, {"bike_id": "dec8ccf9c3c8e75d740f2ee73350c5b0", "fusion_lon": 0.0, "type": "electric_scooter", "name": "dec8ccf9c3c8e75d740f2ee73350c5b0", "rental_uris": {"android": "https://dc.lft.to/lastmile_qr_scan", "ios": "https://dc.lft.to/lastmile_qr_scan"}, "fusion_lat": 0.0, "lat": 38.876305, "is_disabled": 0, "lon": -76.965269, "is_reserved": 0}, {"bike_id": "507a484ff21924f16c035fc1952e6538", "fusion_lon": 0.0, "type": "electric_scooter", "name": "507a484ff21924f16c035fc1952e6538", "rental_uris": {"android": "https://dc.lft.to/lastmile_qr_scan", "ios": "https://dc.lft.to/lastmile_qr_scan"}, "fusion_lat": 0.0, "lat": 38.904797333333335, "is_disabled": 0, "lon": -76.996088, "is_reserved": 0}, {"bike_id": "b561a0ee5e80416ad45c7d4d83f89671", "fusion_lon": 0.0, "type": "electric_scooter", "name": "b561a0ee5e80416ad45c7d4d83f89671", "rental_uris": {"android": "https://dc.lft.to/lastmile_qr_scan", "ios": "https://dc.lft.to/lastmile_qr_scan"}, "fusion_lat": 0.0, "lat": 38.89829316666667, "is_disabled": 0, "lon": -77.03346733333333, "is_reserved": 0}, {"bike_id": "6de9830157e083f55eaa797d4f2d9338", "fusion_lon": 0.0, "type": "electric_scooter", "name": "6de9830157e083f55eaa797d4f2d9338", "rental_uris": {"android": "https://dc.lft.to/lastmile_qr_scan", "ios": "https://dc.lft.to/lastmile_qr_scan"}, "fusion_lat": 0.0, "lat": 38.918993666666665, "is_disabled": 0, "lon": -77.0415075, "is_reserved": 0}, {"bike_id": "779594bd6adab8be711f3b2a9c43cc06", "fusion_lon": 0.0, "type": "electric_bike", "name": "779594bd6adab8be711f3b2a9c43cc06", "rental_uris": {"android": "https://dc.lft.to/lastmile_qr_scan", "ios": "https://dc.lft.to/lastmile_qr_scan"}, "fusion_lat": 0.0, "lat": 38.896727, "is_disabled": 0, "lon": -76.98121233333333, "is_reserved": 0}, {"bike_id": "5bbff4e71b7b5bda18133cb32b2e5e5d", "fusion_lon": 0.0, "type": "electric_bike", "name": "5bbff4e71b7b5bda18133cb32b2e5e5d", "rental_uris": {"android": "https://dc.lft.to/lastmile_qr_scan", "ios": "https://dc.lft.to/lastmile_qr_scan"}, "fusion_lat": 0.0, "lat": 38.9660715, "is_disabled": 0, "lon": -76.9833205, "is_reserved": 0}, {"bike_id": "1bf804539d8b071f03b53829fef8ef35", "fusion_lon": 0.0, "type": "electric_scooter", "name": "1bf804539d8b071f03b53829fef8ef35", "rental_uris": {"android": "https://dc.lft.to/lastmile_qr_scan", "ios": "https://dc.lft.to/lastmile_qr_scan"}, "fusion_lat": 0.0, "lat": 38.91414133333333, "is_disabled": 0, "lon": -77.03162883333333, "is_reserved": 0}, {"bike_id": "3b881b92722e8532b6dd9fa3f970f69d", "fusion_lon": 0.0, "type": "electric_scooter", "name": "3b881b92722e8532b6dd9fa3f970f69d", "rental_uris": {"android": "https://dc.lft.to/lastmile_qr_scan", "ios": "https://dc.lft.to/lastmile_qr_scan"}, "fusion_lat": 0.0, "lat": 38.904116333333334, "is_disabled": 0, "lon": -77.00137516666666, "is_reserved": 0}, {"bike_id": "6c7eddba4d3c8f314a2b63c248e426ff", "fusion_lon": 0.0, "type": "electric_scooter", "name": "6c7eddba4d3c8f314a2b63c248e426ff", "rental_uris": {"android": "https://dc.lft.to/lastmile_qr_scan", "ios": "https://dc.lft.to/lastmile_qr_scan"}, "fusion_lat": 0.0, "lat": 38.886269666666664, "is_disabled": 0, "lon": -77.02162783333333, "is_reserved": 0}, {"bike_id": "def33d3b1219bd61e92fc59fc32caa01", "fusion_lon": 0.0, "type": "electric_scooter", "name": "def33d3b1219bd61e92fc59fc32caa01", "rental_uris": {"android": "https://dc.lft.to/lastmile_qr_scan", "ios": "https://dc.lft.to/lastmile_qr_scan"}, "fusion_lat": 0.0, "lat": 38.924370833333334, "is_disabled": 0, "lon": -77.04252366666667, "is_reserved": 0}, {"bike_id": "349247d4d3fb7047f25ab5d1ced3c8fd", "fusion_lon": 0.0, "type": "electric_scooter", "name": "349247d4d3fb7047f25ab5d1ced3c8fd", "rental_uris": {"android": "https://dc.lft.to/lastmile_qr_scan", "ios": "https://dc.lft.to/lastmile_qr_scan"}, "fusion_lat": 0.0, "lat": 38.909634, "is_disabled": 0, "lon": -77.01380016666667, "is_reserved": 0}, {"bike_id": "e1c17a1069c240061038ceba23bd7ff3", "fusion_lon": 0.0, "type": "electric_bike", "name": "e1c17a1069c240061038ceba23bd7ff3", "rental_uris": {"android": "https://dc.lft.to/lastmile_qr_scan", "ios": "https://dc.lft.to/lastmile_qr_scan"}, "fusion_lat": 0.0, "lat": 38.85214716666667, "is_disabled": 0, "lon": -77.101313, "is_reserved": 0}, {"bike_id": "b16211305a0c4fdede2c051b6da8c451", "fusion_lon": 0.0, "type": "electric_scooter", "name": "b16211305a0c4fdede2c051b6da8c451", "rental_uris": {"android": "https://dc.lft.to/lastmile_qr_scan", "ios": "https://dc.lft.to/lastmile_qr_scan"}, "fusion_lat": 0.0, "lat": 38.96229266666667, "is_disabled": 0, "lon": -77.0297425, "is_reserved": 0}, {"bike_id": "ac31d6318114895ae17891e527bcc722", "fusion_lon": 0.0, "type": "electric_scooter", "name": "ac31d6318114895ae17891e527bcc722", "rental_uris": {"android": "https://dc.lft.to/lastmile_qr_scan", "ios": "https://dc.lft.to/lastmile_qr_scan"}, "fusion_lat": 0.0, "lat": 38.86219916666667, "is_disabled": 0, "lon": -76.99496066666667, "is_reserved": 0}, {"bike_id": "17103f46447ff128656645bef2f37d29", "fusion_lon": 0.0, "type": "electric_scooter", "name": "17103f46447ff128656645bef2f37d29", "rental_uris": {"android": "https://dc.lft.to/lastmile_qr_scan", "ios": "https://dc.lft.to/lastmile_qr_scan"}, "fusion_lat": 0.0, "lat": 38.90691916666667, "is_disabled": 0, "lon": -77.0614145, "is_reserved": 0}, {"bike_id": "912783dae63b937e3b068332a8f9b043", "fusion_lon": 0.0, "type": "electric_scooter", "name": "912783dae63b937e3b068332a8f9b043", "rental_uris": {"android": "https://dc.lft.to/lastmile_qr_scan", "ios": "https://dc.lft.to/lastmile_qr_scan"}, "fusion_lat": 0.0, "lat": 38.87638366666667, "is_disabled": 0, "lon": -77.0056415, "is_reserved": 0}, {"bike_id": "bd3aa6d41b19c3acf577a469c84c2043", "fusion_lon": 0.0, "type": "electric_scooter", "name": "bd3aa6d41b19c3acf577a469c84c2043", "rental_uris": {"android": "https://dc.lft.to/lastmile_qr_scan", "ios": "https://dc.lft.to/lastmile_qr_scan"}, "fusion_lat": 0.0, "lat": 38.9097225, "is_disabled": 0, "lon": -77.02414083333333, "is_reserved": 0}, {"bike_id": "08cfc48d5dfe98aad450ea0ea8919c76", "fusion_lon": 0.0, "type": "electric_scooter", "name": "08cfc48d5dfe98aad450ea0ea8919c76", "rental_uris": {"android": "https://dc.lft.to/lastmile_qr_scan", "ios": "https://dc.lft.to/lastmile_qr_scan"}, "fusion_lat": 0.0, "lat": 38.88219766666667, "is_disabled": 0, "lon": -77.02927666666666, "is_reserved": 0}, {"bike_id": "52e3d745a1568cf875dd18a0b345a7bc", "fusion_lon": 0.0, "type": "electric_scooter", "name": "52e3d745a1568cf875dd18a0b345a7bc", "rental_uris": {"android": "https://dc.lft.to/lastmile_qr_scan", "ios": "https://dc.lft.to/lastmile_qr_scan"}, "fusion_lat": 0.0, "lat": 38.90574516666667, "is_disabled": 0, "lon": -77.01099416666666, "is_reserved": 0}, {"bike_id": "d5806f23726498d03d8b7a7573e9a07b", "fusion_lon": 0.0, "type": "electric_scooter", "name": "d5806f23726498d03d8b7a7573e9a07b", "rental_uris": {"android": "https://dc.lft.to/lastmile_qr_scan", "ios": "https://dc.lft.to/lastmile_qr_scan"}, "fusion_lat": 0.0, "lat": 38.948962, "is_disabled": 0, "lon": -77.01871883333334, "is_reserved": 0}, {"bike_id": "c5d672acfefd30c7506ba4e4abd0f367", "fusion_lon": 0.0, "type": "electric_scooter", "name": "c5d672acfefd30c7506ba4e4abd0f367", "rental_uris": {"android": "https://dc.lft.to/lastmile_qr_scan", "ios": "https://dc.lft.to/lastmile_qr_scan"}, "fusion_lat": 0.0, "lat": 38.876302833333334, "is_disabled": 0, "lon": -76.96526333333334, "is_reserved": 0}, {"bike_id": "559c01a2bd6dc33a9a3351f79020a51b", "fusion_lon": 0.0, "type": "electric_scooter", "name": "559c01a2bd6dc33a9a3351f79020a51b", "rental_uris": {"android": "https://dc.lft.to/lastmile_qr_scan", "ios": "https://dc.lft.to/lastmile_qr_scan"}, "fusion_lat": 0.0, "lat": 38.8998295, "is_disabled": 0, "lon": -77.05548383333333, "is_reserved": 0}, {"bike_id": "d0f728818a22ff03630fff1e135f0b94", "fusion_lon": 0.0, "type": "electric_scooter", "name": "d0f728818a22ff03630fff1e135f0b94", "rental_uris": {"android": "https://dc.lft.to/lastmile_qr_scan", "ios": "https://dc.lft.to/lastmile_qr_scan"}, "fusion_lat": 0.0, "lat": 38.91916333333333, "is_disabled": 0, "lon": -77.02474316666667, "is_reserved": 0}, {"bike_id": "0c59a76935aebe3e4e7f1d08f7a4b392", "fusion_lon": 0.0, "type": "electric_bike", "name": "0c59a76935aebe3e4e7f1d08f7a4b392", "rental_uris": {"android": "https://dc.lft.to/lastmile_qr_scan", "ios": "https://dc.lft.to/lastmile_qr_scan"}, "fusion_lat": 0.0, "lat": 38.9596325, "is_disabled": 0, "lon": -76.98169183333333, "is_reserved": 0}, {"bike_id": "08f35ece7faab6c1e96ebde4adb0ce9a", "fusion_lon": 0.0, "type": "electric_scooter", "name": "08f35ece7faab6c1e96ebde4adb0ce9a", "rental_uris": {"android": "https://dc.lft.to/lastmile_qr_scan", "ios": "https://dc.lft.to/lastmile_qr_scan"}, "fusion_lat": 0.0, "lat": 38.90415183333333, "is_disabled": 0, "lon": -77.02396483333334, "is_reserved": 0}, {"bike_id": "f96b30bb8a11e18bd7d0abbde131bb4c", "fusion_lon": 0.0, "type": "electric_scooter", "name": "f96b30bb8a11e18bd7d0abbde131bb4c", "rental_uris": {"android": "https://dc.lft.to/lastmile_qr_scan", "ios": "https://dc.lft.to/lastmile_qr_scan"}, "fusion_lat": 0.0, "lat": 38.91883133333333, "is_disabled": 0, "lon": -77.03642083333334, "is_reserved": 0}, {"bike_id": "20c637f9d51762995854e5954a1acab4", "fusion_lon": 0.0, "type": "electric_bike", "name": "20c637f9d51762995854e5954a1acab4", "rental_uris": {"android": "https://dc.lft.to/lastmile_qr_scan", "ios": "https://dc.lft.to/lastmile_qr_scan"}, "fusion_lat": 0.0, "lat": 38.93580583333333, "is_disabled": 0, "lon": -77.1068555, "is_reserved": 0}, {"bike_id": "c18373bd3a0e7027564cc678fb3d38bf", "fusion_lon": 0.0, "type": "electric_scooter", "name": "c18373bd3a0e7027564cc678fb3d38bf", "rental_uris": {"android": "https://dc.lft.to/lastmile_qr_scan", "ios": "https://dc.lft.to/lastmile_qr_scan"}, "fusion_lat": 0.0, "lat": 38.921257833333335, "is_disabled": 0, "lon": -77.01026033333333, "is_reserved": 0}, {"bike_id": "a76df9c1379a0a0b78abacd98c91b666", "fusion_lon": 0.0, "type": "electric_scooter", "name": "a76df9c1379a0a0b78abacd98c91b666", "rental_uris": {"android": "https://dc.lft.to/lastmile_qr_scan", "ios": "https://dc.lft.to/lastmile_qr_scan"}, "fusion_lat": 0.0, "lat": 38.93044866666666, "is_disabled": 0, "lon": -77.03224166666666, "is_reserved": 0}, {"bike_id": "d783df95ce64c07ba0bdee189176c6c1", "fusion_lon": 0.0, "type": "electric_scooter", "name": "d783df95ce64c07ba0bdee189176c6c1", "rental_uris": {"android": "https://dc.lft.to/lastmile_qr_scan", "ios": "https://dc.lft.to/lastmile_qr_scan"}, "fusion_lat": 0.0, "lat": 38.914129333333335, "is_disabled": 0, "lon": -77.03880483333333, "is_reserved": 0}, {"bike_id": "710c4baa23a730818ae9c6f19e0a7d5f", "fusion_lon": 0.0, "type": "electric_scooter", "name": "710c4baa23a730818ae9c6f19e0a7d5f", "rental_uris": {"android": "https://dc.lft.to/lastmile_qr_scan", "ios": "https://dc.lft.to/lastmile_qr_scan"}, "fusion_lat": 0.0, "lat": 38.90017, "is_disabled": 0, "lon": -76.99118366666667, "is_reserved": 0}, {"bike_id": "151e4d843062f544ed15b0236c1f382e", "fusion_lon": 0.0, "type": "electric_scooter", "name": "151e4d843062f544ed15b0236c1f382e", "rental_uris": {"android": "https://dc.lft.to/lastmile_qr_scan", "ios": "https://dc.lft.to/lastmile_qr_scan"}, "fusion_lat": 0.0, "lat": 38.89437066666667, "is_disabled": 0, "lon": -76.97911933333333, "is_reserved": 0}, {"bike_id": "1d8e784d3fd703aa2bc5d3930659225b", "fusion_lon": 0.0, "type": "electric_scooter", "name": "1d8e784d3fd703aa2bc5d3930659225b", "rental_uris": {"android": "https://dc.lft.to/lastmile_qr_scan", "ios": "https://dc.lft.to/lastmile_qr_scan"}, "fusion_lat": 0.0, "lat": 38.893399333333335, "is_disabled": 0, "lon": -77.0465635, "is_reserved": 0}, {"bike_id": "c0e0d3fd3af8443a9c56318fa0fed6ef", "fusion_lon": 0.0, "type": "electric_scooter", "name": "c0e0d3fd3af8443a9c56318fa0fed6ef", "rental_uris": {"android": "https://dc.lft.to/lastmile_qr_scan", "ios": "https://dc.lft.to/lastmile_qr_scan"}, "fusion_lat": 0.0, "lat": 38.90278566666667, "is_disabled": 0, "lon": -77.04500483333334, "is_reserved": 0}, {"bike_id": "fd5770480912cd36b4d7aacc5d05fa5e", "fusion_lon": 0.0, "type": "electric_scooter", "name": "fd5770480912cd36b4d7aacc5d05fa5e", "rental_uris": {"android": "https://dc.lft.to/lastmile_qr_scan", "ios": "https://dc.lft.to/lastmile_qr_scan"}, "fusion_lat": 0.0, "lat": 38.918419166666666, "is_disabled": 0, "lon": -77.03917983333334, "is_reserved": 0}, {"bike_id": "812908b69da61cb707068674e41f08bb", "fusion_lon": 0.0, "type": "electric_scooter", "name": "812908b69da61cb707068674e41f08bb", "rental_uris": {"android": "https://dc.lft.to/lastmile_qr_scan", "ios": "https://dc.lft.to/lastmile_qr_scan"}, "fusion_lat": 0.0, "lat": 38.9084645, "is_disabled": 0, "lon": -77.0260175, "is_reserved": 0}, {"bike_id": "4bbf4e9e97a670f0012778071cc70de1", "fusion_lon": 0.0, "type": "electric_scooter", "name": "4bbf4e9e97a670f0012778071cc70de1", "rental_uris": {"android": "https://dc.lft.to/lastmile_qr_scan", "ios": "https://dc.lft.to/lastmile_qr_scan"}, "fusion_lat": 0.0, "lat": 38.89746483333333, "is_disabled": 0, "lon": -77.0335395, "is_reserved": 0}, {"bike_id": "b27c8ba438a34dab05bccb5debafefcd", "fusion_lon": 0.0, "type": "electric_scooter", "name": "b27c8ba438a34dab05bccb5debafefcd", "rental_uris": {"android": "https://dc.lft.to/lastmile_qr_scan", "ios": "https://dc.lft.to/lastmile_qr_scan"}, "fusion_lat": 0.0, "lat": 38.857228, "is_disabled": 0, "lon": -76.971182, "is_reserved": 0}, {"bike_id": "57c2dfb0a4fb9f5343e33caf7a40e681", "fusion_lon": 0.0, "type": "electric_scooter", "name": "57c2dfb0a4fb9f5343e33caf7a40e681", "rental_uris": {"android": "https://dc.lft.to/lastmile_qr_scan", "ios": "https://dc.lft.to/lastmile_qr_scan"}, "fusion_lat": 0.0, "lat": 38.911874166666664, "is_disabled": 0, "lon": -77.00240016666666, "is_reserved": 0}, {"bike_id": "c5a9b5f3c98fe9dda361cd2e65f4778e", "fusion_lon": 0.0, "type": "electric_scooter", "name": "c5a9b5f3c98fe9dda361cd2e65f4778e", "rental_uris": {"android": "https://dc.lft.to/lastmile_qr_scan", "ios": "https://dc.lft.to/lastmile_qr_scan"}, "fusion_lat": 0.0, "lat": 38.93122483333333, "is_disabled": 0, "lon": -77.0381445, "is_reserved": 0}, {"bike_id": "862f108140f6e95345dd68f9488a668c", "fusion_lon": 0.0, "type": "electric_scooter", "name": "862f108140f6e95345dd68f9488a668c", "rental_uris": {"android": "https://dc.lft.to/lastmile_qr_scan", "ios": "https://dc.lft.to/lastmile_qr_scan"}, "fusion_lat": 0.0, "lat": 38.89610483333333, "is_disabled": 0, "lon": -76.95655483333333, "is_reserved": 0}, {"bike_id": "837d7d648aa5eb3b71768ae2fdd9ab4d", "fusion_lon": 0.0, "type": "electric_scooter", "name": "837d7d648aa5eb3b71768ae2fdd9ab4d", "rental_uris": {"android": "https://dc.lft.to/lastmile_qr_scan", "ios": "https://dc.lft.to/lastmile_qr_scan"}, "fusion_lat": 0.0, "lat": 38.89827066666667, "is_disabled": 0, "lon": -76.94654483333333, "is_reserved": 0}, {"bike_id": "b1dc5cace12626ba4035054d81041447", "fusion_lon": 0.0, "type": "electric_scooter", "name": "b1dc5cace12626ba4035054d81041447", "rental_uris": {"android": "https://dc.lft.to/lastmile_qr_scan", "ios": "https://dc.lft.to/lastmile_qr_scan"}, "fusion_lat": 0.0, "lat": 38.9218555, "is_disabled": 0, "lon": -77.0400835, "is_reserved": 0}, {"bike_id": "5f6325ba216270086d5b263a1887990c", "fusion_lon": 0.0, "type": "electric_scooter", "name": "5f6325ba216270086d5b263a1887990c", "rental_uris": {"android": "https://dc.lft.to/lastmile_qr_scan", "ios": "https://dc.lft.to/lastmile_qr_scan"}, "fusion_lat": 0.0, "lat": 38.9126495, "is_disabled": 0, "lon": -77.03873166666666, "is_reserved": 0}, {"bike_id": "05525da89365af721a9dfad70f044ea5", "fusion_lon": 0.0, "type": "electric_scooter", "name": "05525da89365af721a9dfad70f044ea5", "rental_uris": {"android": "https://dc.lft.to/lastmile_qr_scan", "ios": "https://dc.lft.to/lastmile_qr_scan"}, "fusion_lat": 0.0, "lat": 38.9246355, "is_disabled": 0, "lon": -77.07821083333333, "is_reserved": 0}, {"bike_id": "63d3ffd12c8ae35e6dfdf797a839dcaf", "fusion_lon": 0.0, "type": "electric_bike", "name": "63d3ffd12c8ae35e6dfdf797a839dcaf", "rental_uris": {"android": "https://dc.lft.to/lastmile_qr_scan", "ios": "https://dc.lft.to/lastmile_qr_scan"}, "fusion_lat": 0.0, "lat": 38.9574315, "is_disabled": 0, "lon": -76.97252416666667, "is_reserved": 0}, {"bike_id": "a55e52b9e35cb0443bb1bce6f3297b25", "fusion_lon": 0.0, "type": "electric_scooter", "name": "a55e52b9e35cb0443bb1bce6f3297b25", "rental_uris": {"android": "https://dc.lft.to/lastmile_qr_scan", "ios": "https://dc.lft.to/lastmile_qr_scan"}, "fusion_lat": 0.0, "lat": 38.91621883333333, "is_disabled": 0, "lon": -77.03629416666666, "is_reserved": 0}, {"bike_id": "34038a9a3e52eb2a3df5e4d40400a451", "fusion_lon": 0.0, "type": "electric_scooter", "name": "34038a9a3e52eb2a3df5e4d40400a451", "rental_uris": {"android": "https://dc.lft.to/lastmile_qr_scan", "ios": "https://dc.lft.to/lastmile_qr_scan"}, "fusion_lat": 0.0, "lat": 38.8788025, "is_disabled": 0, "lon": -76.97091616666667, "is_reserved": 0}, {"bike_id": "6e0bef15c46db2993b030e137d563fe6", "fusion_lon": 0.0, "type": "electric_scooter", "name": "6e0bef15c46db2993b030e137d563fe6", "rental_uris": {"android": "https://dc.lft.to/lastmile_qr_scan", "ios": "https://dc.lft.to/lastmile_qr_scan"}, "fusion_lat": 0.0, "lat": 38.907931833333336, "is_disabled": 0, "lon": -76.9973085, "is_reserved": 0}, {"bike_id": "a8a48bf4ef6c5aaab1301ca5ebba2568", "fusion_lon": 0.0, "type": "electric_scooter", "name": "a8a48bf4ef6c5aaab1301ca5ebba2568", "rental_uris": {"android": "https://dc.lft.to/lastmile_qr_scan", "ios": "https://dc.lft.to/lastmile_qr_scan"}, "fusion_lat": 0.0, "lat": 38.9168855, "is_disabled": 0, "lon": -77.0281105, "is_reserved": 0}, {"bike_id": "00eeab6d490e9e2f957ebe543a7e8461", "fusion_lon": 0.0, "type": "electric_bike", "name": "00eeab6d490e9e2f957ebe543a7e8461", "rental_uris": {"android": "https://dc.lft.to/lastmile_qr_scan", "ios": "https://dc.lft.to/lastmile_qr_scan"}, "fusion_lat": 0.0, "lat": 38.852453, "is_disabled": 0, "lon": -77.11428366666667, "is_reserved": 0}, {"bike_id": "2ec481e51faca7ec880ddc97ab2e5f39", "fusion_lon": 0.0, "type": "electric_scooter", "name": "2ec481e51faca7ec880ddc97ab2e5f39", "rental_uris": {"android": "https://dc.lft.to/lastmile_qr_scan", "ios": "https://dc.lft.to/lastmile_qr_scan"}, "fusion_lat": 0.0, "lat": 38.91268566666667, "is_disabled": 0, "lon": -77.0314245, "is_reserved": 0}, {"bike_id": "1c93f96d5e40dfe9a21a2bc0b51ee64d", "fusion_lon": 0.0, "type": "electric_bike", "name": "1c93f96d5e40dfe9a21a2bc0b51ee64d", "rental_uris": {"android": "https://dc.lft.to/lastmile_qr_scan", "ios": "https://dc.lft.to/lastmile_qr_scan"}, "fusion_lat": 0.0, "lat": 38.8771275, "is_disabled": 0, "lon": -77.01756166666667, "is_reserved": 0}, {"bike_id": "c632d8d7282f3197f56b8ccb00763a22", "fusion_lon": 0.0, "type": "electric_scooter", "name": "c632d8d7282f3197f56b8ccb00763a22", "rental_uris": {"android": "https://dc.lft.to/lastmile_qr_scan", "ios": "https://dc.lft.to/lastmile_qr_scan"}, "fusion_lat": 0.0, "lat": 38.864825333333336, "is_disabled": 0, "lon": -76.98359266666667, "is_reserved": 0}, {"bike_id": "55bb42f88a39a0df819acc79c95d844e", "fusion_lon": 0.0, "type": "electric_scooter", "name": "55bb42f88a39a0df819acc79c95d844e", "rental_uris": {"android": "https://dc.lft.to/lastmile_qr_scan", "ios": "https://dc.lft.to/lastmile_qr_scan"}, "fusion_lat": 0.0, "lat": 38.922782166666664, "is_disabled": 0, "lon": -76.997715, "is_reserved": 0}, {"bike_id": "bd01ff2791136384e365dd53f79c592a", "fusion_lon": 0.0, "type": "electric_scooter", "name": "bd01ff2791136384e365dd53f79c592a", "rental_uris": {"android": "https://dc.lft.to/lastmile_qr_scan", "ios": "https://dc.lft.to/lastmile_qr_scan"}, "fusion_lat": 0.0, "lat": 38.92376316666667, "is_disabled": 0, "lon": -77.04031816666667, "is_reserved": 0}, {"bike_id": "5217cd08086f78a0176c39dd526e1fe1", "fusion_lon": 0.0, "type": "electric_scooter", "name": "5217cd08086f78a0176c39dd526e1fe1", "rental_uris": {"android": "https://dc.lft.to/lastmile_qr_scan", "ios": "https://dc.lft.to/lastmile_qr_scan"}, "fusion_lat": 0.0, "lat": 38.91826233333333, "is_disabled": 0, "lon": -77.02715166666667, "is_reserved": 0}, {"bike_id": "0dc6a01a76b89f8af800ba4ffca02521", "fusion_lon": 0.0, "type": "electric_bike", "name": "0dc6a01a76b89f8af800ba4ffca02521", "rental_uris": {"android": "https://dc.lft.to/lastmile_qr_scan", "ios": "https://dc.lft.to/lastmile_qr_scan"},