{"data": {"bikes": [{"rental_uris": {"ios": "https://dc.lft.to/lastmile_qr_scan", "android": "https://dc.lft.to/lastmile_qr_scan"}, "type": "electric_scooter", "lon": -77.06175483333334, "lat": 38.90532316666667, "fusion_lon": 0.0, "name": "64e05eaa6b736eb8d528c477a3a292c3", "bike_id": "64e05eaa6b736eb8d528c477a3a292c3", "is_reserved": 0, "fusion_lat": 0.0, "is_disabled": 0}, {"rental_uris": {"ios": "https://dc.lft.to/lastmile_qr_scan", "android": "https://dc.lft.to/lastmile_qr_scan"}, "type": "electric_scooter", "lon": -77.00053566666666, "lat": 38.88459016666667, "fusion_lon": 0.0, "name": "f318ec0e53db8d30605d79add2ea2bfe", "bike_id": "f318ec0e53db8d30605d79add2ea2bfe", "is_reserved": 0, "fusion_lat": 0.0, "is_disabled": 0}, {"rental_uris": {"ios": "https://dc.lft.to/lastmile_qr_scan", "android": "https://dc.lft.to/lastmile_qr_scan"}, "type": "electric_scooter", "lon": -76.98892116666667, "lat": 38.913445833333334, "fusion_lon": 0.0, "name": "c11b9591b9a4c8068605ef5887f197ce", "bike_id": "c11b9591b9a4c8068605ef5887f197ce", "is_reserved": 0, "fusion_lat": 0.0, "is_disabled": 0}, {"rental_uris": {"ios": "https://dc.lft.to/lastmile_qr_scan", "android": "https://dc.lft.to/lastmile_qr_scan"}, "type": "electric_scooter", "lon": -77.0203255, "lat": 38.92443516666667, "fusion_lon": 0.0, "name": "67db69ac7a39c7eb9ecd9f34f1b1f32f", "bike_id": "67db69ac7a39c7eb9ecd9f34f1b1f32f", "is_reserved": 0, "fusion_lat": 0.0, "is_disabled": 0}, {"rental_uris": {"ios": "https://dc.lft.to/lastmile_qr_scan", "android": "https://dc.lft.to/lastmile_qr_scan"}, "type": "electric_scooter", "lon": -77.03217516666666, "lat": 38.93612916666667, "fusion_lon": 0.0, "name": "e13e1e76eca0c2c72672853b46ed525d", "bike_id": "e13e1e76eca0c2c72672853b46ed525d", "is_reserved": 0, "fusion_lat": 0.0, "is_disabled": 0}, {"rental_uris": {"ios": "https://dc.lft.to/lastmile_qr_scan", "android": "https://dc.lft.to/lastmile_qr_scan"}, "type": "electric_scooter", "lon": -77.0057525, "lat": 38.87550366666667, "fusion_lon": 0.0, "name": "d45e58e42cf0d95c7faf2c4e140271c2", "bike_id": "d45e58e42cf0d95c7faf2c4e140271c2", "is_reserved": 0, "fusion_lat": 0.0, "is_disabled": 0}, {"rental_uris": {"ios": "https://dc.lft.to/lastmile_qr_scan", "android": "https://dc.lft.to/lastmile_qr_scan"}, "type": "electric_scooter", "lon": -77.029974, "lat": 38.9012445, "fusion_lon": 0.0, "name": "bf0c1840f2df00b933870d4cd8a0c9d3", "bike_id": "bf0c1840f2df00b933870d4cd8a0c9d3", "is_reserved": 0, "fusion_lat": 0.0, "is_disabled": 0}, {"rental_uris": {"ios": "https://dc.lft.to/lastmile_qr_scan", "android": "https://dc.lft.to/lastmile_qr_scan"}, "type": "electric_scooter", "lon": -77.03420583333333, "lat": 38.935412, "fusion_lon": 0.0, "name": "bdd3a7c8b035227f7f1fc47f7fb2831a", "bike_id": "bdd3a7c8b035227f7f1fc47f7fb2831a", "is_reserved": 0, "fusion_lat": 0.0, "is_disabled": 0}, {"rental_uris": {"ios": "https://dc.lft.to/lastmile_qr_scan", "android": "https://dc.lft.to/lastmile_qr_scan"}, "type": "electric_scooter", "lon": -77.0318195, "lat": 38.903574, "fusion_lon": 0.0, "name": "892a25c9861defd1a202ecf72c07c969", "bike_id": "892a25c9861defd1a202ecf72c07c969", "is_reserved": 0, "fusion_lat": 0.0, "is_disabled": 0}, {"rental_uris": {"ios": "https://dc.lft.to/lastmile_qr_scan", "android": "https://dc.lft.to/lastmile_qr_scan"}, "type": "electric_scooter", "lon": -77.0293125, "lat": 38.89829783333333, "fusion_lon": 0.0, "name": "699d9381f80c498666043355f63316ec", "bike_id": "699d9381f80c498666043355f63316ec", "is_reserved": 0, "fusion_lat": 0.0, "is_disabled": 0}, {"rental_uris": {"ios": "https://dc.lft.to/lastmile_qr_scan", "android": "https://dc.lft.to/lastmile_qr_scan"}, "type": "electric_scooter", "lon": -77.00996483333333, "lat": 38.9192555, "fusion_lon": 0.0, "name": "a5786eaea4621654f9e3eda3954aa45f", "bike_id": "a5786eaea4621654f9e3eda3954aa45f", "is_reserved": 0, "fusion_lat": 0.0, "is_disabled": 0}, {"rental_uris": {"ios": "https://dc.lft.to/lastmile_qr_scan", "android": "https://dc.lft.to/lastmile_qr_scan"}, "type": "electric_scooter", "lon": -77.0216015, "lat": 38.924549999999996, "fusion_lon": 0.0, "name": "bbde1fc480f9fbe552fbece98b55f7be", "bike_id": "bbde1fc480f9fbe552fbece98b55f7be", "is_reserved": 0, "fusion_lat": 0.0, "is_disabled": 0}, {"rental_uris": {"ios": "https://dc.lft.to/lastmile_qr_scan", "android": "https://dc.lft.to/lastmile_qr_scan"}, "type": "electric_scooter", "lon": -77.00199683333334, "lat": 38.9147145, "fusion_lon": 0.0, "name": "1c6329cb37249b33b0d7dfcaee08f58f", "bike_id": "1c6329cb37249b33b0d7dfcaee08f58f", "is_reserved": 0, "fusion_lat": 0.0, "is_disabled": 0}, {"rental_uris": {"ios": "https://dc.lft.to/lastmile_qr_scan", "android": "https://dc.lft.to/lastmile_qr_scan"}, "type": "electric_bike", "lon": -77.34463583333333, "lat": 38.9453755, "fusion_lon": 0.0, "name": "152b3c0c73853c48ad5317c921207bdf", "bike_id": "152b3c0c73853c48ad5317c921207bdf", "is_reserved": 0, "fusion_lat": 0.0, "is_disabled": 0}, {"rental_uris": {"ios": "https://dc.lft.to/lastmile_qr_scan", "android": "https://dc.lft.to/lastmile_qr_scan"}, "type": "electric_scooter", "lon": -76.93674833333333, "lat": 38.886612, "fusion_lon": 0.0, "name": "305b3cc06412f6595666b311ac09c419", "bike_id": "305b3cc06412f6595666b311ac09c419", "is_reserved": 0, "fusion_lat": 0.0, "is_disabled": 0}, {"rental_uris": {"ios": "https://dc.lft.to/lastmile_qr_scan", "android": "https://dc.lft.to/lastmile_qr_scan"}, "type": "electric_scooter", "lon": -77.06843433333333, "lat": 38.917298333333335, "fusion_lon": 0.0, "name": "50bf88c969198b7d4cc8bc1e2f96b45e", "bike_id": "50bf88c969198b7d4cc8bc1e2f96b45e", "is_reserved": 0, "fusion_lat": 0.0, "is_disabled": 0}, {"rental_uris": {"ios": "https://dc.lft.to/lastmile_qr_scan", "android": "https://dc.lft.to/lastmile_qr_scan"}, "type": "electric_scooter", "lon": -77.02220766666667, "lat": 38.92473233333333, "fusion_lon": 0.0, "name": "953d4839d9f021bd366c6b057461b609", "bike_id": "953d4839d9f021bd366c6b057461b609", "is_reserved": 0, "fusion_lat": 0.0, "is_disabled": 0}, {"rental_uris": {"ios": "https://dc.lft.to/lastmile_qr_scan", "android": "https://dc.lft.to/lastmile_qr_scan"}, "type": "electric_scooter", "lon": -77.0649675, "lat": 38.91035466666666, "fusion_lon": 0.0, "name": "bb2b05cdadb04613c660fe5e3e27426c", "bike_id": "bb2b05cdadb04613c660fe5e3e27426c", "is_reserved": 0, "fusion_lat": 0.0, "is_disabled": 0}, {"rental_uris": {"ios": "https://dc.lft.to/lastmile_qr_scan", "android": "https://dc.lft.to/lastmile_qr_scan"}, "type": "electric_scooter", "lon": -77.01850316666666, "lat": 38.900792833333334, "fusion_lon": 0.0, "name": "e15aa51b950c43985a0ba538063a8628", "bike_id": "e15aa51b950c43985a0ba538063a8628", "is_reserved": 0, "fusion_lat": 0.0, "is_disabled": 0}, {"rental_uris": {"ios": "https://dc.lft.to/lastmile_qr_scan", "android": "https://dc.lft.to/lastmile_qr_scan"}, "type": "electric_bike", "lon": -76.951463, "lat": 39.08429683333333, "fusion_lon": 0.0, "name": "bbe6ece5ea51cc0ae387cd3616ab0d1f", "bike_id": "bbe6ece5ea51cc0ae387cd3616ab0d1f", "is_reserved": 0, "fusion_lat": 0.0, "is_disabled": 0}, {"rental_uris": {"ios": "https://dc.lft.to/lastmile_qr_scan", "android": "https://dc.lft.to/lastmile_qr_scan"}, "type": "electric_scooter", "lon": -77.01944966666667, "lat": 38.9226065, "fusion_lon": 0.0, "name": "423f79fdf550983a662e1cf1ddbcaf4b", "bike_id": "423f79fdf550983a662e1cf1ddbcaf4b", "is_reserved": 0, "fusion_lat": 0.0, "is_disabled": 0}, {"rental_uris": {"ios": "https://dc.lft.to/lastmile_qr_scan", "android": "https://dc.lft.to/lastmile_qr_scan"}, "type": "electric_scooter", "lon": -77.0074115, "lat": 38.907549, "fusion_lon": 0.0, "name": "b7a00400b61472fef2787c03df02b965", "bike_id": "b7a00400b61472fef2787c03df02b965", "is_reserved": 0, "fusion_lat": 0.0, "is_disabled": 0}, {"rental_uris": {"ios": "https://dc.lft.to/lastmile_qr_scan", "android": "https://dc.lft.to/lastmile_qr_scan"}, "type": "electric_scooter", "lon": -77.0253375, "lat": 38.918541833333336, "fusion_lon": 0.0, "name": "537c7236b40e6aa5dd8dc36cf9439220", "bike_id": "537c7236b40e6aa5dd8dc36cf9439220", "is_reserved": 0, "fusion_lat": 0.0, "is_disabled": 0}, {"rental_uris": {"ios": "https://dc.lft.to/lastmile_qr_scan", "android": "https://dc.lft.to/lastmile_qr_scan"}, "type": "electric_scooter", "lon": -77.019566, "lat": 38.92326633333333, "fusion_lon": 0.0, "name": "fb99d40e50d60e4a5e52d34c5b8a03da", "bike_id": "fb99d40e50d60e4a5e52d34c5b8a03da", "is_reserved": 0, "fusion_lat": 0.0, "is_disabled": 0}, {"rental_uris": {"ios": "https://dc.lft.to/lastmile_qr_scan", "android": "https://dc.lft.to/lastmile_qr_scan"}, "type": "electric_scooter", "lon": -77.02181116666667, "lat": 38.919479, "fusion_lon": 0.0, "name": "62f3df4eb9b921b3dbc1469c06e456e3", "bike_id": "62f3df4eb9b921b3dbc1469c06e456e3", "is_reserved": 0, "fusion_lat": 0.0, "is_disabled": 0}, {"rental_uris": {"ios": "https://dc.lft.to/lastmile_qr_scan", "android": "https://dc.lft.to/lastmile_qr_scan"}, "type": "electric_scooter", "lon": -77.04077283333334, "lat": 38.907257, "fusion_lon": 0.0, "name": "85e93e4532fbdf96f865a9111246ba97", "bike_id": "85e93e4532fbdf96f865a9111246ba97", "is_reserved": 0, "fusion_lat": 0.0, "is_disabled": 0}, {"rental_uris": {"ios": "https://dc.lft.to/lastmile_qr_scan", "android": "https://dc.lft.to/lastmile_qr_scan"}, "type": "electric_scooter", "lon": -76.99404383333334, "lat": 38.8956435, "fusion_lon": 0.0, "name": "817d713a32f981f4d04a3e78b0cf9815", "bike_id": "817d713a32f981f4d04a3e78b0cf9815", "is_reserved": 0, "fusion_lat": 0.0, "is_disabled": 0}, {"rental_uris": {"ios": "https://dc.lft.to/lastmile_qr_scan", "android": "https://dc.lft.to/lastmile_qr_scan"}, "type": "electric_scooter", "lon": -77.03254133333333, "lat": 38.92890466666667, "fusion_lon": 0.0, "name": "c510dd5007b6cf7058bf6d7e265b2810", "bike_id": "c510dd5007b6cf7058bf6d7e265b2810", "is_reserved": 0, "fusion_lat": 0.0, "is_disabled": 0}, {"rental_uris": {"ios": "https://dc.lft.to/lastmile_qr_scan", "android": "https://dc.lft.to/lastmile_qr_scan"}, "type": "electric_scooter", "lon": -77.0392935, "lat": 38.924955833333335, "fusion_lon": 0.0, "name": "10e4b3c04d4bb63f99c0391f065531c8", "bike_id": "10e4b3c04d4bb63f99c0391f065531c8", "is_reserved": 0, "fusion_lat": 0.0, "is_disabled": 0}, {"rental_uris": {"ios": "https://dc.lft.to/lastmile_qr_scan", "android": "https://dc.lft.to/lastmile_qr_scan"}, "type": "electric_scooter", "lon": -77.01946116666667, "lat": 38.92418466666667, "fusion_lon": 0.0, "name": "380e970ca62954e90ab722d38368a9f8", "bike_id": "380e970ca62954e90ab722d38368a9f8", "is_reserved": 0, "fusion_lat": 0.0, "is_disabled": 0}, {"rental_uris": {"ios": "https://dc.lft.to/lastmile_qr_scan", "android": "https://dc.lft.to/lastmile_qr_scan"}, "type": "electric_scooter", "lon": -77.04774533333334, "lat": 38.905311, "fusion_lon": 0.0, "name": "27bda32e7db8508bb4b39fa31de19bcc", "bike_id": "27bda32e7db8508bb4b39fa31de19bcc", "is_reserved": 0, "fusion_lat": 0.0, "is_disabled": 0}, {"rental_uris": {"ios": "https://dc.lft.to/lastmile_qr_scan", "android": "https://dc.lft.to/lastmile_qr_scan"}, "type": "electric_scooter", "lon": -77.02020983333334, "lat": 38.894853833333336, "fusion_lon": 0.0, "name": "0f21d5ef1cf6ab2ddc867352c1f0c38d", "bike_id": "0f21d5ef1cf6ab2ddc867352c1f0c38d", "is_reserved": 0, "fusion_lat": 0.0, "is_disabled": 0}, {"rental_uris": {"ios": "https://dc.lft.to/lastmile_qr_scan", "android": "https://dc.lft.to/lastmile_qr_scan"}, "type": "electric_scooter", "lon": -76.99851783333334, "lat": 38.900408166666665, "fusion_lon": 0.0, "name": "92e7b0bc3e4c17fccc5c510e92342ec6", "bike_id": "92e7b0bc3e4c17fccc5c510e92342ec6", "is_reserved": 0, "fusion_lat": 0.0, "is_disabled": 0}, {"rental_uris": {"ios": "https://dc.lft.to/lastmile_qr_scan", "android": "https://dc.lft.to/lastmile_qr_scan"}, "type": "electric_scooter", "lon": -77.03190416666666, "lat": 38.9159385, "fusion_lon": 0.0, "name": "b486cfcbcae35fe91d97c54dd55daa3f", "bike_id": "b486cfcbcae35fe91d97c54dd55daa3f", "is_reserved": 0, "fusion_lat": 0.0, "is_disabled": 0}, {"rental_uris": {"ios": "https://dc.lft.to/lastmile_qr_scan", "android": "https://dc.lft.to/lastmile_qr_scan"}, "type": "electric_scooter", "lon": -77.02163533333334, "lat": 38.92611616666667, "fusion_lon": 0.0, "name": "bc44b08cff9f79e1fa396ae5b53b142c", "bike_id": "bc44b08cff9f79e1fa396ae5b53b142c", "is_reserved": 0, "fusion_lat": 0.0, "is_disabled": 0}, {"rental_uris": {"ios": "https://dc.lft.to/lastmile_qr_scan", "android": "https://dc.lft.to/lastmile_qr_scan"}, "type": "electric_scooter", "lon": -77.04198516666666, "lat": 38.892207166666665, "fusion_lon": 0.0, "name": "5cab36a6456fcd2d3f4909e068e76730", "bike_id": "5cab36a6456fcd2d3f4909e068e76730", "is_reserved": 0, "fusion_lat": 0.0, "is_disabled": 0}, {"rental_uris": {"ios": "https://dc.lft.to/lastmile_qr_scan", "android": "https://dc.lft.to/lastmile_qr_scan"}, "type": "electric_scooter", "lon": -77.02475333333334, "lat": 38.90410683333333, "fusion_lon": 0.0, "name": "593ed2fc4c610122597cd5b9884074d6", "bike_id": "593ed2fc4c610122597cd5b9884074d6", "is_reserved": 0, "fusion_lat": 0.0, "is_disabled": 0}, {"rental_uris": {"ios": "https://dc.lft.to/lastmile_qr_scan", "android": "https://dc.lft.to/lastmile_qr_scan"}, "type": "electric_scooter", "lon": -77.03472633333334, "lat": 38.902315, "fusion_lon": 0.0, "name": "849ede23e8d4a347d6db5c87c5e39b41", "bike_id": "849ede23e8d4a347d6db5c87c5e39b41", "is_reserved": 0, "fusion_lat": 0.0, "is_disabled": 0}, {"rental_uris": {"ios": "https://dc.lft.to/lastmile_qr_scan", "android": "https://dc.lft.to/lastmile_qr_scan"}, "type": "electric_scooter", "lon": -76.92963633333333, "lat": 38.89632316666667, "fusion_lon": 0.0, "name": "17df1691f30ebe7975009a6fd52e5487", "bike_id": "17df1691f30ebe7975009a6fd52e5487", "is_reserved": 0, "fusion_lat": 0.0, "is_disabled": 0}, {"rental_uris": {"ios": "https://dc.lft.to/lastmile_qr_scan", "android": "https://dc.lft.to/lastmile_qr_scan"}, "type": "electric_bike", "lon": -77.0120925, "lat": 38.82890966666667, "fusion_lon": 0.0, "name": "bc5bde62c56f487767b20c84603c5f30", "bike_id": "bc5bde62c56f487767b20c84603c5f30", "is_reserved": 0, "fusion_lat": 0.0, "is_disabled": 0}, {"rental_uris": {"ios": "https://dc.lft.to/lastmile_qr_scan", "android": "https://dc.lft.to/lastmile_qr_scan"}, "type": "electric_scooter", "lon": -77.02753366666667, "lat": 38.95735616666666, "fusion_lon": 0.0, "name": "69b6bb865ecc18ebfeed0fdbcd7681ea", "bike_id": "69b6bb865ecc18ebfeed0fdbcd7681ea", "is_reserved": 0, "fusion_lat": 0.0, "is_disabled": 0}, {"rental_uris": {"ios": "https://dc.lft.to/lastmile_qr_scan", "android": "https://dc.lft.to/lastmile_qr_scan"}, "type": "electric_scooter", "lon": -77.06122, "lat": 38.90202516666667, "fusion_lon": 0.0, "name": "78acce698e8955ac90d6bf03c59f4395", "bike_id": "78acce698e8955ac90d6bf03c59f4395", "is_reserved": 0, "fusion_lat": 0.0, "is_disabled": 0}, {"rental_uris": {"ios": "https://dc.lft.to/lastmile_qr_scan", "android": "https://dc.lft.to/lastmile_qr_scan"}, "type": "electric_scooter", "lon": -77.02156683333334, "lat": 38.9250035, "fusion_lon": 0.0, "name": "75c92fd18aa460cc6c4e2def0ebcb1ef", "bike_id": "75c92fd18aa460cc6c4e2def0ebcb1ef", "is_reserved": 0, "fusion_lat": 0.0, "is_disabled": 0}, {"rental_uris": {"ios": "https://dc.lft.to/lastmile_qr_scan", "android": "https://dc.lft.to/lastmile_qr_scan"}, "type": "electric_scooter", "lon": -77.02371666666667, "lat": 38.9030445, "fusion_lon": 0.0, "name": "6f75b77c00bf0b38050668e235f25f09", "bike_id": "6f75b77c00bf0b38050668e235f25f09", "is_reserved": 0, "fusion_lat": 0.0, "is_disabled": 0}, {"rental_uris": {"ios": "https://dc.lft.to/lastmile_qr_scan", "android": "https://dc.lft.to/lastmile_qr_scan"}, "type": "electric_scooter", "lon": -77.048073, "lat": 38.89593566666667, "fusion_lon": 0.0, "name": "51583ee1217c51bd4f5f0d584aaf9233", "bike_id": "51583ee1217c51bd4f5f0d584aaf9233", "is_reserved": 0, "fusion_lat": 0.0, "is_disabled": 0}, {"rental_uris": {"ios": "https://dc.lft.to/lastmile_qr_scan", "android": "https://dc.lft.to/lastmile_qr_scan"}, "type": "electric_scooter", "lon": -77.04535033333333, "lat": 38.91329283333334, "fusion_lon": 0.0, "name": "026a9c4a2545cb8b21a3d52d976cd5fd", "bike_id": "026a9c4a2545cb8b21a3d52d976cd5fd", "is_reserved": 0, "fusion_lat": 0.0, "is_disabled": 0}, {"rental_uris": {"ios": "https://dc.lft.to/lastmile_qr_scan", "android": "https://dc.lft.to/lastmile_qr_scan"}, "type": "electric_scooter", "lon": -77.0542695, "lat": 38.92340766666667, "fusion_lon": 0.0, "name": "53d990f257944ed18b3be58e7a807245", "bike_id": "53d990f257944ed18b3be58e7a807245", "is_reserved": 0, "fusion_lat": 0.0, "is_disabled": 0}, {"rental_uris": {"ios": "https://dc.lft.to/lastmile_qr_scan", "android": "https://dc.lft.to/lastmile_qr_scan"}, "type": "electric_scooter", "lon": -77.0282715, "lat": 38.9165985, "fusion_lon": 0.0, "name": "592eff662285bcb692e195b62ce1b3d3", "bike_id": "592eff662285bcb692e195b62ce1b3d3", "is_reserved": 0, "fusion_lat": 0.0, "is_disabled": 0}, {"rental_uris": {"ios": "https://dc.lft.to/lastmile_qr_scan", "android": "https://dc.lft.to/lastmile_qr_scan"}, "type": "electric_scooter", "lon": -77.04643283333333, "lat": 38.892199, "fusion_lon": 0.0, "name": "54812b2364cd6c8e4c3871c0461111fd", "bike_id": "54812b2364cd6c8e4c3871c0461111fd", "is_reserved": 0, "fusion_lat": 0.0, "is_disabled": 0}, {"rental_uris": {"ios": "https://dc.lft.to/lastmile_qr_scan", "android": "https://dc.lft.to/lastmile_qr_scan"}, "type": "electric_scooter", "lon": -77.02175916666667, "lat": 38.887057, "fusion_lon": 0.0, "name": "32a96f1f4eac134563aeef6c2108287a", "bike_id": "32a96f1f4eac134563aeef6c2108287a", "is_reserved": 0, "fusion_lat": 0.0, "is_disabled": 0}, {"rental_uris": {"ios": "https://dc.lft.to/lastmile_qr_scan", "android": "https://dc.lft.to/lastmile_qr_scan"}, "type": "electric_scooter", "lon": -77.04999133333334, "lat": 38.892312833333335, "fusion_lon": 0.0, "name": "56992a2cb4ba3f4332b3329596da1c28", "bike_id": "56992a2cb4ba3f4332b3329596da1c28", "is_reserved": 0, "fusion_lat": 0.0, "is_disabled": 0}, {"rental_uris": {"ios": "https://dc.lft.to/lastmile_qr_scan", "android": "https://dc.lft.to/lastmile_qr_scan"}, "type": "electric_scooter", "lon": -77.02678416666667, "lat": 38.90275066666667, "fusion_lon": 0.0, "name": "8554e4b1bcde9d4bfbe944e965419180", "bike_id": "8554e4b1bcde9d4bfbe944e965419180", "is_reserved": 0, "fusion_lat": 0.0, "is_disabled": 0}, {"rental_uris": {"ios": "https://dc.lft.to/lastmile_qr_scan", "android": "https://dc.lft.to/lastmile_qr_scan"}, "type": "electric_scooter", "lon": -77.03193233333333, "lat": 38.91906316666667, "fusion_lon": 0.0, "name": "96d9cdd83c7466b85925752337c332cc", "bike_id": "96d9cdd83c7466b85925752337c332cc", "is_reserved": 0, "fusion_lat": 0.0, "is_disabled": 0}, {"rental_uris": {"ios": "https://dc.lft.to/lastmile_qr_scan", "android": "https://dc.lft.to/lastmile_qr_scan"}, "type": "electric_bike", "lon": -77.07964183333333, "lat": 38.9475805, "fusion_lon": 0.0, "name": "7b432c205be0b551bfff311bc28094da", "bike_id": "7b432c205be0b551bfff311bc28094da", "is_reserved": 0, "fusion_lat": 0.0, "is_disabled": 0}, {"rental_uris": {"ios": "https://dc.lft.to/lastmile_qr_scan", "android": "https://dc.lft.to/lastmile_qr_scan"}, "type": "electric_bike", "lon": -77.1391995, "lat": 38.846735333333335, "fusion_lon": 0.0, "name": "99a245681268fa5e758448ed65cc643b", "bike_id": "99a245681268fa5e758448ed65cc643b", "is_reserved": 0, "fusion_lat": 0.0, "is_disabled": 0}, {"rental_uris": {"ios": "https://dc.lft.to/lastmile_qr_scan", "android": "https://dc.lft.to/lastmile_qr_scan"}, "type": "electric_scooter", "lon": -77.0506495, "lat": 38.924119833333336, "fusion_lon": 0.0, "name": "2b4e63b1de9574659e75321b9a261285", "bike_id": "2b4e63b1de9574659e75321b9a261285", "is_reserved": 0, "fusion_lat": 0.0, "is_disabled": 0}, {"rental_uris": {"ios": "https://dc.lft.to/lastmile_qr_scan", "android": "https://dc.lft.to/lastmile_qr_scan"}, "type": "electric_scooter", "lon": -77.04840516666667, "lat": 38.904583833333334, "fusion_lon": 0.0, "name": "d34b95ba890b1b10c613ae79d4cc26c6", "bike_id": "d34b95ba890b1b10c613ae79d4cc26c6", "is_reserved": 0, "fusion_lat": 0.0, "is_disabled": 0}, {"rental_uris": {"ios": "https://dc.lft.to/lastmile_qr_scan", "android": "https://dc.lft.to/lastmile_qr_scan"}, "type": "electric_scooter", "lon": -76.99088983333333, "lat": 38.8823935, "fusion_lon": 0.0, "name": "72dd9368a94fb76504093f43013e95d3", "bike_id": "72dd9368a94fb76504093f43013e95d3", "is_reserved": 0, "fusion_lat": 0.0, "is_disabled": 0}, {"rental_uris": {"ios": "https://dc.lft.to/lastmile_qr_scan", "android": "https://dc.lft.to/lastmile_qr_scan"}, "type": "electric_scooter", "lon": -77.04165733333333, "lat": 38.914539, "fusion_lon": 0.0, "name": "4774485bcbddeb6a891fe12fdfe83fa0", "bike_id": "4774485bcbddeb6a891fe12fdfe83fa0", "is_reserved": 0, "fusion_lat": 0.0, "is_disabled": 0}, {"rental_uris": {"ios": "https://dc.lft.to/lastmile_qr_scan", "android": "https://dc.lft.to/lastmile_qr_scan"}, "type": "electric_scooter", "lon": -77.05393116666667, "lat": 38.923319666666664, "fusion_lon": 0.0, "name": "6dbd84c669825277c3a251d09e282f41", "bike_id": "6dbd84c669825277c3a251d09e282f41", "is_reserved": 0, "fusion_lat": 0.0, "is_disabled": 0}, {"rental_uris": {"ios": "https://dc.lft.to/lastmile_qr_scan", "android": "https://dc.lft.to/lastmile_qr_scan"}, "type": "electric_scooter", "lon": -77.04537533333334, "lat": 38.913269166666666, "fusion_lon": 0.0, "name": "f8a2c451f0755931f05a7f45994a1d7d", "bike_id": "f8a2c451f0755931f05a7f45994a1d7d", "is_reserved": 0, "fusion_lat": 0.0, "is_disabled": 0}, {"rental_uris": {"ios": "https://dc.lft.to/lastmile_qr_scan", "android": "https://dc.lft.to/lastmile_qr_scan"}, "type": "electric_scooter", "lon": -77.03207766666667, "lat": 38.91609483333333, "fusion_lon": 0.0, "name": "cc6fd7dc88eb5bdf9421e2c6bf110793", "bike_id": "cc6fd7dc88eb5bdf9421e2c6bf110793", "is_reserved": 0, "fusion_lat": 0.0, "is_disabled": 0}, {"rental_uris": {"ios": "https://dc.lft.to/lastmile_qr_scan", "android": "https://dc.lft.to/lastmile_qr_scan"}, "type": "electric_scooter", "lon": -76.95835483333333, "lat": 38.930454166666664, "fusion_lon": 0.0, "name": "a6d3f6d6d985a0e3a6820ae6dba2b03b", "bike_id": "a6d3f6d6d985a0e3a6820ae6dba2b03b", "is_reserved": 0, "fusion_lat": 0.0, "is_disabled": 0}, {"rental_uris": {"ios": "https://dc.lft.to/lastmile_qr_scan", "android": "https://dc.lft.to/lastmile_qr_scan"}, "type": "electric_scooter", "lon": -77.04519383333333, "lat": 38.909709166666666, "fusion_lon": 0.0, "name": "227f951c075cc0b6de09ff80a2bc1999", "bike_id": "227f951c075cc0b6de09ff80a2bc1999", "is_reserved": 0, "fusion_lat": 0.0, "is_disabled": 0}, {"rental_uris": {"ios": "https://dc.lft.to/lastmile_qr_scan", "android": "https://dc.lft.to/lastmile_qr_scan"}, "type": "electric_scooter", "lon": -77.04142866666666, "lat": 38.895812, "fusion_lon": 0.0, "name": "c7c15de709689a93864bdcd0c123255d", "bike_id": "c7c15de709689a93864bdcd0c123255d", "is_reserved": 0, "fusion_lat": 0.0, "is_disabled": 0}, {"rental_uris": {"ios": "https://dc.lft.to/lastmile_qr_scan", "android": "https://dc.lft.to/lastmile_qr_scan"}, "type": "electric_scooter", "lon": -77.02116116666667, "lat": 38.917385333333335, "fusion_lon": 0.0, "name": "5f16e89a3afaf4ff8b4748bb0669166d", "bike_id": "5f16e89a3afaf4ff8b4748bb0669166d", "is_reserved": 0, "fusion_lat": 0.0, "is_disabled": 0}, {"rental_uris": {"ios": "https://dc.lft.to/lastmile_qr_scan", "android": "https://dc.lft.to/lastmile_qr_scan"}, "type": "electric_scooter", "lon": -77.03340916666667, "lat": 38.948975833333336, "fusion_lon": 0.0, "name": "b0e23f3451ef942c87a3e5f20c9381ff", "bike_id": "b0e23f3451ef942c87a3e5f20c9381ff", "is_reserved": 0, "fusion_lat": 0.0, "is_disabled": 0}, {"rental_uris": {"ios": "https://dc.lft.to/lastmile_qr_scan", "android": "https://dc.lft.to/lastmile_qr_scan"}, "type": "electric_scooter", "lon": -77.05746866666667, "lat": 38.909380166666665, "fusion_lon": 0.0, "name": "97f97cd695cb09b7dcc43b887c30ff81", "bike_id": "97f97cd695cb09b7dcc43b887c30ff81", "is_reserved": 0, "fusion_lat": 0.0, "is_disabled": 0}, {"rental_uris": {"ios": "https://dc.lft.to/lastmile_qr_scan", "android": "https://dc.lft.to/lastmile_qr_scan"}, "type": "electric_bike", "lon": -76.96084433333333, "lat": 38.918624333333334, "fusion_lon": 0.0, "name": "23b93e0172f789825f7d3b8b977bc5cb", "bike_id": "23b93e0172f789825f7d3b8b977bc5cb", "is_reserved": 0, "fusion_lat": 0.0, "is_disabled": 0}, {"rental_uris": {"ios": "https://dc.lft.to/lastmile_qr_scan", "android": "https://dc.lft.to/lastmile_qr_scan"}, "type": "electric_scooter", "lon": -77.04147183333333, "lat": 38.923004, "fusion_lon": 0.0, "name": "b33f916eac8d138cbb034f0a569f5343", "bike_id": "b33f916eac8d138cbb034f0a569f5343", "is_reserved": 0, "fusion_lat": 0.0, "is_disabled": 0}, {"rental_uris": {"ios": "https://dc.lft.to/lastmile_qr_scan", "android": "https://dc.lft.to/lastmile_qr_scan"}, "type": "electric_scooter", "lon": -76.97421566666667, "lat": 38.901511666666664, "fusion_lon": 0.0, "name": "378d17a5e73e71d34fc5489e0419b553", "bike_id": "378d17a5e73e71d34fc5489e0419b553", "is_reserved": 0, "fusion_lat": 0.0, "is_disabled": 0}, {"rental_uris": {"ios": "https://dc.lft.to/lastmile_qr_scan", "android": "https://dc.lft.to/lastmile_qr_scan"}, "type": "electric_scooter", "lon": -77.023054, "lat": 38.92657666666667, "fusion_lon": 0.0, "name": "ea8d41d9aac1d945e5c27b41b5f55025", "bike_id": "ea8d41d9aac1d945e5c27b41b5f55025", "is_reserved": 0, "fusion_lat": 0.0, "is_disabled": 0}, {"rental_uris": {"ios": "https://dc.lft.to/lastmile_qr_scan", "android": "https://dc.lft.to/lastmile_qr_scan"}, "type": "electric_scooter", "lon": -77.0227785, "lat": 38.886251333333334, "fusion_lon": 0.0, "name": "966100e504bf59489165716d5772940d", "bike_id": "966100e504bf59489165716d5772940d", "is_reserved": 0, "fusion_lat": 0.0, "is_disabled": 0}, {"rental_uris": {"ios": "https://dc.lft.to/lastmile_qr_scan", "android": "https://dc.lft.to/lastmile_qr_scan"}, "type": "electric_scooter", "lon": -77.02978816666666, "lat": 38.924472333333334, "fusion_lon": 0.0, "name": "4f20c6acf534f8bedc1861d3449b8d4c", "bike_id": "4f20c6acf534f8bedc1861d3449b8d4c", "is_reserved": 0, "fusion_lat": 0.0, "is_disabled": 0}, {"rental_uris": {"ios": "https://dc.lft.to/lastmile_qr_scan", "android": "https://dc.lft.to/lastmile_qr_scan"}, "type": "electric_scooter", "lon": -77.04261483333333, "lat": 38.9221395, "fusion_lon": 0.0, "name": "a1a08656b6cac52d8dd98f989312ce71", "bike_id": "a1a08656b6cac52d8dd98f989312ce71", "is_reserved": 0, "fusion_lat": 0.0, "is_disabled": 0}, {"rental_uris": {"ios": "https://dc.lft.to/lastmile_qr_scan", "android": "https://dc.lft.to/lastmile_qr_scan"}, "type": "electric_scooter", "lon": -77.04159533333333, "lat": 38.91845166666667, "fusion_lon": 0.0, "name": "39e44430dfb354fb66d0242335ac9175", "bike_id": "39e44430dfb354fb66d0242335ac9175", "is_reserved": 0, "fusion_lat": 0.0, "is_disabled": 0}, {"rental_uris": {"ios": "https://dc.lft.to/lastmile_qr_scan", "android": "https://dc.lft.to/lastmile_qr_scan"}, "type": "electric_scooter", "lon": -76.99810316666667, "lat": 38.92931983333333, "fusion_lon": 0.0, "name": "a1a117b6e0c7e7ddf9e852746be08953", "bike_id": "a1a117b6e0c7e7ddf9e852746be08953", "is_reserved": 0, "fusion_lat": 0.0, "is_disabled": 0}, {"rental_uris": {"ios": "https://dc.lft.to/lastmile_qr_scan", "android": "https://dc.lft.to/lastmile_qr_scan"}, "type": "electric_scooter", "lon": -77.02012533333334, "lat": 38.93505366666667, "fusion_lon": 0.0, "name": "587ad53de25bbe184f1711e5d81d7032", "bike_id": "587ad53de25bbe184f1711e5d81d7032", "is_reserved": 0, "fusion_lat": 0.0, "is_disabled": 0}, {"rental_uris": {"ios": "https://dc.lft.to/lastmile_qr_scan", "android": "https://dc.lft.to/lastmile_qr_scan"}, "type": "electric_scooter", "lon": -77.04363783333334, "lat": 38.92245666666667, "fusion_lon": 0.0, "name": "bef3b844453a7bfa04265ad2dc2c5407", "bike_id": "bef3b844453a7bfa04265ad2dc2c5407", "is_reserved": 0, "fusion_lat": 0.0, "is_disabled": 0}, {"rental_uris": {"ios": "https://dc.lft.to/lastmile_qr_scan", "android": "https://dc.lft.to/lastmile_qr_scan"}, "type": "electric_scooter", "lon": -77.02203783333333, "lat": 38.908241833333335, "fusion_lon": 0.0, "name": "da791e374f6ec48c9ae1f889b49f7e8d", "bike_id": "da791e374f6ec48c9ae1f889b49f7e8d", "is_reserved": 0, "fusion_lat": 0.0, "is_disabled": 0}, {"rental_uris": {"ios": "https://dc.lft.to/lastmile_qr_scan", "android": "https://dc.lft.to/lastmile_qr_scan"}, "type": "electric_scooter", "lon": -77.04364683333333, "lat": 38.89683633333333, "fusion_lon": 0.0, "name": "252565ecabe2a7cfc7f2a9ca29070958", "bike_id": "252565ecabe2a7cfc7f2a9ca29070958", "is_reserved": 0, "fusion_lat": 0.0, "is_disabled": 0}, {"rental_uris": {"ios": "https://dc.lft.to/lastmile_qr_scan", "android": "https://dc.lft.to/lastmile_qr_scan"}, "type": "electric_scooter", "lon": -77.05492533333333, "lat": 38.908422, "fusion_lon": 0.0, "name": "c66d2c40b56f7181ce20c15b6d27bf51", "bike_id": "c66d2c40b56f7181ce20c15b6d27bf51", "is_reserved": 0, "fusion_lat": 0.0, "is_disabled": 0}, {"rental_uris": {"ios": "https://dc.lft.to/lastmile_qr_scan", "android": "https://dc.lft.to/lastmile_qr_scan"}, "type": "electric_scooter", "lon": -77.01670033333333, "lat": 38.920395166666665, "fusion_lon": 0.0, "name": "d3ee52b46b77a3390f38ef321de7f7e0", "bike_id": "d3ee52b46b77a3390f38ef321de7f7e0", "is_reserved": 0, "fusion_lat": 0.0, "is_disabled": 0}, {"rental_uris": {"ios": "https://dc.lft.to/lastmile_qr_scan", "android": "https://dc.lft.to/lastmile_qr_scan"}, "type": "electric_scooter", "lon": -76.99019183333333, "lat": 38.882696833333334, "fusion_lon": 0.0, "name": "4d323e00ab06e9acc2a4790300e16a8a", "bike_id": "4d323e00ab06e9acc2a4790300e16a8a", "is_reserved": 0, "fusion_lat": 0.0, "is_disabled": 0}, {"rental_uris": {"ios": "https://dc.lft.to/lastmile_qr_scan", "android": "https://dc.lft.to/lastmile_qr_scan"}, "type": "electric_scooter", "lon": -77.022955, "lat": 38.917411333333334, "fusion_lon": 0.0, "name": "ceef65e31dfdf1c5f385985cd5399fe5", "bike_id": "ceef65e31dfdf1c5f385985cd5399fe5", "is_reserved": 0, "fusion_lat": 0.0, "is_disabled": 0}, {"rental_uris": {"ios": "https://dc.lft.to/lastmile_qr_scan", "android": "https://dc.lft.to/lastmile_qr_scan"}, "type": "electric_scooter", "lon": -77.00050266666666, "lat": 38.8788045, "fusion_lon": 0.0, "name": "5ab0dfac62780e2e621085d53378c3a8", "bike_id": "5ab0dfac62780e2e621085d53378c3a8", "is_reserved": 0, "fusion_lat": 0.0, "is_disabled": 0}, {"rental_uris": {"ios": "https://dc.lft.to/lastmile_qr_scan", "android": "https://dc.lft.to/lastmile_qr_scan"}, "type": "electric_scooter", "lon": -76.99344883333333, "lat": 38.90023333333333, "fusion_lon": 0.0, "name": "0d738836c2c005fae9cf92c93102b690", "bike_id": "0d738836c2c005fae9cf92c93102b690", "is_reserved": 0, "fusion_lat": 0.0, "is_disabled": 0}, {"rental_uris": {"ios": "https://dc.lft.to/lastmile_qr_scan", "android": "https://dc.lft.to/lastmile_qr_scan"}, "type": "electric_scooter", "lon": -77.01435983333333, "lat": 38.942262, "fusion_lon": 0.0, "name": "01f2fc349c2a2118532ceb9af0e47ff9", "bike_id": "01f2fc349c2a2118532ceb9af0e47ff9", "is_reserved": 0, "fusion_lat": 0.0, "is_disabled": 0}, {"rental_uris": {"ios": "https://dc.lft.to/lastmile_qr_scan", "android": "https://dc.lft.to/lastmile_qr_scan"}, "type": "electric_scooter", "lon": -76.99507083333333, "lat": 38.882531166666666, "fusion_lon": 0.0, "name": "d924507681300133c395f707d1fcca06", "bike_id": "d924507681300133c395f707d1fcca06", "is_reserved": 0, "fusion_lat": 0.0, "is_disabled": 0}, {"rental_uris": {"ios": "https://dc.lft.to/lastmile_qr_scan", "android": "https://dc.lft.to/lastmile_qr_scan"}, "type": "electric_scooter", "lon": -77.01221933333333, "lat": 38.897731, "fusion_lon": 0.0, "name": "64474d3c8d0f7fb668de6fa6093af71d", "bike_id": "64474d3c8d0f7fb668de6fa6093af71d", "is_reserved": 0, "fusion_lat": 0.0, "is_disabled": 0}, {"rental_uris": {"ios": "https://dc.lft.to/lastmile_qr_scan", "android": "https://dc.lft.to/lastmile_qr_scan"}, "type": "electric_scooter", "lon": -77.03257233333333, "lat": 38.928942, "fusion_lon": 0.0, "name": "f1622d3381e4e0e4b02302271c99dd0d", "bike_id": "f1622d3381e4e0e4b02302271c99dd0d", "is_reserved": 0, "fusion_lat": 0.0, "is_disabled": 0}, {"rental_uris": {"ios": "https://dc.lft.to/lastmile_qr_scan", "android": "https://dc.lft.to/lastmile_qr_scan"}, "type": "electric_bike", "lon": -76.9525235, "lat": 38.906966, "fusion_lon": 0.0, "name": "e37435d9c8aabd29a225f61c5583dda6", "bike_id": "e37435d9c8aabd29a225f61c5583dda6", "is_reserved": 0, "fusion_lat": 0.0, "is_disabled": 0}, {"rental_uris": {"ios": "https://dc.lft.to/lastmile_qr_scan", "android": "https://dc.lft.to/lastmile_qr_scan"}, "type": "electric_scooter", "lon": -77.0406595, "lat": 38.92398583333333, "fusion_lon": 0.0, "name": "42ced046cd7afcc79e8facd1b3dfbd2a", "bike_id": "42ced046cd7afcc79e8facd1b3dfbd2a", "is_reserved": 0, "fusion_lat": 0.0, "is_disabled": 0}, {"rental_uris": {"ios": "https://dc.lft.to/lastmile_qr_scan", "android": "https://dc.lft.to/lastmile_qr_scan"}, "type": "electric_scooter", "lon": -77.04024233333334, "lat": 38.92252933333333, "fusion_lon": 0.0, "name": "ab540cfd557712ef626df959be0d4764", "bike_id": "ab540cfd557712ef626df959be0d4764", "is_reserved": 0, "fusion_lat": 0.0, "is_disabled": 0}, {"rental_uris": {"ios": "https://dc.lft.to/lastmile_qr_scan", "android": "https://dc.lft.to/lastmile_qr_scan"}, "type": "electric_scooter", "lon": -77.00521983333333, "lat": 38.88028533333333, "fusion_lon": 0.0, "name": "d16368dfe2394fd2fc6420faf46c8b54", "bike_id": "d16368dfe2394fd2fc6420faf46c8b54", "is_reserved": 0, "fusion_lat": 0.0, "is_disabled": 0}, {"rental_uris": {"ios": "https://dc.lft.to/lastmile_qr_scan", "android": "https://dc.lft.to/lastmile_qr_scan"}, "type": "electric_bike", "lon": -77.0289005, "lat": 38.99812, "fusion_lon": 0.0, "name": "e881bbde7258c808f6f806e1fbe7b8de", "bike_id": "e881bbde7258c808f6f806e1fbe7b8de", "is_reserved": 0, "fusion_lat": 0.0, "is_disabled": 0}, {"rental_uris": {"ios": "https://dc.lft.to/lastmile_qr_scan", "android": "https://dc.lft.to/lastmile_qr_scan"}, "type": "electric_scooter", "lon": -77.044789, "lat": 38.918743, "fusion_lon": 0.0, "name": "aa0298f154e1193b912d930996ea4e7c", "bike_id": "aa0298f154e1193b912d930996ea4e7c", "is_reserved": 0, "fusion_lat": 0.0, "is_disabled": 0}, {"rental_uris": {"ios": "https://dc.lft.to/lastmile_qr_scan", "android": "https://dc.lft.to/lastmile_qr_scan"}, "type": "electric_scooter", "lon": -77.01759583333333, "lat": 38.8768765, "fusion_lon": 0.0, "name": "c2058515d8bceebee19e0d468f8d2c5d", "bike_id": "c2058515d8bceebee19e0d468f8d2c5d", "is_reserved": 0, "fusion_lat": 0.0, "is_disabled": 0}, {"rental_uris": {"ios": "https://dc.lft.to/lastmile_qr_scan", "android": "https://dc.lft.to/lastmile_qr_scan"}, "type": "electric_scooter", "lon": -77.05015016666667, "lat": 38.92342033333333, "fusion_lon": 0.0, "name": "d75378538897a485427a420927a489f3", "bike_id": "d75378538897a485427a420927a489f3", "is_reserved": 0, "fusion_lat": 0.0, "is_disabled": 0}, {"rental_uris": {"ios": "https://dc.lft.to/lastmile_qr_scan", "android": "https://dc.lft.to/lastmile_qr_scan"}, "type": "electric_scooter", "lon": -77.0400585, "lat": 38.910014, "fusion_lon": 0.0, "name": "49942ee42bcecd7e6c0e14e9ed724f03", "bike_id": "49942ee42bcecd7e6c0e14e9ed724f03", "is_reserved": 0, "fusion_lat": 0.0, "is_disabled": 0}, {"rental_uris": {"ios": "https://dc.lft.to/lastmile_qr_scan", "android": "https://dc.lft.to/lastmile_qr_scan"}, "type": "electric_scooter", "lon": -77.07029316666667, "lat": 38.90778533333334, "fusion_lon": 0.0, "name": "d9cb9972b22dbf437007c6e8781f2f0c", "bike_id": "d9cb9972b22dbf437007c6e8781f2f0c", "is_reserved": 0, "fusion_lat": 0.0, "is_disabled": 0}, {"rental_uris": {"ios": "https://dc.lft.to/lastmile_qr_scan", "android": "https://dc.lft.to/lastmile_qr_scan"}, "type": "electric_scooter", "lon": -77.03510933333334, "lat": 38.931088833333334, "fusion_lon": 0.0, "name": "9f78f1c0ab6d7ae6b008d69aa66d0ed9", "bike_id": "9f78f1c0ab6d7ae6b008d69aa66d0ed9", "is_reserved": 0, "fusion_lat": 0.0, "is_disabled": 0}, {"rental_uris": {"ios": "https://dc.lft.to/lastmile_qr_scan", "android": "https://dc.lft.to/lastmile_qr_scan"}, "type": "electric_scooter", "lon": -77.0446785, "lat": 38.89219583333333, "fusion_lon": 0.0, "name": "d9a0aae14dad46685f54a06ad8b46c77", "bike_id": "d9a0aae14dad46685f54a06ad8b46c77", "is_reserved": 0, "fusion_lat": 0.0, "is_disabled": 0}, {"rental_uris": {"ios": "https://dc.lft.to/lastmile_qr_scan", "android": "https://dc.lft.to/lastmile_qr_scan"}, "type": "electric_scooter", "lon": -76.99773416666666, "lat": 38.894214833333336, "fusion_lon": 0.0, "name": "c445e4f6ce2c0ccc78b5d106658e7cad", "bike_id": "c445e4f6ce2c0ccc78b5d106658e7cad", "is_reserved": 0, "fusion_lat": 0.0, "is_disabled": 0}, {"rental_uris": {"ios": "https://dc.lft.to/lastmile_qr_scan", "android": "https://dc.lft.to/lastmile_qr_scan"}, "type": "electric_scooter", "lon": -77.0295985, "lat": 38.899303333333336, "fusion_lon": 0.0, "name": "d499189b8d338553adfdbcf36d558001", "bike_id": "d499189b8d338553adfdbcf36d558001", "is_reserved": 0, "fusion_lat": 0.0, "is_disabled": 0}, {"rental_uris": {"ios": "https://dc.lft.to/lastmile_qr_scan", "android": "https://dc.lft.to/lastmile_qr_scan"}, "type": "electric_scooter", "lon": -77.02762433333334, "lat": 38.902704166666666, "fusion_lon": 0.0, "name": "2e4ed290bbf3a221fd2814cda6fc07ac", "bike_id": "2e4ed290bbf3a221fd2814cda6fc07ac", "is_reserved": 0, "fusion_lat": 0.0, "is_disabled": 0}, {"rental_uris": {"ios": "https://dc.lft.to/lastmile_qr_scan", "android": "https://dc.lft.to/lastmile_qr_scan"}, "type": "electric_scooter", "lon": -76.94920866666666, "lat": 38.895457666666665, "fusion_lon": 0.0, "name": "dc7e1ae972086d53e6d7da1fceb03fa7", "bike_id": "dc7e1ae972086d53e6d7da1fceb03fa7", "is_reserved": 0, "fusion_lat": 0.0, "is_disabled": 0}, {"rental_uris": {"ios": "https://dc.lft.to/lastmile_qr_scan", "android": "https://dc.lft.to/lastmile_qr_scan"}, "type": "electric_scooter", "lon": -76.9867765, "lat": 38.88871133333333, "fusion_lon": 0.0, "name": "80651663cbb4076d85bc65b1429ddc4c", "bike_id": "80651663cbb4076d85bc65b1429ddc4c", "is_reserved": 0, "fusion_lat": 0.0, "is_disabled": 0}, {"rental_uris": {"ios": "https://dc.lft.to/lastmile_qr_scan", "android": "https://dc.lft.to/lastmile_qr_scan"}, "type": "electric_scooter", "lon": -77.031094, "lat": 38.9230705, "fusion_lon": 0.0, "name": "a64c068f63c3178802bb7eb6c3c89554", "bike_id": "a64c068f63c3178802bb7eb6c3c89554", "is_reserved": 0, "fusion_lat": 0.0, "is_disabled": 0}, {"rental_uris": {"ios": "https://dc.lft.to/lastmile_qr_scan", "android": "https://dc.lft.to/lastmile_qr_scan"}, "type": "electric_scooter", "lon": -77.02165, "lat": 38.89306083333334, "fusion_lon": 0.0, "name": "f9f89a5dea2a0d4001235bd7bc56c643", "bike_id": "f9f89a5dea2a0d4001235bd7bc56c643", "is_reserved": 0, "fusion_lat": 0.0, "is_disabled": 0}, {"rental_uris": {"ios": "https://dc.lft.to/lastmile_qr_scan", "android": "https://dc.lft.to/lastmile_qr_scan"}, "type": "electric_scooter", "lon": -76.98492016666667, "lat": 38.90055133333333, "fusion_lon": 0.0, "name": "6a968ba48edcbaffe2bb817d51608dba", "bike_id": "6a968ba48edcbaffe2bb817d51608dba", "is_reserved": 0, "fusion_lat": 0.0, "is_disabled": 0}, {"rental_uris": {"ios": "https://dc.lft.to/lastmile_qr_scan", "android": "https://dc.lft.to/lastmile_qr_scan"}, "type": "electric_scooter", "lon": -77.05070666666667, "lat": 38.90164433333333, "fusion_lon": 0.0, "name": "de12006183249ebd78ee162de1d3ff2c", "bike_id": "de12006183249ebd78ee162de1d3ff2c", "is_reserved": 0, "fusion_lat": 0.0, "is_disabled": 0}, {"rental_uris": {"ios": "https://dc.lft.to/lastmile_qr_scan", "android": "https://dc.lft.to/lastmile_qr_scan"}, "type": "electric_bike", "lon": -76.96882733333334, "lat": 38.955874666666666, "fusion_lon": 0.0, "name": "c146b954bcadf5d0777c3c9be2313525", "bike_id": "c146b954bcadf5d0777c3c9be2313525", "is_reserved": 0, "fusion_lat": 0.0, "is_disabled": 0}, {"rental_uris": {"ios": "https://dc.lft.to/lastmile_qr_scan", "android": "https://dc.lft.to/lastmile_qr_scan"}, "type": "electric_scooter", "lon": -77.04287233333334, "lat": 38.920602833333334, "fusion_lon": 0.0, "name": "061c89df1dbc87c156eadc6f429e371d", "bike_id": "061c89df1dbc87c156eadc6f429e371d", "is_reserved": 0, "fusion_lat": 0.0, "is_disabled": 0}, {"rental_uris": {"ios": "https://dc.lft.to/lastmile_qr_scan", "android": "https://dc.lft.to/lastmile_qr_scan"}, "type": "electric_scooter", "lon": -77.03875116666667, "lat": 38.903601333333334, "fusion_lon": 0.0, "name": "8d863e35623349f0e708a734ae0e9eec", "bike_id": "8d863e35623349f0e708a734ae0e9eec", "is_reserved": 0, "fusion_lat": 0.0, "is_disabled": 0}, {"rental_uris": {"ios": "https://dc.lft.to/lastmile_qr_scan", "android": "https://dc.lft.to/lastmile_qr_scan"}, "type": "electric_scooter", "lon": -77.05847233333333, "lat": 38.93595283333333, "fusion_lon": 0.0, "name": "fa1df292814700512565c2de07b3a4e8", "bike_id": "fa1df292814700512565c2de07b3a4e8", "is_reserved": 0, "fusion_lat": 0.0, "is_disabled": 0}, {"rental_uris": {"ios": "https://dc.lft.to/lastmile_qr_scan", "android": "https://dc.lft.to/lastmile_qr_scan"}, "type": "electric_scooter", "lon": -76.9489235, "lat": 38.894906166666665, "fusion_lon": 0.0, "name": "cde7e89a41158a37a377c00d986ba7ea", "bike_id": "cde7e89a41158a37a377c00d986ba7ea", "is_reserved": 0, "fusion_lat": 0.0, "is_disabled": 0}, {"rental_uris": {"ios": "https://dc.lft.to/lastmile_qr_scan", "android": "https://dc.lft.to/lastmile_qr_scan"}, "type": "electric_scooter", "lon": -77.06135016666667, "lat": 38.94346983333333, "fusion_lon": 0.0, "name": "c3e0edd9672cff768582164fbfa0325a", "bike_id": "c3e0edd9672cff768582164fbfa0325a", "is_reserved": 0, "fusion_lat": 0.0, "is_disabled": 0}, {"rental_uris": {"ios": "https://dc.lft.to/lastmile_qr_scan", "android": "https://dc.lft.to/lastmile_qr_scan"}, "type": "electric_scooter", "lon": -77.03226366666667, "lat": 38.8964155, "fusion_lon": 0.0, "name": "173bc8e01a57a357672bc893efa858df", "bike_id": "173bc8e01a57a357672bc893efa858df", "is_reserved": 0, "fusion_lat": 0.0, "is_disabled": 0}, {"rental_uris": {"ios": "https://dc.lft.to/lastmile_qr_scan", "android": "https://dc.lft.to/lastmile_qr_scan"}, "type": "electric_scooter", "lon": -76.93970233333333, "lat": 38.893167, "fusion_lon": 0.0, "name": "d44dd52c6244cc068f921a770375d118", "bike_id": "d44dd52c6244cc068f921a770375d118", "is_reserved": 0, "fusion_lat": 0.0, "is_disabled": 0}, {"rental_uris": {"ios": "https://dc.lft.to/lastmile_qr_scan", "android": "https://dc.lft.to/lastmile_qr_scan"}, "type": "electric_scooter", "lon": -77.04492833333333, "lat": 38.91366566666667, "fusion_lon": 0.0, "name": "c78408ade92e48204d0bb8ea5d72e4a1", "bike_id": "c78408ade92e48204d0bb8ea5d72e4a1", "is_reserved": 0, "fusion_lat": 0.0, "is_disabled": 0}, {"rental_uris": {"ios": "https://dc.lft.to/lastmile_qr_scan", "android": "https://dc.lft.to/lastmile_qr_scan"}, "type": "electric_scooter", "lon": -77.040014, "lat": 38.88870166666667, "fusion_lon": 0.0, "name": "82710a1ea48acad8abd77849f759c426", "bike_id": "82710a1ea48acad8abd77849f759c426", "is_reserved": 0, "fusion_lat": 0.0, "is_disabled": 0}, {"rental_uris": {"ios": "https://dc.lft.to/lastmile_qr_scan", "android": "https://dc.lft.to/lastmile_qr_scan"}, "type": "electric_scooter", "lon": -77.02839933333334, "lat": 38.93979683333333, "fusion_lon": 0.0, "name": "df58891df76fb54cffaf6e8b79571fd0", "bike_id": "df58891df76fb54cffaf6e8b79571fd0", "is_reserved": 0, "fusion_lat": 0.0, "is_disabled": 0}, {"rental_uris": {"ios": "https://dc.lft.to/lastmile_qr_scan", "android": "https://dc.lft.to/lastmile_qr_scan"}, "type": "electric_scooter", "lon": -77.03179616666667, "lat": 38.897745666666665, "fusion_lon": 0.0, "name": "02ccfe7398f3a0df7be63499fc771935", "bike_id": "02ccfe7398f3a0df7be63499fc771935", "is_reserved": 0, "fusion_lat": 0.0, "is_disabled": 0}, {"rental_uris": {"ios": "https://dc.lft.to/lastmile_qr_scan", "android": "https://dc.lft.to/lastmile_qr_scan"}, "type": "electric_scooter", "lon": -77.04433766666666, "lat": 38.915368, "fusion_lon": 0.0, "name": "59ebad13fcfa4418542fdb2d7b013484", "bike_id": "59ebad13fcfa4418542fdb2d7b013484", "is_reserved": 0, "fusion_lat": 0.0, "is_disabled": 0}, {"rental_uris": {"ios": "https://dc.lft.to/lastmile_qr_scan", "android": "https://dc.lft.to/lastmile_qr_scan"}, "type": "electric_scooter", "lon": -77.04096433333333, "lat": 38.900084666666665, "fusion_lon": 0.0, "name": "09abf29d9207dba40961b7ae12909411", "bike_id": "09abf29d9207dba40961b7ae12909411", "is_reserved": 0, "fusion_lat": 0.0, "is_disabled": 0}, {"rental_uris": {"ios": "https://dc.lft.to/lastmile_qr_scan", "android": "https://dc.lft.to/lastmile_qr_scan"}, "type": "electric_scooter", "lon": -77.0223865, "lat": 38.92406883333334, "fusion_lon": 0.0, "name": "29c71a89b2d9562661a95fae645fed39", "bike_id": "29c71a89b2d9562661a95fae645fed39", "is_reserved": 0, "fusion_lat": 0.0, "is_disabled": 0}, {"rental_uris": {"ios": "https://dc.lft.to/lastmile_qr_scan", "android": "https://dc.lft.to/lastmile_qr_scan"}, "type": "electric_scooter", "lon": -77.0214075, "lat": 38.896261833333334, "fusion_lon": 0.0, "name": "88d78f8d47af50399406f78efd2c4dc6", "bike_id": "88d78f8d47af50399406f78efd2c4dc6", "is_reserved": 0, "fusion_lat": 0.0, "is_disabled": 0}, {"rental_uris": {"ios": "https://dc.lft.to/lastmile_qr_scan", "android": "https://dc.lft.to/lastmile_qr_scan"}, "type": "electric_scooter", "lon": -77.01950133333334, "lat": 38.919324333333336, "fusion_lon": 0.0, "name": "559af33002b59f89980ba65d269b3c60", "bike_id": "559af33002b59f89980ba65d269b3c60", "is_reserved": 0, "fusion_lat": 0.0, "is_disabled": 0}, {"rental_uris": {"ios": "https://dc.lft.to/lastmile_qr_scan", "android": "https://dc.lft.to/lastmile_qr_scan"}, "type": "electric_scooter", "lon": -76.99385716666667, "lat": 38.891972333333335, "fusion_lon": 0.0, "name": "31d8f5c180b475cb3e7952908cb2eb66", "bike_id": "31d8f5c180b475cb3e7952908cb2eb66", "is_reserved": 0, "fusion_lat": 0.0, "is_disabled": 0}, {"rental_uris": {"ios": "https://dc.lft.to/lastmile_qr_scan", "android": "https://dc.lft.to/lastmile_qr_scan"}, "type": "electric_scooter", "lon": -77.03304133333333, "lat": 38.956321, "fusion_lon": 0.0, "name": "4e74841cda6c83b258cf4d36d787066c", "bike_id": "4e74841cda6c83b258cf4d36d787066c", "is_reserved": 0, "fusion_lat": 0.0, "is_disabled": 0}, {"rental_uris": {"ios": "https://dc.lft.to/lastmile_qr_scan", "android": "https://dc.lft.to/lastmile_qr_scan"}, "type": "electric_scooter", "lon": -76.9883785, "lat": 38.900428166666664, "fusion_lon": 0.0, "name": "e1c43acf19ed7ae2ef540755aa3d62a7", "bike_id": "e1c43acf19ed7ae2ef540755aa3d62a7", "is_reserved": 0, "fusion_lat": 0.0, "is_disabled": 0}, {"rental_uris": {"ios": "https://dc.lft.to/lastmile_qr_scan", "android": "https://dc.lft.to/lastmile_qr_scan"}, "type": "electric_scooter", "lon": -77.01579783333334, "lat": 38.87638183333333, "fusion_lon": 0.0, "name": "40728ce54771b6e72a986f60764503aa", "bike_id": "40728ce54771b6e72a986f60764503aa", "is_reserved": 0, "fusion_lat": 0.0, "is_disabled": 0}, {"rental_uris": {"ios": "https://dc.lft.to/lastmile_qr_scan", "android": "https://dc.lft.to/lastmile_qr_scan"}, "type": "electric_bike", "lon": -77.053765, "lat": 38.84757233333333, "fusion_lon": 0.0, "name": "ce1bf49cc411f4e871b31594189c271c", "bike_id": "ce1bf49cc411f4e871b31594189c271c", "is_reserved": 0, "fusion_lat": 0.0, "is_disabled": 0}, {"rental_uris": {"ios": "https://dc.lft.to/lastmile_qr_scan", "android": "https://dc.lft.to/lastmile_qr_scan"}, "type": "electric_scooter", "lon": -77.0238055, "lat": 38.8793245, "fusion_lon": 0.0, "name": "25e64bbc6d4daacee79c32bbbd6e7b1b", "bike_id": "25e64bbc6d4daacee79c32bbbd6e7b1b", "is_reserved": 0, "fusion_lat": 0.0, "is_disabled": 0}, {"rental_uris": {"ios": "https://dc.lft.to/lastmile_qr_scan", "android": "https://dc.lft.to/lastmile_qr_scan"}, "type": "electric_scooter", "lon": -77.01225333333333, "lat": 38.902468166666665, "fusion_lon": 0.0, "name": "10875e1877f2ec44faa4fb73cb5a9cd0", "bike_id": "10875e1877f2ec44faa4fb73cb5a9cd0", "is_reserved": 0, "fusion_lat": 0.0, "is_disabled": 0}, {"rental_uris": {"ios": "https://dc.lft.to/lastmile_qr_scan", "android": "https://dc.lft.to/lastmile_qr_scan"}, "type": "electric_scooter", "lon": -77.02227133333334, "lat": 38.92111633333333, "fusion_lon": 0.0, "name": "4f36cbd249a4df104df3fce84fdb5785", "bike_id": "4f36cbd249a4df104df3fce84fdb5785", "is_reserved": 0, "fusion_lat": 0.0, "is_disabled": 0}, {"rental_uris": {"ios": "https://dc.lft.to/lastmile_qr_scan", "android": "https://dc.lft.to/lastmile_qr_scan"}, "type": "electric_scooter", "lon": -77.0515545, "lat": 38.92383733333333, "fusion_lon": 0.0, "name": "69e721013e05b91a48d3c95f81a9f53c", "bike_id": "69e721013e05b91a48d3c95f81a9f53c", "is_reserved": 0, "fusion_lat": 0.0, "is_disabled": 0}, {"rental_uris": {"ios": "https://dc.lft.to/lastmile_qr_scan", "android": "https://dc.lft.to/lastmile_qr_scan"}, "type": "electric_scooter", "lon": -77.02223483333333, "lat": 38.9247045, "fusion_lon": 0.0, "name": "bc2bcea5dc78b8df322097cf35b15a54", "bike_id": "bc2bcea5dc78b8df322097cf35b15a54", "is_reserved": 0, "fusion_lat": 0.0, "is_disabled": 0}, {"rental_uris": {"ios": "https://dc.lft.to/lastmile_qr_scan", "android": "https://dc.lft.to/lastmile_qr_scan"}, "type": "electric_bike", "lon": -77.0073125, "lat": 38.950648666666666, "fusion_lon": 0.0, "name": "6940ebc802794e865b98dd6ea7d196dc", "bike_id": "6940ebc802794e865b98dd6ea7d196dc", "is_reserved": 0, "fusion_lat": 0.0, "is_disabled": 0}, {"rental_uris": {"ios": "https://dc.lft.to/lastmile_qr_scan", "android": "https://dc.lft.to/lastmile_qr_scan"}, "type": "electric_scooter", "lon": -77.03859883333334, "lat": 38.932148, "fusion_lon": 0.0, "name": "a929683b075f17c2839dfee0636841b3", "bike_id": "a929683b075f17c2839dfee0636841b3", "is_reserved": 0, "fusion_lat": 0.0, "is_disabled": 0}, {"rental_uris": {"ios": "https://dc.lft.to/lastmile_qr_scan", "android": "https://dc.lft.to/lastmile_qr_scan"}, "type": "electric_scooter", "lon": -77.03658533333333, "lat": 38.92098683333333, "fusion_lon": 0.0, "name": "88be3126255dc2ad1d24cde67ca6d9b0", "bike_id": "88be3126255dc2ad1d24cde67ca6d9b0", "is_reserved": 0, "fusion_lat": 0.0, "is_disabled": 0}, {"rental_uris": {"ios": "https://dc.lft.to/lastmile_qr_scan", "android": "https://dc.lft.to/lastmile_qr_scan"}, "type": "electric_scooter", "lon": -77.05597966666667, "lat": 38.936981333333335, "fusion_lon": 0.0, "name": "1513d83a88df60ec8d4e6607083d525b", "bike_id": "1513d83a88df60ec8d4e6607083d525b", "is_reserved": 0, "fusion_lat": 0.0, "is_disabled": 0}, {"rental_uris": {"ios": "https://dc.lft.to/lastmile_qr_scan", "android": "https://dc.lft.to/lastmile_qr_scan"}, "type": "electric_scooter", "lon": -76.93261983333333, "lat": 38.887729, "fusion_lon": 0.0, "name": "58250b76a46df8f934751046327f6724", "bike_id": "58250b76a46df8f934751046327f6724", "is_reserved": 0, "fusion_lat": 0.0, "is_disabled": 0}, {"rental_uris": {"ios": "https://dc.lft.to/lastmile_qr_scan", "android": "https://dc.lft.to/lastmile_qr_scan"}, "type": "electric_bike", "lon": -77.02553766666666, "lat": 38.938702166666666, "fusion_lon": 0.0, "name": "4ea897f18bf1693d36c05340fa20f17b", "bike_id": "4ea897f18bf1693d36c05340fa20f17b", "is_reserved": 0, "fusion_lat": 0.0, "is_disabled": 0}, {"rental_uris": {"ios": "https://dc.lft.to/lastmile_qr_scan", "android": "https://dc.lft.to/lastmile_qr_scan"}, "type": "electric_scooter", "lon": -77.016025, "lat": 38.89976883333333, "fusion_lon": 0.0, "name": "4328e6155eeea9c8d60671a7f823db40", "bike_id": "4328e6155eeea9c8d60671a7f823db40", "is_reserved": 0, "fusion_lat": 0.0, "is_disabled": 0}, {"rental_uris": {"ios": "https://dc.lft.to/lastmile_qr_scan", "android": "https://dc.lft.to/lastmile_qr_scan"}, "type": "electric_scooter", "lon": -77.03169833333334, "lat": 38.899925333333336, "fusion_lon": 0.0, "name": "0495db0f7a3ddd186b315d2689da2f33", "bike_id": "0495db0f7a3ddd186b315d2689da2f33", "is_reserved": 0, "fusion_lat": 0.0, "is_disabled": 0}, {"rental_uris": {"ios": "https://dc.lft.to/lastmile_qr_scan", "android": "https://dc.lft.to/lastmile_qr_scan"}, "type": "electric_scooter", "lon": -77.0866615, "lat": 38.934760833333335, "fusion_lon": 0.0, "name": "ed0881df3c67b997d138a4956ef3d0fc", "bike_id": "ed0881df3c67b997d138a4956ef3d0fc", "is_reserved": 0, "fusion_lat": 0.0, "is_disabled": 0}, {"rental_uris": {"ios": "https://dc.lft.to/lastmile_qr_scan", "android": "https://dc.lft.to/lastmile_qr_scan"}, "type": "electric_scooter", "lon": -77.02967733333334, "lat": 38.900582166666666, "fusion_lon": 0.0, "name": "a371956d5560092a812900eef7416907", "bike_id": "a371956d5560092a812900eef7416907", "is_reserved": 0, "fusion_lat": 0.0, "is_disabled": 0}, {"rental_uris": {"ios": "https://dc.lft.to/lastmile_qr_scan", "android": "https://dc.lft.to/lastmile_qr_scan"}, "type": "electric_scooter", "lon": -76.98817533333333, "lat": 38.863831833333336, "fusion_lon": 0.0, "name": "1e90357c07ae0d0482a8eac0a92b8dc0", "bike_id": "1e90357c07ae0d0482a8eac0a92b8dc0", "is_reserved": 0, "fusion_lat": 0.0, "is_disabled": 0}, {"rental_uris": {"ios": "https://dc.lft.to/lastmile_qr_scan", "android": "https://dc.lft.to/lastmile_qr_scan"}, "type": "electric_scooter", "lon": -76.93753333333333, "lat": 38.8904615, "fusion_lon": 0.0, "name": "8c23fe5549cb6b371a74b8e2c7b5bf83", "bike_id": "8c23fe5549cb6b371a74b8e2c7b5bf83", "is_reserved": 0, "fusion_lat": 0.0, "is_disabled": 0}, {"rental_uris": {"ios": "https://dc.lft.to/lastmile_qr_scan", "android": "https://dc.lft.to/lastmile_qr_scan"}, "type": "electric_scooter", "lon": -77.02741616666667, "lat": 38.8922435, "fusion_lon": 0.0, "name": "b8525260f756253d76d0b7e5204ee831", "bike_id": "b8525260f756253d76d0b7e5204ee831", "is_reserved": 0, "fusion_lat": 0.0, "is_disabled": 0}, {"rental_uris": {"ios": "https://dc.lft.to/lastmile_qr_scan", "android": "https://dc.lft.to/lastmile_qr_scan"}, "type": "electric_bike", "lon": -76.990258, "lat": 38.83586966666667, "fusion_lon": 0.0, "name": "d79104da966966c1a600729fbeb34757", "bike_id": "d79104da966966c1a600729fbeb34757", "is_reserved": 0, "fusion_lat": 0.0, "is_disabled": 0}, {"rental_uris": {"ios": "https://dc.lft.to/lastmile_qr_scan", "android": "https://dc.lft.to/lastmile_qr_scan"}, "type": "electric_scooter", "lon": -76.98707966666667, "lat": 38.8634745, "fusion_lon": 0.0, "name": "393ea424c34a5a98ce80f7e39effce6e", "bike_id": "393ea424c34a5a98ce80f7e39effce6e", "is_reserved": 0, "fusion_lat": 0.0, "is_disabled": 0}, {"rental_uris": {"ios": "https://dc.lft.to/lastmile_qr_scan", "android": "https://dc.lft.to/lastmile_qr_scan"}, "type": "electric_scooter", "lon": -77.04115216666666, "lat": 38.906254, "fusion_lon": 0.0, "name": "59e133f6222ad387c71ee5aeeef3c008", "bike_id": "59e133f6222ad387c71ee5aeeef3c008", "is_reserved": 0, "fusion_lat": 0.0, "is_disabled": 0}, {"rental_uris": {"ios": "https://dc.lft.to/lastmile_qr_scan", "android": "https://dc.lft.to/lastmile_qr_scan"}, "type": "electric_scooter", "lon": -77.00139316666667, "lat": 38.89473066666667, "fusion_lon": 0.0, "name": "224b3cbe0698ed35ac4d1197ad116b0a", "bike_id": "224b3cbe0698ed35ac4d1197ad116b0a", "is_reserved": 0, "fusion_lat": 0.0, "is_disabled": 0}, {"rental_uris": {"ios": "https://dc.lft.to/lastmile_qr_scan", "android": "https://dc.lft.to/lastmile_qr_scan"}, "type": "electric_scooter", "lon": -76.930088, "lat": 38.89826983333333, "fusion_lon": 0.0, "name": "f10dc856bcb65d35b36d330768f29502", "bike_id": "f10dc856bcb65d35b36d330768f29502", "is_reserved": 0, "fusion_lat": 0.0, "is_disabled": 0}, {"rental_uris": {"ios": "https://dc.lft.to/lastmile_qr_scan", "android": "https://dc.lft.to/lastmile_qr_scan"}, "type": "electric_scooter", "lon": -76.9883785, "lat": 38.90180183333333, "fusion_lon": 0.0, "name": "4600348de0f34c3249ac5404bc533efd", "bike_id": "4600348de0f34c3249ac5404bc533efd", "is_reserved": 0, "fusion_lat": 0.0, "is_disabled": 0}, {"rental_uris": {"ios": "https://dc.lft.to/lastmile_qr_scan", "android": "https://dc.lft.to/lastmile_qr_scan"}, "type": "electric_scooter", "lon": -76.995064, "lat": 38.8849505, "fusion_lon": 0.0, "name": "73802585021f10321ec94f773c08dcd7", "bike_id": "73802585021f10321ec94f773c08dcd7", "is_reserved": 0, "fusion_lat": 0.0, "is_disabled": 0}, {"rental_uris": {"ios": "https://dc.lft.to/lastmile_qr_scan", "android": "https://dc.lft.to/lastmile_qr_scan"}, "type": "electric_scooter", "lon": -76.93596216666667, "lat": 38.891848833333334, "fusion_lon": 0.0, "name": "4e1c09170a1a9de78f8a227cfc2bc6c5", "bike_id": "4e1c09170a1a9de78f8a227cfc2bc6c5", "is_reserved": 0, "fusion_lat": 0.0, "is_disabled": 0}, {"rental_uris": {"ios": "https://dc.lft.to/lastmile_qr_scan", "android": "https://dc.lft.to/lastmile_qr_scan"}, "type": "electric_scooter", "lon": -76.97532183333334, "lat": 38.92231183333333, "fusion_lon": 0.0, "name": "dbc67fcfd389f16a81306a8ef31b3d9f", "bike_id": "dbc67fcfd389f16a81306a8ef31b3d9f", "is_reserved": 0, "fusion_lat": 0.0, "is_disabled": 0}, {"rental_uris": {"ios": "https://dc.lft.to/lastmile_qr_scan", "android": "https://dc.lft.to/lastmile_qr_scan"}, "type": "electric_scooter", "lon": -77.02717733333333, "lat": 38.898663166666665, "fusion_lon": 0.0, "name": "9e0c3e87740d3de3f1d5a8039bc77661", "bike_id": "9e0c3e87740d3de3f1d5a8039bc77661", "is_reserved": 0, "fusion_lat": 0.0, "is_disabled": 0}, {"rental_uris": {"ios": "https://dc.lft.to/lastmile_qr_scan", "android": "https://dc.lft.to/lastmile_qr_scan"}, "type": "electric_scooter", "lon": -77.0142375, "lat": 38.92832083333333, "fusion_lon": 0.0, "name": "a6ac0d40e305038faf86d3fa91621520", "bike_id": "a6ac0d40e305038faf86d3fa91621520", "is_reserved": 0, "fusion_lat": 0.0, "is_disabled": 0}, {"rental_uris": {"ios": "https://dc.lft.to/lastmile_qr_scan", "android": "https://dc.lft.to/lastmile_qr_scan"}, "type": "electric_scooter", "lon": -77.01945316666666, "lat": 38.92418033333333, "fusion_lon": 0.0, "name": "3dd2619d4dd50ffeb4398a81b8bf2cd5", "bike_id": "3dd2619d4dd50ffeb4398a81b8bf2cd5", "is_reserved": 0, "fusion_lat": 0.0, "is_disabled": 0}, {"rental_uris": {"ios": "https://dc.lft.to/lastmile_qr_scan", "android": "https://dc.lft.to/lastmile_qr_scan"}, "type": "electric_scooter", "lon": -77.02759183333333, "lat": 38.8972275, "fusion_lon": 0.0, "name": "861753ddb66f72cdbe8cacf0f1ac406d", "bike_id": "861753ddb66f72cdbe8cacf0f1ac406d", "is_reserved": 0, "fusion_lat": 0.0, "is_disabled": 0}, {"rental_uris": {"ios": "https://dc.lft.to/lastmile_qr_scan", "android": "https://dc.lft.to/lastmile_qr_scan"}, "type": "electric_scooter", "lon": -77.00766266666666, "lat": 38.879315, "fusion_lon": 0.0, "name": "1058fdc0fecda37c06b070a29feb74fe", "bike_id": "1058fdc0fecda37c06b070a29feb74fe", "is_reserved": 0, "fusion_lat": 0.0, "is_disabled": 0}, {"rental_uris": {"ios": "https://dc.lft.to/lastmile_qr_scan", "android": "https://dc.lft.to/lastmile_qr_scan"}, "type": "electric_scooter", "lon": -77.04194833333334, "lat": 38.89981266666667, "fusion_lon": 0.0, "name": "9ec799dad65147bf0fae5dffb98f6d59", "bike_id": "9ec799dad65147bf0fae5dffb98f6d59", "is_reserved": 0, "fusion_lat": 0.0, "is_disabled": 0}, {"rental_uris": {"ios": "https://dc.lft.to/lastmile_qr_scan", "android": "https://dc.lft.to/lastmile_qr_scan"}, "type": "electric_scooter", "lon": -77.0195725, "lat": 38.9231045, "fusion_lon": 0.0, "name": "47bdf4a8c80226bded47175fba3ddc2e", "bike_id": "47bdf4a8c80226bded47175fba3ddc2e", "is_reserved": 0, "fusion_lat": 0.0, "is_disabled": 0}, {"rental_uris": {"ios": "https://dc.lft.to/lastmile_qr_scan", "android": "https://dc.lft.to/lastmile_qr_scan"}, "type": "electric_scooter", "lon": -77.01837933333333, "lat": 38.9158455, "fusion_lon": 0.0, "name": "57f3b310edfb1d0c0e3f8300cb5144a9", "bike_id": "57f3b310edfb1d0c0e3f8300cb5144a9", "is_reserved": 0, "fusion_lat": 0.0, "is_disabled": 0}, {"rental_uris": {"ios": "https://dc.lft.to/lastmile_qr_scan", "android": "https://dc.lft.to/lastmile_qr_scan"}, "type": "electric_scooter", "lon": -77.03070966666667, "lat": 38.922452666666665, "fusion_lon": 0.0, "name": "f27917cd5cdd35b54d1ec3624622d0b8", "bike_id": "f27917cd5cdd35b54d1ec3624622d0b8", "is_reserved": 0, "fusion_lat": 0.0, "is_disabled": 0}, {"rental_uris": {"ios": "https://dc.lft.to/lastmile_qr_scan", "android": "https://dc.lft.to/lastmile_qr_scan"}, "type": "electric_scooter", "lon": -77.02669533333334, "lat": 38.895919666666664, "fusion_lon": 0.0, "name": "75ebfdb2d30b9a76330884216c341763", "bike_id": "75ebfdb2d30b9a76330884216c341763", "is_reserved": 0, "fusion_lat": 0.0, "is_disabled": 0}, {"rental_uris": {"ios": "https://dc.lft.to/lastmile_qr_scan", "android": "https://dc.lft.to/lastmile_qr_scan"}, "type": "electric_scooter", "lon": -77.02381383333334, "lat": 38.9335745, "fusion_lon": 0.0, "name": "bd9ae49773d199e7f4379162e12a4d6e", "bike_id": "bd9ae49773d199e7f4379162e12a4d6e", "is_reserved": 0, "fusion_lat": 0.0, "is_disabled": 0}, {"rental_uris": {"ios": "https://dc.lft.to/lastmile_qr_scan", "android": "https://dc.lft.to/lastmile_qr_scan"}, "type": "electric_scooter", "lon": -77.025107, "lat": 38.90432, "fusion_lon": 0.0, "name": "64345330129bfd54be5e5fe96554f295", "bike_id": "64345330129bfd54be5e5fe96554f295", "is_reserved": 0, "fusion_lat": 0.0, "is_disabled": 0}, {"rental_uris": {"ios": "https://dc.lft.to/lastmile_qr_scan", "android": "https://dc.lft.to/lastmile_qr_scan"}, "type": "electric_scooter", "lon": -77.023848, "lat": 38.896220166666666, "fusion_lon": 0.0, "name": "c24f94e710776ff004642e3a93af140d", "bike_id": "c24f94e710776ff004642e3a93af140d", "is_reserved": 0, "fusion_lat": 0.0, "is_disabled": 0}, {"rental_uris": {"ios": "https://dc.lft.to/lastmile_qr_scan", "android": "https://dc.lft.to/lastmile_qr_scan"}, "type": "electric_scooter", "lon": -77.091902, "lat": 38.913672166666665, "fusion_lon": 0.0, "name": "9383085219a0d3ba2bafa783b712f07d", "bike_id": "9383085219a0d3ba2bafa783b712f07d", "is_reserved": 0, "fusion_lat": 0.0, "is_disabled": 0}, {"rental_uris": {"ios": "https://dc.lft.to/lastmile_qr_scan", "android": "https://dc.lft.to/lastmile_qr_scan"}, "type": "electric_scooter", "lon": -77.032579, "lat": 38.9376805, "fusion_lon": 0.0, "name": "861d0a8d2d17979d95ad3d181ad32927", "bike_id": "861d0a8d2d17979d95ad3d181ad32927", "is_reserved": 0, "fusion_lat": 0.0, "is_disabled": 0}, {"rental_uris": {"ios": "https://dc.lft.to/lastmile_qr_scan", "android": "https://dc.lft.to/lastmile_qr_scan"}, "type": "electric_scooter", "lon": -77.03301066666667, "lat": 38.956321833333334, "fusion_lon": 0.0, "name": "c4e0e2ca80243c91eca9e1f81409c44d", "bike_id": "c4e0e2ca80243c91eca9e1f81409c44d", "is_reserved": 0, "fusion_lat": 0.0, "is_disabled": 0}, {"rental_uris": {"ios": "https://dc.lft.to/lastmile_qr_scan", "android": "https://dc.lft.to/lastmile_qr_scan"}, "type": "electric_scooter", "lon": -77.00262016666667, "lat": 38.8875575, "fusion_lon": 0.0, "name": "a71e3b14f689851af60ed30e48ae898e", "bike_id": "a71e3b14f689851af60ed30e48ae898e", "is_reserved": 0, "fusion_lat": 0.0, "is_disabled": 0}, {"rental_uris": {"ios": "https://dc.lft.to/lastmile_qr_scan", "android": "https://dc.lft.to/lastmile_qr_scan"}, "type": "electric_scooter", "lon": -77.00216016666667, "lat": 38.925054833333334, "fusion_lon": 0.0, "name": "bc91fd9a7bb3079c5d8b22f1fb6eb794", "bike_id": "bc91fd9a7bb3079c5d8b22f1fb6eb794", "is_reserved": 0, "fusion_lat": 0.0, "is_disabled": 0}, {"rental_uris": {"ios": "https://dc.lft.to/lastmile_qr_scan", "android": "https://dc.lft.to/lastmile_qr_scan"}, "type": "electric_scooter", "lon": -77.01036566666667, "lat": 38.955181, "fusion_lon": 0.0, "name": "82f305ebf62b9b25ac3d3586a4c425a2", "bike_id": "82f305ebf62b9b25ac3d3586a4c425a2", "is_reserved": 0, "fusion_lat": 0.0, "is_disabled": 0}, {"rental_uris": {"ios": "https://dc.lft.to/lastmile_qr_scan", "android": "https://dc.lft.to/lastmile_qr_scan"}, "type": "electric_scooter", "lon": -77.00629566666667, "lat": 38.91502416666667, "fusion_lon": 0.0, "name": "864f96435233d41432a6c0f24f19b487", "bike_id": "864f96435233d41432a6c0f24f19b487", "is_reserved": 0, "fusion_lat": 0.0, "is_disabled": 0}, {"rental_uris": {"ios": "https://dc.lft.to/lastmile_qr_scan", "android": "https://dc.lft.to/lastmile_qr_scan"}, "type": "electric_scooter", "lon": -77.02200316666666, "lat": 38.91981116666667, "fusion_lon": 0.0, "name": "3cdc3afe7065c22a583e9dfe11c5c362", "bike_id": "3cdc3afe7065c22a583e9dfe11c5c362", "is_reserved": 0, "fusion_lat": 0.0, "is_disabled": 0}, {"rental_uris": {"ios": "https://dc.lft.to/lastmile_qr_scan", "android": "https://dc.lft.to/lastmile_qr_scan"}, "type": "electric_scooter", "lon": -77.04271933333334, "lat": 38.892213166666664, "fusion_lon": 0.0, "name": "e669f01e276e8cae8c97a77c1b0540b1", "bike_id": "e669f01e276e8cae8c97a77c1b0540b1", "is_reserved": 0, "fusion_lat": 0.0, "is_disabled": 0}, {"rental_uris": {"ios": "https://dc.lft.to/lastmile_qr_scan", "android": "https://dc.lft.to/lastmile_qr_scan"}, "type": "electric_scooter", "lon": -77.02166766666667, "lat": 38.92615133333334, "fusion_lon": 0.0, "name": "8738c55a3831035285a7db87b39fa0bf", "bike_id": "8738c55a3831035285a7db87b39fa0bf", "is_reserved": 0, "fusion_lat": 0.0, "is_disabled": 0}, {"rental_uris": {"ios": "https://dc.lft.to/lastmile_qr_scan", "android": "https://dc.lft.to/lastmile_qr_scan"}, "type": "electric_scooter", "lon": -77.02031283333334, "lat": 38.924157666666666, "fusion_lon": 0.0, "name": "5ca2093972d6efd831ecab451783d7e5", "bike_id": "5ca2093972d6efd831ecab451783d7e5", "is_reserved": 0, "fusion_lat": 0.0, "is_disabled": 0}, {"rental_uris": {"ios": "https://dc.lft.to/lastmile_qr_scan", "android": "https://dc.lft.to/lastmile_qr_scan"}, "type": "electric_scooter", "lon": -77.04639816666666, "lat": 38.895043, "fusion_lon": 0.0, "name": "f3205f1f16d97a2992c74c60f158e869", "bike_id": "f3205f1f16d97a2992c74c60f158e869", "is_reserved": 0, "fusion_lat": 0.0, "is_disabled": 0}, {"rental_uris": {"ios": "https://dc.lft.to/lastmile_qr_scan", "android": "https://dc.lft.to/lastmile_qr_scan"}, "type": "electric_scooter", "lon": -77.03183183333333, "lat": 38.90266616666667, "fusion_lon": 0.0, "name": "02a996628998955d2c9560a5758a87ba", "bike_id": "02a996628998955d2c9560a5758a87ba", "is_reserved": 0, "fusion_lat": 0.0, "is_disabled": 0}, {"rental_uris": {"ios": "https://dc.lft.to/lastmile_qr_scan", "android": "https://dc.lft.to/lastmile_qr_scan"}, "type": "electric_scooter", "lon": -77.00913866666667, "lat": 38.95760416666667, "fusion_lon": 0.0, "name": "c0cba42cefbc0622fc69c067df5ed6d0", "bike_id": "c0cba42cefbc0622fc69c067df5ed6d0", "is_reserved": 0, "fusion_lat": 0.0, "is_disabled": 0}, {"rental_uris": {"ios": "https://dc.lft.to/lastmile_qr_scan", "android": "https://dc.lft.to/lastmile_qr_scan"}, "type": "electric_scooter", "lon": -77.026693, "lat": 38.9217025, "fusion_lon": 0.0, "name": "dcbfedb9fbf2fdc2cbbb8aefb48bad9e", "bike_id": "dcbfedb9fbf2fdc2cbbb8aefb48bad9e", "is_reserved": 0, "fusion_lat": 0.0, "is_disabled": 0}, {"rental_uris": {"ios": "https://dc.lft.to/lastmile_qr_scan", "android": "https://dc.lft.to/lastmile_qr_scan"}, "type": "electric_scooter", "lon": -77.02675916666666, "lat": 38.90256933333333, "fusion_lon": 0.0, "name": "c09fb1561796a3e8a8b8a6f1ceb0e2ef", "bike_id": "c09fb1561796a3e8a8b8a6f1ceb0e2ef", "is_reserved": 0, "fusion_lat": 0.0, "is_disabled": 0}, {"rental_uris": {"ios": "https://dc.lft.to/lastmile_qr_scan", "android": "https://dc.lft.to/lastmile_qr_scan"}, "type": "electric_scooter", "lon": -77.03476533333334, "lat": 38.91111633333333, "fusion_lon": 0.0, "name": "fff54d01e123e37c5eaabb0f4d28bf81", "bike_id": "fff54d01e123e37c5eaabb0f4d28bf81", "is_reserved": 0, "fusion_lat": 0.0, "is_disabled": 0}, {"rental_uris": {"ios": "https://dc.lft.to/lastmile_qr_scan", "android": "https://dc.lft.to/lastmile_qr_scan"}, "type": "electric_scooter", "lon": -77.0447715, "lat": 38.919132833333336, "fusion_lon": 0.0, "name": "1fef57c8fe5e5926a77cf196211eb070", "bike_id": "1fef57c8fe5e5926a77cf196211eb070", "is_reserved": 0, "fusion_lat": 0.0, "is_disabled": 0}, {"rental_uris": {"ios": "https://dc.lft.to/lastmile_qr_scan", "android": "https://dc.lft.to/lastmile_qr_scan"}, "type": "electric_scooter", "lon": -77.031924, "lat": 38.9130755, "fusion_lon": 0.0, "name": "5f54c5726c7f779123778224f61b5341", "bike_id": "5f54c5726c7f779123778224f61b5341", "is_reserved": 0, "fusion_lat": 0.0, "is_disabled": 0}, {"rental_uris": {"ios": "https://dc.lft.to/lastmile_qr_scan", "android": "https://dc.lft.to/lastmile_qr_scan"}, "type": "electric_scooter", "lon": -77.034983, "lat": 38.91624766666666, "fusion_lon": 0.0, "name": "cc1376a76a5ed215aa4adbbe9c0e4bce", "bike_id": "cc1376a76a5ed215aa4adbbe9c0e4bce", "is_reserved": 0, "fusion_lat": 0.0, "is_disabled": 0}, {"rental_uris": {"ios": "https://dc.lft.to/lastmile_qr_scan", "android": "https://dc.lft.to/lastmile_qr_scan"}, "type": "electric_scooter", "lon": -76.993654, "lat": 38.90125966666667, "fusion_lon": 0.0, "name": "e58cce5e80d56c5881524dee0fd0f2f9", "bike_id": "e58cce5e80d56c5881524dee0fd0f2f9", "is_reserved": 0, "fusion_lat": 0.0, "is_disabled": 0}, {"rental_uris": {"ios": "https://dc.lft.to/lastmile_qr_scan", "android": "https://dc.lft.to/lastmile_qr_scan"}, "type": "electric_scooter", "lon": -77.03376483333334, "lat": 38.900098666666665, "fusion_lon": 0.0, "name": "decd4d28b8d20d8fa9fb708039bb3075", "bike_id": "decd4d28b8d20d8fa9fb708039bb3075", "is_reserved": 0, "fusion_lat": 0.0, "is_disabled": 0}, {"rental_uris": {"ios": "https://dc.lft.to/lastmile_qr_scan", "android": "https://dc.lft.to/lastmile_qr_scan"}, "type": "electric_scooter", "lon": -77.01950783333334, "lat": 38.928102333333335, "fusion_lon": 0.0, "name": "9627afbb885a73173183aca57807a76a", "bike_id": "9627afbb885a73173183aca57807a76a", "is_reserved": 0, "fusion_lat": 0.0, "is_disabled": 0}, {"rental_uris": {"ios": "https://dc.lft.to/lastmile_qr_scan", "android": "https://dc.lft.to/lastmile_qr_scan"}, "type": "electric_scooter", "lon": -77.02400383333334, "lat": 38.9098825, "fusion_lon": 0.0, "name": "ba671c274f37b4e33ca9fc936fd6c2f2", "bike_id": "ba671c274f37b4e33ca9fc936fd6c2f2", "is_reserved": 0, "fusion_lat": 0.0, "is_disabled": 0}, {"rental_uris": {"ios": "https://dc.lft.to/lastmile_qr_scan", "android": "https://dc.lft.to/lastmile_qr_scan"}, "type": "electric_bike", "lon": -77.0502555, "lat": 38.89276016666667, "fusion_lon": 0.0, "name": "edd4304a4d1f0326fe4a1032f7df789e", "bike_id": "edd4304a4d1f0326fe4a1032f7df789e", "is_reserved": 0, "fusion_lat": 0.0, "is_disabled": 0}, {"rental_uris": {"ios": "https://dc.lft.to/lastmile_qr_scan", "android": "https://dc.lft.to/lastmile_qr_scan"}, "type": "electric_scooter", "lon": -77.01759466666667, "lat": 38.8768785, "fusion_lon": 0.0, "name": "6131796e99d013661e766606d4216e69", "bike_id": "6131796e99d013661e766606d4216e69", "is_reserved": 0, "fusion_lat": 0.0, "is_disabled": 0}, {"rental_uris": {"ios": "https://dc.lft.to/lastmile_qr_scan", "android": "https://dc.lft.to/lastmile_qr_scan"}, "type": "electric_scooter", "lon": -77.02572433333333, "lat": 38.8874285, "fusion_lon": 0.0, "name": "7286a4fbea8953ac3e4ba9885f5f5cc2", "bike_id": "7286a4fbea8953ac3e4ba9885f5f5cc2", "is_reserved": 0, "fusion_lat": 0.0, "is_disabled": 0}, {"rental_uris": {"ios": "https://dc.lft.to/lastmile_qr_scan", "android": "https://dc.lft.to/lastmile_qr_scan"}, "type": "electric_scooter", "lon": -76.93176, "lat": 38.89883366666667, "fusion_lon": 0.0, "name": "cb13af68f9a64a43ba74e2dacaf7ff2e", "bike_id": "cb13af68f9a64a43ba74e2dacaf7ff2e", "is_reserved": 0, "fusion_lat": 0.0, "is_disabled": 0}, {"rental_uris": {"ios": "https://dc.lft.to/lastmile_qr_scan", "android": "https://dc.lft.to/lastmile_qr_scan"}, "type": "electric_scooter", "lon": -77.02968883333334, "lat": 38.8989615, "fusion_lon": 0.0, "name": "7ba32d47ae506bc7d29b18b395880fcc", "bike_id": "7ba32d47ae506bc7d29b18b395880fcc", "is_reserved": 0, "fusion_lat": 0.0, "is_disabled": 0}, {"rental_uris": {"ios": "https://dc.lft.to/lastmile_qr_scan", "android": "https://dc.lft.to/lastmile_qr_scan"}, "type": "electric_scooter", "lon": -76.92107583333333, "lat": 38.88986516666667, "fusion_lon": 0.0, "name": "b9be7a2b489e8df121ffc4a145557d0b", "bike_id": "b9be7a2b489e8df121ffc4a145557d0b", "is_reserved": 0, "fusion_lat": 0.0, "is_disabled": 0}, {"rental_uris": {"ios": "https://dc.lft.to/lastmile_qr_scan", "android": "https://dc.lft.to/lastmile_qr_scan"}, "type": "electric_bike", "lon": -77.16249866666666, "lat": 38.886857166666665, "fusion_lon": 0.0, "name": "3acd6619ea27a108e6f1a7ede1f84de7", "bike_id": "3acd6619ea27a108e6f1a7ede1f84de7", "is_reserved": 0, "fusion_lat": 0.0, "is_disabled": 0}, {"rental_uris": {"ios": "https://dc.lft.to/lastmile_qr_scan", "android": "https://dc.lft.to/lastmile_qr_scan"}, "type": "electric_scooter", "lon": -77.03437816666667, "lat": 38.904157, "fusion_lon": 0.0, "name": "4130c93d20ee438e342c817704f87bb1", "bike_id": "4130c93d20ee438e342c817704f87bb1", "is_reserved": 0, "fusion_lat": 0.0, "is_disabled": 0}, {"rental_uris": {"ios": "https://dc.lft.to/lastmile_qr_scan", "android": "https://dc.lft.to/lastmile_qr_scan"}, "type": "electric_scooter", "lon": -77.025736, "lat": 38.887437166666665, "fusion_lon": 0.0, "name": "005f794faf868298b478487d470fc389", "bike_id": "005f794faf868298b478487d470fc389", "is_reserved": 0, "fusion_lat": 0.0, "is_disabled": 0}, {"rental_uris": {"ios": "https://dc.lft.to/lastmile_qr_scan", "android": "https://dc.lft.to/lastmile_qr_scan"}, "type": "electric_scooter", "lon": -76.98273266666666, "lat": 38.903484166666665, "fusion_lon": 0.0, "name": "a04a2e3e920fc1dbd8055e1a85736727", "bike_id": "a04a2e3e920fc1dbd8055e1a85736727", "is_reserved": 0, "fusion_lat": 0.0, "is_disabled": 0}, {"rental_uris": {"ios": "https://dc.lft.to/lastmile_qr_scan", "android": "https://dc.lft.to/lastmile_qr_scan"}, "type": "electric_scooter", "lon": -77.04192583333334, "lat": 38.9057905, "fusion_lon": 0.0, "name": "60ca1456610d5bf5c0ef036f5ccb9173", "bike_id": "60ca1456610d5bf5c0ef036f5ccb9173", "is_reserved": 0, "fusion_lat": 0.0, "is_disabled": 0}, {"rental_uris": {"ios": "https://dc.lft.to/lastmile_qr_scan", "android": "https://dc.lft.to/lastmile_qr_scan"}, "type": "electric_scooter", "lon": -77.0021795, "lat": 38.8926125, "fusion_lon": 0.0, "name": "cd368a89f820622341e6afe6401970f7", "bike_id": "cd368a89f820622341e6afe6401970f7", "is_reserved": 0, "fusion_lat": 0.0, "is_disabled": 0}, {"rental_uris": {"ios": "https://dc.lft.to/lastmile_qr_scan", "android": "https://dc.lft.to/lastmile_qr_scan"}, "type": "electric_scooter", "lon": -77.00539566666667, "lat": 38.87546283333333, "fusion_lon": 0.0, "name": "6525a5c33d4092b2b832a4f8c2e46a8a", "bike_id": "6525a5c33d4092b2b832a4f8c2e46a8a", "is_reserved": 0, "fusion_lat": 0.0, "is_disabled": 0}, {"rental_uris": {"ios": "https://dc.lft.to/lastmile_qr_scan", "android": "https://dc.lft.to/lastmile_qr_scan"}, "type": "electric_scooter", "lon": -77.04362733333333, "lat": 38.89225483333333, "fusion_lon": 0.0, "name": "f94219939953d3cb13ef8d7e5dd54fb1", "bike_id": "f94219939953d3cb13ef8d7e5dd54fb1", "is_reserved": 0, "fusion_lat": 0.0, "is_disabled": 0}, {"rental_uris": {"ios": "https://dc.lft.to/lastmile_qr_scan", "android": "https://dc.lft.to/lastmile_qr_scan"}, "type": "electric_scooter", "lon": -77.03207083333334, "lat": 38.9275745, "fusion_lon": 0.0, "name": "4ad4dbe7900324cd26b964e6ef6e3c00", "bike_id": "4ad4dbe7900324cd26b964e6ef6e3c00", "is_reserved": 0, "fusion_lat": 0.0, "is_disabled": 0}, {"rental_uris": {"ios": "https://dc.lft.to/lastmile_qr_scan", "android": "https://dc.lft.to/lastmile_qr_scan"}, "type": "electric_scooter", "lon": -77.02620233333333, "lat": 38.9191395, "fusion_lon": 0.0, "name": "c4a3a213230c0d4443afbfebf25a0a96", "bike_id": "c4a3a213230c0d4443afbfebf25a0a96", "is_reserved": 0, "fusion_lat": 0.0, "is_disabled": 0}, {"rental_uris": {"ios": "https://dc.lft.to/lastmile_qr_scan", "android": "https://dc.lft.to/lastmile_qr_scan"}, "type": "electric_scooter", "lon": -77.07124683333333, "lat": 38.919691666666665, "fusion_lon": 0.0, "name": "33e09d39620a9120cf8521afa5f78825", "bike_id": "33e09d39620a9120cf8521afa5f78825", "is_reserved": 0, "fusion_lat": 0.0, "is_disabled": 0}, {"rental_uris": {"ios": "https://dc.lft.to/lastmile_qr_scan", "android": "https://dc.lft.to/lastmile_qr_scan"}, "type": "electric_scooter", "lon": -77.044757, "lat": 38.9159615, "fusion_lon": 0.0, "name": "75aa86e69f5f6bed0d9f6ba76f1229d8", "bike_id": "75aa86e69f5f6bed0d9f6ba76f1229d8", "is_reserved": 0, "fusion_lat": 0.0, "is_disabled": 0}, {"rental_uris": {"ios": "https://dc.lft.to/lastmile_qr_scan", "android": "https://dc.lft.to/lastmile_qr_scan"}, "type": "electric_scooter", "lon": -77.045177, "lat": 38.911141, "fusion_lon": 0.0, "name": "a2463bc82217f063d51fd661a1ce8f01", "bike_id": "a2463bc82217f063d51fd661a1ce8f01", "is_reserved": 0, "fusion_lat": 0.0, "is_disabled": 0}, {"rental_uris": {"ios": "https://dc.lft.to/lastmile_qr_scan", "android": "https://dc.lft.to/lastmile_qr_scan"}, "type": "electric_scooter", "lon": -77.0236605, "lat": 38.90220983333333, "fusion_lon": 0.0, "name": "46272add955c51c1a410e449b0c2f716", "bike_id": "46272add955c51c1a410e449b0c2f716", "is_reserved": 0, "fusion_lat": 0.0, "is_disabled": 0}, {"rental_uris": {"ios": "https://dc.lft.to/lastmile_qr_scan", "android": "https://dc.lft.to/lastmile_qr_scan"}, "type": "electric_scooter", "lon": -77.06847883333333, "lat": 38.9038735, "fusion_lon": 0.0, "name": "49ba4729b218c19fafaf7c74e4ffedd4", "bike_id": "49ba4729b218c19fafaf7c74e4ffedd4", "is_reserved": 0, "fusion_lat": 0.0, "is_disabled": 0}, {"rental_uris": {"ios": "https://dc.lft.to/lastmile_qr_scan", "android": "https://dc.lft.to/lastmile_qr_scan"}, "type": "electric_scooter", "lon": -77.05985233333334, "lat": 38.938159166666665, "fusion_lon": 0.0, "name": "794328489b582b340dfd8946207110de", "bike_id": "794328489b582b340dfd8946207110de", "is_reserved": 0, "fusion_lat": 0.0, "is_disabled": 0}, {"rental_uris": {"ios": "https://dc.lft.to/lastmile_qr_scan", "android": "https://dc.lft.to/lastmile_qr_scan"}, "type": "electric_scooter", "lon": -77.0436815, "lat": 38.91119583333333, "fusion_lon": 0.0, "name": "cf8b7b3c4a9f7781198f99264929b1a9", "bike_id": "cf8b7b3c4a9f7781198f99264929b1a9", "is_reserved": 0, "fusion_lat": 0.0, "is_disabled": 0}, {"rental_uris": {"ios": "https://dc.lft.to/lastmile_qr_scan", "android": "https://dc.lft.to/lastmile_qr_scan"}, "type": "electric_scooter", "lon": -77.0269285, "lat": 38.906829, "fusion_lon": 0.0, "name": "cc2ed26fb981298ca91029e45680b5ed", "bike_id": "cc2ed26fb981298ca91029e45680b5ed", "is_reserved": 0, "fusion_lat": 0.0, "is_disabled": 0}, {"rental_uris": {"ios": "https://dc.lft.to/lastmile_qr_scan", "android": "https://dc.lft.to/lastmile_qr_scan"}, "type": "electric_scooter", "lon": -77.02184866666667, "lat": 38.907003833333334, "fusion_lon": 0.0, "name": "2fc9ee265bfc7ccfc454843f57f13996", "bike_id": "2fc9ee265bfc7ccfc454843f57f13996", "is_reserved": 0, "fusion_lat": 0.0, "is_disabled": 0}, {"rental_uris": {"ios": "https://dc.lft.to/lastmile_qr_scan", "android": "https://dc.lft.to/lastmile_qr_scan"}, "type": "electric_scooter", "lon": -76.99588333333334, "lat": 38.92832333333333, "fusion_lon": 0.0, "name": "21bdb0eb51ae1fe9d4c316605732aa83", "bike_id": "21bdb0eb51ae1fe9d4c316605732aa83", "is_reserved": 0, "fusion_lat": 0.0, "is_disabled": 0}, {"rental_uris": {"ios": "https://dc.lft.to/lastmile_qr_scan", "android": "https://dc.lft.to/lastmile_qr_scan"}, "type": "electric_scooter", "lon": -77.01167716666667, "lat": 38.89618733333333, "fusion_lon": 0.0, "name": "cf26a273f35d4ad9e2cb68488df9f50d", "bike_id": "cf26a273f35d4ad9e2cb68488df9f50d", "is_reserved": 0, "fusion_lat": 0.0, "is_disabled": 0}, {"rental_uris": {"ios": "https://dc.lft.to/lastmile_qr_scan", "android": "https://dc.lft.to/lastmile_qr_scan"}, "type": "electric_scooter", "lon": -77.00615983333333, "lat": 38.87628466666666, "fusion_lon": 0.0, "name": "5f93e688cab10faa5b01e14c2f4b3ab4", "bike_id": "5f93e688cab10faa5b01e14c2f4b3ab4", "is_reserved": 0, "fusion_lat": 0.0, "is_disabled": 0}, {"rental_uris": {"ios": "https://dc.lft.to/lastmile_qr_scan", "android": "https://dc.lft.to/lastmile_qr_scan"}, "type": "electric_scooter", "lon": -77.0365545, "lat": 38.931594, "fusion_lon": 0.0, "name": "5520881e0df219c01cab902772b40109", "bike_id": "5520881e0df219c01cab902772b40109", "is_reserved": 0, "fusion_lat": 0.0, "is_disabled": 0}, {"rental_uris": {"ios": "https://dc.lft.to/lastmile_qr_scan", "android": "https://dc.lft.to/lastmile_qr_scan"}, "type": "electric_scooter", "lon": -77.00215766666666, "lat": 38.8925915, "fusion_lon": 0.0, "name": "74cb752aef4b89ce976bc4c648732d7a", "bike_id": "74cb752aef4b89ce976bc4c648732d7a", "is_reserved": 0, "fusion_lat": 0.0, "is_disabled": 0}, {"rental_uris": {"ios": "https://dc.lft.to/lastmile_qr_scan", "android": "https://dc.lft.to/lastmile_qr_scan"}, "type": "electric_scooter", "lon": -77.05211183333333, "lat": 38.924353333333336, "fusion_lon": 0.0, "name": "15720e68f8c87553f6c377e22fb9b20b", "bike_id": "15720e68f8c87553f6c377e22fb9b20b", "is_reserved": 0, "fusion_lat": 0.0, "is_disabled": 0}, {"rental_uris": {"ios": "https://dc.lft.to/lastmile_qr_scan", "android": "https://dc.lft.to/lastmile_qr_scan"}, "type": "electric_scooter", "lon": -77.0328275, "lat": 38.89904216666667, "fusion_lon": 0.0, "name": "edc68f161e6aeea2a92170cf1759589b", "bike_id": "edc68f161e6aeea2a92170cf1759589b", "is_reserved": 0, "fusion_lat": 0.0, "is_disabled": 0}, {"rental_uris": {"ios": "https://dc.lft.to/lastmile_qr_scan", "android": "https://dc.lft.to/lastmile_qr_scan"}, "type": "electric_scooter", "lon": -76.92742433333333, "lat": 38.90067633333334, "fusion_lon": 0.0, "name": "e3f9bf719281657720036589970f7e25", "bike_id": "e3f9bf719281657720036589970f7e25", "is_reserved": 0, "fusion_lat": 0.0, "is_disabled": 0}, {"rental_uris": {"ios": "https://dc.lft.to/lastmile_qr_scan", "android": "https://dc.lft.to/lastmile_qr_scan"}, "type": "electric_scooter", "lon": -76.9929845, "lat": 38.881231, "fusion_lon": 0.0, "name": "5447d3d7e58b12db0ca57d00284c0f59", "bike_id": "5447d3d7e58b12db0ca57d00284c0f59", "is_reserved": 0, "fusion_lat": 0.0, "is_disabled": 0}, {"rental_uris": {"ios": "https://dc.lft.to/lastmile_qr_scan", "android": "https://dc.lft.to/lastmile_qr_scan"}, "type": "electric_scooter", "lon": -76.99159716666666, "lat": 38.87861216666667, "fusion_lon": 0.0, "name": "fc5fbadd3c43229f4e54315757a84043", "bike_id": "fc5fbadd3c43229f4e54315757a84043", "is_reserved": 0, "fusion_lat": 0.0, "is_disabled": 0}, {"rental_uris": {"ios": "https://dc.lft.to/lastmile_qr_scan", "android": "https://dc.lft.to/lastmile_qr_scan"}, "type": "electric_scooter", "lon": -77.04153466666666, "lat": 38.917147666666665, "fusion_lon": 0.0, "name": "59190967dfeeed2fe66db11679f369ac", "bike_id": "59190967dfeeed2fe66db11679f369ac", "is_reserved": 0, "fusion_lat": 0.0, "is_disabled": 0}, {"rental_uris": {"ios": "https://dc.lft.to/lastmile_qr_scan", "android": "https://dc.lft.to/lastmile_qr_scan"}, "type": "electric_scooter", "lon": -77.002171, "lat": 38.91106516666667, "fusion_lon": 0.0, "name": "c3d358e73dd9b47f04c25738f99ffcc9", "bike_id": "c3d358e73dd9b47f04c25738f99ffcc9", "is_reserved": 0, "fusion_lat": 0.0, "is_disabled": 0}, {"rental_uris": {"ios": "https://dc.lft.to/lastmile_qr_scan", "android": "https://dc.lft.to/lastmile_qr_scan"}, "type": "electric_scooter", "lon": -77.085968, "lat": 38.90867133333333, "fusion_lon": 0.0, "name": "392c19f51c4c07b32ef8c85b1339841d", "bike_id": "392c19f51c4c07b32ef8c85b1339841d", "is_reserved": 0, "fusion_lat": 0.0, "is_disabled": 0}, {"rental_uris": {"ios": "https://dc.lft.to/lastmile_qr_scan", "android": "https://dc.lft.to/lastmile_qr_scan"}, "type": "electric_scooter", "lon": -77.02270483333334, "lat": 38.9247765, "fusion_lon": 0.0, "name": "1174f407f7ccbdb8a1cb3e34776f24f2", "bike_id": "1174f407f7ccbdb8a1cb3e34776f24f2", "is_reserved": 0, "fusion_lat": 0.0, "is_disabled": 0}, {"rental_uris": {"ios": "https://dc.lft.to/lastmile_qr_scan", "android": "https://dc.lft.to/lastmile_qr_scan"}, "type": "electric_scooter", "lon": -77.033317, "lat": 38.8989135, "fusion_lon": 0.0, "name": "d2a6f6d652c7997d805fd0461f3c12c9", "bike_id": "d2a6f6d652c7997d805fd0461f3c12c9", "is_reserved": 0, "fusion_lat": 0.0, "is_disabled": 0}, {"rental_uris": {"ios": "https://dc.lft.to/lastmile_qr_scan", "android": "https://dc.lft.to/lastmile_qr_scan"}, "type": "electric_bike", "lon": -76.9075155, "lat": 38.896202333333335, "fusion_lon": 0.0, "name": "6f1cafdb21a93a9c6495efa816d4f5d9", "bike_id": "6f1cafdb21a93a9c6495efa816d4f5d9", "is_reserved": 0, "fusion_lat": 0.0, "is_disabled": 0}, {"rental_uris": {"ios": "https://dc.lft.to/lastmile_qr_scan", "android": "https://dc.lft.to/lastmile_qr_scan"}, "type": "electric_scooter", "lon": -76.98836016666667, "lat": 38.9004115, "fusion_lon": 0.0, "name": "733c3dfc9f6ac590525bc4279497ec5f", "bike_id": "733c3dfc9f6ac590525bc4279497ec5f", "is_reserved": 0, "fusion_lat": 0.0, "is_disabled": 0}, {"rental_uris": {"ios": "https://dc.lft.to/lastmile_qr_scan", "android": "https://dc.lft.to/lastmile_qr_scan"}, "type": "electric_scooter", "lon": -76.98570716666667, "lat": 38.9211495, "fusion_lon": 0.0, "name": "5ea0cb214e16d4bbfdf9c60d22e3da9a", "bike_id": "5ea0cb214e16d4bbfdf9c60d22e3da9a", "is_reserved": 0, "fusion_lat": 0.0, "is_disabled": 0}, {"rental_uris": {"ios": "https://dc.lft.to/lastmile_qr_scan", "android": "https://dc.lft.to/lastmile_qr_scan"}, "type": "electric_scooter", "lon": -77.01118983333333, "lat": 38.920267833333334, "fusion_lon": 0.0, "name": "2a86e015d2b0bf25aa67178957f278aa", "bike_id": "2a86e015d2b0bf25aa67178957f278aa", "is_reserved": 0, "fusion_lat": 0.0, "is_disabled": 0}, {"rental_uris": {"ios": "https://dc.lft.to/lastmile_qr_scan", "android": "https://dc.lft.to/lastmile_qr_scan"}, "type": "electric_scooter", "lon": -77.00969483333333, "lat": 38.90788466666667, "fusion_lon": 0.0, "name": "9436942cd8d6a95f0f50cc1fac3d9d3d", "bike_id": "9436942cd8d6a95f0f50cc1fac3d9d3d", "is_reserved": 0, "fusion_lat": 0.0, "is_disabled": 0}, {"rental_uris": {"ios": "https://dc.lft.to/lastmile_qr_scan", "android": "https://dc.lft.to/lastmile_qr_scan"}, "type": "electric_scooter", "lon": -77.032102, "lat": 38.914993333333335, "fusion_lon": 0.0, "name": "cb0eecd07a596d38d178195185b2b153", "bike_id": "cb0eecd07a596d38d178195185b2b153", "is_reserved": 0, "fusion_lat": 0.0, "is_disabled": 0}, {"rental_uris": {"ios": "https://dc.lft.to/lastmile_qr_scan", "android": "https://dc.lft.to/lastmile_qr_scan"}, "type": "electric_scooter", "lon": -77.02711983333333, "lat": 38.92402666666667, "fusion_lon": 0.0, "name": "e272d41f6c9cf6b4564f1973c76d80ea", "bike_id": "e272d41f6c9cf6b4564f1973c76d80ea", "is_reserved": 0, "fusion_lat": 0.0, "is_disabled": 0}, {"rental_uris": {"ios": "https://dc.lft.to/lastmile_qr_scan", "android": "https://dc.lft.to/lastmile_qr_scan"}, "type": "electric_scooter", "lon": -77.03197066666667, "lat": 38.908038166666664, "fusion_lon": 0.0, "name": "1d15c3ddfea167a9a5e7c7a7230f31a6", "bike_id": "1d15c3ddfea167a9a5e7c7a7230f31a6", "is_reserved": 0, "fusion_lat": 0.0, "is_disabled": 0}, {"rental_uris": {"ios": "https://dc.lft.to/lastmile_qr_scan", "android": "https://dc.lft.to/lastmile_qr_scan"}, "type": "electric_scooter", "lon": -77.04623633333334, "lat": 38.92316733333333, "fusion_lon": 0.0, "name": "3189a3aa827c2ec16b25a64b3c2d83fe", "bike_id": "3189a3aa827c2ec16b25a64b3c2d83fe", "is_reserved": 0, "fusion_lat": 0.0, "is_disabled": 0}, {"rental_uris": {"ios": "https://dc.lft.to/lastmile_qr_scan", "android": "https://dc.lft.to/lastmile_qr_scan"}, "type": "electric_scooter", "lon": -77.0360435, "lat": 38.9075475, "fusion_lon": 0.0, "name": "110c17b8a7c2cecaa1e071d0a5a08ba2", "bike_id": "110c17b8a7c2cecaa1e071d0a5a08ba2", "is_reserved": 0, "fusion_lat": 0.0, "is_disabled": 0}, {"rental_uris": {"ios": "https://dc.lft.to/lastmile_qr_scan", "android": "https://dc.lft.to/lastmile_qr_scan"}, "type": "electric_scooter", "lon": -77.045178, "lat": 38.911160833333334, "fusion_lon": 0.0, "name": "89991ed78393d61e2cb15f0275009b73", "bike_id": "89991ed78393d61e2cb15f0275009b73", "is_reserved": 0, "fusion_lat": 0.0, "is_disabled": 0}, {"rental_uris": {"ios": "https://dc.lft.to/lastmile_qr_scan", "android": "https://dc.lft.to/lastmile_qr_scan"}, "type": "electric_scooter", "lon": -77.04869433333333, "lat": 38.892199833333336, "fusion_lon": 0.0, "name": "82f3d41707f8e32e6736cf0bbc0f921f", "bike_id": "82f3d41707f8e32e6736cf0bbc0f921f", "is_reserved": 0, "fusion_lat": 0.0, "is_disabled": 0}, {"rental_uris": {"ios": "https://dc.lft.to/lastmile_qr_scan", "android": "https://dc.lft.to/lastmile_qr_scan"}, "type": "electric_bike", "lon": -76.94896733333333, "lat": 38.84224066666667, "fusion_lon": 0.0, "name": "a751e29362eb1fd9b45ac1c42fd84669", "bike_id": "a751e29362eb1fd9b45ac1c42fd84669", "is_reserved": 0, "fusion_lat": 0.0, "is_disabled": 0}, {"rental_uris": {"ios": "https://dc.lft.to/lastmile_qr_scan", "android": "https://dc.lft.to/lastmile_qr_scan"}, "type": "electric_scooter", "lon": -77.02104466666667, "lat": 38.92157483333333, "fusion_lon": 0.0, "name": "7eae9bddf268af9dc94e4974414a22c7", "bike_id": "7eae9bddf268af9dc94e4974414a22c7", "is_reserved": 0, "fusion_lat": 0.0, "is_disabled": 0}, {"rental_uris": {"ios": "https://dc.lft.to/lastmile_qr_scan", "android": "https://dc.lft.to/lastmile_qr_scan"}, "type": "electric_scooter", "lon": -76.99376116666667, "lat": 38.85219983333333, "fusion_lon": 0.0, "name": "6e61e6e2e10d9ce8b241889f4102f185", "bike_id": "6e61e6e2e10d9ce8b241889f4102f185", "is_reserved": 0, "fusion_lat": 0.0, "is_disabled": 0}, {"rental_uris": {"ios": "https://dc.lft.to/lastmile_qr_scan", "android": "https://dc.lft.to/lastmile_qr_scan"}, "type": "electric_scooter", "lon": -77.05677166666666, "lat": 38.9233335, "fusion_lon": 0.0, "name": "6d089dd2929a87350c5064c6427bc233", "bike_id": "6d089dd2929a87350c5064c6427bc233", "is_reserved": 0, "fusion_lat": 0.0, "is_disabled": 0}, {"rental_uris": {"ios": "https://dc.lft.to/lastmile_qr_scan", "android": "https://dc.lft.to/lastmile_qr_scan"}, "type": "electric_scooter", "lon": -77.04280833333333, "lat": 38.911173166666664, "fusion_lon": 0.0, "name": "5ae393bb1d962dbb92bd29896e758eb0", "bike_id": "5ae393bb1d962dbb92bd29896e758eb0", "is_reserved": 0, "fusion_lat": 0.0, "is_disabled": 0}, {"rental_uris": {"ios": "https://dc.lft.to/lastmile_qr_scan", "android": "https://dc.lft.to/lastmile_qr_scan"}, "type": "electric_scooter", "lon": -77.03856033333334, "lat": 38.91664883333333, "fusion_lon": 0.0, "name": "907a84455021eda9264399a368ebbd6e", "bike_id": "907a84455021eda9264399a368ebbd6e", "is_reserved": 0, "fusion_lat": 0.0, "is_disabled": 0}, {"rental_uris": {"ios": "https://dc.lft.to/lastmile_qr_scan", "android": "https://dc.lft.to/lastmile_qr_scan"}, "type": "electric_scooter", "lon": -77.06785633333334, "lat": 38.91559516666667, "fusion_lon": 0.0, "name": "4eab6c3c674f323ea136c1e55d6b7e9c", "bike_id": "4eab6c3c674f323ea136c1e55d6b7e9c", "is_reserved": 0, "fusion_lat": 0.0, "is_disabled": 0}, {"rental_uris": {"ios": "https://dc.lft.to/lastmile_qr_scan", "android": "https://dc.lft.to/lastmile_qr_scan"}, "type": "electric_scooter", "lon": -77.0270715, "lat": 38.91801183333333, "fusion_lon": 0.0, "name": "0402bdd58934731e3235e066fd99b205", "bike_id": "0402bdd58934731e3235e066fd99b205", "is_reserved": 0, "fusion_lat": 0.0, "is_disabled": 0}, {"rental_uris": {"ios": "https://dc.lft.to/lastmile_qr_scan", "android": "https://dc.lft.to/lastmile_qr_scan"}, "type": "electric_scooter", "lon": -77.0703155, "lat": 38.906242666666664, "fusion_lon": 0.0, "name": "76082e20b152174120cf2a09ce46d75f", "bike_id": "76082e20b152174120cf2a09ce46d75f", "is_reserved": 0, "fusion_lat": 0.0, "is_disabled": 0}, {"rental_uris": {"ios": "https://dc.lft.to/lastmile_qr_scan", "android": "https://dc.lft.to/lastmile_qr_scan"}, "type": "electric_scooter", "lon": -76.93734933333333, "lat": 38.89020283333333, "fusion_lon": 0.0, "name": "5d85bc7070309c551745612fdf35562e", "bike_id": "5d85bc7070309c551745612fdf35562e", "is_reserved": 0, "fusion_lat": 0.0, "is_disabled": 0}, {"rental_uris": {"ios": "https://dc.lft.to/lastmile_qr_scan", "android": "https://dc.lft.to/lastmile_qr_scan"}, "type": "electric_scooter", "lon": -77.00778233333334, "lat": 38.87654366666666, "fusion_lon": 0.0, "name": "27bca62a34d5776d124a51edae325b05", "bike_id": "27bca62a34d5776d124a51edae325b05", "is_reserved": 0, "fusion_lat": 0.0, "is_disabled": 0}, {"rental_uris": {"ios": "https://dc.lft.to/lastmile_qr_scan", "android": "https://dc.lft.to/lastmile_qr_scan"}, "type": "electric_scooter", "lon": -77.0318755, "lat": 38.91850383333333, "fusion_lon": 0.0, "name": "295bf5d3dcb066edbf5067ef47372b0e", "bike_id": "295bf5d3dcb066edbf5067ef47372b0e", "is_reserved": 0, "fusion_lat": 0.0, "is_disabled": 0}, {"rental_uris": {"ios": "https://dc.lft.to/lastmile_qr_scan", "android": "https://dc.lft.to/lastmile_qr_scan"}, "type": "electric_scooter", "lon": -77.03314283333333, "lat": 38.90837966666667, "fusion_lon": 0.0, "name": "835866dbeac5854072db2247987e8c8f", "bike_id": "835866dbeac5854072db2247987e8c8f", "is_reserved": 0, "fusion_lat": 0.0, "is_disabled": 0}, {"rental_uris": {"ios": "https://dc.lft.to/lastmile_qr_scan", "android": "https://dc.lft.to/lastmile_qr_scan"}, "type": "electric_scooter", "lon": -77.03230883333333, "lat": 38.929921, "fusion_lon": 0.0, "name": "cb179338cc99f4831d20d02929a5daa0", "bike_id": "cb179338cc99f4831d20d02929a5daa0", "is_reserved": 0, "fusion_lat": 0.0, "is_disabled": 0}, {"rental_uris": {"ios": "https://dc.lft.to/lastmile_qr_scan", "android": "https://dc.lft.to/lastmile_qr_scan"}, "type": "electric_scooter", "lon": -76.98231016666666, "lat": 38.86472583333333, "fusion_lon": 0.0, "name": "8e359ded1456cab016547f162597fe83", "bike_id": "8e359ded1456cab016547f162597fe83", "is_reserved": 0, "fusion_lat": 0.0, "is_disabled": 0}, {"rental_uris": {"ios": "https://dc.lft.to/lastmile_qr_scan", "android": "https://dc.lft.to/lastmile_qr_scan"}, "type": "electric_scooter", "lon": -77.01894066666667, "lat": 38.918843333333335, "fusion_lon": 0.0, "name": "44af7d78d4e37bcecca36696304a1ed0", "bike_id": "44af7d78d4e37bcecca36696304a1ed0", "is_reserved": 0, "fusion_lat": 0.0, "is_disabled": 0}, {"rental_uris": {"ios": "https://dc.lft.to/lastmile_qr_scan", "android": "https://dc.lft.to/lastmile_qr_scan"}, "type": "electric_scooter", "lon": -77.02166383333333, "lat": 38.8921585, "fusion_lon": 0.0, "name": "d63f888180706ff00601368bd6175f61", "bike_id": "d63f888180706ff00601368bd6175f61", "is_reserved": 0, "fusion_lat": 0.0, "is_disabled": 0}, {"rental_uris": {"ios": "https://dc.lft.to/lastmile_qr_scan", "android": "https://dc.lft.to/lastmile_qr_scan"}, "type": "electric_scooter", "lon": -76.98134766666666, "lat": 38.85712, "fusion_lon": 0.0, "name": "2385594ec416af7101413889a41fcd50", "bike_id": "2385594ec416af7101413889a41fcd50", "is_reserved": 0, "fusion_lat": 0.0, "is_disabled": 0}, {"rental_uris": {"ios": "https://dc.lft.to/lastmile_qr_scan", "android": "https://dc.lft.to/lastmile_qr_scan"}, "type": "electric_scooter", "lon": -77.0285365, "lat": 38.89846716666667, "fusion_lon": 0.0, "name": "31e2e82937c497e04db05de5f4e4bab8", "bike_id": "31e2e82937c497e04db05de5f4e4bab8", "is_reserved": 0, "fusion_lat": 0.0, "is_disabled": 0}, {"rental_uris": {"ios": "https://dc.lft.to/lastmile_qr_scan", "android": "https://dc.lft.to/lastmile_qr_scan"}, "type": "electric_scooter", "lon": -77.02585783333333, "lat": 38.926764166666665, "fusion_lon": 0.0, "name": "cd0e2577e72a7ca15a480b8ec75d9dd0", "bike_id": "cd0e2577e72a7ca15a480b8ec75d9dd0", "is_reserved": 0, "fusion_lat": 0.0, "is_disabled": 0}, {"rental_uris": {"ios": "https://dc.lft.to/lastmile_qr_scan", "android": "https://dc.lft.to/lastmile_qr_scan"}, "type": "electric_scooter", "lon": -77.0273295, "lat": 38.923838, "fusion_lon": 0.0, "name": "602525a094cd2108ee1fa97e07bab457", "bike_id": "602525a094cd2108ee1fa97e07bab457", "is_reserved": 0, "fusion_lat": 0.0, "is_disabled": 0}, {"rental_uris": {"ios": "https://dc.lft.to/lastmile_qr_scan", "android": "https://dc.lft.to/lastmile_qr_scan"}, "type": "electric_scooter", "lon": -77.03665283333333, "lat": 38.92240666666667, "fusion_lon": 0.0, "name": "6c7462a308d29ac25bd1206340e74dad", "bike_id": "6c7462a308d29ac25bd1206340e74dad", "is_reserved": 0, "fusion_lat": 0.0, "is_disabled": 0}, {"rental_uris": {"ios": "https://dc.lft.to/lastmile_qr_scan", "android": "https://dc.lft.to/lastmile_qr_scan"}, "type": "electric_scooter", "lon": -76.9973205, "lat": 38.899407, "fusion_lon": 0.0, "name": "cd32e557c9c960eff519bc18f3baf2d4", "bike_id": "cd32e557c9c960eff519bc18f3baf2d4", "is_reserved": 0, "fusion_lat": 0.0, "is_disabled": 0}, {"rental_uris": {"ios": "https://dc.lft.to/lastmile_qr_scan", "android": "https://dc.lft.to/lastmile_qr_scan"}, "type": "electric_scooter", "lon": -77.00580383333333, "lat": 38.87574983333333, "fusion_lon": 0.0, "name": "a13ebbb36897a791d5b1e500d2d8c8d1", "bike_id": "a13ebbb36897a791d5b1e500d2d8c8d1", "is_reserved": 0, "fusion_lat": 0.0, "is_disabled": 0}, {"rental_uris": {"ios": "https://dc.lft.to/lastmile_qr_scan", "android": "https://dc.lft.to/lastmile_qr_scan"}, "type": "electric_scooter", "lon": -77.027227, "lat": 38.896704, "fusion_lon": 0.0, "name": "1f44997e0ae5a4600f0098e49cb7e50f", "bike_id": "1f44997e0ae5a4600f0098e49cb7e50f", "is_reserved": 0, "fusion_lat": 0.0, "is_disabled": 0}, {"rental_uris": {"ios": "https://dc.lft.to/lastmile_qr_scan", "android": "https://dc.lft.to/lastmile_qr_scan"}, "type": "electric_scooter", "lon": -77.03654566666667, "lat": 38.9050385, "fusion_lon": 0.0, "name": "986212c2c782f29eb0d83e46bae0d06c", "bike_id": "986212c2c782f29eb0d83e46bae0d06c", "is_reserved": 0, "fusion_lat": 0.0, "is_disabled": 0}, {"rental_uris": {"ios": "https://dc.lft.to/lastmile_qr_scan", "android": "https://dc.lft.to/lastmile_qr_scan"}, "type": "electric_scooter", "lon": -77.019919, "lat": 38.884770833333334, "fusion_lon": 0.0, "name": "2077bb2bad985ad0cec181b0aac1d28f", "bike_id": "2077bb2bad985ad0cec181b0aac1d28f", "is_reserved": 0, "fusion_lat": 0.0, "is_disabled": 0}, {"rental_uris": {"ios": "https://dc.lft.to/lastmile_qr_scan", "android": "https://dc.lft.to/lastmile_qr_scan"}, "type": "electric_bike", "lon": -76.965285, "lat": 38.87476366666667, "fusion_lon": 0.0, "name": "b6b32be50bdd07401dc99495c41932d2", "bike_id": "b6b32be50bdd07401dc99495c41932d2", "is_reserved": 0, "fusion_lat": 0.0, "is_disabled": 0}, {"rental_uris": {"ios": "https://dc.lft.to/lastmile_qr_scan", "android": "https://dc.lft.to/lastmile_qr_scan"}, "type": "electric_scooter", "lon": -77.024239, "lat": 38.90728566666667, "fusion_lon": 0.0, "name": "59d73227b42e9662c1fdd3d2c681d6ee", "bike_id": "59d73227b42e9662c1fdd3d2c681d6ee", "is_reserved": 0, "fusion_lat": 0.0, "is_disabled": 0}, {"rental_uris": {"ios": "https://dc.lft.to/lastmile_qr_scan", "android": "https://dc.lft.to/lastmile_qr_scan"}, "type": "electric_scooter", "lon": -77.0058245, "lat": 38.903851833333334, "fusion_lon": 0.0, "name": "9d7b195caf711eee142a7725ac9bee80", "bike_id": "9d7b195caf711eee142a7725ac9bee80", "is_reserved": 0, "fusion_lat": 0.0, "is_disabled": 0}, {"rental_uris": {"ios": "https://dc.lft.to/lastmile_qr_scan", "android": "https://dc.lft.to/lastmile_qr_scan"}, "type": "electric_scooter", "lon": -77.075958, "lat": 38.91216466666667, "fusion_lon": 0.0, "name": "66902a6103ce6a645cf2b91ab6ef066f", "bike_id": "66902a6103ce6a645cf2b91ab6ef066f", "is_reserved": 0, "fusion_lat": 0.0, "is_disabled": 0}, {"rental_uris": {"ios": "https://dc.lft.to/lastmile_qr_scan", "android": "https://dc.lft.to/lastmile_qr_scan"}, "type": "electric_scooter", "lon": -76.99521183333333, "lat": 38.894834333333336, "fusion_lon": 0.0, "name": "2b7fdfdd720c43ded537ac90f1df615b", "bike_id": "2b7fdfdd720c43ded537ac90f1df615b", "is_reserved": 0, "fusion_lat": 0.0, "is_disabled": 0},