{"data": {"bikes": [{"fusion_lat": 0.0, "name": "a69483f299e79c8fc487495991101a45", "is_disabled": 0, "rental_uris": {"android": "https://dc.lft.to/lastmile_qr_scan", "ios": "https://dc.lft.to/lastmile_qr_scan"}, "fusion_lon": 0.0, "lat": 38.8738255, "bike_id": "a69483f299e79c8fc487495991101a45", "type": "electric_scooter", "is_reserved": 0, "lon": -77.00057933333333}, {"fusion_lat": 0.0, "name": "3d269f06ff71698ee03f6b7d09ead576", "is_disabled": 0, "rental_uris": {"android": "https://dc.lft.to/lastmile_qr_scan", "ios": "https://dc.lft.to/lastmile_qr_scan"}, "fusion_lon": 0.0, "lat": 38.9055735, "bike_id": "3d269f06ff71698ee03f6b7d09ead576", "type": "electric_scooter", "is_reserved": 0, "lon": -77.03464783333334}, {"fusion_lat": 0.0, "name": "5fac2d457c7e50d4567cbeb5e72e01ab", "is_disabled": 0, "rental_uris": {"android": "https://dc.lft.to/lastmile_qr_scan", "ios": "https://dc.lft.to/lastmile_qr_scan"}, "fusion_lon": 0.0, "lat": 38.8676505, "bike_id": "5fac2d457c7e50d4567cbeb5e72e01ab", "type": "electric_scooter", "is_reserved": 0, "lon": -76.98272383333334}, {"fusion_lat": 0.0, "name": "5d98bada32c51bf20fa7c68527049fe5", "is_disabled": 0, "rental_uris": {"android": "https://dc.lft.to/lastmile_qr_scan", "ios": "https://dc.lft.to/lastmile_qr_scan"}, "fusion_lon": 0.0, "lat": 38.90522983333334, "bike_id": "5d98bada32c51bf20fa7c68527049fe5", "type": "electric_scooter", "is_reserved": 0, "lon": -77.02971333333333}, {"fusion_lat": 0.0, "name": "0db20fe28f68b1b326ab69b8305efb73", "is_disabled": 0, "rental_uris": {"android": "https://dc.lft.to/lastmile_qr_scan", "ios": "https://dc.lft.to/lastmile_qr_scan"}, "fusion_lon": 0.0, "lat": 38.912657833333334, "bike_id": "0db20fe28f68b1b326ab69b8305efb73", "type": "electric_scooter", "is_reserved": 0, "lon": -77.03870916666666}, {"fusion_lat": 0.0, "name": "590a8ae71707b168727e8958a45b7d71", "is_disabled": 0, "rental_uris": {"android": "https://dc.lft.to/lastmile_qr_scan", "ios": "https://dc.lft.to/lastmile_qr_scan"}, "fusion_lon": 0.0, "lat": 38.91633316666667, "bike_id": "590a8ae71707b168727e8958a45b7d71", "type": "electric_scooter", "is_reserved": 0, "lon": -77.04552316666667}, {"fusion_lat": 0.0, "name": "053006a02c33f7deec2892aaa15ef46c", "is_disabled": 0, "rental_uris": {"android": "https://dc.lft.to/lastmile_qr_scan", "ios": "https://dc.lft.to/lastmile_qr_scan"}, "fusion_lon": 0.0, "lat": 38.928056, "bike_id": "053006a02c33f7deec2892aaa15ef46c", "type": "electric_scooter", "is_reserved": 0, "lon": -77.0239265}, {"fusion_lat": 0.0, "name": "e39c0446c6e5409e36aa05faaae6a744", "is_disabled": 0, "rental_uris": {"android": "https://dc.lft.to/lastmile_qr_scan", "ios": "https://dc.lft.to/lastmile_qr_scan"}, "fusion_lon": 0.0, "lat": 38.889017, "bike_id": "e39c0446c6e5409e36aa05faaae6a744", "type": "electric_scooter", "is_reserved": 0, "lon": -76.9773735}, {"fusion_lat": 0.0, "name": "9c36450dea1e3acdaa53264d9e2e74f5", "is_disabled": 0, "rental_uris": {"android": "https://dc.lft.to/lastmile_qr_scan", "ios": "https://dc.lft.to/lastmile_qr_scan"}, "fusion_lon": 0.0, "lat": 38.885057333333336, "bike_id": "9c36450dea1e3acdaa53264d9e2e74f5", "type": "electric_scooter", "is_reserved": 0, "lon": -76.99756783333333}, {"fusion_lat": 0.0, "name": "45217173978710bb9e8475f92bcbc3d0", "is_disabled": 0, "rental_uris": {"android": "https://dc.lft.to/lastmile_qr_scan", "ios": "https://dc.lft.to/lastmile_qr_scan"}, "fusion_lon": 0.0, "lat": 38.816079, "bike_id": "45217173978710bb9e8475f92bcbc3d0", "type": "electric_bike", "is_reserved": 0, "lon": -76.99662133333334}, {"fusion_lat": 0.0, "name": "fd03d6effe5b6c98cc754ced32e2fe2f", "is_disabled": 0, "rental_uris": {"android": "https://dc.lft.to/lastmile_qr_scan", "ios": "https://dc.lft.to/lastmile_qr_scan"}, "fusion_lon": 0.0, "lat": 39.014166, "bike_id": "fd03d6effe5b6c98cc754ced32e2fe2f", "type": "electric_bike", "is_reserved": 0, "lon": -77.04498383333333}, {"fusion_lat": 0.0, "name": "57dac0fa867c31d6f78f09de8b78f388", "is_disabled": 0, "rental_uris": {"android": "https://dc.lft.to/lastmile_qr_scan", "ios": "https://dc.lft.to/lastmile_qr_scan"}, "fusion_lon": 0.0, "lat": 38.92824366666667, "bike_id": "57dac0fa867c31d6f78f09de8b78f388", "type": "electric_bike", "is_reserved": 0, "lon": -77.0540995}, {"fusion_lat": 0.0, "name": "fe48520d150e48c55382787c7503c430", "is_disabled": 0, "rental_uris": {"android": "https://dc.lft.to/lastmile_qr_scan", "ios": "https://dc.lft.to/lastmile_qr_scan"}, "fusion_lon": 0.0, "lat": 38.849184, "bike_id": "fe48520d150e48c55382787c7503c430", "type": "electric_bike", "is_reserved": 0, "lon": -77.07929783333333}, {"fusion_lat": 0.0, "name": "837241ca9481e577bc5f6f88df253df8", "is_disabled": 0, "rental_uris": {"android": "https://dc.lft.to/lastmile_qr_scan", "ios": "https://dc.lft.to/lastmile_qr_scan"}, "fusion_lon": 0.0, "lat": 38.93193133333333, "bike_id": "837241ca9481e577bc5f6f88df253df8", "type": "electric_scooter", "is_reserved": 0, "lon": -77.029704}, {"fusion_lat": 0.0, "name": "f531196d0f575407dc26058f224bf878", "is_disabled": 0, "rental_uris": {"android": "https://dc.lft.to/lastmile_qr_scan", "ios": "https://dc.lft.to/lastmile_qr_scan"}, "fusion_lon": 0.0, "lat": 38.900603333333336, "bike_id": "f531196d0f575407dc26058f224bf878", "type": "electric_scooter", "is_reserved": 0, "lon": -76.98719033333333}, {"fusion_lat": 0.0, "name": "9412a64c9979f85a35c106a876bf0c1c", "is_disabled": 0, "rental_uris": {"android": "https://dc.lft.to/lastmile_qr_scan", "ios": "https://dc.lft.to/lastmile_qr_scan"}, "fusion_lon": 0.0, "lat": 38.927071166666664, "bike_id": "9412a64c9979f85a35c106a876bf0c1c", "type": "electric_scooter", "is_reserved": 0, "lon": -77.02082116666666}, {"fusion_lat": 0.0, "name": "c901a2671db652ce18c93955cd7a0653", "is_disabled": 0, "rental_uris": {"android": "https://dc.lft.to/lastmile_qr_scan", "ios": "https://dc.lft.to/lastmile_qr_scan"}, "fusion_lon": 0.0, "lat": 38.89879216666667, "bike_id": "c901a2671db652ce18c93955cd7a0653", "type": "electric_scooter", "is_reserved": 0, "lon": -76.931856}, {"fusion_lat": 0.0, "name": "bf07ac5fe003c05ad598b13b812e12f5", "is_disabled": 0, "rental_uris": {"android": "https://dc.lft.to/lastmile_qr_scan", "ios": "https://dc.lft.to/lastmile_qr_scan"}, "fusion_lon": 0.0, "lat": 38.9047445, "bike_id": "bf07ac5fe003c05ad598b13b812e12f5", "type": "electric_scooter", "is_reserved": 0, "lon": -77.01783883333333}, {"fusion_lat": 0.0, "name": "35639773502c60e1da92c471f5b961e9", "is_disabled": 0, "rental_uris": {"android": "https://dc.lft.to/lastmile_qr_scan", "ios": "https://dc.lft.to/lastmile_qr_scan"}, "fusion_lon": 0.0, "lat": 38.88615033333333, "bike_id": "35639773502c60e1da92c471f5b961e9", "type": "electric_scooter", "is_reserved": 0, "lon": -77.015591}, {"fusion_lat": 0.0, "name": "29e8476618a85914c9fdb3f0a8c36fc7", "is_disabled": 0, "rental_uris": {"android": "https://dc.lft.to/lastmile_qr_scan", "ios": "https://dc.lft.to/lastmile_qr_scan"}, "fusion_lon": 0.0, "lat": 38.91914833333333, "bike_id": "29e8476618a85914c9fdb3f0a8c36fc7", "type": "electric_scooter", "is_reserved": 0, "lon": -77.02449216666666}, {"fusion_lat": 0.0, "name": "83afbf32f0957ea9b2e813178f7ff576", "is_disabled": 0, "rental_uris": {"android": "https://dc.lft.to/lastmile_qr_scan", "ios": "https://dc.lft.to/lastmile_qr_scan"}, "fusion_lon": 0.0, "lat": 38.87707866666667, "bike_id": "83afbf32f0957ea9b2e813178f7ff576", "type": "electric_scooter", "is_reserved": 0, "lon": -76.993837}, {"fusion_lat": 0.0, "name": "4a0eef5cbdd48a8f0657f65a17a1feaf", "is_disabled": 0, "rental_uris": {"android": "https://dc.lft.to/lastmile_qr_scan", "ios": "https://dc.lft.to/lastmile_qr_scan"}, "fusion_lon": 0.0, "lat": 38.9278495, "bike_id": "4a0eef5cbdd48a8f0657f65a17a1feaf", "type": "electric_scooter", "is_reserved": 0, "lon": -77.0528815}, {"fusion_lat": 0.0, "name": "73c450ed24e3b4461f143d8c10a00d69", "is_disabled": 0, "rental_uris": {"android": "https://dc.lft.to/lastmile_qr_scan", "ios": "https://dc.lft.to/lastmile_qr_scan"}, "fusion_lon": 0.0, "lat": 38.9170235, "bike_id": "73c450ed24e3b4461f143d8c10a00d69", "type": "electric_scooter", "is_reserved": 0, "lon": -77.04219933333333}, {"fusion_lat": 0.0, "name": "84c622b505f767ff7ad83c4c3e0ac4a1", "is_disabled": 0, "rental_uris": {"android": "https://dc.lft.to/lastmile_qr_scan", "ios": "https://dc.lft.to/lastmile_qr_scan"}, "fusion_lon": 0.0, "lat": 38.89652066666667, "bike_id": "84c622b505f767ff7ad83c4c3e0ac4a1", "type": "electric_scooter", "is_reserved": 0, "lon": -77.04345216666667}, {"fusion_lat": 0.0, "name": "7174aad47aefd977c491478753eb2824", "is_disabled": 0, "rental_uris": {"android": "https://dc.lft.to/lastmile_qr_scan", "ios": "https://dc.lft.to/lastmile_qr_scan"}, "fusion_lon": 0.0, "lat": 38.917321333333334, "bike_id": "7174aad47aefd977c491478753eb2824", "type": "electric_scooter", "is_reserved": 0, "lon": -77.04146533333333}, {"fusion_lat": 0.0, "name": "ad3cdbf17c55f0d51630a9fe050d3875", "is_disabled": 0, "rental_uris": {"android": "https://dc.lft.to/lastmile_qr_scan", "ios": "https://dc.lft.to/lastmile_qr_scan"}, "fusion_lon": 0.0, "lat": 38.896034666666665, "bike_id": "ad3cdbf17c55f0d51630a9fe050d3875", "type": "electric_scooter", "is_reserved": 0, "lon": -77.0093055}, {"fusion_lat": 0.0, "name": "e6508e69d87d974a0aba8bc2c6fb626a", "is_disabled": 0, "rental_uris": {"android": "https://dc.lft.to/lastmile_qr_scan", "ios": "https://dc.lft.to/lastmile_qr_scan"}, "fusion_lon": 0.0, "lat": 38.917669833333335, "bike_id": "e6508e69d87d974a0aba8bc2c6fb626a", "type": "electric_scooter", "is_reserved": 0, "lon": -77.03636533333334}, {"fusion_lat": 0.0, "name": "70528705aee8663d6130d8a9358b5044", "is_disabled": 0, "rental_uris": {"android": "https://dc.lft.to/lastmile_qr_scan", "ios": "https://dc.lft.to/lastmile_qr_scan"}, "fusion_lon": 0.0, "lat": 38.9130575, "bike_id": "70528705aee8663d6130d8a9358b5044", "type": "electric_scooter", "is_reserved": 0, "lon": -77.04878366666667}, {"fusion_lat": 0.0, "name": "3b2f4d1ec0222d6212f7b3e3e31ce23d", "is_disabled": 0, "rental_uris": {"android": "https://dc.lft.to/lastmile_qr_scan", "ios": "https://dc.lft.to/lastmile_qr_scan"}, "fusion_lon": 0.0, "lat": 38.919613, "bike_id": "3b2f4d1ec0222d6212f7b3e3e31ce23d", "type": "electric_scooter", "is_reserved": 0, "lon": -77.07093916666666}, {"fusion_lat": 0.0, "name": "5b4d62c3d96b4f36eb467a45db14f788", "is_disabled": 0, "rental_uris": {"android": "https://dc.lft.to/lastmile_qr_scan", "ios": "https://dc.lft.to/lastmile_qr_scan"}, "fusion_lon": 0.0, "lat": 38.92051766666667, "bike_id": "5b4d62c3d96b4f36eb467a45db14f788", "type": "electric_scooter", "is_reserved": 0, "lon": -77.00210883333334}, {"fusion_lat": 0.0, "name": "b10d2778bd2323d9dc5741c32b9d5b34", "is_disabled": 0, "rental_uris": {"android": "https://dc.lft.to/lastmile_qr_scan", "ios": "https://dc.lft.to/lastmile_qr_scan"}, "fusion_lon": 0.0, "lat": 38.93601833333334, "bike_id": "b10d2778bd2323d9dc5741c32b9d5b34", "type": "electric_scooter", "is_reserved": 0, "lon": -77.022896}, {"fusion_lat": 0.0, "name": "9f1a42d2a4eff07154e7edcad744b12c", "is_disabled": 0, "rental_uris": {"android": "https://dc.lft.to/lastmile_qr_scan", "ios": "https://dc.lft.to/lastmile_qr_scan"}, "fusion_lon": 0.0, "lat": 38.861664166666664, "bike_id": "9f1a42d2a4eff07154e7edcad744b12c", "type": "electric_scooter", "is_reserved": 0, "lon": -76.98366866666667}, {"fusion_lat": 0.0, "name": "fbff1560f94b2ed10ff94b2b99396289", "is_disabled": 0, "rental_uris": {"android": "https://dc.lft.to/lastmile_qr_scan", "ios": "https://dc.lft.to/lastmile_qr_scan"}, "fusion_lon": 0.0, "lat": 38.94231716666667, "bike_id": "fbff1560f94b2ed10ff94b2b99396289", "type": "electric_bike", "is_reserved": 0, "lon": -77.0138665}, {"fusion_lat": 0.0, "name": "69d984f8d6dbf292d8b74a23c8d371d4", "is_disabled": 0, "rental_uris": {"android": "https://dc.lft.to/lastmile_qr_scan", "ios": "https://dc.lft.to/lastmile_qr_scan"}, "fusion_lon": 0.0, "lat": 38.920112833333334, "bike_id": "69d984f8d6dbf292d8b74a23c8d371d4", "type": "electric_scooter", "is_reserved": 0, "lon": -77.03138766666666}, {"fusion_lat": 0.0, "name": "512cbf725c68614d0d201ab978372f60", "is_disabled": 0, "rental_uris": {"android": "https://dc.lft.to/lastmile_qr_scan", "ios": "https://dc.lft.to/lastmile_qr_scan"}, "fusion_lon": 0.0, "lat": 38.892871, "bike_id": "512cbf725c68614d0d201ab978372f60", "type": "electric_scooter", "is_reserved": 0, "lon": -76.9830665}, {"fusion_lat": 0.0, "name": "d0af2e8ec91af250855fbaa43462e52d", "is_disabled": 0, "rental_uris": {"android": "https://dc.lft.to/lastmile_qr_scan", "ios": "https://dc.lft.to/lastmile_qr_scan"}, "fusion_lon": 0.0, "lat": 38.92503516666667, "bike_id": "d0af2e8ec91af250855fbaa43462e52d", "type": "electric_scooter", "is_reserved": 0, "lon": -77.021418}, {"fusion_lat": 0.0, "name": "31ae0dc5237183a86c3f9fb4b6ff2f28", "is_disabled": 0, "rental_uris": {"android": "https://dc.lft.to/lastmile_qr_scan", "ios": "https://dc.lft.to/lastmile_qr_scan"}, "fusion_lon": 0.0, "lat": 38.92793116666667, "bike_id": "31ae0dc5237183a86c3f9fb4b6ff2f28", "type": "electric_scooter", "is_reserved": 0, "lon": -77.03213783333334}, {"fusion_lat": 0.0, "name": "4e034500cdc55bc04bb5dec1dfb3dbae", "is_disabled": 0, "rental_uris": {"android": "https://dc.lft.to/lastmile_qr_scan", "ios": "https://dc.lft.to/lastmile_qr_scan"}, "fusion_lon": 0.0, "lat": 38.9141805, "bike_id": "4e034500cdc55bc04bb5dec1dfb3dbae", "type": "electric_scooter", "is_reserved": 0, "lon": -77.02214833333333}, {"fusion_lat": 0.0, "name": "7663f49522b961a80830f1244d65a3b8", "is_disabled": 0, "rental_uris": {"android": "https://dc.lft.to/lastmile_qr_scan", "ios": "https://dc.lft.to/lastmile_qr_scan"}, "fusion_lon": 0.0, "lat": 38.908272333333336, "bike_id": "7663f49522b961a80830f1244d65a3b8", "type": "electric_scooter", "is_reserved": 0, "lon": -76.9826335}, {"fusion_lat": 0.0, "name": "0063fcdf9efd04091c09e1e511cc8f2f", "is_disabled": 0, "rental_uris": {"android": "https://dc.lft.to/lastmile_qr_scan", "ios": "https://dc.lft.to/lastmile_qr_scan"}, "fusion_lon": 0.0, "lat": 38.918342833333334, "bike_id": "0063fcdf9efd04091c09e1e511cc8f2f", "type": "electric_scooter", "is_reserved": 0, "lon": -77.03509983333333}, {"fusion_lat": 0.0, "name": "35fa658b8c01a36b5f45edea669c0fd4", "is_disabled": 0, "rental_uris": {"android": "https://dc.lft.to/lastmile_qr_scan", "ios": "https://dc.lft.to/lastmile_qr_scan"}, "fusion_lon": 0.0, "lat": 38.84130833333333, "bike_id": "35fa658b8c01a36b5f45edea669c0fd4", "type": "electric_bike", "is_reserved": 0, "lon": -77.06310183333333}, {"fusion_lat": 0.0, "name": "a1e4d84f275b9be1bfe878541bf7117a", "is_disabled": 0, "rental_uris": {"android": "https://dc.lft.to/lastmile_qr_scan", "ios": "https://dc.lft.to/lastmile_qr_scan"}, "fusion_lon": 0.0, "lat": 38.902727666666664, "bike_id": "a1e4d84f275b9be1bfe878541bf7117a", "type": "electric_scooter", "is_reserved": 0, "lon": -77.01767333333333}, {"fusion_lat": 0.0, "name": "2f366d035b9610c41a4954caf8debb33", "is_disabled": 0, "rental_uris": {"android": "https://dc.lft.to/lastmile_qr_scan", "ios": "https://dc.lft.to/lastmile_qr_scan"}, "fusion_lon": 0.0, "lat": 38.898328, "bike_id": "2f366d035b9610c41a4954caf8debb33", "type": "electric_scooter", "is_reserved": 0, "lon": -77.03184083333333}, {"fusion_lat": 0.0, "name": "bed655e2af140bbda5626db4a9e67fec", "is_disabled": 0, "rental_uris": {"android": "https://dc.lft.to/lastmile_qr_scan", "ios": "https://dc.lft.to/lastmile_qr_scan"}, "fusion_lon": 0.0, "lat": 38.92393966666667, "bike_id": "bed655e2af140bbda5626db4a9e67fec", "type": "electric_scooter", "is_reserved": 0, "lon": -77.043041}, {"fusion_lat": 0.0, "name": "6d4aad0fffe39530928a9a409abbcc8b", "is_disabled": 0, "rental_uris": {"android": "https://dc.lft.to/lastmile_qr_scan", "ios": "https://dc.lft.to/lastmile_qr_scan"}, "fusion_lon": 0.0, "lat": 38.897573333333334, "bike_id": "6d4aad0fffe39530928a9a409abbcc8b", "type": "electric_scooter", "is_reserved": 0, "lon": -77.02390366666667}, {"fusion_lat": 0.0, "name": "29e7a3370c35c39b0431e09fa423960b", "is_disabled": 0, "rental_uris": {"android": "https://dc.lft.to/lastmile_qr_scan", "ios": "https://dc.lft.to/lastmile_qr_scan"}, "fusion_lon": 0.0, "lat": 38.93120583333334, "bike_id": "29e7a3370c35c39b0431e09fa423960b", "type": "electric_scooter", "is_reserved": 0, "lon": -76.98439983333333}, {"fusion_lat": 0.0, "name": "25b5255a5e77259f80bdfca637e7d10c", "is_disabled": 0, "rental_uris": {"android": "https://dc.lft.to/lastmile_qr_scan", "ios": "https://dc.lft.to/lastmile_qr_scan"}, "fusion_lon": 0.0, "lat": 38.90633166666667, "bike_id": "25b5255a5e77259f80bdfca637e7d10c", "type": "electric_scooter", "is_reserved": 0, "lon": -77.005888}, {"fusion_lat": 0.0, "name": "996829d3a91ffa2c67675d79c21193f4", "is_disabled": 0, "rental_uris": {"android": "https://dc.lft.to/lastmile_qr_scan", "ios": "https://dc.lft.to/lastmile_qr_scan"}, "fusion_lon": 0.0, "lat": 38.93402283333333, "bike_id": "996829d3a91ffa2c67675d79c21193f4", "type": "electric_scooter", "is_reserved": 0, "lon": -77.0284735}, {"fusion_lat": 0.0, "name": "266e950135f5ddfd918e77233c5ecbb6", "is_disabled": 0, "rental_uris": {"android": "https://dc.lft.to/lastmile_qr_scan", "ios": "https://dc.lft.to/lastmile_qr_scan"}, "fusion_lon": 0.0, "lat": 38.9095605, "bike_id": "266e950135f5ddfd918e77233c5ecbb6", "type": "electric_scooter", "is_reserved": 0, "lon": -76.98542166666667}, {"fusion_lat": 0.0, "name": "5f24df5b0df373b74a20e75d2eca8b62", "is_disabled": 0, "rental_uris": {"android": "https://dc.lft.to/lastmile_qr_scan", "ios": "https://dc.lft.to/lastmile_qr_scan"}, "fusion_lon": 0.0, "lat": 38.92923366666667, "bike_id": "5f24df5b0df373b74a20e75d2eca8b62", "type": "electric_scooter", "is_reserved": 0, "lon": -77.0219175}, {"fusion_lat": 0.0, "name": "363c95e5497a2d217bf0df344be46971", "is_disabled": 0, "rental_uris": {"android": "https://dc.lft.to/lastmile_qr_scan", "ios": "https://dc.lft.to/lastmile_qr_scan"}, "fusion_lon": 0.0, "lat": 38.8949045, "bike_id": "363c95e5497a2d217bf0df344be46971", "type": "electric_scooter", "is_reserved": 0, "lon": -77.00255683333333}, {"fusion_lat": 0.0, "name": "f983851e51fcbdf7865ace2aca930609", "is_disabled": 0, "rental_uris": {"android": "https://dc.lft.to/lastmile_qr_scan", "ios": "https://dc.lft.to/lastmile_qr_scan"}, "fusion_lon": 0.0, "lat": 38.892276833333334, "bike_id": "f983851e51fcbdf7865ace2aca930609", "type": "electric_scooter", "is_reserved": 0, "lon": -77.04506416666666}, {"fusion_lat": 0.0, "name": "56632196210b59d54eccc5791f649863", "is_disabled": 0, "rental_uris": {"android": "https://dc.lft.to/lastmile_qr_scan", "ios": "https://dc.lft.to/lastmile_qr_scan"}, "fusion_lon": 0.0, "lat": 38.94291183333333, "bike_id": "56632196210b59d54eccc5791f649863", "type": "electric_scooter", "is_reserved": 0, "lon": -77.02175}, {"fusion_lat": 0.0, "name": "a9922f8195d5c6a2ef945d2541b581fe", "is_disabled": 0, "rental_uris": {"android": "https://dc.lft.to/lastmile_qr_scan", "ios": "https://dc.lft.to/lastmile_qr_scan"}, "fusion_lon": 0.0, "lat": 38.95292516666667, "bike_id": "a9922f8195d5c6a2ef945d2541b581fe", "type": "electric_bike", "is_reserved": 0, "lon": -76.99981616666666}, {"fusion_lat": 0.0, "name": "0abcb4a35b3b4c650a8851a799c31ba8", "is_disabled": 0, "rental_uris": {"android": "https://dc.lft.to/lastmile_qr_scan", "ios": "https://dc.lft.to/lastmile_qr_scan"}, "fusion_lon": 0.0, "lat": 38.89966616666667, "bike_id": "0abcb4a35b3b4c650a8851a799c31ba8", "type": "electric_scooter", "is_reserved": 0, "lon": -76.98163066666666}, {"fusion_lat": 0.0, "name": "8100315a88e99fa441bd644f34e92b0b", "is_disabled": 0, "rental_uris": {"android": "https://dc.lft.to/lastmile_qr_scan", "ios": "https://dc.lft.to/lastmile_qr_scan"}, "fusion_lon": 0.0, "lat": 38.897469, "bike_id": "8100315a88e99fa441bd644f34e92b0b", "type": "electric_scooter", "is_reserved": 0, "lon": -77.0330105}, {"fusion_lat": 0.0, "name": "b54cff1491d45a8a9400869d4098dbde", "is_disabled": 0, "rental_uris": {"android": "https://dc.lft.to/lastmile_qr_scan", "ios": "https://dc.lft.to/lastmile_qr_scan"}, "fusion_lon": 0.0, "lat": 38.9296055, "bike_id": "b54cff1491d45a8a9400869d4098dbde", "type": "electric_scooter", "is_reserved": 0, "lon": -77.0297885}, {"fusion_lat": 0.0, "name": "ef21658f5db510cd077455ca33444f62", "is_disabled": 0, "rental_uris": {"android": "https://dc.lft.to/lastmile_qr_scan", "ios": "https://dc.lft.to/lastmile_qr_scan"}, "fusion_lon": 0.0, "lat": 38.90045833333333, "bike_id": "ef21658f5db510cd077455ca33444f62", "type": "electric_scooter", "is_reserved": 0, "lon": -77.03209716666667}, {"fusion_lat": 0.0, "name": "49f6cc435f6ead03d3ea8cbd4dd5e728", "is_disabled": 0, "rental_uris": {"android": "https://dc.lft.to/lastmile_qr_scan", "ios": "https://dc.lft.to/lastmile_qr_scan"}, "fusion_lon": 0.0, "lat": 38.92316783333333, "bike_id": "49f6cc435f6ead03d3ea8cbd4dd5e728", "type": "electric_scooter", "is_reserved": 0, "lon": -77.0290345}, {"fusion_lat": 0.0, "name": "1cd6fdc3ff27c74c6e840698e4420175", "is_disabled": 0, "rental_uris": {"android": "https://dc.lft.to/lastmile_qr_scan", "ios": "https://dc.lft.to/lastmile_qr_scan"}, "fusion_lon": 0.0, "lat": 38.932174, "bike_id": "1cd6fdc3ff27c74c6e840698e4420175", "type": "electric_scooter", "is_reserved": 0, "lon": -77.03516716666667}, {"fusion_lat": 0.0, "name": "b9a4d88b5e1455456da63e0156062bda", "is_disabled": 0, "rental_uris": {"android": "https://dc.lft.to/lastmile_qr_scan", "ios": "https://dc.lft.to/lastmile_qr_scan"}, "fusion_lon": 0.0, "lat": 38.885622833333336, "bike_id": "b9a4d88b5e1455456da63e0156062bda", "type": "electric_scooter", "is_reserved": 0, "lon": -76.97715733333334}, {"fusion_lat": 0.0, "name": "5d82cd4deee7e91c0aa181065b591daa", "is_disabled": 0, "rental_uris": {"android": "https://dc.lft.to/lastmile_qr_scan", "ios": "https://dc.lft.to/lastmile_qr_scan"}, "fusion_lon": 0.0, "lat": 38.91663416666667, "bike_id": "5d82cd4deee7e91c0aa181065b591daa", "type": "electric_scooter", "is_reserved": 0, "lon": -77.02820833333334}, {"fusion_lat": 0.0, "name": "c85523037196b101cac0f1f95ddaef4b", "is_disabled": 0, "rental_uris": {"android": "https://dc.lft.to/lastmile_qr_scan", "ios": "https://dc.lft.to/lastmile_qr_scan"}, "fusion_lon": 0.0, "lat": 38.919257333333334, "bike_id": "c85523037196b101cac0f1f95ddaef4b", "type": "electric_scooter", "is_reserved": 0, "lon": -77.00969316666666}, {"fusion_lat": 0.0, "name": "f987a84fb1834a9599ba903cad05f3de", "is_disabled": 0, "rental_uris": {"android": "https://dc.lft.to/lastmile_qr_scan", "ios": "https://dc.lft.to/lastmile_qr_scan"}, "fusion_lon": 0.0, "lat": 38.90065383333334, "bike_id": "f987a84fb1834a9599ba903cad05f3de", "type": "electric_scooter", "is_reserved": 0, "lon": -77.0542355}, {"fusion_lat": 0.0, "name": "6c1f57bc8e76c763867dcda7dc5e57af", "is_disabled": 0, "rental_uris": {"android": "https://dc.lft.to/lastmile_qr_scan", "ios": "https://dc.lft.to/lastmile_qr_scan"}, "fusion_lon": 0.0, "lat": 38.921065, "bike_id": "6c1f57bc8e76c763867dcda7dc5e57af", "type": "electric_scooter", "is_reserved": 0, "lon": -77.04176433333333}, {"fusion_lat": 0.0, "name": "f70e06d63b8ae2016a3f8caadaceedb2", "is_disabled": 0, "rental_uris": {"android": "https://dc.lft.to/lastmile_qr_scan", "ios": "https://dc.lft.to/lastmile_qr_scan"}, "fusion_lon": 0.0, "lat": 38.90895733333333, "bike_id": "f70e06d63b8ae2016a3f8caadaceedb2", "type": "electric_scooter", "is_reserved": 0, "lon": -76.99859866666667}, {"fusion_lat": 0.0, "name": "6a9afbb05038e9103e9031d092f65d10", "is_disabled": 0, "rental_uris": {"android": "https://dc.lft.to/lastmile_qr_scan", "ios": "https://dc.lft.to/lastmile_qr_scan"}, "fusion_lon": 0.0, "lat": 38.90511683333333, "bike_id": "6a9afbb05038e9103e9031d092f65d10", "type": "electric_scooter", "is_reserved": 0, "lon": -77.06880083333333}, {"fusion_lat": 0.0, "name": "a8f0d57e1f580790d1e09cbf07b5abb5", "is_disabled": 0, "rental_uris": {"android": "https://dc.lft.to/lastmile_qr_scan", "ios": "https://dc.lft.to/lastmile_qr_scan"}, "fusion_lon": 0.0, "lat": 38.88633516666667, "bike_id": "a8f0d57e1f580790d1e09cbf07b5abb5", "type": "electric_scooter", "is_reserved": 0, "lon": -77.01951683333333}, {"fusion_lat": 0.0, "name": "8634f9e28998bd04833eeebccd843ce2", "is_disabled": 0, "rental_uris": {"android": "https://dc.lft.to/lastmile_qr_scan", "ios": "https://dc.lft.to/lastmile_qr_scan"}, "fusion_lon": 0.0, "lat": 38.95928716666667, "bike_id": "8634f9e28998bd04833eeebccd843ce2", "type": "electric_bike", "is_reserved": 0, "lon": -77.03127183333334}, {"fusion_lat": 0.0, "name": "1f829406eb7eb2be3e1a4d856547bddf", "is_disabled": 0, "rental_uris": {"android": "https://dc.lft.to/lastmile_qr_scan", "ios": "https://dc.lft.to/lastmile_qr_scan"}, "fusion_lon": 0.0, "lat": 38.91116533333334, "bike_id": "1f829406eb7eb2be3e1a4d856547bddf", "type": "electric_scooter", "is_reserved": 0, "lon": -76.99769383333333}, {"fusion_lat": 0.0, "name": "0e9855c99b97cd860879726cfe895755", "is_disabled": 0, "rental_uris": {"android": "https://dc.lft.to/lastmile_qr_scan", "ios": "https://dc.lft.to/lastmile_qr_scan"}, "fusion_lon": 0.0, "lat": 38.886125666666665, "bike_id": "0e9855c99b97cd860879726cfe895755", "type": "electric_scooter", "is_reserved": 0, "lon": -77.012485}, {"fusion_lat": 0.0, "name": "b4eec6b01bfb5fe52be979cbf48e6fc1", "is_disabled": 0, "rental_uris": {"android": "https://dc.lft.to/lastmile_qr_scan", "ios": "https://dc.lft.to/lastmile_qr_scan"}, "fusion_lon": 0.0, "lat": 38.899565, "bike_id": "b4eec6b01bfb5fe52be979cbf48e6fc1", "type": "electric_scooter", "is_reserved": 0, "lon": -77.0067745}, {"fusion_lat": 0.0, "name": "f2a2366c9c7678bb6eaca243a76f0ec8", "is_disabled": 0, "rental_uris": {"android": "https://dc.lft.to/lastmile_qr_scan", "ios": "https://dc.lft.to/lastmile_qr_scan"}, "fusion_lon": 0.0, "lat": 38.916691666666665, "bike_id": "f2a2366c9c7678bb6eaca243a76f0ec8", "type": "electric_scooter", "is_reserved": 0, "lon": -77.022636}, {"fusion_lat": 0.0, "name": "6141529ee9e159f7dcbdd72ab52f3aec", "is_disabled": 0, "rental_uris": {"android": "https://dc.lft.to/lastmile_qr_scan", "ios": "https://dc.lft.to/lastmile_qr_scan"}, "fusion_lon": 0.0, "lat": 38.941675000000004, "bike_id": "6141529ee9e159f7dcbdd72ab52f3aec", "type": "electric_scooter", "is_reserved": 0, "lon": -77.025137}, {"fusion_lat": 0.0, "name": "9e7d026d759bd8915706f47c9a9a0dd6", "is_disabled": 0, "rental_uris": {"android": "https://dc.lft.to/lastmile_qr_scan", "ios": "https://dc.lft.to/lastmile_qr_scan"}, "fusion_lon": 0.0, "lat": 38.888114333333334, "bike_id": "9e7d026d759bd8915706f47c9a9a0dd6", "type": "electric_scooter", "is_reserved": 0, "lon": -76.98356916666667}, {"fusion_lat": 0.0, "name": "442644d89d89f6f9f142fbf0d5c76219", "is_disabled": 0, "rental_uris": {"android": "https://dc.lft.to/lastmile_qr_scan", "ios": "https://dc.lft.to/lastmile_qr_scan"}, "fusion_lon": 0.0, "lat": 38.9113395, "bike_id": "442644d89d89f6f9f142fbf0d5c76219", "type": "electric_bike", "is_reserved": 0, "lon": -77.06570483333333}, {"fusion_lat": 0.0, "name": "86a3ceeec2effaa9aa0a2dffd742a6ac", "is_disabled": 0, "rental_uris": {"android": "https://dc.lft.to/lastmile_qr_scan", "ios": "https://dc.lft.to/lastmile_qr_scan"}, "fusion_lon": 0.0, "lat": 38.866345333333335, "bike_id": "86a3ceeec2effaa9aa0a2dffd742a6ac", "type": "electric_scooter", "is_reserved": 0, "lon": -76.9830265}, {"fusion_lat": 0.0, "name": "25156997e172cc3b83c2039e64f85d23", "is_disabled": 0, "rental_uris": {"android": "https://dc.lft.to/lastmile_qr_scan", "ios": "https://dc.lft.to/lastmile_qr_scan"}, "fusion_lon": 0.0, "lat": 38.913446666666665, "bike_id": "25156997e172cc3b83c2039e64f85d23", "type": "electric_scooter", "is_reserved": 0, "lon": -77.04351716666666}, {"fusion_lat": 0.0, "name": "9eef3fa4867370a86de72e54a7a0d76a", "is_disabled": 0, "rental_uris": {"android": "https://dc.lft.to/lastmile_qr_scan", "ios": "https://dc.lft.to/lastmile_qr_scan"}, "fusion_lon": 0.0, "lat": 38.905575166666665, "bike_id": "9eef3fa4867370a86de72e54a7a0d76a", "type": "electric_scooter", "is_reserved": 0, "lon": -77.00578416666667}, {"fusion_lat": 0.0, "name": "8967e325f3ea52da0a0bb858f66b0e2a", "is_disabled": 0, "rental_uris": {"android": "https://dc.lft.to/lastmile_qr_scan", "ios": "https://dc.lft.to/lastmile_qr_scan"}, "fusion_lon": 0.0, "lat": 38.931289666666665, "bike_id": "8967e325f3ea52da0a0bb858f66b0e2a", "type": "electric_scooter", "is_reserved": 0, "lon": -77.02197916666667}, {"fusion_lat": 0.0, "name": "3ee58f42a3b0b4fc21101c75a26c9a28", "is_disabled": 0, "rental_uris": {"android": "https://dc.lft.to/lastmile_qr_scan", "ios": "https://dc.lft.to/lastmile_qr_scan"}, "fusion_lon": 0.0, "lat": 38.92552083333333, "bike_id": "3ee58f42a3b0b4fc21101c75a26c9a28", "type": "electric_scooter", "is_reserved": 0, "lon": -76.98302066666666}, {"fusion_lat": 0.0, "name": "d8c75429aa260438044553eb973aabd0", "is_disabled": 0, "rental_uris": {"android": "https://dc.lft.to/lastmile_qr_scan", "ios": "https://dc.lft.to/lastmile_qr_scan"}, "fusion_lon": 0.0, "lat": 38.90182866666667, "bike_id": "d8c75429aa260438044553eb973aabd0", "type": "electric_scooter", "is_reserved": 0, "lon": -77.01578566666667}, {"fusion_lat": 0.0, "name": "b3b36e8d0baed314daa68f966c0b4e26", "is_disabled": 0, "rental_uris": {"android": "https://dc.lft.to/lastmile_qr_scan", "ios": "https://dc.lft.to/lastmile_qr_scan"}, "fusion_lon": 0.0, "lat": 38.910656, "bike_id": "b3b36e8d0baed314daa68f966c0b4e26", "type": "electric_scooter", "is_reserved": 0, "lon": -77.03661466666667}, {"fusion_lat": 0.0, "name": "7cbc57b0e963b6f41d0704dc8220b117", "is_disabled": 0, "rental_uris": {"android": "https://dc.lft.to/lastmile_qr_scan", "ios": "https://dc.lft.to/lastmile_qr_scan"}, "fusion_lon": 0.0, "lat": 38.926870666666666, "bike_id": "7cbc57b0e963b6f41d0704dc8220b117", "type": "electric_scooter", "is_reserved": 0, "lon": -77.031395}, {"fusion_lat": 0.0, "name": "59cc8e7d85aa5a76d1a69751373f8704", "is_disabled": 0, "rental_uris": {"android": "https://dc.lft.to/lastmile_qr_scan", "ios": "https://dc.lft.to/lastmile_qr_scan"}, "fusion_lon": 0.0, "lat": 38.89360033333333, "bike_id": "59cc8e7d85aa5a76d1a69751373f8704", "type": "electric_scooter", "is_reserved": 0, "lon": -77.0280125}, {"fusion_lat": 0.0, "name": "c4247e903b8a4efa6e1b9424a79b93a7", "is_disabled": 0, "rental_uris": {"android": "https://dc.lft.to/lastmile_qr_scan", "ios": "https://dc.lft.to/lastmile_qr_scan"}, "fusion_lon": 0.0, "lat": 38.906986333333336, "bike_id": "c4247e903b8a4efa6e1b9424a79b93a7", "type": "electric_scooter", "is_reserved": 0, "lon": -77.07484383333333}, {"fusion_lat": 0.0, "name": "6c940fbe4ee6c777a906ff6a2c0ef239", "is_disabled": 0, "rental_uris": {"android": "https://dc.lft.to/lastmile_qr_scan", "ios": "https://dc.lft.to/lastmile_qr_scan"}, "fusion_lon": 0.0, "lat": 38.9197845, "bike_id": "6c940fbe4ee6c777a906ff6a2c0ef239", "type": "electric_scooter", "is_reserved": 0, "lon": -77.02398383333333}, {"fusion_lat": 0.0, "name": "31487b3d15e072bf3f5e4911657ca97a", "is_disabled": 0, "rental_uris": {"android": "https://dc.lft.to/lastmile_qr_scan", "ios": "https://dc.lft.to/lastmile_qr_scan"}, "fusion_lon": 0.0, "lat": 38.931061, "bike_id": "31487b3d15e072bf3f5e4911657ca97a", "type": "electric_scooter", "is_reserved": 0, "lon": -77.023947}, {"fusion_lat": 0.0, "name": "d080e44e759f9866ffdb8e3d74a4f16f", "is_disabled": 0, "rental_uris": {"android": "https://dc.lft.to/lastmile_qr_scan", "ios": "https://dc.lft.to/lastmile_qr_scan"}, "fusion_lon": 0.0, "lat": 38.90734, "bike_id": "d080e44e759f9866ffdb8e3d74a4f16f", "type": "electric_scooter", "is_reserved": 0, "lon": -77.02977166666666}, {"fusion_lat": 0.0, "name": "83d37723ee5c7c2ec9edaec7c6a65dc1", "is_disabled": 0, "rental_uris": {"android": "https://dc.lft.to/lastmile_qr_scan", "ios": "https://dc.lft.to/lastmile_qr_scan"}, "fusion_lon": 0.0, "lat": 38.90010616666667, "bike_id": "83d37723ee5c7c2ec9edaec7c6a65dc1", "type": "electric_scooter", "is_reserved": 0, "lon": -76.98809266666666}, {"fusion_lat": 0.0, "name": "48083a4318ee55c76b87079631e82dae", "is_disabled": 0, "rental_uris": {"android": "https://dc.lft.to/lastmile_qr_scan", "ios": "https://dc.lft.to/lastmile_qr_scan"}, "fusion_lon": 0.0, "lat": 38.9156075, "bike_id": "48083a4318ee55c76b87079631e82dae", "type": "electric_scooter", "is_reserved": 0, "lon": -77.03231266666667}, {"fusion_lat": 0.0, "name": "e00074109c71bbde0d71a970fb289896", "is_disabled": 0, "rental_uris": {"android": "https://dc.lft.to/lastmile_qr_scan", "ios": "https://dc.lft.to/lastmile_qr_scan"}, "fusion_lon": 0.0, "lat": 38.9282545, "bike_id": "e00074109c71bbde0d71a970fb289896", "type": "electric_scooter", "is_reserved": 0, "lon": -77.054634}, {"fusion_lat": 0.0, "name": "c19493007727a1357b967d72de8f6069", "is_disabled": 0, "rental_uris": {"android": "https://dc.lft.to/lastmile_qr_scan", "ios": "https://dc.lft.to/lastmile_qr_scan"}, "fusion_lon": 0.0, "lat": 38.924193333333335, "bike_id": "c19493007727a1357b967d72de8f6069", "type": "electric_scooter", "is_reserved": 0, "lon": -77.019549}, {"fusion_lat": 0.0, "name": "260e05352cc862537be24dfe76e8d31d", "is_disabled": 0, "rental_uris": {"android": "https://dc.lft.to/lastmile_qr_scan", "ios": "https://dc.lft.to/lastmile_qr_scan"}, "fusion_lon": 0.0, "lat": 38.896119166666665, "bike_id": "260e05352cc862537be24dfe76e8d31d", "type": "electric_scooter", "is_reserved": 0, "lon": -77.04481033333333}, {"fusion_lat": 0.0, "name": "18afbb1c0d3c1aae264df872739c694c", "is_disabled": 0, "rental_uris": {"android": "https://dc.lft.to/lastmile_qr_scan", "ios": "https://dc.lft.to/lastmile_qr_scan"}, "fusion_lon": 0.0, "lat": 38.9206195, "bike_id": "18afbb1c0d3c1aae264df872739c694c", "type": "electric_scooter", "is_reserved": 0, "lon": -77.02413366666667}, {"fusion_lat": 0.0, "name": "0cf007c72522248f83a89a1075460cdc", "is_disabled": 0, "rental_uris": {"android": "https://dc.lft.to/lastmile_qr_scan", "ios": "https://dc.lft.to/lastmile_qr_scan"}, "fusion_lon": 0.0, "lat": 38.879667166666664, "bike_id": "0cf007c72522248f83a89a1075460cdc", "type": "electric_bike", "is_reserved": 0, "lon": -76.91606966666667}, {"fusion_lat": 0.0, "name": "e30864961b5ccbcd3a82c7429be57ed2", "is_disabled": 0, "rental_uris": {"android": "https://dc.lft.to/lastmile_qr_scan", "ios": "https://dc.lft.to/lastmile_qr_scan"}, "fusion_lon": 0.0, "lat": 38.917212666666664, "bike_id": "e30864961b5ccbcd3a82c7429be57ed2", "type": "electric_scooter", "is_reserved": 0, "lon": -77.06838433333333}, {"fusion_lat": 0.0, "name": "025cee2d6a3c196dfb97f06c5d19ed01", "is_disabled": 0, "rental_uris": {"android": "https://dc.lft.to/lastmile_qr_scan", "ios": "https://dc.lft.to/lastmile_qr_scan"}, "fusion_lon": 0.0, "lat": 38.913269666666665, "bike_id": "025cee2d6a3c196dfb97f06c5d19ed01", "type": "electric_scooter", "is_reserved": 0, "lon": -77.02146666666667}, {"fusion_lat": 0.0, "name": "1292ec45ed6ab7cd7e51375d8326e826", "is_disabled": 0, "rental_uris": {"android": "https://dc.lft.to/lastmile_qr_scan", "ios": "https://dc.lft.to/lastmile_qr_scan"}, "fusion_lon": 0.0, "lat": 38.899125, "bike_id": "1292ec45ed6ab7cd7e51375d8326e826", "type": "electric_scooter", "is_reserved": 0, "lon": -76.93353133333333}, {"fusion_lat": 0.0, "name": "1cb00008f73880a2f6d2fbfb4d722a87", "is_disabled": 0, "rental_uris": {"android": "https://dc.lft.to/lastmile_qr_scan", "ios": "https://dc.lft.to/lastmile_qr_scan"}, "fusion_lon": 0.0, "lat": 38.950585333333336, "bike_id": "1cb00008f73880a2f6d2fbfb4d722a87", "type": "electric_scooter", "is_reserved": 0, "lon": -77.08027083333333}, {"fusion_lat": 0.0, "name": "a23c946b6cdb5ca57d6a1b29ac5bd554", "is_disabled": 0, "rental_uris": {"android": "https://dc.lft.to/lastmile_qr_scan", "ios": "https://dc.lft.to/lastmile_qr_scan"}, "fusion_lon": 0.0, "lat": 38.93599666666667, "bike_id": "a23c946b6cdb5ca57d6a1b29ac5bd554", "type": "electric_scooter", "is_reserved": 0, "lon": -77.03652733333334}, {"fusion_lat": 0.0, "name": "3763789de945ee3b47e56326745f746d", "is_disabled": 0, "rental_uris": {"android": "https://dc.lft.to/lastmile_qr_scan", "ios": "https://dc.lft.to/lastmile_qr_scan"}, "fusion_lon": 0.0, "lat": 38.92257716666667, "bike_id": "3763789de945ee3b47e56326745f746d", "type": "electric_scooter", "is_reserved": 0, "lon": -77.01953783333333}, {"fusion_lat": 0.0, "name": "d0f03d50ddc7a37df84a78cf64a528fa", "is_disabled": 0, "rental_uris": {"android": "https://dc.lft.to/lastmile_qr_scan", "ios": "https://dc.lft.to/lastmile_qr_scan"}, "fusion_lon": 0.0, "lat": 38.8961385, "bike_id": "d0f03d50ddc7a37df84a78cf64a528fa", "type": "electric_scooter", "is_reserved": 0, "lon": -77.03245566666666}, {"fusion_lat": 0.0, "name": "fdeb1903db4045d0adf7b4d18c1e2c2c", "is_disabled": 0, "rental_uris": {"android": "https://dc.lft.to/lastmile_qr_scan", "ios": "https://dc.lft.to/lastmile_qr_scan"}, "fusion_lon": 0.0, "lat": 38.875796333333334, "bike_id": "fdeb1903db4045d0adf7b4d18c1e2c2c", "type": "electric_bike", "is_reserved": 0, "lon": -77.23409683333334}, {"fusion_lat": 0.0, "name": "e83988f0006ceddc74eae50e61ad037d", "is_disabled": 0, "rental_uris": {"android": "https://dc.lft.to/lastmile_qr_scan", "ios": "https://dc.lft.to/lastmile_qr_scan"}, "fusion_lon": 0.0, "lat": 38.891917166666666, "bike_id": "e83988f0006ceddc74eae50e61ad037d", "type": "electric_scooter", "is_reserved": 0, "lon": -76.998405}, {"fusion_lat": 0.0, "name": "693d3605f51666187f5abe6898f72305", "is_disabled": 0, "rental_uris": {"android": "https://dc.lft.to/lastmile_qr_scan", "ios": "https://dc.lft.to/lastmile_qr_scan"}, "fusion_lon": 0.0, "lat": 38.91884016666667, "bike_id": "693d3605f51666187f5abe6898f72305", "type": "electric_scooter", "is_reserved": 0, "lon": -77.0482765}, {"fusion_lat": 0.0, "name": "a0fbcdd9b9087eb3ddbf09928048f02a", "is_disabled": 0, "rental_uris": {"android": "https://dc.lft.to/lastmile_qr_scan", "ios": "https://dc.lft.to/lastmile_qr_scan"}, "fusion_lon": 0.0, "lat": 38.91614233333333, "bike_id": "a0fbcdd9b9087eb3ddbf09928048f02a", "type": "electric_scooter", "is_reserved": 0, "lon": -77.031478}, {"fusion_lat": 0.0, "name": "ce046311d458f015b50fca4b0767a60c", "is_disabled": 0, "rental_uris": {"android": "https://dc.lft.to/lastmile_qr_scan", "ios": "https://dc.lft.to/lastmile_qr_scan"}, "fusion_lon": 0.0, "lat": 38.9169435, "bike_id": "ce046311d458f015b50fca4b0767a60c", "type": "electric_scooter", "is_reserved": 0, "lon": -77.03233616666667}, {"fusion_lat": 0.0, "name": "c2eb9671a108ab11eabae07ce3a38a98", "is_disabled": 0, "rental_uris": {"android": "https://dc.lft.to/lastmile_qr_scan", "ios": "https://dc.lft.to/lastmile_qr_scan"}, "fusion_lon": 0.0, "lat": 38.88529483333333, "bike_id": "c2eb9671a108ab11eabae07ce3a38a98", "type": "electric_scooter", "is_reserved": 0, "lon": -76.92915566666667}, {"fusion_lat": 0.0, "name": "cb9e7709f22f1766f900391e6d62470d", "is_disabled": 0, "rental_uris": {"android": "https://dc.lft.to/lastmile_qr_scan", "ios": "https://dc.lft.to/lastmile_qr_scan"}, "fusion_lon": 0.0, "lat": 38.900408166666665, "bike_id": "cb9e7709f22f1766f900391e6d62470d", "type": "electric_scooter", "is_reserved": 0, "lon": -77.03484616666667}, {"fusion_lat": 0.0, "name": "b5ae847812e6da7497771a108e318632", "is_disabled": 0, "rental_uris": {"android": "https://dc.lft.to/lastmile_qr_scan", "ios": "https://dc.lft.to/lastmile_qr_scan"}, "fusion_lon": 0.0, "lat": 38.9079495, "bike_id": "b5ae847812e6da7497771a108e318632", "type": "electric_scooter", "is_reserved": 0, "lon": -77.04338233333333}, {"fusion_lat": 0.0, "name": "44af63134fd4ab0cdef6b9c4752e1e89", "is_disabled": 0, "rental_uris": {"android": "https://dc.lft.to/lastmile_qr_scan", "ios": "https://dc.lft.to/lastmile_qr_scan"}, "fusion_lon": 0.0, "lat": 38.89829233333333, "bike_id": "44af63134fd4ab0cdef6b9c4752e1e89", "type": "electric_scooter", "is_reserved": 0, "lon": -76.94650983333334}, {"fusion_lat": 0.0, "name": "43cce33d3baf8949949dbba57a82fabf", "is_disabled": 0, "rental_uris": {"android": "https://dc.lft.to/lastmile_qr_scan", "ios": "https://dc.lft.to/lastmile_qr_scan"}, "fusion_lon": 0.0, "lat": 38.918376333333335, "bike_id": "43cce33d3baf8949949dbba57a82fabf", "type": "electric_scooter", "is_reserved": 0, "lon": -77.03519566666667}, {"fusion_lat": 0.0, "name": "69a6f9f3009c4c64a68211c00b88252d", "is_disabled": 0, "rental_uris": {"android": "https://dc.lft.to/lastmile_qr_scan", "ios": "https://dc.lft.to/lastmile_qr_scan"}, "fusion_lon": 0.0, "lat": 38.90514433333333, "bike_id": "69a6f9f3009c4c64a68211c00b88252d", "type": "electric_scooter", "is_reserved": 0, "lon": -77.06388266666667}, {"fusion_lat": 0.0, "name": "aa00161c56448a8bdd64688a2f63ceed", "is_disabled": 0, "rental_uris": {"android": "https://dc.lft.to/lastmile_qr_scan", "ios": "https://dc.lft.to/lastmile_qr_scan"}, "fusion_lon": 0.0, "lat": 38.9056105, "bike_id": "aa00161c56448a8bdd64688a2f63ceed", "type": "electric_scooter", "is_reserved": 0, "lon": -77.034601}, {"fusion_lat": 0.0, "name": "77aaea9c265e41f9a872fef238227f32", "is_disabled": 0, "rental_uris": {"android": "https://dc.lft.to/lastmile_qr_scan", "ios": "https://dc.lft.to/lastmile_qr_scan"}, "fusion_lon": 0.0, "lat": 38.91712883333334, "bike_id": "77aaea9c265e41f9a872fef238227f32", "type": "electric_scooter", "is_reserved": 0, "lon": -77.04596683333334}, {"fusion_lat": 0.0, "name": "ecc82b22c72445207f94a744db317ce1", "is_disabled": 0, "rental_uris": {"android": "https://dc.lft.to/lastmile_qr_scan", "ios": "https://dc.lft.to/lastmile_qr_scan"}, "fusion_lon": 0.0, "lat": 38.909785166666666, "bike_id": "ecc82b22c72445207f94a744db317ce1", "type": "electric_scooter", "is_reserved": 0, "lon": -77.0088415}, {"fusion_lat": 0.0, "name": "ee16aa1df9a897c638d32ca10569d472", "is_disabled": 0, "rental_uris": {"android": "https://dc.lft.to/lastmile_qr_scan", "ios": "https://dc.lft.to/lastmile_qr_scan"}, "fusion_lon": 0.0, "lat": 38.862452, "bike_id": "ee16aa1df9a897c638d32ca10569d472", "type": "electric_scooter", "is_reserved": 0, "lon": -76.99499016666667}, {"fusion_lat": 0.0, "name": "0c0c8b848b1372b953fb8f9b71cf19ef", "is_disabled": 0, "rental_uris": {"android": "https://dc.lft.to/lastmile_qr_scan", "ios": "https://dc.lft.to/lastmile_qr_scan"}, "fusion_lon": 0.0, "lat": 38.905790333333336, "bike_id": "0c0c8b848b1372b953fb8f9b71cf19ef", "type": "electric_scooter", "is_reserved": 0, "lon": -77.0088335}, {"fusion_lat": 0.0, "name": "7522bd543b8ec117aeb5437bcc99d1f1", "is_disabled": 0, "rental_uris": {"android": "https://dc.lft.to/lastmile_qr_scan", "ios": "https://dc.lft.to/lastmile_qr_scan"}, "fusion_lon": 0.0, "lat": 38.92635083333333, "bike_id": "7522bd543b8ec117aeb5437bcc99d1f1", "type": "electric_scooter", "is_reserved": 0, "lon": -77.05200316666667}, {"fusion_lat": 0.0, "name": "dd283fb5738716e1b031c65be418ab2e", "is_disabled": 0, "rental_uris": {"android": "https://dc.lft.to/lastmile_qr_scan", "ios": "https://dc.lft.to/lastmile_qr_scan"}, "fusion_lon": 0.0, "lat": 38.9223255, "bike_id": "dd283fb5738716e1b031c65be418ab2e", "type": "electric_scooter", "is_reserved": 0, "lon": -77.04649233333333}, {"fusion_lat": 0.0, "name": "7de9483f46641448ec5bb3b7b99be4a1", "is_disabled": 0, "rental_uris": {"android": "https://dc.lft.to/lastmile_qr_scan", "ios": "https://dc.lft.to/lastmile_qr_scan"}, "fusion_lon": 0.0, "lat": 38.99228183333334, "bike_id": "7de9483f46641448ec5bb3b7b99be4a1", "type": "electric_bike", "is_reserved": 0, "lon": -76.9440705}, {"fusion_lat": 0.0, "name": "7011b83a8c98cc0f46111ea3e9aecd11", "is_disabled": 0, "rental_uris": {"android": "https://dc.lft.to/lastmile_qr_scan", "ios": "https://dc.lft.to/lastmile_qr_scan"}, "fusion_lon": 0.0, "lat": 38.912555, "bike_id": "7011b83a8c98cc0f46111ea3e9aecd11", "type": "electric_scooter", "is_reserved": 0, "lon": -77.0077605}, {"fusion_lat": 0.0, "name": "0cbeb5e96f02cf0ed9b644392f0041d2", "is_disabled": 0, "rental_uris": {"android": "https://dc.lft.to/lastmile_qr_scan", "ios": "https://dc.lft.to/lastmile_qr_scan"}, "fusion_lon": 0.0, "lat": 38.855222, "bike_id": "0cbeb5e96f02cf0ed9b644392f0041d2", "type": "electric_bike", "is_reserved": 0, "lon": -77.12056816666667}, {"fusion_lat": 0.0, "name": "7e98af159571d32d5a764cb67fce2ca0", "is_disabled": 0, "rental_uris": {"android": "https://dc.lft.to/lastmile_qr_scan", "ios": "https://dc.lft.to/lastmile_qr_scan"}, "fusion_lon": 0.0, "lat": 38.90140683333333, "bike_id": "7e98af159571d32d5a764cb67fce2ca0", "type": "electric_scooter", "is_reserved": 0, "lon": -76.99045933333333}, {"fusion_lat": 0.0, "name": "cf55b873a2a512743e8b7e0c61f80c5a", "is_disabled": 0, "rental_uris": {"android": "https://dc.lft.to/lastmile_qr_scan", "ios": "https://dc.lft.to/lastmile_qr_scan"}, "fusion_lon": 0.0, "lat": 38.91527833333333, "bike_id": "cf55b873a2a512743e8b7e0c61f80c5a", "type": "electric_scooter", "is_reserved": 0, "lon": -77.01325833333334}, {"fusion_lat": 0.0, "name": "99ad2874eb0f602d8ad1a597659495e6", "is_disabled": 0, "rental_uris": {"android": "https://dc.lft.to/lastmile_qr_scan", "ios": "https://dc.lft.to/lastmile_qr_scan"}, "fusion_lon": 0.0, "lat": 38.93714333333333, "bike_id": "99ad2874eb0f602d8ad1a597659495e6", "type": "electric_scooter", "is_reserved": 0, "lon": -77.0252585}, {"fusion_lat": 0.0, "name": "55855f2ba397a0d34c5c7e19fab1b10c", "is_disabled": 0, "rental_uris": {"android": "https://dc.lft.to/lastmile_qr_scan", "ios": "https://dc.lft.to/lastmile_qr_scan"}, "fusion_lon": 0.0, "lat": 38.91616883333333, "bike_id": "55855f2ba397a0d34c5c7e19fab1b10c", "type": "electric_scooter", "is_reserved": 0, "lon": -77.01122633333334}, {"fusion_lat": 0.0, "name": "4e69539c9bfa58f526985c12b38721a4", "is_disabled": 0, "rental_uris": {"android": "https://dc.lft.to/lastmile_qr_scan", "ios": "https://dc.lft.to/lastmile_qr_scan"}, "fusion_lon": 0.0, "lat": 38.90533966666667, "bike_id": "4e69539c9bfa58f526985c12b38721a4", "type": "electric_scooter", "is_reserved": 0, "lon": -77.02993366666666}, {"fusion_lat": 0.0, "name": "8c816e0041325e9182510fb1a86e9c7d", "is_disabled": 0, "rental_uris": {"android": "https://dc.lft.to/lastmile_qr_scan", "ios": "https://dc.lft.to/lastmile_qr_scan"}, "fusion_lon": 0.0, "lat": 38.9040705, "bike_id": "8c816e0041325e9182510fb1a86e9c7d", "type": "electric_scooter", "is_reserved": 0, "lon": -77.0677125}, {"fusion_lat": 0.0, "name": "9cc1a06c451458d0362cf1c0d284eeb2", "is_disabled": 0, "rental_uris": {"android": "https://dc.lft.to/lastmile_qr_scan", "ios": "https://dc.lft.to/lastmile_qr_scan"}, "fusion_lon": 0.0, "lat": 38.908450333333334, "bike_id": "9cc1a06c451458d0362cf1c0d284eeb2", "type": "electric_scooter", "is_reserved": 0, "lon": -77.02695683333333}, {"fusion_lat": 0.0, "name": "3bd3da257715c59d68f553494d09a4ea", "is_disabled": 0, "rental_uris": {"android": "https://dc.lft.to/lastmile_qr_scan", "ios": "https://dc.lft.to/lastmile_qr_scan"}, "fusion_lon": 0.0, "lat": 38.90930183333333, "bike_id": "3bd3da257715c59d68f553494d09a4ea", "type": "electric_scooter", "is_reserved": 0, "lon": -77.0457835}, {"fusion_lat": 0.0, "name": "b8a33f82bca3851ce90875e41ed277a8", "is_disabled": 0, "rental_uris": {"android": "https://dc.lft.to/lastmile_qr_scan", "ios": "https://dc.lft.to/lastmile_qr_scan"}, "fusion_lon": 0.0, "lat": 38.8159675, "bike_id": "b8a33f82bca3851ce90875e41ed277a8", "type": "electric_bike", "is_reserved": 0, "lon": -77.0505865}, {"fusion_lat": 0.0, "name": "4412ed50e0056f88d4f900c53817b9d9", "is_disabled": 0, "rental_uris": {"android": "https://dc.lft.to/lastmile_qr_scan", "ios": "https://dc.lft.to/lastmile_qr_scan"}, "fusion_lon": 0.0, "lat": 38.90498566666667, "bike_id": "4412ed50e0056f88d4f900c53817b9d9", "type": "electric_scooter", "is_reserved": 0, "lon": -77.02685833333334}, {"fusion_lat": 0.0, "name": "58eebe17d2027279e55fb7e8afa15594", "is_disabled": 0, "rental_uris": {"android": "https://dc.lft.to/lastmile_qr_scan", "ios": "https://dc.lft.to/lastmile_qr_scan"}, "fusion_lon": 0.0, "lat": 38.96616433333333, "bike_id": "58eebe17d2027279e55fb7e8afa15594", "type": "electric_bike", "is_reserved": 0, "lon": -77.03431533333334}, {"fusion_lat": 0.0, "name": "a9c159565261926aa75ae9dbca0a02f7", "is_disabled": 0, "rental_uris": {"android": "https://dc.lft.to/lastmile_qr_scan", "ios": "https://dc.lft.to/lastmile_qr_scan"}, "fusion_lon": 0.0, "lat": 38.906767, "bike_id": "a9c159565261926aa75ae9dbca0a02f7", "type": "electric_scooter", "is_reserved": 0, "lon": -77.04730266666667}, {"fusion_lat": 0.0, "name": "d0a78d8a399b1efc008780d8b28df0b7", "is_disabled": 0, "rental_uris": {"android": "https://dc.lft.to/lastmile_qr_scan", "ios": "https://dc.lft.to/lastmile_qr_scan"}, "fusion_lon": 0.0, "lat": 38.878978333333336, "bike_id": "d0a78d8a399b1efc008780d8b28df0b7", "type": "electric_scooter", "is_reserved": 0, "lon": -77.0136055}, {"fusion_lat": 0.0, "name": "512d8e2e9cd5d349919ac4a82d000328", "is_disabled": 0, "rental_uris": {"android": "https://dc.lft.to/lastmile_qr_scan", "ios": "https://dc.lft.to/lastmile_qr_scan"}, "fusion_lon": 0.0, "lat": 38.904972, "bike_id": "512d8e2e9cd5d349919ac4a82d000328", "type": "electric_scooter", "is_reserved": 0, "lon": -77.0101865}, {"fusion_lat": 0.0, "name": "0744e21b94452d128948c75cc8131bd1", "is_disabled": 0, "rental_uris": {"android": "https://dc.lft.to/lastmile_qr_scan", "ios": "https://dc.lft.to/lastmile_qr_scan"}, "fusion_lon": 0.0, "lat": 38.91771216666667, "bike_id": "0744e21b94452d128948c75cc8131bd1", "type": "electric_scooter", "is_reserved": 0, "lon": -77.01493766666667}, {"fusion_lat": 0.0, "name": "8e76191dfacb1e3aa8d72da6d19b9188", "is_disabled": 0, "rental_uris": {"android": "https://dc.lft.to/lastmile_qr_scan", "ios": "https://dc.lft.to/lastmile_qr_scan"}, "fusion_lon": 0.0, "lat": 38.944076, "bike_id": "8e76191dfacb1e3aa8d72da6d19b9188", "type": "electric_scooter", "is_reserved": 0, "lon": -77.032034}, {"fusion_lat": 0.0, "name": "31c656617f200bf3f02ccf754043afaf", "is_disabled": 0, "rental_uris": {"android": "https://dc.lft.to/lastmile_qr_scan", "ios": "https://dc.lft.to/lastmile_qr_scan"}, "fusion_lon": 0.0, "lat": 38.92966916666666, "bike_id": "31c656617f200bf3f02ccf754043afaf", "type": "electric_scooter", "is_reserved": 0, "lon": -77.03103066666667}, {"fusion_lat": 0.0, "name": "ab37ec576c4365372530439580374b20", "is_disabled": 0, "rental_uris": {"android": "https://dc.lft.to/lastmile_qr_scan", "ios": "https://dc.lft.to/lastmile_qr_scan"}, "fusion_lon": 0.0, "lat": 38.89827566666666, "bike_id": "ab37ec576c4365372530439580374b20", "type": "electric_scooter", "is_reserved": 0, "lon": -76.94652583333334}, {"fusion_lat": 0.0, "name": "29c7eb39d824921e16967c69486d8132", "is_disabled": 0, "rental_uris": {"android": "https://dc.lft.to/lastmile_qr_scan", "ios": "https://dc.lft.to/lastmile_qr_scan"}, "fusion_lon": 0.0, "lat": 38.87851466666667, "bike_id": "29c7eb39d824921e16967c69486d8132", "type": "electric_scooter", "is_reserved": 0, "lon": -77.01308766666666}, {"fusion_lat": 0.0, "name": "54c57875dbfb017e485357447f49b323", "is_disabled": 0, "rental_uris": {"android": "https://dc.lft.to/lastmile_qr_scan", "ios": "https://dc.lft.to/lastmile_qr_scan"}, "fusion_lon": 0.0, "lat": 38.88080466666667, "bike_id": "54c57875dbfb017e485357447f49b323", "type": "electric_scooter", "is_reserved": 0, "lon": -76.98533433333333}, {"fusion_lat": 0.0, "name": "2a0d374c00ea3a0eb3f6209f0aac243d", "is_disabled": 0, "rental_uris": {"android": "https://dc.lft.to/lastmile_qr_scan", "ios": "https://dc.lft.to/lastmile_qr_scan"}, "fusion_lon": 0.0, "lat": 38.89140883333334, "bike_id": "2a0d374c00ea3a0eb3f6209f0aac243d", "type": "electric_scooter", "is_reserved": 0, "lon": -76.9837575}, {"fusion_lat": 0.0, "name": "60ec8aa735fae766dd2f7a21ac2748f6", "is_disabled": 0, "rental_uris": {"android": "https://dc.lft.to/lastmile_qr_scan", "ios": "https://dc.lft.to/lastmile_qr_scan"}, "fusion_lon": 0.0, "lat": 38.89759433333333, "bike_id": "60ec8aa735fae766dd2f7a21ac2748f6", "type": "electric_scooter", "is_reserved": 0, "lon": -77.0319615}, {"fusion_lat": 0.0, "name": "b9ccbd14252f8420fd8759c1a6ea8c2d", "is_disabled": 0, "rental_uris": {"android": "https://dc.lft.to/lastmile_qr_scan", "ios": "https://dc.lft.to/lastmile_qr_scan"}, "fusion_lon": 0.0, "lat": 38.882333, "bike_id": "b9ccbd14252f8420fd8759c1a6ea8c2d", "type": "electric_scooter", "is_reserved": 0, "lon": -77.02614933333334}, {"fusion_lat": 0.0, "name": "89485f14f4489fcab1a3fc50ea9fb3b4", "is_disabled": 0, "rental_uris": {"android": "https://dc.lft.to/lastmile_qr_scan", "ios": "https://dc.lft.to/lastmile_qr_scan"}, "fusion_lon": 0.0, "lat": 38.885200833333336, "bike_id": "89485f14f4489fcab1a3fc50ea9fb3b4", "type": "electric_scooter", "is_reserved": 0, "lon": -77.015209}, {"fusion_lat": 0.0, "name": "d7cbf37777b9cea2c59b14e13044039a", "is_disabled": 0, "rental_uris": {"android": "https://dc.lft.to/lastmile_qr_scan", "ios": "https://dc.lft.to/lastmile_qr_scan"}, "fusion_lon": 0.0, "lat": 38.985084, "bike_id": "d7cbf37777b9cea2c59b14e13044039a", "type": "electric_bike", "is_reserved": 0, "lon": -76.98203766666667}, {"fusion_lat": 0.0, "name": "436185a1d0dbf29352e945501e54e441", "is_disabled": 0, "rental_uris": {"android": "https://dc.lft.to/lastmile_qr_scan", "ios": "https://dc.lft.to/lastmile_qr_scan"}, "fusion_lon": 0.0, "lat": 38.86063083333333, "bike_id": "436185a1d0dbf29352e945501e54e441", "type": "electric_scooter", "is_reserved": 0, "lon": -76.98499666666666}, {"fusion_lat": 0.0, "name": "6bc1d6d1265c12be89e9ce834e6c216d", "is_disabled": 0, "rental_uris": {"android": "https://dc.lft.to/lastmile_qr_scan", "ios": "https://dc.lft.to/lastmile_qr_scan"}, "fusion_lon": 0.0, "lat": 38.91429333333333, "bike_id": "6bc1d6d1265c12be89e9ce834e6c216d", "type": "electric_scooter", "is_reserved": 0, "lon": -77.06421583333334}, {"fusion_lat": 0.0, "name": "060cca8e0c6d4446e36daae21efc06c9", "is_disabled": 0, "rental_uris": {"android": "https://dc.lft.to/lastmile_qr_scan", "ios": "https://dc.lft.to/lastmile_qr_scan"}, "fusion_lon": 0.0, "lat": 38.920779833333334, "bike_id": "060cca8e0c6d4446e36daae21efc06c9", "type": "electric_bike", "is_reserved": 0, "lon": -76.98945616666667}, {"fusion_lat": 0.0, "name": "801f93c0d6ac4a8ce215ca76a5a46251", "is_disabled": 0, "rental_uris": {"android": "https://dc.lft.to/lastmile_qr_scan", "ios": "https://dc.lft.to/lastmile_qr_scan"}, "fusion_lon": 0.0, "lat": 38.896391333333334, "bike_id": "801f93c0d6ac4a8ce215ca76a5a46251", "type": "electric_scooter", "is_reserved": 0, "lon": -76.99938533333334}, {"fusion_lat": 0.0, "name": "bc8e616d27657b190a4bc379c48d3b1e", "is_disabled": 0, "rental_uris": {"android": "https://dc.lft.to/lastmile_qr_scan", "ios": "https://dc.lft.to/lastmile_qr_scan"}, "fusion_lon": 0.0, "lat": 38.903796, "bike_id": "bc8e616d27657b190a4bc379c48d3b1e", "type": "electric_scooter", "is_reserved": 0, "lon": -77.00188416666667}, {"fusion_lat": 0.0, "name": "794609ea20ae9d5366b6d9c7f4d24b19", "is_disabled": 0, "rental_uris": {"android": "https://dc.lft.to/lastmile_qr_scan", "ios": "https://dc.lft.to/lastmile_qr_scan"}, "fusion_lon": 0.0, "lat": 38.884000666666665, "bike_id": "794609ea20ae9d5366b6d9c7f4d24b19", "type": "electric_scooter", "is_reserved": 0, "lon": -76.98590416666667}, {"fusion_lat": 0.0, "name": "4fa818298474d021f9a29f9c0cc9bb2f", "is_disabled": 0, "rental_uris": {"android": "https://dc.lft.to/lastmile_qr_scan", "ios": "https://dc.lft.to/lastmile_qr_scan"}, "fusion_lon": 0.0, "lat": 38.8745925, "bike_id": "4fa818298474d021f9a29f9c0cc9bb2f", "type": "electric_scooter", "is_reserved": 0, "lon": -77.00966683333333}, {"fusion_lat": 0.0, "name": "f94017f46cb2af80c40b8ffdc4076849", "is_disabled": 0, "rental_uris": {"android": "https://dc.lft.to/lastmile_qr_scan", "ios": "https://dc.lft.to/lastmile_qr_scan"}, "fusion_lon": 0.0, "lat": 38.926543833333334, "bike_id": "f94017f46cb2af80c40b8ffdc4076849", "type": "electric_scooter", "is_reserved": 0, "lon": -77.03721266666666}, {"fusion_lat": 0.0, "name": "c0473d472d5b2092d6404d1804573aef", "is_disabled": 0, "rental_uris": {"android": "https://dc.lft.to/lastmile_qr_scan", "ios": "https://dc.lft.to/lastmile_qr_scan"}, "fusion_lon": 0.0, "lat": 38.898753166666665, "bike_id": "c0473d472d5b2092d6404d1804573aef", "type": "electric_scooter", "is_reserved": 0, "lon": -76.93182883333333}, {"fusion_lat": 0.0, "name": "9d5ec0253ca60ec2ec3f4fad5c28a07f", "is_disabled": 0, "rental_uris": {"android": "https://dc.lft.to/lastmile_qr_scan", "ios": "https://dc.lft.to/lastmile_qr_scan"}, "fusion_lon": 0.0, "lat": 38.900901, "bike_id": "9d5ec0253ca60ec2ec3f4fad5c28a07f", "type": "electric_scooter", "is_reserved": 0, "lon": -77.05832166666667}, {"fusion_lat": 0.0, "name": "300abe234b29536e0d940eb2a2d37fcd", "is_disabled": 0, "rental_uris": {"android": "https://dc.lft.to/lastmile_qr_scan", "ios": "https://dc.lft.to/lastmile_qr_scan"}, "fusion_lon": 0.0, "lat": 38.892236833333335, "bike_id": "300abe234b29536e0d940eb2a2d37fcd", "type": "electric_scooter", "is_reserved": 0, "lon": -77.04689633333334}, {"fusion_lat": 0.0, "name": "e733afd7ea8511296a5ca705fdca8641", "is_disabled": 0, "rental_uris": {"android": "https://dc.lft.to/lastmile_qr_scan", "ios": "https://dc.lft.to/lastmile_qr_scan"}, "fusion_lon": 0.0, "lat": 38.931468833333334, "bike_id": "e733afd7ea8511296a5ca705fdca8641", "type": "electric_scooter", "is_reserved": 0, "lon": -77.07846733333334}, {"fusion_lat": 0.0, "name": "75375418a4c4272c7c72ceb5c068732c", "is_disabled": 0, "rental_uris": {"android": "https://dc.lft.to/lastmile_qr_scan", "ios": "https://dc.lft.to/lastmile_qr_scan"}, "fusion_lon": 0.0, "lat": 38.944478, "bike_id": "75375418a4c4272c7c72ceb5c068732c", "type": "electric_scooter", "is_reserved": 0, "lon": -77.02341833333334}, {"fusion_lat": 0.0, "name": "323fa7d6a580bcca1873e66e269d9f7c", "is_disabled": 0, "rental_uris": {"android": "https://dc.lft.to/lastmile_qr_scan", "ios": "https://dc.lft.to/lastmile_qr_scan"}, "fusion_lon": 0.0, "lat": 38.9192305, "bike_id": "323fa7d6a580bcca1873e66e269d9f7c", "type": "electric_scooter", "is_reserved": 0, "lon": -77.02511783333334}, {"fusion_lat": 0.0, "name": "ecb58dceb9599cfc8c89d1666db3fb67", "is_disabled": 0, "rental_uris": {"android": "https://dc.lft.to/lastmile_qr_scan", "ios": "https://dc.lft.to/lastmile_qr_scan"}, "fusion_lon": 0.0, "lat": 38.86628066666667, "bike_id": "ecb58dceb9599cfc8c89d1666db3fb67", "type": "electric_scooter", "is_reserved": 0, "lon": -76.98717}, {"fusion_lat": 0.0, "name": "cb836debe8a7d0e3b14283466ff36303", "is_disabled": 0, "rental_uris": {"android": "https://dc.lft.to/lastmile_qr_scan", "ios": "https://dc.lft.to/lastmile_qr_scan"}, "fusion_lon": 0.0, "lat": 38.919903833333336, "bike_id": "cb836debe8a7d0e3b14283466ff36303", "type": "electric_scooter", "is_reserved": 0, "lon": -77.02359466666667}, {"fusion_lat": 0.0, "name": "43b499c748fb4037e115b991379a7e6d", "is_disabled": 0, "rental_uris": {"android": "https://dc.lft.to/lastmile_qr_scan", "ios": "https://dc.lft.to/lastmile_qr_scan"}, "fusion_lon": 0.0, "lat": 38.917724666666665, "bike_id": "43b499c748fb4037e115b991379a7e6d", "type": "electric_scooter", "is_reserved": 0, "lon": -77.0228685}, {"fusion_lat": 0.0, "name": "c562c29ae4de5724a46166e57e2ff216", "is_disabled": 0, "rental_uris": {"android": "https://dc.lft.to/lastmile_qr_scan", "ios": "https://dc.lft.to/lastmile_qr_scan"}, "fusion_lon": 0.0, "lat": 38.9311895, "bike_id": "c562c29ae4de5724a46166e57e2ff216", "type": "electric_scooter", "is_reserved": 0, "lon": -77.02133716666667}, {"fusion_lat": 0.0, "name": "62e55f86d0080c70b71cbb5f1426bb02", "is_disabled": 0, "rental_uris": {"android": "https://dc.lft.to/lastmile_qr_scan", "ios": "https://dc.lft.to/lastmile_qr_scan"}, "fusion_lon": 0.0, "lat": 38.93298766666667, "bike_id": "62e55f86d0080c70b71cbb5f1426bb02", "type": "electric_scooter", "is_reserved": 0, "lon": -77.039977}, {"fusion_lat": 0.0, "name": "186e624a59150cc259ff440526221a89", "is_disabled": 0, "rental_uris": {"android": "https://dc.lft.to/lastmile_qr_scan", "ios": "https://dc.lft.to/lastmile_qr_scan"}, "fusion_lon": 0.0, "lat": 38.92794883333333, "bike_id": "186e624a59150cc259ff440526221a89", "type": "electric_scooter", "is_reserved": 0, "lon": -77.03155033333333}, {"fusion_lat": 0.0, "name": "b9027c6bb3f65bdde4c6dde51378fbbe", "is_disabled": 0, "rental_uris": {"android": "https://dc.lft.to/lastmile_qr_scan", "ios": "https://dc.lft.to/lastmile_qr_scan"}, "fusion_lon": 0.0, "lat": 38.889487, "bike_id": "b9027c6bb3f65bdde4c6dde51378fbbe", "type": "electric_scooter", "is_reserved": 0, "lon": -76.99160416666666}, {"fusion_lat": 0.0, "name": "a66ceb228c801445d46c9f650bc61191", "is_disabled": 0, "rental_uris": {"android": "https://dc.lft.to/lastmile_qr_scan", "ios": "https://dc.lft.to/lastmile_qr_scan"}, "fusion_lon": 0.0, "lat": 38.927905333333335, "bike_id": "a66ceb228c801445d46c9f650bc61191", "type": "electric_scooter", "is_reserved": 0, "lon": -77.02585066666667}, {"fusion_lat": 0.0, "name": "9456120b326ba8753c498f5c2b5bac86", "is_disabled": 0, "rental_uris": {"android": "https://dc.lft.to/lastmile_qr_scan", "ios": "https://dc.lft.to/lastmile_qr_scan"}, "fusion_lon": 0.0, "lat": 38.9287035, "bike_id": "9456120b326ba8753c498f5c2b5bac86", "type": "electric_scooter", "is_reserved": 0, "lon": -77.0544355}, {"fusion_lat": 0.0, "name": "ba09911f53915b27745bce9ed2357c5d", "is_disabled": 0, "rental_uris": {"android": "https://dc.lft.to/lastmile_qr_scan", "ios": "https://dc.lft.to/lastmile_qr_scan"}, "fusion_lon": 0.0, "lat": 38.92849733333333, "bike_id": "ba09911f53915b27745bce9ed2357c5d", "type": "electric_scooter", "is_reserved": 0, "lon": -77.0326735}, {"fusion_lat": 0.0, "name": "6b2ffdac96353a02bfc01c6323ccfdd5", "is_disabled": 0, "rental_uris": {"android": "https://dc.lft.to/lastmile_qr_scan", "ios": "https://dc.lft.to/lastmile_qr_scan"}, "fusion_lon": 0.0, "lat": 38.905754333333334, "bike_id": "6b2ffdac96353a02bfc01c6323ccfdd5", "type": "electric_scooter", "is_reserved": 0, "lon": -77.0265325}, {"fusion_lat": 0.0, "name": "a382d35775a99a2157449a7c7e1e8f72", "is_disabled": 0, "rental_uris": {"android": "https://dc.lft.to/lastmile_qr_scan", "ios": "https://dc.lft.to/lastmile_qr_scan"}, "fusion_lon": 0.0, "lat": 38.905055833333336, "bike_id": "a382d35775a99a2157449a7c7e1e8f72", "type": "electric_scooter", "is_reserved": 0, "lon": -77.061179}, {"fusion_lat": 0.0, "name": "dc98b3c533abe44bfa4abdad972bc728", "is_disabled": 0, "rental_uris": {"android": "https://dc.lft.to/lastmile_qr_scan", "ios": "https://dc.lft.to/lastmile_qr_scan"}, "fusion_lon": 0.0, "lat": 38.941614333333334, "bike_id": "dc98b3c533abe44bfa4abdad972bc728", "type": "electric_scooter", "is_reserved": 0, "lon": -77.02499733333333}, {"fusion_lat": 0.0, "name": "0ea722ed81693ec136db9901147b45d1", "is_disabled": 0, "rental_uris": {"android": "https://dc.lft.to/lastmile_qr_scan", "ios": "https://dc.lft.to/lastmile_qr_scan"}, "fusion_lon": 0.0, "lat": 38.9206845, "bike_id": "0ea722ed81693ec136db9901147b45d1", "type": "electric_scooter", "is_reserved": 0, "lon": -77.0239595}, {"fusion_lat": 0.0, "name": "9a2bf29bcd60e41d51019b7f3f3ecab8", "is_disabled": 0, "rental_uris": {"android": "https://dc.lft.to/lastmile_qr_scan", "ios": "https://dc.lft.to/lastmile_qr_scan"}, "fusion_lon": 0.0, "lat": 38.8637525, "bike_id": "9a2bf29bcd60e41d51019b7f3f3ecab8", "type": "electric_bike", "is_reserved": 0, "lon": -76.970141}, {"fusion_lat": 0.0, "name": "6e4af13154af372f5f1f6762caebef3b", "is_disabled": 0, "rental_uris": {"android": "https://dc.lft.to/lastmile_qr_scan", "ios": "https://dc.lft.to/lastmile_qr_scan"}, "fusion_lon": 0.0, "lat": 38.91827416666667, "bike_id": "6e4af13154af372f5f1f6762caebef3b", "type": "electric_scooter", "is_reserved": 0, "lon": -77.01208233333334}, {"fusion_lat": 0.0, "name": "032b0789175fe9e724f380964949a553", "is_disabled": 0, "rental_uris": {"android": "https://dc.lft.to/lastmile_qr_scan", "ios": "https://dc.lft.to/lastmile_qr_scan"}, "fusion_lon": 0.0, "lat": 38.90930916666667, "bike_id": "032b0789175fe9e724f380964949a553", "type": "electric_scooter", "is_reserved": 0, "lon": -77.07295416666666}, {"fusion_lat": 0.0, "name": "1747d4ac944b007f3ac5491d266eb14a", "is_disabled": 0, "rental_uris": {"android": "https://dc.lft.to/lastmile_qr_scan", "ios": "https://dc.lft.to/lastmile_qr_scan"}, "fusion_lon": 0.0, "lat": 38.89736383333333, "bike_id": "1747d4ac944b007f3ac5491d266eb14a", "type": "electric_scooter", "is_reserved": 0, "lon": -77.0037535}, {"fusion_lat": 0.0, "name": "3455e006ce66df5a48a49d8b329b1b8f", "is_disabled": 0, "rental_uris": {"android": "https://dc.lft.to/lastmile_qr_scan", "ios": "https://dc.lft.to/lastmile_qr_scan"}, "fusion_lon": 0.0, "lat": 38.908426166666665, "bike_id": "3455e006ce66df5a48a49d8b329b1b8f", "type": "electric_scooter", "is_reserved": 0, "lon": -77.0434785}, {"fusion_lat": 0.0, "name": "a746b69492def75937c31a5540863e72", "is_disabled": 0, "rental_uris": {"android": "https://dc.lft.to/lastmile_qr_scan", "ios": "https://dc.lft.to/lastmile_qr_scan"}, "fusion_lon": 0.0, "lat": 38.91906766666666, "bike_id": "a746b69492def75937c31a5540863e72", "type": "electric_scooter", "is_reserved": 0, "lon": -77.00218766666667}, {"fusion_lat": 0.0, "name": "05f8795fd8c0e8d141804eb0f4afeb12", "is_disabled": 0, "rental_uris": {"android": "https://dc.lft.to/lastmile_qr_scan", "ios": "https://dc.lft.to/lastmile_qr_scan"}, "fusion_lon": 0.0, "lat": 38.89698166666667, "bike_id": "05f8795fd8c0e8d141804eb0f4afeb12", "type": "electric_scooter", "is_reserved": 0, "lon": -77.04353316666666}, {"fusion_lat": 0.0, "name": "1bf57c7730636a0c452fe010db98eb38", "is_disabled": 0, "rental_uris": {"android": "https://dc.lft.to/lastmile_qr_scan", "ios": "https://dc.lft.to/lastmile_qr_scan"}, "fusion_lon": 0.0, "lat": 38.926447833333334, "bike_id": "1bf57c7730636a0c452fe010db98eb38", "type": "electric_scooter", "is_reserved": 0, "lon": -77.033227}, {"fusion_lat": 0.0, "name": "fda5508ff5a89157412b6b151687079a", "is_disabled": 0, "rental_uris": {"android": "https://dc.lft.to/lastmile_qr_scan", "ios": "https://dc.lft.to/lastmile_qr_scan"}, "fusion_lon": 0.0, "lat": 38.906986833333335, "bike_id": "fda5508ff5a89157412b6b151687079a", "type": "electric_scooter", "is_reserved": 0, "lon": -77.027159}, {"fusion_lat": 0.0, "name": "c05c392814de69d632050e171b371a2a", "is_disabled": 0, "rental_uris": {"android": "https://dc.lft.to/lastmile_qr_scan", "ios": "https://dc.lft.to/lastmile_qr_scan"}, "fusion_lon": 0.0, "lat": 38.9112605, "bike_id": "c05c392814de69d632050e171b371a2a", "type": "electric_scooter", "is_reserved": 0, "lon": -77.02097766666667}, {"fusion_lat": 0.0, "name": "033add23312e6307d43a730c44cffca0", "is_disabled": 0, "rental_uris": {"android": "https://dc.lft.to/lastmile_qr_scan", "ios": "https://dc.lft.to/lastmile_qr_scan"}, "fusion_lon": 0.0, "lat": 38.89116533333333, "bike_id": "033add23312e6307d43a730c44cffca0", "type": "electric_scooter", "is_reserved": 0, "lon": -76.94383433333333}, {"fusion_lat": 0.0, "name": "e5131ae922bc5bef76196f93d39f3645", "is_disabled": 0, "rental_uris": {"android": "https://dc.lft.to/lastmile_qr_scan", "ios": "https://dc.lft.to/lastmile_qr_scan"}, "fusion_lon": 0.0, "lat": 38.85654183333333, "bike_id": "e5131ae922bc5bef76196f93d39f3645", "type": "electric_scooter", "is_reserved": 0, "lon": -76.996735}, {"fusion_lat": 0.0, "name": "87ce7419a8e12968c057f6eeae3cc734", "is_disabled": 0, "rental_uris": {"android": "https://dc.lft.to/lastmile_qr_scan", "ios": "https://dc.lft.to/lastmile_qr_scan"}, "fusion_lon": 0.0, "lat": 38.974981666666665, "bike_id": "87ce7419a8e12968c057f6eeae3cc734", "type": "electric_scooter", "is_reserved": 0, "lon": -77.01694233333333}, {"fusion_lat": 0.0, "name": "bf1178f00570d7ae478a5a874d69ae12", "is_disabled": 0, "rental_uris": {"android": "https://dc.lft.to/lastmile_qr_scan", "ios": "https://dc.lft.to/lastmile_qr_scan"}, "fusion_lon": 0.0, "lat": 38.89733116666667, "bike_id": "bf1178f00570d7ae478a5a874d69ae12", "type": "electric_bike", "is_reserved": 0, "lon": -76.920453}, {"fusion_lat": 0.0, "name": "b667698da9a03f13a502c4334750e006", "is_disabled": 0, "rental_uris": {"android": "https://dc.lft.to/lastmile_qr_scan", "ios": "https://dc.lft.to/lastmile_qr_scan"}, "fusion_lon": 0.0, "lat": 38.96988183333333, "bike_id": "b667698da9a03f13a502c4334750e006", "type": "electric_scooter", "is_reserved": 0, "lon": -77.01157966666666}, {"fusion_lat": 0.0, "name": "d90376d23e49605faa3b3f9bad03c763", "is_disabled": 0, "rental_uris": {"android": "https://dc.lft.to/lastmile_qr_scan", "ios": "https://dc.lft.to/lastmile_qr_scan"}, "fusion_lon": 0.0, "lat": 38.911116166666666, "bike_id": "d90376d23e49605faa3b3f9bad03c763", "type": "electric_scooter", "is_reserved": 0, "lon": -77.02905466666667}, {"fusion_lat": 0.0, "name": "de084215f80eed665bb87f2609a46d40", "is_disabled": 0, "rental_uris": {"android": "https://dc.lft.to/lastmile_qr_scan", "ios": "https://dc.lft.to/lastmile_qr_scan"}, "fusion_lon": 0.0, "lat": 38.8812625, "bike_id": "de084215f80eed665bb87f2609a46d40", "type": "electric_bike", "is_reserved": 0, "lon": -77.01657883333333}, {"fusion_lat": 0.0, "name": "5fbeba3decb593bc15e831f6dbf6e60e", "is_disabled": 0, "rental_uris": {"android": "https://dc.lft.to/lastmile_qr_scan", "ios": "https://dc.lft.to/lastmile_qr_scan"}, "fusion_lon": 0.0, "lat": 38.9306265, "bike_id": "5fbeba3decb593bc15e831f6dbf6e60e", "type": "electric_scooter", "is_reserved": 0, "lon": -77.04052416666667}, {"fusion_lat": 0.0, "name": "f9f7368492ca9bf342d6a287488dda64", "is_disabled": 0, "rental_uris": {"android": "https://dc.lft.to/lastmile_qr_scan", "ios": "https://dc.lft.to/lastmile_qr_scan"}, "fusion_lon": 0.0, "lat": 38.928333, "bike_id": "f9f7368492ca9bf342d6a287488dda64", "type": "electric_scooter", "is_reserved": 0, "lon": -77.03273516666667}, {"fusion_lat": 0.0, "name": "220d571edc47ebc7d1a9ece045dc5539", "is_disabled": 0, "rental_uris": {"android": "https://dc.lft.to/lastmile_qr_scan", "ios": "https://dc.lft.to/lastmile_qr_scan"}, "fusion_lon": 0.0, "lat": 38.90003733333333, "bike_id": "220d571edc47ebc7d1a9ece045dc5539", "type": "electric_scooter", "is_reserved": 0, "lon": -77.007027}, {"fusion_lat": 0.0, "name": "1a86ae430c12194ddc378326e02def75", "is_disabled": 0, "rental_uris": {"android": "https://dc.lft.to/lastmile_qr_scan", "ios": "https://dc.lft.to/lastmile_qr_scan"}, "fusion_lon": 0.0, "lat": 38.9346655, "bike_id": "1a86ae430c12194ddc378326e02def75", "type": "electric_scooter", "is_reserved": 0, "lon": -77.04122416666667}, {"fusion_lat": 0.0, "name": "cbc0a7af93ef0de5928439ee61778fd3", "is_disabled": 0, "rental_uris": {"android": "https://dc.lft.to/lastmile_qr_scan", "ios": "https://dc.lft.to/lastmile_qr_scan"}, "fusion_lon": 0.0, "lat": 38.91045233333333, "bike_id": "cbc0a7af93ef0de5928439ee61778fd3", "type": "electric_scooter", "is_reserved": 0, "lon": -77.03437683333334}, {"fusion_lat": 0.0, "name": "828f0a7d73d081659735c7895c2105af", "is_disabled": 0, "rental_uris": {"android": "https://dc.lft.to/lastmile_qr_scan", "ios": "https://dc.lft.to/lastmile_qr_scan"}, "fusion_lon": 0.0, "lat": 38.86685116666666, "bike_id": "828f0a7d73d081659735c7895c2105af", "type": "electric_scooter", "is_reserved": 0, "lon": -76.985677}, {"fusion_lat": 0.0, "name": "a82856c3303eb21f481120250ccb0828", "is_disabled": 0, "rental_uris": {"android": "https://dc.lft.to/lastmile_qr_scan", "ios": "https://dc.lft.to/lastmile_qr_scan"}, "fusion_lon": 0.0, "lat": 38.884873, "bike_id": "a82856c3303eb21f481120250ccb0828", "type": "electric_scooter", "is_reserved": 0, "lon": -77.007114}, {"fusion_lat": 0.0, "name": "3be118e27271b1e15422847bd472b2c3", "is_disabled": 0, "rental_uris": {"android": "https://dc.lft.to/lastmile_qr_scan", "ios": "https://dc.lft.to/lastmile_qr_scan"}, "fusion_lon": 0.0, "lat": 38.84282866666667, "bike_id": "3be118e27271b1e15422847bd472b2c3", "type": "electric_bike", "is_reserved": 0, "lon": -77.0448945}, {"fusion_lat": 0.0, "name": "a1a552ee93cc946314d1fc5a19cf9a91", "is_disabled": 0, "rental_uris": {"android": "https://dc.lft.to/lastmile_qr_scan", "ios": "https://dc.lft.to/lastmile_qr_scan"}, "fusion_lon": 0.0, "lat": 38.9225135, "bike_id": "a1a552ee93cc946314d1fc5a19cf9a91", "type": "electric_scooter", "is_reserved": 0, "lon": -77.0420865}, {"fusion_lat": 0.0, "name": "17b797f9dbe8dd58f7f7076cd1b355b2", "is_disabled": 0, "rental_uris": {"android": "https://dc.lft.to/lastmile_qr_scan", "ios": "https://dc.lft.to/lastmile_qr_scan"}, "fusion_lon": 0.0, "lat": 38.90004666666667, "bike_id": "17b797f9dbe8dd58f7f7076cd1b355b2", "type": "electric_scooter", "is_reserved": 0, "lon": -76.93155366666667}, {"fusion_lat": 0.0, "name": "57ee3ca601c9e6250269bbc667f02dd0", "is_disabled": 0, "rental_uris": {"android": "https://dc.lft.to/lastmile_qr_scan", "ios": "https://dc.lft.to/lastmile_qr_scan"}, "fusion_lon": 0.0, "lat": 38.89735983333333, "bike_id": "57ee3ca601c9e6250269bbc667f02dd0", "type": "electric_scooter", "is_reserved": 0, "lon": -77.04355466666667}, {"fusion_lat": 0.0, "name": "e64cedf26f49d6aa98095960c768918d", "is_disabled": 0, "rental_uris": {"android": "https://dc.lft.to/lastmile_qr_scan", "ios": "https://dc.lft.to/lastmile_qr_scan"}, "fusion_lon": 0.0, "lat": 38.935273, "bike_id": "e64cedf26f49d6aa98095960c768918d", "type": "electric_scooter", "is_reserved": 0, "lon": -77.03651216666667}, {"fusion_lat": 0.0, "name": "e1b6dc05b91e9f9ecf0a815039ab8c5b", "is_disabled": 0, "rental_uris": {"android": "https://dc.lft.to/lastmile_qr_scan", "ios": "https://dc.lft.to/lastmile_qr_scan"}, "fusion_lon": 0.0, "lat": 38.916535, "bike_id": "e1b6dc05b91e9f9ecf0a815039ab8c5b", "type": "electric_scooter", "is_reserved": 0, "lon": -77.04199166666666}, {"fusion_lat": 0.0, "name": "6bf8c5b5cf2181def2820cb7a282e3a2", "is_disabled": 0, "rental_uris": {"android": "https://dc.lft.to/lastmile_qr_scan", "ios": "https://dc.lft.to/lastmile_qr_scan"}, "fusion_lon": 0.0, "lat": 38.920928, "bike_id": "6bf8c5b5cf2181def2820cb7a282e3a2", "type": "electric_scooter", "is_reserved": 0, "lon": -77.03945716666666}, {"fusion_lat": 0.0, "name": "5ef979e1519fb41eb6d02ca0727c8ce8", "is_disabled": 0, "rental_uris": {"android": "https://dc.lft.to/lastmile_qr_scan", "ios": "https://dc.lft.to/lastmile_qr_scan"}, "fusion_lon": 0.0, "lat": 38.934635, "bike_id": "5ef979e1519fb41eb6d02ca0727c8ce8", "type": "electric_scooter", "is_reserved": 0, "lon": -77.05780216666666}, {"fusion_lat": 0.0, "name": "2c5dc1ccf93dc17cc9ca608fed2f212c", "is_disabled": 0, "rental_uris": {"android": "https://dc.lft.to/lastmile_qr_scan", "ios": "https://dc.lft.to/lastmile_qr_scan"}, "fusion_lon": 0.0, "lat": 38.897497666666666, "bike_id": "2c5dc1ccf93dc17cc9ca608fed2f212c", "type": "electric_scooter", "is_reserved": 0, "lon": -77.03191483333333}, {"fusion_lat": 0.0, "name": "cf4c2b2c5198487a8f3a62a4cd973859", "is_disabled": 0, "rental_uris": {"android": "https://dc.lft.to/lastmile_qr_scan", "ios": "https://dc.lft.to/lastmile_qr_scan"}, "fusion_lon": 0.0, "lat": 38.93535716666667, "bike_id": "cf4c2b2c5198487a8f3a62a4cd973859", "type": "electric_scooter", "is_reserved": 0, "lon": -77.0234375}, {"fusion_lat": 0.0, "name": "ef4d94b709487e03b255858401c1c804", "is_disabled": 0, "rental_uris": {"android": "https://dc.lft.to/lastmile_qr_scan", "ios": "https://dc.lft.to/lastmile_qr_scan"}, "fusion_lon": 0.0, "lat": 38.921077333333336, "bike_id": "ef4d94b709487e03b255858401c1c804", "type": "electric_scooter", "is_reserved": 0, "lon": -77.04694333333333}, {"fusion_lat": 0.0, "name": "373667d43564ad8cae604dd64ecec847", "is_disabled": 0, "rental_uris": {"android": "https://dc.lft.to/lastmile_qr_scan", "ios": "https://dc.lft.to/lastmile_qr_scan"}, "fusion_lon": 0.0, "lat": 38.9124025, "bike_id": "373667d43564ad8cae604dd64ecec847", "type": "electric_scooter", "is_reserved": 0, "lon": -77.0487005}, {"fusion_lat": 0.0, "name": "d690f7e05d6a90900f2722a2662888e7", "is_disabled": 0, "rental_uris": {"android": "https://dc.lft.to/lastmile_qr_scan", "ios": "https://dc.lft.to/lastmile_qr_scan"}, "fusion_lon": 0.0, "lat": 38.92353033333333, "bike_id": "d690f7e05d6a90900f2722a2662888e7", "type": "electric_scooter", "is_reserved": 0, "lon": -77.0244645}, {"fusion_lat": 0.0, "name": "eaa2bad4db9355a281d54f1cad0cfa83", "is_disabled": 0, "rental_uris": {"android": "https://dc.lft.to/lastmile_qr_scan", "ios": "https://dc.lft.to/lastmile_qr_scan"}, "fusion_lon": 0.0, "lat": 38.8427795, "bike_id": "eaa2bad4db9355a281d54f1cad0cfa83", "type": "electric_bike", "is_reserved": 0, "lon": -76.9884045}, {"fusion_lat": 0.0, "name": "0212852a69bcdc0710e74cb953f5ab26", "is_disabled": 0, "rental_uris": {"android": "https://dc.lft.to/lastmile_qr_scan", "ios": "https://dc.lft.to/lastmile_qr_scan"}, "fusion_lon": 0.0, "lat": 38.933682, "bike_id": "0212852a69bcdc0710e74cb953f5ab26", "type": "electric_scooter", "is_reserved": 0, "lon": -77.03081133333333}, {"fusion_lat": 0.0, "name": "1344f7111040b5d9799633d8d3ee49cf", "is_disabled": 0, "rental_uris": {"android": "https://dc.lft.to/lastmile_qr_scan", "ios": "https://dc.lft.to/lastmile_qr_scan"}, "fusion_lon": 0.0, "lat": 38.92258616666667, "bike_id": "1344f7111040b5d9799633d8d3ee49cf", "type": "electric_bike", "is_reserved": 0, "lon": -77.07028116666666}, {"fusion_lat": 0.0, "name": "dcf422bced69d680f91ab81399472d5e", "is_disabled": 0, "rental_uris": {"android": "https://dc.lft.to/lastmile_qr_scan", "ios": "https://dc.lft.to/lastmile_qr_scan"}, "fusion_lon": 0.0, "lat": 38.9245725, "bike_id": "dcf422bced69d680f91ab81399472d5e", "type": "electric_scooter", "is_reserved": 0, "lon": -77.02409616666667}, {"fusion_lat": 0.0, "name": "2c2fdcb4be792e076eae8f3289be6b36", "is_disabled": 0, "rental_uris": {"android": "https://dc.lft.to/lastmile_qr_scan", "ios": "https://dc.lft.to/lastmile_qr_scan"}, "fusion_lon": 0.0, "lat": 38.91130283333333, "bike_id": "2c2fdcb4be792e076eae8f3289be6b36", "type": "electric_scooter", "is_reserved": 0, "lon": -77.02199633333333}, {"fusion_lat": 0.0, "name": "c5d21ca632b47b9aa5ab6a6534340e63", "is_disabled": 0, "rental_uris": {"android": "https://dc.lft.to/lastmile_qr_scan", "ios": "https://dc.lft.to/lastmile_qr_scan"}, "fusion_lon": 0.0, "lat": 38.90882083333333, "bike_id": "c5d21ca632b47b9aa5ab6a6534340e63", "type": "electric_scooter", "is_reserved": 0, "lon": -77.04414616666666}, {"fusion_lat": 0.0, "name": "28dc8bda6c3e36b4dda6fd42bd1e6f5f", "is_disabled": 0, "rental_uris": {"android": "https://dc.lft.to/lastmile_qr_scan", "ios": "https://dc.lft.to/lastmile_qr_scan"}, "fusion_lon": 0.0, "lat": 38.92025816666667, "bike_id": "28dc8bda6c3e36b4dda6fd42bd1e6f5f", "type": "electric_scooter", "is_reserved": 0, "lon": -77.03069016666667}, {"fusion_lat": 0.0, "name": "5d545fbc65138432e94d7db62d0067d1", "is_disabled": 0, "rental_uris": {"android": "https://dc.lft.to/lastmile_qr_scan", "ios": "https://dc.lft.to/lastmile_qr_scan"}, "fusion_lon": 0.0, "lat": 38.920730666666664, "bike_id": "5d545fbc65138432e94d7db62d0067d1", "type": "electric_scooter", "is_reserved": 0, "lon": -77.02857066666667}, {"fusion_lat": 0.0, "name": "05d72f102b70e2d528a841411a6dd160", "is_disabled": 0, "rental_uris": {"android": "https://dc.lft.to/lastmile_qr_scan", "ios": "https://dc.lft.to/lastmile_qr_scan"}, "fusion_lon": 0.0, "lat": 38.918186, "bike_id": "05d72f102b70e2d528a841411a6dd160", "type": "electric_scooter", "is_reserved": 0, "lon": -77.03270983333333}, {"fusion_lat": 0.0, "name": "4289549a0f60ddc0c9786fc2168c3b25", "is_disabled": 0, "rental_uris": {"android": "https://dc.lft.to/lastmile_qr_scan", "ios": "https://dc.lft.to/lastmile_qr_scan"}, "fusion_lon": 0.0, "lat": 38.9433475, "bike_id": "4289549a0f60ddc0c9786fc2168c3b25", "type": "electric_scooter", "is_reserved": 0, "lon": -77.02685366666667}, {"fusion_lat": 0.0, "name": "206c5a6b3cf2defd0b1422113568ba6f", "is_disabled": 0, "rental_uris": {"android": "https://dc.lft.to/lastmile_qr_scan", "ios": "https://dc.lft.to/lastmile_qr_scan"}, "fusion_lon": 0.0, "lat": 38.917032666666664, "bike_id": "206c5a6b3cf2defd0b1422113568ba6f", "type": "electric_scooter", "is_reserved": 0, "lon": -77.00111066666666}, {"fusion_lat": 0.0, "name": "40336e12b10412799e5bbf64e0dbd320", "is_disabled": 0, "rental_uris": {"android": "https://dc.lft.to/lastmile_qr_scan", "ios": "https://dc.lft.to/lastmile_qr_scan"}, "fusion_lon": 0.0, "lat": 38.92872333333333, "bike_id": "40336e12b10412799e5bbf64e0dbd320", "type": "electric_scooter", "is_reserved": 0, "lon": -77.03785666666667}, {"fusion_lat": 0.0, "name": "cd5a40a31f3f9fbe4b46db531ce79b8f", "is_disabled": 0, "rental_uris": {"android": "https://dc.lft.to/lastmile_qr_scan", "ios": "https://dc.lft.to/lastmile_qr_scan"}, "fusion_lon": 0.0, "lat": 38.8985135, "bike_id": "cd5a40a31f3f9fbe4b46db531ce79b8f", "type": "electric_scooter", "is_reserved": 0, "lon": -76.99032416666667}, {"fusion_lat": 0.0, "name": "c2557f6f9501bcd1258859540cced9a2", "is_disabled": 0, "rental_uris": {"android": "https://dc.lft.to/lastmile_qr_scan", "ios": "https://dc.lft.to/lastmile_qr_scan"}, "fusion_lon": 0.0, "lat": 38.92059966666667, "bike_id": "c2557f6f9501bcd1258859540cced9a2", "type": "electric_scooter", "is_reserved": 0, "lon": -77.02535433333334}, {"fusion_lat": 0.0, "name": "72d0438f178c97ff79c2e89c2ca03266", "is_disabled": 0, "rental_uris": {"android": "https://dc.lft.to/lastmile_qr_scan", "ios": "https://dc.lft.to/lastmile_qr_scan"}, "fusion_lon": 0.0, "lat": 38.89923266666667, "bike_id": "72d0438f178c97ff79c2e89c2ca03266", "type": "electric_scooter", "is_reserved": 0, "lon": -77.071935}, {"fusion_lat": 0.0, "name": "04ef1d460e4c60ec241409814c359e35", "is_disabled": 0, "rental_uris": {"android": "https://dc.lft.to/lastmile_qr_scan", "ios": "https://dc.lft.to/lastmile_qr_scan"}, "fusion_lon": 0.0, "lat": 38.91041633333333, "bike_id": "04ef1d460e4c60ec241409814c359e35", "type": "electric_scooter", "is_reserved": 0, "lon": -77.03335383333334}, {"fusion_lat": 0.0, "name": "fb2bffd1757b6b35cb4258497bd995a6", "is_disabled": 0, "rental_uris": {"android": "https://dc.lft.to/lastmile_qr_scan", "ios": "https://dc.lft.to/lastmile_qr_scan"}, "fusion_lon": 0.0, "lat": 38.911141, "bike_id": "fb2bffd1757b6b35cb4258497bd995a6", "type": "electric_scooter", "is_reserved": 0, "lon": -77.0217905}, {"fusion_lat": 0.0, "name": "0bfae8645f686fdebcba725f7a2cbf96", "is_disabled": 0, "rental_uris": {"android": "https://dc.lft.to/lastmile_qr_scan", "ios": "https://dc.lft.to/lastmile_qr_scan"}, "fusion_lon": 0.0, "lat": 38.91063166666667, "bike_id": "0bfae8645f686fdebcba725f7a2cbf96", "type": "electric_scooter", "is_reserved": 0, "lon": -77.052711}, {"fusion_lat": 0.0, "name": "dae0a2c7e47be1e630a2c48ea4bf1357", "is_disabled": 0, "rental_uris": {"android": "https://dc.lft.to/lastmile_qr_scan", "ios": "https://dc.lft.to/lastmile_qr_scan"}, "fusion_lon": 0.0, "lat": 38.900296, "bike_id": "dae0a2c7e47be1e630a2c48ea4bf1357", "type": "electric_scooter", "is_reserved": 0, "lon": -77.000311}, {"fusion_lat": 0.0, "name": "9ce74dedd3736e35371fc1e89b5aa09e", "is_disabled": 0, "rental_uris": {"android": "https://dc.lft.to/lastmile_qr_scan", "ios": "https://dc.lft.to/lastmile_qr_scan"}, "fusion_lon": 0.0, "lat": 38.900602666666664, "bike_id": "9ce74dedd3736e35371fc1e89b5aa09e", "type": "electric_scooter", "is_reserved": 0, "lon": -76.98556033333334}, {"fusion_lat": 0.0, "name": "84d86476c1b93078e5d463e3106e3777", "is_disabled": 0, "rental_uris": {"android": "https://dc.lft.to/lastmile_qr_scan", "ios": "https://dc.lft.to/lastmile_qr_scan"}, "fusion_lon": 0.0, "lat": 38.90731983333333, "bike_id": "84d86476c1b93078e5d463e3106e3777", "type": "electric_scooter", "is_reserved": 0, "lon": -77.02976666666666}, {"fusion_lat": 0.0, "name": "c02317145ee82ef2572858f84ff86c0f", "is_disabled": 0, "rental_uris": {"android": "https://dc.lft.to/lastmile_qr_scan", "ios": "https://dc.lft.to/lastmile_qr_scan"}, "fusion_lon": 0.0, "lat": 38.898438166666665, "bike_id": "c02317145ee82ef2572858f84ff86c0f", "type": "electric_scooter", "is_reserved": 0, "lon": -77.01335366666666}, {"fusion_lat": 0.0, "name": "721d8905453abb5c31ba7e72f716a8ca", "is_disabled": 0, "rental_uris": {"android": "https://dc.lft.to/lastmile_qr_scan", "ios": "https://dc.lft.to/lastmile_qr_scan"}, "fusion_lon": 0.0, "lat": 38.92416083333333, "bike_id": "721d8905453abb5c31ba7e72f716a8ca", "type": "electric_scooter", "is_reserved": 0, "lon": -76.99624183333333}, {"fusion_lat": 0.0, "name": "2bc626abbd09d5852fab751637f844bc", "is_disabled": 0, "rental_uris": {"android": "https://dc.lft.to/lastmile_qr_scan", "ios": "https://dc.lft.to/lastmile_qr_scan"}, "fusion_lon": 0.0, "lat": 38.887676, "bike_id": "2bc626abbd09d5852fab751637f844bc", "type": "electric_scooter", "is_reserved": 0, "lon": -77.03305783333333}, {"fusion_lat": 0.0, "name": "16f9e69acfba79f96c361f40828ce337", "is_disabled": 0, "rental_uris": {"android": "https://dc.lft.to/lastmile_qr_scan", "ios": "https://dc.lft.to/lastmile_qr_scan"}, "fusion_lon": 0.0, "lat": 38.93580866666667, "bike_id": "16f9e69acfba79f96c361f40828ce337", "type": "electric_scooter", "is_reserved": 0, "lon": -77.02845866666667}, {"fusion_lat": 0.0, "name": "483e1bdc1ecdb387d73fa84f1531e3af", "is_disabled": 0, "rental_uris": {"android": "https://dc.lft.to/lastmile_qr_scan", "ios": "https://dc.lft.to/lastmile_qr_scan"}, "fusion_lon": 0.0, "lat": 38.92514533333333, "bike_id": "483e1bdc1ecdb387d73fa84f1531e3af", "type": "electric_scooter", "is_reserved": 0, "lon": -77.0228785}, {"fusion_lat": 0.0, "name": "e7ffe3b23276f80ee37f06d888474ba7", "is_disabled": 0, "rental_uris": {"android": "https://dc.lft.to/lastmile_qr_scan", "ios": "https://dc.lft.to/lastmile_qr_scan"}, "fusion_lon": 0.0, "lat": 38.907717833333336, "bike_id": "e7ffe3b23276f80ee37f06d888474ba7", "type": "electric_scooter", "is_reserved": 0, "lon": -77.05601866666667}, {"fusion_lat": 0.0, "name": "93b570f964f27e773e42eb0e55638a5b", "is_disabled": 0, "rental_uris": {"android": "https://dc.lft.to/lastmile_qr_scan", "ios": "https://dc.lft.to/lastmile_qr_scan"}, "fusion_lon": 0.0, "lat": 38.85424016666666, "bike_id": "93b570f964f27e773e42eb0e55638a5b", "type": "electric_bike", "is_reserved": 0, "lon": -77.12077083333334}, {"fusion_lat": 0.0, "name": "d33e41b2840db630e80446f24cd92560", "is_disabled": 0, "rental_uris": {"android": "https://dc.lft.to/lastmile_qr_scan", "ios": "https://dc.lft.to/lastmile_qr_scan"}, "fusion_lon": 0.0, "lat": 38.95222783333333, "bike_id": "d33e41b2840db630e80446f24cd92560", "type": "electric_scooter", "is_reserved": 0, "lon": -77.082199}, {"fusion_lat": 0.0, "name": "52c9bd92dbb8be57c64aa9e1fd4a9711", "is_disabled": 0, "rental_uris": {"android": "https://dc.lft.to/lastmile_qr_scan", "ios": "https://dc.lft.to/lastmile_qr_scan"}, "fusion_lon": 0.0, "lat": 38.91996416666667, "bike_id": "52c9bd92dbb8be57c64aa9e1fd4a9711", "type": "electric_scooter", "is_reserved": 0, "lon": -77.0719675}, {"fusion_lat": 0.0, "name": "0bd46fff8934d29bbecf2041568713bd", "is_disabled": 0, "rental_uris": {"android": "https://dc.lft.to/lastmile_qr_scan", "ios": "https://dc.lft.to/lastmile_qr_scan"}, "fusion_lon": 0.0, "lat": 38.908653666666666, "bike_id": "0bd46fff8934d29bbecf2041568713bd", "type": "electric_scooter", "is_reserved": 0, "lon": -77.04494716666666}, {"fusion_lat": 0.0, "name": "9f93f257a009850f93f6f9fe50e6bf58", "is_disabled": 0, "rental_uris": {"android": "https://dc.lft.to/lastmile_qr_scan", "ios": "https://dc.lft.to/lastmile_qr_scan"}, "fusion_lon": 0.0, "lat": 38.900426833333334, "bike_id": "9f93f257a009850f93f6f9fe50e6bf58", "type": "electric_scooter", "is_reserved": 0, "lon": -77.03482433333333}, {"fusion_lat": 0.0, "name": "b869f4f3d1595d9680df4802670c546c", "is_disabled": 0, "rental_uris": {"android": "https://dc.lft.to/lastmile_qr_scan", "ios": "https://dc.lft.to/lastmile_qr_scan"}, "fusion_lon": 0.0, "lat": 38.92096883333333, "bike_id": "b869f4f3d1595d9680df4802670c546c", "type": "electric_scooter", "is_reserved": 0, "lon": -76.99462633333333}, {"fusion_lat": 0.0, "name": "7ffe67f9d50891797f67b0e34cd47e87", "is_disabled": 0, "rental_uris": {"android": "https://dc.lft.to/lastmile_qr_scan", "ios": "https://dc.lft.to/lastmile_qr_scan"}, "fusion_lon": 0.0, "lat": 38.98545683333333, "bike_id": "7ffe67f9d50891797f67b0e34cd47e87", "type": "electric_bike", "is_reserved": 0, "lon": -77.004063}, {"fusion_lat": 0.0, "name": "592c51b173b4afb765b09f5a0521366c", "is_disabled": 0, "rental_uris": {"android": "https://dc.lft.to/lastmile_qr_scan", "ios": "https://dc.lft.to/lastmile_qr_scan"}, "fusion_lon": 0.0, "lat": 38.8784865, "bike_id": "592c51b173b4afb765b09f5a0521366c", "type": "electric_bike", "is_reserved": 0, "lon": -77.0302405}, {"fusion_lat": 0.0, "name": "be0a80733ddd86405d1a5ad39b3d429b", "is_disabled": 0, "rental_uris": {"android": "https://dc.lft.to/lastmile_qr_scan", "ios": "https://dc.lft.to/lastmile_qr_scan"}, "fusion_lon": 0.0, "lat": 38.94294883333333, "bike_id": "be0a80733ddd86405d1a5ad39b3d429b", "type": "electric_scooter", "is_reserved": 0, "lon": -77.0217175}, {"fusion_lat": 0.0, "name": "1b0f5dc161f82764c949dce13dac7101", "is_disabled": 0, "rental_uris": {"android": "https://dc.lft.to/lastmile_qr_scan", "ios": "https://dc.lft.to/lastmile_qr_scan"}, "fusion_lon": 0.0, "lat": 38.882999833333336, "bike_id": "1b0f5dc161f82764c949dce13dac7101", "type": "electric_scooter", "is_reserved": 0, "lon": -76.94851766666666}, {"fusion_lat": 0.0, "name": "2a149ca628e58eb5915d962083d3e62f", "is_disabled": 0, "rental_uris": {"android": "https://dc.lft.to/lastmile_qr_scan", "ios": "https://dc.lft.to/lastmile_qr_scan"}, "fusion_lon": 0.0, "lat": 38.88427433333333, "bike_id": "2a149ca628e58eb5915d962083d3e62f", "type": "electric_scooter", "is_reserved": 0, "lon": -76.9575585}, {"fusion_lat": 0.0, "name": "039015e9ee8def750dc9b6eadffb9385", "is_disabled": 0, "rental_uris": {"android": "https://dc.lft.to/lastmile_qr_scan", "ios": "https://dc.lft.to/lastmile_qr_scan"}, "fusion_lon": 0.0, "lat": 38.90724066666667, "bike_id": "039015e9ee8def750dc9b6eadffb9385", "type": "electric_scooter", "is_reserved": 0, "lon": -77.0254435}, {"fusion_lat": 0.0, "name": "51e5e5ca580ae638dc5537ca117b774b", "is_disabled": 0, "rental_uris": {"android": "https://dc.lft.to/lastmile_qr_scan", "ios": "https://dc.lft.to/lastmile_qr_scan"}, "fusion_lon": 0.0, "lat": 38.88745883333333, "bike_id": "51e5e5ca580ae638dc5537ca117b774b", "type": "electric_scooter", "is_reserved": 0, "lon": -77.02364116666666}, {"fusion_lat": 0.0, "name": "863c7d4eb4abf0fa2e5fa7cbbbdea8f8", "is_disabled": 0, "rental_uris": {"android": "https://dc.lft.to/lastmile_qr_scan", "ios": "https://dc.lft.to/lastmile_qr_scan"}, "fusion_lon": 0.0, "lat": 38.926415166666665, "bike_id": "863c7d4eb4abf0fa2e5fa7cbbbdea8f8", "type": "electric_scooter", "is_reserved": 0, "lon": -77.0340385}, {"fusion_lat": 0.0, "name": "921c143c9b24e76de2993afa98dcacd4", "is_disabled": 0, "rental_uris": {"android": "https://dc.lft.to/lastmile_qr_scan", "ios": "https://dc.lft.to/lastmile_qr_scan"}, "fusion_lon": 0.0, "lat": 38.88634, "bike_id": "921c143c9b24e76de2993afa98dcacd4", "type": "electric_scooter", "is_reserved": 0, "lon": -76.92584916666667}, {"fusion_lat": 0.0, "name": "daf6ed3d1395714a490d6721b9c45329", "is_disabled": 0, "rental_uris": {"android": "https://dc.lft.to/lastmile_qr_scan", "ios": "https://dc.lft.to/lastmile_qr_scan"}, "fusion_lon": 0.0, "lat": 38.90189083333333, "bike_id": "daf6ed3d1395714a490d6721b9c45329", "type": "electric_scooter", "is_reserved": 0, "lon": -76.92903016666666}, {"fusion_lat": 0.0, "name": "de27e57590cd8ecc75b03c176597d251", "is_disabled": 0, "rental_uris": {"android": "https://dc.lft.to/lastmile_qr_scan", "ios": "https://dc.lft.to/lastmile_qr_scan"}, "fusion_lon": 0.0, "lat": 38.855127333333336, "bike_id": "de27e57590cd8ecc75b03c176597d251", "type": "electric_bike", "is_reserved": 0, "lon": -77.10537533333333}, {"fusion_lat": 0.0, "name": "0dd6e115f98c8c90fd79a659e0494fec", "is_disabled": 0, "rental_uris": {"android": "https://dc.lft.to/lastmile_qr_scan", "ios": "https://dc.lft.to/lastmile_qr_scan"}, "fusion_lon": 0.0, "lat": 38.8835205, "bike_id": "0dd6e115f98c8c90fd79a659e0494fec", "type": "electric_scooter", "is_reserved": 0, "lon": -76.99511183333334}, {"fusion_lat": 0.0, "name": "bea04732b983faa0a33579b444542ca7", "is_disabled": 0, "rental_uris": {"android": "https://dc.lft.to/lastmile_qr_scan", "ios": "https://dc.lft.to/lastmile_qr_scan"}, "fusion_lon": 0.0, "lat": 38.91968766666667, "bike_id": "bea04732b983faa0a33579b444542ca7", "type": "electric_scooter", "is_reserved": 0, "lon": -77.00111566666666}, {"fusion_lat": 0.0, "name": "4863d4aae2a26dbda77b487b5c7b6848", "is_disabled": 0, "rental_uris": {"android": "https://dc.lft.to/lastmile_qr_scan", "ios": "https://dc.lft.to/lastmile_qr_scan"}, "fusion_lon": 0.0, "lat": 38.9282755, "bike_id": "4863d4aae2a26dbda77b487b5c7b6848", "type": "electric_scooter", "is_reserved": 0, "lon": -77.05439233333334}, {"fusion_lat": 0.0, "name": "7088d1592381489809e82dab902007e3", "is_disabled": 0, "rental_uris": {"android": "https://dc.lft.to/lastmile_qr_scan", "ios": "https://dc.lft.to/lastmile_qr_scan"}, "fusion_lon": 0.0, "lat": 38.90569633333333, "bike_id": "7088d1592381489809e82dab902007e3", "type": "electric_scooter", "is_reserved": 0, "lon": -77.03058066666667}, {"fusion_lat": 0.0, "name": "a8b94d8db01921f21c445cbe7078fc6c", "is_disabled": 0, "rental_uris": {"android": "https://dc.lft.to/lastmile_qr_scan", "ios": "https://dc.lft.to/lastmile_qr_scan"}, "fusion_lon": 0.0, "lat": 38.903160166666666, "bike_id": "a8b94d8db01921f21c445cbe7078fc6c", "type": "electric_scooter", "is_reserved": 0, "lon": -76.9780005}, {"fusion_lat": 0.0, "name": "d0a960493a801b676d5907d3f4440b3f", "is_disabled": 0, "rental_uris": {"android": "https://dc.lft.to/lastmile_qr_scan", "ios": "https://dc.lft.to/lastmile_qr_scan"}, "fusion_lon": 0.0, "lat": 38.946302, "bike_id": "d0a960493a801b676d5907d3f4440b3f", "type": "electric_scooter", "is_reserved": 0, "lon": -77.032864}, {"fusion_lat": 0.0, "name": "17e4bd0928de055bc9c6d3b69bbbee33", "is_disabled": 0, "rental_uris": {"android": "https://dc.lft.to/lastmile_qr_scan", "ios": "https://dc.lft.to/lastmile_qr_scan"}, "fusion_lon": 0.0, "lat": 38.92049083333333, "bike_id": "17e4bd0928de055bc9c6d3b69bbbee33", "type": "electric_scooter", "is_reserved": 0, "lon": -77.00203866666666}, {"fusion_lat": 0.0, "name": "583d315d9362cca5a001eb8bd27cc9a4", "is_disabled": 0, "rental_uris": {"android": "https://dc.lft.to/lastmile_qr_scan", "ios": "https://dc.lft.to/lastmile_qr_scan"}, "fusion_lon": 0.0, "lat": 38.896365, "bike_id": "583d315d9362cca5a001eb8bd27cc9a4", "type": "electric_scooter", "is_reserved": 0, "lon": -77.01155183333333}, {"fusion_lat": 0.0, "name": "6a30f7ca24ba0dc92b1d673bb84e78d3", "is_disabled": 0, "rental_uris": {"android": "https://dc.lft.to/lastmile_qr_scan", "ios": "https://dc.lft.to/lastmile_qr_scan"}, "fusion_lon": 0.0, "lat": 38.888735, "bike_id": "6a30f7ca24ba0dc92b1d673bb84e78d3", "type": "electric_scooter", "is_reserved": 0, "lon": -76.98454766666667}, {"fusion_lat": 0.0, "name": "f2f5f5799af9ec265ce8331f740e4cae", "is_disabled": 0, "rental_uris": {"android": "https://dc.lft.to/lastmile_qr_scan", "ios": "https://dc.lft.to/lastmile_qr_scan"}, "fusion_lon": 0.0, "lat": 38.94911233333333, "bike_id": "f2f5f5799af9ec265ce8331f740e4cae", "type": "electric_bike", "is_reserved": 0, "lon": -77.03804066666666}, {"fusion_lat": 0.0, "name": "932f31046f06a5af31704141ff1eea1e", "is_disabled": 0, "rental_uris": {"android": "https://dc.lft.to/lastmile_qr_scan", "ios": "https://dc.lft.to/lastmile_qr_scan"}, "fusion_lon": 0.0, "lat": 38.921395, "bike_id": "932f31046f06a5af31704141ff1eea1e", "type": "electric_scooter", "is_reserved": 0, "lon": -77.02521016666667}, {"fusion_lat": 0.0, "name": "df66afe823ecf589db8d5bcd83aec980", "is_disabled": 0, "rental_uris": {"android": "https://dc.lft.to/lastmile_qr_scan", "ios": "https://dc.lft.to/lastmile_qr_scan"}, "fusion_lon": 0.0, "lat": 38.8925275, "bike_id": "df66afe823ecf589db8d5bcd83aec980", "type": "electric_scooter", "is_reserved": 0, "lon": -77.04655466666667}, {"fusion_lat": 0.0, "name": "a78f146207346b39a6406fc094002171", "is_disabled": 0, "rental_uris": {"android": "https://dc.lft.to/lastmile_qr_scan", "ios": "https://dc.lft.to/lastmile_qr_scan"}, "fusion_lon": 0.0, "lat": 38.926172666666666, "bike_id": "a78f146207346b39a6406fc094002171", "type": "electric_scooter", "is_reserved": 0, "lon": -77.03962216666666}, {"fusion_lat": 0.0, "name": "4675abb8e33b16fcb107886bc7d99b44", "is_disabled": 0, "rental_uris": {"android": "https://dc.lft.to/lastmile_qr_scan", "ios": "https://dc.lft.to/lastmile_qr_scan"}, "fusion_lon": 0.0, "lat": 38.898295833333336, "bike_id": "4675abb8e33b16fcb107886bc7d99b44", "type": "electric_scooter", "is_reserved": 0, "lon": -77.04651716666666}, {"fusion_lat": 0.0, "name": "c940231183fff23ce8c6540e1a6631ef", "is_disabled": 0, "rental_uris": {"android": "https://dc.lft.to/lastmile_qr_scan", "ios": "https://dc.lft.to/lastmile_qr_scan"}, "fusion_lon": 0.0, "lat": 38.856013833333336, "bike_id": "c940231183fff23ce8c6540e1a6631ef", "type": "electric_scooter", "is_reserved": 0, "lon": -76.97271666666667}, {"fusion_lat": 0.0, "name": "bd79e6e4be55e2bb22ca6ec43fd74e03", "is_disabled": 0, "rental_uris": {"android": "https://dc.lft.to/lastmile_qr_scan", "ios": "https://dc.lft.to/lastmile_qr_scan"}, "fusion_lon": 0.0, "lat": 38.91727, "bike_id": "bd79e6e4be55e2bb22ca6ec43fd74e03", "type": "electric_scooter", "is_reserved": 0, "lon": -77.02499683333333}, {"fusion_lat": 0.0, "name": "9769a724dba3c095250fe993b94e16cd", "is_disabled": 0, "rental_uris": {"android": "https://dc.lft.to/lastmile_qr_scan", "ios": "https://dc.lft.to/lastmile_qr_scan"}, "fusion_lon": 0.0, "lat": 38.926013166666664, "bike_id": "9769a724dba3c095250fe993b94e16cd", "type": "electric_scooter", "is_reserved": 0, "lon": -77.02593966666667}, {"fusion_lat": 0.0, "name": "6e6ca89548e28d495385d5f9b12dab0d", "is_disabled": 0, "rental_uris": {"android": "https://dc.lft.to/lastmile_qr_scan", "ios": "https://dc.lft.to/lastmile_qr_scan"}, "fusion_lon": 0.0, "lat": 38.936542833333334, "bike_id": "6e6ca89548e28d495385d5f9b12dab0d", "type": "electric_scooter", "is_reserved": 0, "lon": -77.036994}, {"fusion_lat": 0.0, "name": "e421e93eb16dd591dcc0d815f89df461", "is_disabled": 0, "rental_uris": {"android": "https://dc.lft.to/lastmile_qr_scan", "ios": "https://dc.lft.to/lastmile_qr_scan"}, "fusion_lon": 0.0, "lat": 38.8876295, "bike_id": "e421e93eb16dd591dcc0d815f89df461", "type": "electric_scooter", "is_reserved": 0, "lon": -76.99465216666667}, {"fusion_lat": 0.0, "name": "bf33d9132454e68bd8893b73c2ead1ed", "is_disabled": 0, "rental_uris": {"android": "https://dc.lft.to/lastmile_qr_scan", "ios": "https://dc.lft.to/lastmile_qr_scan"}, "fusion_lon": 0.0, "lat": 38.958356333333334, "bike_id": "bf33d9132454e68bd8893b73c2ead1ed", "type": "electric_bike", "is_reserved": 0, "lon": -77.01511216666667}, {"fusion_lat": 0.0, "name": "2d173cd7c2eee238691cb6ec632413b6", "is_disabled": 0, "rental_uris": {"android": "https://dc.lft.to/lastmile_qr_scan", "ios": "https://dc.lft.to/lastmile_qr_scan"}, "fusion_lon": 0.0, "lat": 38.953001666666665, "bike_id": "2d173cd7c2eee238691cb6ec632413b6", "type": "electric_scooter", "is_reserved": 0, "lon": -76.9990235}, {"fusion_lat": 0.0, "name": "fbba82d74a4d929579f18d1eada110bc", "is_disabled": 0, "rental_uris": {"android": "https://dc.lft.to/lastmile_qr_scan", "ios": "https://dc.lft.to/lastmile_qr_scan"}, "fusion_lon": 0.0, "lat": 38.92172733333334, "bike_id": "fbba82d74a4d929579f18d1eada110bc", "type": "electric_scooter", "is_reserved": 0, "lon": -77.036461}, {"fusion_lat": 0.0, "name": "4141a205a34513205bfbeb1807aa8485", "is_disabled": 0, "rental_uris": {"android": "https://dc.lft.to/lastmile_qr_scan", "ios": "https://dc.lft.to/lastmile_qr_scan"}, "fusion_lon": 0.0, "lat": 38.924531, "bike_id": "4141a205a34513205bfbeb1807aa8485", "type": "electric_scooter", "is_reserved": 0, "lon": -77.08034083333334}, {"fusion_lat": 0.0, "name": "3822f3be3fbedd5618e89ef88ee8e17a", "is_disabled": 0, "rental_uris": {"android": "https://dc.lft.to/lastmile_qr_scan", "ios": "https://dc.lft.to/lastmile_qr_scan"}, "fusion_lon": 0.0, "lat": 38.90677216666667, "bike_id": "3822f3be3fbedd5618e89ef88ee8e17a", "type": "electric_scooter", "is_reserved": 0, "lon": -77.04895816666667},