{"data": {"bikes": [{"bike_id": "e81de1fcc851a2a1b8b1ef2b52101c57", "is_reserved": 0, "fusion_lon": 0.0, "lat": 38.887200166666666, "is_disabled": 0, "name": "e81de1fcc851a2a1b8b1ef2b52101c57", "fusion_lat": 0.0, "rental_uris": {"ios": "https://dc.lft.to/lastmile_qr_scan", "android": "https://dc.lft.to/lastmile_qr_scan"}, "lon": -77.03225416666666, "type": "electric_scooter"}, {"bike_id": "20a465abd709de3e9f2ca9593edc06e4", "is_reserved": 0, "fusion_lon": 0.0, "lat": 38.866248166666665, "is_disabled": 0, "name": "20a465abd709de3e9f2ca9593edc06e4", "fusion_lat": 0.0, "rental_uris": {"ios": "https://dc.lft.to/lastmile_qr_scan", "android": "https://dc.lft.to/lastmile_qr_scan"}, "lon": -76.98713583333333, "type": "electric_scooter"}, {"bike_id": "773beeb634023ce3dfd188ebe2f18343", "is_reserved": 0, "fusion_lon": 0.0, "lat": 38.92667516666667, "is_disabled": 0, "name": "773beeb634023ce3dfd188ebe2f18343", "fusion_lat": 0.0, "rental_uris": {"ios": "https://dc.lft.to/lastmile_qr_scan", "android": "https://dc.lft.to/lastmile_qr_scan"}, "lon": -77.02834833333333, "type": "electric_scooter"}, {"bike_id": "55f5ae9ea2c3f4fd0854f217bc583766", "is_reserved": 0, "fusion_lon": 0.0, "lat": 38.89007616666667, "is_disabled": 0, "name": "55f5ae9ea2c3f4fd0854f217bc583766", "fusion_lat": 0.0, "rental_uris": {"ios": "https://dc.lft.to/lastmile_qr_scan", "android": "https://dc.lft.to/lastmile_qr_scan"}, "lon": -76.93744533333333, "type": "electric_scooter"}, {"bike_id": "bfffaa4dfb95fa154ab3ba139044b6eb", "is_reserved": 0, "fusion_lon": 0.0, "lat": 38.923494833333336, "is_disabled": 0, "name": "bfffaa4dfb95fa154ab3ba139044b6eb", "fusion_lat": 0.0, "rental_uris": {"ios": "https://dc.lft.to/lastmile_qr_scan", "android": "https://dc.lft.to/lastmile_qr_scan"}, "lon": -77.03499283333333, "type": "electric_scooter"}, {"bike_id": "0ce94c2d08996ee4d3b0a315ac24644b", "is_reserved": 0, "fusion_lon": 0.0, "lat": 38.88036533333333, "is_disabled": 0, "name": "0ce94c2d08996ee4d3b0a315ac24644b", "fusion_lat": 0.0, "rental_uris": {"ios": "https://dc.lft.to/lastmile_qr_scan", "android": "https://dc.lft.to/lastmile_qr_scan"}, "lon": -77.0251615, "type": "electric_scooter"}, {"bike_id": "a503c4641cc685670438ac7e4627a12c", "is_reserved": 0, "fusion_lon": 0.0, "lat": 38.89629016666667, "is_disabled": 0, "name": "a503c4641cc685670438ac7e4627a12c", "fusion_lat": 0.0, "rental_uris": {"ios": "https://dc.lft.to/lastmile_qr_scan", "android": "https://dc.lft.to/lastmile_qr_scan"}, "lon": -77.00897466666666, "type": "electric_scooter"}, {"bike_id": "96786fcb99cbf3c94588e12aa18952ea", "is_reserved": 0, "fusion_lon": 0.0, "lat": 38.885041, "is_disabled": 0, "name": "96786fcb99cbf3c94588e12aa18952ea", "fusion_lat": 0.0, "rental_uris": {"ios": "https://dc.lft.to/lastmile_qr_scan", "android": "https://dc.lft.to/lastmile_qr_scan"}, "lon": -77.0056915, "type": "electric_scooter"}, {"bike_id": "e09d3d831234a58e4eb127222d304a8c", "is_reserved": 0, "fusion_lon": 0.0, "lat": 38.8951905, "is_disabled": 0, "name": "e09d3d831234a58e4eb127222d304a8c", "fusion_lat": 0.0, "rental_uris": {"ios": "https://dc.lft.to/lastmile_qr_scan", "android": "https://dc.lft.to/lastmile_qr_scan"}, "lon": -77.0119795, "type": "electric_bike"}, {"bike_id": "1db07790cb38c68ab0aa245fd08cc426", "is_reserved": 0, "fusion_lon": 0.0, "lat": 38.89772816666667, "is_disabled": 0, "name": "1db07790cb38c68ab0aa245fd08cc426", "fusion_lat": 0.0, "rental_uris": {"ios": "https://dc.lft.to/lastmile_qr_scan", "android": "https://dc.lft.to/lastmile_qr_scan"}, "lon": -76.90437666666666, "type": "electric_bike"}, {"bike_id": "6a398ad339530a67e3a7603ebfe7936a", "is_reserved": 0, "fusion_lon": 0.0, "lat": 38.8672, "is_disabled": 0, "name": "6a398ad339530a67e3a7603ebfe7936a", "fusion_lat": 0.0, "rental_uris": {"ios": "https://dc.lft.to/lastmile_qr_scan", "android": "https://dc.lft.to/lastmile_qr_scan"}, "lon": -76.98786383333334, "type": "electric_scooter"}, {"bike_id": "47eaed389f6fa115cec2778aae01777b", "is_reserved": 0, "fusion_lon": 0.0, "lat": 38.95636533333333, "is_disabled": 0, "name": "47eaed389f6fa115cec2778aae01777b", "fusion_lat": 0.0, "rental_uris": {"ios": "https://dc.lft.to/lastmile_qr_scan", "android": "https://dc.lft.to/lastmile_qr_scan"}, "lon": -76.9388495, "type": "electric_bike"}, {"bike_id": "3d76374345e2296abf4b1c153f85a005", "is_reserved": 0, "fusion_lon": 0.0, "lat": 38.934416, "is_disabled": 0, "name": "3d76374345e2296abf4b1c153f85a005", "fusion_lat": 0.0, "rental_uris": {"ios": "https://dc.lft.to/lastmile_qr_scan", "android": "https://dc.lft.to/lastmile_qr_scan"}, "lon": -77.028386, "type": "electric_scooter"}, {"bike_id": "59427c7441d60f91d1494df2bafb5836", "is_reserved": 0, "fusion_lon": 0.0, "lat": 38.909618, "is_disabled": 0, "name": "59427c7441d60f91d1494df2bafb5836", "fusion_lat": 0.0, "rental_uris": {"ios": "https://dc.lft.to/lastmile_qr_scan", "android": "https://dc.lft.to/lastmile_qr_scan"}, "lon": -77.04461583333334, "type": "electric_scooter"}, {"bike_id": "9caa0ee1dfda4954d22ad07b05c22827", "is_reserved": 0, "fusion_lon": 0.0, "lat": 38.9183655, "is_disabled": 0, "name": "9caa0ee1dfda4954d22ad07b05c22827", "fusion_lat": 0.0, "rental_uris": {"ios": "https://dc.lft.to/lastmile_qr_scan", "android": "https://dc.lft.to/lastmile_qr_scan"}, "lon": -77.03897766666667, "type": "electric_scooter"}, {"bike_id": "598a10e939cf9fd14342f53095264231", "is_reserved": 0, "fusion_lon": 0.0, "lat": 38.897560666666664, "is_disabled": 0, "name": "598a10e939cf9fd14342f53095264231", "fusion_lat": 0.0, "rental_uris": {"ios": "https://dc.lft.to/lastmile_qr_scan", "android": "https://dc.lft.to/lastmile_qr_scan"}, "lon": -77.02703916666667, "type": "electric_scooter"}, {"bike_id": "ac7dec28db486120f0237d9b306caf81", "is_reserved": 0, "fusion_lon": 0.0, "lat": 38.871680833333336, "is_disabled": 0, "name": "ac7dec28db486120f0237d9b306caf81", "fusion_lat": 0.0, "rental_uris": {"ios": "https://dc.lft.to/lastmile_qr_scan", "android": "https://dc.lft.to/lastmile_qr_scan"}, "lon": -77.00629733333334, "type": "electric_scooter"}, {"bike_id": "7c2a2ac370f0a5e1a30c2d431cf59294", "is_reserved": 0, "fusion_lon": 0.0, "lat": 38.91711, "is_disabled": 0, "name": "7c2a2ac370f0a5e1a30c2d431cf59294", "fusion_lat": 0.0, "rental_uris": {"ios": "https://dc.lft.to/lastmile_qr_scan", "android": "https://dc.lft.to/lastmile_qr_scan"}, "lon": -77.02291266666667, "type": "electric_scooter"}, {"bike_id": "27a2f750c8672c47e592ba2e87ff0b36", "is_reserved": 0, "fusion_lon": 0.0, "lat": 38.95908983333333, "is_disabled": 0, "name": "27a2f750c8672c47e592ba2e87ff0b36", "fusion_lat": 0.0, "rental_uris": {"ios": "https://dc.lft.to/lastmile_qr_scan", "android": "https://dc.lft.to/lastmile_qr_scan"}, "lon": -77.08079466666666, "type": "electric_scooter"}, {"bike_id": "9ea5e07f4ad23881d7ca59c27fc7dd2d", "is_reserved": 0, "fusion_lon": 0.0, "lat": 38.8626175, "is_disabled": 0, "name": "9ea5e07f4ad23881d7ca59c27fc7dd2d", "fusion_lat": 0.0, "rental_uris": {"ios": "https://dc.lft.to/lastmile_qr_scan", "android": "https://dc.lft.to/lastmile_qr_scan"}, "lon": -76.98148116666667, "type": "electric_scooter"}, {"bike_id": "238fbcf4e526eab32abcc0dfeb5f7757", "is_reserved": 0, "fusion_lon": 0.0, "lat": 38.902011333333334, "is_disabled": 0, "name": "238fbcf4e526eab32abcc0dfeb5f7757", "fusion_lat": 0.0, "rental_uris": {"ios": "https://dc.lft.to/lastmile_qr_scan", "android": "https://dc.lft.to/lastmile_qr_scan"}, "lon": -77.02174983333333, "type": "electric_scooter"}, {"bike_id": "210eb0c63da8e41ade60781923b12d18", "is_reserved": 0, "fusion_lon": 0.0, "lat": 38.918045, "is_disabled": 0, "name": "210eb0c63da8e41ade60781923b12d18", "fusion_lat": 0.0, "rental_uris": {"ios": "https://dc.lft.to/lastmile_qr_scan", "android": "https://dc.lft.to/lastmile_qr_scan"}, "lon": -77.03440933333333, "type": "electric_scooter"}, {"bike_id": "c6c4eb8b3579bc2963c9838c7496c76d", "is_reserved": 0, "fusion_lon": 0.0, "lat": 38.9717105, "is_disabled": 0, "name": "c6c4eb8b3579bc2963c9838c7496c76d", "fusion_lat": 0.0, "rental_uris": {"ios": "https://dc.lft.to/lastmile_qr_scan", "android": "https://dc.lft.to/lastmile_qr_scan"}, "lon": -77.02697133333334, "type": "electric_scooter"}, {"bike_id": "dfcf10aba0c3489ad4d23f2183fa909c", "is_reserved": 0, "fusion_lon": 0.0, "lat": 38.93401466666667, "is_disabled": 0, "name": "dfcf10aba0c3489ad4d23f2183fa909c", "fusion_lat": 0.0, "rental_uris": {"ios": "https://dc.lft.to/lastmile_qr_scan", "android": "https://dc.lft.to/lastmile_qr_scan"}, "lon": -77.03890416666667, "type": "electric_scooter"}, {"bike_id": "e75a7aaa4a62490301f334a53c00a1d3", "is_reserved": 0, "fusion_lon": 0.0, "lat": 38.883285, "is_disabled": 0, "name": "e75a7aaa4a62490301f334a53c00a1d3", "fusion_lat": 0.0, "rental_uris": {"ios": "https://dc.lft.to/lastmile_qr_scan", "android": "https://dc.lft.to/lastmile_qr_scan"}, "lon": -77.00519816666667, "type": "electric_scooter"}, {"bike_id": "90582444c782b1eb8671a5a22c0dcba3", "is_reserved": 0, "fusion_lon": 0.0, "lat": 38.92965, "is_disabled": 0, "name": "90582444c782b1eb8671a5a22c0dcba3", "fusion_lat": 0.0, "rental_uris": {"ios": "https://dc.lft.to/lastmile_qr_scan", "android": "https://dc.lft.to/lastmile_qr_scan"}, "lon": -77.054987, "type": "electric_scooter"}, {"bike_id": "b8e6889929885d5cdb115cbd115a7c7a", "is_reserved": 0, "fusion_lon": 0.0, "lat": 38.884894, "is_disabled": 0, "name": "b8e6889929885d5cdb115cbd115a7c7a", "fusion_lat": 0.0, "rental_uris": {"ios": "https://dc.lft.to/lastmile_qr_scan", "android": "https://dc.lft.to/lastmile_qr_scan"}, "lon": -77.00731683333333, "type": "electric_scooter"}, {"bike_id": "7bc33cd34dca351c5e73f0e95aca7829", "is_reserved": 0, "fusion_lon": 0.0, "lat": 38.903743, "is_disabled": 0, "name": "7bc33cd34dca351c5e73f0e95aca7829", "fusion_lat": 0.0, "rental_uris": {"ios": "https://dc.lft.to/lastmile_qr_scan", "android": "https://dc.lft.to/lastmile_qr_scan"}, "lon": -77.031837, "type": "electric_scooter"}, {"bike_id": "6596bdffe38b845c4d7cf57377b8fd7c", "is_reserved": 0, "fusion_lon": 0.0, "lat": 38.93089466666667, "is_disabled": 0, "name": "6596bdffe38b845c4d7cf57377b8fd7c", "fusion_lat": 0.0, "rental_uris": {"ios": "https://dc.lft.to/lastmile_qr_scan", "android": "https://dc.lft.to/lastmile_qr_scan"}, "lon": -77.02663683333333, "type": "electric_scooter"}, {"bike_id": "0baeb94a268b77bda980b7a5e880b5e6", "is_reserved": 0, "fusion_lon": 0.0, "lat": 38.92475233333333, "is_disabled": 0, "name": "0baeb94a268b77bda980b7a5e880b5e6", "fusion_lat": 0.0, "rental_uris": {"ios": "https://dc.lft.to/lastmile_qr_scan", "android": "https://dc.lft.to/lastmile_qr_scan"}, "lon": -77.02653416666666, "type": "electric_scooter"}, {"bike_id": "dfd394d81f0cab18cfffee2cec3bd1e8", "is_reserved": 0, "fusion_lon": 0.0, "lat": 38.885140666666665, "is_disabled": 0, "name": "dfd394d81f0cab18cfffee2cec3bd1e8", "fusion_lat": 0.0, "rental_uris": {"ios": "https://dc.lft.to/lastmile_qr_scan", "android": "https://dc.lft.to/lastmile_qr_scan"}, "lon": -77.0056925, "type": "electric_scooter"}, {"bike_id": "8f1de49d41057ef5450b14d5c97b9537", "is_reserved": 0, "fusion_lon": 0.0, "lat": 38.934325333333334, "is_disabled": 0, "name": "8f1de49d41057ef5450b14d5c97b9537", "fusion_lat": 0.0, "rental_uris": {"ios": "https://dc.lft.to/lastmile_qr_scan", "android": "https://dc.lft.to/lastmile_qr_scan"}, "lon": -77.04004766666667, "type": "electric_scooter"}, {"bike_id": "64b21af594698378621de4b92a839acb", "is_reserved": 0, "fusion_lon": 0.0, "lat": 38.91385233333333, "is_disabled": 0, "name": "64b21af594698378621de4b92a839acb", "fusion_lat": 0.0, "rental_uris": {"ios": "https://dc.lft.to/lastmile_qr_scan", "android": "https://dc.lft.to/lastmile_qr_scan"}, "lon": -77.01698833333333, "type": "electric_scooter"}, {"bike_id": "4e5f9573fa1dde9ce110717905236890", "is_reserved": 0, "fusion_lon": 0.0, "lat": 38.8899695, "is_disabled": 0, "name": "4e5f9573fa1dde9ce110717905236890", "fusion_lat": 0.0, "rental_uris": {"ios": "https://dc.lft.to/lastmile_qr_scan", "android": "https://dc.lft.to/lastmile_qr_scan"}, "lon": -76.93841066666667, "type": "electric_scooter"}, {"bike_id": "a7c5dc7fbd2d3205e63a549a88e371dd", "is_reserved": 0, "fusion_lon": 0.0, "lat": 38.90470966666667, "is_disabled": 0, "name": "a7c5dc7fbd2d3205e63a549a88e371dd", "fusion_lat": 0.0, "rental_uris": {"ios": "https://dc.lft.to/lastmile_qr_scan", "android": "https://dc.lft.to/lastmile_qr_scan"}, "lon": -77.04043133333333, "type": "electric_scooter"}, {"bike_id": "065230cd60bbb56767d02e9749c55171", "is_reserved": 0, "fusion_lon": 0.0, "lat": 38.937104166666664, "is_disabled": 0, "name": "065230cd60bbb56767d02e9749c55171", "fusion_lat": 0.0, "rental_uris": {"ios": "https://dc.lft.to/lastmile_qr_scan", "android": "https://dc.lft.to/lastmile_qr_scan"}, "lon": -77.02934016666667, "type": "electric_scooter"}, {"bike_id": "c16638b58a246dae6f5840b27d7b4219", "is_reserved": 0, "fusion_lon": 0.0, "lat": 38.90578266666667, "is_disabled": 0, "name": "c16638b58a246dae6f5840b27d7b4219", "fusion_lat": 0.0, "rental_uris": {"ios": "https://dc.lft.to/lastmile_qr_scan", "android": "https://dc.lft.to/lastmile_qr_scan"}, "lon": -77.05091183333333, "type": "electric_scooter"}, {"bike_id": "cfccc9b1d41ae02ac0df79bcbc5eeee6", "is_reserved": 0, "fusion_lon": 0.0, "lat": 38.902400166666666, "is_disabled": 0, "name": "cfccc9b1d41ae02ac0df79bcbc5eeee6", "fusion_lat": 0.0, "rental_uris": {"ios": "https://dc.lft.to/lastmile_qr_scan", "android": "https://dc.lft.to/lastmile_qr_scan"}, "lon": -77.00719833333333, "type": "electric_scooter"}, {"bike_id": "0e1a4223c9d64b68fd2c38ea4088d875", "is_reserved": 0, "fusion_lon": 0.0, "lat": 38.90133616666667, "is_disabled": 0, "name": "0e1a4223c9d64b68fd2c38ea4088d875", "fusion_lat": 0.0, "rental_uris": {"ios": "https://dc.lft.to/lastmile_qr_scan", "android": "https://dc.lft.to/lastmile_qr_scan"}, "lon": -77.033248, "type": "electric_scooter"}, {"bike_id": "c1a37538ba2ef2dceb42f3d43461f900", "is_reserved": 0, "fusion_lon": 0.0, "lat": 38.92818883333333, "is_disabled": 0, "name": "c1a37538ba2ef2dceb42f3d43461f900", "fusion_lat": 0.0, "rental_uris": {"ios": "https://dc.lft.to/lastmile_qr_scan", "android": "https://dc.lft.to/lastmile_qr_scan"}, "lon": -77.01374083333333, "type": "electric_scooter"}, {"bike_id": "98f52f97fd97d8791b5b696fea17d9d4", "is_reserved": 0, "fusion_lon": 0.0, "lat": 38.93969166666667, "is_disabled": 0, "name": "98f52f97fd97d8791b5b696fea17d9d4", "fusion_lat": 0.0, "rental_uris": {"ios": "https://dc.lft.to/lastmile_qr_scan", "android": "https://dc.lft.to/lastmile_qr_scan"}, "lon": -77.0326235, "type": "electric_scooter"}, {"bike_id": "153634cd505ffad4616725954e2792ba", "is_reserved": 0, "fusion_lon": 0.0, "lat": 38.837267833333335, "is_disabled": 0, "name": "153634cd505ffad4616725954e2792ba", "fusion_lat": 0.0, "rental_uris": {"ios": "https://dc.lft.to/lastmile_qr_scan", "android": "https://dc.lft.to/lastmile_qr_scan"}, "lon": -76.9975645, "type": "electric_bike"}, {"bike_id": "b5d18e58ba8ff5982edd4c4d62062bfb", "is_reserved": 0, "fusion_lon": 0.0, "lat": 38.88495566666667, "is_disabled": 0, "name": "b5d18e58ba8ff5982edd4c4d62062bfb", "fusion_lat": 0.0, "rental_uris": {"ios": "https://dc.lft.to/lastmile_qr_scan", "android": "https://dc.lft.to/lastmile_qr_scan"}, "lon": -77.00343716666667, "type": "electric_scooter"}, {"bike_id": "2b59fe6e97a0973e191bee1fac57c2c6", "is_reserved": 0, "fusion_lon": 0.0, "lat": 38.950752666666666, "is_disabled": 0, "name": "2b59fe6e97a0973e191bee1fac57c2c6", "fusion_lat": 0.0, "rental_uris": {"ios": "https://dc.lft.to/lastmile_qr_scan", "android": "https://dc.lft.to/lastmile_qr_scan"}, "lon": -77.01230533333333, "type": "electric_bike"}, {"bike_id": "d0e150cec7cebc2cec330550d2b737ac", "is_reserved": 0, "fusion_lon": 0.0, "lat": 38.855182666666664, "is_disabled": 0, "name": "d0e150cec7cebc2cec330550d2b737ac", "fusion_lat": 0.0, "rental_uris": {"ios": "https://dc.lft.to/lastmile_qr_scan", "android": "https://dc.lft.to/lastmile_qr_scan"}, "lon": -76.98434266666666, "type": "electric_bike"}, {"bike_id": "ad13cec7db623d6c091b284dd82aa7b1", "is_reserved": 0, "fusion_lon": 0.0, "lat": 38.93606466666667, "is_disabled": 0, "name": "ad13cec7db623d6c091b284dd82aa7b1", "fusion_lat": 0.0, "rental_uris": {"ios": "https://dc.lft.to/lastmile_qr_scan", "android": "https://dc.lft.to/lastmile_qr_scan"}, "lon": -77.05863116666667, "type": "electric_scooter"}, {"bike_id": "45e3cbe9374f58a8e2de8f9c72fe62cf", "is_reserved": 0, "fusion_lon": 0.0, "lat": 38.90083216666667, "is_disabled": 0, "name": "45e3cbe9374f58a8e2de8f9c72fe62cf", "fusion_lat": 0.0, "rental_uris": {"ios": "https://dc.lft.to/lastmile_qr_scan", "android": "https://dc.lft.to/lastmile_qr_scan"}, "lon": -77.04875016666666, "type": "electric_scooter"}, {"bike_id": "a0d61071f5649bceaf4d91c8a9f5dd45", "is_reserved": 0, "fusion_lon": 0.0, "lat": 38.8840745, "is_disabled": 0, "name": "a0d61071f5649bceaf4d91c8a9f5dd45", "fusion_lat": 0.0, "rental_uris": {"ios": "https://dc.lft.to/lastmile_qr_scan", "android": "https://dc.lft.to/lastmile_qr_scan"}, "lon": -77.01521766666667, "type": "electric_scooter"}, {"bike_id": "ce3aefa3c88b859b8b839a2e2ed02b5a", "is_reserved": 0, "fusion_lon": 0.0, "lat": 38.910275666666664, "is_disabled": 0, "name": "ce3aefa3c88b859b8b839a2e2ed02b5a", "fusion_lat": 0.0, "rental_uris": {"ios": "https://dc.lft.to/lastmile_qr_scan", "android": "https://dc.lft.to/lastmile_qr_scan"}, "lon": -77.04400116666666, "type": "electric_scooter"}, {"bike_id": "4ed90d96ee71453e02d54aeb1e38dea4", "is_reserved": 0, "fusion_lon": 0.0, "lat": 38.902579, "is_disabled": 0, "name": "4ed90d96ee71453e02d54aeb1e38dea4", "fusion_lat": 0.0, "rental_uris": {"ios": "https://dc.lft.to/lastmile_qr_scan", "android": "https://dc.lft.to/lastmile_qr_scan"}, "lon": -77.02643316666666, "type": "electric_scooter"}, {"bike_id": "c6a55bf6088f6398a73f345f8df3c58c", "is_reserved": 0, "fusion_lon": 0.0, "lat": 38.89216066666667, "is_disabled": 0, "name": "c6a55bf6088f6398a73f345f8df3c58c", "fusion_lat": 0.0, "rental_uris": {"ios": "https://dc.lft.to/lastmile_qr_scan", "android": "https://dc.lft.to/lastmile_qr_scan"}, "lon": -77.0261855, "type": "electric_scooter"}, {"bike_id": "d01069392a461278bbd4845f26a8f548", "is_reserved": 0, "fusion_lon": 0.0, "lat": 38.828726833333334, "is_disabled": 0, "name": "d01069392a461278bbd4845f26a8f548", "fusion_lat": 0.0, "rental_uris": {"ios": "https://dc.lft.to/lastmile_qr_scan", "android": "https://dc.lft.to/lastmile_qr_scan"}, "lon": -77.11218466666666, "type": "electric_bike"}, {"bike_id": "f8cfe8c61e44e613e20edd4a30f09499", "is_reserved": 0, "fusion_lon": 0.0, "lat": 38.907898833333334, "is_disabled": 0, "name": "f8cfe8c61e44e613e20edd4a30f09499", "fusion_lat": 0.0, "rental_uris": {"ios": "https://dc.lft.to/lastmile_qr_scan", "android": "https://dc.lft.to/lastmile_qr_scan"}, "lon": -76.99704616666666, "type": "electric_scooter"}, {"bike_id": "b7f8b3a6e2c6e574ce953643468d0c87", "is_reserved": 0, "fusion_lon": 0.0, "lat": 38.9168775, "is_disabled": 0, "name": "b7f8b3a6e2c6e574ce953643468d0c87", "fusion_lat": 0.0, "rental_uris": {"ios": "https://dc.lft.to/lastmile_qr_scan", "android": "https://dc.lft.to/lastmile_qr_scan"}, "lon": -77.0364245, "type": "electric_scooter"}, {"bike_id": "39dd2d8e0aed55be03a9b2b095dc1a58", "is_reserved": 0, "fusion_lon": 0.0, "lat": 38.990735, "is_disabled": 0, "name": "39dd2d8e0aed55be03a9b2b095dc1a58", "fusion_lat": 0.0, "rental_uris": {"ios": "https://dc.lft.to/lastmile_qr_scan", "android": "https://dc.lft.to/lastmile_qr_scan"}, "lon": -76.87470683333333, "type": "electric_bike"}, {"bike_id": "9adb4b985b3f5b69d3dd916ab9548155", "is_reserved": 0, "fusion_lon": 0.0, "lat": 38.91041033333333, "is_disabled": 0, "name": "9adb4b985b3f5b69d3dd916ab9548155", "fusion_lat": 0.0, "rental_uris": {"ios": "https://dc.lft.to/lastmile_qr_scan", "android": "https://dc.lft.to/lastmile_qr_scan"}, "lon": -77.04265483333333, "type": "electric_scooter"}, {"bike_id": "d4181d4b9d0cf1f30db7e233385e0300", "is_reserved": 0, "fusion_lon": 0.0, "lat": 38.9055765, "is_disabled": 0, "name": "d4181d4b9d0cf1f30db7e233385e0300", "fusion_lat": 0.0, "rental_uris": {"ios": "https://dc.lft.to/lastmile_qr_scan", "android": "https://dc.lft.to/lastmile_qr_scan"}, "lon": -77.03971216666666, "type": "electric_scooter"}, {"bike_id": "70ecdc72fc5c4160f631bb0cac1a855c", "is_reserved": 0, "fusion_lon": 0.0, "lat": 38.925005666666664, "is_disabled": 0, "name": "70ecdc72fc5c4160f631bb0cac1a855c", "fusion_lat": 0.0, "rental_uris": {"ios": "https://dc.lft.to/lastmile_qr_scan", "android": "https://dc.lft.to/lastmile_qr_scan"}, "lon": -77.00894383333333, "type": "electric_scooter"}, {"bike_id": "1a9b09a83701233293c09cad6695a878", "is_reserved": 0, "fusion_lon": 0.0, "lat": 38.90775683333333, "is_disabled": 0, "name": "1a9b09a83701233293c09cad6695a878", "fusion_lat": 0.0, "rental_uris": {"ios": "https://dc.lft.to/lastmile_qr_scan", "android": "https://dc.lft.to/lastmile_qr_scan"}, "lon": -77.03829866666666, "type": "electric_scooter"}, {"bike_id": "b16129f178ae546c913aa5c32db8a433", "is_reserved": 0, "fusion_lon": 0.0, "lat": 38.88517916666667, "is_disabled": 0, "name": "b16129f178ae546c913aa5c32db8a433", "fusion_lat": 0.0, "rental_uris": {"ios": "https://dc.lft.to/lastmile_qr_scan", "android": "https://dc.lft.to/lastmile_qr_scan"}, "lon": -76.9978675, "type": "electric_bike"}, {"bike_id": "b91efd6016df36e32e0b0b6e0fc1934b", "is_reserved": 0, "fusion_lon": 0.0, "lat": 38.89877216666667, "is_disabled": 0, "name": "b91efd6016df36e32e0b0b6e0fc1934b", "fusion_lat": 0.0, "rental_uris": {"ios": "https://dc.lft.to/lastmile_qr_scan", "android": "https://dc.lft.to/lastmile_qr_scan"}, "lon": -76.93162366666667, "type": "electric_scooter"}, {"bike_id": "1fba53d0913506ca31a94474c389cc33", "is_reserved": 0, "fusion_lon": 0.0, "lat": 38.8952725, "is_disabled": 0, "name": "1fba53d0913506ca31a94474c389cc33", "fusion_lat": 0.0, "rental_uris": {"ios": "https://dc.lft.to/lastmile_qr_scan", "android": "https://dc.lft.to/lastmile_qr_scan"}, "lon": -76.94887283333334, "type": "electric_scooter"}, {"bike_id": "9a1856f4a0bd772d887fc914cd78b6c3", "is_reserved": 0, "fusion_lon": 0.0, "lat": 38.934272, "is_disabled": 0, "name": "9a1856f4a0bd772d887fc914cd78b6c3", "fusion_lat": 0.0, "rental_uris": {"ios": "https://dc.lft.to/lastmile_qr_scan", "android": "https://dc.lft.to/lastmile_qr_scan"}, "lon": -77.03447633333333, "type": "electric_scooter"}, {"bike_id": "e56763ba7148f2df8c742ad74bd420fa", "is_reserved": 0, "fusion_lon": 0.0, "lat": 38.899545833333335, "is_disabled": 0, "name": "e56763ba7148f2df8c742ad74bd420fa", "fusion_lat": 0.0, "rental_uris": {"ios": "https://dc.lft.to/lastmile_qr_scan", "android": "https://dc.lft.to/lastmile_qr_scan"}, "lon": -77.03363416666667, "type": "electric_scooter"}, {"bike_id": "3c19d5dc7f15e837b1054d6365aef498", "is_reserved": 0, "fusion_lon": 0.0, "lat": 38.94437416666667, "is_disabled": 0, "name": "3c19d5dc7f15e837b1054d6365aef498", "fusion_lat": 0.0, "rental_uris": {"ios": "https://dc.lft.to/lastmile_qr_scan", "android": "https://dc.lft.to/lastmile_qr_scan"}, "lon": -77.0635265, "type": "electric_scooter"}, {"bike_id": "e0fe2b952a381375b76e4b0a47ee7baf", "is_reserved": 0, "fusion_lon": 0.0, "lat": 38.90531416666666, "is_disabled": 0, "name": "e0fe2b952a381375b76e4b0a47ee7baf", "fusion_lat": 0.0, "rental_uris": {"ios": "https://dc.lft.to/lastmile_qr_scan", "android": "https://dc.lft.to/lastmile_qr_scan"}, "lon": -77.0434995, "type": "electric_scooter"}, {"bike_id": "b3d9343100dc8ef51fde6d6565e7fdac", "is_reserved": 0, "fusion_lon": 0.0, "lat": 38.961723666666664, "is_disabled": 0, "name": "b3d9343100dc8ef51fde6d6565e7fdac", "fusion_lat": 0.0, "rental_uris": {"ios": "https://dc.lft.to/lastmile_qr_scan", "android": "https://dc.lft.to/lastmile_qr_scan"}, "lon": -76.995903, "type": "electric_bike"}, {"bike_id": "acef09e68a464abadcfae918fb45b8b0", "is_reserved": 0, "fusion_lon": 0.0, "lat": 38.92055933333333, "is_disabled": 0, "name": "acef09e68a464abadcfae918fb45b8b0", "fusion_lat": 0.0, "rental_uris": {"ios": "https://dc.lft.to/lastmile_qr_scan", "android": "https://dc.lft.to/lastmile_qr_scan"}, "lon": -76.977999, "type": "electric_scooter"}, {"bike_id": "9baf3bb4f3cdf2e61410916e818db8a3", "is_reserved": 0, "fusion_lon": 0.0, "lat": 38.905869, "is_disabled": 0, "name": "9baf3bb4f3cdf2e61410916e818db8a3", "fusion_lat": 0.0, "rental_uris": {"ios": "https://dc.lft.to/lastmile_qr_scan", "android": "https://dc.lft.to/lastmile_qr_scan"}, "lon": -77.065206, "type": "electric_scooter"}, {"bike_id": "ac68a2553a075a03ec0273cea433b46f", "is_reserved": 0, "fusion_lon": 0.0, "lat": 38.91867383333334, "is_disabled": 0, "name": "ac68a2553a075a03ec0273cea433b46f", "fusion_lat": 0.0, "rental_uris": {"ios": "https://dc.lft.to/lastmile_qr_scan", "android": "https://dc.lft.to/lastmile_qr_scan"}, "lon": -77.04175916666667, "type": "electric_scooter"}, {"bike_id": "251e345019b16eac02dce0b62059da5d", "is_reserved": 0, "fusion_lon": 0.0, "lat": 38.923380333333334, "is_disabled": 0, "name": "251e345019b16eac02dce0b62059da5d", "fusion_lat": 0.0, "rental_uris": {"ios": "https://dc.lft.to/lastmile_qr_scan", "android": "https://dc.lft.to/lastmile_qr_scan"}, "lon": -77.01902816666667, "type": "electric_scooter"}, {"bike_id": "8a9c5d0a8cf6d64072170224a1e0ac2a", "is_reserved": 0, "fusion_lon": 0.0, "lat": 38.905921166666666, "is_disabled": 0, "name": "8a9c5d0a8cf6d64072170224a1e0ac2a", "fusion_lat": 0.0, "rental_uris": {"ios": "https://dc.lft.to/lastmile_qr_scan", "android": "https://dc.lft.to/lastmile_qr_scan"}, "lon": -77.04675183333333, "type": "electric_scooter"}, {"bike_id": "e4f7127fc2042e937f40d1e8e5104071", "is_reserved": 0, "fusion_lon": 0.0, "lat": 38.89661366666667, "is_disabled": 0, "name": "e4f7127fc2042e937f40d1e8e5104071", "fusion_lat": 0.0, "rental_uris": {"ios": "https://dc.lft.to/lastmile_qr_scan", "android": "https://dc.lft.to/lastmile_qr_scan"}, "lon": -77.02967533333333, "type": "electric_scooter"}, {"bike_id": "1e9c356d6fafa156e15a82dbc4bf4966", "is_reserved": 0, "fusion_lon": 0.0, "lat": 38.93406816666667, "is_disabled": 0, "name": "1e9c356d6fafa156e15a82dbc4bf4966", "fusion_lat": 0.0, "rental_uris": {"ios": "https://dc.lft.to/lastmile_qr_scan", "android": "https://dc.lft.to/lastmile_qr_scan"}, "lon": -77.02728766666667, "type": "electric_scooter"}, {"bike_id": "ac3a16ae2744333fa409aff8f177f987", "is_reserved": 0, "fusion_lon": 0.0, "lat": 38.90513166666667, "is_disabled": 0, "name": "ac3a16ae2744333fa409aff8f177f987", "fusion_lat": 0.0, "rental_uris": {"ios": "https://dc.lft.to/lastmile_qr_scan", "android": "https://dc.lft.to/lastmile_qr_scan"}, "lon": -77.063871, "type": "electric_scooter"}, {"bike_id": "2eec53d51c2e90305ba86f68c5799517", "is_reserved": 0, "fusion_lon": 0.0, "lat": 38.89768433333333, "is_disabled": 0, "name": "2eec53d51c2e90305ba86f68c5799517", "fusion_lat": 0.0, "rental_uris": {"ios": "https://dc.lft.to/lastmile_qr_scan", "android": "https://dc.lft.to/lastmile_qr_scan"}, "lon": -77.03184166666666, "type": "electric_scooter"}, {"bike_id": "659b874ac85da8d198576f7778e66810", "is_reserved": 0, "fusion_lon": 0.0, "lat": 38.9170065, "is_disabled": 0, "name": "659b874ac85da8d198576f7778e66810", "fusion_lat": 0.0, "rental_uris": {"ios": "https://dc.lft.to/lastmile_qr_scan", "android": "https://dc.lft.to/lastmile_qr_scan"}, "lon": -77.03334483333333, "type": "electric_scooter"}, {"bike_id": "f5cdf716fa6a8cc59deb2d03b59b4918", "is_reserved": 0, "fusion_lon": 0.0, "lat": 38.9101275, "is_disabled": 0, "name": "f5cdf716fa6a8cc59deb2d03b59b4918", "fusion_lat": 0.0, "rental_uris": {"ios": "https://dc.lft.to/lastmile_qr_scan", "android": "https://dc.lft.to/lastmile_qr_scan"}, "lon": -76.993883, "type": "electric_scooter"}, {"bike_id": "234d8cb8a53b76c2071de3b5cdc6cc52", "is_reserved": 0, "fusion_lon": 0.0, "lat": 38.89913383333333, "is_disabled": 0, "name": "234d8cb8a53b76c2071de3b5cdc6cc52", "fusion_lat": 0.0, "rental_uris": {"ios": "https://dc.lft.to/lastmile_qr_scan", "android": "https://dc.lft.to/lastmile_qr_scan"}, "lon": -77.04074833333334, "type": "electric_scooter"}, {"bike_id": "8293da4ff5edecc32b7eed29e54c25fe", "is_reserved": 0, "fusion_lon": 0.0, "lat": 38.9236255, "is_disabled": 0, "name": "8293da4ff5edecc32b7eed29e54c25fe", "fusion_lat": 0.0, "rental_uris": {"ios": "https://dc.lft.to/lastmile_qr_scan", "android": "https://dc.lft.to/lastmile_qr_scan"}, "lon": -77.0512825, "type": "electric_scooter"}, {"bike_id": "c27962fa72daf2172a9dfeb1e79ba509", "is_reserved": 0, "fusion_lon": 0.0, "lat": 38.902776333333335, "is_disabled": 0, "name": "c27962fa72daf2172a9dfeb1e79ba509", "fusion_lat": 0.0, "rental_uris": {"ios": "https://dc.lft.to/lastmile_qr_scan", "android": "https://dc.lft.to/lastmile_qr_scan"}, "lon": -77.0306965, "type": "electric_scooter"}, {"bike_id": "732ad07fd4ecb735c75f961e14e1d4b1", "is_reserved": 0, "fusion_lon": 0.0, "lat": 38.895550666666665, "is_disabled": 0, "name": "732ad07fd4ecb735c75f961e14e1d4b1", "fusion_lat": 0.0, "rental_uris": {"ios": "https://dc.lft.to/lastmile_qr_scan", "android": "https://dc.lft.to/lastmile_qr_scan"}, "lon": -77.0415925, "type": "electric_scooter"}, {"bike_id": "2be2628ec44ba2657fdd643af2a6f213", "is_reserved": 0, "fusion_lon": 0.0, "lat": 38.923588333333335, "is_disabled": 0, "name": "2be2628ec44ba2657fdd643af2a6f213", "fusion_lat": 0.0, "rental_uris": {"ios": "https://dc.lft.to/lastmile_qr_scan", "android": "https://dc.lft.to/lastmile_qr_scan"}, "lon": -77.05029416666666, "type": "electric_scooter"}, {"bike_id": "e5450eeb59ead20e6ddd3ceda25d3507", "is_reserved": 0, "fusion_lon": 0.0, "lat": 38.827274833333334, "is_disabled": 0, "name": "e5450eeb59ead20e6ddd3ceda25d3507", "fusion_lat": 0.0, "rental_uris": {"ios": "https://dc.lft.to/lastmile_qr_scan", "android": "https://dc.lft.to/lastmile_qr_scan"}, "lon": -77.00866533333334, "type": "electric_bike"}, {"bike_id": "dc56d2067781ec0aeda0857f36ac7fa8", "is_reserved": 0, "fusion_lon": 0.0, "lat": 38.895560333333336, "is_disabled": 0, "name": "dc56d2067781ec0aeda0857f36ac7fa8", "fusion_lat": 0.0, "rental_uris": {"ios": "https://dc.lft.to/lastmile_qr_scan", "android": "https://dc.lft.to/lastmile_qr_scan"}, "lon": -76.93381766666667, "type": "electric_scooter"}, {"bike_id": "b0234c3a58c31981c60879f267dedc59", "is_reserved": 0, "fusion_lon": 0.0, "lat": 38.928002166666666, "is_disabled": 0, "name": "b0234c3a58c31981c60879f267dedc59", "fusion_lat": 0.0, "rental_uris": {"ios": "https://dc.lft.to/lastmile_qr_scan", "android": "https://dc.lft.to/lastmile_qr_scan"}, "lon": -77.05359616666667, "type": "electric_scooter"}, {"bike_id": "13e214a572d650909cae37754c20677b", "is_reserved": 0, "fusion_lon": 0.0, "lat": 38.905653666666666, "is_disabled": 0, "name": "13e214a572d650909cae37754c20677b", "fusion_lat": 0.0, "rental_uris": {"ios": "https://dc.lft.to/lastmile_qr_scan", "android": "https://dc.lft.to/lastmile_qr_scan"}, "lon": -77.03440666666667, "type": "electric_scooter"}, {"bike_id": "c1cef352c1e693df5987f34135e77be5", "is_reserved": 0, "fusion_lon": 0.0, "lat": 38.880203, "is_disabled": 0, "name": "c1cef352c1e693df5987f34135e77be5", "fusion_lat": 0.0, "rental_uris": {"ios": "https://dc.lft.to/lastmile_qr_scan", "android": "https://dc.lft.to/lastmile_qr_scan"}, "lon": -76.931312, "type": "electric_scooter"}, {"bike_id": "75c267cfb1d83f552a337248c1900e99", "is_reserved": 0, "fusion_lon": 0.0, "lat": 38.89225883333334, "is_disabled": 0, "name": "75c267cfb1d83f552a337248c1900e99", "fusion_lat": 0.0, "rental_uris": {"ios": "https://dc.lft.to/lastmile_qr_scan", "android": "https://dc.lft.to/lastmile_qr_scan"}, "lon": -77.02207266666667, "type": "electric_scooter"}, {"bike_id": "e5303d739b6bbe791078eb131ee279e0", "is_reserved": 0, "fusion_lon": 0.0, "lat": 38.884587333333336, "is_disabled": 0, "name": "e5303d739b6bbe791078eb131ee279e0", "fusion_lat": 0.0, "rental_uris": {"ios": "https://dc.lft.to/lastmile_qr_scan", "android": "https://dc.lft.to/lastmile_qr_scan"}, "lon": -77.02366866666667, "type": "electric_scooter"}, {"bike_id": "a7746b6a2e811c127a0bcbfd617e733b", "is_reserved": 0, "fusion_lon": 0.0, "lat": 38.901205166666664, "is_disabled": 0, "name": "a7746b6a2e811c127a0bcbfd617e733b", "fusion_lat": 0.0, "rental_uris": {"ios": "https://dc.lft.to/lastmile_qr_scan", "android": "https://dc.lft.to/lastmile_qr_scan"}, "lon": -77.0434695, "type": "electric_scooter"}, {"bike_id": "8c96c33bf09e33ed97fa4af7b1514fa1", "is_reserved": 0, "fusion_lon": 0.0, "lat": 38.897051833333336, "is_disabled": 0, "name": "8c96c33bf09e33ed97fa4af7b1514fa1", "fusion_lat": 0.0, "rental_uris": {"ios": "https://dc.lft.to/lastmile_qr_scan", "android": "https://dc.lft.to/lastmile_qr_scan"}, "lon": -76.9176805, "type": "electric_scooter"}, {"bike_id": "a4e8facee0e4ae140aa7c2c7db8d80b0", "is_reserved": 0, "fusion_lon": 0.0, "lat": 38.9057675, "is_disabled": 0, "name": "a4e8facee0e4ae140aa7c2c7db8d80b0", "fusion_lat": 0.0, "rental_uris": {"ios": "https://dc.lft.to/lastmile_qr_scan", "android": "https://dc.lft.to/lastmile_qr_scan"}, "lon": -77.032584, "type": "electric_scooter"}, {"bike_id": "a803c292c1ae30d6dff3397b2e1718bc", "is_reserved": 0, "fusion_lon": 0.0, "lat": 38.871055166666665, "is_disabled": 0, "name": "a803c292c1ae30d6dff3397b2e1718bc", "fusion_lat": 0.0, "rental_uris": {"ios": "https://dc.lft.to/lastmile_qr_scan", "android": "https://dc.lft.to/lastmile_qr_scan"}, "lon": -77.0075815, "type": "electric_scooter"}, {"bike_id": "f4bd50b04482bdc1d9e6bc349c085a81", "is_reserved": 0, "fusion_lon": 0.0, "lat": 38.924109, "is_disabled": 0, "name": "f4bd50b04482bdc1d9e6bc349c085a81", "fusion_lat": 0.0, "rental_uris": {"ios": "https://dc.lft.to/lastmile_qr_scan", "android": "https://dc.lft.to/lastmile_qr_scan"}, "lon": -77.0194905, "type": "electric_scooter"}, {"bike_id": "20eeb8663973d000efcd204b99db0074", "is_reserved": 0, "fusion_lon": 0.0, "lat": 38.9050655, "is_disabled": 0, "name": "20eeb8663973d000efcd204b99db0074", "fusion_lat": 0.0, "rental_uris": {"ios": "https://dc.lft.to/lastmile_qr_scan", "android": "https://dc.lft.to/lastmile_qr_scan"}, "lon": -77.04363516666666, "type": "electric_scooter"}, {"bike_id": "b79f29cbe5d31c526a7813d3e67a9ddd", "is_reserved": 0, "fusion_lon": 0.0, "lat": 38.9044195, "is_disabled": 0, "name": "b79f29cbe5d31c526a7813d3e67a9ddd", "fusion_lat": 0.0, "rental_uris": {"ios": "https://dc.lft.to/lastmile_qr_scan", "android": "https://dc.lft.to/lastmile_qr_scan"}, "lon": -77.06125233333333, "type": "electric_scooter"}, {"bike_id": "fadb1dcec1f331c089239250394aebc7", "is_reserved": 0, "fusion_lon": 0.0, "lat": 38.908721666666665, "is_disabled": 0, "name": "fadb1dcec1f331c089239250394aebc7", "fusion_lat": 0.0, "rental_uris": {"ios": "https://dc.lft.to/lastmile_qr_scan", "android": "https://dc.lft.to/lastmile_qr_scan"}, "lon": -77.03291433333334, "type": "electric_scooter"}, {"bike_id": "f499752cb265e59344dd2d0d6b8c38d8", "is_reserved": 0, "fusion_lon": 0.0, "lat": 38.84573316666667, "is_disabled": 0, "name": "f499752cb265e59344dd2d0d6b8c38d8", "fusion_lat": 0.0, "rental_uris": {"ios": "https://dc.lft.to/lastmile_qr_scan", "android": "https://dc.lft.to/lastmile_qr_scan"}, "lon": -77.09625066666666, "type": "electric_bike"}, {"bike_id": "9d41eb600259add6ac90520ca94418ee", "is_reserved": 0, "fusion_lon": 0.0, "lat": 38.86368183333333, "is_disabled": 0, "name": "9d41eb600259add6ac90520ca94418ee", "fusion_lat": 0.0, "rental_uris": {"ios": "https://dc.lft.to/lastmile_qr_scan", "android": "https://dc.lft.to/lastmile_qr_scan"}, "lon": -77.01360883333334, "type": "electric_scooter"}, {"bike_id": "194e9c978de317587700229ee80686e3", "is_reserved": 0, "fusion_lon": 0.0, "lat": 38.926834666666664, "is_disabled": 0, "name": "194e9c978de317587700229ee80686e3", "fusion_lat": 0.0, "rental_uris": {"ios": "https://dc.lft.to/lastmile_qr_scan", "android": "https://dc.lft.to/lastmile_qr_scan"}, "lon": -77.015709, "type": "electric_scooter"}, {"bike_id": "87ef94e85e74e9bdb85823b379fe57cf", "is_reserved": 0, "fusion_lon": 0.0, "lat": 38.9126635, "is_disabled": 0, "name": "87ef94e85e74e9bdb85823b379fe57cf", "fusion_lat": 0.0, "rental_uris": {"ios": "https://dc.lft.to/lastmile_qr_scan", "android": "https://dc.lft.to/lastmile_qr_scan"}, "lon": -77.03874433333333, "type": "electric_scooter"}, {"bike_id": "a0534fdda82d2cc1b4fd90195ea8d3e3", "is_reserved": 0, "fusion_lon": 0.0, "lat": 38.905221833333336, "is_disabled": 0, "name": "a0534fdda82d2cc1b4fd90195ea8d3e3", "fusion_lat": 0.0, "rental_uris": {"ios": "https://dc.lft.to/lastmile_qr_scan", "android": "https://dc.lft.to/lastmile_qr_scan"}, "lon": -77.06534083333334, "type": "electric_scooter"}, {"bike_id": "d99fa2bc7751b93c94eee791e19670bc", "is_reserved": 0, "fusion_lon": 0.0, "lat": 38.8922225, "is_disabled": 0, "name": "d99fa2bc7751b93c94eee791e19670bc", "fusion_lat": 0.0, "rental_uris": {"ios": "https://dc.lft.to/lastmile_qr_scan", "android": "https://dc.lft.to/lastmile_qr_scan"}, "lon": -77.03339216666667, "type": "electric_scooter"}, {"bike_id": "ba529bb01b8886bc74d6773633347f1d", "is_reserved": 0, "fusion_lon": 0.0, "lat": 38.900842, "is_disabled": 0, "name": "ba529bb01b8886bc74d6773633347f1d", "fusion_lat": 0.0, "rental_uris": {"ios": "https://dc.lft.to/lastmile_qr_scan", "android": "https://dc.lft.to/lastmile_qr_scan"}, "lon": -77.05022733333334, "type": "electric_scooter"}, {"bike_id": "918a0625fa65794e89158b746bbf904c", "is_reserved": 0, "fusion_lon": 0.0, "lat": 38.92167883333333, "is_disabled": 0, "name": "918a0625fa65794e89158b746bbf904c", "fusion_lat": 0.0, "rental_uris": {"ios": "https://dc.lft.to/lastmile_qr_scan", "android": "https://dc.lft.to/lastmile_qr_scan"}, "lon": -77.04684433333334, "type": "electric_scooter"}, {"bike_id": "06be7576fde1de26677fd469e6b2937a", "is_reserved": 0, "fusion_lon": 0.0, "lat": 38.929381166666666, "is_disabled": 0, "name": "06be7576fde1de26677fd469e6b2937a", "fusion_lat": 0.0, "rental_uris": {"ios": "https://dc.lft.to/lastmile_qr_scan", "android": "https://dc.lft.to/lastmile_qr_scan"}, "lon": -77.03279516666667, "type": "electric_scooter"}, {"bike_id": "b701f09c8aecd243dc4003a38124fe69", "is_reserved": 0, "fusion_lon": 0.0, "lat": 38.92639833333333, "is_disabled": 0, "name": "b701f09c8aecd243dc4003a38124fe69", "fusion_lat": 0.0, "rental_uris": {"ios": "https://dc.lft.to/lastmile_qr_scan", "android": "https://dc.lft.to/lastmile_qr_scan"}, "lon": -77.02838883333334, "type": "electric_bike"}, {"bike_id": "28b87aa63b5ff66165dea100575450db", "is_reserved": 0, "fusion_lon": 0.0, "lat": 38.921607, "is_disabled": 0, "name": "28b87aa63b5ff66165dea100575450db", "fusion_lat": 0.0, "rental_uris": {"ios": "https://dc.lft.to/lastmile_qr_scan", "android": "https://dc.lft.to/lastmile_qr_scan"}, "lon": -77.03228683333333, "type": "electric_scooter"}, {"bike_id": "959953a1cbdabfaa3a2b057483c31f1c", "is_reserved": 0, "fusion_lon": 0.0, "lat": 38.923664333333335, "is_disabled": 0, "name": "959953a1cbdabfaa3a2b057483c31f1c", "fusion_lat": 0.0, "rental_uris": {"ios": "https://dc.lft.to/lastmile_qr_scan", "android": "https://dc.lft.to/lastmile_qr_scan"}, "lon": -77.019152, "type": "electric_scooter"}, {"bike_id": "73698812b036fad8a2dcd2bbff10cfbe", "is_reserved": 0, "fusion_lon": 0.0, "lat": 38.92984, "is_disabled": 0, "name": "73698812b036fad8a2dcd2bbff10cfbe", "fusion_lat": 0.0, "rental_uris": {"ios": "https://dc.lft.to/lastmile_qr_scan", "android": "https://dc.lft.to/lastmile_qr_scan"}, "lon": -77.07945483333333, "type": "electric_scooter"}, {"bike_id": "37063bfd43e137b5ff56862facc5e6f0", "is_reserved": 0, "fusion_lon": 0.0, "lat": 38.92209283333333, "is_disabled": 0, "name": "37063bfd43e137b5ff56862facc5e6f0", "fusion_lat": 0.0, "rental_uris": {"ios": "https://dc.lft.to/lastmile_qr_scan", "android": "https://dc.lft.to/lastmile_qr_scan"}, "lon": -77.03669533333333, "type": "electric_scooter"}, {"bike_id": "02b600348ec28ab933b1dbd69ee79402", "is_reserved": 0, "fusion_lon": 0.0, "lat": 38.901229666666666, "is_disabled": 0, "name": "02b600348ec28ab933b1dbd69ee79402", "fusion_lat": 0.0, "rental_uris": {"ios": "https://dc.lft.to/lastmile_qr_scan", "android": "https://dc.lft.to/lastmile_qr_scan"}, "lon": -77.04342883333334, "type": "electric_scooter"}, {"bike_id": "8377c1fa2a3d113e34b298df9d46ee5a", "is_reserved": 0, "fusion_lon": 0.0, "lat": 38.926086833333336, "is_disabled": 0, "name": "8377c1fa2a3d113e34b298df9d46ee5a", "fusion_lat": 0.0, "rental_uris": {"ios": "https://dc.lft.to/lastmile_qr_scan", "android": "https://dc.lft.to/lastmile_qr_scan"}, "lon": -77.021622, "type": "electric_scooter"}, {"bike_id": "95f64e393cb347417f16d8ab1ab08982", "is_reserved": 0, "fusion_lon": 0.0, "lat": 38.86447016666666, "is_disabled": 0, "name": "95f64e393cb347417f16d8ab1ab08982", "fusion_lat": 0.0, "rental_uris": {"ios": "https://dc.lft.to/lastmile_qr_scan", "android": "https://dc.lft.to/lastmile_qr_scan"}, "lon": -76.94542166666666, "type": "electric_bike"}, {"bike_id": "a8876abb05549de7f757e4dc2d624bf6", "is_reserved": 0, "fusion_lon": 0.0, "lat": 38.91635683333333, "is_disabled": 0, "name": "a8876abb05549de7f757e4dc2d624bf6", "fusion_lat": 0.0, "rental_uris": {"ios": "https://dc.lft.to/lastmile_qr_scan", "android": "https://dc.lft.to/lastmile_qr_scan"}, "lon": -77.04622533333334, "type": "electric_scooter"}, {"bike_id": "d2a59960d07af3f09ad850226226c3e8", "is_reserved": 0, "fusion_lon": 0.0, "lat": 38.921679833333336, "is_disabled": 0, "name": "d2a59960d07af3f09ad850226226c3e8", "fusion_lat": 0.0, "rental_uris": {"ios": "https://dc.lft.to/lastmile_qr_scan", "android": "https://dc.lft.to/lastmile_qr_scan"}, "lon": -76.99402116666667, "type": "electric_scooter"}, {"bike_id": "c779fa91ce753b9e3b9ff0dc9aa9fffb", "is_reserved": 0, "fusion_lon": 0.0, "lat": 38.87480083333333, "is_disabled": 0, "name": "c779fa91ce753b9e3b9ff0dc9aa9fffb", "fusion_lat": 0.0, "rental_uris": {"ios": "https://dc.lft.to/lastmile_qr_scan", "android": "https://dc.lft.to/lastmile_qr_scan"}, "lon": -76.96535983333334, "type": "electric_bike"}, {"bike_id": "7f1871a4491a53fa259c298c57879ada", "is_reserved": 0, "fusion_lon": 0.0, "lat": 38.929391833333334, "is_disabled": 0, "name": "7f1871a4491a53fa259c298c57879ada", "fusion_lat": 0.0, "rental_uris": {"ios": "https://dc.lft.to/lastmile_qr_scan", "android": "https://dc.lft.to/lastmile_qr_scan"}, "lon": -77.023187, "type": "electric_scooter"}, {"bike_id": "e0990255fa77a660c5b19f197a0388f8", "is_reserved": 0, "fusion_lon": 0.0, "lat": 38.898165, "is_disabled": 0, "name": "e0990255fa77a660c5b19f197a0388f8", "fusion_lat": 0.0, "rental_uris": {"ios": "https://dc.lft.to/lastmile_qr_scan", "android": "https://dc.lft.to/lastmile_qr_scan"}, "lon": -77.032772, "type": "electric_scooter"}, {"bike_id": "8c2aaf65f5caee166213dd0e7fbea975", "is_reserved": 0, "fusion_lon": 0.0, "lat": 38.90512733333333, "is_disabled": 0, "name": "8c2aaf65f5caee166213dd0e7fbea975", "fusion_lat": 0.0, "rental_uris": {"ios": "https://dc.lft.to/lastmile_qr_scan", "android": "https://dc.lft.to/lastmile_qr_scan"}, "lon": -77.06038766666667, "type": "electric_bike"}, {"bike_id": "2503b362432d1e11fae35e212928ad49", "is_reserved": 0, "fusion_lon": 0.0, "lat": 38.91402333333333, "is_disabled": 0, "name": "2503b362432d1e11fae35e212928ad49", "fusion_lat": 0.0, "rental_uris": {"ios": "https://dc.lft.to/lastmile_qr_scan", "android": "https://dc.lft.to/lastmile_qr_scan"}, "lon": -77.028341, "type": "electric_scooter"}, {"bike_id": "fec3edfb6e6fa8035742c606eceb3919", "is_reserved": 0, "fusion_lon": 0.0, "lat": 38.86533766666667, "is_disabled": 0, "name": "fec3edfb6e6fa8035742c606eceb3919", "fusion_lat": 0.0, "rental_uris": {"ios": "https://dc.lft.to/lastmile_qr_scan", "android": "https://dc.lft.to/lastmile_qr_scan"}, "lon": -76.98704966666666, "type": "electric_scooter"}, {"bike_id": "2fe2014bf4c88d22519abe761c5ca20b", "is_reserved": 0, "fusion_lon": 0.0, "lat": 38.88702633333333, "is_disabled": 0, "name": "2fe2014bf4c88d22519abe761c5ca20b", "fusion_lat": 0.0, "rental_uris": {"ios": "https://dc.lft.to/lastmile_qr_scan", "android": "https://dc.lft.to/lastmile_qr_scan"}, "lon": -77.01367116666667, "type": "electric_scooter"}, {"bike_id": "0f3e2be3da2a5b9332ff8804a0b41b93", "is_reserved": 0, "fusion_lon": 0.0, "lat": 38.89219, "is_disabled": 0, "name": "0f3e2be3da2a5b9332ff8804a0b41b93", "fusion_lat": 0.0, "rental_uris": {"ios": "https://dc.lft.to/lastmile_qr_scan", "android": "https://dc.lft.to/lastmile_qr_scan"}, "lon": -77.03163933333333, "type": "electric_scooter"}, {"bike_id": "a08e27301576661dd9f9ed71441aab7a", "is_reserved": 0, "fusion_lon": 0.0, "lat": 38.90725, "is_disabled": 0, "name": "a08e27301576661dd9f9ed71441aab7a", "fusion_lat": 0.0, "rental_uris": {"ios": "https://dc.lft.to/lastmile_qr_scan", "android": "https://dc.lft.to/lastmile_qr_scan"}, "lon": -77.04233833333333, "type": "electric_scooter"}, {"bike_id": "049a73a76704e1cfeffa5eb4c6835fbf", "is_reserved": 0, "fusion_lon": 0.0, "lat": 38.9224585, "is_disabled": 0, "name": "049a73a76704e1cfeffa5eb4c6835fbf", "fusion_lat": 0.0, "rental_uris": {"ios": "https://dc.lft.to/lastmile_qr_scan", "android": "https://dc.lft.to/lastmile_qr_scan"}, "lon": -77.018251, "type": "electric_scooter"}, {"bike_id": "b439e8d695e6df406b07bcecbaf92648", "is_reserved": 0, "fusion_lon": 0.0, "lat": 38.920872833333334, "is_disabled": 0, "name": "b439e8d695e6df406b07bcecbaf92648", "fusion_lat": 0.0, "rental_uris": {"ios": "https://dc.lft.to/lastmile_qr_scan", "android": "https://dc.lft.to/lastmile_qr_scan"}, "lon": -77.03162116666667, "type": "electric_scooter"}, {"bike_id": "95a7fec4fde5aa1b1634df30ff2922d7", "is_reserved": 0, "fusion_lon": 0.0, "lat": 38.9308915, "is_disabled": 0, "name": "95a7fec4fde5aa1b1634df30ff2922d7", "fusion_lat": 0.0, "rental_uris": {"ios": "https://dc.lft.to/lastmile_qr_scan", "android": "https://dc.lft.to/lastmile_qr_scan"}, "lon": -77.02506116666666, "type": "electric_scooter"}, {"bike_id": "6bf937b651c93a12445aa8f26b63fd60", "is_reserved": 0, "fusion_lon": 0.0, "lat": 38.8900965, "is_disabled": 0, "name": "6bf937b651c93a12445aa8f26b63fd60", "fusion_lat": 0.0, "rental_uris": {"ios": "https://dc.lft.to/lastmile_qr_scan", "android": "https://dc.lft.to/lastmile_qr_scan"}, "lon": -76.93747866666666, "type": "electric_scooter"}, {"bike_id": "7d9e868ffa0319158c4f3c01a413dfd8", "is_reserved": 0, "fusion_lon": 0.0, "lat": 38.905806, "is_disabled": 0, "name": "7d9e868ffa0319158c4f3c01a413dfd8", "fusion_lat": 0.0, "rental_uris": {"ios": "https://dc.lft.to/lastmile_qr_scan", "android": "https://dc.lft.to/lastmile_qr_scan"}, "lon": -77.00269166666666, "type": "electric_scooter"}, {"bike_id": "4816a5f29e46108a6b61b09e48130c4f", "is_reserved": 0, "fusion_lon": 0.0, "lat": 38.900272666666666, "is_disabled": 0, "name": "4816a5f29e46108a6b61b09e48130c4f", "fusion_lat": 0.0, "rental_uris": {"ios": "https://dc.lft.to/lastmile_qr_scan", "android": "https://dc.lft.to/lastmile_qr_scan"}, "lon": -77.046787, "type": "electric_scooter"}, {"bike_id": "37234ae92ee1b3a8d170f33955c4187e", "is_reserved": 0, "fusion_lon": 0.0, "lat": 38.92364933333333, "is_disabled": 0, "name": "37234ae92ee1b3a8d170f33955c4187e", "fusion_lat": 0.0, "rental_uris": {"ios": "https://dc.lft.to/lastmile_qr_scan", "android": "https://dc.lft.to/lastmile_qr_scan"}, "lon": -77.05029983333333, "type": "electric_scooter"}, {"bike_id": "2883a4949f88141df7659861b8e4594a", "is_reserved": 0, "fusion_lon": 0.0, "lat": 38.9041925, "is_disabled": 0, "name": "2883a4949f88141df7659861b8e4594a", "fusion_lat": 0.0, "rental_uris": {"ios": "https://dc.lft.to/lastmile_qr_scan", "android": "https://dc.lft.to/lastmile_qr_scan"}, "lon": -77.04355933333333, "type": "electric_scooter"}, {"bike_id": "a5ce915574b55bd3c702e6d32f59b08e", "is_reserved": 0, "fusion_lon": 0.0, "lat": 38.89471483333333, "is_disabled": 0, "name": "a5ce915574b55bd3c702e6d32f59b08e", "fusion_lat": 0.0, "rental_uris": {"ios": "https://dc.lft.to/lastmile_qr_scan", "android": "https://dc.lft.to/lastmile_qr_scan"}, "lon": -77.021759, "type": "electric_scooter"}, {"bike_id": "7d355e9e3971d385817027089d615807", "is_reserved": 0, "fusion_lon": 0.0, "lat": 38.914131833333336, "is_disabled": 0, "name": "7d355e9e3971d385817027089d615807", "fusion_lat": 0.0, "rental_uris": {"ios": "https://dc.lft.to/lastmile_qr_scan", "android": "https://dc.lft.to/lastmile_qr_scan"}, "lon": -77.02831783333333, "type": "electric_scooter"}, {"bike_id": "a946fb07f33c5d1bcb048fd30a627e82", "is_reserved": 0, "fusion_lon": 0.0, "lat": 38.86657566666667, "is_disabled": 0, "name": "a946fb07f33c5d1bcb048fd30a627e82", "fusion_lat": 0.0, "rental_uris": {"ios": "https://dc.lft.to/lastmile_qr_scan", "android": "https://dc.lft.to/lastmile_qr_scan"}, "lon": -76.98879133333334, "type": "electric_scooter"}, {"bike_id": "01fab9d1b7fe0958d9c6de5ed9996588", "is_reserved": 0, "fusion_lon": 0.0, "lat": 38.95732733333333, "is_disabled": 0, "name": "01fab9d1b7fe0958d9c6de5ed9996588", "fusion_lat": 0.0, "rental_uris": {"ios": "https://dc.lft.to/lastmile_qr_scan", "android": "https://dc.lft.to/lastmile_qr_scan"}, "lon": -77.024041, "type": "electric_scooter"}, {"bike_id": "185df93fe25745bc542ba071459ad242", "is_reserved": 0, "fusion_lon": 0.0, "lat": 38.89347083333333, "is_disabled": 0, "name": "185df93fe25745bc542ba071459ad242", "fusion_lat": 0.0, "rental_uris": {"ios": "https://dc.lft.to/lastmile_qr_scan", "android": "https://dc.lft.to/lastmile_qr_scan"}, "lon": -77.00204266666667, "type": "electric_scooter"}, {"bike_id": "7e6e5905c9ae8eb3010e83e74579486a", "is_reserved": 0, "fusion_lon": 0.0, "lat": 38.865660166666665, "is_disabled": 0, "name": "7e6e5905c9ae8eb3010e83e74579486a", "fusion_lat": 0.0, "rental_uris": {"ios": "https://dc.lft.to/lastmile_qr_scan", "android": "https://dc.lft.to/lastmile_qr_scan"}, "lon": -76.98945983333333, "type": "electric_scooter"}, {"bike_id": "a1650c2ece0f4ccbf8ae96cfd5e17fe1", "is_reserved": 0, "fusion_lon": 0.0, "lat": 38.9032435, "is_disabled": 0, "name": "a1650c2ece0f4ccbf8ae96cfd5e17fe1", "fusion_lat": 0.0, "rental_uris": {"ios": "https://dc.lft.to/lastmile_qr_scan", "android": "https://dc.lft.to/lastmile_qr_scan"}, "lon": -77.0384275, "type": "electric_scooter"}, {"bike_id": "9d4a94c34f0ad6cd285bad675d119d60", "is_reserved": 0, "fusion_lon": 0.0, "lat": 38.90260633333333, "is_disabled": 0, "name": "9d4a94c34f0ad6cd285bad675d119d60", "fusion_lat": 0.0, "rental_uris": {"ios": "https://dc.lft.to/lastmile_qr_scan", "android": "https://dc.lft.to/lastmile_qr_scan"}, "lon": -77.04601316666667, "type": "electric_scooter"}, {"bike_id": "20c0c7aecf35b6baadb17ec10673cb59", "is_reserved": 0, "fusion_lon": 0.0, "lat": 38.894728, "is_disabled": 0, "name": "20c0c7aecf35b6baadb17ec10673cb59", "fusion_lat": 0.0, "rental_uris": {"ios": "https://dc.lft.to/lastmile_qr_scan", "android": "https://dc.lft.to/lastmile_qr_scan"}, "lon": -76.984024, "type": "electric_scooter"}, {"bike_id": "0834e9cc3e859793963c7483a8759387", "is_reserved": 0, "fusion_lon": 0.0, "lat": 38.87912016666667, "is_disabled": 0, "name": "0834e9cc3e859793963c7483a8759387", "fusion_lat": 0.0, "rental_uris": {"ios": "https://dc.lft.to/lastmile_qr_scan", "android": "https://dc.lft.to/lastmile_qr_scan"}, "lon": -77.0070995, "type": "electric_scooter"}, {"bike_id": "ad4b99fc98c0d5a761c3465c1d64bc6a", "is_reserved": 0, "fusion_lon": 0.0, "lat": 38.90052033333333, "is_disabled": 0, "name": "ad4b99fc98c0d5a761c3465c1d64bc6a", "fusion_lat": 0.0, "rental_uris": {"ios": "https://dc.lft.to/lastmile_qr_scan", "android": "https://dc.lft.to/lastmile_qr_scan"}, "lon": -77.0501625, "type": "electric_scooter"}, {"bike_id": "a4b2a49577fb4a50a6a7cca31c0f96ff", "is_reserved": 0, "fusion_lon": 0.0, "lat": 38.89615666666667, "is_disabled": 0, "name": "a4b2a49577fb4a50a6a7cca31c0f96ff", "fusion_lat": 0.0, "rental_uris": {"ios": "https://dc.lft.to/lastmile_qr_scan", "android": "https://dc.lft.to/lastmile_qr_scan"}, "lon": -76.9812185, "type": "electric_scooter"}, {"bike_id": "5dc473e3993a31fce96344cc563675d7", "is_reserved": 0, "fusion_lon": 0.0, "lat": 38.85154033333333, "is_disabled": 0, "name": "5dc473e3993a31fce96344cc563675d7", "fusion_lat": 0.0, "rental_uris": {"ios": "https://dc.lft.to/lastmile_qr_scan", "android": "https://dc.lft.to/lastmile_qr_scan"}, "lon": -77.12878716666667, "type": "electric_bike"}, {"bike_id": "c6390d1a9e7db0e2316a723b78ea6fea", "is_reserved": 0, "fusion_lon": 0.0, "lat": 38.89728566666667, "is_disabled": 0, "name": "c6390d1a9e7db0e2316a723b78ea6fea", "fusion_lat": 0.0, "rental_uris": {"ios": "https://dc.lft.to/lastmile_qr_scan", "android": "https://dc.lft.to/lastmile_qr_scan"}, "lon": -76.92587983333334, "type": "electric_scooter"}, {"bike_id": "c455f3eae7ae1ceb1c961c70a9b4d197", "is_reserved": 0, "fusion_lon": 0.0, "lat": 38.89605533333334, "is_disabled": 0, "name": "c455f3eae7ae1ceb1c961c70a9b4d197", "fusion_lat": 0.0, "rental_uris": {"ios": "https://dc.lft.to/lastmile_qr_scan", "android": "https://dc.lft.to/lastmile_qr_scan"}, "lon": -77.04511683333334, "type": "electric_scooter"}, {"bike_id": "bc6181188fecdb507ecf671da24880b2", "is_reserved": 0, "fusion_lon": 0.0, "lat": 38.96821466666667, "is_disabled": 0, "name": "bc6181188fecdb507ecf671da24880b2", "fusion_lat": 0.0, "rental_uris": {"ios": "https://dc.lft.to/lastmile_qr_scan", "android": "https://dc.lft.to/lastmile_qr_scan"}, "lon": -77.01787783333333, "type": "electric_scooter"}, {"bike_id": "76b1658637e284bd705bb58186d60152", "is_reserved": 0, "fusion_lon": 0.0, "lat": 38.89297933333334, "is_disabled": 0, "name": "76b1658637e284bd705bb58186d60152", "fusion_lat": 0.0, "rental_uris": {"ios": "https://dc.lft.to/lastmile_qr_scan", "android": "https://dc.lft.to/lastmile_qr_scan"}, "lon": -77.01236316666666, "type": "electric_scooter"}, {"bike_id": "4dbcedd6efe49be740776c22af4a5e42", "is_reserved": 0, "fusion_lon": 0.0, "lat": 38.91705416666667, "is_disabled": 0, "name": "4dbcedd6efe49be740776c22af4a5e42", "fusion_lat": 0.0, "rental_uris": {"ios": "https://dc.lft.to/lastmile_qr_scan", "android": "https://dc.lft.to/lastmile_qr_scan"}, "lon": -77.03216733333333, "type": "electric_scooter"}, {"bike_id": "5f9c275ac5fa72799ab2af3c5d1870e1", "is_reserved": 0, "fusion_lon": 0.0, "lat": 38.86959983333333, "is_disabled": 0, "name": "5f9c275ac5fa72799ab2af3c5d1870e1", "fusion_lat": 0.0, "rental_uris": {"ios": "https://dc.lft.to/lastmile_qr_scan", "android": "https://dc.lft.to/lastmile_qr_scan"}, "lon": -77.01373683333334, "type": "electric_scooter"}, {"bike_id": "c1961f277d05d762dfd1a5a474beb9a3", "is_reserved": 0, "fusion_lon": 0.0, "lat": 38.9053405, "is_disabled": 0, "name": "c1961f277d05d762dfd1a5a474beb9a3", "fusion_lat": 0.0, "rental_uris": {"ios": "https://dc.lft.to/lastmile_qr_scan", "android": "https://dc.lft.to/lastmile_qr_scan"}, "lon": -77.05041383333334, "type": "electric_scooter"}, {"bike_id": "886625b262eec3567bd858aa6fc159f3", "is_reserved": 0, "fusion_lon": 0.0, "lat": 38.9384885, "is_disabled": 0, "name": "886625b262eec3567bd858aa6fc159f3", "fusion_lat": 0.0, "rental_uris": {"ios": "https://dc.lft.to/lastmile_qr_scan", "android": "https://dc.lft.to/lastmile_qr_scan"}, "lon": -77.02480783333333, "type": "electric_bike"}, {"bike_id": "a97ace87249ae01c7eb7f1ebf7b650de", "is_reserved": 0, "fusion_lon": 0.0, "lat": 38.904582, "is_disabled": 0, "name": "a97ace87249ae01c7eb7f1ebf7b650de", "fusion_lat": 0.0, "rental_uris": {"ios": "https://dc.lft.to/lastmile_qr_scan", "android": "https://dc.lft.to/lastmile_qr_scan"}, "lon": -76.99507533333333, "type": "electric_scooter"}, {"bike_id": "6df205167ffcc2c04179073a5904aa40", "is_reserved": 0, "fusion_lon": 0.0, "lat": 38.91269483333333, "is_disabled": 0, "name": "6df205167ffcc2c04179073a5904aa40", "fusion_lat": 0.0, "rental_uris": {"ios": "https://dc.lft.to/lastmile_qr_scan", "android": "https://dc.lft.to/lastmile_qr_scan"}, "lon": -77.02695933333334, "type": "electric_scooter"}, {"bike_id": "dc49bba6f6dd1d86636a64ad12c05847", "is_reserved": 0, "fusion_lon": 0.0, "lat": 38.9061825, "is_disabled": 0, "name": "dc49bba6f6dd1d86636a64ad12c05847", "fusion_lat": 0.0, "rental_uris": {"ios": "https://dc.lft.to/lastmile_qr_scan", "android": "https://dc.lft.to/lastmile_qr_scan"}, "lon": -77.04363483333333, "type": "electric_scooter"}, {"bike_id": "43a021dec4eaea9a4f507512d320b64b", "is_reserved": 0, "fusion_lon": 0.0, "lat": 38.892679333333334, "is_disabled": 0, "name": "43a021dec4eaea9a4f507512d320b64b", "fusion_lat": 0.0, "rental_uris": {"ios": "https://dc.lft.to/lastmile_qr_scan", "android": "https://dc.lft.to/lastmile_qr_scan"}, "lon": -77.02214916666667, "type": "electric_bike"}, {"bike_id": "a3a9218970906c0a0c51d6e8730511cb", "is_reserved": 0, "fusion_lon": 0.0, "lat": 38.902380666666666, "is_disabled": 0, "name": "a3a9218970906c0a0c51d6e8730511cb", "fusion_lat": 0.0, "rental_uris": {"ios": "https://dc.lft.to/lastmile_qr_scan", "android": "https://dc.lft.to/lastmile_qr_scan"}, "lon": -77.02696116666667, "type": "electric_scooter"}, {"bike_id": "b11a003071c6f4c268aa3e02e8524208", "is_reserved": 0, "fusion_lon": 0.0, "lat": 38.919334166666665, "is_disabled": 0, "name": "b11a003071c6f4c268aa3e02e8524208", "fusion_lat": 0.0, "rental_uris": {"ios": "https://dc.lft.to/lastmile_qr_scan", "android": "https://dc.lft.to/lastmile_qr_scan"}, "lon": -77.04493266666667, "type": "electric_scooter"}, {"bike_id": "364b55639741be17128b7a2dbbe82f45", "is_reserved": 0, "fusion_lon": 0.0, "lat": 38.906210333333334, "is_disabled": 0, "name": "364b55639741be17128b7a2dbbe82f45", "fusion_lat": 0.0, "rental_uris": {"ios": "https://dc.lft.to/lastmile_qr_scan", "android": "https://dc.lft.to/lastmile_qr_scan"}, "lon": -77.0415385, "type": "electric_scooter"}, {"bike_id": "a28637a1fbce5c04accae93c2ff78747", "is_reserved": 0, "fusion_lon": 0.0, "lat": 38.899893166666665, "is_disabled": 0, "name": "a28637a1fbce5c04accae93c2ff78747", "fusion_lat": 0.0, "rental_uris": {"ios": "https://dc.lft.to/lastmile_qr_scan", "android": "https://dc.lft.to/lastmile_qr_scan"}, "lon": -77.04029833333334, "type": "electric_scooter"}, {"bike_id": "3d2fe53d70d7f1c2d349fe710a025be3", "is_reserved": 0, "fusion_lon": 0.0, "lat": 38.90109833333333, "is_disabled": 0, "name": "3d2fe53d70d7f1c2d349fe710a025be3", "fusion_lat": 0.0, "rental_uris": {"ios": "https://dc.lft.to/lastmile_qr_scan", "android": "https://dc.lft.to/lastmile_qr_scan"}, "lon": -77.0465995, "type": "electric_scooter"}, {"bike_id": "8ae862992ddc68274d82b36bc1eb0634", "is_reserved": 0, "fusion_lon": 0.0, "lat": 38.900995, "is_disabled": 0, "name": "8ae862992ddc68274d82b36bc1eb0634", "fusion_lat": 0.0, "rental_uris": {"ios": "https://dc.lft.to/lastmile_qr_scan", "android": "https://dc.lft.to/lastmile_qr_scan"}, "lon": -77.02154716666666, "type": "electric_scooter"}, {"bike_id": "4f4bdf43090d3336180f1ba703ec98fa", "is_reserved": 0, "fusion_lon": 0.0, "lat": 38.84421116666667, "is_disabled": 0, "name": "4f4bdf43090d3336180f1ba703ec98fa", "fusion_lat": 0.0, "rental_uris": {"ios": "https://dc.lft.to/lastmile_qr_scan", "android": "https://dc.lft.to/lastmile_qr_scan"}, "lon": -76.99781566666667, "type": "electric_scooter"}, {"bike_id": "1db941a2885f1a00063460d6f0fd7a3b", "is_reserved": 0, "fusion_lon": 0.0, "lat": 38.907964166666666, "is_disabled": 0, "name": "1db941a2885f1a00063460d6f0fd7a3b", "fusion_lat": 0.0, "rental_uris": {"ios": "https://dc.lft.to/lastmile_qr_scan", "android": "https://dc.lft.to/lastmile_qr_scan"}, "lon": -77.04239416666667, "type": "electric_scooter"}, {"bike_id": "dfc8fa6414cbd3357edcfce4bb9d3363", "is_reserved": 0, "fusion_lon": 0.0, "lat": 38.918076666666664, "is_disabled": 0, "name": "dfc8fa6414cbd3357edcfce4bb9d3363", "fusion_lat": 0.0, "rental_uris": {"ios": "https://dc.lft.to/lastmile_qr_scan", "android": "https://dc.lft.to/lastmile_qr_scan"}, "lon": -77.033005, "type": "electric_scooter"}, {"bike_id": "ac43b3826d839d3c0d137d370374f760", "is_reserved": 0, "fusion_lon": 0.0, "lat": 38.9366425, "is_disabled": 0, "name": "ac43b3826d839d3c0d137d370374f760", "fusion_lat": 0.0, "rental_uris": {"ios": "https://dc.lft.to/lastmile_qr_scan", "android": "https://dc.lft.to/lastmile_qr_scan"}, "lon": -77.05940016666666, "type": "electric_scooter"}, {"bike_id": "d3c86838c94a9428f223ebaf3abc3e21", "is_reserved": 0, "fusion_lon": 0.0, "lat": 38.8595495, "is_disabled": 0, "name": "d3c86838c94a9428f223ebaf3abc3e21", "fusion_lat": 0.0, "rental_uris": {"ios": "https://dc.lft.to/lastmile_qr_scan", "android": "https://dc.lft.to/lastmile_qr_scan"}, "lon": -76.99110783333333, "type": "electric_scooter"}, {"bike_id": "48b8678fd9e832b9f6baf13befe79297", "is_reserved": 0, "fusion_lon": 0.0, "lat": 38.90262633333333, "is_disabled": 0, "name": "48b8678fd9e832b9f6baf13befe79297", "fusion_lat": 0.0, "rental_uris": {"ios": "https://dc.lft.to/lastmile_qr_scan", "android": "https://dc.lft.to/lastmile_qr_scan"}, "lon": -77.03075433333333, "type": "electric_scooter"}, {"bike_id": "a07d59cc8cd1f17770d6b45c54d578e2", "is_reserved": 0, "fusion_lon": 0.0, "lat": 38.916790666666664, "is_disabled": 0, "name": "a07d59cc8cd1f17770d6b45c54d578e2", "fusion_lat": 0.0, "rental_uris": {"ios": "https://dc.lft.to/lastmile_qr_scan", "android": "https://dc.lft.to/lastmile_qr_scan"}, "lon": -77.0368555, "type": "electric_scooter"}, {"bike_id": "1d62816ed4d22d21449c954aaf3c9de7", "is_reserved": 0, "fusion_lon": 0.0, "lat": 38.903606833333335, "is_disabled": 0, "name": "1d62816ed4d22d21449c954aaf3c9de7", "fusion_lat": 0.0, "rental_uris": {"ios": "https://dc.lft.to/lastmile_qr_scan", "android": "https://dc.lft.to/lastmile_qr_scan"}, "lon": -77.04497133333334, "type": "electric_scooter"}, {"bike_id": "8a4e7e5d027ab6d69e615bab6f7c3876", "is_reserved": 0, "fusion_lon": 0.0, "lat": 38.81304383333333, "is_disabled": 0, "name": "8a4e7e5d027ab6d69e615bab6f7c3876", "fusion_lat": 0.0, "rental_uris": {"ios": "https://dc.lft.to/lastmile_qr_scan", "android": "https://dc.lft.to/lastmile_qr_scan"}, "lon": -77.05097916666666, "type": "electric_bike"}, {"bike_id": "b888371055c5b3329dbc2f6e641e68c2", "is_reserved": 0, "fusion_lon": 0.0, "lat": 38.89220016666667, "is_disabled": 0, "name": "b888371055c5b3329dbc2f6e641e68c2", "fusion_lat": 0.0, "rental_uris": {"ios": "https://dc.lft.to/lastmile_qr_scan", "android": "https://dc.lft.to/lastmile_qr_scan"}, "lon": -77.02578133333333, "type": "electric_scooter"}, {"bike_id": "4ef34571c377104cf222cfed73eed3ff", "is_reserved": 0, "fusion_lon": 0.0, "lat": 38.92856316666666, "is_disabled": 0, "name": "4ef34571c377104cf222cfed73eed3ff", "fusion_lat": 0.0, "rental_uris": {"ios": "https://dc.lft.to/lastmile_qr_scan", "android": "https://dc.lft.to/lastmile_qr_scan"}, "lon": -76.98938866666667, "type": "electric_bike"}, {"bike_id": "3b235e839da2de515e4316542d78f2e8", "is_reserved": 0, "fusion_lon": 0.0, "lat": 38.92177433333333, "is_disabled": 0, "name": "3b235e839da2de515e4316542d78f2e8", "fusion_lat": 0.0, "rental_uris": {"ios": "https://dc.lft.to/lastmile_qr_scan", "android": "https://dc.lft.to/lastmile_qr_scan"}, "lon": -77.025373, "type": "electric_scooter"}, {"bike_id": "9ba5a26d8f61eed785c544398196a612", "is_reserved": 0, "fusion_lon": 0.0, "lat": 38.91322916666667, "is_disabled": 0, "name": "9ba5a26d8f61eed785c544398196a612", "fusion_lat": 0.0, "rental_uris": {"ios": "https://dc.lft.to/lastmile_qr_scan", "android": "https://dc.lft.to/lastmile_qr_scan"}, "lon": -77.03264733333333, "type": "electric_scooter"}, {"bike_id": "e596d5aec0ff3fe262f7091111857dde", "is_reserved": 0, "fusion_lon": 0.0, "lat": 38.92097833333333, "is_disabled": 0, "name": "e596d5aec0ff3fe262f7091111857dde", "fusion_lat": 0.0, "rental_uris": {"ios": "https://dc.lft.to/lastmile_qr_scan", "android": "https://dc.lft.to/lastmile_qr_scan"}, "lon": -77.017724, "type": "electric_scooter"}, {"bike_id": "e21a927fe9171d7195ca684e9b0e5e1e", "is_reserved": 0, "fusion_lon": 0.0, "lat": 38.93978883333333, "is_disabled": 0, "name": "e21a927fe9171d7195ca684e9b0e5e1e", "fusion_lat": 0.0, "rental_uris": {"ios": "https://dc.lft.to/lastmile_qr_scan", "android": "https://dc.lft.to/lastmile_qr_scan"}, "lon": -77.02884216666666, "type": "electric_scooter"}, {"bike_id": "be39e434bd4363b38b3c56611fd838f5", "is_reserved": 0, "fusion_lon": 0.0, "lat": 38.8872255, "is_disabled": 0, "name": "be39e434bd4363b38b3c56611fd838f5", "fusion_lat": 0.0, "rental_uris": {"ios": "https://dc.lft.to/lastmile_qr_scan", "android": "https://dc.lft.to/lastmile_qr_scan"}, "lon": -77.0258155, "type": "electric_scooter"}, {"bike_id": "b0df0a9abf3bc8e8fb10ba75dfaa89b9", "is_reserved": 0, "fusion_lon": 0.0, "lat": 38.865204, "is_disabled": 0, "name": "b0df0a9abf3bc8e8fb10ba75dfaa89b9", "fusion_lat": 0.0, "rental_uris": {"ios": "https://dc.lft.to/lastmile_qr_scan", "android": "https://dc.lft.to/lastmile_qr_scan"}, "lon": -76.9904205, "type": "electric_scooter"}, {"bike_id": "2f72504e269e75e6527de31b8b323501", "is_reserved": 0, "fusion_lon": 0.0, "lat": 38.9011355, "is_disabled": 0, "name": "2f72504e269e75e6527de31b8b323501", "fusion_lat": 0.0, "rental_uris": {"ios": "https://dc.lft.to/lastmile_qr_scan", "android": "https://dc.lft.to/lastmile_qr_scan"}, "lon": -77.03187383333334, "type": "electric_scooter"}, {"bike_id": "2ea8e2e621cec37e1e46f5953e0e537e", "is_reserved": 0, "fusion_lon": 0.0, "lat": 38.89845483333333, "is_disabled": 0, "name": "2ea8e2e621cec37e1e46f5953e0e537e", "fusion_lat": 0.0, "rental_uris": {"ios": "https://dc.lft.to/lastmile_qr_scan", "android": "https://dc.lft.to/lastmile_qr_scan"}, "lon": -77.03270733333333, "type": "electric_scooter"}, {"bike_id": "e4804bfb1809955b6c02fbefbada6365", "is_reserved": 0, "fusion_lon": 0.0, "lat": 38.87109816666667, "is_disabled": 0, "name": "e4804bfb1809955b6c02fbefbada6365", "fusion_lat": 0.0, "rental_uris": {"ios": "https://dc.lft.to/lastmile_qr_scan", "android": "https://dc.lft.to/lastmile_qr_scan"}, "lon": -76.97748433333334, "type": "electric_scooter"}, {"bike_id": "f9328279b6868a01cbb99513c2ab2a8d", "is_reserved": 0, "fusion_lon": 0.0, "lat": 38.856791333333334, "is_disabled": 0, "name": "f9328279b6868a01cbb99513c2ab2a8d", "fusion_lat": 0.0, "rental_uris": {"ios": "https://dc.lft.to/lastmile_qr_scan", "android": "https://dc.lft.to/lastmile_qr_scan"}, "lon": -77.08572433333333, "type": "electric_bike"}, {"bike_id": "9b2e2ad7d35ce3e00657b69ec363474d", "is_reserved": 0, "fusion_lon": 0.0, "lat": 38.92472266666667, "is_disabled": 0, "name": "9b2e2ad7d35ce3e00657b69ec363474d", "fusion_lat": 0.0, "rental_uris": {"ios": "https://dc.lft.to/lastmile_qr_scan", "android": "https://dc.lft.to/lastmile_qr_scan"}, "lon": -77.05206683333333, "type": "electric_scooter"}, {"bike_id": "f905463795ae982ea825af7e90934b9b", "is_reserved": 0, "fusion_lon": 0.0, "lat": 38.86375616666667, "is_disabled": 0, "name": "f905463795ae982ea825af7e90934b9b", "fusion_lat": 0.0, "rental_uris": {"ios": "https://dc.lft.to/lastmile_qr_scan", "android": "https://dc.lft.to/lastmile_qr_scan"}, "lon": -76.9905645, "type": "electric_scooter"}, {"bike_id": "d6c1a8c68ba57aa2224f816cb834d997", "is_reserved": 0, "fusion_lon": 0.0, "lat": 38.900198, "is_disabled": 0, "name": "d6c1a8c68ba57aa2224f816cb834d997", "fusion_lat": 0.0, "rental_uris": {"ios": "https://dc.lft.to/lastmile_qr_scan", "android": "https://dc.lft.to/lastmile_qr_scan"}, "lon": -77.02975416666666, "type": "electric_bike"}, {"bike_id": "480a794093900561bebe70672ef8d061", "is_reserved": 0, "fusion_lon": 0.0, "lat": 38.92476583333333, "is_disabled": 0, "name": "480a794093900561bebe70672ef8d061", "fusion_lat": 0.0, "rental_uris": {"ios": "https://dc.lft.to/lastmile_qr_scan", "android": "https://dc.lft.to/lastmile_qr_scan"}, "lon": -77.022722, "type": "electric_scooter"}, {"bike_id": "005c528837b9c36d09f4a2a5004436e3", "is_reserved": 0, "fusion_lon": 0.0, "lat": 38.852896666666666, "is_disabled": 0, "name": "005c528837b9c36d09f4a2a5004436e3", "fusion_lat": 0.0, "rental_uris": {"ios": "https://dc.lft.to/lastmile_qr_scan", "android": "https://dc.lft.to/lastmile_qr_scan"}, "lon": -77.05275666666667, "type": "electric_bike"}, {"bike_id": "bdd16d8d8aed03d84a7c953e69694d36", "is_reserved": 0, "fusion_lon": 0.0, "lat": 38.9003725, "is_disabled": 0, "name": "bdd16d8d8aed03d84a7c953e69694d36", "fusion_lat": 0.0, "rental_uris": {"ios": "https://dc.lft.to/lastmile_qr_scan", "android": "https://dc.lft.to/lastmile_qr_scan"}, "lon": -76.9985385, "type": "electric_scooter"}, {"bike_id": "0c0d40b3823faea56ff929579f1645bd", "is_reserved": 0, "fusion_lon": 0.0, "lat": 38.91030466666667, "is_disabled": 0, "name": "0c0d40b3823faea56ff929579f1645bd", "fusion_lat": 0.0, "rental_uris": {"ios": "https://dc.lft.to/lastmile_qr_scan", "android": "https://dc.lft.to/lastmile_qr_scan"}, "lon": -77.03858216666667, "type": "electric_scooter"}, {"bike_id": "f46f78f89d50af85e657732e61ca348e", "is_reserved": 0, "fusion_lon": 0.0, "lat": 38.898963, "is_disabled": 0, "name": "f46f78f89d50af85e657732e61ca348e", "fusion_lat": 0.0, "rental_uris": {"ios": "https://dc.lft.to/lastmile_qr_scan", "android": "https://dc.lft.to/lastmile_qr_scan"}, "lon": -77.03283433333333, "type": "electric_scooter"}, {"bike_id": "c8e36da23b0136cd40203b2cd423e206", "is_reserved": 0, "fusion_lon": 0.0, "lat": 38.929643166666665, "is_disabled": 0, "name": "c8e36da23b0136cd40203b2cd423e206", "fusion_lat": 0.0, "rental_uris": {"ios": "https://dc.lft.to/lastmile_qr_scan", "android": "https://dc.lft.to/lastmile_qr_scan"}, "lon": -77.05504416666666, "type": "electric_scooter"}, {"bike_id": "c777dc745a57fc268822c5ec521b3181", "is_reserved": 0, "fusion_lon": 0.0, "lat": 38.92583166666667, "is_disabled": 0, "name": "c777dc745a57fc268822c5ec521b3181", "fusion_lat": 0.0, "rental_uris": {"ios": "https://dc.lft.to/lastmile_qr_scan", "android": "https://dc.lft.to/lastmile_qr_scan"}, "lon": -77.004744, "type": "electric_scooter"}, {"bike_id": "f8608c992a887468223dcfaea10e82d4", "is_reserved": 0, "fusion_lon": 0.0, "lat": 38.86506883333333, "is_disabled": 0, "name": "f8608c992a887468223dcfaea10e82d4", "fusion_lat": 0.0, "rental_uris": {"ios": "https://dc.lft.to/lastmile_qr_scan", "android": "https://dc.lft.to/lastmile_qr_scan"}, "lon": -76.98979666666666, "type": "electric_scooter"}, {"bike_id": "704e039056d2818df7f2da28b3131ef9", "is_reserved": 0, "fusion_lon": 0.0, "lat": 38.92621483333333, "is_disabled": 0, "name": "704e039056d2818df7f2da28b3131ef9", "fusion_lat": 0.0, "rental_uris": {"ios": "https://dc.lft.to/lastmile_qr_scan", "android": "https://dc.lft.to/lastmile_qr_scan"}, "lon": -77.03782866666667, "type": "electric_scooter"}, {"bike_id": "e3fa88c993574cbc96c4895398f852db", "is_reserved": 0, "fusion_lon": 0.0, "lat": 38.899430833333334, "is_disabled": 0, "name": "e3fa88c993574cbc96c4895398f852db", "fusion_lat": 0.0, "rental_uris": {"ios": "https://dc.lft.to/lastmile_qr_scan", "android": "https://dc.lft.to/lastmile_qr_scan"}, "lon": -77.03147416666667, "type": "electric_scooter"}, {"bike_id": "dd6068728f23f6e12a8c1386664e133a", "is_reserved": 0, "fusion_lon": 0.0, "lat": 38.91330216666667, "is_disabled": 0, "name": "dd6068728f23f6e12a8c1386664e133a", "fusion_lat": 0.0, "rental_uris": {"ios": "https://dc.lft.to/lastmile_qr_scan", "android": "https://dc.lft.to/lastmile_qr_scan"}, "lon": -77.04870566666666, "type": "electric_scooter"}, {"bike_id": "fafdd376b0da0fc50a5c9f798220b81e", "is_reserved": 0, "fusion_lon": 0.0, "lat": 38.878467, "is_disabled": 0, "name": "fafdd376b0da0fc50a5c9f798220b81e", "fusion_lat": 0.0, "rental_uris": {"ios": "https://dc.lft.to/lastmile_qr_scan", "android": "https://dc.lft.to/lastmile_qr_scan"}, "lon": -77.0050475, "type": "electric_scooter"}, {"bike_id": "acb7394c0824cb4206dca77ed72dbd98", "is_reserved": 0, "fusion_lon": 0.0, "lat": 38.8851655, "is_disabled": 0, "name": "acb7394c0824cb4206dca77ed72dbd98", "fusion_lat": 0.0, "rental_uris": {"ios": "https://dc.lft.to/lastmile_qr_scan", "android": "https://dc.lft.to/lastmile_qr_scan"}, "lon": -77.01545483333334, "type": "electric_scooter"}, {"bike_id": "765ebecc65dbfceb238de648b8c547fb", "is_reserved": 0, "fusion_lon": 0.0, "lat": 38.89339183333333, "is_disabled": 0, "name": "765ebecc65dbfceb238de648b8c547fb", "fusion_lat": 0.0, "rental_uris": {"ios": "https://dc.lft.to/lastmile_qr_scan", "android": "https://dc.lft.to/lastmile_qr_scan"}, "lon": -76.9846165, "type": "electric_scooter"}, {"bike_id": "a77979ce94c5afd3638f2af60b920526", "is_reserved": 0, "fusion_lon": 0.0, "lat": 38.97088383333333, "is_disabled": 0, "name": "a77979ce94c5afd3638f2af60b920526", "fusion_lat": 0.0, "rental_uris": {"ios": "https://dc.lft.to/lastmile_qr_scan", "android": "https://dc.lft.to/lastmile_qr_scan"}, "lon": -77.06964466666666, "type": "electric_bike"}, {"bike_id": "9b4a9676f585fd3929878600d2d4091e", "is_reserved": 0, "fusion_lon": 0.0, "lat": 38.915582, "is_disabled": 0, "name": "9b4a9676f585fd3929878600d2d4091e", "fusion_lat": 0.0, "rental_uris": {"ios": "https://dc.lft.to/lastmile_qr_scan", "android": "https://dc.lft.to/lastmile_qr_scan"}, "lon": -77.02207883333334, "type": "electric_scooter"}, {"bike_id": "81841d6af36d90d1adeeb82b68e5dd64", "is_reserved": 0, "fusion_lon": 0.0, "lat": 38.890314833333335, "is_disabled": 0, "name": "81841d6af36d90d1adeeb82b68e5dd64", "fusion_lat": 0.0, "rental_uris": {"ios": "https://dc.lft.to/lastmile_qr_scan", "android": "https://dc.lft.to/lastmile_qr_scan"}, "lon": -76.93594966666667, "type": "electric_scooter"}, {"bike_id": "1b9c3efd8d1cc74eb094bb713fcd4a44", "is_reserved": 0, "fusion_lon": 0.0, "lat": 38.92380433333334, "is_disabled": 0, "name": "1b9c3efd8d1cc74eb094bb713fcd4a44", "fusion_lat": 0.0, "rental_uris": {"ios": "https://dc.lft.to/lastmile_qr_scan", "android": "https://dc.lft.to/lastmile_qr_scan"}, "lon": -77.22313116666666, "type": "electric_bike"}, {"bike_id": "9cd6c6f8f8cf1c2e11472924c4e7b4b8", "is_reserved": 0, "fusion_lon": 0.0, "lat": 38.9250685, "is_disabled": 0, "name": "9cd6c6f8f8cf1c2e11472924c4e7b4b8", "fusion_lat": 0.0, "rental_uris": {"ios": "https://dc.lft.to/lastmile_qr_scan", "android": "https://dc.lft.to/lastmile_qr_scan"}, "lon": -77.03885383333333, "type": "electric_scooter"}, {"bike_id": "2d33f4d676416db5809a59f07e98271e", "is_reserved": 0, "fusion_lon": 0.0, "lat": 38.93582516666667, "is_disabled": 0, "name": "2d33f4d676416db5809a59f07e98271e", "fusion_lat": 0.0, "rental_uris": {"ios": "https://dc.lft.to/lastmile_qr_scan", "android": "https://dc.lft.to/lastmile_qr_scan"}, "lon": -77.02763683333333, "type": "electric_scooter"}, {"bike_id": "4195c8fb19df7eb3aece5b40e32289a0", "is_reserved": 0, "fusion_lon": 0.0, "lat": 38.90419416666667, "is_disabled": 0, "name": "4195c8fb19df7eb3aece5b40e32289a0", "fusion_lat": 0.0, "rental_uris": {"ios": "https://dc.lft.to/lastmile_qr_scan", "android": "https://dc.lft.to/lastmile_qr_scan"}, "lon": -77.02970583333334, "type": "electric_scooter"}, {"bike_id": "ca3200e717916b272f60ca990d610c3c", "is_reserved": 0, "fusion_lon": 0.0, "lat": 38.9235045, "is_disabled": 0, "name": "ca3200e717916b272f60ca990d610c3c", "fusion_lat": 0.0, "rental_uris": {"ios": "https://dc.lft.to/lastmile_qr_scan", "android": "https://dc.lft.to/lastmile_qr_scan"}, "lon": -77.0415055, "type": "electric_scooter"}, {"bike_id": "3c7233819a240bb5fe87febfc35a34ae", "is_reserved": 0, "fusion_lon": 0.0, "lat": 38.824428833333336, "is_disabled": 0, "name": "3c7233819a240bb5fe87febfc35a34ae", "fusion_lat": 0.0, "rental_uris": {"ios": "https://dc.lft.to/lastmile_qr_scan", "android": "https://dc.lft.to/lastmile_qr_scan"}, "lon": -77.07041783333334, "type": "electric_bike"}, {"bike_id": "f3dd472a87336e2038f2ad55e2801309", "is_reserved": 0, "fusion_lon": 0.0, "lat": 38.90291466666667, "is_disabled": 0, "name": "f3dd472a87336e2038f2ad55e2801309", "fusion_lat": 0.0, "rental_uris": {"ios": "https://dc.lft.to/lastmile_qr_scan", "android": "https://dc.lft.to/lastmile_qr_scan"}, "lon": -77.03676716666666, "type": "electric_scooter"}, {"bike_id": "eecde2f825ad58537b964d7f17b28dc5", "is_reserved": 0, "fusion_lon": 0.0, "lat": 38.9028435, "is_disabled": 0, "name": "eecde2f825ad58537b964d7f17b28dc5", "fusion_lat": 0.0, "rental_uris": {"ios": "https://dc.lft.to/lastmile_qr_scan", "android": "https://dc.lft.to/lastmile_qr_scan"}, "lon": -77.0366015, "type": "electric_scooter"}, {"bike_id": "11e9cc45a14bd73d5abe3dd50ad06e47", "is_reserved": 0, "fusion_lon": 0.0, "lat": 38.93331933333333, "is_disabled": 0, "name": "11e9cc45a14bd73d5abe3dd50ad06e47", "fusion_lat": 0.0, "rental_uris": {"ios": "https://dc.lft.to/lastmile_qr_scan", "android": "https://dc.lft.to/lastmile_qr_scan"}, "lon": -77.04201483333334, "type": "electric_bike"}, {"bike_id": "4809a708e5f22dcfe29b2b9f1269e8de", "is_reserved": 0, "fusion_lon": 0.0, "lat": 38.918659166666664, "is_disabled": 0, "name": "4809a708e5f22dcfe29b2b9f1269e8de", "fusion_lat": 0.0, "rental_uris": {"ios": "https://dc.lft.to/lastmile_qr_scan", "android": "https://dc.lft.to/lastmile_qr_scan"}, "lon": -76.9609465, "type": "electric_bike"}, {"bike_id": "b3ee4513f75196960911177a7e7aa0d1", "is_reserved": 0, "fusion_lon": 0.0, "lat": 38.88385516666666, "is_disabled": 0, "name": "b3ee4513f75196960911177a7e7aa0d1", "fusion_lat": 0.0, "rental_uris": {"ios": "https://dc.lft.to/lastmile_qr_scan", "android": "https://dc.lft.to/lastmile_qr_scan"}, "lon": -76.94924816666666, "type": "electric_scooter"}, {"bike_id": "63725dc3ba04b00c67a41130fe8afd1a", "is_reserved": 0, "fusion_lon": 0.0, "lat": 38.908909, "is_disabled": 0, "name": "63725dc3ba04b00c67a41130fe8afd1a", "fusion_lat": 0.0, "rental_uris": {"ios": "https://dc.lft.to/lastmile_qr_scan", "android": "https://dc.lft.to/lastmile_qr_scan"}, "lon": -77.0862185, "type": "electric_scooter"}, {"bike_id": "36db1bc64546002ace6e232effe6498d", "is_reserved": 0, "fusion_lon": 0.0, "lat": 38.906605666666664, "is_disabled": 0, "name": "36db1bc64546002ace6e232effe6498d", "fusion_lat": 0.0, "rental_uris": {"ios": "https://dc.lft.to/lastmile_qr_scan", "android": "https://dc.lft.to/lastmile_qr_scan"}, "lon": -77.04489466666666, "type": "electric_scooter"}, {"bike_id": "ffaf020ec9e3e851a4e5cfca3b95261c", "is_reserved": 0, "fusion_lon": 0.0, "lat": 38.8925295, "is_disabled": 0, "name": "ffaf020ec9e3e851a4e5cfca3b95261c", "fusion_lat": 0.0, "rental_uris": {"ios": "https://dc.lft.to/lastmile_qr_scan", "android": "https://dc.lft.to/lastmile_qr_scan"}, "lon": -77.03219333333334, "type": "electric_scooter"}, {"bike_id": "2467488c061c5cba7e9b64fbc65c48a2", "is_reserved": 0, "fusion_lon": 0.0, "lat": 38.906642166666664, "is_disabled": 0, "name": "2467488c061c5cba7e9b64fbc65c48a2", "fusion_lat": 0.0, "rental_uris": {"ios": "https://dc.lft.to/lastmile_qr_scan", "android": "https://dc.lft.to/lastmile_qr_scan"}, "lon": -77.04483116666667, "type": "electric_scooter"}, {"bike_id": "1a054817f4fd1d7d2edf8651e88faa81", "is_reserved": 0, "fusion_lon": 0.0, "lat": 38.89789283333333, "is_disabled": 0, "name": "1a054817f4fd1d7d2edf8651e88faa81", "fusion_lat": 0.0, "rental_uris": {"ios": "https://dc.lft.to/lastmile_qr_scan", "android": "https://dc.lft.to/lastmile_qr_scan"}, "lon": -77.007236, "type": "electric_bike"}, {"bike_id": "3dc0f7f0b243261c72e85d0ec30543de", "is_reserved": 0, "fusion_lon": 0.0, "lat": 38.880031333333335, "is_disabled": 0, "name": "3dc0f7f0b243261c72e85d0ec30543de", "fusion_lat": 0.0, "rental_uris": {"ios": "https://dc.lft.to/lastmile_qr_scan", "android": "https://dc.lft.to/lastmile_qr_scan"}, "lon": -76.91598316666666, "type": "electric_bike"}, {"bike_id": "0650c6e8920c9fb3ccfb0c740cdc8e05", "is_reserved": 0, "fusion_lon": 0.0, "lat": 38.955517, "is_disabled": 0, "name": "0650c6e8920c9fb3ccfb0c740cdc8e05", "fusion_lat": 0.0, "rental_uris": {"ios": "https://dc.lft.to/lastmile_qr_scan", "android": "https://dc.lft.to/lastmile_qr_scan"}, "lon": -76.94011466666667, "type": "electric_bike"}, {"bike_id": "f8eaf19ba953b63887dc15a8bc996106", "is_reserved": 0, "fusion_lon": 0.0, "lat": 38.928745166666666, "is_disabled": 0, "name": "f8eaf19ba953b63887dc15a8bc996106", "fusion_lat": 0.0, "rental_uris": {"ios": "https://dc.lft.to/lastmile_qr_scan", "android": "https://dc.lft.to/lastmile_qr_scan"}, "lon": -77.03294283333334, "type": "electric_scooter"}, {"bike_id": "5355e1efbde6c457d1c8d633dbf7bc4c", "is_reserved": 0, "fusion_lon": 0.0, "lat": 38.9060025, "is_disabled": 0, "name": "5355e1efbde6c457d1c8d633dbf7bc4c", "fusion_lat": 0.0, "rental_uris": {"ios": "https://dc.lft.to/lastmile_qr_scan", "android": "https://dc.lft.to/lastmile_qr_scan"}, "lon": -77.06300633333333, "type": "electric_scooter"}, {"bike_id": "8f6f2de914434848fd4f94d0cfb4074f", "is_reserved": 0, "fusion_lon": 0.0, "lat": 38.91393216666667, "is_disabled": 0, "name": "8f6f2de914434848fd4f94d0cfb4074f", "fusion_lat": 0.0, "rental_uris": {"ios": "https://dc.lft.to/lastmile_qr_scan", "android": "https://dc.lft.to/lastmile_qr_scan"}, "lon": -77.01701883333334, "type": "electric_scooter"}, {"bike_id": "e587423a4ac0d84673c5cca9b9acd8d1", "is_reserved": 0, "fusion_lon": 0.0, "lat": 38.973274833333335, "is_disabled": 0, "name": "e587423a4ac0d84673c5cca9b9acd8d1", "fusion_lat": 0.0, "rental_uris": {"ios": "https://dc.lft.to/lastmile_qr_scan", "android": "https://dc.lft.to/lastmile_qr_scan"}, "lon": -77.02149033333333, "type": "electric_bike"}, {"bike_id": "a7871b3f9eaf5ba4cdc8b2203bb06379", "is_reserved": 0, "fusion_lon": 0.0, "lat": 38.898296, "is_disabled": 0, "name": "a7871b3f9eaf5ba4cdc8b2203bb06379", "fusion_lat": 0.0, "rental_uris": {"ios": "https://dc.lft.to/lastmile_qr_scan", "android": "https://dc.lft.to/lastmile_qr_scan"}, "lon": -77.03348566666666, "type": "electric_scooter"}, {"bike_id": "e7d7953943de6bde21dc9ed2d1f703ad", "is_reserved": 0, "fusion_lon": 0.0, "lat": 38.89221716666667, "is_disabled": 0, "name": "e7d7953943de6bde21dc9ed2d1f703ad", "fusion_lat": 0.0, "rental_uris": {"ios": "https://dc.lft.to/lastmile_qr_scan", "android": "https://dc.lft.to/lastmile_qr_scan"}, "lon": -77.04505783333333, "type": "electric_scooter"}, {"bike_id": "577a0f6014dfe71e64c2c0f200860d6e", "is_reserved": 0, "fusion_lon": 0.0, "lat": 38.902559333333336, "is_disabled": 0, "name": "577a0f6014dfe71e64c2c0f200860d6e", "fusion_lat": 0.0, "rental_uris": {"ios": "https://dc.lft.to/lastmile_qr_scan", "android": "https://dc.lft.to/lastmile_qr_scan"}, "lon": -77.03133433333333, "type": "electric_scooter"}, {"bike_id": "605a0df724f532bd10b54916c23ffce6", "is_reserved": 0, "fusion_lon": 0.0, "lat": 38.914948333333335, "is_disabled": 0, "name": "605a0df724f532bd10b54916c23ffce6", "fusion_lat": 0.0, "rental_uris": {"ios": "https://dc.lft.to/lastmile_qr_scan", "android": "https://dc.lft.to/lastmile_qr_scan"}, "lon": -77.01222066666666, "type": "electric_scooter"}, {"bike_id": "9f2eaeb486f2eec6318aea0f743348dd", "is_reserved": 0, "fusion_lon": 0.0, "lat": 38.897192833333335, "is_disabled": 0, "name": "9f2eaeb486f2eec6318aea0f743348dd", "fusion_lat": 0.0, "rental_uris": {"ios": "https://dc.lft.to/lastmile_qr_scan", "android": "https://dc.lft.to/lastmile_qr_scan"}, "lon": -77.0269785, "type": "electric_scooter"}, {"bike_id": "349c2ca4cc3512523e1a9b30863cac1e", "is_reserved": 0, "fusion_lon": 0.0, "lat": 38.91698433333333, "is_disabled": 0, "name": "349c2ca4cc3512523e1a9b30863cac1e", "fusion_lat": 0.0, "rental_uris": {"ios": "https://dc.lft.to/lastmile_qr_scan", "android": "https://dc.lft.to/lastmile_qr_scan"}, "lon": -77.02256816666667, "type": "electric_scooter"}, {"bike_id": "213c32e0019d469c8e558591945c66eb", "is_reserved": 0, "fusion_lon": 0.0, "lat": 38.945496166666665, "is_disabled": 0, "name": "213c32e0019d469c8e558591945c66eb", "fusion_lat": 0.0, "rental_uris": {"ios": "https://dc.lft.to/lastmile_qr_scan", "android": "https://dc.lft.to/lastmile_qr_scan"}, "lon": -76.89540233333334, "type": "electric_bike"}, {"bike_id": "1e2c8a814eca3e9e3a8e3dfde653ea15", "is_reserved": 0, "fusion_lon": 0.0, "lat": 38.9225535, "is_disabled": 0, "name": "1e2c8a814eca3e9e3a8e3dfde653ea15", "fusion_lat": 0.0, "rental_uris": {"ios": "https://dc.lft.to/lastmile_qr_scan", "android": "https://dc.lft.to/lastmile_qr_scan"}, "lon": -77.02978283333333, "type": "electric_scooter"}, {"bike_id": "b97593d4faf4503a303e49fcbcafe70e", "is_reserved": 0, "fusion_lon": 0.0, "lat": 38.900279, "is_disabled": 0, "name": "b97593d4faf4503a303e49fcbcafe70e", "fusion_lat": 0.0, "rental_uris": {"ios": "https://dc.lft.to/lastmile_qr_scan", "android": "https://dc.lft.to/lastmile_qr_scan"}, "lon": -77.04664883333334, "type": "electric_scooter"}, {"bike_id": "a3327c62ee9b0ab5459ffaa774e30e44", "is_reserved": 0, "fusion_lon": 0.0, "lat": 38.892213, "is_disabled": 0, "name": "a3327c62ee9b0ab5459ffaa774e30e44", "fusion_lat": 0.0, "rental_uris": {"ios": "https://dc.lft.to/lastmile_qr_scan", "android": "https://dc.lft.to/lastmile_qr_scan"}, "lon": -77.04363133333334, "type": "electric_scooter"}, {"bike_id": "07ee7e4cec16893b5f6f272044efbdc9", "is_reserved": 0, "fusion_lon": 0.0, "lat": 38.89831916666667, "is_disabled": 0, "name": "07ee7e4cec16893b5f6f272044efbdc9", "fusion_lat": 0.0, "rental_uris": {"ios": "https://dc.lft.to/lastmile_qr_scan", "android": "https://dc.lft.to/lastmile_qr_scan"}, "lon": -76.9463475, "type": "electric_scooter"}, {"bike_id": "512db3bbd0f6837b761e2c75f2c1db36", "is_reserved": 0, "fusion_lon": 0.0, "lat": 38.88235016666667, "is_disabled": 0, "name": "512db3bbd0f6837b761e2c75f2c1db36", "fusion_lat": 0.0, "rental_uris": {"ios": "https://dc.lft.to/lastmile_qr_scan", "android": "https://dc.lft.to/lastmile_qr_scan"}, "lon": -76.99006316666667, "type": "electric_scooter"}, {"bike_id": "34651b471b0f047c884a4c41766e7e68", "is_reserved": 0, "fusion_lon": 0.0, "lat": 38.94437083333333, "is_disabled": 0, "name": "34651b471b0f047c884a4c41766e7e68", "fusion_lat": 0.0, "rental_uris": {"ios": "https://dc.lft.to/lastmile_qr_scan", "android": "https://dc.lft.to/lastmile_qr_scan"}, "lon": -77.06410383333333, "type": "electric_scooter"}, {"bike_id": "70bf410730d04032519004689a77437a", "is_reserved": 0, "fusion_lon": 0.0, "lat": 38.84422416666666, "is_disabled": 0, "name": "70bf410730d04032519004689a77437a", "fusion_lat": 0.0, "rental_uris": {"ios": "https://dc.lft.to/lastmile_qr_scan", "android": "https://dc.lft.to/lastmile_qr_scan"}, "lon": -76.9978065, "type": "electric_scooter"}, {"bike_id": "a2e3205578497b675edaf344af6dcb36", "is_reserved": 0, "fusion_lon": 0.0, "lat": 38.86175633333333, "is_disabled": 0, "name": "a2e3205578497b675edaf344af6dcb36", "fusion_lat": 0.0, "rental_uris": {"ios": "https://dc.lft.to/lastmile_qr_scan", "android": "https://dc.lft.to/lastmile_qr_scan"}, "lon": -76.96915733333333, "type": "electric_scooter"}, {"bike_id": "48587a8eaa5265ae98b32f72d085892d", "is_reserved": 0, "fusion_lon": 0.0, "lat": 38.86563666666667, "is_disabled": 0, "name": "48587a8eaa5265ae98b32f72d085892d", "fusion_lat": 0.0, "rental_uris": {"ios": "https://dc.lft.to/lastmile_qr_scan", "android": "https://dc.lft.to/lastmile_qr_scan"}, "lon": -76.9895135, "type": "electric_scooter"}, {"bike_id": "349b956911475abc6d266ca728ce059a", "is_reserved": 0, "fusion_lon": 0.0, "lat": 38.907438, "is_disabled": 0, "name": "349b956911475abc6d266ca728ce059a", "fusion_lat": 0.0, "rental_uris": {"ios": "https://dc.lft.to/lastmile_qr_scan", "android": "https://dc.lft.to/lastmile_qr_scan"}, "lon": -77.03468916666667, "type": "electric_scooter"}, {"bike_id": "5c5bf17ee851a85e84e9d7e27461efb7", "is_reserved": 0, "fusion_lon": 0.0, "lat": 38.91730066666667, "is_disabled": 0, "name": "5c5bf17ee851a85e84e9d7e27461efb7", "fusion_lat": 0.0, "rental_uris": {"ios": "https://dc.lft.to/lastmile_qr_scan", "android": "https://dc.lft.to/lastmile_qr_scan"}, "lon": -77.04098266666666, "type": "electric_scooter"}, {"bike_id": "175c705e185160200a5d6e1c8e38885b", "is_reserved": 0, "fusion_lon": 0.0, "lat": 38.912539833333334, "is_disabled": 0, "name": "175c705e185160200a5d6e1c8e38885b", "fusion_lat": 0.0, "rental_uris": {"ios": "https://dc.lft.to/lastmile_qr_scan", "android": "https://dc.lft.to/lastmile_qr_scan"}, "lon": -77.0144945, "type": "electric_scooter"}, {"bike_id": "240d53ea60e79ff940fe9e93f18eef3e", "is_reserved": 0, "fusion_lon": 0.0, "lat": 38.90224416666667, "is_disabled": 0, "name": "240d53ea60e79ff940fe9e93f18eef3e", "fusion_lat": 0.0, "rental_uris": {"ios": "https://dc.lft.to/lastmile_qr_scan", "android": "https://dc.lft.to/lastmile_qr_scan"}, "lon": -77.05904416666667, "type": "electric_bike"}, {"bike_id": "f09604cfefcab05692a32351a2d3348a", "is_reserved": 0, "fusion_lon": 0.0, "lat": 38.903512166666665, "is_disabled": 0, "name": "f09604cfefcab05692a32351a2d3348a", "fusion_lat": 0.0, "rental_uris": {"ios": "https://dc.lft.to/lastmile_qr_scan", "android": "https://dc.lft.to/lastmile_qr_scan"}, "lon": -77.04338516666667, "type": "electric_scooter"}, {"bike_id": "33978b132f4c3252587a500b21ed7837", "is_reserved": 0, "fusion_lon": 0.0, "lat": 38.910489166666665, "is_disabled": 0, "name": "33978b132f4c3252587a500b21ed7837", "fusion_lat": 0.0, "rental_uris": {"ios": "https://dc.lft.to/lastmile_qr_scan", "android": "https://dc.lft.to/lastmile_qr_scan"}, "lon": -77.01512166666667, "type": "electric_scooter"}, {"bike_id": "83306f574807abeb46d011462945241a", "is_reserved": 0, "fusion_lon": 0.0, "lat": 38.93855833333333, "is_disabled": 0, "name": "83306f574807abeb46d011462945241a", "fusion_lat": 0.0, "rental_uris": {"ios": "https://dc.lft.to/lastmile_qr_scan", "android": "https://dc.lft.to/lastmile_qr_scan"}, "lon": -77.02455916666666, "type": "electric_scooter"}, {"bike_id": "3c8568a5997172eeac8464ac56c61546", "is_reserved": 0, "fusion_lon": 0.0, "lat": 38.907954333333336, "is_disabled": 0, "name": "3c8568a5997172eeac8464ac56c61546", "fusion_lat": 0.0, "rental_uris": {"ios": "https://dc.lft.to/lastmile_qr_scan", "android": "https://dc.lft.to/lastmile_qr_scan"}, "lon": -77.04871233333333, "type": "electric_scooter"}, {"bike_id": "04f8893fe49984c680a76298adff44dc", "is_reserved": 0, "fusion_lon": 0.0, "lat": 38.88994666666667, "is_disabled": 0, "name": "04f8893fe49984c680a76298adff44dc", "fusion_lat": 0.0, "rental_uris": {"ios": "https://dc.lft.to/lastmile_qr_scan", "android": "https://dc.lft.to/lastmile_qr_scan"}, "lon": -76.94705433333333, "type": "electric_scooter"}, {"bike_id": "31e23760006e2a7e2c518f490271cdd4", "is_reserved": 0, "fusion_lon": 0.0, "lat": 38.8323565, "is_disabled": 0, "name": "31e23760006e2a7e2c518f490271cdd4", "fusion_lat": 0.0, "rental_uris": {"ios": "https://dc.lft.to/lastmile_qr_scan", "android": "https://dc.lft.to/lastmile_qr_scan"}, "lon": -76.94624233333333, "type": "electric_bike"}, {"bike_id": "fee4ad1d52f1c0507db2dac3423e4cf1", "is_reserved": 0, "fusion_lon": 0.0, "lat": 38.92882566666667, "is_disabled": 0, "name": "fee4ad1d52f1c0507db2dac3423e4cf1", "fusion_lat": 0.0, "rental_uris": {"ios": "https://dc.lft.to/lastmile_qr_scan", "android": "https://dc.lft.to/lastmile_qr_scan"}, "lon": -77.03345366666667, "type": "electric_scooter"}, {"bike_id": "24d1bf939d3bc84ccf7d516ef8a33ccd", "is_reserved": 0, "fusion_lon": 0.0, "lat": 38.864169833333335, "is_disabled": 0, "name": "24d1bf939d3bc84ccf7d516ef8a33ccd", "fusion_lat": 0.0, "rental_uris": {"ios": "https://dc.lft.to/lastmile_qr_scan", "android": "https://dc.lft.to/lastmile_qr_scan"}, "lon": -76.980533, "type": "electric_scooter"}, {"bike_id": "69a9712e75ed6a0c96173b68a739b0ea", "is_reserved": 0, "fusion_lon": 0.0, "lat": 38.91572566666667, "is_disabled": 0, "name": "69a9712e75ed6a0c96173b68a739b0ea", "fusion_lat": 0.0, "rental_uris": {"ios": "https://dc.lft.to/lastmile_qr_scan", "android": "https://dc.lft.to/lastmile_qr_scan"}, "lon": -77.04698566666667, "type": "electric_scooter"}, {"bike_id": "2d233ab50d2becb098f28fe94719a060", "is_reserved": 0, "fusion_lon": 0.0, "lat": 38.895296, "is_disabled": 0, "name": "2d233ab50d2becb098f28fe94719a060", "fusion_lat": 0.0, "rental_uris": {"ios": "https://dc.lft.to/lastmile_qr_scan", "android": "https://dc.lft.to/lastmile_qr_scan"}, "lon": -77.03349266666666, "type": "electric_scooter"}, {"bike_id": "8dd82e3da9e6fea6462ba24c3ca47f20", "is_reserved": 0, "fusion_lon": 0.0, "lat": 38.978866333333336, "is_disabled": 0, "name": "8dd82e3da9e6fea6462ba24c3ca47f20", "fusion_lat": 0.0, "rental_uris": {"ios": "https://dc.lft.to/lastmile_qr_scan", "android": "https://dc.lft.to/lastmile_qr_scan"}, "lon": -77.02550933333333, "type": "electric_scooter"}, {"bike_id": "7d5f808278e3171d5f27900c30fe2784", "is_reserved": 0, "fusion_lon": 0.0, "lat": 38.92442833333333, "is_disabled": 0, "name": "7d5f808278e3171d5f27900c30fe2784", "fusion_lat": 0.0, "rental_uris": {"ios": "https://dc.lft.to/lastmile_qr_scan", "android": "https://dc.lft.to/lastmile_qr_scan"}, "lon": -77.020375, "type": "electric_scooter"}, {"bike_id": "cacea3a0954ce2bf9a8d3d76184d8901", "is_reserved": 0, "fusion_lon": 0.0, "lat": 38.945114, "is_disabled": 0, "name": "cacea3a0954ce2bf9a8d3d76184d8901", "fusion_lat": 0.0, "rental_uris": {"ios": "https://dc.lft.to/lastmile_qr_scan", "android": "https://dc.lft.to/lastmile_qr_scan"}, "lon": -77.00678683333334, "type": "electric_bike"}, {"bike_id": "cd6c7285d5cac26c537a9bb8c3ccb348", "is_reserved": 0, "fusion_lon": 0.0, "lat": 38.909502, "is_disabled": 0, "name": "cd6c7285d5cac26c537a9bb8c3ccb348", "fusion_lat": 0.0, "rental_uris": {"ios": "https://dc.lft.to/lastmile_qr_scan", "android": "https://dc.lft.to/lastmile_qr_scan"}, "lon": -77.0425475, "type": "electric_scooter"}, {"bike_id": "87452cf4a35b680a38a7af154dada9a6", "is_reserved": 0, "fusion_lon": 0.0, "lat": 38.9332655, "is_disabled": 0, "name": "87452cf4a35b680a38a7af154dada9a6", "fusion_lat": 0.0, "rental_uris": {"ios": "https://dc.lft.to/lastmile_qr_scan", "android": "https://dc.lft.to/lastmile_qr_scan"}, "lon": -77.0327155, "type": "electric_scooter"}, {"bike_id": "1ca319c92641aaeb9971b3a6c408453b", "is_reserved": 0, "fusion_lon": 0.0, "lat": 38.901357, "is_disabled": 0, "name": "1ca319c92641aaeb9971b3a6c408453b", "fusion_lat": 0.0, "rental_uris": {"ios": "https://dc.lft.to/lastmile_qr_scan", "android": "https://dc.lft.to/lastmile_qr_scan"}, "lon": -77.0422875, "type": "electric_scooter"}, {"bike_id": "005a95ead6214b27dbff846914b1d535", "is_reserved": 0, "fusion_lon": 0.0, "lat": 39.052011666666665, "is_disabled": 0, "name": "005a95ead6214b27dbff846914b1d535", "fusion_lat": 0.0, "rental_uris": {"ios": "https://dc.lft.to/lastmile_qr_scan", "android": "https://dc.lft.to/lastmile_qr_scan"}, "lon": -77.10921916666666, "type": "electric_bike"}, {"bike_id": "8d31e03d730d4ad0ec1d1e52de0f7707", "is_reserved": 0, "fusion_lon": 0.0, "lat": 38.906944833333334, "is_disabled": 0, "name": "8d31e03d730d4ad0ec1d1e52de0f7707", "fusion_lat": 0.0, "rental_uris": {"ios": "https://dc.lft.to/lastmile_qr_scan", "android": "https://dc.lft.to/lastmile_qr_scan"}, "lon": -77.07557783333333, "type": "electric_scooter"}, {"bike_id": "e06162ccd7e70d62aa1c3f4087ab156b", "is_reserved": 0, "fusion_lon": 0.0, "lat": 38.922115166666664, "is_disabled": 0, "name": "e06162ccd7e70d62aa1c3f4087ab156b", "fusion_lat": 0.0, "rental_uris": {"ios": "https://dc.lft.to/lastmile_qr_scan", "android": "https://dc.lft.to/lastmile_qr_scan"}, "lon": -77.03667783333333, "type": "electric_scooter"}, {"bike_id": "69a2a5288229bfdd49ac42416014478e", "is_reserved": 0, "fusion_lon": 0.0, "lat": 38.898338, "is_disabled": 0, "name": "69a2a5288229bfdd49ac42416014478e", "fusion_lat": 0.0, "rental_uris": {"ios": "https://dc.lft.to/lastmile_qr_scan", "android": "https://dc.lft.to/lastmile_qr_scan"}, "lon": -76.9462555, "type": "electric_scooter"}, {"bike_id": "bcf2945a0582e9b53dc8ead5ffb6af70", "is_reserved": 0, "fusion_lon": 0.0, "lat": 38.916843, "is_disabled": 0, "name": "bcf2945a0582e9b53dc8ead5ffb6af70", "fusion_lat": 0.0, "rental_uris": {"ios": "https://dc.lft.to/lastmile_qr_scan", "android": "https://dc.lft.to/lastmile_qr_scan"}, "lon": -77.029673, "type": "electric_scooter"}, {"bike_id": "d3eb1d14413d492d25770c135c83fd34", "is_reserved": 0, "fusion_lon": 0.0, "lat": 38.915483, "is_disabled": 0, "name": "d3eb1d14413d492d25770c135c83fd34", "fusion_lat": 0.0, "rental_uris": {"ios": "https://dc.lft.to/lastmile_qr_scan", "android": "https://dc.lft.to/lastmile_qr_scan"}, "lon": -77.03934883333334, "type": "electric_scooter"}, {"bike_id": "e3267e373cf83d847f25757df3313fca", "is_reserved": 0, "fusion_lon": 0.0, "lat": 38.9342055, "is_disabled": 0, "name": "e3267e373cf83d847f25757df3313fca", "fusion_lat": 0.0, "rental_uris": {"ios": "https://dc.lft.to/lastmile_qr_scan", "android": "https://dc.lft.to/lastmile_qr_scan"}, "lon": -77.0431685, "type": "electric_scooter"}, {"bike_id": "198728805eb656846c32297f4df40714", "is_reserved": 0, "fusion_lon": 0.0, "lat": 38.8960785, "is_disabled": 0, "name": "198728805eb656846c32297f4df40714", "fusion_lat": 0.0, "rental_uris": {"ios": "https://dc.lft.to/lastmile_qr_scan", "android": "https://dc.lft.to/lastmile_qr_scan"}, "lon": -77.00925483333333, "type": "electric_scooter"}, {"bike_id": "ef551bf4adc8a74fb0568b007eafad4c", "is_reserved": 0, "fusion_lon": 0.0, "lat": 38.908534, "is_disabled": 0, "name": "ef551bf4adc8a74fb0568b007eafad4c", "fusion_lat": 0.0, "rental_uris": {"ios": "https://dc.lft.to/lastmile_qr_scan", "android": "https://dc.lft.to/lastmile_qr_scan"}, "lon": -77.01185283333334, "type": "electric_scooter"}, {"bike_id": "c95d76c4159700636d98143dfe93eae5", "is_reserved": 0, "fusion_lon": 0.0, "lat": 38.88205766666667, "is_disabled": 0, "name": "c95d76c4159700636d98143dfe93eae5", "fusion_lat": 0.0, "rental_uris": {"ios": "https://dc.lft.to/lastmile_qr_scan", "android": "https://dc.lft.to/lastmile_qr_scan"}, "lon": -76.927009, "type": "electric_scooter"}, {"bike_id": "261dd674c726a0f91b7557b0aee7060d", "is_reserved": 0, "fusion_lon": 0.0, "lat": 38.898254666666666, "is_disabled": 0, "name": "261dd674c726a0f91b7557b0aee7060d", "fusion_lat": 0.0, "rental_uris": {"ios": "https://dc.lft.to/lastmile_qr_scan", "android": "https://dc.lft.to/lastmile_qr_scan"}, "lon": -77.03344883333334, "type": "electric_scooter"}, {"bike_id": "a441c83708e922a11023cec79e8a11b4", "is_reserved": 0, "fusion_lon": 0.0, "lat": 38.920893166666666, "is_disabled": 0, "name": "a441c83708e922a11023cec79e8a11b4", "fusion_lat": 0.0, "rental_uris": {"ios": "https://dc.lft.to/lastmile_qr_scan", "android": "https://dc.lft.to/lastmile_qr_scan"}, "lon": -77.07479683333334, "type": "electric_scooter"}, {"bike_id": "a04a3e48701092c94a13d3aeca308a39", "is_reserved": 0, "fusion_lon": 0.0, "lat": 38.905095333333335, "is_disabled": 0, "name": "a04a3e48701092c94a13d3aeca308a39", "fusion_lat": 0.0, "rental_uris": {"ios": "https://dc.lft.to/lastmile_qr_scan", "android": "https://dc.lft.to/lastmile_qr_scan"}, "lon": -77.04164116666666, "type": "electric_scooter"}, {"bike_id": "f7897011dad1d8b650646c3a52db72c9", "is_reserved": 0, "fusion_lon": 0.0, "lat": 38.887650666666666, "is_disabled": 0, "name": "f7897011dad1d8b650646c3a52db72c9", "fusion_lat": 0.0, "rental_uris": {"ios": "https://dc.lft.to/lastmile_qr_scan", "android": "https://dc.lft.to/lastmile_qr_scan"}, "lon": -77.030157, "type": "electric_scooter"}, {"bike_id": "04ca0e966cafa0c206dfeb337783bea2", "is_reserved": 0, "fusion_lon": 0.0, "lat": 38.92626633333333, "is_disabled": 0, "name": "04ca0e966cafa0c206dfeb337783bea2", "fusion_lat": 0.0, "rental_uris": {"ios": "https://dc.lft.to/lastmile_qr_scan", "android": "https://dc.lft.to/lastmile_qr_scan"}, "lon": -77.0350635, "type": "electric_scooter"}, {"bike_id": "daaced6839e5a71587794466208a2792", "is_reserved": 0, "fusion_lon": 0.0, "lat": 38.90125916666667, "is_disabled": 0, "name": "daaced6839e5a71587794466208a2792", "fusion_lat": 0.0, "rental_uris": {"ios": "https://dc.lft.to/lastmile_qr_scan", "android": "https://dc.lft.to/lastmile_qr_scan"}, "lon": -77.04486683333333, "type": "electric_scooter"}, {"bike_id": "7f36689fdadfaaf91bd24e6c5c1cc883", "is_reserved": 0, "fusion_lon": 0.0, "lat": 38.933418833333334, "is_disabled": 0, "name": "7f36689fdadfaaf91bd24e6c5c1cc883", "fusion_lat": 0.0, "rental_uris": {"ios": "https://dc.lft.to/lastmile_qr_scan", "android": "https://dc.lft.to/lastmile_qr_scan"}, "lon": -77.05868533333333, "type": "electric_scooter"}, {"bike_id": "946396c1114a4813aff2f58219ae824a", "is_reserved": 0, "fusion_lon": 0.0, "lat": 38.90439716666667, "is_disabled": 0, "name": "946396c1114a4813aff2f58219ae824a", "fusion_lat": 0.0, "rental_uris": {"ios": "https://dc.lft.to/lastmile_qr_scan", "android": "https://dc.lft.to/lastmile_qr_scan"}, "lon": -77.04023916666667, "type": "electric_scooter"},