{"data": {"bikes": [{"bike_id": "282b6e2f212ebe32729300d11c0c9dc7", "fusion_lon": 0.0, "lon": -77.0399185, "name": "282b6e2f212ebe32729300d11c0c9dc7", "is_disabled": 0, "rental_uris": {"android": "https://dc.lft.to/lastmile_qr_scan", "ios": "https://dc.lft.to/lastmile_qr_scan"}, "type": "electric_scooter", "lat": 38.905627, "is_reserved": 0, "fusion_lat": 0.0}, {"bike_id": "95fd6aee586ed5a0ec79aae2cf557490", "fusion_lon": 0.0, "lon": -77.00069183333333, "name": "95fd6aee586ed5a0ec79aae2cf557490", "is_disabled": 0, "rental_uris": {"android": "https://dc.lft.to/lastmile_qr_scan", "ios": "https://dc.lft.to/lastmile_qr_scan"}, "type": "electric_scooter", "lat": 38.9255085, "is_reserved": 0, "fusion_lat": 0.0}, {"bike_id": "5b25787758b28823759515bec35a94cc", "fusion_lon": 0.0, "lon": -76.99951216666666, "name": "5b25787758b28823759515bec35a94cc", "is_disabled": 0, "rental_uris": {"android": "https://dc.lft.to/lastmile_qr_scan", "ios": "https://dc.lft.to/lastmile_qr_scan"}, "type": "electric_scooter", "lat": 38.90852016666667, "is_reserved": 0, "fusion_lat": 0.0}, {"bike_id": "7f0793827f57b89edf473b82da75e2ee", "fusion_lon": 0.0, "lon": -77.00735266666666, "name": "7f0793827f57b89edf473b82da75e2ee", "is_disabled": 0, "rental_uris": {"android": "https://dc.lft.to/lastmile_qr_scan", "ios": "https://dc.lft.to/lastmile_qr_scan"}, "type": "electric_scooter", "lat": 38.8983445, "is_reserved": 0, "fusion_lat": 0.0}, {"bike_id": "787cc008ce849ed39fa68406cbb830fb", "fusion_lon": 0.0, "lon": -76.96541666666667, "name": "787cc008ce849ed39fa68406cbb830fb", "is_disabled": 0, "rental_uris": {"android": "https://dc.lft.to/lastmile_qr_scan", "ios": "https://dc.lft.to/lastmile_qr_scan"}, "type": "electric_scooter", "lat": 38.918511333333335, "is_reserved": 0, "fusion_lat": 0.0}, {"bike_id": "f8d37ec307a0625646a6155f9de61cbb", "fusion_lon": 0.0, "lon": -77.03454783333333, "name": "f8d37ec307a0625646a6155f9de61cbb", "is_disabled": 0, "rental_uris": {"android": "https://dc.lft.to/lastmile_qr_scan", "ios": "https://dc.lft.to/lastmile_qr_scan"}, "type": "electric_scooter", "lat": 38.9087315, "is_reserved": 0, "fusion_lat": 0.0}, {"bike_id": "9197152a015185f6a447deb29e420498", "fusion_lon": 0.0, "lon": -77.02367433333333, "name": "9197152a015185f6a447deb29e420498", "is_disabled": 0, "rental_uris": {"android": "https://dc.lft.to/lastmile_qr_scan", "ios": "https://dc.lft.to/lastmile_qr_scan"}, "type": "electric_scooter", "lat": 38.892239833333335, "is_reserved": 0, "fusion_lat": 0.0}, {"bike_id": "fa78ad8025f18718604d71fff1954002", "fusion_lon": 0.0, "lon": -77.0160515, "name": "fa78ad8025f18718604d71fff1954002", "is_disabled": 0, "rental_uris": {"android": "https://dc.lft.to/lastmile_qr_scan", "ios": "https://dc.lft.to/lastmile_qr_scan"}, "type": "electric_scooter", "lat": 38.920504333333334, "is_reserved": 0, "fusion_lat": 0.0}, {"bike_id": "00ce31e0b048a0f1b0e431c639cd1723", "fusion_lon": 0.0, "lon": -77.04103766666667, "name": "00ce31e0b048a0f1b0e431c639cd1723", "is_disabled": 0, "rental_uris": {"android": "https://dc.lft.to/lastmile_qr_scan", "ios": "https://dc.lft.to/lastmile_qr_scan"}, "type": "electric_scooter", "lat": 38.90496666666667, "is_reserved": 0, "fusion_lat": 0.0}, {"bike_id": "a37938710874548c1af0db43a40fe076", "fusion_lon": 0.0, "lon": -77.1013275, "name": "a37938710874548c1af0db43a40fe076", "is_disabled": 0, "rental_uris": {"android": "https://dc.lft.to/lastmile_qr_scan", "ios": "https://dc.lft.to/lastmile_qr_scan"}, "type": "electric_bike", "lat": 38.8520405, "is_reserved": 0, "fusion_lat": 0.0}, {"bike_id": "5ad4f8e6ec9876c469814e63b7461a74", "fusion_lon": 0.0, "lon": -77.0290775, "name": "5ad4f8e6ec9876c469814e63b7461a74", "is_disabled": 0, "rental_uris": {"android": "https://dc.lft.to/lastmile_qr_scan", "ios": "https://dc.lft.to/lastmile_qr_scan"}, "type": "electric_scooter", "lat": 38.92571083333333, "is_reserved": 0, "fusion_lat": 0.0}, {"bike_id": "7ea63a51d15c7537aa62bdd894fff8e5", "fusion_lon": 0.0, "lon": -76.93182666666667, "name": "7ea63a51d15c7537aa62bdd894fff8e5", "is_disabled": 0, "rental_uris": {"android": "https://dc.lft.to/lastmile_qr_scan", "ios": "https://dc.lft.to/lastmile_qr_scan"}, "type": "electric_scooter", "lat": 38.89880483333334, "is_reserved": 0, "fusion_lat": 0.0}, {"bike_id": "fd4a4baac78b93826f5239dcf0fa61b2", "fusion_lon": 0.0, "lon": -77.02945633333333, "name": "fd4a4baac78b93826f5239dcf0fa61b2", "is_disabled": 0, "rental_uris": {"android": "https://dc.lft.to/lastmile_qr_scan", "ios": "https://dc.lft.to/lastmile_qr_scan"}, "type": "electric_scooter", "lat": 38.905023666666665, "is_reserved": 0, "fusion_lat": 0.0}, {"bike_id": "68ac297f0df441f214178ecb416a5665", "fusion_lon": 0.0, "lon": -77.03844833333333, "name": "68ac297f0df441f214178ecb416a5665", "is_disabled": 0, "rental_uris": {"android": "https://dc.lft.to/lastmile_qr_scan", "ios": "https://dc.lft.to/lastmile_qr_scan"}, "type": "electric_scooter", "lat": 38.903525333333334, "is_reserved": 0, "fusion_lat": 0.0}, {"bike_id": "7cc5890b9a50c8385a1e25058b784bab", "fusion_lon": 0.0, "lon": -77.05315766666666, "name": "7cc5890b9a50c8385a1e25058b784bab", "is_disabled": 0, "rental_uris": {"android": "https://dc.lft.to/lastmile_qr_scan", "ios": "https://dc.lft.to/lastmile_qr_scan"}, "type": "electric_scooter", "lat": 38.902656, "is_reserved": 0, "fusion_lat": 0.0}, {"bike_id": "6cae8f988edc8b954117299fcd34215f", "fusion_lon": 0.0, "lon": -77.0302845, "name": "6cae8f988edc8b954117299fcd34215f", "is_disabled": 0, "rental_uris": {"android": "https://dc.lft.to/lastmile_qr_scan", "ios": "https://dc.lft.to/lastmile_qr_scan"}, "type": "electric_scooter", "lat": 38.896116166666665, "is_reserved": 0, "fusion_lat": 0.0}, {"bike_id": "aaf1d50a173fc0b6cc8c46e48da872d2", "fusion_lon": 0.0, "lon": -76.9977665, "name": "aaf1d50a173fc0b6cc8c46e48da872d2", "is_disabled": 0, "rental_uris": {"android": "https://dc.lft.to/lastmile_qr_scan", "ios": "https://dc.lft.to/lastmile_qr_scan"}, "type": "electric_bike", "lat": 38.862109333333336, "is_reserved": 0, "fusion_lat": 0.0}, {"bike_id": "aa31bae1102ff0c0b7d27d9c5d7711ab", "fusion_lon": 0.0, "lon": -77.02397783333333, "name": "aa31bae1102ff0c0b7d27d9c5d7711ab", "is_disabled": 0, "rental_uris": {"android": "https://dc.lft.to/lastmile_qr_scan", "ios": "https://dc.lft.to/lastmile_qr_scan"}, "type": "electric_scooter", "lat": 38.896154, "is_reserved": 0, "fusion_lat": 0.0}, {"bike_id": "2a576613bc50be75e518d63b9c0bf18a", "fusion_lon": 0.0, "lon": -77.01508783333334, "name": "2a576613bc50be75e518d63b9c0bf18a", "is_disabled": 0, "rental_uris": {"android": "https://dc.lft.to/lastmile_qr_scan", "ios": "https://dc.lft.to/lastmile_qr_scan"}, "type": "electric_scooter", "lat": 38.893033, "is_reserved": 0, "fusion_lat": 0.0}, {"bike_id": "4caee48550b45e7c5d44b4aee986bb13", "fusion_lon": 0.0, "lon": -77.05325466666666, "name": "4caee48550b45e7c5d44b4aee986bb13", "is_disabled": 0, "rental_uris": {"android": "https://dc.lft.to/lastmile_qr_scan", "ios": "https://dc.lft.to/lastmile_qr_scan"}, "type": "electric_scooter", "lat": 38.9279475, "is_reserved": 0, "fusion_lat": 0.0}, {"bike_id": "2d8a34608592e5615c476d7307da3bb7", "fusion_lon": 0.0, "lon": -76.98515983333333, "name": "2d8a34608592e5615c476d7307da3bb7", "is_disabled": 0, "rental_uris": {"android": "https://dc.lft.to/lastmile_qr_scan", "ios": "https://dc.lft.to/lastmile_qr_scan"}, "type": "electric_scooter", "lat": 38.86659783333333, "is_reserved": 0, "fusion_lat": 0.0}, {"bike_id": "0847304fcf8ab8b8653cdae389aa4002", "fusion_lon": 0.0, "lon": -77.0217655, "name": "0847304fcf8ab8b8653cdae389aa4002", "is_disabled": 0, "rental_uris": {"android": "https://dc.lft.to/lastmile_qr_scan", "ios": "https://dc.lft.to/lastmile_qr_scan"}, "type": "electric_scooter", "lat": 38.91978, "is_reserved": 0, "fusion_lat": 0.0}, {"bike_id": "3b860d939ba6ecfa6a5f5ae5158327c6", "fusion_lon": 0.0, "lon": -77.02765466666666, "name": "3b860d939ba6ecfa6a5f5ae5158327c6", "is_disabled": 0, "rental_uris": {"android": "https://dc.lft.to/lastmile_qr_scan", "ios": "https://dc.lft.to/lastmile_qr_scan"}, "type": "electric_scooter", "lat": 38.9542395, "is_reserved": 0, "fusion_lat": 0.0}, {"bike_id": "2daaa2975944123e767358403a76e3df", "fusion_lon": 0.0, "lon": -77.04914933333333, "name": "2daaa2975944123e767358403a76e3df", "is_disabled": 0, "rental_uris": {"android": "https://dc.lft.to/lastmile_qr_scan", "ios": "https://dc.lft.to/lastmile_qr_scan"}, "type": "electric_scooter", "lat": 38.90503283333334, "is_reserved": 0, "fusion_lat": 0.0}, {"bike_id": "1e726f11ba8169c40f8631bec823959e", "fusion_lon": 0.0, "lon": -76.98689483333334, "name": "1e726f11ba8169c40f8631bec823959e", "is_disabled": 0, "rental_uris": {"android": "https://dc.lft.to/lastmile_qr_scan", "ios": "https://dc.lft.to/lastmile_qr_scan"}, "type": "electric_scooter", "lat": 38.86257233333333, "is_reserved": 0, "fusion_lat": 0.0}, {"bike_id": "7a1c0f03e4a3d6978e4408c40143aed0", "fusion_lon": 0.0, "lon": -77.02406366666666, "name": "7a1c0f03e4a3d6978e4408c40143aed0", "is_disabled": 0, "rental_uris": {"android": "https://dc.lft.to/lastmile_qr_scan", "ios": "https://dc.lft.to/lastmile_qr_scan"}, "type": "electric_scooter", "lat": 38.898895333333336, "is_reserved": 0, "fusion_lat": 0.0}, {"bike_id": "2d5c3aea76dfb1b11c509aef7a3e78e5", "fusion_lon": 0.0, "lon": -76.99506866666667, "name": "2d5c3aea76dfb1b11c509aef7a3e78e5", "is_disabled": 0, "rental_uris": {"android": "https://dc.lft.to/lastmile_qr_scan", "ios": "https://dc.lft.to/lastmile_qr_scan"}, "type": "electric_scooter", "lat": 38.882507, "is_reserved": 0, "fusion_lat": 0.0}, {"bike_id": "37f50b2cdf39db8bba07616575d4c682", "fusion_lon": 0.0, "lon": -77.01356066666666, "name": "37f50b2cdf39db8bba07616575d4c682", "is_disabled": 0, "rental_uris": {"android": "https://dc.lft.to/lastmile_qr_scan", "ios": "https://dc.lft.to/lastmile_qr_scan"}, "type": "electric_scooter", "lat": 38.92908533333333, "is_reserved": 0, "fusion_lat": 0.0}, {"bike_id": "ac7288b8e8f86fecbd0e67025aacb755", "fusion_lon": 0.0, "lon": -77.03127933333333, "name": "ac7288b8e8f86fecbd0e67025aacb755", "is_disabled": 0, "rental_uris": {"android": "https://dc.lft.to/lastmile_qr_scan", "ios": "https://dc.lft.to/lastmile_qr_scan"}, "type": "electric_scooter", "lat": 38.92369266666667, "is_reserved": 0, "fusion_lat": 0.0}, {"bike_id": "69dc4fc886d273edade261c74689050a", "fusion_lon": 0.0, "lon": -77.05338983333333, "name": "69dc4fc886d273edade261c74689050a", "is_disabled": 0, "rental_uris": {"android": "https://dc.lft.to/lastmile_qr_scan", "ios": "https://dc.lft.to/lastmile_qr_scan"}, "type": "electric_scooter", "lat": 38.923555, "is_reserved": 0, "fusion_lat": 0.0}, {"bike_id": "4233a738b588b17348dd0a2ec186618e", "fusion_lon": 0.0, "lon": -77.00646316666666, "name": "4233a738b588b17348dd0a2ec186618e", "is_disabled": 0, "rental_uris": {"android": "https://dc.lft.to/lastmile_qr_scan", "ios": "https://dc.lft.to/lastmile_qr_scan"}, "type": "electric_scooter", "lat": 38.900984666666666, "is_reserved": 0, "fusion_lat": 0.0}, {"bike_id": "ffb081d6224b27819993a457a5834e02", "fusion_lon": 0.0, "lon": -77.0400825, "name": "ffb081d6224b27819993a457a5834e02", "is_disabled": 0, "rental_uris": {"android": "https://dc.lft.to/lastmile_qr_scan", "ios": "https://dc.lft.to/lastmile_qr_scan"}, "type": "electric_scooter", "lat": 38.924299833333336, "is_reserved": 0, "fusion_lat": 0.0}, {"bike_id": "d45c171eaaba6e93d98f166d228ae58d", "fusion_lon": 0.0, "lon": -77.0465685, "name": "d45c171eaaba6e93d98f166d228ae58d", "is_disabled": 0, "rental_uris": {"android": "https://dc.lft.to/lastmile_qr_scan", "ios": "https://dc.lft.to/lastmile_qr_scan"}, "type": "electric_scooter", "lat": 38.892535333333335, "is_reserved": 0, "fusion_lat": 0.0}, {"bike_id": "c3dc73ccb64b23878c0fed5283f53531", "fusion_lon": 0.0, "lon": -77.02310233333333, "name": "c3dc73ccb64b23878c0fed5283f53531", "is_disabled": 0, "rental_uris": {"android": "https://dc.lft.to/lastmile_qr_scan", "ios": "https://dc.lft.to/lastmile_qr_scan"}, "type": "electric_scooter", "lat": 38.89550333333333, "is_reserved": 0, "fusion_lat": 0.0}, {"bike_id": "a6e2457a443918f22fae70699077b345", "fusion_lon": 0.0, "lon": -77.05001316666667, "name": "a6e2457a443918f22fae70699077b345", "is_disabled": 0, "rental_uris": {"android": "https://dc.lft.to/lastmile_qr_scan", "ios": "https://dc.lft.to/lastmile_qr_scan"}, "type": "electric_scooter", "lat": 38.8923245, "is_reserved": 0, "fusion_lat": 0.0}, {"bike_id": "5f22f3e9f8cbdcd1742bcf356f9787b4", "fusion_lon": 0.0, "lon": -77.06036233333333, "name": "5f22f3e9f8cbdcd1742bcf356f9787b4", "is_disabled": 0, "rental_uris": {"android": "https://dc.lft.to/lastmile_qr_scan", "ios": "https://dc.lft.to/lastmile_qr_scan"}, "type": "electric_scooter", "lat": 38.902182833333335, "is_reserved": 0, "fusion_lat": 0.0}, {"bike_id": "a1297827242d86b83bde6b59b9094fa6", "fusion_lon": 0.0, "lon": -77.0160605, "name": "a1297827242d86b83bde6b59b9094fa6", "is_disabled": 0, "rental_uris": {"android": "https://dc.lft.to/lastmile_qr_scan", "ios": "https://dc.lft.to/lastmile_qr_scan"}, "type": "electric_scooter", "lat": 38.91811083333333, "is_reserved": 0, "fusion_lat": 0.0}, {"bike_id": "48953009e894040096785caf88c2bcae", "fusion_lon": 0.0, "lon": -77.0317195, "name": "48953009e894040096785caf88c2bcae", "is_disabled": 0, "rental_uris": {"android": "https://dc.lft.to/lastmile_qr_scan", "ios": "https://dc.lft.to/lastmile_qr_scan"}, "type": "electric_scooter", "lat": 38.90955666666667, "is_reserved": 0, "fusion_lat": 0.0}, {"bike_id": "d12957490d0d52a00fc36559ed34d8f1", "fusion_lon": 0.0, "lon": -77.031304, "name": "d12957490d0d52a00fc36559ed34d8f1", "is_disabled": 0, "rental_uris": {"android": "https://dc.lft.to/lastmile_qr_scan", "ios": "https://dc.lft.to/lastmile_qr_scan"}, "type": "electric_scooter", "lat": 38.92366, "is_reserved": 0, "fusion_lat": 0.0}, {"bike_id": "82196bf4c03de52af0f31ed9b6e92158", "fusion_lon": 0.0, "lon": -77.03101583333333, "name": "82196bf4c03de52af0f31ed9b6e92158", "is_disabled": 0, "rental_uris": {"android": "https://dc.lft.to/lastmile_qr_scan", "ios": "https://dc.lft.to/lastmile_qr_scan"}, "type": "electric_scooter", "lat": 38.926686, "is_reserved": 0, "fusion_lat": 0.0}, {"bike_id": "8a18429c0adbf559052950598a194245", "fusion_lon": 0.0, "lon": -77.02814833333333, "name": "8a18429c0adbf559052950598a194245", "is_disabled": 0, "rental_uris": {"android": "https://dc.lft.to/lastmile_qr_scan", "ios": "https://dc.lft.to/lastmile_qr_scan"}, "type": "electric_scooter", "lat": 38.89927866666667, "is_reserved": 0, "fusion_lat": 0.0}, {"bike_id": "5bcfb11a9d7f55b77ed7dd2cbd2b9237", "fusion_lon": 0.0, "lon": -77.0226035, "name": "5bcfb11a9d7f55b77ed7dd2cbd2b9237", "is_disabled": 0, "rental_uris": {"android": "https://dc.lft.to/lastmile_qr_scan", "ios": "https://dc.lft.to/lastmile_qr_scan"}, "type": "electric_scooter", "lat": 38.90211516666667, "is_reserved": 0, "fusion_lat": 0.0}, {"bike_id": "d05f5297c7ad2766903b9fe75c58a85f", "fusion_lon": 0.0, "lon": -77.04013583333334, "name": "d05f5297c7ad2766903b9fe75c58a85f", "is_disabled": 0, "rental_uris": {"android": "https://dc.lft.to/lastmile_qr_scan", "ios": "https://dc.lft.to/lastmile_qr_scan"}, "type": "electric_scooter", "lat": 38.903256666666664, "is_reserved": 0, "fusion_lat": 0.0}, {"bike_id": "9d1681c25f42a073bd539bf211e62f9b", "fusion_lon": 0.0, "lon": -77.03901816666666, "name": "9d1681c25f42a073bd539bf211e62f9b", "is_disabled": 0, "rental_uris": {"android": "https://dc.lft.to/lastmile_qr_scan", "ios": "https://dc.lft.to/lastmile_qr_scan"}, "type": "electric_scooter", "lat": 38.922032333333334, "is_reserved": 0, "fusion_lat": 0.0}, {"bike_id": "b3326e718b97e8f0a22777e8ced81070", "fusion_lon": 0.0, "lon": -77.043513, "name": "b3326e718b97e8f0a22777e8ced81070", "is_disabled": 0, "rental_uris": {"android": "https://dc.lft.to/lastmile_qr_scan", "ios": "https://dc.lft.to/lastmile_qr_scan"}, "type": "electric_scooter", "lat": 38.90255366666667, "is_reserved": 0, "fusion_lat": 0.0}, {"bike_id": "66c11cb6b47735854ada05f058b2a397", "fusion_lon": 0.0, "lon": -77.00203166666667, "name": "66c11cb6b47735854ada05f058b2a397", "is_disabled": 0, "rental_uris": {"android": "https://dc.lft.to/lastmile_qr_scan", "ios": "https://dc.lft.to/lastmile_qr_scan"}, "type": "electric_scooter", "lat": 38.90078883333334, "is_reserved": 0, "fusion_lat": 0.0}, {"bike_id": "eb224a918a7bb6935019bd3192a1593e", "fusion_lon": 0.0, "lon": -77.0362005, "name": "eb224a918a7bb6935019bd3192a1593e", "is_disabled": 0, "rental_uris": {"android": "https://dc.lft.to/lastmile_qr_scan", "ios": "https://dc.lft.to/lastmile_qr_scan"}, "type": "electric_scooter", "lat": 38.90551633333333, "is_reserved": 0, "fusion_lat": 0.0}, {"bike_id": "85cf6631f162e072d2e397103b6a7341", "fusion_lon": 0.0, "lon": -76.9953345, "name": "85cf6631f162e072d2e397103b6a7341", "is_disabled": 0, "rental_uris": {"android": "https://dc.lft.to/lastmile_qr_scan", "ios": "https://dc.lft.to/lastmile_qr_scan"}, "type": "electric_scooter", "lat": 38.862444833333335, "is_reserved": 0, "fusion_lat": 0.0}, {"bike_id": "387ba74f929631077e29bdcc229bf006", "fusion_lon": 0.0, "lon": -76.97237033333333, "name": "387ba74f929631077e29bdcc229bf006", "is_disabled": 0, "rental_uris": {"android": "https://dc.lft.to/lastmile_qr_scan", "ios": "https://dc.lft.to/lastmile_qr_scan"}, "type": "electric_bike", "lat": 38.85457683333333, "is_reserved": 0, "fusion_lat": 0.0}, {"bike_id": "4f946db05b1076d727d5c2dae7ff344f", "fusion_lon": 0.0, "lon": -77.03861566666667, "name": "4f946db05b1076d727d5c2dae7ff344f", "is_disabled": 0, "rental_uris": {"android": "https://dc.lft.to/lastmile_qr_scan", "ios": "https://dc.lft.to/lastmile_qr_scan"}, "type": "electric_scooter", "lat": 38.91708466666667, "is_reserved": 0, "fusion_lat": 0.0}, {"bike_id": "ca41e7f6ddb7b3a29a590f47f782dd91", "fusion_lon": 0.0, "lon": -77.04133516666667, "name": "ca41e7f6ddb7b3a29a590f47f782dd91", "is_disabled": 0, "rental_uris": {"android": "https://dc.lft.to/lastmile_qr_scan", "ios": "https://dc.lft.to/lastmile_qr_scan"}, "type": "electric_scooter", "lat": 38.92270366666666, "is_reserved": 0, "fusion_lat": 0.0}, {"bike_id": "019c303de5fce2b92fdb16713e8c1ef3", "fusion_lon": 0.0, "lon": -77.04478033333334, "name": "019c303de5fce2b92fdb16713e8c1ef3", "is_disabled": 0, "rental_uris": {"android": "https://dc.lft.to/lastmile_qr_scan", "ios": "https://dc.lft.to/lastmile_qr_scan"}, "type": "electric_scooter", "lat": 38.924237166666664, "is_reserved": 0, "fusion_lat": 0.0}, {"bike_id": "d9aa4aa9afbcc5abc28a978f751c2a07", "fusion_lon": 0.0, "lon": -77.00828816666667, "name": "d9aa4aa9afbcc5abc28a978f751c2a07", "is_disabled": 0, "rental_uris": {"android": "https://dc.lft.to/lastmile_qr_scan", "ios": "https://dc.lft.to/lastmile_qr_scan"}, "type": "electric_bike", "lat": 38.829095333333335, "is_reserved": 0, "fusion_lat": 0.0}, {"bike_id": "936aa621d8639aae8b12e337af0255f4", "fusion_lon": 0.0, "lon": -77.038723, "name": "936aa621d8639aae8b12e337af0255f4", "is_disabled": 0, "rental_uris": {"android": "https://dc.lft.to/lastmile_qr_scan", "ios": "https://dc.lft.to/lastmile_qr_scan"}, "type": "electric_scooter", "lat": 38.932435166666664, "is_reserved": 0, "fusion_lat": 0.0}, {"bike_id": "c1f3e8489c39fd3c4d6dc4c14fd2724e", "fusion_lon": 0.0, "lon": -76.99486, "name": "c1f3e8489c39fd3c4d6dc4c14fd2724e", "is_disabled": 0, "rental_uris": {"android": "https://dc.lft.to/lastmile_qr_scan", "ios": "https://dc.lft.to/lastmile_qr_scan"}, "type": "electric_scooter", "lat": 38.909834833333335, "is_reserved": 0, "fusion_lat": 0.0}, {"bike_id": "2d2a344cf5b8b19b0b1728dcf44981cb", "fusion_lon": 0.0, "lon": -76.94943316666667, "name": "2d2a344cf5b8b19b0b1728dcf44981cb", "is_disabled": 0, "rental_uris": {"android": "https://dc.lft.to/lastmile_qr_scan", "ios": "https://dc.lft.to/lastmile_qr_scan"}, "type": "electric_scooter", "lat": 38.89493816666667, "is_reserved": 0, "fusion_lat": 0.0}, {"bike_id": "3d6ba8c9e4c16a44cf0d592284488fdb", "fusion_lon": 0.0, "lon": -77.03524033333333, "name": "3d6ba8c9e4c16a44cf0d592284488fdb", "is_disabled": 0, "rental_uris": {"android": "https://dc.lft.to/lastmile_qr_scan", "ios": "https://dc.lft.to/lastmile_qr_scan"}, "type": "electric_scooter", "lat": 38.92309733333333, "is_reserved": 0, "fusion_lat": 0.0}, {"bike_id": "1c58195dda11b8cc65e9b6e2eb7c2826", "fusion_lon": 0.0, "lon": -77.00675516666666, "name": "1c58195dda11b8cc65e9b6e2eb7c2826", "is_disabled": 0, "rental_uris": {"android": "https://dc.lft.to/lastmile_qr_scan", "ios": "https://dc.lft.to/lastmile_qr_scan"}, "type": "electric_bike", "lat": 38.945108166666664, "is_reserved": 0, "fusion_lat": 0.0}, {"bike_id": "219212f47dbb8e3f38098fae12080d1a", "fusion_lon": 0.0, "lon": -77.02514933333333, "name": "219212f47dbb8e3f38098fae12080d1a", "is_disabled": 0, "rental_uris": {"android": "https://dc.lft.to/lastmile_qr_scan", "ios": "https://dc.lft.to/lastmile_qr_scan"}, "type": "electric_scooter", "lat": 38.946178333333336, "is_reserved": 0, "fusion_lat": 0.0}, {"bike_id": "1737128e860b8fb5ad22b8354b28883f", "fusion_lon": 0.0, "lon": -76.95366683333333, "name": "1737128e860b8fb5ad22b8354b28883f", "is_disabled": 0, "rental_uris": {"android": "https://dc.lft.to/lastmile_qr_scan", "ios": "https://dc.lft.to/lastmile_qr_scan"}, "type": "electric_scooter", "lat": 38.89208883333333, "is_reserved": 0, "fusion_lat": 0.0}, {"bike_id": "02f3128d2893ec5d84eec7348e958df0", "fusion_lon": 0.0, "lon": -77.01947066666666, "name": "02f3128d2893ec5d84eec7348e958df0", "is_disabled": 0, "rental_uris": {"android": "https://dc.lft.to/lastmile_qr_scan", "ios": "https://dc.lft.to/lastmile_qr_scan"}, "type": "electric_scooter", "lat": 38.924204, "is_reserved": 0, "fusion_lat": 0.0}, {"bike_id": "90e593e01d489b27c832a8b845d00f4f", "fusion_lon": 0.0, "lon": -77.05392666666667, "name": "90e593e01d489b27c832a8b845d00f4f", "is_disabled": 0, "rental_uris": {"android": "https://dc.lft.to/lastmile_qr_scan", "ios": "https://dc.lft.to/lastmile_qr_scan"}, "type": "electric_scooter", "lat": 38.92812466666667, "is_reserved": 0, "fusion_lat": 0.0}, {"bike_id": "bdf372513c840ea830e07caccfd9e71e", "fusion_lon": 0.0, "lon": -76.98710616666666, "name": "bdf372513c840ea830e07caccfd9e71e", "is_disabled": 0, "rental_uris": {"android": "https://dc.lft.to/lastmile_qr_scan", "ios": "https://dc.lft.to/lastmile_qr_scan"}, "type": "electric_scooter", "lat": 38.866990333333334, "is_reserved": 0, "fusion_lat": 0.0}, {"bike_id": "cfc7841f3c1a0fe32ec5432624a65837", "fusion_lon": 0.0, "lon": -77.03653083333333, "name": "cfc7841f3c1a0fe32ec5432624a65837", "is_disabled": 0, "rental_uris": {"android": "https://dc.lft.to/lastmile_qr_scan", "ios": "https://dc.lft.to/lastmile_qr_scan"}, "type": "electric_scooter", "lat": 38.929829833333336, "is_reserved": 0, "fusion_lat": 0.0}, {"bike_id": "f29d39f6e83334772ad77cad90a88390", "fusion_lon": 0.0, "lon": -76.9983285, "name": "f29d39f6e83334772ad77cad90a88390", "is_disabled": 0, "rental_uris": {"android": "https://dc.lft.to/lastmile_qr_scan", "ios": "https://dc.lft.to/lastmile_qr_scan"}, "type": "electric_scooter", "lat": 38.9074005, "is_reserved": 0, "fusion_lat": 0.0}, {"bike_id": "cbed51c28bc0712401c6071da445129d", "fusion_lon": 0.0, "lon": -77.01187383333334, "name": "cbed51c28bc0712401c6071da445129d", "is_disabled": 0, "rental_uris": {"android": "https://dc.lft.to/lastmile_qr_scan", "ios": "https://dc.lft.to/lastmile_qr_scan"}, "type": "electric_scooter", "lat": 38.9154575, "is_reserved": 0, "fusion_lat": 0.0}, {"bike_id": "1baa911a1772de53c22c24f782ffb54f", "fusion_lon": 0.0, "lon": -77.03945266666666, "name": "1baa911a1772de53c22c24f782ffb54f", "is_disabled": 0, "rental_uris": {"android": "https://dc.lft.to/lastmile_qr_scan", "ios": "https://dc.lft.to/lastmile_qr_scan"}, "type": "electric_scooter", "lat": 38.90813466666667, "is_reserved": 0, "fusion_lat": 0.0}, {"bike_id": "88955410a4f9c0bd909b116fb3aa394f", "fusion_lon": 0.0, "lon": -77.02201733333334, "name": "88955410a4f9c0bd909b116fb3aa394f", "is_disabled": 0, "rental_uris": {"android": "https://dc.lft.to/lastmile_qr_scan", "ios": "https://dc.lft.to/lastmile_qr_scan"}, "type": "electric_scooter", "lat": 38.89546816666667, "is_reserved": 0, "fusion_lat": 0.0}, {"bike_id": "f5e12e71ec07a57cb43a4057b3bad411", "fusion_lon": 0.0, "lon": -77.03183833333334, "name": "f5e12e71ec07a57cb43a4057b3bad411", "is_disabled": 0, "rental_uris": {"android": "https://dc.lft.to/lastmile_qr_scan", "ios": "https://dc.lft.to/lastmile_qr_scan"}, "type": "electric_scooter", "lat": 38.91346933333333, "is_reserved": 0, "fusion_lat": 0.0}, {"bike_id": "f8b4fbf523574d65f30e46203ad792f0", "fusion_lon": 0.0, "lon": -77.0176255, "name": "f8b4fbf523574d65f30e46203ad792f0", "is_disabled": 0, "rental_uris": {"android": "https://dc.lft.to/lastmile_qr_scan", "ios": "https://dc.lft.to/lastmile_qr_scan"}, "type": "electric_scooter", "lat": 38.878555, "is_reserved": 0, "fusion_lat": 0.0}, {"bike_id": "43c38d2ce2ed5b167c497f56f0481c23", "fusion_lon": 0.0, "lon": -76.97743466666667, "name": "43c38d2ce2ed5b167c497f56f0481c23", "is_disabled": 0, "rental_uris": {"android": "https://dc.lft.to/lastmile_qr_scan", "ios": "https://dc.lft.to/lastmile_qr_scan"}, "type": "electric_scooter", "lat": 38.8683405, "is_reserved": 0, "fusion_lat": 0.0}, {"bike_id": "d0b29108481164fe525b5de122fee72b", "fusion_lon": 0.0, "lon": -77.01762766666667, "name": "d0b29108481164fe525b5de122fee72b", "is_disabled": 0, "rental_uris": {"android": "https://dc.lft.to/lastmile_qr_scan", "ios": "https://dc.lft.to/lastmile_qr_scan"}, "type": "electric_scooter", "lat": 38.91728766666667, "is_reserved": 0, "fusion_lat": 0.0}, {"bike_id": "459ee9b3087bc5f5c6c25ac45097e770", "fusion_lon": 0.0, "lon": -77.0269455, "name": "459ee9b3087bc5f5c6c25ac45097e770", "is_disabled": 0, "rental_uris": {"android": "https://dc.lft.to/lastmile_qr_scan", "ios": "https://dc.lft.to/lastmile_qr_scan"}, "type": "electric_scooter", "lat": 38.911328833333336, "is_reserved": 0, "fusion_lat": 0.0}, {"bike_id": "75e5a0a98c24dc95a04593cb1fecb2d3", "fusion_lon": 0.0, "lon": -77.0271565, "name": "75e5a0a98c24dc95a04593cb1fecb2d3", "is_disabled": 0, "rental_uris": {"android": "https://dc.lft.to/lastmile_qr_scan", "ios": "https://dc.lft.to/lastmile_qr_scan"}, "type": "electric_scooter", "lat": 38.90954283333333, "is_reserved": 0, "fusion_lat": 0.0}, {"bike_id": "eff2a725aebc223f45b59e5f8e579833", "fusion_lon": 0.0, "lon": -77.02979266666667, "name": "eff2a725aebc223f45b59e5f8e579833", "is_disabled": 0, "rental_uris": {"android": "https://dc.lft.to/lastmile_qr_scan", "ios": "https://dc.lft.to/lastmile_qr_scan"}, "type": "electric_scooter", "lat": 38.95196966666666, "is_reserved": 0, "fusion_lat": 0.0}, {"bike_id": "82d49b4e2079c000fbc325f172f094b5", "fusion_lon": 0.0, "lon": -76.9650285, "name": "82d49b4e2079c000fbc325f172f094b5", "is_disabled": 0, "rental_uris": {"android": "https://dc.lft.to/lastmile_qr_scan", "ios": "https://dc.lft.to/lastmile_qr_scan"}, "type": "electric_bike", "lat": 38.875534333333334, "is_reserved": 0, "fusion_lat": 0.0}, {"bike_id": "1250ae9c2dae6ba6630f9e09e9ecf266", "fusion_lon": 0.0, "lon": -77.0385915, "name": "1250ae9c2dae6ba6630f9e09e9ecf266", "is_disabled": 0, "rental_uris": {"android": "https://dc.lft.to/lastmile_qr_scan", "ios": "https://dc.lft.to/lastmile_qr_scan"}, "type": "electric_scooter", "lat": 38.90783033333334, "is_reserved": 0, "fusion_lat": 0.0}, {"bike_id": "2a8823f66ea88d4e9b068a12acff444b", "fusion_lon": 0.0, "lon": -77.062124, "name": "2a8823f66ea88d4e9b068a12acff444b", "is_disabled": 0, "rental_uris": {"android": "https://dc.lft.to/lastmile_qr_scan", "ios": "https://dc.lft.to/lastmile_qr_scan"}, "type": "electric_bike", "lat": 38.92035633333333, "is_reserved": 0, "fusion_lat": 0.0}, {"bike_id": "d99426ad2805d03face3b2b58ef63e1f", "fusion_lon": 0.0, "lon": -77.0356895, "name": "d99426ad2805d03face3b2b58ef63e1f", "is_disabled": 0, "rental_uris": {"android": "https://dc.lft.to/lastmile_qr_scan", "ios": "https://dc.lft.to/lastmile_qr_scan"}, "type": "electric_scooter", "lat": 38.923279, "is_reserved": 0, "fusion_lat": 0.0}, {"bike_id": "f34a4e0f74c7739e16c464eea66189e3", "fusion_lon": 0.0, "lon": -77.05050916666667, "name": "f34a4e0f74c7739e16c464eea66189e3", "is_disabled": 0, "rental_uris": {"android": "https://dc.lft.to/lastmile_qr_scan", "ios": "https://dc.lft.to/lastmile_qr_scan"}, "type": "electric_scooter", "lat": 38.92342266666667, "is_reserved": 0, "fusion_lat": 0.0}, {"bike_id": "f2d848d62d72f1b8e6dcaa95fe75ff2f", "fusion_lon": 0.0, "lon": -76.954986, "name": "f2d848d62d72f1b8e6dcaa95fe75ff2f", "is_disabled": 0, "rental_uris": {"android": "https://dc.lft.to/lastmile_qr_scan", "ios": "https://dc.lft.to/lastmile_qr_scan"}, "type": "electric_scooter", "lat": 38.8872855, "is_reserved": 0, "fusion_lat": 0.0}, {"bike_id": "a23213fdf20873bf8870450ba00fc279", "fusion_lon": 0.0, "lon": -76.99598383333333, "name": "a23213fdf20873bf8870450ba00fc279", "is_disabled": 0, "rental_uris": {"android": "https://dc.lft.to/lastmile_qr_scan", "ios": "https://dc.lft.to/lastmile_qr_scan"}, "type": "electric_scooter", "lat": 38.856942833333335, "is_reserved": 0, "fusion_lat": 0.0}, {"bike_id": "c97692059a035a20b277ddc35c6f49e9", "fusion_lon": 0.0, "lon": -76.957414, "name": "c97692059a035a20b277ddc35c6f49e9", "is_disabled": 0, "rental_uris": {"android": "https://dc.lft.to/lastmile_qr_scan", "ios": "https://dc.lft.to/lastmile_qr_scan"}, "type": "electric_scooter", "lat": 38.89631333333333, "is_reserved": 0, "fusion_lat": 0.0}, {"bike_id": "908fe64b0e9754c3264794863e9a533d", "fusion_lon": 0.0, "lon": -77.04349716666667, "name": "908fe64b0e9754c3264794863e9a533d", "is_disabled": 0, "rental_uris": {"android": "https://dc.lft.to/lastmile_qr_scan", "ios": "https://dc.lft.to/lastmile_qr_scan"}, "type": "electric_scooter", "lat": 38.91259133333333, "is_reserved": 0, "fusion_lat": 0.0}, {"bike_id": "2a747707015826986ae3450535bea9f7", "fusion_lon": 0.0, "lon": -77.044875, "name": "2a747707015826986ae3450535bea9f7", "is_disabled": 0, "rental_uris": {"android": "https://dc.lft.to/lastmile_qr_scan", "ios": "https://dc.lft.to/lastmile_qr_scan"}, "type": "electric_scooter", "lat": 38.910971333333336, "is_reserved": 0, "fusion_lat": 0.0}, {"bike_id": "9cc739c5e81934f681c4ce40da6293be", "fusion_lon": 0.0, "lon": -76.9901065, "name": "9cc739c5e81934f681c4ce40da6293be", "is_disabled": 0, "rental_uris": {"android": "https://dc.lft.to/lastmile_qr_scan", "ios": "https://dc.lft.to/lastmile_qr_scan"}, "type": "electric_scooter", "lat": 38.858806666666666, "is_reserved": 0, "fusion_lat": 0.0}, {"bike_id": "8eb7059ffc75b2f54f43f90e023ebaf2", "fusion_lon": 0.0, "lon": -77.0295075, "name": "8eb7059ffc75b2f54f43f90e023ebaf2", "is_disabled": 0, "rental_uris": {"android": "https://dc.lft.to/lastmile_qr_scan", "ios": "https://dc.lft.to/lastmile_qr_scan"}, "type": "electric_scooter", "lat": 38.91685983333333, "is_reserved": 0, "fusion_lat": 0.0}, {"bike_id": "12930ccbe6036437534374e542878f5a", "fusion_lon": 0.0, "lon": -77.0383965, "name": "12930ccbe6036437534374e542878f5a", "is_disabled": 0, "rental_uris": {"android": "https://dc.lft.to/lastmile_qr_scan", "ios": "https://dc.lft.to/lastmile_qr_scan"}, "type": "electric_scooter", "lat": 38.9110365, "is_reserved": 0, "fusion_lat": 0.0}, {"bike_id": "32f6ab38368f030157d974e14e9a6094", "fusion_lon": 0.0, "lon": -77.03268833333334, "name": "32f6ab38368f030157d974e14e9a6094", "is_disabled": 0, "rental_uris": {"android": "https://dc.lft.to/lastmile_qr_scan", "ios": "https://dc.lft.to/lastmile_qr_scan"}, "type": "electric_scooter", "lat": 38.937403, "is_reserved": 0, "fusion_lat": 0.0}, {"bike_id": "aa93f3054404411619a352f5d1f682c9", "fusion_lon": 0.0, "lon": -77.02407933333333, "name": "aa93f3054404411619a352f5d1f682c9", "is_disabled": 0, "rental_uris": {"android": "https://dc.lft.to/lastmile_qr_scan", "ios": "https://dc.lft.to/lastmile_qr_scan"}, "type": "electric_scooter", "lat": 38.957055833333335, "is_reserved": 0, "fusion_lat": 0.0}, {"bike_id": "a6cc74a7771d289ec160d2a92905da24", "fusion_lon": 0.0, "lon": -77.02465216666667, "name": "a6cc74a7771d289ec160d2a92905da24", "is_disabled": 0, "rental_uris": {"android": "https://dc.lft.to/lastmile_qr_scan", "ios": "https://dc.lft.to/lastmile_qr_scan"}, "type": "electric_scooter", "lat": 38.938817, "is_reserved": 0, "fusion_lat": 0.0}, {"bike_id": "bdbb9fb33ae6c5b1698169bc8a96e844", "fusion_lon": 0.0, "lon": -77.011747, "name": "bdbb9fb33ae6c5b1698169bc8a96e844", "is_disabled": 0, "rental_uris": {"android": "https://dc.lft.to/lastmile_qr_scan", "ios": "https://dc.lft.to/lastmile_qr_scan"}, "type": "electric_scooter", "lat": 38.9030995, "is_reserved": 0, "fusion_lat": 0.0}, {"bike_id": "6c0706f7e4db41115825f9a51f6583bf", "fusion_lon": 0.0, "lon": -76.98653283333333, "name": "6c0706f7e4db41115825f9a51f6583bf", "is_disabled": 0, "rental_uris": {"android": "https://dc.lft.to/lastmile_qr_scan", "ios": "https://dc.lft.to/lastmile_qr_scan"}, "type": "electric_scooter", "lat": 38.867382666666664, "is_reserved": 0, "fusion_lat": 0.0}, {"bike_id": "3a1f2d84e189bf656d00dea74764ab6f", "fusion_lon": 0.0, "lon": -77.06341366666666, "name": "3a1f2d84e189bf656d00dea74764ab6f", "is_disabled": 0, "rental_uris": {"android": "https://dc.lft.to/lastmile_qr_scan", "ios": "https://dc.lft.to/lastmile_qr_scan"}, "type": "electric_scooter", "lat": 38.90682666666667, "is_reserved": 0, "fusion_lat": 0.0}, {"bike_id": "189a4a0aea21d3be6410e2ca4916ef13", "fusion_lon": 0.0, "lon": -76.97415966666667, "name": "189a4a0aea21d3be6410e2ca4916ef13", "is_disabled": 0, "rental_uris": {"android": "https://dc.lft.to/lastmile_qr_scan", "ios": "https://dc.lft.to/lastmile_qr_scan"}, "type": "electric_scooter", "lat": 38.90445833333333, "is_reserved": 0, "fusion_lat": 0.0}, {"bike_id": "0c6b72dea59182e2be9fe74e1d26a712", "fusion_lon": 0.0, "lon": -77.046589, "name": "0c6b72dea59182e2be9fe74e1d26a712", "is_disabled": 0, "rental_uris": {"android": "https://dc.lft.to/lastmile_qr_scan", "ios": "https://dc.lft.to/lastmile_qr_scan"}, "type": "electric_scooter", "lat": 38.90202416666666, "is_reserved": 0, "fusion_lat": 0.0}, {"bike_id": "79568047f81ba3db7f743dab86a331ff", "fusion_lon": 0.0, "lon": -77.02945616666666, "name": "79568047f81ba3db7f743dab86a331ff", "is_disabled": 0, "rental_uris": {"android": "https://dc.lft.to/lastmile_qr_scan", "ios": "https://dc.lft.to/lastmile_qr_scan"}, "type": "electric_scooter", "lat": 38.90500766666667, "is_reserved": 0, "fusion_lat": 0.0}, {"bike_id": "ac94de29f937f4c69cb41d552091bacb", "fusion_lon": 0.0, "lon": -77.032152, "name": "ac94de29f937f4c69cb41d552091bacb", "is_disabled": 0, "rental_uris": {"android": "https://dc.lft.to/lastmile_qr_scan", "ios": "https://dc.lft.to/lastmile_qr_scan"}, "type": "electric_scooter", "lat": 38.914772, "is_reserved": 0, "fusion_lat": 0.0}, {"bike_id": "d9f1d21e73600d5cc201f6d917e49cbb", "fusion_lon": 0.0, "lon": -76.99258433333333, "name": "d9f1d21e73600d5cc201f6d917e49cbb", "is_disabled": 0, "rental_uris": {"android": "https://dc.lft.to/lastmile_qr_scan", "ios": "https://dc.lft.to/lastmile_qr_scan"}, "type": "electric_scooter", "lat": 38.919723833333336, "is_reserved": 0, "fusion_lat": 0.0}, {"bike_id": "4152a59975e6ca1e7918ccc459b09a95", "fusion_lon": 0.0, "lon": -77.04887416666666, "name": "4152a59975e6ca1e7918ccc459b09a95", "is_disabled": 0, "rental_uris": {"android": "https://dc.lft.to/lastmile_qr_scan", "ios": "https://dc.lft.to/lastmile_qr_scan"}, "type": "electric_scooter", "lat": 38.91338233333333, "is_reserved": 0, "fusion_lat": 0.0}, {"bike_id": "26808decdb5bedc5e60c0a7ae2639416", "fusion_lon": 0.0, "lon": -77.02330116666667, "name": "26808decdb5bedc5e60c0a7ae2639416", "is_disabled": 0, "rental_uris": {"android": "https://dc.lft.to/lastmile_qr_scan", "ios": "https://dc.lft.to/lastmile_qr_scan"}, "type": "electric_scooter", "lat": 38.9247655, "is_reserved": 0, "fusion_lat": 0.0}, {"bike_id": "a12c018e7d59f4eff860185329eab205", "fusion_lon": 0.0, "lon": -77.019806, "name": "a12c018e7d59f4eff860185329eab205", "is_disabled": 0, "rental_uris": {"android": "https://dc.lft.to/lastmile_qr_scan", "ios": "https://dc.lft.to/lastmile_qr_scan"}, "type": "electric_scooter", "lat": 38.88479733333333, "is_reserved": 0, "fusion_lat": 0.0}, {"bike_id": "caa0bb4d83df91543bf0da76f08aa2c7", "fusion_lon": 0.0, "lon": -77.04176916666667, "name": "caa0bb4d83df91543bf0da76f08aa2c7", "is_disabled": 0, "rental_uris": {"android": "https://dc.lft.to/lastmile_qr_scan", "ios": "https://dc.lft.to/lastmile_qr_scan"}, "type": "electric_scooter", "lat": 38.905806166666665, "is_reserved": 0, "fusion_lat": 0.0}, {"bike_id": "0e50013051d392d376dfc10ada135db9", "fusion_lon": 0.0, "lon": -77.03860383333334, "name": "0e50013051d392d376dfc10ada135db9", "is_disabled": 0, "rental_uris": {"android": "https://dc.lft.to/lastmile_qr_scan", "ios": "https://dc.lft.to/lastmile_qr_scan"}, "type": "electric_scooter", "lat": 38.903770333333334, "is_reserved": 0, "fusion_lat": 0.0}, {"bike_id": "6ec2f61340feb3166786e11f9932a02f", "fusion_lon": 0.0, "lon": -76.98824966666666, "name": "6ec2f61340feb3166786e11f9932a02f", "is_disabled": 0, "rental_uris": {"android": "https://dc.lft.to/lastmile_qr_scan", "ios": "https://dc.lft.to/lastmile_qr_scan"}, "type": "electric_scooter", "lat": 38.900336833333334, "is_reserved": 0, "fusion_lat": 0.0}, {"bike_id": "4e77184c9d5c938b760f05c1ffd3aec9", "fusion_lon": 0.0, "lon": -77.02086683333333, "name": "4e77184c9d5c938b760f05c1ffd3aec9", "is_disabled": 0, "rental_uris": {"android": "https://dc.lft.to/lastmile_qr_scan", "ios": "https://dc.lft.to/lastmile_qr_scan"}, "type": "electric_scooter", "lat": 38.875834, "is_reserved": 0, "fusion_lat": 0.0}, {"bike_id": "c42176d73677a4fc43a9c5b6982e1985", "fusion_lon": 0.0, "lon": -77.09483516666667, "name": "c42176d73677a4fc43a9c5b6982e1985", "is_disabled": 0, "rental_uris": {"android": "https://dc.lft.to/lastmile_qr_scan", "ios": "https://dc.lft.to/lastmile_qr_scan"}, "type": "electric_bike", "lat": 39.030489833333334, "is_reserved": 0, "fusion_lat": 0.0}, {"bike_id": "29e58f77de2f018e7c504fd0f26cff5b", "fusion_lon": 0.0, "lon": -76.977, "name": "29e58f77de2f018e7c504fd0f26cff5b", "is_disabled": 0, "rental_uris": {"android": "https://dc.lft.to/lastmile_qr_scan", "ios": "https://dc.lft.to/lastmile_qr_scan"}, "type": "electric_scooter", "lat": 38.902515666666666, "is_reserved": 0, "fusion_lat": 0.0}, {"bike_id": "38bc84663e3ba30c35c73716ae795c8c", "fusion_lon": 0.0, "lon": -77.02095683333333, "name": "38bc84663e3ba30c35c73716ae795c8c", "is_disabled": 0, "rental_uris": {"android": "https://dc.lft.to/lastmile_qr_scan", "ios": "https://dc.lft.to/lastmile_qr_scan"}, "type": "electric_scooter", "lat": 38.885097, "is_reserved": 0, "fusion_lat": 0.0}, {"bike_id": "d2afe187b08da989d1a6e8b6a9037ef3", "fusion_lon": 0.0, "lon": -77.036653, "name": "d2afe187b08da989d1a6e8b6a9037ef3", "is_disabled": 0, "rental_uris": {"android": "https://dc.lft.to/lastmile_qr_scan", "ios": "https://dc.lft.to/lastmile_qr_scan"}, "type": "electric_scooter", "lat": 38.92722283333333, "is_reserved": 0, "fusion_lat": 0.0}, {"bike_id": "d6c516cc592d47b44e736cca5fde9163", "fusion_lon": 0.0, "lon": -77.03837033333333, "name": "d6c516cc592d47b44e736cca5fde9163", "is_disabled": 0, "rental_uris": {"android": "https://dc.lft.to/lastmile_qr_scan", "ios": "https://dc.lft.to/lastmile_qr_scan"}, "type": "electric_scooter", "lat": 38.9085665, "is_reserved": 0, "fusion_lat": 0.0}, {"bike_id": "53e8657fa606bf4a81eb2867b920f8d2", "fusion_lon": 0.0, "lon": -77.0304915, "name": "53e8657fa606bf4a81eb2867b920f8d2", "is_disabled": 0, "rental_uris": {"android": "https://dc.lft.to/lastmile_qr_scan", "ios": "https://dc.lft.to/lastmile_qr_scan"}, "type": "electric_scooter", "lat": 38.93457866666667, "is_reserved": 0, "fusion_lat": 0.0}, {"bike_id": "314e93fc241a3f4c84620194c70c579e", "fusion_lon": 0.0, "lon": -77.046527, "name": "314e93fc241a3f4c84620194c70c579e", "is_disabled": 0, "rental_uris": {"android": "https://dc.lft.to/lastmile_qr_scan", "ios": "https://dc.lft.to/lastmile_qr_scan"}, "type": "electric_scooter", "lat": 38.90060416666667, "is_reserved": 0, "fusion_lat": 0.0}, {"bike_id": "4f9c740ebc5d161f2bfa44bcb08c185f", "fusion_lon": 0.0, "lon": -77.02153733333333, "name": "4f9c740ebc5d161f2bfa44bcb08c185f", "is_disabled": 0, "rental_uris": {"android": "https://dc.lft.to/lastmile_qr_scan", "ios": "https://dc.lft.to/lastmile_qr_scan"}, "type": "electric_scooter", "lat": 38.926035166666665, "is_reserved": 0, "fusion_lat": 0.0}, {"bike_id": "0c9ec19e153f3fd29d0e60c3ab706d41", "fusion_lon": 0.0, "lon": -77.03459333333333, "name": "0c9ec19e153f3fd29d0e60c3ab706d41", "is_disabled": 0, "rental_uris": {"android": "https://dc.lft.to/lastmile_qr_scan", "ios": "https://dc.lft.to/lastmile_qr_scan"}, "type": "electric_bike", "lat": 38.94678283333333, "is_reserved": 0, "fusion_lat": 0.0}, {"bike_id": "52f76fd6be5196590009ba9324439478", "fusion_lon": 0.0, "lon": -77.0103255, "name": "52f76fd6be5196590009ba9324439478", "is_disabled": 0, "rental_uris": {"android": "https://dc.lft.to/lastmile_qr_scan", "ios": "https://dc.lft.to/lastmile_qr_scan"}, "type": "electric_bike", "lat": 38.9588035, "is_reserved": 0, "fusion_lat": 0.0}, {"bike_id": "7b4bfcc826f913c1b5474844e153f456", "fusion_lon": 0.0, "lon": -77.0365815, "name": "7b4bfcc826f913c1b5474844e153f456", "is_disabled": 0, "rental_uris": {"android": "https://dc.lft.to/lastmile_qr_scan", "ios": "https://dc.lft.to/lastmile_qr_scan"}, "type": "electric_scooter", "lat": 38.922824166666665, "is_reserved": 0, "fusion_lat": 0.0}, {"bike_id": "690c57ffac5785d7e104674bbebc66ae", "fusion_lon": 0.0, "lon": -77.0032405, "name": "690c57ffac5785d7e104674bbebc66ae", "is_disabled": 0, "rental_uris": {"android": "https://dc.lft.to/lastmile_qr_scan", "ios": "https://dc.lft.to/lastmile_qr_scan"}, "type": "electric_scooter", "lat": 38.90124, "is_reserved": 0, "fusion_lat": 0.0}, {"bike_id": "d45fb9534164976b5b16550fd98a67b6", "fusion_lon": 0.0, "lon": -77.04020566666667, "name": "d45fb9534164976b5b16550fd98a67b6", "is_disabled": 0, "rental_uris": {"android": "https://dc.lft.to/lastmile_qr_scan", "ios": "https://dc.lft.to/lastmile_qr_scan"}, "type": "electric_scooter", "lat": 38.90326666666667, "is_reserved": 0, "fusion_lat": 0.0}, {"bike_id": "be8df03b79794936c4953f53ed749903", "fusion_lon": 0.0, "lon": -77.02790316666666, "name": "be8df03b79794936c4953f53ed749903", "is_disabled": 0, "rental_uris": {"android": "https://dc.lft.to/lastmile_qr_scan", "ios": "https://dc.lft.to/lastmile_qr_scan"}, "type": "electric_scooter", "lat": 38.930766166666665, "is_reserved": 0, "fusion_lat": 0.0}, {"bike_id": "408c4ddfeafb912f8227141b9449b227", "fusion_lon": 0.0, "lon": -77.04375083333333, "name": "408c4ddfeafb912f8227141b9449b227", "is_disabled": 0, "rental_uris": {"android": "https://dc.lft.to/lastmile_qr_scan", "ios": "https://dc.lft.to/lastmile_qr_scan"}, "type": "electric_scooter", "lat": 38.898404666666664, "is_reserved": 0, "fusion_lat": 0.0}, {"bike_id": "22fec6a3109e70866a17d4990b93f7a5", "fusion_lon": 0.0, "lon": -76.9947735, "name": "22fec6a3109e70866a17d4990b93f7a5", "is_disabled": 0, "rental_uris": {"android": "https://dc.lft.to/lastmile_qr_scan", "ios": "https://dc.lft.to/lastmile_qr_scan"}, "type": "electric_scooter", "lat": 38.86248716666667, "is_reserved": 0, "fusion_lat": 0.0}, {"bike_id": "ecf4f54afb083836f80eebf80642bbfc", "fusion_lon": 0.0, "lon": -77.023433, "name": "ecf4f54afb083836f80eebf80642bbfc", "is_disabled": 0, "rental_uris": {"android": "https://dc.lft.to/lastmile_qr_scan", "ios": "https://dc.lft.to/lastmile_qr_scan"}, "type": "electric_scooter", "lat": 38.94468533333333, "is_reserved": 0, "fusion_lat": 0.0}, {"bike_id": "828e48807020caf27966e3e8039614ae", "fusion_lon": 0.0, "lon": -77.04870883333334, "name": "828e48807020caf27966e3e8039614ae", "is_disabled": 0, "rental_uris": {"android": "https://dc.lft.to/lastmile_qr_scan", "ios": "https://dc.lft.to/lastmile_qr_scan"}, "type": "electric_scooter", "lat": 38.90978233333333, "is_reserved": 0, "fusion_lat": 0.0}, {"bike_id": "13ef8d74cce4b15bd20ccb844603b102", "fusion_lon": 0.0, "lon": -77.03441483333333, "name": "13ef8d74cce4b15bd20ccb844603b102", "is_disabled": 0, "rental_uris": {"android": "https://dc.lft.to/lastmile_qr_scan", "ios": "https://dc.lft.to/lastmile_qr_scan"}, "type": "electric_scooter", "lat": 38.90278683333333, "is_reserved": 0, "fusion_lat": 0.0}, {"bike_id": "1d612089dba86d44d87469fefe5af02e", "fusion_lon": 0.0, "lon": -76.97534583333334, "name": "1d612089dba86d44d87469fefe5af02e", "is_disabled": 0, "rental_uris": {"android": "https://dc.lft.to/lastmile_qr_scan", "ios": "https://dc.lft.to/lastmile_qr_scan"}, "type": "electric_bike", "lat": 38.84013216666666, "is_reserved": 0, "fusion_lat": 0.0}, {"bike_id": "80dd9687e1553053b4d258eb07de0f61", "fusion_lon": 0.0, "lon": -77.00568083333333, "name": "80dd9687e1553053b4d258eb07de0f61", "is_disabled": 0, "rental_uris": {"android": "https://dc.lft.to/lastmile_qr_scan", "ios": "https://dc.lft.to/lastmile_qr_scan"}, "type": "electric_scooter", "lat": 38.88502883333334, "is_reserved": 0, "fusion_lat": 0.0}, {"bike_id": "73361012b3564e6a9296db0b77b6b141", "fusion_lon": 0.0, "lon": -77.04188616666667, "name": "73361012b3564e6a9296db0b77b6b141", "is_disabled": 0, "rental_uris": {"android": "https://dc.lft.to/lastmile_qr_scan", "ios": "https://dc.lft.to/lastmile_qr_scan"}, "type": "electric_scooter", "lat": 38.920449166666664, "is_reserved": 0, "fusion_lat": 0.0}, {"bike_id": "1ec8340700a65b41567a2196dcb94c4a", "fusion_lon": 0.0, "lon": -77.12483316666666, "name": "1ec8340700a65b41567a2196dcb94c4a", "is_disabled": 0, "rental_uris": {"android": "https://dc.lft.to/lastmile_qr_scan", "ios": "https://dc.lft.to/lastmile_qr_scan"}, "type": "electric_bike", "lat": 38.853956333333336, "is_reserved": 0, "fusion_lat": 0.0}, {"bike_id": "ab6643751d1633e9924546fafe02733f", "fusion_lon": 0.0, "lon": -77.0397755, "name": "ab6643751d1633e9924546fafe02733f", "is_disabled": 0, "rental_uris": {"android": "https://dc.lft.to/lastmile_qr_scan", "ios": "https://dc.lft.to/lastmile_qr_scan"}, "type": "electric_scooter", "lat": 38.905971666666666, "is_reserved": 0, "fusion_lat": 0.0}, {"bike_id": "34443453b9ac5e65373c7c9f8860c8f8", "fusion_lon": 0.0, "lon": -76.975934, "name": "34443453b9ac5e65373c7c9f8860c8f8", "is_disabled": 0, "rental_uris": {"android": "https://dc.lft.to/lastmile_qr_scan", "ios": "https://dc.lft.to/lastmile_qr_scan"}, "type": "electric_scooter", "lat": 38.884148833333334, "is_reserved": 0, "fusion_lat": 0.0}, {"bike_id": "c64216ba00ae9ee8695ee12b9bf33d7a", "fusion_lon": 0.0, "lon": -77.08944966666667, "name": "c64216ba00ae9ee8695ee12b9bf33d7a", "is_disabled": 0, "rental_uris": {"android": "https://dc.lft.to/lastmile_qr_scan", "ios": "https://dc.lft.to/lastmile_qr_scan"}, "type": "electric_bike", "lat": 38.841112333333335, "is_reserved": 0, "fusion_lat": 0.0}, {"bike_id": "fd29c2ff96d81a412c18a2c999325719", "fusion_lon": 0.0, "lon": -77.04671533333334, "name": "fd29c2ff96d81a412c18a2c999325719", "is_disabled": 0, "rental_uris": {"android": "https://dc.lft.to/lastmile_qr_scan", "ios": "https://dc.lft.to/lastmile_qr_scan"}, "type": "electric_scooter", "lat": 38.899489833333334, "is_reserved": 0, "fusion_lat": 0.0}, {"bike_id": "3347f60eb22dd3c2e84326fd61f659cb", "fusion_lon": 0.0, "lon": -77.05087033333334, "name": "3347f60eb22dd3c2e84326fd61f659cb", "is_disabled": 0, "rental_uris": {"android": "https://dc.lft.to/lastmile_qr_scan", "ios": "https://dc.lft.to/lastmile_qr_scan"}, "type": "electric_bike", "lat": 38.81329916666667, "is_reserved": 0, "fusion_lat": 0.0}, {"bike_id": "aa2eae8563ffce18693a0d1a4dadddca", "fusion_lon": 0.0, "lon": -77.11599583333333, "name": "aa2eae8563ffce18693a0d1a4dadddca", "is_disabled": 0, "rental_uris": {"android": "https://dc.lft.to/lastmile_qr_scan", "ios": "https://dc.lft.to/lastmile_qr_scan"}, "type": "electric_bike", "lat": 39.07494033333333, "is_reserved": 0, "fusion_lat": 0.0}, {"bike_id": "35095e5eb2a49bf1f1da7ac8a861f41a", "fusion_lon": 0.0, "lon": -77.03444983333333, "name": "35095e5eb2a49bf1f1da7ac8a861f41a", "is_disabled": 0, "rental_uris": {"android": "https://dc.lft.to/lastmile_qr_scan", "ios": "https://dc.lft.to/lastmile_qr_scan"}, "type": "electric_scooter", "lat": 38.90948133333333, "is_reserved": 0, "fusion_lat": 0.0}, {"bike_id": "bb0a2eeb141f2088e7cfdf5ca4266b90", "fusion_lon": 0.0, "lon": -77.04504566666667, "name": "bb0a2eeb141f2088e7cfdf5ca4266b90", "is_disabled": 0, "rental_uris": {"android": "https://dc.lft.to/lastmile_qr_scan", "ios": "https://dc.lft.to/lastmile_qr_scan"}, "type": "electric_scooter", "lat": 38.90378966666667, "is_reserved": 0, "fusion_lat": 0.0}, {"bike_id": "6ac541124a624a6a993b2dc1031ecee9", "fusion_lon": 0.0, "lon": -77.016747, "name": "6ac541124a624a6a993b2dc1031ecee9", "is_disabled": 0, "rental_uris": {"android": "https://dc.lft.to/lastmile_qr_scan", "ios": "https://dc.lft.to/lastmile_qr_scan"}, "type": "electric_scooter", "lat": 38.88122283333333, "is_reserved": 0, "fusion_lat": 0.0}, {"bike_id": "132a2850d9d355ad24dc1f7be18afeae", "fusion_lon": 0.0, "lon": -77.0269995, "name": "132a2850d9d355ad24dc1f7be18afeae", "is_disabled": 0, "rental_uris": {"android": "https://dc.lft.to/lastmile_qr_scan", "ios": "https://dc.lft.to/lastmile_qr_scan"}, "type": "electric_scooter", "lat": 38.881407, "is_reserved": 0, "fusion_lat": 0.0}, {"bike_id": "7c985c62b2c13fb69309c162a0b515ee", "fusion_lon": 0.0, "lon": -76.99783883333333, "name": "7c985c62b2c13fb69309c162a0b515ee", "is_disabled": 0, "rental_uris": {"android": "https://dc.lft.to/lastmile_qr_scan", "ios": "https://dc.lft.to/lastmile_qr_scan"}, "type": "electric_scooter", "lat": 38.90906233333333, "is_reserved": 0, "fusion_lat": 0.0}, {"bike_id": "eb54958c135bb7447c1fc189852f3047", "fusion_lon": 0.0, "lon": -76.98637616666667, "name": "eb54958c135bb7447c1fc189852f3047", "is_disabled": 0, "rental_uris": {"android": "https://dc.lft.to/lastmile_qr_scan", "ios": "https://dc.lft.to/lastmile_qr_scan"}, "type": "electric_scooter", "lat": 38.8803365, "is_reserved": 0, "fusion_lat": 0.0}, {"bike_id": "f62b9d7450aa65ea1c61650f91a95b2b", "fusion_lon": 0.0, "lon": -77.10088333333333, "name": "f62b9d7450aa65ea1c61650f91a95b2b", "is_disabled": 0, "rental_uris": {"android": "https://dc.lft.to/lastmile_qr_scan", "ios": "https://dc.lft.to/lastmile_qr_scan"}, "type": "electric_bike", "lat": 38.95955, "is_reserved": 0, "fusion_lat": 0.0}, {"bike_id": "840466607044f381e7c73a3b0ef87ebd", "fusion_lon": 0.0, "lon": -77.032852, "name": "840466607044f381e7c73a3b0ef87ebd", "is_disabled": 0, "rental_uris": {"android": "https://dc.lft.to/lastmile_qr_scan", "ios": "https://dc.lft.to/lastmile_qr_scan"}, "type": "electric_scooter", "lat": 38.91604566666667, "is_reserved": 0, "fusion_lat": 0.0}, {"bike_id": "06bb010e7c31bd769506b00709cac040", "fusion_lon": 0.0, "lon": -77.03582183333333, "name": "06bb010e7c31bd769506b00709cac040", "is_disabled": 0, "rental_uris": {"android": "https://dc.lft.to/lastmile_qr_scan", "ios": "https://dc.lft.to/lastmile_qr_scan"}, "type": "electric_scooter", "lat": 38.92798, "is_reserved": 0, "fusion_lat": 0.0}, {"bike_id": "f9db4f4d103819d3b2f23e6780f96be1", "fusion_lon": 0.0, "lon": -77.04340516666667, "name": "f9db4f4d103819d3b2f23e6780f96be1", "is_disabled": 0, "rental_uris": {"android": "https://dc.lft.to/lastmile_qr_scan", "ios": "https://dc.lft.to/lastmile_qr_scan"}, "type": "electric_scooter", "lat": 38.90502033333333, "is_reserved": 0, "fusion_lat": 0.0}, {"bike_id": "5a548f032b82ecd81bf0af22390b0c8f", "fusion_lon": 0.0, "lon": -76.950165, "name": "5a548f032b82ecd81bf0af22390b0c8f", "is_disabled": 0, "rental_uris": {"android": "https://dc.lft.to/lastmile_qr_scan", "ios": "https://dc.lft.to/lastmile_qr_scan"}, "type": "electric_scooter", "lat": 38.893859166666665, "is_reserved": 0, "fusion_lat": 0.0}, {"bike_id": "ef2a0344675cb67c448038bde6ef8212", "fusion_lon": 0.0, "lon": -77.04008533333334, "name": "ef2a0344675cb67c448038bde6ef8212", "is_disabled": 0, "rental_uris": {"android": "https://dc.lft.to/lastmile_qr_scan", "ios": "https://dc.lft.to/lastmile_qr_scan"}, "type": "electric_scooter", "lat": 38.9242955, "is_reserved": 0, "fusion_lat": 0.0}, {"bike_id": "0b75030a651598ca3d647ed326e6dbcd", "fusion_lon": 0.0, "lon": -76.99426533333333, "name": "0b75030a651598ca3d647ed326e6dbcd", "is_disabled": 0, "rental_uris": {"android": "https://dc.lft.to/lastmile_qr_scan", "ios": "https://dc.lft.to/lastmile_qr_scan"}, "type": "electric_scooter", "lat": 38.903156833333334, "is_reserved": 0, "fusion_lat": 0.0}, {"bike_id": "6678e46048398f80f707fc1412c6d2db", "fusion_lon": 0.0, "lon": -77.03789433333333, "name": "6678e46048398f80f707fc1412c6d2db", "is_disabled": 0, "rental_uris": {"android": "https://dc.lft.to/lastmile_qr_scan", "ios": "https://dc.lft.to/lastmile_qr_scan"}, "type": "electric_scooter", "lat": 38.92502066666667, "is_reserved": 0, "fusion_lat": 0.0}, {"bike_id": "4d1a7d6256558fb728fcda323443acb3", "fusion_lon": 0.0, "lon": -77.02973433333334, "name": "4d1a7d6256558fb728fcda323443acb3", "is_disabled": 0, "rental_uris": {"android": "https://dc.lft.to/lastmile_qr_scan", "ios": "https://dc.lft.to/lastmile_qr_scan"}, "type": "electric_scooter", "lat": 38.88406833333333, "is_reserved": 0, "fusion_lat": 0.0}, {"bike_id": "5b003266036cd62a89e51c142fd75d85", "fusion_lon": 0.0, "lon": -77.03200383333333, "name": "5b003266036cd62a89e51c142fd75d85", "is_disabled": 0, "rental_uris": {"android": "https://dc.lft.to/lastmile_qr_scan", "ios": "https://dc.lft.to/lastmile_qr_scan"}, "type": "electric_scooter", "lat": 38.914775666666664, "is_reserved": 0, "fusion_lat": 0.0}, {"bike_id": "74d3870ccf6ed0828fa42f5d725a81cf", "fusion_lon": 0.0, "lon": -76.98824866666666, "name": "74d3870ccf6ed0828fa42f5d725a81cf", "is_disabled": 0, "rental_uris": {"android": "https://dc.lft.to/lastmile_qr_scan", "ios": "https://dc.lft.to/lastmile_qr_scan"}, "type": "electric_scooter", "lat": 38.9002985, "is_reserved": 0, "fusion_lat": 0.0}, {"bike_id": "97f7ead3e2fa4dd752647477b9a1eff6", "fusion_lon": 0.0, "lon": -77.07826383333334, "name": "97f7ead3e2fa4dd752647477b9a1eff6", "is_disabled": 0, "rental_uris": {"android": "https://dc.lft.to/lastmile_qr_scan", "ios": "https://dc.lft.to/lastmile_qr_scan"}, "type": "electric_bike", "lat": 38.91278166666667, "is_reserved": 0, "fusion_lat": 0.0}, {"bike_id": "e02b965c385b4b572b63d00a56a68354", "fusion_lon": 0.0, "lon": -77.03512633333334, "name": "e02b965c385b4b572b63d00a56a68354", "is_disabled": 0, "rental_uris": {"android": "https://dc.lft.to/lastmile_qr_scan", "ios": "https://dc.lft.to/lastmile_qr_scan"}, "type": "electric_scooter", "lat": 38.92151583333333, "is_reserved": 0, "fusion_lat": 0.0}, {"bike_id": "fad7cd2a75f6d37ce42f4ab2dba0e850", "fusion_lon": 0.0, "lon": -77.0272135, "name": "fad7cd2a75f6d37ce42f4ab2dba0e850", "is_disabled": 0, "rental_uris": {"android": "https://dc.lft.to/lastmile_qr_scan", "ios": "https://dc.lft.to/lastmile_qr_scan"}, "type": "electric_scooter", "lat": 38.940850166666664, "is_reserved": 0, "fusion_lat": 0.0}, {"bike_id": "b5987556fca92e6bc4110506acd2fc4c", "fusion_lon": 0.0, "lon": -77.00194216666667, "name": "b5987556fca92e6bc4110506acd2fc4c", "is_disabled": 0, "rental_uris": {"android": "https://dc.lft.to/lastmile_qr_scan", "ios": "https://dc.lft.to/lastmile_qr_scan"}, "type": "electric_scooter", "lat": 38.907982833333335, "is_reserved": 0, "fusion_lat": 0.0}, {"bike_id": "4b0cef2baef36f7944cf3cba7cf1f242", "fusion_lon": 0.0, "lon": -77.04282033333334, "name": "4b0cef2baef36f7944cf3cba7cf1f242", "is_disabled": 0, "rental_uris": {"android": "https://dc.lft.to/lastmile_qr_scan", "ios": "https://dc.lft.to/lastmile_qr_scan"}, "type": "electric_scooter", "lat": 38.92282183333333, "is_reserved": 0, "fusion_lat": 0.0}, {"bike_id": "5026f3d955fe866157388c3993e8a6f2", "fusion_lon": 0.0, "lon": -77.05469783333334, "name": "5026f3d955fe866157388c3993e8a6f2", "is_disabled": 0, "rental_uris": {"android": "https://dc.lft.to/lastmile_qr_scan", "ios": "https://dc.lft.to/lastmile_qr_scan"}, "type": "electric_bike", "lat": 38.909457, "is_reserved": 0, "fusion_lat": 0.0}, {"bike_id": "a81f460f70c485f777015e402c355611", "fusion_lon": 0.0, "lon": -77.03546616666667, "name": "a81f460f70c485f777015e402c355611", "is_disabled": 0, "rental_uris": {"android": "https://dc.lft.to/lastmile_qr_scan", "ios": "https://dc.lft.to/lastmile_qr_scan"}, "type": "electric_scooter", "lat": 38.92474033333333, "is_reserved": 0, "fusion_lat": 0.0}, {"bike_id": "874f60ef38eb52930c1d3ce46b51c10d", "fusion_lon": 0.0, "lon": -77.033865, "name": "874f60ef38eb52930c1d3ce46b51c10d", "is_disabled": 0, "rental_uris": {"android": "https://dc.lft.to/lastmile_qr_scan", "ios": "https://dc.lft.to/lastmile_qr_scan"}, "type": "electric_scooter", "lat": 38.928614, "is_reserved": 0, "fusion_lat": 0.0}, {"bike_id": "ce9f7a6315bf1397695739d79bc41007", "fusion_lon": 0.0, "lon": -77.01660716666666, "name": "ce9f7a6315bf1397695739d79bc41007", "is_disabled": 0, "rental_uris": {"android": "https://dc.lft.to/lastmile_qr_scan", "ios": "https://dc.lft.to/lastmile_qr_scan"}, "type": "electric_scooter", "lat": 38.881042666666666, "is_reserved": 0, "fusion_lat": 0.0}, {"bike_id": "7037385bf2c96bc1faca46f180b30921", "fusion_lon": 0.0, "lon": -77.04887966666666, "name": "7037385bf2c96bc1faca46f180b30921", "is_disabled": 0, "rental_uris": {"android": "https://dc.lft.to/lastmile_qr_scan", "ios": "https://dc.lft.to/lastmile_qr_scan"}, "type": "electric_scooter", "lat": 38.900604666666666, "is_reserved": 0, "fusion_lat": 0.0}, {"bike_id": "99285000310150489028e4770a487670", "fusion_lon": 0.0, "lon": -76.909718, "name": "99285000310150489028e4770a487670", "is_disabled": 0, "rental_uris": {"android": "https://dc.lft.to/lastmile_qr_scan", "ios": "https://dc.lft.to/lastmile_qr_scan"}, "type": "electric_bike", "lat": 38.854328333333335, "is_reserved": 0, "fusion_lat": 0.0}, {"bike_id": "c8cbfce6bb7ad24c60bd41dbfb0cf502", "fusion_lon": 0.0, "lon": -77.04490383333334, "name": "c8cbfce6bb7ad24c60bd41dbfb0cf502", "is_disabled": 0, "rental_uris": {"android": "https://dc.lft.to/lastmile_qr_scan", "ios": "https://dc.lft.to/lastmile_qr_scan"}, "type": "electric_scooter", "lat": 38.91435416666667, "is_reserved": 0, "fusion_lat": 0.0}, {"bike_id": "9dada26beb6e29dc32f90cbb4e0b0250", "fusion_lon": 0.0, "lon": -77.0383695, "name": "9dada26beb6e29dc32f90cbb4e0b0250", "is_disabled": 0, "rental_uris": {"android": "https://dc.lft.to/lastmile_qr_scan", "ios": "https://dc.lft.to/lastmile_qr_scan"}, "type": "electric_scooter", "lat": 38.931632666666665, "is_reserved": 0, "fusion_lat": 0.0}, {"bike_id": "8a164b5826eb50b525a8465e6cdb502c", "fusion_lon": 0.0, "lon": -77.02762983333334, "name": "8a164b5826eb50b525a8465e6cdb502c", "is_disabled": 0, "rental_uris": {"android": "https://dc.lft.to/lastmile_qr_scan", "ios": "https://dc.lft.to/lastmile_qr_scan"}, "type": "electric_scooter", "lat": 38.954285, "is_reserved": 0, "fusion_lat": 0.0}, {"bike_id": "266148da2f5643f5a31fea68e445fc66", "fusion_lon": 0.0, "lon": -77.02306866666666, "name": "266148da2f5643f5a31fea68e445fc66", "is_disabled": 0, "rental_uris": {"android": "https://dc.lft.to/lastmile_qr_scan", "ios": "https://dc.lft.to/lastmile_qr_scan"}, "type": "electric_scooter", "lat": 38.91760983333333, "is_reserved": 0, "fusion_lat": 0.0}, {"bike_id": "c9a3a2a1a8fc1ad23b086ce3f4c5eeb0", "fusion_lon": 0.0, "lon": -77.05022966666667, "name": "c9a3a2a1a8fc1ad23b086ce3f4c5eeb0", "is_disabled": 0, "rental_uris": {"android": "https://dc.lft.to/lastmile_qr_scan", "ios": "https://dc.lft.to/lastmile_qr_scan"}, "type": "electric_scooter", "lat": 38.89658, "is_reserved": 0, "fusion_lat": 0.0}, {"bike_id": "352e4fbb9cd4f718c10abccc8cba6f03", "fusion_lon": 0.0, "lon": -77.0268765, "name": "352e4fbb9cd4f718c10abccc8cba6f03", "is_disabled": 0, "rental_uris": {"android": "https://dc.lft.to/lastmile_qr_scan", "ios": "https://dc.lft.to/lastmile_qr_scan"}, "type": "electric_scooter", "lat": 38.881283833333335, "is_reserved": 0, "fusion_lat": 0.0}, {"bike_id": "0bd9c8f1abcb147879003e32d4520449", "fusion_lon": 0.0, "lon": -77.052284, "name": "0bd9c8f1abcb147879003e32d4520449", "is_disabled": 0, "rental_uris": {"android": "https://dc.lft.to/lastmile_qr_scan", "ios": "https://dc.lft.to/lastmile_qr_scan"}, "type": "electric_scooter", "lat": 38.92461616666667, "is_reserved": 0, "fusion_lat": 0.0}, {"bike_id": "3a057d9212af072a1fb37bd16c737ff8", "fusion_lon": 0.0, "lon": -76.9978365, "name": "3a057d9212af072a1fb37bd16c737ff8", "is_disabled": 0, "rental_uris": {"android": "https://dc.lft.to/lastmile_qr_scan", "ios": "https://dc.lft.to/lastmile_qr_scan"}, "type": "electric_scooter", "lat": 38.926447833333334, "is_reserved": 0, "fusion_lat": 0.0}, {"bike_id": "d5d572caf4993af844df55adb80c41d5", "fusion_lon": 0.0, "lon": -77.05440316666666, "name": "d5d572caf4993af844df55adb80c41d5", "is_disabled": 0, "rental_uris": {"android": "https://dc.lft.to/lastmile_qr_scan", "ios": "https://dc.lft.to/lastmile_qr_scan"}, "type": "electric_scooter", "lat": 38.89604466666667, "is_reserved": 0, "fusion_lat": 0.0}, {"bike_id": "3a611a3bf387ea541f0e3a1394fea252", "fusion_lon": 0.0, "lon": -77.04330916666666, "name": "3a611a3bf387ea541f0e3a1394fea252", "is_disabled": 0, "rental_uris": {"android": "https://dc.lft.to/lastmile_qr_scan", "ios": "https://dc.lft.to/lastmile_qr_scan"}, "type": "electric_scooter", "lat": 38.89221833333333, "is_reserved": 0, "fusion_lat": 0.0}, {"bike_id": "bda5fccb67f0ff63889a48a25439b553", "fusion_lon": 0.0, "lon": -77.04098, "name": "bda5fccb67f0ff63889a48a25439b553", "is_disabled": 0, "rental_uris": {"android": "https://dc.lft.to/lastmile_qr_scan", "ios": "https://dc.lft.to/lastmile_qr_scan"}, "type": "electric_scooter", "lat": 38.9177325, "is_reserved": 0, "fusion_lat": 0.0}, {"bike_id": "96d3dcdeb44a1236b787430698b87413", "fusion_lon": 0.0, "lon": -77.0281985, "name": "96d3dcdeb44a1236b787430698b87413", "is_disabled": 0, "rental_uris": {"android": "https://dc.lft.to/lastmile_qr_scan", "ios": "https://dc.lft.to/lastmile_qr_scan"}, "type": "electric_scooter", "lat": 38.91694233333333, "is_reserved": 0, "fusion_lat": 0.0}, {"bike_id": "7bafce0981afda040ff4bc1017ffbcc3", "fusion_lon": 0.0, "lon": -76.96524316666667, "name": "7bafce0981afda040ff4bc1017ffbcc3", "is_disabled": 0, "rental_uris": {"android": "https://dc.lft.to/lastmile_qr_scan", "ios": "https://dc.lft.to/lastmile_qr_scan"}, "type": "electric_scooter", "lat": 38.8762985, "is_reserved": 0, "fusion_lat": 0.0}, {"bike_id": "52d2a2a9a8a8688ee60e01d8f5568ba2", "fusion_lon": 0.0, "lon": -77.023902, "name": "52d2a2a9a8a8688ee60e01d8f5568ba2", "is_disabled": 0, "rental_uris": {"android": "https://dc.lft.to/lastmile_qr_scan", "ios": "https://dc.lft.to/lastmile_qr_scan"}, "type": "electric_scooter", "lat": 38.91962983333333, "is_reserved": 0, "fusion_lat": 0.0}, {"bike_id": "fad40b79f1a7b6ef0976359c3ea9a8b4", "fusion_lon": 0.0, "lon": -77.04486516666667, "name": "fad40b79f1a7b6ef0976359c3ea9a8b4", "is_disabled": 0, "rental_uris": {"android": "https://dc.lft.to/lastmile_qr_scan", "ios": "https://dc.lft.to/lastmile_qr_scan"}, "type": "electric_scooter", "lat": 38.9011615, "is_reserved": 0, "fusion_lat": 0.0}, {"bike_id": "522ff212223066761e5796ea684d4d77", "fusion_lon": 0.0, "lon": -77.02426616666666, "name": "522ff212223066761e5796ea684d4d77", "is_disabled": 0, "rental_uris": {"android": "https://dc.lft.to/lastmile_qr_scan", "ios": "https://dc.lft.to/lastmile_qr_scan"}, "type": "electric_scooter", "lat": 38.90573833333333, "is_reserved": 0, "fusion_lat": 0.0}, {"bike_id": "e2d803f63f8189180bd11b047b6f17f2", "fusion_lon": 0.0, "lon": -77.07913466666666, "name": "e2d803f63f8189180bd11b047b6f17f2", "is_disabled": 0, "rental_uris": {"android": "https://dc.lft.to/lastmile_qr_scan", "ios": "https://dc.lft.to/lastmile_qr_scan"}, "type": "electric_bike", "lat": 38.80224416666667, "is_reserved": 0, "fusion_lat": 0.0}, {"bike_id": "3f0e3f649726017bf3da4810a8d3aea6", "fusion_lon": 0.0, "lon": -77.01385466666666, "name": "3f0e3f649726017bf3da4810a8d3aea6", "is_disabled": 0, "rental_uris": {"android": "https://dc.lft.to/lastmile_qr_scan", "ios": "https://dc.lft.to/lastmile_qr_scan"}, "type": "electric_scooter", "lat": 38.92858583333334, "is_reserved": 0, "fusion_lat": 0.0}, {"bike_id": "a778bed2235daa1ca36c68ee68550d3d", "fusion_lon": 0.0, "lon": -76.9870435, "name": "a778bed2235daa1ca36c68ee68550d3d", "is_disabled": 0, "rental_uris": {"android": "https://dc.lft.to/lastmile_qr_scan", "ios": "https://dc.lft.to/lastmile_qr_scan"}, "type": "electric_scooter", "lat": 38.8596395, "is_reserved": 0, "fusion_lat": 0.0}, {"bike_id": "dac632f9dd389c5de18511417b01597a", "fusion_lon": 0.0, "lon": -76.98840433333334, "name": "dac632f9dd389c5de18511417b01597a", "is_disabled": 0, "rental_uris": {"android": "https://dc.lft.to/lastmile_qr_scan", "ios": "https://dc.lft.to/lastmile_qr_scan"}, "type": "electric_bike", "lat": 38.84274683333334, "is_reserved": 0, "fusion_lat": 0.0}, {"bike_id": "83c8491691e1a9820421048f08c59892", "fusion_lon": 0.0, "lon": -77.16089366666667, "name": "83c8491691e1a9820421048f08c59892", "is_disabled": 0, "rental_uris": {"android": "https://dc.lft.to/lastmile_qr_scan", "ios": "https://dc.lft.to/lastmile_qr_scan"}, "type": "electric_bike", "lat": 38.88684, "is_reserved": 0, "fusion_lat": 0.0}, {"bike_id": "edca22c7f943c43a56856e1dce891dcc", "fusion_lon": 0.0, "lon": -77.02303116666667, "name": "edca22c7f943c43a56856e1dce891dcc", "is_disabled": 0, "rental_uris": {"android": "https://dc.lft.to/lastmile_qr_scan", "ios": "https://dc.lft.to/lastmile_qr_scan"}, "type": "electric_scooter", "lat": 38.9178505, "is_reserved": 0, "fusion_lat": 0.0}, {"bike_id": "bc0e460cfdd93457b0db72b1d2e1a827", "fusion_lon": 0.0, "lon": -77.02962316666667, "name": "bc0e460cfdd93457b0db72b1d2e1a827", "is_disabled": 0, "rental_uris": {"android": "https://dc.lft.to/lastmile_qr_scan", "ios": "https://dc.lft.to/lastmile_qr_scan"}, "type": "electric_scooter", "lat": 38.922599166666664, "is_reserved": 0, "fusion_lat": 0.0}, {"bike_id": "ad261d7e9c1e5bb6c3f784da4c003e18", "fusion_lon": 0.0, "lon": -77.0410795, "name": "ad261d7e9c1e5bb6c3f784da4c003e18", "is_disabled": 0, "rental_uris": {"android": "https://dc.lft.to/lastmile_qr_scan", "ios": "https://dc.lft.to/lastmile_qr_scan"}, "type": "electric_scooter", "lat": 38.92445816666667, "is_reserved": 0, "fusion_lat": 0.0}, {"bike_id": "0be01a8c67b460d6bd9f9ce97aba5c85", "fusion_lon": 0.0, "lon": -76.98249833333334, "name": "0be01a8c67b460d6bd9f9ce97aba5c85", "is_disabled": 0, "rental_uris": {"android": "https://dc.lft.to/lastmile_qr_scan", "ios": "https://dc.lft.to/lastmile_qr_scan"}, "type": "electric_bike", "lat": 38.9533165, "is_reserved": 0, "fusion_lat": 0.0}, {"bike_id": "364659ba638808216e09d687336497f1", "fusion_lon": 0.0, "lon": -76.98883483333333, "name": "364659ba638808216e09d687336497f1", "is_disabled": 0, "rental_uris": {"android": "https://dc.lft.to/lastmile_qr_scan", "ios": "https://dc.lft.to/lastmile_qr_scan"}, "type": "electric_scooter", "lat": 38.866585666666666, "is_reserved": 0, "fusion_lat": 0.0}, {"bike_id": "a25a54636ad01a09c483066ed8aebb84", "fusion_lon": 0.0, "lon": -77.01835416666667, "name": "a25a54636ad01a09c483066ed8aebb84", "is_disabled": 0, "rental_uris": {"android": "https://dc.lft.to/lastmile_qr_scan", "ios": "https://dc.lft.to/lastmile_qr_scan"}, "type": "electric_scooter", "lat": 38.942028666666666, "is_reserved": 0, "fusion_lat": 0.0}, {"bike_id": "94fec55cfc7dc215441421cba8b386ed", "fusion_lon": 0.0, "lon": -77.05023833333334, "name": "94fec55cfc7dc215441421cba8b386ed", "is_disabled": 0, "rental_uris": {"android": "https://dc.lft.to/lastmile_qr_scan", "ios": "https://dc.lft.to/lastmile_qr_scan"}, "type": "electric_scooter", "lat": 38.905331, "is_reserved": 0, "fusion_lat": 0.0}, {"bike_id": "34aaec12252e9c99a0fbebc817b8870b", "fusion_lon": 0.0, "lon": -77.00074683333334, "name": "34aaec12252e9c99a0fbebc817b8870b", "is_disabled": 0, "rental_uris": {"android": "https://dc.lft.to/lastmile_qr_scan", "ios": "https://dc.lft.to/lastmile_qr_scan"}, "type": "electric_scooter", "lat": 38.90013183333333, "is_reserved": 0, "fusion_lat": 0.0}, {"bike_id": "2387aa5e9ad94441b390e847087ff52b", "fusion_lon": 0.0, "lon": -77.0373975, "name": "2387aa5e9ad94441b390e847087ff52b", "is_disabled": 0, "rental_uris": {"android": "https://dc.lft.to/lastmile_qr_scan", "ios": "https://dc.lft.to/lastmile_qr_scan"}, "type": "electric_scooter", "lat": 38.92691716666667, "is_reserved": 0, "fusion_lat": 0.0}, {"bike_id": "8a06a4cf9601f50e0bfe837ecd26fe2f", "fusion_lon": 0.0, "lon": -77.02285366666666, "name": "8a06a4cf9601f50e0bfe837ecd26fe2f", "is_disabled": 0, "rental_uris": {"android": "https://dc.lft.to/lastmile_qr_scan", "ios": "https://dc.lft.to/lastmile_qr_scan"}, "type": "electric_scooter", "lat": 38.89060716666667, "is_reserved": 0, "fusion_lat": 0.0}, {"bike_id": "5e611107903f06995f29398238baf6bf", "fusion_lon": 0.0, "lon": -77.02980233333334, "name": "5e611107903f06995f29398238baf6bf", "is_disabled": 0, "rental_uris": {"android": "https://dc.lft.to/lastmile_qr_scan", "ios": "https://dc.lft.to/lastmile_qr_scan"}, "type": "electric_scooter", "lat": 38.94596466666667, "is_reserved": 0, "fusion_lat": 0.0}, {"bike_id": "22a09f71714c815a2fd8592f5831267d", "fusion_lon": 0.0, "lon": -77.04600283333333, "name": "22a09f71714c815a2fd8592f5831267d", "is_disabled": 0, "rental_uris": {"android": "https://dc.lft.to/lastmile_qr_scan", "ios": "https://dc.lft.to/lastmile_qr_scan"}, "type": "electric_scooter", "lat": 38.91914, "is_reserved": 0, "fusion_lat": 0.0}, {"bike_id": "4cc90d88aa880fd43a9f2bf177a19c9f", "fusion_lon": 0.0, "lon": -77.0435535, "name": "4cc90d88aa880fd43a9f2bf177a19c9f", "is_disabled": 0, "rental_uris": {"android": "https://dc.lft.to/lastmile_qr_scan", "ios": "https://dc.lft.to/lastmile_qr_scan"}, "type": "electric_scooter", "lat": 38.90375183333333, "is_reserved": 0, "fusion_lat": 0.0}, {"bike_id": "e2cb150df11b2f392bc6d0631a4bb0c3", "fusion_lon": 0.0, "lon": -77.0389405, "name": "e2cb150df11b2f392bc6d0631a4bb0c3", "is_disabled": 0, "rental_uris": {"android": "https://dc.lft.to/lastmile_qr_scan", "ios": "https://dc.lft.to/lastmile_qr_scan"}, "type": "electric_scooter", "lat": 38.922309166666665, "is_reserved": 0, "fusion_lat": 0.0}, {"bike_id": "a54ac45465d8e6f8b57ce8275f550ea9", "fusion_lon": 0.0, "lon": -77.034729, "name": "a54ac45465d8e6f8b57ce8275f550ea9", "is_disabled": 0, "rental_uris": {"android": "https://dc.lft.to/lastmile_qr_scan", "ios": "https://dc.lft.to/lastmile_qr_scan"}, "type": "electric_scooter", "lat": 38.91706116666667, "is_reserved": 0, "fusion_lat": 0.0}, {"bike_id": "325c18d782da91c80c765f901b7be145", "fusion_lon": 0.0, "lon": -77.02715883333333, "name": "325c18d782da91c80c765f901b7be145", "is_disabled": 0, "rental_uris": {"android": "https://dc.lft.to/lastmile_qr_scan", "ios": "https://dc.lft.to/lastmile_qr_scan"}, "type": "electric_scooter", "lat": 38.915654, "is_reserved": 0, "fusion_lat": 0.0}, {"bike_id": "09ddba929a601adeee600cffc89eba4e", "fusion_lon": 0.0, "lon": -77.04143933333333, "name": "09ddba929a601adeee600cffc89eba4e", "is_disabled": 0, "rental_uris": {"android": "https://dc.lft.to/lastmile_qr_scan", "ios": "https://dc.lft.to/lastmile_qr_scan"}, "type": "electric_scooter", "lat": 38.923012666666665, "is_reserved": 0, "fusion_lat": 0.0}, {"bike_id": "c54c4a7c82f8b0ff1eaf5f45ed15754e", "fusion_lon": 0.0, "lon": -77.044883, "name": "c54c4a7c82f8b0ff1eaf5f45ed15754e", "is_disabled": 0, "rental_uris": {"android": "https://dc.lft.to/lastmile_qr_scan", "ios": "https://dc.lft.to/lastmile_qr_scan"}, "type": "electric_scooter", "lat": 38.905361166666665, "is_reserved": 0, "fusion_lat": 0.0}, {"bike_id": "6f7010204350a4cf307d901e48e04386", "fusion_lon": 0.0, "lon": -77.0159185, "name": "6f7010204350a4cf307d901e48e04386", "is_disabled": 0, "rental_uris": {"android": "https://dc.lft.to/lastmile_qr_scan", "ios": "https://dc.lft.to/lastmile_qr_scan"}, "type": "electric_scooter", "lat": 38.949350833333334, "is_reserved": 0, "fusion_lat": 0.0}, {"bike_id": "de96002b30d77ef0f10bdb1eb8bb924e", "fusion_lon": 0.0, "lon": -76.99348666666667, "name": "de96002b30d77ef0f10bdb1eb8bb924e", "is_disabled": 0, "rental_uris": {"android": "https://dc.lft.to/lastmile_qr_scan", "ios": "https://dc.lft.to/lastmile_qr_scan"}, "type": "electric_scooter", "lat": 38.91483366666667, "is_reserved": 0, "fusion_lat": 0.0}, {"bike_id": "1a8568ae6723e9df62d2232b88b64370", "fusion_lon": 0.0, "lon": -77.02722266666666, "name": "1a8568ae6723e9df62d2232b88b64370", "is_disabled": 0, "rental_uris": {"android": "https://dc.lft.to/lastmile_qr_scan", "ios": "https://dc.lft.to/lastmile_qr_scan"}, "type": "electric_scooter", "lat": 38.9495735, "is_reserved": 0, "fusion_lat": 0.0}, {"bike_id": "b777cdc8f3c55e72fe0408e476b44800", "fusion_lon": 0.0, "lon": -77.034355, "name": "b777cdc8f3c55e72fe0408e476b44800", "is_disabled": 0, "rental_uris": {"android": "https://dc.lft.to/lastmile_qr_scan", "ios": "https://dc.lft.to/lastmile_qr_scan"}, "type": "electric_scooter", "lat": 38.90384266666667, "is_reserved": 0, "fusion_lat": 0.0}, {"bike_id": "745729ee11614a089821defad1dec9a2", "fusion_lon": 0.0, "lon": -77.05854883333333, "name": "745729ee11614a089821defad1dec9a2", "is_disabled": 0, "rental_uris": {"android": "https://dc.lft.to/lastmile_qr_scan", "ios": "https://dc.lft.to/lastmile_qr_scan"}, "type": "electric_scooter", "lat": 38.936087, "is_reserved": 0, "fusion_lat": 0.0}, {"bike_id": "ec4576ab3c0422b333db7bd0eba6c3b0", "fusion_lon": 0.0, "lon": -77.066259, "name": "ec4576ab3c0422b333db7bd0eba6c3b0", "is_disabled": 0, "rental_uris": {"android": "https://dc.lft.to/lastmile_qr_scan", "ios": "https://dc.lft.to/lastmile_qr_scan"}, "type": "electric_bike", "lat": 38.94957133333333, "is_reserved": 0, "fusion_lat": 0.0}, {"bike_id": "df2602bfa2fcc8bd1d6403f9840c878a", "fusion_lon": 0.0, "lon": -76.9810635, "name": "df2602bfa2fcc8bd1d6403f9840c878a", "is_disabled": 0, "rental_uris": {"android": "https://dc.lft.to/lastmile_qr_scan", "ios": "https://dc.lft.to/lastmile_qr_scan"}, "type": "electric_bike", "lat": 38.87729816666667, "is_reserved": 0, "fusion_lat": 0.0}, {"bike_id": "2094cc1a0d3cde88759a08efd49817fb", "fusion_lon": 0.0, "lon": -77.01865083333334, "name": "2094cc1a0d3cde88759a08efd49817fb", "is_disabled": 0, "rental_uris": {"android": "https://dc.lft.to/lastmile_qr_scan", "ios": "https://dc.lft.to/lastmile_qr_scan"}, "type": "electric_scooter", "lat": 38.973695, "is_reserved": 0, "fusion_lat": 0.0}, {"bike_id": "ad981a8336f22c9c5a8a9ecab5b0471a", "fusion_lon": 0.0, "lon": -77.02942466666667, "name": "ad981a8336f22c9c5a8a9ecab5b0471a", "is_disabled": 0, "rental_uris": {"android": "https://dc.lft.to/lastmile_qr_scan", "ios": "https://dc.lft.to/lastmile_qr_scan"}, "type": "electric_scooter", "lat": 38.89528933333333, "is_reserved": 0, "fusion_lat": 0.0}, {"bike_id": "66934387a9ccaad75483da954cf27d48", "fusion_lon": 0.0, "lon": -77.05526283333333, "name": "66934387a9ccaad75483da954cf27d48", "is_disabled": 0, "rental_uris": {"android": "https://dc.lft.to/lastmile_qr_scan", "ios": "https://dc.lft.to/lastmile_qr_scan"}, "type": "electric_scooter", "lat": 38.930187333333336, "is_reserved": 0, "fusion_lat": 0.0}, {"bike_id": "7028ff7f2211bfb145e8e0686cf0698b", "fusion_lon": 0.0, "lon": -77.02992383333333, "name": "7028ff7f2211bfb145e8e0686cf0698b", "is_disabled": 0, "rental_uris": {"android": "https://dc.lft.to/lastmile_qr_scan", "ios": "https://dc.lft.to/lastmile_qr_scan"}, "type": "electric_scooter", "lat": 38.9001445, "is_reserved": 0, "fusion_lat": 0.0}, {"bike_id": "7e3b5f90080c6187849bf9ef3adae42f", "fusion_lon": 0.0, "lon": -77.08190433333333, "name": "7e3b5f90080c6187849bf9ef3adae42f", "is_disabled": 0, "rental_uris": {"android": "https://dc.lft.to/lastmile_qr_scan", "ios": "https://dc.lft.to/lastmile_qr_scan"}, "type": "electric_bike", "lat": 38.85564633333333, "is_reserved": 0, "fusion_lat": 0.0}, {"bike_id": "a758c51d2853cc36765708610a048644", "fusion_lon": 0.0, "lon": -77.00568583333333, "name": "a758c51d2853cc36765708610a048644", "is_disabled": 0, "rental_uris": {"android": "https://dc.lft.to/lastmile_qr_scan", "ios": "https://dc.lft.to/lastmile_qr_scan"}, "type": "electric_scooter", "lat": 38.885019166666666, "is_reserved": 0, "fusion_lat": 0.0}, {"bike_id": "47cb5784ef29bf60a85395d7c7576cce", "fusion_lon": 0.0, "lon": -77.0398565, "name": "47cb5784ef29bf60a85395d7c7576cce", "is_disabled": 0, "rental_uris": {"android": "https://dc.lft.to/lastmile_qr_scan", "ios": "https://dc.lft.to/lastmile_qr_scan"}, "type": "electric_bike", "lat": 38.93327516666667, "is_reserved": 0, "fusion_lat": 0.0}, {"bike_id": "b7ae4e875514f6f81da30c95373b4ad2", "fusion_lon": 0.0, "lon": -76.93733483333334, "name": "b7ae4e875514f6f81da30c95373b4ad2", "is_disabled": 0, "rental_uris": {"android": "https://dc.lft.to/lastmile_qr_scan", "ios": "https://dc.lft.to/lastmile_qr_scan"}, "type": "electric_scooter", "lat": 38.890165333333336, "is_reserved": 0, "fusion_lat": 0.0}, {"bike_id": "cba344f0396a62afd056314854f44ed3", "fusion_lon": 0.0, "lon": -77.0012795, "name": "cba344f0396a62afd056314854f44ed3", "is_disabled": 0, "rental_uris": {"android": "https://dc.lft.to/lastmile_qr_scan", "ios": "https://dc.lft.to/lastmile_qr_scan"}, "type": "electric_scooter", "lat": 38.90510366666667, "is_reserved": 0, "fusion_lat": 0.0}, {"bike_id": "2f254f5d1c853466f0ac4ee4c8b19169", "fusion_lon": 0.0, "lon": -77.00400016666667, "name": "2f254f5d1c853466f0ac4ee4c8b19169", "is_disabled": 0, "rental_uris": {"android": "https://dc.lft.to/lastmile_qr_scan", "ios": "https://dc.lft.to/lastmile_qr_scan"}, "type": "electric_scooter", "lat": 38.876621666666665, "is_reserved": 0, "fusion_lat": 0.0}, {"bike_id": "9f245c4fba530f08fb6fcf7103b6f820", "fusion_lon": 0.0, "lon": -77.04177333333334, "name": "9f245c4fba530f08fb6fcf7103b6f820", "is_disabled": 0, "rental_uris": {"android": "https://dc.lft.to/lastmile_qr_scan", "ios": "https://dc.lft.to/lastmile_qr_scan"}, "type": "electric_scooter", "lat": 38.90572066666667, "is_reserved": 0, "fusion_lat": 0.0}, {"bike_id": "98a34f5cd4fbe37ac5bc1ca205c6f918", "fusion_lon": 0.0, "lon": -76.9897525, "name": "98a34f5cd4fbe37ac5bc1ca205c6f918", "is_disabled": 0, "rental_uris": {"android": "https://dc.lft.to/lastmile_qr_scan", "ios": "https://dc.lft.to/lastmile_qr_scan"}, "type": "electric_scooter", "lat": 38.865125666666664, "is_reserved": 0, "fusion_lat": 0.0}, {"bike_id": "cfb85321163d5182e6cd5057f4625eaa", "fusion_lon": 0.0, "lon": -77.04398333333333, "name": "cfb85321163d5182e6cd5057f4625eaa", "is_disabled": 0, "rental_uris": {"android": "https://dc.lft.to/lastmile_qr_scan", "ios": "https://dc.lft.to/lastmile_qr_scan"}, "type": "electric_scooter", "lat": 38.92065216666667, "is_reserved": 0, "fusion_lat": 0.0}, {"bike_id": "57f2937e73a77abceae3f62d73d5e53d", "fusion_lon": 0.0, "lon": -77.0328855, "name": "57f2937e73a77abceae3f62d73d5e53d", "is_disabled": 0, "rental_uris": {"android": "https://dc.lft.to/lastmile_qr_scan", "ios": "https://dc.lft.to/lastmile_qr_scan"}, "type": "electric_scooter", "lat": 38.929454166666666, "is_reserved": 0, "fusion_lat": 0.0}, {"bike_id": "6ecd1936b395edda053e861e3bff7bb0", "fusion_lon": 0.0, "lon": -77.0177955, "name": "6ecd1936b395edda053e861e3bff7bb0", "is_disabled": 0, "rental_uris": {"android": "https://dc.lft.to/lastmile_qr_scan", "ios": "https://dc.lft.to/lastmile_qr_scan"}, "type": "electric_scooter", "lat": 38.90781883333333, "is_reserved": 0, "fusion_lat": 0.0}, {"bike_id": "7b6af8b490a6a16650ad1338fe79eb0b", "fusion_lon": 0.0, "lon": -77.043396, "name": "7b6af8b490a6a16650ad1338fe79eb0b", "is_disabled": 0, "rental_uris": {"android": "https://dc.lft.to/lastmile_qr_scan", "ios": "https://dc.lft.to/lastmile_qr_scan"}, "type": "electric_scooter", "lat": 38.903302333333336, "is_reserved": 0, "fusion_lat": 0.0}, {"bike_id": "6c335831a3d061115bf845618acb8091", "fusion_lon": 0.0, "lon": -77.02475466666667, "name": "6c335831a3d061115bf845618acb8091", "is_disabled": 0, "rental_uris": {"android": "https://dc.lft.to/lastmile_qr_scan", "ios": "https://dc.lft.to/lastmile_qr_scan"}, "type": "electric_scooter", "lat": 38.918156, "is_reserved": 0, "fusion_lat": 0.0}, {"bike_id": "b50a01b534311ad16efecadd613916f4", "fusion_lon": 0.0, "lon": -76.95186183333334, "name": "b50a01b534311ad16efecadd613916f4", "is_disabled": 0, "rental_uris": {"android": "https://dc.lft.to/lastmile_qr_scan", "ios": "https://dc.lft.to/lastmile_qr_scan"}, "type": "electric_scooter", "lat": 38.90739416666667, "is_reserved": 0, "fusion_lat": 0.0}, {"bike_id": "960c87d1f62677ca4027b079c57da58a", "fusion_lon": 0.0, "lon": -77.03565266666666, "name": "960c87d1f62677ca4027b079c57da58a", "is_disabled": 0, "rental_uris": {"android": "https://dc.lft.to/lastmile_qr_scan", "ios": "https://dc.lft.to/lastmile_qr_scan"}, "type": "electric_scooter", "lat": 38.90837766666667, "is_reserved": 0, "fusion_lat": 0.0}, {"bike_id": "653f57dc84aa35dee23b091447a13b2a", "fusion_lon": 0.0, "lon": -77.02357816666667, "name": "653f57dc84aa35dee23b091447a13b2a", "is_disabled": 0, "rental_uris": {"android": "https://dc.lft.to/lastmile_qr_scan", "ios": "https://dc.lft.to/lastmile_qr_scan"}, "type": "electric_scooter", "lat": 38.925133, "is_reserved": 0, "fusion_lat": 0.0}, {"bike_id": "5791af065b5c7c36b2130bdf55def2fc", "fusion_lon": 0.0, "lon": -77.03485466666666, "name": "5791af065b5c7c36b2130bdf55def2fc", "is_disabled": 0, "rental_uris": {"android": "https://dc.lft.to/lastmile_qr_scan", "ios": "https://dc.lft.to/lastmile_qr_scan"}, "type": "electric_scooter", "lat": 38.923362166666664, "is_reserved": 0, "fusion_lat": 0.0}, {"bike_id": "736315eb790af639256e3e29d18d0c2b", "fusion_lon": 0.0, "lon": -76.93160033333334, "name": "736315eb790af639256e3e29d18d0c2b", "is_disabled": 0, "rental_uris": {"android": "https://dc.lft.to/lastmile_qr_scan", "ios": "https://dc.lft.to/lastmile_qr_scan"}, "type": "electric_scooter", "lat": 38.89876983333333, "is_reserved": 0, "fusion_lat": 0.0}, {"bike_id": "b3e4a9b0eb3a51d7562613b74046bec7", "fusion_lon": 0.0, "lon": -77.03362183333333, "name": "b3e4a9b0eb3a51d7562613b74046bec7", "is_disabled": 0, "rental_uris": {"android": "https://dc.lft.to/lastmile_qr_scan", "ios": "https://dc.lft.to/lastmile_qr_scan"}, "type": "electric_scooter", "lat": 38.941832, "is_reserved": 0, "fusion_lat": 0.0}, {"bike_id": "0c253b1cdd546ebfba73a3e3beb616ec", "fusion_lon": 0.0, "lon": -77.011963, "name": "0c253b1cdd546ebfba73a3e3beb616ec", "is_disabled": 0, "rental_uris": {"android": "https://dc.lft.to/lastmile_qr_scan", "ios": "https://dc.lft.to/lastmile_qr_scan"}, "type": "electric_scooter", "lat": 38.900073666666664, "is_reserved": 0, "fusion_lat": 0.0}, {"bike_id": "11a6aef3c1ce9da10eb061408b8f0d6c", "fusion_lon": 0.0, "lon": -77.025812, "name": "11a6aef3c1ce9da10eb061408b8f0d6c", "is_disabled": 0, "rental_uris": {"android": "https://dc.lft.to/lastmile_qr_scan", "ios": "https://dc.lft.to/lastmile_qr_scan"}, "type": "electric_scooter", "lat": 38.892290333333335, "is_reserved": 0, "fusion_lat": 0.0}, {"bike_id": "317b2c4fc65752939eebbb5e08fbf218", "fusion_lon": 0.0, "lon": -76.98794616666666, "name": "317b2c4fc65752939eebbb5e08fbf218", "is_disabled": 0, "rental_uris": {"android": "https://dc.lft.to/lastmile_qr_scan", "ios": "https://dc.lft.to/lastmile_qr_scan"}, "type": "electric_bike", "lat": 38.922093333333336, "is_reserved": 0, "fusion_lat": 0.0}, {"bike_id": "d2a15f0431e8bddf5952b52b0d2fadd4", "fusion_lon": 0.0, "lon": -76.9273665, "name": "d2a15f0431e8bddf5952b52b0d2fadd4", "is_disabled": 0, "rental_uris": {"android": "https://dc.lft.to/lastmile_qr_scan", "ios": "https://dc.lft.to/lastmile_qr_scan"}, "type": "electric_scooter", "lat": 38.889638166666664, "is_reserved": 0, "fusion_lat": 0.0}, {"bike_id": "ceb9b74dc011b691629f9ac13cac552d", "fusion_lon": 0.0, "lon": -77.06864566666667, "name": "ceb9b74dc011b691629f9ac13cac552d", "is_disabled": 0, "rental_uris": {"android": "https://dc.lft.to/lastmile_qr_scan", "ios": "https://dc.lft.to/lastmile_qr_scan"}, "type": "electric_bike", "lat": 38.80577816666667, "is_reserved": 0, "fusion_lat": 0.0}, {"bike_id": "b98731120380ab2cbbdb693e8ff833eb", "fusion_lon": 0.0, "lon": -77.02331516666666, "name": "b98731120380ab2cbbdb693e8ff833eb", "is_disabled": 0, "rental_uris": {"android": "https://dc.lft.to/lastmile_qr_scan", "ios": "https://dc.lft.to/lastmile_qr_scan"}, "type": "electric_scooter", "lat": 38.928869166666665, "is_reserved": 0, "fusion_lat": 0.0}, {"bike_id": "db2e77f533cb9db751a11f39354d26d0", "fusion_lon": 0.0, "lon": -77.02685216666667, "name": "db2e77f533cb9db751a11f39354d26d0", "is_disabled": 0, "rental_uris": {"android": "https://dc.lft.to/lastmile_qr_scan", "ios": "https://dc.lft.to/lastmile_qr_scan"}, "type": "electric_scooter", "lat": 38.88125383333333, "is_reserved": 0, "fusion_lat": 0.0}, {"bike_id": "4158b24c612d261af74ddcca6b22ff0a", "fusion_lon": 0.0, "lon": -76.985135, "name": "4158b24c612d261af74ddcca6b22ff0a", "is_disabled": 0, "rental_uris": {"android": "https://dc.lft.to/lastmile_qr_scan", "ios": "https://dc.lft.to/lastmile_qr_scan"}, "type": "electric_scooter", "lat": 38.866670166666665, "is_reserved": 0, "fusion_lat": 0.0}, {"bike_id": "359b70f2ed9160f7b8ad097372586d9c", "fusion_lon": 0.0, "lon": -77.021767, "name": "359b70f2ed9160f7b8ad097372586d9c", "is_disabled": 0, "rental_uris": {"android": "https://dc.lft.to/lastmile_qr_scan", "ios": "https://dc.lft.to/lastmile_qr_scan"}, "type": "electric_scooter", "lat": 38.884837, "is_reserved": 0, "fusion_lat": 0.0}, {"bike_id": "6e37455db8f05b35b525b5a94d0ed0eb", "fusion_lon": 0.0, "lon": -77.02316583333334, "name": "6e37455db8f05b35b525b5a94d0ed0eb", "is_disabled": 0, "rental_uris": {"android": "https://dc.lft.to/lastmile_qr_scan", "ios": "https://dc.lft.to/lastmile_qr_scan"}, "type": "electric_scooter", "lat": 38.907262833333334, "is_reserved": 0, "fusion_lat": 0.0}, {"bike_id": "b61dc742b4853e5a748339a23150020b", "fusion_lon": 0.0, "lon": -77.01937483333333, "name": "b61dc742b4853e5a748339a23150020b", "is_disabled": 0, "rental_uris": {"android": "https://dc.lft.to/lastmile_qr_scan", "ios": "https://dc.lft.to/lastmile_qr_scan"}, "type": "electric_scooter", "lat": 38.947023333333334, "is_reserved": 0, "fusion_lat": 0.0}, {"bike_id": "99297cd5d1f27edb26bdf9f568f0b80d", "fusion_lon": 0.0, "lon": -77.05033516666667, "name": "99297cd5d1f27edb26bdf9f568f0b80d", "is_disabled": 0, "rental_uris": {"android": "https://dc.lft.to/lastmile_qr_scan", "ios": "https://dc.lft.to/lastmile_qr_scan"}, "type": "electric_bike", "lat": 39.038969333333334, "is_reserved": 0, "fusion_lat": 0.0}, {"bike_id": "ea4fb2c44ba82a9062b11b09b2846823", "fusion_lon": 0.0, "lon": -77.0058685, "name": "ea4fb2c44ba82a9062b11b09b2846823", "is_disabled": 0, "rental_uris": {"android": "https://dc.lft.to/lastmile_qr_scan", "ios": "https://dc.lft.to/lastmile_qr_scan"}, "type": "electric_scooter", "lat": 38.8731895, "is_reserved": 0, "fusion_lat": 0.0}, {"bike_id": "ea35d630abaaf0cf131dad35336965c4", "fusion_lon": 0.0, "lon": -77.031869, "name": "ea35d630abaaf0cf131dad35336965c4", "is_disabled": 0, "rental_uris": {"android": "https://dc.lft.to/lastmile_qr_scan", "ios": "https://dc.lft.to/lastmile_qr_scan"}, "type": "electric_scooter", "lat": 38.913479, "is_reserved": 0, "fusion_lat": 0.0}, {"bike_id": "94e98b6d2774e6c0898e55ba03643980", "fusion_lon": 0.0, "lon": -77.0438575, "name": "94e98b6d2774e6c0898e55ba03643980", "is_disabled": 0, "rental_uris": {"android": "https://dc.lft.to/lastmile_qr_scan", "ios": "https://dc.lft.to/lastmile_qr_scan"}, "type": "electric_scooter", "lat": 38.905499166666665, "is_reserved": 0, "fusion_lat": 0.0}, {"bike_id": "647f14700f04a6a764cf02e99fa6729f", "fusion_lon": 0.0, "lon": -77.03439566666667, "name": "647f14700f04a6a764cf02e99fa6729f", "is_disabled": 0, "rental_uris": {"android": "https://dc.lft.to/lastmile_qr_scan", "ios": "https://dc.lft.to/lastmile_qr_scan"}, "type": "electric_scooter", "lat": 38.909731666666666, "is_reserved": 0, "fusion_lat": 0.0}, {"bike_id": "369743b52ad56e7fbb786fa376511c85", "fusion_lon": 0.0, "lon": -77.032992, "name": "369743b52ad56e7fbb786fa376511c85", "is_disabled": 0, "rental_uris": {"android": "https://dc.lft.to/lastmile_qr_scan", "ios": "https://dc.lft.to/lastmile_qr_scan"}, "type": "electric_scooter", "lat": 38.947124333333335, "is_reserved": 0, "fusion_lat": 0.0}, {"bike_id": "eb964143c430b3128373bf4e4237f2c6", "fusion_lon": 0.0, "lon": -77.04185916666667, "name": "eb964143c430b3128373bf4e4237f2c6", "is_disabled": 0, "rental_uris": {"android": "https://dc.lft.to/lastmile_qr_scan", "ios": "https://dc.lft.to/lastmile_qr_scan"}, "type": "electric_scooter", "lat": 38.892908166666665, "is_reserved": 0, "fusion_lat": 0.0}, {"bike_id": "f7dc93a8adf494152e83375bdc2537db", "fusion_lon": 0.0, "lon": -77.0401265, "name": "f7dc93a8adf494152e83375bdc2537db", "is_disabled": 0, "rental_uris": {"android": "https://dc.lft.to/lastmile_qr_scan", "ios": "https://dc.lft.to/lastmile_qr_scan"}, "type": "electric_scooter", "lat": 38.91824116666667, "is_reserved": 0, "fusion_lat": 0.0}, {"bike_id": "d5b0183b2a498d1b6213f39972e30d34", "fusion_lon": 0.0, "lon": -77.02491433333333, "name": "d5b0183b2a498d1b6213f39972e30d34", "is_disabled": 0, "rental_uris": {"android": "https://dc.lft.to/lastmile_qr_scan", "ios": "https://dc.lft.to/lastmile_qr_scan"}, "type": "electric_scooter", "lat": 38.941849833333336, "is_reserved": 0, "fusion_lat": 0.0}, {"bike_id": "4e5e7a35af3b832b9671f1a71ee60cbb", "fusion_lon": 0.0, "lon": -77.04354183333334, "name": "4e5e7a35af3b832b9671f1a71ee60cbb", "is_disabled": 0, "rental_uris": {"android": "https://dc.lft.to/lastmile_qr_scan", "ios": "https://dc.lft.to/lastmile_qr_scan"}, "type": "electric_scooter", "lat": 38.91048216666667, "is_reserved": 0, "fusion_lat": 0.0}, {"bike_id": "3c1be1d44a48c05be40d0ffc292a3127", "fusion_lon": 0.0, "lon": -76.991223, "name": "3c1be1d44a48c05be40d0ffc292a3127", "is_disabled": 0, "rental_uris": {"android": "https://dc.lft.to/lastmile_qr_scan", "ios": "https://dc.lft.to/lastmile_qr_scan"}, "type": "electric_scooter", "lat": 38.86206033333333, "is_reserved": 0, "fusion_lat": 0.0}, {"bike_id": "7f60acd170b25ddaff0fc37434c6bb2f", "fusion_lon": 0.0, "lon": -77.01762333333333, "name": "7f60acd170b25ddaff0fc37434c6bb2f", "is_disabled": 0, "rental_uris": {"android": "https://dc.lft.to/lastmile_qr_scan", "ios": "https://dc.lft.to/lastmile_qr_scan"}, "type": "electric_scooter", "lat": 38.902494833333336, "is_reserved": 0, "fusion_lat": 0.0}, {"bike_id": "8e62e54a40b2dd412e0a243cf3bdd243", "fusion_lon": 0.0, "lon": -77.03241883333334, "name": "8e62e54a40b2dd412e0a243cf3bdd243", "is_disabled": 0, "rental_uris": {"android": "https://dc.lft.to/lastmile_qr_scan", "ios": "https://dc.lft.to/lastmile_qr_scan"}, "type": "electric_scooter", "lat": 38.919128, "is_reserved": 0, "fusion_lat": 0.0}, {"bike_id": "a96e3648f2daedf292535b9d52f49ba6", "fusion_lon": 0.0, "lon": -77.02897466666667, "name": "a96e3648f2daedf292535b9d52f49ba6", "is_disabled": 0, "rental_uris": {"android": "https://dc.lft.to/lastmile_qr_scan", "ios": "https://dc.lft.to/lastmile_qr_scan"}, "type": "electric_scooter", "lat": 38.916953, "is_reserved": 0, "fusion_lat": 0.0}, {"bike_id": "7aa93ea7489b8ac6b458b4a5c339c4b2", "fusion_lon": 0.0, "lon": -77.033139, "name": "7aa93ea7489b8ac6b458b4a5c339c4b2", "is_disabled": 0, "rental_uris": {"android": "https://dc.lft.to/lastmile_qr_scan", "ios": "https://dc.lft.to/lastmile_qr_scan"}, "type": "electric_scooter", "lat": 38.9215315, "is_reserved": 0, "fusion_lat": 0.0}, {"bike_id": "f7b6797a4cf36c05e2cf2afb7b563128", "fusion_lon": 0.0, "lon": -77.04345916666666, "name": "f7b6797a4cf36c05e2cf2afb7b563128", "is_disabled": 0, "rental_uris": {"android": "https://dc.lft.to/lastmile_qr_scan", "ios": "https://dc.lft.to/lastmile_qr_scan"}, "type": "electric_scooter", "lat": 38.903961, "is_reserved": 0, "fusion_lat": 0.0}, {"bike_id": "6b7f9656b457a3a33919a1a2a47168f2", "fusion_lon": 0.0, "lon": -77.04160783333333, "name": "6b7f9656b457a3a33919a1a2a47168f2", "is_disabled": 0, "rental_uris": {"android": "https://dc.lft.to/lastmile_qr_scan", "ios": "https://dc.lft.to/lastmile_qr_scan"}, "type": "electric_scooter", "lat": 38.91859183333333, "is_reserved": 0, "fusion_lat": 0.0}, {"bike_id": "81080bfbc3af9d879e0d0b9a8c29306a", "fusion_lon": 0.0, "lon": -77.040103, "name": "81080bfbc3af9d879e0d0b9a8c29306a", "is_disabled": 0, "rental_uris": {"android": "https://dc.lft.to/lastmile_qr_scan", "ios": "https://dc.lft.to/lastmile_qr_scan"}, "type": "electric_scooter", "lat": 38.903307, "is_reserved": 0, "fusion_lat": 0.0}, {"bike_id": "54c8b2e5310b2df188ce4712e408127c", "fusion_lon": 0.0, "lon": -77.02410216666667, "name": "54c8b2e5310b2df188ce4712e408127c", "is_disabled": 0, "rental_uris": {"android": "https://dc.lft.to/lastmile_qr_scan", "ios": "https://dc.lft.to/lastmile_qr_scan"}, "type": "electric_scooter", "lat": 38.90859616666667, "is_reserved": 0, "fusion_lat": 0.0}, {"bike_id": "211ee9fc76aa64b4967cc6a57d0253a0", "fusion_lon": 0.0, "lon": -77.02897966666667, "name": "211ee9fc76aa64b4967cc6a57d0253a0", "is_disabled": 0, "rental_uris": {"android": "https://dc.lft.to/lastmile_qr_scan", "ios": "https://dc.lft.to/lastmile_qr_scan"}, "type": "electric_scooter", "lat": 38.9002505, "is_reserved": 0, "fusion_lat": 0.0}, {"bike_id": "df582659209ca4841c1ed732bdb7b1e9", "fusion_lon": 0.0, "lon": -76.98075483333334, "name": "df582659209ca4841c1ed732bdb7b1e9", "is_disabled": 0, "rental_uris": {"android": "https://dc.lft.to/lastmile_qr_scan", "ios": "https://dc.lft.to/lastmile_qr_scan"}, "type": "electric_bike", "lat": 38.90179083333334, "is_reserved": 0, "fusion_lat": 0.0}, {"bike_id": "75725a984fc667b3334b352e0e5c948b", "fusion_lon": 0.0, "lon": -77.048327, "name": "75725a984fc667b3334b352e0e5c948b", "is_disabled": 0, "rental_uris": {"android": "https://dc.lft.to/lastmile_qr_scan", "ios": "https://dc.lft.to/lastmile_qr_scan"}, "type": "electric_scooter", "lat": 38.91031666666667, "is_reserved": 0, "fusion_lat": 0.0}, {"bike_id": "03d34800a18cbc865606092a20a6fe92", "fusion_lon": 0.0, "lon": -76.93351483333333, "name": "03d34800a18cbc865606092a20a6fe92", "is_disabled": 0, "rental_uris": {"android": "https://dc.lft.to/lastmile_qr_scan", "ios": "https://dc.lft.to/lastmile_qr_scan"}, "type": "electric_scooter", "lat": 38.8990585, "is_reserved": 0, "fusion_lat": 0.0}, {"bike_id": "ccae1c2384e93b8061a9d01897e8a864", "fusion_lon": 0.0, "lon": -77.0417155, "name": "ccae1c2384e93b8061a9d01897e8a864", "is_disabled": 0, "rental_uris": {"android": "https://dc.lft.to/lastmile_qr_scan", "ios": "https://dc.lft.to/lastmile_qr_scan"}, "type": "electric_scooter", "lat": 38.917329333333335, "is_reserved": 0, "fusion_lat": 0.0}, {"bike_id": "83a7cd4de6e44ec1b8693b8333bd588e", "fusion_lon": 0.0, "lon": -77.0325895, "name": "83a7cd4de6e44ec1b8693b8333bd588e", "is_disabled": 0, "rental_uris": {"android": "https://dc.lft.to/lastmile_qr_scan", "ios": "https://dc.lft.to/lastmile_qr_scan"}, "type": "electric_scooter", "lat": 38.93767783333333, "is_reserved": 0, "fusion_lat": 0.0}, {"bike_id": "3cd88f3cb44498fa0618f6552329a6cf", "fusion_lon": 0.0, "lon": -77.0414085, "name": "3cd88f3cb44498fa0618f6552329a6cf", "is_disabled": 0, "rental_uris": {"android": "https://dc.lft.to/lastmile_qr_scan", "ios": "https://dc.lft.to/lastmile_qr_scan"}, "type": "electric_scooter", "lat": 38.893508, "is_reserved": 0, "fusion_lat": 0.0}, {"bike_id": "fedabccf9aac21f1cc0355ffa3b4c19f", "fusion_lon": 0.0, "lon": -76.9970655, "name": "fedabccf9aac21f1cc0355ffa3b4c19f", "is_disabled": 0, "rental_uris": {"android": "https://dc.lft.to/lastmile_qr_scan", "ios": "https://dc.lft.to/lastmile_qr_scan"}, "type": "electric_scooter", "lat": 38.844338666666665, "is_reserved": 0, "fusion_lat": 0.0}, {"bike_id": "9a7587c70e60498701f70fbc9eeccaa7", "fusion_lon": 0.0, "lon": -77.03687966666666, "name": "9a7587c70e60498701f70fbc9eeccaa7", "is_disabled": 0, "rental_uris": {"android": "https://dc.lft.to/lastmile_qr_scan", "ios": "https://dc.lft.to/lastmile_qr_scan"}, "type": "electric_scooter", "lat": 38.9167315, "is_reserved": 0, "fusion_lat": 0.0}, {"bike_id": "4ae28e6d6e7c53f50fa445da744b74b8", "fusion_lon": 0.0, "lon": -77.003301, "name": "4ae28e6d6e7c53f50fa445da744b74b8", "is_disabled": 0, "rental_uris": {"android": "https://dc.lft.to/lastmile_qr_scan", "ios": "https://dc.lft.to/lastmile_qr_scan"}, "type": "electric_scooter", "lat": 38.89353633333333, "is_reserved": 0, "fusion_lat": 0.0}, {"bike_id": "534707aa6fa7206059cc85e31d994fce", "fusion_lon": 0.0, "lon": -77.0269455, "name": "534707aa6fa7206059cc85e31d994fce", "is_disabled": 0, "rental_uris": {"android": "https://dc.lft.to/lastmile_qr_scan", "ios": "https://dc.lft.to/lastmile_qr_scan"}, "type": "electric_scooter", "lat": 38.911247, "is_reserved": 0, "fusion_lat": 0.0}, {"bike_id": "d02cb7ef06cbfe859bb97bfd70e48430", "fusion_lon": 0.0, "lon": -76.98652266666667, "name": "d02cb7ef06cbfe859bb97bfd70e48430", "is_disabled": 0, "rental_uris": {"android": "https://dc.lft.to/lastmile_qr_scan", "ios": "https://dc.lft.to/lastmile_qr_scan"}, "type": "electric_scooter", "lat": 38.8580765, "is_reserved": 0, "fusion_lat": 0.0}, {"bike_id": "c4e11f40fa18d5cc67ba0bedb49e0a54", "fusion_lon": 0.0, "lon": -76.989245, "name": "c4e11f40fa18d5cc67ba0bedb49e0a54", "is_disabled": 0, "rental_uris": {"android": "https://dc.lft.to/lastmile_qr_scan", "ios": "https://dc.lft.to/lastmile_qr_scan"}, "type": "electric_scooter", "lat": 38.85811016666667, "is_reserved": 0, "fusion_lat": 0.0}, {"bike_id": "64be33f26525e5ea9df44151ccb09f22", "fusion_lon": 0.0, "lon": -77.05233183333333, "name": "64be33f26525e5ea9df44151ccb09f22", "is_disabled": 0, "rental_uris": {"android": "https://dc.lft.to/lastmile_qr_scan", "ios": "https://dc.lft.to/lastmile_qr_scan"}, "type": "electric_scooter", "lat": 38.926952666666665, "is_reserved": 0, "fusion_lat": 0.0}, {"bike_id": "c91080bdda6de4b239387dbff7fad090", "fusion_lon": 0.0, "lon": -77.0403825, "name": "c91080bdda6de4b239387dbff7fad090", "is_disabled": 0, "rental_uris": {"android": "https://dc.lft.to/lastmile_qr_scan", "ios": "https://dc.lft.to/lastmile_qr_scan"}, "type": "electric_scooter", "lat": 38.899019333333335, "is_reserved": 0, "fusion_lat": 0.0}, {"bike_id": "e1a235498251cf81a7724ec7ea2b88f0", "fusion_lon": 0.0, "lon": -77.01989533333334, "name": "e1a235498251cf81a7724ec7ea2b88f0", "is_disabled": 0, "rental_uris": {"android": "https://dc.lft.to/lastmile_qr_scan", "ios": "https://dc.lft.to/lastmile_qr_scan"}, "type": "electric_bike", "lat": 38.9228065, "is_reserved": 0, "fusion_lat": 0.0}, {"bike_id": "68230815f31feafc812ccb392f5113e1", "fusion_lon": 0.0, "lon": -77.0033435, "name": "68230815f31feafc812ccb392f5113e1", "is_disabled": 0, "rental_uris": {"android": "https://dc.lft.to/lastmile_qr_scan", "ios": "https://dc.lft.to/lastmile_qr_scan"}, "type": "electric_scooter", "lat": 38.90719033333333, "is_reserved": 0, "fusion_lat": 0.0}, {"bike_id": "15185ddaa12f020ced01d94e47434114", "fusion_lon": 0.0, "lon": -77.02814466666666, "name": "15185ddaa12f020ced01d94e47434114", "is_disabled": 0, "rental_uris": {"android": "https://dc.lft.to/lastmile_qr_scan", "ios": "https://dc.lft.to/lastmile_qr_scan"}, "type": "electric_scooter", "lat": 38.914276666666666, "is_reserved": 0, "fusion_lat": 0.0}, {"bike_id": "2a7b9b5609aaa3442c6f40ef08cf8242", "fusion_lon": 0.0, "lon": -77.00239916666666, "name": "2a7b9b5609aaa3442c6f40ef08cf8242", "is_disabled": 0, "rental_uris": {"android": "https://dc.lft.to/lastmile_qr_scan", "ios": "https://dc.lft.to/lastmile_qr_scan"}, "type": "electric_scooter", "lat": 38.87482583333333, "is_reserved": 0, "fusion_lat": 0.0}, {"bike_id": "84417fc1e6316be4e3b5b25b3240dc14", "fusion_lon": 0.0, "lon": -77.03467833333333, "name": "84417fc1e6316be4e3b5b25b3240dc14", "is_disabled": 0, "rental_uris": {"android": "https://dc.lft.to/lastmile_qr_scan", "ios": "https://dc.lft.to/lastmile_qr_scan"}, "type": "electric_scooter", "lat": 38.90806233333333, "is_reserved": 0, "fusion_lat": 0.0},