{"data": {"bikes": [{"is_disabled": 0, "is_reserved": 0, "type": "electric_scooter", "lon": -77.0216925, "fusion_lon": 0.0, "lat": 38.94293916666667, "rental_uris": {"android": "https://dc.lft.to/lastmile_qr_scan", "ios": "https://dc.lft.to/lastmile_qr_scan"}, "fusion_lat": 0.0, "name": "cc4f63e7c05375fecc7759daaf38ce5e", "bike_id": "cc4f63e7c05375fecc7759daaf38ce5e"}, {"is_disabled": 0, "is_reserved": 0, "type": "electric_scooter", "lon": -76.99087033333333, "fusion_lon": 0.0, "lat": 38.904165166666665, "rental_uris": {"android": "https://dc.lft.to/lastmile_qr_scan", "ios": "https://dc.lft.to/lastmile_qr_scan"}, "fusion_lat": 0.0, "name": "8dd8e521d011f46d38da99e584993119", "bike_id": "8dd8e521d011f46d38da99e584993119"}, {"is_disabled": 0, "is_reserved": 0, "type": "electric_bike", "lon": -77.02502933333334, "fusion_lon": 0.0, "lat": 38.97396116666667, "rental_uris": {"android": "https://dc.lft.to/lastmile_qr_scan", "ios": "https://dc.lft.to/lastmile_qr_scan"}, "fusion_lat": 0.0, "name": "07916bb32d09cff66ce30f32b89a7a1d", "bike_id": "07916bb32d09cff66ce30f32b89a7a1d"}, {"is_disabled": 0, "is_reserved": 0, "type": "electric_scooter", "lon": -77.04648216666666, "fusion_lon": 0.0, "lat": 38.904506166666664, "rental_uris": {"android": "https://dc.lft.to/lastmile_qr_scan", "ios": "https://dc.lft.to/lastmile_qr_scan"}, "fusion_lat": 0.0, "name": "b957f35fb70992d699e899e83a888c48", "bike_id": "b957f35fb70992d699e899e83a888c48"}, {"is_disabled": 0, "is_reserved": 0, "type": "electric_scooter", "lon": -76.93523866666666, "fusion_lon": 0.0, "lat": 38.87896, "rental_uris": {"android": "https://dc.lft.to/lastmile_qr_scan", "ios": "https://dc.lft.to/lastmile_qr_scan"}, "fusion_lat": 0.0, "name": "14f79f00b46dcad52e232b20cbe5b500", "bike_id": "14f79f00b46dcad52e232b20cbe5b500"}, {"is_disabled": 0, "is_reserved": 0, "type": "electric_scooter", "lon": -77.0330845, "fusion_lon": 0.0, "lat": 38.95615566666667, "rental_uris": {"android": "https://dc.lft.to/lastmile_qr_scan", "ios": "https://dc.lft.to/lastmile_qr_scan"}, "fusion_lat": 0.0, "name": "fa9664ef119bba0f3cefc1b1de123912", "bike_id": "fa9664ef119bba0f3cefc1b1de123912"}, {"is_disabled": 0, "is_reserved": 0, "type": "electric_scooter", "lon": -76.93350333333333, "fusion_lon": 0.0, "lat": 38.90198216666667, "rental_uris": {"android": "https://dc.lft.to/lastmile_qr_scan", "ios": "https://dc.lft.to/lastmile_qr_scan"}, "fusion_lat": 0.0, "name": "fe60d0505e2cff20bd3dbb2f99b4f2e9", "bike_id": "fe60d0505e2cff20bd3dbb2f99b4f2e9"}, {"is_disabled": 0, "is_reserved": 0, "type": "electric_scooter", "lon": -77.03362466666667, "fusion_lon": 0.0, "lat": 38.9118755, "rental_uris": {"android": "https://dc.lft.to/lastmile_qr_scan", "ios": "https://dc.lft.to/lastmile_qr_scan"}, "fusion_lat": 0.0, "name": "721bfc8bc64d82d51e2b29855b3e08b1", "bike_id": "721bfc8bc64d82d51e2b29855b3e08b1"}, {"is_disabled": 0, "is_reserved": 0, "type": "electric_scooter", "lon": -77.0270465, "fusion_lon": 0.0, "lat": 38.8999605, "rental_uris": {"android": "https://dc.lft.to/lastmile_qr_scan", "ios": "https://dc.lft.to/lastmile_qr_scan"}, "fusion_lat": 0.0, "name": "03d4180e10f4c0fd64d54b9be7f6dbde", "bike_id": "03d4180e10f4c0fd64d54b9be7f6dbde"}, {"is_disabled": 0, "is_reserved": 0, "type": "electric_scooter", "lon": -76.9318415, "fusion_lon": 0.0, "lat": 38.89877766666667, "rental_uris": {"android": "https://dc.lft.to/lastmile_qr_scan", "ios": "https://dc.lft.to/lastmile_qr_scan"}, "fusion_lat": 0.0, "name": "110957384fe3a93dba121fc3df27e0e2", "bike_id": "110957384fe3a93dba121fc3df27e0e2"}, {"is_disabled": 0, "is_reserved": 0, "type": "electric_scooter", "lon": -77.031833, "fusion_lon": 0.0, "lat": 38.91919733333334, "rental_uris": {"android": "https://dc.lft.to/lastmile_qr_scan", "ios": "https://dc.lft.to/lastmile_qr_scan"}, "fusion_lat": 0.0, "name": "eb14ed1fa9f149e626f91e414e9f4534", "bike_id": "eb14ed1fa9f149e626f91e414e9f4534"}, {"is_disabled": 0, "is_reserved": 0, "type": "electric_scooter", "lon": -77.00747216666667, "fusion_lon": 0.0, "lat": 38.89831433333333, "rental_uris": {"android": "https://dc.lft.to/lastmile_qr_scan", "ios": "https://dc.lft.to/lastmile_qr_scan"}, "fusion_lat": 0.0, "name": "557d10d0ce25ab7e88321e0e8f32c317", "bike_id": "557d10d0ce25ab7e88321e0e8f32c317"}, {"is_disabled": 0, "is_reserved": 0, "type": "electric_bike", "lon": -77.09829933333333, "fusion_lon": 0.0, "lat": 38.857887833333336, "rental_uris": {"android": "https://dc.lft.to/lastmile_qr_scan", "ios": "https://dc.lft.to/lastmile_qr_scan"}, "fusion_lat": 0.0, "name": "50a4935db64447f0cac5e7cdba896df9", "bike_id": "50a4935db64447f0cac5e7cdba896df9"}, {"is_disabled": 0, "is_reserved": 0, "type": "electric_scooter", "lon": -77.02655033333333, "fusion_lon": 0.0, "lat": 38.932734333333336, "rental_uris": {"android": "https://dc.lft.to/lastmile_qr_scan", "ios": "https://dc.lft.to/lastmile_qr_scan"}, "fusion_lat": 0.0, "name": "d90ea1a3093d5761bfbb39c5112b92aa", "bike_id": "d90ea1a3093d5761bfbb39c5112b92aa"}, {"is_disabled": 0, "is_reserved": 0, "type": "electric_scooter", "lon": -77.040196, "fusion_lon": 0.0, "lat": 38.917992, "rental_uris": {"android": "https://dc.lft.to/lastmile_qr_scan", "ios": "https://dc.lft.to/lastmile_qr_scan"}, "fusion_lat": 0.0, "name": "158bb5487757086af817f0c6d335069b", "bike_id": "158bb5487757086af817f0c6d335069b"}, {"is_disabled": 0, "is_reserved": 0, "type": "electric_scooter", "lon": -77.03458, "fusion_lon": 0.0, "lat": 38.902555666666665, "rental_uris": {"android": "https://dc.lft.to/lastmile_qr_scan", "ios": "https://dc.lft.to/lastmile_qr_scan"}, "fusion_lat": 0.0, "name": "6480aecc89f860d108ec84a04b2355fe", "bike_id": "6480aecc89f860d108ec84a04b2355fe"}, {"is_disabled": 0, "is_reserved": 0, "type": "electric_scooter", "lon": -76.94118933333333, "fusion_lon": 0.0, "lat": 38.884503333333335, "rental_uris": {"android": "https://dc.lft.to/lastmile_qr_scan", "ios": "https://dc.lft.to/lastmile_qr_scan"}, "fusion_lat": 0.0, "name": "e29a086d273ca7e73ca02779dc7ceddc", "bike_id": "e29a086d273ca7e73ca02779dc7ceddc"}, {"is_disabled": 0, "is_reserved": 0, "type": "electric_scooter", "lon": -76.99063316666667, "fusion_lon": 0.0, "lat": 38.84410716666667, "rental_uris": {"android": "https://dc.lft.to/lastmile_qr_scan", "ios": "https://dc.lft.to/lastmile_qr_scan"}, "fusion_lat": 0.0, "name": "b86f135b7b21c714174160c731a59f5d", "bike_id": "b86f135b7b21c714174160c731a59f5d"}, {"is_disabled": 0, "is_reserved": 0, "type": "electric_scooter", "lon": -77.02386616666666, "fusion_lon": 0.0, "lat": 38.957349, "rental_uris": {"android": "https://dc.lft.to/lastmile_qr_scan", "ios": "https://dc.lft.to/lastmile_qr_scan"}, "fusion_lat": 0.0, "name": "ac2223a88ca4fb3e0d98dd68fe1b89cd", "bike_id": "ac2223a88ca4fb3e0d98dd68fe1b89cd"}, {"is_disabled": 0, "is_reserved": 0, "type": "electric_scooter", "lon": -77.02990383333334, "fusion_lon": 0.0, "lat": 38.932359, "rental_uris": {"android": "https://dc.lft.to/lastmile_qr_scan", "ios": "https://dc.lft.to/lastmile_qr_scan"}, "fusion_lat": 0.0, "name": "7babc2bec582d8fec05cd8c96e2a8302", "bike_id": "7babc2bec582d8fec05cd8c96e2a8302"}, {"is_disabled": 0, "is_reserved": 0, "type": "electric_scooter", "lon": -77.04700633333333, "fusion_lon": 0.0, "lat": 38.89745166666667, "rental_uris": {"android": "https://dc.lft.to/lastmile_qr_scan", "ios": "https://dc.lft.to/lastmile_qr_scan"}, "fusion_lat": 0.0, "name": "0cf38a8cb15954136eae21787a581910", "bike_id": "0cf38a8cb15954136eae21787a581910"}, {"is_disabled": 0, "is_reserved": 0, "type": "electric_scooter", "lon": -77.03897133333334, "fusion_lon": 0.0, "lat": 38.924968166666666, "rental_uris": {"android": "https://dc.lft.to/lastmile_qr_scan", "ios": "https://dc.lft.to/lastmile_qr_scan"}, "fusion_lat": 0.0, "name": "6cb180bd5afd94393b757ccd752d24e1", "bike_id": "6cb180bd5afd94393b757ccd752d24e1"}, {"is_disabled": 0, "is_reserved": 0, "type": "electric_scooter", "lon": -77.02392516666667, "fusion_lon": 0.0, "lat": 38.8981695, "rental_uris": {"android": "https://dc.lft.to/lastmile_qr_scan", "ios": "https://dc.lft.to/lastmile_qr_scan"}, "fusion_lat": 0.0, "name": "c8aa7b5d9753277b81b39bc06555d610", "bike_id": "c8aa7b5d9753277b81b39bc06555d610"}, {"is_disabled": 0, "is_reserved": 0, "type": "electric_scooter", "lon": -76.99027116666667, "fusion_lon": 0.0, "lat": 38.89852116666667, "rental_uris": {"android": "https://dc.lft.to/lastmile_qr_scan", "ios": "https://dc.lft.to/lastmile_qr_scan"}, "fusion_lat": 0.0, "name": "a438e5a13afd7162e3bc59935c5b62dd", "bike_id": "a438e5a13afd7162e3bc59935c5b62dd"}, {"is_disabled": 0, "is_reserved": 0, "type": "electric_bike", "lon": -76.988277, "fusion_lon": 0.0, "lat": 38.98560783333333, "rental_uris": {"android": "https://dc.lft.to/lastmile_qr_scan", "ios": "https://dc.lft.to/lastmile_qr_scan"}, "fusion_lat": 0.0, "name": "16eca7f59721c7f10e24251bc42f7fe8", "bike_id": "16eca7f59721c7f10e24251bc42f7fe8"}, {"is_disabled": 0, "is_reserved": 0, "type": "electric_scooter", "lon": -77.02628866666667, "fusion_lon": 0.0, "lat": 38.97945166666667, "rental_uris": {"android": "https://dc.lft.to/lastmile_qr_scan", "ios": "https://dc.lft.to/lastmile_qr_scan"}, "fusion_lat": 0.0, "name": "94b8edceac3943590f7b7f5b5c35947c", "bike_id": "94b8edceac3943590f7b7f5b5c35947c"}, {"is_disabled": 0, "is_reserved": 0, "type": "electric_scooter", "lon": -77.0274015, "fusion_lon": 0.0, "lat": 38.943053, "rental_uris": {"android": "https://dc.lft.to/lastmile_qr_scan", "ios": "https://dc.lft.to/lastmile_qr_scan"}, "fusion_lat": 0.0, "name": "0fc743d4727a7d40c93aaeb0afca6fc3", "bike_id": "0fc743d4727a7d40c93aaeb0afca6fc3"}, {"is_disabled": 0, "is_reserved": 0, "type": "electric_scooter", "lon": -77.04004366666666, "fusion_lon": 0.0, "lat": 38.91547466666667, "rental_uris": {"android": "https://dc.lft.to/lastmile_qr_scan", "ios": "https://dc.lft.to/lastmile_qr_scan"}, "fusion_lat": 0.0, "name": "78874c27cf13db4ffd49e79a06d7e7b0", "bike_id": "78874c27cf13db4ffd49e79a06d7e7b0"}, {"is_disabled": 0, "is_reserved": 0, "type": "electric_scooter", "lon": -77.04038116666666, "fusion_lon": 0.0, "lat": 38.9177305, "rental_uris": {"android": "https://dc.lft.to/lastmile_qr_scan", "ios": "https://dc.lft.to/lastmile_qr_scan"}, "fusion_lat": 0.0, "name": "782718adfa192cb1b301527c7529acb2", "bike_id": "782718adfa192cb1b301527c7529acb2"}, {"is_disabled": 0, "is_reserved": 0, "type": "electric_scooter", "lon": -77.04867183333333, "fusion_lon": 0.0, "lat": 38.91338283333333, "rental_uris": {"android": "https://dc.lft.to/lastmile_qr_scan", "ios": "https://dc.lft.to/lastmile_qr_scan"}, "fusion_lat": 0.0, "name": "30535a5fbe34f79466e28f58504ab100", "bike_id": "30535a5fbe34f79466e28f58504ab100"}, {"is_disabled": 0, "is_reserved": 0, "type": "electric_scooter", "lon": -76.99031383333333, "fusion_lon": 0.0, "lat": 38.8913985, "rental_uris": {"android": "https://dc.lft.to/lastmile_qr_scan", "ios": "https://dc.lft.to/lastmile_qr_scan"}, "fusion_lat": 0.0, "name": "1d35a6cb33982b5b8abe173dda638b7d", "bike_id": "1d35a6cb33982b5b8abe173dda638b7d"}, {"is_disabled": 0, "is_reserved": 0, "type": "electric_scooter", "lon": -77.08118, "fusion_lon": 0.0, "lat": 38.924640833333335, "rental_uris": {"android": "https://dc.lft.to/lastmile_qr_scan", "ios": "https://dc.lft.to/lastmile_qr_scan"}, "fusion_lat": 0.0, "name": "177eca3ba610168aac01163e7bd7a93d", "bike_id": "177eca3ba610168aac01163e7bd7a93d"}, {"is_disabled": 0, "is_reserved": 0, "type": "electric_scooter", "lon": -76.991775, "fusion_lon": 0.0, "lat": 38.8890955, "rental_uris": {"android": "https://dc.lft.to/lastmile_qr_scan", "ios": "https://dc.lft.to/lastmile_qr_scan"}, "fusion_lat": 0.0, "name": "8b208b0592e0e4a99e74d3e9927b7559", "bike_id": "8b208b0592e0e4a99e74d3e9927b7559"}, {"is_disabled": 0, "is_reserved": 0, "type": "electric_scooter", "lon": -77.0123025, "fusion_lon": 0.0, "lat": 38.896081833333334, "rental_uris": {"android": "https://dc.lft.to/lastmile_qr_scan", "ios": "https://dc.lft.to/lastmile_qr_scan"}, "fusion_lat": 0.0, "name": "c8f96760dfa050345fb06bd7928ed9d7", "bike_id": "c8f96760dfa050345fb06bd7928ed9d7"}, {"is_disabled": 0, "is_reserved": 0, "type": "electric_scooter", "lon": -77.01093716666666, "fusion_lon": 0.0, "lat": 38.905617166666666, "rental_uris": {"android": "https://dc.lft.to/lastmile_qr_scan", "ios": "https://dc.lft.to/lastmile_qr_scan"}, "fusion_lat": 0.0, "name": "5dc9d035f5af0b888d9b55a3f9526a75", "bike_id": "5dc9d035f5af0b888d9b55a3f9526a75"}, {"is_disabled": 0, "is_reserved": 0, "type": "electric_scooter", "lon": -77.04146816666666, "fusion_lon": 0.0, "lat": 38.91707516666666, "rental_uris": {"android": "https://dc.lft.to/lastmile_qr_scan", "ios": "https://dc.lft.to/lastmile_qr_scan"}, "fusion_lat": 0.0, "name": "55ec4dc11cf58a809e94c4786f7d9fb5", "bike_id": "55ec4dc11cf58a809e94c4786f7d9fb5"}, {"is_disabled": 0, "is_reserved": 0, "type": "electric_scooter", "lon": -77.04752333333333, "fusion_lon": 0.0, "lat": 38.90243666666667, "rental_uris": {"android": "https://dc.lft.to/lastmile_qr_scan", "ios": "https://dc.lft.to/lastmile_qr_scan"}, "fusion_lat": 0.0, "name": "a913ee79ac7a1bac18233142807d5dfc", "bike_id": "a913ee79ac7a1bac18233142807d5dfc"}, {"is_disabled": 0, "is_reserved": 0, "type": "electric_bike", "lon": -76.93537133333334, "fusion_lon": 0.0, "lat": 38.955641, "rental_uris": {"android": "https://dc.lft.to/lastmile_qr_scan", "ios": "https://dc.lft.to/lastmile_qr_scan"}, "fusion_lat": 0.0, "name": "700f373392d7935c399e5a931944b7ad", "bike_id": "700f373392d7935c399e5a931944b7ad"}, {"is_disabled": 0, "is_reserved": 0, "type": "electric_bike", "lon": -77.12257166666667, "fusion_lon": 0.0, "lat": 38.887670666666665, "rental_uris": {"android": "https://dc.lft.to/lastmile_qr_scan", "ios": "https://dc.lft.to/lastmile_qr_scan"}, "fusion_lat": 0.0, "name": "d5361395b5cf3ebff0a9ebc45af63a90", "bike_id": "d5361395b5cf3ebff0a9ebc45af63a90"}, {"is_disabled": 0, "is_reserved": 0, "type": "electric_bike", "lon": -77.07684216666667, "fusion_lon": 0.0, "lat": 38.831964666666664, "rental_uris": {"android": "https://dc.lft.to/lastmile_qr_scan", "ios": "https://dc.lft.to/lastmile_qr_scan"}, "fusion_lat": 0.0, "name": "7b2f80daf4ae55c9cf496b8d0381b1c7", "bike_id": "7b2f80daf4ae55c9cf496b8d0381b1c7"}, {"is_disabled": 0, "is_reserved": 0, "type": "electric_bike", "lon": -77.1122855, "fusion_lon": 0.0, "lat": 38.8287115, "rental_uris": {"android": "https://dc.lft.to/lastmile_qr_scan", "ios": "https://dc.lft.to/lastmile_qr_scan"}, "fusion_lat": 0.0, "name": "67b4293dc56315423c499025363fa616", "bike_id": "67b4293dc56315423c499025363fa616"}, {"is_disabled": 0, "is_reserved": 0, "type": "electric_scooter", "lon": -77.002196, "fusion_lon": 0.0, "lat": 38.9110365, "rental_uris": {"android": "https://dc.lft.to/lastmile_qr_scan", "ios": "https://dc.lft.to/lastmile_qr_scan"}, "fusion_lat": 0.0, "name": "0a6653f7d0c27dd76593e906735d6068", "bike_id": "0a6653f7d0c27dd76593e906735d6068"}, {"is_disabled": 0, "is_reserved": 0, "type": "electric_scooter", "lon": -77.03208433333333, "fusion_lon": 0.0, "lat": 38.9117795, "rental_uris": {"android": "https://dc.lft.to/lastmile_qr_scan", "ios": "https://dc.lft.to/lastmile_qr_scan"}, "fusion_lat": 0.0, "name": "ed9ed4b3d335d8963fa909fd259dd208", "bike_id": "ed9ed4b3d335d8963fa909fd259dd208"}, {"is_disabled": 0, "is_reserved": 0, "type": "electric_scooter", "lon": -77.02559083333334, "fusion_lon": 0.0, "lat": 38.89222733333333, "rental_uris": {"android": "https://dc.lft.to/lastmile_qr_scan", "ios": "https://dc.lft.to/lastmile_qr_scan"}, "fusion_lat": 0.0, "name": "9b0479e8ac7d9c2c38d15df10a961c00", "bike_id": "9b0479e8ac7d9c2c38d15df10a961c00"}, {"is_disabled": 0, "is_reserved": 0, "type": "electric_scooter", "lon": -77.03259, "fusion_lon": 0.0, "lat": 38.90166383333333, "rental_uris": {"android": "https://dc.lft.to/lastmile_qr_scan", "ios": "https://dc.lft.to/lastmile_qr_scan"}, "fusion_lat": 0.0, "name": "b9c0eea736abd2d492d20a40a4d66f2f", "bike_id": "b9c0eea736abd2d492d20a40a4d66f2f"}, {"is_disabled": 0, "is_reserved": 0, "type": "electric_scooter", "lon": -77.0259715, "fusion_lon": 0.0, "lat": 38.975866, "rental_uris": {"android": "https://dc.lft.to/lastmile_qr_scan", "ios": "https://dc.lft.to/lastmile_qr_scan"}, "fusion_lat": 0.0, "name": "0573716a3a8ae79057d62c5e7d1c0aea", "bike_id": "0573716a3a8ae79057d62c5e7d1c0aea"}, {"is_disabled": 0, "is_reserved": 0, "type": "electric_scooter", "lon": -77.03350816666666, "fusion_lon": 0.0, "lat": 38.924413, "rental_uris": {"android": "https://dc.lft.to/lastmile_qr_scan", "ios": "https://dc.lft.to/lastmile_qr_scan"}, "fusion_lat": 0.0, "name": "c7c8f7b1ce3b3e393033a29cb895caf7", "bike_id": "c7c8f7b1ce3b3e393033a29cb895caf7"}, {"is_disabled": 0, "is_reserved": 0, "type": "electric_scooter", "lon": -77.04368133333334, "fusion_lon": 0.0, "lat": 38.901300166666665, "rental_uris": {"android": "https://dc.lft.to/lastmile_qr_scan", "ios": "https://dc.lft.to/lastmile_qr_scan"}, "fusion_lat": 0.0, "name": "88808fe5e8d1391cee1ded8835e14380", "bike_id": "88808fe5e8d1391cee1ded8835e14380"}, {"is_disabled": 0, "is_reserved": 0, "type": "electric_scooter", "lon": -76.9338195, "fusion_lon": 0.0, "lat": 38.8990825, "rental_uris": {"android": "https://dc.lft.to/lastmile_qr_scan", "ios": "https://dc.lft.to/lastmile_qr_scan"}, "fusion_lat": 0.0, "name": "bb31164e46aeffe8dd30cb0aa269a557", "bike_id": "bb31164e46aeffe8dd30cb0aa269a557"}, {"is_disabled": 0, "is_reserved": 0, "type": "electric_scooter", "lon": -76.99873566666666, "fusion_lon": 0.0, "lat": 38.900187833333334, "rental_uris": {"android": "https://dc.lft.to/lastmile_qr_scan", "ios": "https://dc.lft.to/lastmile_qr_scan"}, "fusion_lat": 0.0, "name": "dcb2e56944c8b6f3caa60fa47dae9b67", "bike_id": "dcb2e56944c8b6f3caa60fa47dae9b67"}, {"is_disabled": 0, "is_reserved": 0, "type": "electric_bike", "lon": -76.96173783333333, "fusion_lon": 0.0, "lat": 38.918631833333336, "rental_uris": {"android": "https://dc.lft.to/lastmile_qr_scan", "ios": "https://dc.lft.to/lastmile_qr_scan"}, "fusion_lat": 0.0, "name": "220f46c3bd06904a1feb1212ef50d526", "bike_id": "220f46c3bd06904a1feb1212ef50d526"}, {"is_disabled": 0, "is_reserved": 0, "type": "electric_bike", "lon": -76.92935383333334, "fusion_lon": 0.0, "lat": 38.90291833333333, "rental_uris": {"android": "https://dc.lft.to/lastmile_qr_scan", "ios": "https://dc.lft.to/lastmile_qr_scan"}, "fusion_lat": 0.0, "name": "c3264422b318d7d238a84bfdf6c4e345", "bike_id": "c3264422b318d7d238a84bfdf6c4e345"}, {"is_disabled": 0, "is_reserved": 0, "type": "electric_scooter", "lon": -77.011862, "fusion_lon": 0.0, "lat": 38.87084616666667, "rental_uris": {"android": "https://dc.lft.to/lastmile_qr_scan", "ios": "https://dc.lft.to/lastmile_qr_scan"}, "fusion_lat": 0.0, "name": "54f6b7a3f1a634b05a11c90079a85a33", "bike_id": "54f6b7a3f1a634b05a11c90079a85a33"}, {"is_disabled": 0, "is_reserved": 0, "type": "electric_scooter", "lon": -77.07012633333333, "fusion_lon": 0.0, "lat": 38.905969999999996, "rental_uris": {"android": "https://dc.lft.to/lastmile_qr_scan", "ios": "https://dc.lft.to/lastmile_qr_scan"}, "fusion_lat": 0.0, "name": "7cd3989de96607f3e5d84d2749fcaadc", "bike_id": "7cd3989de96607f3e5d84d2749fcaadc"}, {"is_disabled": 0, "is_reserved": 0, "type": "electric_scooter", "lon": -77.03149783333333, "fusion_lon": 0.0, "lat": 38.91265416666667, "rental_uris": {"android": "https://dc.lft.to/lastmile_qr_scan", "ios": "https://dc.lft.to/lastmile_qr_scan"}, "fusion_lat": 0.0, "name": "e1dd94f5573b052567fe31a85637aea6", "bike_id": "e1dd94f5573b052567fe31a85637aea6"}, {"is_disabled": 0, "is_reserved": 0, "type": "electric_scooter", "lon": -77.02649083333333, "fusion_lon": 0.0, "lat": 38.89222, "rental_uris": {"android": "https://dc.lft.to/lastmile_qr_scan", "ios": "https://dc.lft.to/lastmile_qr_scan"}, "fusion_lat": 0.0, "name": "4d3ec70f8bf54f4a40fc1da5b2c1aa42", "bike_id": "4d3ec70f8bf54f4a40fc1da5b2c1aa42"}, {"is_disabled": 0, "is_reserved": 0, "type": "electric_bike", "lon": -77.00579633333334, "fusion_lon": 0.0, "lat": 38.83703716666667, "rental_uris": {"android": "https://dc.lft.to/lastmile_qr_scan", "ios": "https://dc.lft.to/lastmile_qr_scan"}, "fusion_lat": 0.0, "name": "abd5c689ce6e2235ef1de88d225ecd0f", "bike_id": "abd5c689ce6e2235ef1de88d225ecd0f"}, {"is_disabled": 0, "is_reserved": 0, "type": "electric_scooter", "lon": -77.04168366666667, "fusion_lon": 0.0, "lat": 38.91937566666667, "rental_uris": {"android": "https://dc.lft.to/lastmile_qr_scan", "ios": "https://dc.lft.to/lastmile_qr_scan"}, "fusion_lat": 0.0, "name": "cb7e9323ae3bdd9cbf657f7df5e47cfc", "bike_id": "cb7e9323ae3bdd9cbf657f7df5e47cfc"}, {"is_disabled": 0, "is_reserved": 0, "type": "electric_scooter", "lon": -77.0397085, "fusion_lon": 0.0, "lat": 38.907226666666666, "rental_uris": {"android": "https://dc.lft.to/lastmile_qr_scan", "ios": "https://dc.lft.to/lastmile_qr_scan"}, "fusion_lat": 0.0, "name": "9ab4bbd378c6e71e70c6bcb831de8b3c", "bike_id": "9ab4bbd378c6e71e70c6bcb831de8b3c"}, {"is_disabled": 0, "is_reserved": 0, "type": "electric_bike", "lon": -77.04942183333333, "fusion_lon": 0.0, "lat": 38.85516966666667, "rental_uris": {"android": "https://dc.lft.to/lastmile_qr_scan", "ios": "https://dc.lft.to/lastmile_qr_scan"}, "fusion_lat": 0.0, "name": "7225bad0e61f773faeb81f634985a4ef", "bike_id": "7225bad0e61f773faeb81f634985a4ef"}, {"is_disabled": 0, "is_reserved": 0, "type": "electric_scooter", "lon": -77.03896033333334, "fusion_lon": 0.0, "lat": 38.9223485, "rental_uris": {"android": "https://dc.lft.to/lastmile_qr_scan", "ios": "https://dc.lft.to/lastmile_qr_scan"}, "fusion_lat": 0.0, "name": "7f2d8ecc141065d01453466ff13b7428", "bike_id": "7f2d8ecc141065d01453466ff13b7428"}, {"is_disabled": 0, "is_reserved": 0, "type": "electric_scooter", "lon": -77.03600216666666, "fusion_lon": 0.0, "lat": 38.90728433333334, "rental_uris": {"android": "https://dc.lft.to/lastmile_qr_scan", "ios": "https://dc.lft.to/lastmile_qr_scan"}, "fusion_lat": 0.0, "name": "ed61b87c38a11e13112e6e77cdfe5638", "bike_id": "ed61b87c38a11e13112e6e77cdfe5638"}, {"is_disabled": 0, "is_reserved": 0, "type": "electric_scooter", "lon": -77.02494366666667, "fusion_lon": 0.0, "lat": 38.90272133333333, "rental_uris": {"android": "https://dc.lft.to/lastmile_qr_scan", "ios": "https://dc.lft.to/lastmile_qr_scan"}, "fusion_lat": 0.0, "name": "34a0efec3aac0e04efef8bb461219ab8", "bike_id": "34a0efec3aac0e04efef8bb461219ab8"}, {"is_disabled": 0, "is_reserved": 0, "type": "electric_scooter", "lon": -77.00436516666667, "fusion_lon": 0.0, "lat": 38.877169, "rental_uris": {"android": "https://dc.lft.to/lastmile_qr_scan", "ios": "https://dc.lft.to/lastmile_qr_scan"}, "fusion_lat": 0.0, "name": "e810f0968610f8d18fbcc25f8c33cf71", "bike_id": "e810f0968610f8d18fbcc25f8c33cf71"}, {"is_disabled": 0, "is_reserved": 0, "type": "electric_scooter", "lon": -76.93186, "fusion_lon": 0.0, "lat": 38.8987775, "rental_uris": {"android": "https://dc.lft.to/lastmile_qr_scan", "ios": "https://dc.lft.to/lastmile_qr_scan"}, "fusion_lat": 0.0, "name": "788bc1e1e273129d5d48c6a378e622e1", "bike_id": "788bc1e1e273129d5d48c6a378e622e1"}, {"is_disabled": 0, "is_reserved": 0, "type": "electric_scooter", "lon": -76.98667366666666, "fusion_lon": 0.0, "lat": 38.90151383333333, "rental_uris": {"android": "https://dc.lft.to/lastmile_qr_scan", "ios": "https://dc.lft.to/lastmile_qr_scan"}, "fusion_lat": 0.0, "name": "e1658d58aee06ae2a304bd8a950f9a33", "bike_id": "e1658d58aee06ae2a304bd8a950f9a33"}, {"is_disabled": 0, "is_reserved": 0, "type": "electric_scooter", "lon": -77.01818166666666, "fusion_lon": 0.0, "lat": 38.922031833333335, "rental_uris": {"android": "https://dc.lft.to/lastmile_qr_scan", "ios": "https://dc.lft.to/lastmile_qr_scan"}, "fusion_lat": 0.0, "name": "a4262c4e6275d0243843cf81bc3562aa", "bike_id": "a4262c4e6275d0243843cf81bc3562aa"}, {"is_disabled": 0, "is_reserved": 0, "type": "electric_scooter", "lon": -77.04481916666667, "fusion_lon": 0.0, "lat": 38.90847766666667, "rental_uris": {"android": "https://dc.lft.to/lastmile_qr_scan", "ios": "https://dc.lft.to/lastmile_qr_scan"}, "fusion_lat": 0.0, "name": "3946d57809861cbafef4340a4f5a1e90", "bike_id": "3946d57809861cbafef4340a4f5a1e90"}, {"is_disabled": 0, "is_reserved": 0, "type": "electric_scooter", "lon": -77.041956, "fusion_lon": 0.0, "lat": 38.90786833333333, "rental_uris": {"android": "https://dc.lft.to/lastmile_qr_scan", "ios": "https://dc.lft.to/lastmile_qr_scan"}, "fusion_lat": 0.0, "name": "5f8d862baeb386f8ad227b28c9ef344e", "bike_id": "5f8d862baeb386f8ad227b28c9ef344e"}, {"is_disabled": 0, "is_reserved": 0, "type": "electric_scooter", "lon": -77.0365735, "fusion_lon": 0.0, "lat": 38.912498166666666, "rental_uris": {"android": "https://dc.lft.to/lastmile_qr_scan", "ios": "https://dc.lft.to/lastmile_qr_scan"}, "fusion_lat": 0.0, "name": "8320b8bcfd744242577187f95b394a73", "bike_id": "8320b8bcfd744242577187f95b394a73"}, {"is_disabled": 0, "is_reserved": 0, "type": "electric_bike", "lon": -77.04303416666667, "fusion_lon": 0.0, "lat": 39.05446766666667, "rental_uris": {"android": "https://dc.lft.to/lastmile_qr_scan", "ios": "https://dc.lft.to/lastmile_qr_scan"}, "fusion_lat": 0.0, "name": "b1067b83b3ad33cce9711c0898874ae9", "bike_id": "b1067b83b3ad33cce9711c0898874ae9"}, {"is_disabled": 0, "is_reserved": 0, "type": "electric_scooter", "lon": -77.04109416666667, "fusion_lon": 0.0, "lat": 38.91695683333333, "rental_uris": {"android": "https://dc.lft.to/lastmile_qr_scan", "ios": "https://dc.lft.to/lastmile_qr_scan"}, "fusion_lat": 0.0, "name": "739a05971b08fc5ccb829662bfce1937", "bike_id": "739a05971b08fc5ccb829662bfce1937"}, {"is_disabled": 0, "is_reserved": 0, "type": "electric_scooter", "lon": -77.03852733333333, "fusion_lon": 0.0, "lat": 38.91620833333333, "rental_uris": {"android": "https://dc.lft.to/lastmile_qr_scan", "ios": "https://dc.lft.to/lastmile_qr_scan"}, "fusion_lat": 0.0, "name": "aea09cbe964331af8478e3c878ea3e2f", "bike_id": "aea09cbe964331af8478e3c878ea3e2f"}, {"is_disabled": 0, "is_reserved": 0, "type": "electric_scooter", "lon": -77.06014883333333, "fusion_lon": 0.0, "lat": 38.9026955, "rental_uris": {"android": "https://dc.lft.to/lastmile_qr_scan", "ios": "https://dc.lft.to/lastmile_qr_scan"}, "fusion_lat": 0.0, "name": "10dacb5638f7535ea7deaa169e78588d", "bike_id": "10dacb5638f7535ea7deaa169e78588d"}, {"is_disabled": 0, "is_reserved": 0, "type": "electric_scooter", "lon": -77.03854733333333, "fusion_lon": 0.0, "lat": 38.909763166666664, "rental_uris": {"android": "https://dc.lft.to/lastmile_qr_scan", "ios": "https://dc.lft.to/lastmile_qr_scan"}, "fusion_lat": 0.0, "name": "0b883cd6eb3cc99c664590143945563a", "bike_id": "0b883cd6eb3cc99c664590143945563a"}, {"is_disabled": 0, "is_reserved": 0, "type": "electric_scooter", "lon": -77.04251566666667, "fusion_lon": 0.0, "lat": 38.914062333333334, "rental_uris": {"android": "https://dc.lft.to/lastmile_qr_scan", "ios": "https://dc.lft.to/lastmile_qr_scan"}, "fusion_lat": 0.0, "name": "c2c66c49c72947e40ce6435b1d5975f7", "bike_id": "c2c66c49c72947e40ce6435b1d5975f7"}, {"is_disabled": 0, "is_reserved": 0, "type": "electric_bike", "lon": -77.05755366666666, "fusion_lon": 0.0, "lat": 38.92490166666666, "rental_uris": {"android": "https://dc.lft.to/lastmile_qr_scan", "ios": "https://dc.lft.to/lastmile_qr_scan"}, "fusion_lat": 0.0, "name": "b76fc6a42bcd1f7db7230042952c0d8a", "bike_id": "b76fc6a42bcd1f7db7230042952c0d8a"}, {"is_disabled": 0, "is_reserved": 0, "type": "electric_scooter", "lon": -77.01372166666667, "fusion_lon": 0.0, "lat": 38.886405333333336, "rental_uris": {"android": "https://dc.lft.to/lastmile_qr_scan", "ios": "https://dc.lft.to/lastmile_qr_scan"}, "fusion_lat": 0.0, "name": "6b3b95db95383cb7e31ed7aa8f6dddb9", "bike_id": "6b3b95db95383cb7e31ed7aa8f6dddb9"}, {"is_disabled": 0, "is_reserved": 0, "type": "electric_scooter", "lon": -77.04431483333333, "fusion_lon": 0.0, "lat": 38.91260466666667, "rental_uris": {"android": "https://dc.lft.to/lastmile_qr_scan", "ios": "https://dc.lft.to/lastmile_qr_scan"}, "fusion_lat": 0.0, "name": "8120dad020c38cf8894abd8dd1ae4a35", "bike_id": "8120dad020c38cf8894abd8dd1ae4a35"}, {"is_disabled": 0, "is_reserved": 0, "type": "electric_scooter", "lon": -77.01366883333333, "fusion_lon": 0.0, "lat": 38.928794, "rental_uris": {"android": "https://dc.lft.to/lastmile_qr_scan", "ios": "https://dc.lft.to/lastmile_qr_scan"}, "fusion_lat": 0.0, "name": "2be8e32ef783334c816b04f07574b7da", "bike_id": "2be8e32ef783334c816b04f07574b7da"}, {"is_disabled": 0, "is_reserved": 0, "type": "electric_scooter", "lon": -77.03436133333334, "fusion_lon": 0.0, "lat": 38.90972, "rental_uris": {"android": "https://dc.lft.to/lastmile_qr_scan", "ios": "https://dc.lft.to/lastmile_qr_scan"}, "fusion_lat": 0.0, "name": "22ddc49ea4b9ab837aedb32e56351b71", "bike_id": "22ddc49ea4b9ab837aedb32e56351b71"}, {"is_disabled": 0, "is_reserved": 0, "type": "electric_scooter", "lon": -77.06356316666667, "fusion_lon": 0.0, "lat": 38.944546833333334, "rental_uris": {"android": "https://dc.lft.to/lastmile_qr_scan", "ios": "https://dc.lft.to/lastmile_qr_scan"}, "fusion_lat": 0.0, "name": "4573dc8c9ae681d935a15f63c29bb0fe", "bike_id": "4573dc8c9ae681d935a15f63c29bb0fe"}, {"is_disabled": 0, "is_reserved": 0, "type": "electric_scooter", "lon": -77.03414933333333, "fusion_lon": 0.0, "lat": 38.91921416666667, "rental_uris": {"android": "https://dc.lft.to/lastmile_qr_scan", "ios": "https://dc.lft.to/lastmile_qr_scan"}, "fusion_lat": 0.0, "name": "5b8403a04c1b675a1af1ba844152126e", "bike_id": "5b8403a04c1b675a1af1ba844152126e"}, {"is_disabled": 0, "is_reserved": 0, "type": "electric_scooter", "lon": -77.06355483333333, "fusion_lon": 0.0, "lat": 38.944515833333334, "rental_uris": {"android": "https://dc.lft.to/lastmile_qr_scan", "ios": "https://dc.lft.to/lastmile_qr_scan"}, "fusion_lat": 0.0, "name": "cac44e1ba9046f6e8147ed8833c26966", "bike_id": "cac44e1ba9046f6e8147ed8833c26966"}, {"is_disabled": 0, "is_reserved": 0, "type": "electric_bike", "lon": -76.9053855, "fusion_lon": 0.0, "lat": 38.897346, "rental_uris": {"android": "https://dc.lft.to/lastmile_qr_scan", "ios": "https://dc.lft.to/lastmile_qr_scan"}, "fusion_lat": 0.0, "name": "ed1a4324e9c95183a3bad5dd8e892b9c", "bike_id": "ed1a4324e9c95183a3bad5dd8e892b9c"}, {"is_disabled": 0, "is_reserved": 0, "type": "electric_scooter", "lon": -76.9575505, "fusion_lon": 0.0, "lat": 38.8843555, "rental_uris": {"android": "https://dc.lft.to/lastmile_qr_scan", "ios": "https://dc.lft.to/lastmile_qr_scan"}, "fusion_lat": 0.0, "name": "b0351826a80b985d3145215d53b1769c", "bike_id": "b0351826a80b985d3145215d53b1769c"}, {"is_disabled": 0, "is_reserved": 0, "type": "electric_scooter", "lon": -77.0135365, "fusion_lon": 0.0, "lat": 38.90386766666666, "rental_uris": {"android": "https://dc.lft.to/lastmile_qr_scan", "ios": "https://dc.lft.to/lastmile_qr_scan"}, "fusion_lat": 0.0, "name": "9e044658fa8f0036726c60b3db0ebc71", "bike_id": "9e044658fa8f0036726c60b3db0ebc71"}, {"is_disabled": 0, "is_reserved": 0, "type": "electric_bike", "lon": -76.92161983333334, "fusion_lon": 0.0, "lat": 39.010398, "rental_uris": {"android": "https://dc.lft.to/lastmile_qr_scan", "ios": "https://dc.lft.to/lastmile_qr_scan"}, "fusion_lat": 0.0, "name": "e4d92676b1d75e72f66f2875063e9ccf", "bike_id": "e4d92676b1d75e72f66f2875063e9ccf"}, {"is_disabled": 0, "is_reserved": 0, "type": "electric_scooter", "lon": -77.039799, "fusion_lon": 0.0, "lat": 38.918086333333335, "rental_uris": {"android": "https://dc.lft.to/lastmile_qr_scan", "ios": "https://dc.lft.to/lastmile_qr_scan"}, "fusion_lat": 0.0, "name": "0a7690c3b157ba0f4d1a4afac7a403b6", "bike_id": "0a7690c3b157ba0f4d1a4afac7a403b6"}, {"is_disabled": 0, "is_reserved": 0, "type": "electric_scooter", "lon": -76.996009, "fusion_lon": 0.0, "lat": 38.88485133333333, "rental_uris": {"android": "https://dc.lft.to/lastmile_qr_scan", "ios": "https://dc.lft.to/lastmile_qr_scan"}, "fusion_lat": 0.0, "name": "46d6393cbb09b353731b65b1210c473a", "bike_id": "46d6393cbb09b353731b65b1210c473a"}, {"is_disabled": 0, "is_reserved": 0, "type": "electric_scooter", "lon": -77.0434445, "fusion_lon": 0.0, "lat": 38.913698833333335, "rental_uris": {"android": "https://dc.lft.to/lastmile_qr_scan", "ios": "https://dc.lft.to/lastmile_qr_scan"}, "fusion_lat": 0.0, "name": "f6067d1620177862ed683632f272e518", "bike_id": "f6067d1620177862ed683632f272e518"}, {"is_disabled": 0, "is_reserved": 0, "type": "electric_scooter", "lon": -77.01223933333333, "fusion_lon": 0.0, "lat": 38.8858215, "rental_uris": {"android": "https://dc.lft.to/lastmile_qr_scan", "ios": "https://dc.lft.to/lastmile_qr_scan"}, "fusion_lat": 0.0, "name": "52bf4bfc66b89ec312ffcd8684b57450", "bike_id": "52bf4bfc66b89ec312ffcd8684b57450"}, {"is_disabled": 0, "is_reserved": 0, "type": "electric_scooter", "lon": -77.02254083333334, "fusion_lon": 0.0, "lat": 38.924724, "rental_uris": {"android": "https://dc.lft.to/lastmile_qr_scan", "ios": "https://dc.lft.to/lastmile_qr_scan"}, "fusion_lat": 0.0, "name": "7844f44d6a56119c59ec1fe8d7ae286a", "bike_id": "7844f44d6a56119c59ec1fe8d7ae286a"}, {"is_disabled": 0, "is_reserved": 0, "type": "electric_scooter", "lon": -77.06042866666667, "fusion_lon": 0.0, "lat": 38.939126333333334, "rental_uris": {"android": "https://dc.lft.to/lastmile_qr_scan", "ios": "https://dc.lft.to/lastmile_qr_scan"}, "fusion_lat": 0.0, "name": "75fee48b8dd2d4febab2267546415fd5", "bike_id": "75fee48b8dd2d4febab2267546415fd5"}, {"is_disabled": 0, "is_reserved": 0, "type": "electric_scooter", "lon": -77.01990616666667, "fusion_lon": 0.0, "lat": 38.89873866666667, "rental_uris": {"android": "https://dc.lft.to/lastmile_qr_scan", "ios": "https://dc.lft.to/lastmile_qr_scan"}, "fusion_lat": 0.0, "name": "2bca27992c7d7b098a841e926df24079", "bike_id": "2bca27992c7d7b098a841e926df24079"}, {"is_disabled": 0, "is_reserved": 0, "type": "electric_scooter", "lon": -77.0165585, "fusion_lon": 0.0, "lat": 38.887389666666664, "rental_uris": {"android": "https://dc.lft.to/lastmile_qr_scan", "ios": "https://dc.lft.to/lastmile_qr_scan"}, "fusion_lat": 0.0, "name": "fa3ee7944e935abd747aa86f077f29e9", "bike_id": "fa3ee7944e935abd747aa86f077f29e9"}, {"is_disabled": 0, "is_reserved": 0, "type": "electric_scooter", "lon": -77.03461283333333, "fusion_lon": 0.0, "lat": 38.910062333333336, "rental_uris": {"android": "https://dc.lft.to/lastmile_qr_scan", "ios": "https://dc.lft.to/lastmile_qr_scan"}, "fusion_lat": 0.0, "name": "9bf86033cec2fc15049192e840af515a", "bike_id": "9bf86033cec2fc15049192e840af515a"}, {"is_disabled": 0, "is_reserved": 0, "type": "electric_scooter", "lon": -77.04003833333333, "fusion_lon": 0.0, "lat": 38.903621666666666, "rental_uris": {"android": "https://dc.lft.to/lastmile_qr_scan", "ios": "https://dc.lft.to/lastmile_qr_scan"}, "fusion_lat": 0.0, "name": "39b7d4ae2203db8de9b2edbef6c91ac7", "bike_id": "39b7d4ae2203db8de9b2edbef6c91ac7"}, {"is_disabled": 0, "is_reserved": 0, "type": "electric_bike", "lon": -77.03050266666666, "fusion_lon": 0.0, "lat": 38.994097333333336, "rental_uris": {"android": "https://dc.lft.to/lastmile_qr_scan", "ios": "https://dc.lft.to/lastmile_qr_scan"}, "fusion_lat": 0.0, "name": "7ad4bb9a3ee5c93f702c8dc3ea00a55c", "bike_id": "7ad4bb9a3ee5c93f702c8dc3ea00a55c"}, {"is_disabled": 0, "is_reserved": 0, "type": "electric_scooter", "lon": -77.01053766666666, "fusion_lon": 0.0, "lat": 38.92984116666667, "rental_uris": {"android": "https://dc.lft.to/lastmile_qr_scan", "ios": "https://dc.lft.to/lastmile_qr_scan"}, "fusion_lat": 0.0, "name": "40724d36d24a725c35363a3b7a45a8c4", "bike_id": "40724d36d24a725c35363a3b7a45a8c4"}, {"is_disabled": 0, "is_reserved": 0, "type": "electric_scooter", "lon": -76.98075666666666, "fusion_lon": 0.0, "lat": 38.93651666666667, "rental_uris": {"android": "https://dc.lft.to/lastmile_qr_scan", "ios": "https://dc.lft.to/lastmile_qr_scan"}, "fusion_lat": 0.0, "name": "8e2b5a462e0e3beb8bf128c6bdf099b5", "bike_id": "8e2b5a462e0e3beb8bf128c6bdf099b5"}, {"is_disabled": 0, "is_reserved": 0, "type": "electric_scooter", "lon": -76.99064516666667, "fusion_lon": 0.0, "lat": 38.86360083333334, "rental_uris": {"android": "https://dc.lft.to/lastmile_qr_scan", "ios": "https://dc.lft.to/lastmile_qr_scan"}, "fusion_lat": 0.0, "name": "dfb293d4f90d696ed52b7e85c9eac0e2", "bike_id": "dfb293d4f90d696ed52b7e85c9eac0e2"}, {"is_disabled": 0, "is_reserved": 0, "type": "electric_scooter", "lon": -77.043932, "fusion_lon": 0.0, "lat": 38.9013515, "rental_uris": {"android": "https://dc.lft.to/lastmile_qr_scan", "ios": "https://dc.lft.to/lastmile_qr_scan"}, "fusion_lat": 0.0, "name": "08ffec49389b9bbb057b383ae22f094e", "bike_id": "08ffec49389b9bbb057b383ae22f094e"}, {"is_disabled": 0, "is_reserved": 0, "type": "electric_scooter", "lon": -76.99610116666666, "fusion_lon": 0.0, "lat": 38.92619716666667, "rental_uris": {"android": "https://dc.lft.to/lastmile_qr_scan", "ios": "https://dc.lft.to/lastmile_qr_scan"}, "fusion_lat": 0.0, "name": "8becc1ebb089f486336caa4716cb755f", "bike_id": "8becc1ebb089f486336caa4716cb755f"}, {"is_disabled": 0, "is_reserved": 0, "type": "electric_bike", "lon": -76.94533333333334, "fusion_lon": 0.0, "lat": 38.8675725, "rental_uris": {"android": "https://dc.lft.to/lastmile_qr_scan", "ios": "https://dc.lft.to/lastmile_qr_scan"}, "fusion_lat": 0.0, "name": "30f12630c61b23b97d7e91c1cee02bd0", "bike_id": "30f12630c61b23b97d7e91c1cee02bd0"}, {"is_disabled": 0, "is_reserved": 0, "type": "electric_scooter", "lon": -76.99896516666666, "fusion_lon": 0.0, "lat": 38.956436333333336, "rental_uris": {"android": "https://dc.lft.to/lastmile_qr_scan", "ios": "https://dc.lft.to/lastmile_qr_scan"}, "fusion_lat": 0.0, "name": "06f5536c769a048965298cb99cfbe861", "bike_id": "06f5536c769a048965298cb99cfbe861"}, {"is_disabled": 0, "is_reserved": 0, "type": "electric_scooter", "lon": -77.04007616666667, "fusion_lon": 0.0, "lat": 38.910372833333334, "rental_uris": {"android": "https://dc.lft.to/lastmile_qr_scan", "ios": "https://dc.lft.to/lastmile_qr_scan"}, "fusion_lat": 0.0, "name": "5ff0007cc128b5baa9cfc91fddf8a3e9", "bike_id": "5ff0007cc128b5baa9cfc91fddf8a3e9"}, {"is_disabled": 0, "is_reserved": 0, "type": "electric_bike", "lon": -76.98028583333334, "fusion_lon": 0.0, "lat": 38.88755833333333, "rental_uris": {"android": "https://dc.lft.to/lastmile_qr_scan", "ios": "https://dc.lft.to/lastmile_qr_scan"}, "fusion_lat": 0.0, "name": "9d6d24242e1b2957a431e7bfdfd23a24", "bike_id": "9d6d24242e1b2957a431e7bfdfd23a24"}, {"is_disabled": 0, "is_reserved": 0, "type": "electric_scooter", "lon": -77.00861983333333, "fusion_lon": 0.0, "lat": 38.8765415, "rental_uris": {"android": "https://dc.lft.to/lastmile_qr_scan", "ios": "https://dc.lft.to/lastmile_qr_scan"}, "fusion_lat": 0.0, "name": "6e016e1b1c9c89a8c971915184afcb6a", "bike_id": "6e016e1b1c9c89a8c971915184afcb6a"}, {"is_disabled": 0, "is_reserved": 0, "type": "electric_scooter", "lon": -77.00738116666666, "fusion_lon": 0.0, "lat": 38.87646183333333, "rental_uris": {"android": "https://dc.lft.to/lastmile_qr_scan", "ios": "https://dc.lft.to/lastmile_qr_scan"}, "fusion_lat": 0.0, "name": "57d613635c7ee49aba9eaf09dc2ec106", "bike_id": "57d613635c7ee49aba9eaf09dc2ec106"}, {"is_disabled": 0, "is_reserved": 0, "type": "electric_scooter", "lon": -76.94891466666667, "fusion_lon": 0.0, "lat": 38.895344333333334, "rental_uris": {"android": "https://dc.lft.to/lastmile_qr_scan", "ios": "https://dc.lft.to/lastmile_qr_scan"}, "fusion_lat": 0.0, "name": "91153d53c05d3314165813e76658d808", "bike_id": "91153d53c05d3314165813e76658d808"}, {"is_disabled": 0, "is_reserved": 0, "type": "electric_scooter", "lon": -77.03864783333333, "fusion_lon": 0.0, "lat": 38.91711183333334, "rental_uris": {"android": "https://dc.lft.to/lastmile_qr_scan", "ios": "https://dc.lft.to/lastmile_qr_scan"}, "fusion_lat": 0.0, "name": "d2e31e7195487639d508d8cd926559ef", "bike_id": "d2e31e7195487639d508d8cd926559ef"}, {"is_disabled": 0, "is_reserved": 0, "type": "electric_scooter", "lon": -77.03466933333333, "fusion_lon": 0.0, "lat": 38.918100833333334, "rental_uris": {"android": "https://dc.lft.to/lastmile_qr_scan", "ios": "https://dc.lft.to/lastmile_qr_scan"}, "fusion_lat": 0.0, "name": "0ea6321f3b27b1da8ac9d6060ec7a531", "bike_id": "0ea6321f3b27b1da8ac9d6060ec7a531"}, {"is_disabled": 0, "is_reserved": 0, "type": "electric_scooter", "lon": -77.03176316666666, "fusion_lon": 0.0, "lat": 38.88340066666667, "rental_uris": {"android": "https://dc.lft.to/lastmile_qr_scan", "ios": "https://dc.lft.to/lastmile_qr_scan"}, "fusion_lat": 0.0, "name": "bcc46744138be0f2502c8bc92344ce04", "bike_id": "bcc46744138be0f2502c8bc92344ce04"}, {"is_disabled": 0, "is_reserved": 0, "type": "electric_scooter", "lon": -77.08620183333333, "fusion_lon": 0.0, "lat": 38.958701, "rental_uris": {"android": "https://dc.lft.to/lastmile_qr_scan", "ios": "https://dc.lft.to/lastmile_qr_scan"}, "fusion_lat": 0.0, "name": "90911dacc7a1670f700992dac12f378c", "bike_id": "90911dacc7a1670f700992dac12f378c"}, {"is_disabled": 0, "is_reserved": 0, "type": "electric_scooter", "lon": -77.04929416666667, "fusion_lon": 0.0, "lat": 38.89937833333333, "rental_uris": {"android": "https://dc.lft.to/lastmile_qr_scan", "ios": "https://dc.lft.to/lastmile_qr_scan"}, "fusion_lat": 0.0, "name": "ccd991d4aa2adb6472558cb971bbb2c1", "bike_id": "ccd991d4aa2adb6472558cb971bbb2c1"}, {"is_disabled": 0, "is_reserved": 0, "type": "electric_scooter", "lon": -77.02977633333333, "fusion_lon": 0.0, "lat": 38.9474175, "rental_uris": {"android": "https://dc.lft.to/lastmile_qr_scan", "ios": "https://dc.lft.to/lastmile_qr_scan"}, "fusion_lat": 0.0, "name": "c7ca8989e53128116986128c99196118", "bike_id": "c7ca8989e53128116986128c99196118"}, {"is_disabled": 0, "is_reserved": 0, "type": "electric_scooter", "lon": -77.05275633333333, "fusion_lon": 0.0, "lat": 38.91011233333333, "rental_uris": {"android": "https://dc.lft.to/lastmile_qr_scan", "ios": "https://dc.lft.to/lastmile_qr_scan"}, "fusion_lat": 0.0, "name": "11ffe8976adf93113221a2d19596e5d6", "bike_id": "11ffe8976adf93113221a2d19596e5d6"}, {"is_disabled": 0, "is_reserved": 0, "type": "electric_scooter", "lon": -76.9865405, "fusion_lon": 0.0, "lat": 38.913132833333336, "rental_uris": {"android": "https://dc.lft.to/lastmile_qr_scan", "ios": "https://dc.lft.to/lastmile_qr_scan"}, "fusion_lat": 0.0, "name": "e72eb18a239c8d59403893bb9dee80da", "bike_id": "e72eb18a239c8d59403893bb9dee80da"}, {"is_disabled": 0, "is_reserved": 0, "type": "electric_scooter", "lon": -77.00914466666667, "fusion_lon": 0.0, "lat": 38.895496333333334, "rental_uris": {"android": "https://dc.lft.to/lastmile_qr_scan", "ios": "https://dc.lft.to/lastmile_qr_scan"}, "fusion_lat": 0.0, "name": "4612c27fbb039972565459e0843f66d7", "bike_id": "4612c27fbb039972565459e0843f66d7"}, {"is_disabled": 0, "is_reserved": 0, "type": "electric_scooter", "lon": -76.994909, "fusion_lon": 0.0, "lat": 38.89976333333333, "rental_uris": {"android": "https://dc.lft.to/lastmile_qr_scan", "ios": "https://dc.lft.to/lastmile_qr_scan"}, "fusion_lat": 0.0, "name": "7a301b2219c05ecf9695642d8eeb971f", "bike_id": "7a301b2219c05ecf9695642d8eeb971f"}, {"is_disabled": 0, "is_reserved": 0, "type": "electric_scooter", "lon": -77.03097066666666, "fusion_lon": 0.0, "lat": 38.928581666666666, "rental_uris": {"android": "https://dc.lft.to/lastmile_qr_scan", "ios": "https://dc.lft.to/lastmile_qr_scan"}, "fusion_lat": 0.0, "name": "78e5cf5f6c277cbc5d549371b58471fd", "bike_id": "78e5cf5f6c277cbc5d549371b58471fd"}, {"is_disabled": 0, "is_reserved": 0, "type": "electric_bike", "lon": -77.00067383333334, "fusion_lon": 0.0, "lat": 38.876140166666666, "rental_uris": {"android": "https://dc.lft.to/lastmile_qr_scan", "ios": "https://dc.lft.to/lastmile_qr_scan"}, "fusion_lat": 0.0, "name": "d2619b3a3bf2e89caecfa20a370195f8", "bike_id": "d2619b3a3bf2e89caecfa20a370195f8"}, {"is_disabled": 0, "is_reserved": 0, "type": "electric_scooter", "lon": -77.034441, "fusion_lon": 0.0, "lat": 38.90239316666667, "rental_uris": {"android": "https://dc.lft.to/lastmile_qr_scan", "ios": "https://dc.lft.to/lastmile_qr_scan"}, "fusion_lat": 0.0, "name": "81515f5b58a0350d72c4ecfeff72da6f", "bike_id": "81515f5b58a0350d72c4ecfeff72da6f"}, {"is_disabled": 0, "is_reserved": 0, "type": "electric_scooter", "lon": -77.026477, "fusion_lon": 0.0, "lat": 38.892166, "rental_uris": {"android": "https://dc.lft.to/lastmile_qr_scan", "ios": "https://dc.lft.to/lastmile_qr_scan"}, "fusion_lat": 0.0, "name": "95319929c05993714ecfeedb4790aa11", "bike_id": "95319929c05993714ecfeedb4790aa11"}, {"is_disabled": 0, "is_reserved": 0, "type": "electric_bike", "lon": -76.931992, "fusion_lon": 0.0, "lat": 38.87234683333333, "rental_uris": {"android": "https://dc.lft.to/lastmile_qr_scan", "ios": "https://dc.lft.to/lastmile_qr_scan"}, "fusion_lat": 0.0, "name": "69f4f535e3d09126057bdbbc5001175a", "bike_id": "69f4f535e3d09126057bdbbc5001175a"}, {"is_disabled": 0, "is_reserved": 0, "type": "electric_scooter", "lon": -76.94200166666667, "fusion_lon": 0.0, "lat": 38.893755, "rental_uris": {"android": "https://dc.lft.to/lastmile_qr_scan", "ios": "https://dc.lft.to/lastmile_qr_scan"}, "fusion_lat": 0.0, "name": "81c4e2338e1c707c901c78458e396011", "bike_id": "81c4e2338e1c707c901c78458e396011"}, {"is_disabled": 0, "is_reserved": 0, "type": "electric_scooter", "lon": -77.02160566666667, "fusion_lon": 0.0, "lat": 38.92614016666667, "rental_uris": {"android": "https://dc.lft.to/lastmile_qr_scan", "ios": "https://dc.lft.to/lastmile_qr_scan"}, "fusion_lat": 0.0, "name": "019d41ddb2e90402125a1423dee48e37", "bike_id": "019d41ddb2e90402125a1423dee48e37"}, {"is_disabled": 0, "is_reserved": 0, "type": "electric_scooter", "lon": -77.00591583333333, "fusion_lon": 0.0, "lat": 38.92758883333333, "rental_uris": {"android": "https://dc.lft.to/lastmile_qr_scan", "ios": "https://dc.lft.to/lastmile_qr_scan"}, "fusion_lat": 0.0, "name": "94c6baff8b69f171a4d3e40db5a32ee6", "bike_id": "94c6baff8b69f171a4d3e40db5a32ee6"}, {"is_disabled": 0, "is_reserved": 0, "type": "electric_scooter", "lon": -77.03441733333334, "fusion_lon": 0.0, "lat": 38.918087166666666, "rental_uris": {"android": "https://dc.lft.to/lastmile_qr_scan", "ios": "https://dc.lft.to/lastmile_qr_scan"}, "fusion_lat": 0.0, "name": "320b0de77414ba9bb3bc73ef62114e82", "bike_id": "320b0de77414ba9bb3bc73ef62114e82"}, {"is_disabled": 0, "is_reserved": 0, "type": "electric_scooter", "lon": -76.991203, "fusion_lon": 0.0, "lat": 38.90138483333333, "rental_uris": {"android": "https://dc.lft.to/lastmile_qr_scan", "ios": "https://dc.lft.to/lastmile_qr_scan"}, "fusion_lat": 0.0, "name": "c8cd00588307a7954c08ec033058b87d", "bike_id": "c8cd00588307a7954c08ec033058b87d"}, {"is_disabled": 0, "is_reserved": 0, "type": "electric_scooter", "lon": -77.00731333333333, "fusion_lon": 0.0, "lat": 38.8766015, "rental_uris": {"android": "https://dc.lft.to/lastmile_qr_scan", "ios": "https://dc.lft.to/lastmile_qr_scan"}, "fusion_lat": 0.0, "name": "a4683fd4ae94b9995fbef5467429f6e0", "bike_id": "a4683fd4ae94b9995fbef5467429f6e0"}, {"is_disabled": 0, "is_reserved": 0, "type": "electric_scooter", "lon": -76.98069933333333, "fusion_lon": 0.0, "lat": 38.9193795, "rental_uris": {"android": "https://dc.lft.to/lastmile_qr_scan", "ios": "https://dc.lft.to/lastmile_qr_scan"}, "fusion_lat": 0.0, "name": "a044bb3a0ac3501d516625537ba763e6", "bike_id": "a044bb3a0ac3501d516625537ba763e6"}, {"is_disabled": 0, "is_reserved": 0, "type": "electric_scooter", "lon": -77.01373966666667, "fusion_lon": 0.0, "lat": 38.870841, "rental_uris": {"android": "https://dc.lft.to/lastmile_qr_scan", "ios": "https://dc.lft.to/lastmile_qr_scan"}, "fusion_lat": 0.0, "name": "022885c3bc7a6be0f222f329a6dbbcee", "bike_id": "022885c3bc7a6be0f222f329a6dbbcee"}, {"is_disabled": 0, "is_reserved": 0, "type": "electric_scooter", "lon": -77.031293, "fusion_lon": 0.0, "lat": 38.91713583333333, "rental_uris": {"android": "https://dc.lft.to/lastmile_qr_scan", "ios": "https://dc.lft.to/lastmile_qr_scan"}, "fusion_lat": 0.0, "name": "0bd8126debc4bfa511a6633bcbc547ff", "bike_id": "0bd8126debc4bfa511a6633bcbc547ff"}, {"is_disabled": 0, "is_reserved": 0, "type": "electric_scooter", "lon": -77.02647083333333, "fusion_lon": 0.0, "lat": 38.93863316666667, "rental_uris": {"android": "https://dc.lft.to/lastmile_qr_scan", "ios": "https://dc.lft.to/lastmile_qr_scan"}, "fusion_lat": 0.0, "name": "625e7248dfd63a00f71402e277bce55c", "bike_id": "625e7248dfd63a00f71402e277bce55c"}, {"is_disabled": 0, "is_reserved": 0, "type": "electric_scooter", "lon": -77.03768066666666, "fusion_lon": 0.0, "lat": 38.916916, "rental_uris": {"android": "https://dc.lft.to/lastmile_qr_scan", "ios": "https://dc.lft.to/lastmile_qr_scan"}, "fusion_lat": 0.0, "name": "9c755d42dc1d9d54012d2c0337b4b233", "bike_id": "9c755d42dc1d9d54012d2c0337b4b233"}, {"is_disabled": 0, "is_reserved": 0, "type": "electric_scooter", "lon": -77.01512266666667, "fusion_lon": 0.0, "lat": 38.91047983333333, "rental_uris": {"android": "https://dc.lft.to/lastmile_qr_scan", "ios": "https://dc.lft.to/lastmile_qr_scan"}, "fusion_lat": 0.0, "name": "a23c0cf40d419b5f555f52d35f2fd425", "bike_id": "a23c0cf40d419b5f555f52d35f2fd425"}, {"is_disabled": 0, "is_reserved": 0, "type": "electric_scooter", "lon": -77.02332566666666, "fusion_lon": 0.0, "lat": 38.922325666666666, "rental_uris": {"android": "https://dc.lft.to/lastmile_qr_scan", "ios": "https://dc.lft.to/lastmile_qr_scan"}, "fusion_lat": 0.0, "name": "25c242097a1ff8dd685d2388a92d3449", "bike_id": "25c242097a1ff8dd685d2388a92d3449"}, {"is_disabled": 0, "is_reserved": 0, "type": "electric_scooter", "lon": -77.03858633333333, "fusion_lon": 0.0, "lat": 38.912029833333335, "rental_uris": {"android": "https://dc.lft.to/lastmile_qr_scan", "ios": "https://dc.lft.to/lastmile_qr_scan"}, "fusion_lat": 0.0, "name": "e7f38c7a162499ff028aa4da882ae234", "bike_id": "e7f38c7a162499ff028aa4da882ae234"}, {"is_disabled": 0, "is_reserved": 0, "type": "electric_scooter", "lon": -77.00214483333333, "fusion_lon": 0.0, "lat": 38.900277333333335, "rental_uris": {"android": "https://dc.lft.to/lastmile_qr_scan", "ios": "https://dc.lft.to/lastmile_qr_scan"}, "fusion_lat": 0.0, "name": "02dccff2d4a801b4ce6bd23fd716a0ae", "bike_id": "02dccff2d4a801b4ce6bd23fd716a0ae"}, {"is_disabled": 0, "is_reserved": 0, "type": "electric_scooter", "lon": -77.03153716666667, "fusion_lon": 0.0, "lat": 38.88748183333333, "rental_uris": {"android": "https://dc.lft.to/lastmile_qr_scan", "ios": "https://dc.lft.to/lastmile_qr_scan"}, "fusion_lat": 0.0, "name": "f7ca96198eb4ed0f9b9032afa90f1b70", "bike_id": "f7ca96198eb4ed0f9b9032afa90f1b70"}, {"is_disabled": 0, "is_reserved": 0, "type": "electric_bike", "lon": -77.0852725, "fusion_lon": 0.0, "lat": 38.856492333333335, "rental_uris": {"android": "https://dc.lft.to/lastmile_qr_scan", "ios": "https://dc.lft.to/lastmile_qr_scan"}, "fusion_lat": 0.0, "name": "bebc38a9c15f2a2ad6a3a2acea5085b3", "bike_id": "bebc38a9c15f2a2ad6a3a2acea5085b3"}, {"is_disabled": 0, "is_reserved": 0, "type": "electric_scooter", "lon": -77.02587533333333, "fusion_lon": 0.0, "lat": 38.900098166666666, "rental_uris": {"android": "https://dc.lft.to/lastmile_qr_scan", "ios": "https://dc.lft.to/lastmile_qr_scan"}, "fusion_lat": 0.0, "name": "7acf757fcde080555566fc8cfa3deef8", "bike_id": "7acf757fcde080555566fc8cfa3deef8"}, {"is_disabled": 0, "is_reserved": 0, "type": "electric_scooter", "lon": -76.98542266666666, "fusion_lon": 0.0, "lat": 38.87873483333333, "rental_uris": {"android": "https://dc.lft.to/lastmile_qr_scan", "ios": "https://dc.lft.to/lastmile_qr_scan"}, "fusion_lat": 0.0, "name": "5bd7803a36e58b42591d4afdafa5391b", "bike_id": "5bd7803a36e58b42591d4afdafa5391b"}, {"is_disabled": 0, "is_reserved": 0, "type": "electric_scooter", "lon": -77.0347035, "fusion_lon": 0.0, "lat": 38.902557333333334, "rental_uris": {"android": "https://dc.lft.to/lastmile_qr_scan", "ios": "https://dc.lft.to/lastmile_qr_scan"}, "fusion_lat": 0.0, "name": "041320cb1e89237a7e85777ab74b7f5b", "bike_id": "041320cb1e89237a7e85777ab74b7f5b"}, {"is_disabled": 0, "is_reserved": 0, "type": "electric_scooter", "lon": -77.04344516666667, "fusion_lon": 0.0, "lat": 38.90484933333333, "rental_uris": {"android": "https://dc.lft.to/lastmile_qr_scan", "ios": "https://dc.lft.to/lastmile_qr_scan"}, "fusion_lat": 0.0, "name": "89206a761ba0f10ef4766c60c724de1f", "bike_id": "89206a761ba0f10ef4766c60c724de1f"}, {"is_disabled": 0, "is_reserved": 0, "type": "electric_scooter", "lon": -77.03211483333334, "fusion_lon": 0.0, "lat": 38.9113555, "rental_uris": {"android": "https://dc.lft.to/lastmile_qr_scan", "ios": "https://dc.lft.to/lastmile_qr_scan"}, "fusion_lat": 0.0, "name": "8cce73169877a221c04246e32e2ebe68", "bike_id": "8cce73169877a221c04246e32e2ebe68"}, {"is_disabled": 0, "is_reserved": 0, "type": "electric_scooter", "lon": -77.041682, "fusion_lon": 0.0, "lat": 38.91947666666667, "rental_uris": {"android": "https://dc.lft.to/lastmile_qr_scan", "ios": "https://dc.lft.to/lastmile_qr_scan"}, "fusion_lat": 0.0, "name": "05e51b084c22fb8b9318965c30c57c7f", "bike_id": "05e51b084c22fb8b9318965c30c57c7f"}, {"is_disabled": 0, "is_reserved": 0, "type": "electric_scooter", "lon": -77.0111615, "fusion_lon": 0.0, "lat": 38.903560166666665, "rental_uris": {"android": "https://dc.lft.to/lastmile_qr_scan", "ios": "https://dc.lft.to/lastmile_qr_scan"}, "fusion_lat": 0.0, "name": "adf00cfa7eb88e9021f7b4155123b462", "bike_id": "adf00cfa7eb88e9021f7b4155123b462"}, {"is_disabled": 0, "is_reserved": 0, "type": "electric_bike", "lon": -77.02628316666667, "fusion_lon": 0.0, "lat": 38.9623435, "rental_uris": {"android": "https://dc.lft.to/lastmile_qr_scan", "ios": "https://dc.lft.to/lastmile_qr_scan"}, "fusion_lat": 0.0, "name": "4dc96f0e600e21f364a852c2a4aa94da", "bike_id": "4dc96f0e600e21f364a852c2a4aa94da"}, {"is_disabled": 0, "is_reserved": 0, "type": "electric_scooter", "lon": -76.93758316666667, "fusion_lon": 0.0, "lat": 38.90381433333334, "rental_uris": {"android": "https://dc.lft.to/lastmile_qr_scan", "ios": "https://dc.lft.to/lastmile_qr_scan"}, "fusion_lat": 0.0, "name": "5632741cbf07afe9287e4ff822a9beef", "bike_id": "5632741cbf07afe9287e4ff822a9beef"}, {"is_disabled": 0, "is_reserved": 0, "type": "electric_scooter", "lon": -77.0120755, "fusion_lon": 0.0, "lat": 38.9258915, "rental_uris": {"android": "https://dc.lft.to/lastmile_qr_scan", "ios": "https://dc.lft.to/lastmile_qr_scan"}, "fusion_lat": 0.0, "name": "df676a128b9c3ca75140efeb420cf0a9", "bike_id": "df676a128b9c3ca75140efeb420cf0a9"}, {"is_disabled": 0, "is_reserved": 0, "type": "electric_scooter", "lon": -76.94914066666666, "fusion_lon": 0.0, "lat": 38.89496616666667, "rental_uris": {"android": "https://dc.lft.to/lastmile_qr_scan", "ios": "https://dc.lft.to/lastmile_qr_scan"}, "fusion_lat": 0.0, "name": "6b7dd0feeb8556936b25e241110065e3", "bike_id": "6b7dd0feeb8556936b25e241110065e3"}, {"is_disabled": 0, "is_reserved": 0, "type": "electric_scooter", "lon": -76.990066, "fusion_lon": 0.0, "lat": 38.865065, "rental_uris": {"android": "https://dc.lft.to/lastmile_qr_scan", "ios": "https://dc.lft.to/lastmile_qr_scan"}, "fusion_lat": 0.0, "name": "f94d6f0a48b496a144d9d33a6709f992", "bike_id": "f94d6f0a48b496a144d9d33a6709f992"}, {"is_disabled": 0, "is_reserved": 0, "type": "electric_scooter", "lon": -77.03191433333333, "fusion_lon": 0.0, "lat": 38.933111, "rental_uris": {"android": "https://dc.lft.to/lastmile_qr_scan", "ios": "https://dc.lft.to/lastmile_qr_scan"}, "fusion_lat": 0.0, "name": "f0c1542057bf1130428ea5e44c9653aa", "bike_id": "f0c1542057bf1130428ea5e44c9653aa"}, {"is_disabled": 0, "is_reserved": 0, "type": "electric_scooter", "lon": -77.0417555, "fusion_lon": 0.0, "lat": 38.9080685, "rental_uris": {"android": "https://dc.lft.to/lastmile_qr_scan", "ios": "https://dc.lft.to/lastmile_qr_scan"}, "fusion_lat": 0.0, "name": "f33aff0d244f8475dcf14cc9c86657f7", "bike_id": "f33aff0d244f8475dcf14cc9c86657f7"}, {"is_disabled": 0, "is_reserved": 0, "type": "electric_scooter", "lon": -77.03173616666666, "fusion_lon": 0.0, "lat": 38.9196375, "rental_uris": {"android": "https://dc.lft.to/lastmile_qr_scan", "ios": "https://dc.lft.to/lastmile_qr_scan"}, "fusion_lat": 0.0, "name": "937d952297325d145d60cda491ed56c8", "bike_id": "937d952297325d145d60cda491ed56c8"}, {"is_disabled": 0, "is_reserved": 0, "type": "electric_scooter", "lon": -77.02298283333333, "fusion_lon": 0.0, "lat": 38.91716616666667, "rental_uris": {"android": "https://dc.lft.to/lastmile_qr_scan", "ios": "https://dc.lft.to/lastmile_qr_scan"}, "fusion_lat": 0.0, "name": "8986c0104d14f5becef477bee22f80e7", "bike_id": "8986c0104d14f5becef477bee22f80e7"}, {"is_disabled": 0, "is_reserved": 0, "type": "electric_scooter", "lon": -77.06251466666667, "fusion_lon": 0.0, "lat": 38.91317166666666, "rental_uris": {"android": "https://dc.lft.to/lastmile_qr_scan", "ios": "https://dc.lft.to/lastmile_qr_scan"}, "fusion_lat": 0.0, "name": "2ea1707c2c51770ffb87d8469a530ae7", "bike_id": "2ea1707c2c51770ffb87d8469a530ae7"}, {"is_disabled": 0, "is_reserved": 0, "type": "electric_scooter", "lon": -76.99076566666666, "fusion_lon": 0.0, "lat": 38.8604985, "rental_uris": {"android": "https://dc.lft.to/lastmile_qr_scan", "ios": "https://dc.lft.to/lastmile_qr_scan"}, "fusion_lat": 0.0, "name": "59bf5c412b111289929c11b999a72804", "bike_id": "59bf5c412b111289929c11b999a72804"}, {"is_disabled": 0, "is_reserved": 0, "type": "electric_scooter", "lon": -77.019951, "fusion_lon": 0.0, "lat": 38.966379333333336, "rental_uris": {"android": "https://dc.lft.to/lastmile_qr_scan", "ios": "https://dc.lft.to/lastmile_qr_scan"}, "fusion_lat": 0.0, "name": "40b2c2e9fbd1ce3e0d74047137399765", "bike_id": "40b2c2e9fbd1ce3e0d74047137399765"}, {"is_disabled": 0, "is_reserved": 0, "type": "electric_scooter", "lon": -77.0332495, "fusion_lon": 0.0, "lat": 38.915606, "rental_uris": {"android": "https://dc.lft.to/lastmile_qr_scan", "ios": "https://dc.lft.to/lastmile_qr_scan"}, "fusion_lat": 0.0, "name": "e0f7e48987ddc25f7b2a80e894a2e8d1", "bike_id": "e0f7e48987ddc25f7b2a80e894a2e8d1"}, {"is_disabled": 0, "is_reserved": 0, "type": "electric_bike", "lon": -77.0364645, "fusion_lon": 0.0, "lat": 38.90735816666667, "rental_uris": {"android": "https://dc.lft.to/lastmile_qr_scan", "ios": "https://dc.lft.to/lastmile_qr_scan"}, "fusion_lat": 0.0, "name": "ba20c08b59388e34596e40ad4d6150f2", "bike_id": "ba20c08b59388e34596e40ad4d6150f2"}, {"is_disabled": 0, "is_reserved": 0, "type": "electric_scooter", "lon": -77.0467295, "fusion_lon": 0.0, "lat": 38.892218166666666, "rental_uris": {"android": "https://dc.lft.to/lastmile_qr_scan", "ios": "https://dc.lft.to/lastmile_qr_scan"}, "fusion_lat": 0.0, "name": "a4a9071e480e0e64758988ab1057640f", "bike_id": "a4a9071e480e0e64758988ab1057640f"}, {"is_disabled": 0, "is_reserved": 0, "type": "electric_scooter", "lon": -76.98814266666666, "fusion_lon": 0.0, "lat": 38.9001405, "rental_uris": {"android": "https://dc.lft.to/lastmile_qr_scan", "ios": "https://dc.lft.to/lastmile_qr_scan"}, "fusion_lat": 0.0, "name": "f8d322dba43630524d25b85556f8881b", "bike_id": "f8d322dba43630524d25b85556f8881b"}, {"is_disabled": 0, "is_reserved": 0, "type": "electric_scooter", "lon": -77.050095, "fusion_lon": 0.0, "lat": 38.9051965, "rental_uris": {"android": "https://dc.lft.to/lastmile_qr_scan", "ios": "https://dc.lft.to/lastmile_qr_scan"}, "fusion_lat": 0.0, "name": "27c78fd87b3a4592f7d82d07c704a3b6", "bike_id": "27c78fd87b3a4592f7d82d07c704a3b6"}, {"is_disabled": 0, "is_reserved": 0, "type": "electric_scooter", "lon": -77.0219575, "fusion_lon": 0.0, "lat": 38.92231533333333, "rental_uris": {"android": "https://dc.lft.to/lastmile_qr_scan", "ios": "https://dc.lft.to/lastmile_qr_scan"}, "fusion_lat": 0.0, "name": "337bca5d676e8dfdda4ee7cfa037268b", "bike_id": "337bca5d676e8dfdda4ee7cfa037268b"}, {"is_disabled": 0, "is_reserved": 0, "type": "electric_scooter", "lon": -76.98954733333333, "fusion_lon": 0.0, "lat": 38.84403966666667, "rental_uris": {"android": "https://dc.lft.to/lastmile_qr_scan", "ios": "https://dc.lft.to/lastmile_qr_scan"}, "fusion_lat": 0.0, "name": "a9948f9d1b33338ab2d25b4879046800", "bike_id": "a9948f9d1b33338ab2d25b4879046800"}, {"is_disabled": 0, "is_reserved": 0, "type": "electric_scooter", "lon": -77.018841, "fusion_lon": 0.0, "lat": 38.94641416666666, "rental_uris": {"android": "https://dc.lft.to/lastmile_qr_scan", "ios": "https://dc.lft.to/lastmile_qr_scan"}, "fusion_lat": 0.0, "name": "fd118e7a9b8cfe4dfba53fcf2d552bf1", "bike_id": "fd118e7a9b8cfe4dfba53fcf2d552bf1"}, {"is_disabled": 0, "is_reserved": 0, "type": "electric_scooter", "lon": -77.04621683333333, "fusion_lon": 0.0, "lat": 38.90576183333334, "rental_uris": {"android": "https://dc.lft.to/lastmile_qr_scan", "ios": "https://dc.lft.to/lastmile_qr_scan"}, "fusion_lat": 0.0, "name": "4da508df01500a13a07837c021b9232b", "bike_id": "4da508df01500a13a07837c021b9232b"}, {"is_disabled": 0, "is_reserved": 0, "type": "electric_scooter", "lon": -77.009247, "fusion_lon": 0.0, "lat": 38.898437666666666, "rental_uris": {"android": "https://dc.lft.to/lastmile_qr_scan", "ios": "https://dc.lft.to/lastmile_qr_scan"}, "fusion_lat": 0.0, "name": "01c37da3893480616ca13d46afb6f801", "bike_id": "01c37da3893480616ca13d46afb6f801"}, {"is_disabled": 0, "is_reserved": 0, "type": "electric_scooter", "lon": -77.023806, "fusion_lon": 0.0, "lat": 38.920773, "rental_uris": {"android": "https://dc.lft.to/lastmile_qr_scan", "ios": "https://dc.lft.to/lastmile_qr_scan"}, "fusion_lat": 0.0, "name": "581d214abb2bc7e6973a89cf1fd5dd46", "bike_id": "581d214abb2bc7e6973a89cf1fd5dd46"}, {"is_disabled": 0, "is_reserved": 0, "type": "electric_scooter", "lon": -76.98253616666666, "fusion_lon": 0.0, "lat": 38.863548333333334, "rental_uris": {"android": "https://dc.lft.to/lastmile_qr_scan", "ios": "https://dc.lft.to/lastmile_qr_scan"}, "fusion_lat": 0.0, "name": "367df00a8023a3c3d0266f2df7159a82", "bike_id": "367df00a8023a3c3d0266f2df7159a82"}, {"is_disabled": 0, "is_reserved": 0, "type": "electric_scooter", "lon": -77.03850566666667, "fusion_lon": 0.0, "lat": 38.918356333333335, "rental_uris": {"android": "https://dc.lft.to/lastmile_qr_scan", "ios": "https://dc.lft.to/lastmile_qr_scan"}, "fusion_lat": 0.0, "name": "e8d341120d836eb10d7c60a16837f93e", "bike_id": "e8d341120d836eb10d7c60a16837f93e"}, {"is_disabled": 0, "is_reserved": 0, "type": "electric_scooter", "lon": -77.02707366666667, "fusion_lon": 0.0, "lat": 38.904758333333334, "rental_uris": {"android": "https://dc.lft.to/lastmile_qr_scan", "ios": "https://dc.lft.to/lastmile_qr_scan"}, "fusion_lat": 0.0, "name": "6e1c03dcf0fc8763b9430f22c5288638", "bike_id": "6e1c03dcf0fc8763b9430f22c5288638"}, {"is_disabled": 0, "is_reserved": 0, "type": "electric_scooter", "lon": -77.10028316666667, "fusion_lon": 0.0, "lat": 38.94920916666667, "rental_uris": {"android": "https://dc.lft.to/lastmile_qr_scan", "ios": "https://dc.lft.to/lastmile_qr_scan"}, "fusion_lat": 0.0, "name": "19e75b2d4b82c1c0f26e80e31003c225", "bike_id": "19e75b2d4b82c1c0f26e80e31003c225"}, {"is_disabled": 0, "is_reserved": 0, "type": "electric_scooter", "lon": -77.04382316666667, "fusion_lon": 0.0, "lat": 38.925693, "rental_uris": {"android": "https://dc.lft.to/lastmile_qr_scan", "ios": "https://dc.lft.to/lastmile_qr_scan"}, "fusion_lat": 0.0, "name": "23fc8030cc6074b7de00837d2f274453", "bike_id": "23fc8030cc6074b7de00837d2f274453"}, {"is_disabled": 0, "is_reserved": 0, "type": "electric_scooter", "lon": -77.03217833333333, "fusion_lon": 0.0, "lat": 38.9258355, "rental_uris": {"android": "https://dc.lft.to/lastmile_qr_scan", "ios": "https://dc.lft.to/lastmile_qr_scan"}, "fusion_lat": 0.0, "name": "bec619e67097e0103edd394e833c43d6", "bike_id": "bec619e67097e0103edd394e833c43d6"}, {"is_disabled": 0, "is_reserved": 0, "type": "electric_bike", "lon": -77.11427933333333, "fusion_lon": 0.0, "lat": 38.85245366666667, "rental_uris": {"android": "https://dc.lft.to/lastmile_qr_scan", "ios": "https://dc.lft.to/lastmile_qr_scan"}, "fusion_lat": 0.0, "name": "dfec76e83ed81bcfa182a7d7b66982c6", "bike_id": "dfec76e83ed81bcfa182a7d7b66982c6"}, {"is_disabled": 0, "is_reserved": 0, "type": "electric_scooter", "lon": -77.06347133333334, "fusion_lon": 0.0, "lat": 38.944412, "rental_uris": {"android": "https://dc.lft.to/lastmile_qr_scan", "ios": "https://dc.lft.to/lastmile_qr_scan"}, "fusion_lat": 0.0, "name": "84ab08eb2753bfe6d417c641918f3055", "bike_id": "84ab08eb2753bfe6d417c641918f3055"}, {"is_disabled": 0, "is_reserved": 0, "type": "electric_scooter", "lon": -77.01668533333333, "fusion_lon": 0.0, "lat": 38.88105633333333, "rental_uris": {"android": "https://dc.lft.to/lastmile_qr_scan", "ios": "https://dc.lft.to/lastmile_qr_scan"}, "fusion_lat": 0.0, "name": "cf3a40f3f0732dfd39ed6af0e743f5ce", "bike_id": "cf3a40f3f0732dfd39ed6af0e743f5ce"}, {"is_disabled": 0, "is_reserved": 0, "type": "electric_scooter", "lon": -77.02296, "fusion_lon": 0.0, "lat": 38.9177575, "rental_uris": {"android": "https://dc.lft.to/lastmile_qr_scan", "ios": "https://dc.lft.to/lastmile_qr_scan"}, "fusion_lat": 0.0, "name": "d2cd5e9475eee14bb42845e7558dee20", "bike_id": "d2cd5e9475eee14bb42845e7558dee20"}, {"is_disabled": 0, "is_reserved": 0, "type": "electric_scooter", "lon": -77.00330666666666, "fusion_lon": 0.0, "lat": 38.89353666666667, "rental_uris": {"android": "https://dc.lft.to/lastmile_qr_scan", "ios": "https://dc.lft.to/lastmile_qr_scan"}, "fusion_lat": 0.0, "name": "5b8e73406c2190a07a6eec10308ea9df", "bike_id": "5b8e73406c2190a07a6eec10308ea9df"}, {"is_disabled": 0, "is_reserved": 0, "type": "electric_scooter", "lon": -77.0425275, "fusion_lon": 0.0, "lat": 38.92202133333333, "rental_uris": {"android": "https://dc.lft.to/lastmile_qr_scan", "ios": "https://dc.lft.to/lastmile_qr_scan"}, "fusion_lat": 0.0, "name": "f372c449276e7598489c2ff2316bf8c3", "bike_id": "f372c449276e7598489c2ff2316bf8c3"}, {"is_disabled": 0, "is_reserved": 0, "type": "electric_scooter", "lon": -77.0033845, "fusion_lon": 0.0, "lat": 38.904569333333335, "rental_uris": {"android": "https://dc.lft.to/lastmile_qr_scan", "ios": "https://dc.lft.to/lastmile_qr_scan"}, "fusion_lat": 0.0, "name": "1f135c3af243919f07eae68c47974afb", "bike_id": "1f135c3af243919f07eae68c47974afb"}, {"is_disabled": 0, "is_reserved": 0, "type": "electric_scooter", "lon": -77.05133033333334, "fusion_lon": 0.0, "lat": 38.9060305, "rental_uris": {"android": "https://dc.lft.to/lastmile_qr_scan", "ios": "https://dc.lft.to/lastmile_qr_scan"}, "fusion_lat": 0.0, "name": "7a5c159c581bd222f44ba1e83358425d", "bike_id": "7a5c159c581bd222f44ba1e83358425d"}, {"is_disabled": 0, "is_reserved": 0, "type": "electric_scooter", "lon": -77.051106, "fusion_lon": 0.0, "lat": 38.923623666666664, "rental_uris": {"android": "https://dc.lft.to/lastmile_qr_scan", "ios": "https://dc.lft.to/lastmile_qr_scan"}, "fusion_lat": 0.0, "name": "54006be42a89b4108d4a7495bb77c4d2", "bike_id": "54006be42a89b4108d4a7495bb77c4d2"}, {"is_disabled": 0, "is_reserved": 0, "type": "electric_scooter", "lon": -76.952097, "fusion_lon": 0.0, "lat": 38.892509833333335, "rental_uris": {"android": "https://dc.lft.to/lastmile_qr_scan", "ios": "https://dc.lft.to/lastmile_qr_scan"}, "fusion_lat": 0.0, "name": "9028361e34df6a59f0c46e5d0544ecc8", "bike_id": "9028361e34df6a59f0c46e5d0544ecc8"}, {"is_disabled": 0, "is_reserved": 0, "type": "electric_scooter", "lon": -77.043382, "fusion_lon": 0.0, "lat": 38.89847433333333, "rental_uris": {"android": "https://dc.lft.to/lastmile_qr_scan", "ios": "https://dc.lft.to/lastmile_qr_scan"}, "fusion_lat": 0.0, "name": "19e5c46395b96b2936c53e18ee73e73e", "bike_id": "19e5c46395b96b2936c53e18ee73e73e"}, {"is_disabled": 0, "is_reserved": 0, "type": "electric_scooter", "lon": -77.0340815, "fusion_lon": 0.0, "lat": 38.91921333333333, "rental_uris": {"android": "https://dc.lft.to/lastmile_qr_scan", "ios": "https://dc.lft.to/lastmile_qr_scan"}, "fusion_lat": 0.0, "name": "543522d23fe6cb0b15f89affb98ee771", "bike_id": "543522d23fe6cb0b15f89affb98ee771"}, {"is_disabled": 0, "is_reserved": 0, "type": "electric_bike", "lon": -77.09576683333333, "fusion_lon": 0.0, "lat": 38.837976166666664, "rental_uris": {"android": "https://dc.lft.to/lastmile_qr_scan", "ios": "https://dc.lft.to/lastmile_qr_scan"}, "fusion_lat": 0.0, "name": "434ea9a57a9da779690b53c18de00de6", "bike_id": "434ea9a57a9da779690b53c18de00de6"}, {"is_disabled": 0, "is_reserved": 0, "type": "electric_scooter", "lon": -77.04249783333333, "fusion_lon": 0.0, "lat": 38.9178275, "rental_uris": {"android": "https://dc.lft.to/lastmile_qr_scan", "ios": "https://dc.lft.to/lastmile_qr_scan"}, "fusion_lat": 0.0, "name": "dce751ca77ff88ee37dbf2273a3ffe6e", "bike_id": "dce751ca77ff88ee37dbf2273a3ffe6e"}, {"is_disabled": 0, "is_reserved": 0, "type": "electric_scooter", "lon": -77.0511655, "fusion_lon": 0.0, "lat": 38.904878833333335, "rental_uris": {"android": "https://dc.lft.to/lastmile_qr_scan", "ios": "https://dc.lft.to/lastmile_qr_scan"}, "fusion_lat": 0.0, "name": "0368dca468271c657e7860b0071e60a8", "bike_id": "0368dca468271c657e7860b0071e60a8"}, {"is_disabled": 0, "is_reserved": 0, "type": "electric_scooter", "lon": -77.05214866666667, "fusion_lon": 0.0, "lat": 38.898164, "rental_uris": {"android": "https://dc.lft.to/lastmile_qr_scan", "ios": "https://dc.lft.to/lastmile_qr_scan"}, "fusion_lat": 0.0, "name": "0fb13558a8c13cb76cbe1c627fa94a97", "bike_id": "0fb13558a8c13cb76cbe1c627fa94a97"}, {"is_disabled": 0, "is_reserved": 0, "type": "electric_scooter", "lon": -77.01083966666667, "fusion_lon": 0.0, "lat": 38.86672683333333, "rental_uris": {"android": "https://dc.lft.to/lastmile_qr_scan", "ios": "https://dc.lft.to/lastmile_qr_scan"}, "fusion_lat": 0.0, "name": "5f020fc20e50660f929c1d2cb4aa9257", "bike_id": "5f020fc20e50660f929c1d2cb4aa9257"}, {"is_disabled": 0, "is_reserved": 0, "type": "electric_scooter", "lon": -77.00807966666666, "fusion_lon": 0.0, "lat": 38.8786215, "rental_uris": {"android": "https://dc.lft.to/lastmile_qr_scan", "ios": "https://dc.lft.to/lastmile_qr_scan"}, "fusion_lat": 0.0, "name": "66295243035fe838870271712e5909c1", "bike_id": "66295243035fe838870271712e5909c1"}, {"is_disabled": 0, "is_reserved": 0, "type": "electric_bike", "lon": -76.92760233333334, "fusion_lon": 0.0, "lat": 38.960351333333335, "rental_uris": {"android": "https://dc.lft.to/lastmile_qr_scan", "ios": "https://dc.lft.to/lastmile_qr_scan"}, "fusion_lat": 0.0, "name": "5696b9b89a4867716c885d7db72d8ba1", "bike_id": "5696b9b89a4867716c885d7db72d8ba1"}, {"is_disabled": 0, "is_reserved": 0, "type": "electric_bike", "lon": -77.00208666666667, "fusion_lon": 0.0, "lat": 38.819376166666665, "rental_uris": {"android": "https://dc.lft.to/lastmile_qr_scan", "ios": "https://dc.lft.to/lastmile_qr_scan"}, "fusion_lat": 0.0, "name": "e5028bdaa8333061f995aa0af14d97b4", "bike_id": "e5028bdaa8333061f995aa0af14d97b4"}, {"is_disabled": 0, "is_reserved": 0, "type": "electric_bike", "lon": -77.06381316666666, "fusion_lon": 0.0, "lat": 39.0173425, "rental_uris": {"android": "https://dc.lft.to/lastmile_qr_scan", "ios": "https://dc.lft.to/lastmile_qr_scan"}, "fusion_lat": 0.0, "name": "e310dbf43dac9db41b773a37ea61f56f", "bike_id": "e310dbf43dac9db41b773a37ea61f56f"}, {"is_disabled": 0, "is_reserved": 0, "type": "electric_scooter", "lon": -77.03450716666667, "fusion_lon": 0.0, "lat": 38.917229166666665, "rental_uris": {"android": "https://dc.lft.to/lastmile_qr_scan", "ios": "https://dc.lft.to/lastmile_qr_scan"}, "fusion_lat": 0.0, "name": "4600cadf187c153ade7742feae5ba734", "bike_id": "4600cadf187c153ade7742feae5ba734"}, {"is_disabled": 0, "is_reserved": 0, "type": "electric_scooter", "lon": -76.98881566666667, "fusion_lon": 0.0, "lat": 38.8667155, "rental_uris": {"android": "https://dc.lft.to/lastmile_qr_scan", "ios": "https://dc.lft.to/lastmile_qr_scan"}, "fusion_lat": 0.0, "name": "8c5e66e16fec63407b50e02173e80844", "bike_id": "8c5e66e16fec63407b50e02173e80844"}, {"is_disabled": 0, "is_reserved": 0, "type": "electric_bike", "lon": -76.96088916666666, "fusion_lon": 0.0, "lat": 38.91855783333333, "rental_uris": {"android": "https://dc.lft.to/lastmile_qr_scan", "ios": "https://dc.lft.to/lastmile_qr_scan"}, "fusion_lat": 0.0, "name": "01f3ce75f340252c3cc2d166775fe444", "bike_id": "01f3ce75f340252c3cc2d166775fe444"}, {"is_disabled": 0, "is_reserved": 0, "type": "electric_scooter", "lon": -77.027811, "fusion_lon": 0.0, "lat": 38.89216866666666, "rental_uris": {"android": "https://dc.lft.to/lastmile_qr_scan", "ios": "https://dc.lft.to/lastmile_qr_scan"}, "fusion_lat": 0.0, "name": "71e6065f75711872be52279ee01757e9", "bike_id": "71e6065f75711872be52279ee01757e9"}, {"is_disabled": 0, "is_reserved": 0, "type": "electric_scooter", "lon": -77.0239685, "fusion_lon": 0.0, "lat": 38.930963, "rental_uris": {"android": "https://dc.lft.to/lastmile_qr_scan", "ios": "https://dc.lft.to/lastmile_qr_scan"}, "fusion_lat": 0.0, "name": "c158406626d139c6bbcb4bd8a5f26733", "bike_id": "c158406626d139c6bbcb4bd8a5f26733"}, {"is_disabled": 0, "is_reserved": 0, "type": "electric_scooter", "lon": -77.036678, "fusion_lon": 0.0, "lat": 38.9056715, "rental_uris": {"android": "https://dc.lft.to/lastmile_qr_scan", "ios": "https://dc.lft.to/lastmile_qr_scan"}, "fusion_lat": 0.0, "name": "e4b1c706c3a1bcb0324e069befc25778", "bike_id": "e4b1c706c3a1bcb0324e069befc25778"}, {"is_disabled": 0, "is_reserved": 0, "type": "electric_scooter", "lon": -77.00568666666666, "fusion_lon": 0.0, "lat": 38.885060833333334, "rental_uris": {"android": "https://dc.lft.to/lastmile_qr_scan", "ios": "https://dc.lft.to/lastmile_qr_scan"}, "fusion_lat": 0.0, "name": "0c5d90513228338bd995e47f892245dd", "bike_id": "0c5d90513228338bd995e47f892245dd"}, {"is_disabled": 0, "is_reserved": 0, "type": "electric_scooter", "lon": -76.97976466666667, "fusion_lon": 0.0, "lat": 38.887687666666665, "rental_uris": {"android": "https://dc.lft.to/lastmile_qr_scan", "ios": "https://dc.lft.to/lastmile_qr_scan"}, "fusion_lat": 0.0, "name": "99b9fd652d1bd7fb41a25a7668d12984", "bike_id": "99b9fd652d1bd7fb41a25a7668d12984"}, {"is_disabled": 0, "is_reserved": 0, "type": "electric_scooter", "lon": -77.03461066666667, "fusion_lon": 0.0, "lat": 38.9215495, "rental_uris": {"android": "https://dc.lft.to/lastmile_qr_scan", "ios": "https://dc.lft.to/lastmile_qr_scan"}, "fusion_lat": 0.0, "name": "11b41d58956f604f119a2e28306542fa", "bike_id": "11b41d58956f604f119a2e28306542fa"}, {"is_disabled": 0, "is_reserved": 0, "type": "electric_scooter", "lon": -76.9471095, "fusion_lon": 0.0, "lat": 38.897110833333336, "rental_uris": {"android": "https://dc.lft.to/lastmile_qr_scan", "ios": "https://dc.lft.to/lastmile_qr_scan"}, "fusion_lat": 0.0, "name": "1df3fcc596559c6b14f57a82c1c6bcf1", "bike_id": "1df3fcc596559c6b14f57a82c1c6bcf1"}, {"is_disabled": 0, "is_reserved": 0, "type": "electric_scooter", "lon": -77.02666083333334, "fusion_lon": 0.0, "lat": 38.92476583333333, "rental_uris": {"android": "https://dc.lft.to/lastmile_qr_scan", "ios": "https://dc.lft.to/lastmile_qr_scan"}, "fusion_lat": 0.0, "name": "d195608f17b89c876817b778ca3f7241", "bike_id": "d195608f17b89c876817b778ca3f7241"}, {"is_disabled": 0, "is_reserved": 0, "type": "electric_scooter", "lon": -77.06846816666666, "fusion_lon": 0.0, "lat": 38.95212566666667, "rental_uris": {"android": "https://dc.lft.to/lastmile_qr_scan", "ios": "https://dc.lft.to/lastmile_qr_scan"}, "fusion_lat": 0.0, "name": "175411782d63c938dff44c8d2d7a7c14", "bike_id": "175411782d63c938dff44c8d2d7a7c14"}, {"is_disabled": 0, "is_reserved": 0, "type": "electric_scooter", "lon": -77.04491883333333, "fusion_lon": 0.0, "lat": 38.907802333333336, "rental_uris": {"android": "https://dc.lft.to/lastmile_qr_scan", "ios": "https://dc.lft.to/lastmile_qr_scan"}, "fusion_lat": 0.0, "name": "37cf82b74562620a44164b9b3879dd09", "bike_id": "37cf82b74562620a44164b9b3879dd09"}, {"is_disabled": 0, "is_reserved": 0, "type": "electric_scooter", "lon": -77.04392766666666, "fusion_lon": 0.0, "lat": 38.910478166666664, "rental_uris": {"android": "https://dc.lft.to/lastmile_qr_scan", "ios": "https://dc.lft.to/lastmile_qr_scan"}, "fusion_lat": 0.0, "name": "4cd03903ffb334a02462d6be8fa7bcac", "bike_id": "4cd03903ffb334a02462d6be8fa7bcac"}, {"is_disabled": 0, "is_reserved": 0, "type": "electric_scooter", "lon": -77.02994616666666, "fusion_lon": 0.0, "lat": 38.922501833333335, "rental_uris": {"android": "https://dc.lft.to/lastmile_qr_scan", "ios": "https://dc.lft.to/lastmile_qr_scan"}, "fusion_lat": 0.0, "name": "e07aa3c858ee0565a92d040667876f81", "bike_id": "e07aa3c858ee0565a92d040667876f81"}, {"is_disabled": 0, "is_reserved": 0, "type": "electric_scooter", "lon": -77.02716066666666, "fusion_lon": 0.0, "lat": 38.900709166666665, "rental_uris": {"android": "https://dc.lft.to/lastmile_qr_scan", "ios": "https://dc.lft.to/lastmile_qr_scan"}, "fusion_lat": 0.0, "name": "dad61bf2642d2aaa2eb5423f1f22075a", "bike_id": "dad61bf2642d2aaa2eb5423f1f22075a"}, {"is_disabled": 0, "is_reserved": 0, "type": "electric_scooter", "lon": -77.01478883333333, "fusion_lon": 0.0, "lat": 38.87649583333334, "rental_uris": {"android": "https://dc.lft.to/lastmile_qr_scan", "ios": "https://dc.lft.to/lastmile_qr_scan"}, "fusion_lat": 0.0, "name": "3bc67aa970ce3043ce7d48398cdd3b4d", "bike_id": "3bc67aa970ce3043ce7d48398cdd3b4d"}, {"is_disabled": 0, "is_reserved": 0, "type": "electric_scooter", "lon": -77.02116016666666, "fusion_lon": 0.0, "lat": 38.917391333333335, "rental_uris": {"android": "https://dc.lft.to/lastmile_qr_scan", "ios": "https://dc.lft.to/lastmile_qr_scan"}, "fusion_lat": 0.0, "name": "e202fb323f9cdf998cc9fabceb208dbd", "bike_id": "e202fb323f9cdf998cc9fabceb208dbd"}, {"is_disabled": 0, "is_reserved": 0, "type": "electric_scooter", "lon": -76.982582, "fusion_lon": 0.0, "lat": 38.915667666666664, "rental_uris": {"android": "https://dc.lft.to/lastmile_qr_scan", "ios": "https://dc.lft.to/lastmile_qr_scan"}, "fusion_lat": 0.0, "name": "5f812dfbb73252d84e6200d2edd02955", "bike_id": "5f812dfbb73252d84e6200d2edd02955"}, {"is_disabled": 0, "is_reserved": 0, "type": "electric_scooter", "lon": -77.05230866666666, "fusion_lon": 0.0, "lat": 38.9245825, "rental_uris": {"android": "https://dc.lft.to/lastmile_qr_scan", "ios": "https://dc.lft.to/lastmile_qr_scan"}, "fusion_lat": 0.0, "name": "ee798da7c1f6d8e959a41e88106c8a7b", "bike_id": "ee798da7c1f6d8e959a41e88106c8a7b"}, {"is_disabled": 0, "is_reserved": 0, "type": "electric_bike", "lon": -77.1121805, "fusion_lon": 0.0, "lat": 38.812141, "rental_uris": {"android": "https://dc.lft.to/lastmile_qr_scan", "ios": "https://dc.lft.to/lastmile_qr_scan"}, "fusion_lat": 0.0, "name": "6370a2590b8f611c8028135f94d0c2af", "bike_id": "6370a2590b8f611c8028135f94d0c2af"}, {"is_disabled": 0, "is_reserved": 0, "type": "electric_bike", "lon": -76.951898, "fusion_lon": 0.0, "lat": 38.906903666666665, "rental_uris": {"android": "https://dc.lft.to/lastmile_qr_scan", "ios": "https://dc.lft.to/lastmile_qr_scan"}, "fusion_lat": 0.0, "name": "df35393895796c39b85ecdd6b7d3b88c", "bike_id": "df35393895796c39b85ecdd6b7d3b88c"}, {"is_disabled": 0, "is_reserved": 0, "type": "electric_scooter", "lon": -77.021575, "fusion_lon": 0.0, "lat": 38.92604883333333, "rental_uris": {"android": "https://dc.lft.to/lastmile_qr_scan", "ios": "https://dc.lft.to/lastmile_qr_scan"}, "fusion_lat": 0.0, "name": "589df532fe0bbcc34b51ecec7ddb6ed4", "bike_id": "589df532fe0bbcc34b51ecec7ddb6ed4"}, {"is_disabled": 0, "is_reserved": 0, "type": "electric_scooter", "lon": -76.95020016666666, "fusion_lon": 0.0, "lat": 38.8839715, "rental_uris": {"android": "https://dc.lft.to/lastmile_qr_scan", "ios": "https://dc.lft.to/lastmile_qr_scan"}, "fusion_lat": 0.0, "name": "5a8d6c78beadde90f3df3d6d2823d0b9", "bike_id": "5a8d6c78beadde90f3df3d6d2823d0b9"}, {"is_disabled": 0, "is_reserved": 0, "type": "electric_scooter", "lon": -77.064085, "fusion_lon": 0.0, "lat": 38.94325516666667, "rental_uris": {"android": "https://dc.lft.to/lastmile_qr_scan", "ios": "https://dc.lft.to/lastmile_qr_scan"}, "fusion_lat": 0.0, "name": "0b645a7235c64bd970571b54939d4afd", "bike_id": "0b645a7235c64bd970571b54939d4afd"}, {"is_disabled": 0, "is_reserved": 0, "type": "electric_scooter", "lon": -77.0140645, "fusion_lon": 0.0, "lat": 38.8765815, "rental_uris": {"android": "https://dc.lft.to/lastmile_qr_scan", "ios": "https://dc.lft.to/lastmile_qr_scan"}, "fusion_lat": 0.0, "name": "483e15ffd652a72f09beb6c2d2d02ab5", "bike_id": "483e15ffd652a72f09beb6c2d2d02ab5"}, {"is_disabled": 0, "is_reserved": 0, "type": "electric_scooter", "lon": -76.9961585, "fusion_lon": 0.0, "lat": 38.8861205, "rental_uris": {"android": "https://dc.lft.to/lastmile_qr_scan", "ios": "https://dc.lft.to/lastmile_qr_scan"}, "fusion_lat": 0.0, "name": "6454e2ee04052cea62830d59c501f9b9", "bike_id": "6454e2ee04052cea62830d59c501f9b9"}, {"is_disabled": 0, "is_reserved": 0, "type": "electric_scooter", "lon": -77.02586833333334, "fusion_lon": 0.0, "lat": 38.91280883333334, "rental_uris": {"android": "https://dc.lft.to/lastmile_qr_scan", "ios": "https://dc.lft.to/lastmile_qr_scan"}, "fusion_lat": 0.0, "name": "34faa05a30c7d096c95bd3d014e55557", "bike_id": "34faa05a30c7d096c95bd3d014e55557"}, {"is_disabled": 0, "is_reserved": 0, "type": "electric_scooter", "lon": -76.99133066666667, "fusion_lon": 0.0, "lat": 38.894852666666665, "rental_uris": {"android": "https://dc.lft.to/lastmile_qr_scan", "ios": "https://dc.lft.to/lastmile_qr_scan"}, "fusion_lat": 0.0, "name": "f844a457625bb978d07453d4cf94ecee", "bike_id": "f844a457625bb978d07453d4cf94ecee"}, {"is_disabled": 0, "is_reserved": 0, "type": "electric_bike", "lon": -77.10183183333334, "fusion_lon": 0.0, "lat": 38.91812816666667, "rental_uris": {"android": "https://dc.lft.to/lastmile_qr_scan", "ios": "https://dc.lft.to/lastmile_qr_scan"}, "fusion_lat": 0.0, "name": "c1df0459818c7ee1ff9325549388377e", "bike_id": "c1df0459818c7ee1ff9325549388377e"}, {"is_disabled": 0, "is_reserved": 0, "type": "electric_scooter", "lon": -77.02860866666667, "fusion_lon": 0.0, "lat": 38.901509, "rental_uris": {"android": "https://dc.lft.to/lastmile_qr_scan", "ios": "https://dc.lft.to/lastmile_qr_scan"}, "fusion_lat": 0.0, "name": "dec153863d06c5a3de1518cbe6c7084d", "bike_id": "dec153863d06c5a3de1518cbe6c7084d"}, {"is_disabled": 0, "is_reserved": 0, "type": "electric_scooter", "lon": -77.0261955, "fusion_lon": 0.0, "lat": 38.91911266666666, "rental_uris": {"android": "https://dc.lft.to/lastmile_qr_scan", "ios": "https://dc.lft.to/lastmile_qr_scan"}, "fusion_lat": 0.0, "name": "cac7dc919df3af4b3fc15c1f735916b0", "bike_id": "cac7dc919df3af4b3fc15c1f735916b0"}, {"is_disabled": 0, "is_reserved": 0, "type": "electric_bike", "lon": -76.874962, "fusion_lon": 0.0, "lat": 38.9909165, "rental_uris": {"android": "https://dc.lft.to/lastmile_qr_scan", "ios": "https://dc.lft.to/lastmile_qr_scan"}, "fusion_lat": 0.0, "name": "d83bf27a93fc6b2248d4edfa1e5022f5", "bike_id": "d83bf27a93fc6b2248d4edfa1e5022f5"}, {"is_disabled": 0, "is_reserved": 0, "type": "electric_scooter", "lon": -77.01621, "fusion_lon": 0.0, "lat": 38.903716, "rental_uris": {"android": "https://dc.lft.to/lastmile_qr_scan", "ios": "https://dc.lft.to/lastmile_qr_scan"}, "fusion_lat": 0.0, "name": "fd1fc7715ec2e20d74ac9a16f7632dfe", "bike_id": "fd1fc7715ec2e20d74ac9a16f7632dfe"}, {"is_disabled": 0, "is_reserved": 0, "type": "electric_scooter", "lon": -77.04516183333334, "fusion_lon": 0.0, "lat": 38.896092, "rental_uris": {"android": "https://dc.lft.to/lastmile_qr_scan", "ios": "https://dc.lft.to/lastmile_qr_scan"}, "fusion_lat": 0.0, "name": "e0c5a0152813b2a5c7f1ce42d75e7420", "bike_id": "e0c5a0152813b2a5c7f1ce42d75e7420"}, {"is_disabled": 0, "is_reserved": 0, "type": "electric_bike", "lon": -77.1122685, "fusion_lon": 0.0, "lat": 38.82874366666667, "rental_uris": {"android": "https://dc.lft.to/lastmile_qr_scan", "ios": "https://dc.lft.to/lastmile_qr_scan"}, "fusion_lat": 0.0, "name": "9c6123ccb0e4ab28beab8145f49fbbd0", "bike_id": "9c6123ccb0e4ab28beab8145f49fbbd0"}, {"is_disabled": 0, "is_reserved": 0, "type": "electric_scooter", "lon": -77.03930416666667, "fusion_lon": 0.0, "lat": 38.900644, "rental_uris": {"android": "https://dc.lft.to/lastmile_qr_scan", "ios": "https://dc.lft.to/lastmile_qr_scan"}, "fusion_lat": 0.0, "name": "1e9bbb15212690a8a5454427503ef6c0", "bike_id": "1e9bbb15212690a8a5454427503ef6c0"}, {"is_disabled": 0, "is_reserved": 0, "type": "electric_scooter", "lon": -77.0434395, "fusion_lon": 0.0, "lat": 38.903417833333336, "rental_uris": {"android": "https://dc.lft.to/lastmile_qr_scan", "ios": "https://dc.lft.to/lastmile_qr_scan"}, "fusion_lat": 0.0, "name": "5d27d4d58e44bee04a1485809c6b6dd7", "bike_id": "5d27d4d58e44bee04a1485809c6b6dd7"}, {"is_disabled": 0, "is_reserved": 0, "type": "electric_scooter", "lon": -77.0318255, "fusion_lon": 0.0, "lat": 38.9076925, "rental_uris": {"android": "https://dc.lft.to/lastmile_qr_scan", "ios": "https://dc.lft.to/lastmile_qr_scan"}, "fusion_lat": 0.0, "name": "fdb05d3093000110aa8b083e64e2105e", "bike_id": "fdb05d3093000110aa8b083e64e2105e"}, {"is_disabled": 0, "is_reserved": 0, "type": "electric_scooter", "lon": -77.03199683333334, "fusion_lon": 0.0, "lat": 38.911357833333334, "rental_uris": {"android": "https://dc.lft.to/lastmile_qr_scan", "ios": "https://dc.lft.to/lastmile_qr_scan"}, "fusion_lat": 0.0, "name": "75607e06e591fb892cae26f7852ab533", "bike_id": "75607e06e591fb892cae26f7852ab533"}, {"is_disabled": 0, "is_reserved": 0, "type": "electric_scooter", "lon": -77.036488, "fusion_lon": 0.0, "lat": 38.93532616666667, "rental_uris": {"android": "https://dc.lft.to/lastmile_qr_scan", "ios": "https://dc.lft.to/lastmile_qr_scan"}, "fusion_lat": 0.0, "name": "f313cb994b807f3d80578286dd6a82d5", "bike_id": "f313cb994b807f3d80578286dd6a82d5"}, {"is_disabled": 0, "is_reserved": 0, "type": "electric_scooter", "lon": -77.0330415, "fusion_lon": 0.0, "lat": 38.90398616666667, "rental_uris": {"android": "https://dc.lft.to/lastmile_qr_scan", "ios": "https://dc.lft.to/lastmile_qr_scan"}, "fusion_lat": 0.0, "name": "29fdd1c320f8603aeb91c2cc09753470", "bike_id": "29fdd1c320f8603aeb91c2cc09753470"}, {"is_disabled": 0, "is_reserved": 0, "type": "electric_scooter", "lon": -77.019668, "fusion_lon": 0.0, "lat": 38.878485, "rental_uris": {"android": "https://dc.lft.to/lastmile_qr_scan", "ios": "https://dc.lft.to/lastmile_qr_scan"}, "fusion_lat": 0.0, "name": "93c48eb4a95efad83a6c502a6dbf1242", "bike_id": "93c48eb4a95efad83a6c502a6dbf1242"}, {"is_disabled": 0, "is_reserved": 0, "type": "electric_scooter", "lon": -77.04484966666666, "fusion_lon": 0.0, "lat": 38.908653, "rental_uris": {"android": "https://dc.lft.to/lastmile_qr_scan", "ios": "https://dc.lft.to/lastmile_qr_scan"}, "fusion_lat": 0.0, "name": "2db7b9681be3d5fc76109980930467b4", "bike_id": "2db7b9681be3d5fc76109980930467b4"}, {"is_disabled": 0, "is_reserved": 0, "type": "electric_scooter", "lon": -77.03920166666667, "fusion_lon": 0.0, "lat": 38.91187866666667, "rental_uris": {"android": "https://dc.lft.to/lastmile_qr_scan", "ios": "https://dc.lft.to/lastmile_qr_scan"}, "fusion_lat": 0.0, "name": "22a9b03be6241904ee24335314a0adaa", "bike_id": "22a9b03be6241904ee24335314a0adaa"}, {"is_disabled": 0, "is_reserved": 0, "type": "electric_bike", "lon": -77.09561216666667, "fusion_lon": 0.0, "lat": 38.91696133333333, "rental_uris": {"android": "https://dc.lft.to/lastmile_qr_scan", "ios": "https://dc.lft.to/lastmile_qr_scan"}, "fusion_lat": 0.0, "name": "5af817a036104999c9cdfee2d752e5b7", "bike_id": "5af817a036104999c9cdfee2d752e5b7"}, {"is_disabled": 0, "is_reserved": 0, "type": "electric_scooter", "lon": -77.02700066666667, "fusion_lon": 0.0, "lat": 38.949571666666664, "rental_uris": {"android": "https://dc.lft.to/lastmile_qr_scan", "ios": "https://dc.lft.to/lastmile_qr_scan"}, "fusion_lat": 0.0, "name": "86a2a4949c178a4560096a0debe24adf", "bike_id": "86a2a4949c178a4560096a0debe24adf"}, {"is_disabled": 0, "is_reserved": 0, "type": "electric_scooter", "lon": -77.01889783333333, "fusion_lon": 0.0, "lat": 38.91216083333333, "rental_uris": {"android": "https://dc.lft.to/lastmile_qr_scan", "ios": "https://dc.lft.to/lastmile_qr_scan"}, "fusion_lat": 0.0, "name": "fe0245bbbffdf5a92aee2f6c0814f2a3", "bike_id": "fe0245bbbffdf5a92aee2f6c0814f2a3"}, {"is_disabled": 0, "is_reserved": 0, "type": "electric_scooter", "lon": -77.028471, "fusion_lon": 0.0, "lat": 38.932691166666665, "rental_uris": {"android": "https://dc.lft.to/lastmile_qr_scan", "ios": "https://dc.lft.to/lastmile_qr_scan"}, "fusion_lat": 0.0, "name": "f3900fd2b3b8bb85a4b2a4bb709e02c7", "bike_id": "f3900fd2b3b8bb85a4b2a4bb709e02c7"}, {"is_disabled": 0, "is_reserved": 0, "type": "electric_scooter", "lon": -77.04249233333333, "fusion_lon": 0.0, "lat": 38.945448, "rental_uris": {"android": "https://dc.lft.to/lastmile_qr_scan", "ios": "https://dc.lft.to/lastmile_qr_scan"}, "fusion_lat": 0.0, "name": "924ce0746599aa237014fa5dfe6fa81c", "bike_id": "924ce0746599aa237014fa5dfe6fa81c"}, {"is_disabled": 0, "is_reserved": 0, "type": "electric_scooter", "lon": -77.05940716666667, "fusion_lon": 0.0, "lat": 38.936781333333336, "rental_uris": {"android": "https://dc.lft.to/lastmile_qr_scan", "ios": "https://dc.lft.to/lastmile_qr_scan"}, "fusion_lat": 0.0, "name": "9efbad5cae19442eb4d240470f75fb97", "bike_id": "9efbad5cae19442eb4d240470f75fb97"}, {"is_disabled": 0, "is_reserved": 0, "type": "electric_scooter", "lon": -76.946326, "fusion_lon": 0.0, "lat": 38.898349, "rental_uris": {"android": "https://dc.lft.to/lastmile_qr_scan", "ios": "https://dc.lft.to/lastmile_qr_scan"}, "fusion_lat": 0.0, "name": "652b6940f20cb7a5310f2dff99ffacdc", "bike_id": "652b6940f20cb7a5310f2dff99ffacdc"}, {"is_disabled": 0, "is_reserved": 0, "type": "electric_scooter", "lon": -76.99849183333333, "fusion_lon": 0.0, "lat": 38.908962833333334, "rental_uris": {"android": "https://dc.lft.to/lastmile_qr_scan", "ios": "https://dc.lft.to/lastmile_qr_scan"}, "fusion_lat": 0.0, "name": "799a703b53eed08e0e31b88835e3139c", "bike_id": "799a703b53eed08e0e31b88835e3139c"}, {"is_disabled": 0, "is_reserved": 0, "type": "electric_scooter", "lon": -77.03853683333334, "fusion_lon": 0.0, "lat": 38.918390333333335, "rental_uris": {"android": "https://dc.lft.to/lastmile_qr_scan", "ios": "https://dc.lft.to/lastmile_qr_scan"}, "fusion_lat": 0.0, "name": "b5de4cb5e3d0fe52b7e81570aa02a360", "bike_id": "b5de4cb5e3d0fe52b7e81570aa02a360"}, {"is_disabled": 0, "is_reserved": 0, "type": "electric_scooter", "lon": -77.0444125, "fusion_lon": 0.0, "lat": 38.91254683333333, "rental_uris": {"android": "https://dc.lft.to/lastmile_qr_scan", "ios": "https://dc.lft.to/lastmile_qr_scan"}, "fusion_lat": 0.0, "name": "616d5ef6319febe3c73a1f10248263fa", "bike_id": "616d5ef6319febe3c73a1f10248263fa"}, {"is_disabled": 0, "is_reserved": 0, "type": "electric_scooter", "lon": -77.02437233333333, "fusion_lon": 0.0, "lat": 38.92646833333333, "rental_uris": {"android": "https://dc.lft.to/lastmile_qr_scan", "ios": "https://dc.lft.to/lastmile_qr_scan"}, "fusion_lat": 0.0, "name": "7ae4481748391f34419eb570f38a724d", "bike_id": "7ae4481748391f34419eb570f38a724d"}, {"is_disabled": 0, "is_reserved": 0, "type": "electric_scooter", "lon": -77.02813583333334, "fusion_lon": 0.0, "lat": 38.93174283333333, "rental_uris": {"android": "https://dc.lft.to/lastmile_qr_scan", "ios": "https://dc.lft.to/lastmile_qr_scan"}, "fusion_lat": 0.0, "name": "7284a31dc1d62924c22a9bbfe4488b42", "bike_id": "7284a31dc1d62924c22a9bbfe4488b42"}, {"is_disabled": 0, "is_reserved": 0, "type": "electric_scooter", "lon": -77.01208766666667, "fusion_lon": 0.0, "lat": 38.918233666666666, "rental_uris": {"android": "https://dc.lft.to/lastmile_qr_scan", "ios": "https://dc.lft.to/lastmile_qr_scan"}, "fusion_lat": 0.0, "name": "8ef3c0250b4f9fed13ee0bebfcf069c6", "bike_id": "8ef3c0250b4f9fed13ee0bebfcf069c6"}, {"is_disabled": 0, "is_reserved": 0, "type": "electric_scooter", "lon": -77.021295, "fusion_lon": 0.0, "lat": 38.89631583333333, "rental_uris": {"android": "https://dc.lft.to/lastmile_qr_scan", "ios": "https://dc.lft.to/lastmile_qr_scan"}, "fusion_lat": 0.0, "name": "b3f93e639f9cff9f11c46fe9d5ea5813", "bike_id": "b3f93e639f9cff9f11c46fe9d5ea5813"}, {"is_disabled": 0, "is_reserved": 0, "type": "electric_scooter", "lon": -77.02713683333333, "fusion_lon": 0.0, "lat": 38.9180025, "rental_uris": {"android": "https://dc.lft.to/lastmile_qr_scan", "ios": "https://dc.lft.to/lastmile_qr_scan"}, "fusion_lat": 0.0, "name": "432427bf20c22422fcd988fed9a23614", "bike_id": "432427bf20c22422fcd988fed9a23614"}, {"is_disabled": 0, "is_reserved": 0, "type": "electric_scooter", "lon": -77.05209583333334, "fusion_lon": 0.0, "lat": 38.92480616666667, "rental_uris": {"android": "https://dc.lft.to/lastmile_qr_scan", "ios": "https://dc.lft.to/lastmile_qr_scan"}, "fusion_lat": 0.0, "name": "2283b177c1ae90b89f1dcccd994c1975", "bike_id": "2283b177c1ae90b89f1dcccd994c1975"}, {"is_disabled": 0, "is_reserved": 0, "type": "electric_scooter", "lon": -77.02471716666666, "fusion_lon": 0.0, "lat": 38.939071166666665, "rental_uris": {"android": "https://dc.lft.to/lastmile_qr_scan", "ios": "https://dc.lft.to/lastmile_qr_scan"}, "fusion_lat": 0.0, "name": "ad08ce00edb0223636293b47d6d3a876", "bike_id": "ad08ce00edb0223636293b47d6d3a876"}, {"is_disabled": 0, "is_reserved": 0, "type": "electric_scooter", "lon": -77.044947, "fusion_lon": 0.0, "lat": 38.90684616666667, "rental_uris": {"android": "https://dc.lft.to/lastmile_qr_scan", "ios": "https://dc.lft.to/lastmile_qr_scan"}, "fusion_lat": 0.0, "name": "a1b768d6f98a7789224b884f8939eef9", "bike_id": "a1b768d6f98a7789224b884f8939eef9"}, {"is_disabled": 0, "is_reserved": 0, "type": "electric_scooter", "lon": -77.02714583333334, "fusion_lon": 0.0, "lat": 38.91801483333333, "rental_uris": {"android": "https://dc.lft.to/lastmile_qr_scan", "ios": "https://dc.lft.to/lastmile_qr_scan"}, "fusion_lat": 0.0, "name": "0bf7945e5d4d5112db2e2dc6ca2b29e5", "bike_id": "0bf7945e5d4d5112db2e2dc6ca2b29e5"}, {"is_disabled": 0, "is_reserved": 0, "type": "electric_scooter", "lon": -77.02971733333334, "fusion_lon": 0.0, "lat": 38.90785483333333, "rental_uris": {"android": "https://dc.lft.to/lastmile_qr_scan", "ios": "https://dc.lft.to/lastmile_qr_scan"}, "fusion_lat": 0.0, "name": "9ef5c047b47ce524417c7e2348a1212e", "bike_id": "9ef5c047b47ce524417c7e2348a1212e"}, {"is_disabled": 0, "is_reserved": 0, "type": "electric_scooter", "lon": -77.00716883333334, "fusion_lon": 0.0, "lat": 38.8849305, "rental_uris": {"android": "https://dc.lft.to/lastmile_qr_scan", "ios": "https://dc.lft.to/lastmile_qr_scan"}, "fusion_lat": 0.0, "name": "81743d1398445b9375d375f859dc87ae", "bike_id": "81743d1398445b9375d375f859dc87ae"}, {"is_disabled": 0, "is_reserved": 0, "type": "electric_bike", "lon": -77.353076, "fusion_lon": 0.0, "lat": 38.9499705, "rental_uris": {"android": "https://dc.lft.to/lastmile_qr_scan", "ios": "https://dc.lft.to/lastmile_qr_scan"}, "fusion_lat": 0.0, "name": "12273ef66bbc613a24e77fbdc05659ef", "bike_id": "12273ef66bbc613a24e77fbdc05659ef"}, {"is_disabled": 0, "is_reserved": 0, "type": "electric_scooter", "lon": -77.0074145, "fusion_lon": 0.0, "lat": 38.903636666666664, "rental_uris": {"android": "https://dc.lft.to/lastmile_qr_scan", "ios": "https://dc.lft.to/lastmile_qr_scan"}, "fusion_lat": 0.0, "name": "65454b0f012c245225232e9bbb6ba85d", "bike_id": "65454b0f012c245225232e9bbb6ba85d"}, {"is_disabled": 0, "is_reserved": 0, "type": "electric_bike", "lon": -77.0368865, "fusion_lon": 0.0, "lat": 38.936441, "rental_uris": {"android": "https://dc.lft.to/lastmile_qr_scan", "ios": "https://dc.lft.to/lastmile_qr_scan"}, "fusion_lat": 0.0, "name": "48f9b6c61df6f89b4e56c47a7530fa35", "bike_id": "48f9b6c61df6f89b4e56c47a7530fa35"}, {"is_disabled": 0, "is_reserved": 0, "type": "electric_scooter", "lon": -76.99488283333334, "fusion_lon": 0.0, "lat": 38.86247733333333, "rental_uris": {"android": "https://dc.lft.to/lastmile_qr_scan", "ios": "https://dc.lft.to/lastmile_qr_scan"}, "fusion_lat": 0.0, "name": "71929c14302c540f570539a74035de60", "bike_id": "71929c14302c540f570539a74035de60"}, {"is_disabled": 0, "is_reserved": 0, "type": "electric_scooter", "lon": -77.002135, "fusion_lon": 0.0, "lat": 38.9003545, "rental_uris": {"android": "https://dc.lft.to/lastmile_qr_scan", "ios": "https://dc.lft.to/lastmile_qr_scan"}, "fusion_lat": 0.0, "name": "89995c330d3d689588a4745e82866f55", "bike_id": "89995c330d3d689588a4745e82866f55"}, {"is_disabled": 0, "is_reserved": 0, "type": "electric_bike", "lon": -76.9546965, "fusion_lon": 0.0, "lat": 38.9356755, "rental_uris": {"android": "https://dc.lft.to/lastmile_qr_scan", "ios": "https://dc.lft.to/lastmile_qr_scan"}, "fusion_lat": 0.0, "name": "eaac8829e7538c198ffc0d9310954835", "bike_id": "eaac8829e7538c198ffc0d9310954835"}, {"is_disabled": 0, "is_reserved": 0, "type": "electric_scooter", "lon": -77.00195283333333, "fusion_lon": 0.0, "lat": 38.9023105, "rental_uris": {"android": "https://dc.lft.to/lastmile_qr_scan", "ios": "https://dc.lft.to/lastmile_qr_scan"}, "fusion_lat": 0.0, "name": "062700c11ce424a0e03b1d0c811838b1", "bike_id": "062700c11ce424a0e03b1d0c811838b1"}, {"is_disabled": 0, "is_reserved": 0, "type": "electric_scooter", "lon": -76.9905295, "fusion_lon": 0.0, "lat": 38.859009, "rental_uris": {"android": "https://dc.lft.to/lastmile_qr_scan", "ios": "https://dc.lft.to/lastmile_qr_scan"}, "fusion_lat": 0.0, "name": "3443338e144dc89e66187a4a2d6322a7", "bike_id": "3443338e144dc89e66187a4a2d6322a7"}, {"is_disabled": 0, "is_reserved": 0, "type": "electric_scooter", "lon": -77.027163, "fusion_lon": 0.0, "lat": 38.896379333333336, "rental_uris": {"android": "https://dc.lft.to/lastmile_qr_scan", "ios": "https://dc.lft.to/lastmile_qr_scan"}, "fusion_lat": 0.0, "name": "9da19ba546a5b14067eef13164ce0088", "bike_id": "9da19ba546a5b14067eef13164ce0088"}, {"is_disabled": 0, "is_reserved": 0, "type": "electric_scooter", "lon": -77.01756016666667, "fusion_lon": 0.0, "lat": 38.87686466666667, "rental_uris": {"android": "https://dc.lft.to/lastmile_qr_scan", "ios": "https://dc.lft.to/lastmile_qr_scan"}, "fusion_lat": 0.0, "name": "0df7cfa7ad4b9278bdeff19262deec42", "bike_id": "0df7cfa7ad4b9278bdeff19262deec42"}, {"is_disabled": 0, "is_reserved": 0, "type": "electric_scooter", "lon": -77.02249283333333, "fusion_lon": 0.0, "lat": 38.9247225, "rental_uris": {"android": "https://dc.lft.to/lastmile_qr_scan", "ios": "https://dc.lft.to/lastmile_qr_scan"}, "fusion_lat": 0.0, "name": "8c5aea8be5dc06840c15646ba0459b54", "bike_id": "8c5aea8be5dc06840c15646ba0459b54"}, {"is_disabled": 0, "is_reserved": 0, "type": "electric_scooter", "lon": -77.03863833333334, "fusion_lon": 0.0, "lat": 38.908089333333336, "rental_uris": {"android": "https://dc.lft.to/lastmile_qr_scan", "ios": "https://dc.lft.to/lastmile_qr_scan"}, "fusion_lat": 0.0, "name": "95c27031739d0c5b12e9b7667caf4644", "bike_id": "95c27031739d0c5b12e9b7667caf4644"}, {"is_disabled": 0, "is_reserved": 0, "type": "electric_scooter", "lon": -77.0161875, "fusion_lon": 0.0, "lat": 38.8787355, "rental_uris": {"android": "https://dc.lft.to/lastmile_qr_scan", "ios": "https://dc.lft.to/lastmile_qr_scan"}, "fusion_lat": 0.0, "name": "6256ea0790e101fd7320c666e02cbf91", "bike_id": "6256ea0790e101fd7320c666e02cbf91"}, {"is_disabled": 0, "is_reserved": 0, "type": "electric_scooter", "lon": -77.0374465, "fusion_lon": 0.0, "lat": 38.92903533333333, "rental_uris": {"android": "https://dc.lft.to/lastmile_qr_scan", "ios": "https://dc.lft.to/lastmile_qr_scan"}, "fusion_lat": 0.0, "name": "043749a14e84e507523f475b56bc695a", "bike_id": "043749a14e84e507523f475b56bc695a"}, {"is_disabled": 0, "is_reserved": 0, "type": "electric_scooter", "lon": -77.05524816666667, "fusion_lon": 0.0, "lat": 38.930108, "rental_uris": {"android": "https://dc.lft.to/lastmile_qr_scan", "ios": "https://dc.lft.to/lastmile_qr_scan"}, "fusion_lat": 0.0, "name": "c7950808fd4b78f62c51e1a0f0297958", "bike_id": "c7950808fd4b78f62c51e1a0f0297958"}, {"is_disabled": 0, "is_reserved": 0, "type": "electric_bike", "lon": -76.97081316666667, "fusion_lon": 0.0, "lat": 38.89220916666667, "rental_uris": {"android": "https://dc.lft.to/lastmile_qr_scan", "ios": "https://dc.lft.to/lastmile_qr_scan"}, "fusion_lat": 0.0, "name": "316a5fb4331c3e6dd04b8f9f1df0dbe8", "bike_id": "316a5fb4331c3e6dd04b8f9f1df0dbe8"},