{"data": {"bikes": [{"fusion_lon": 0.0, "name": "4177a07bf452498d5686208ac0eb685c", "rental_uris": {"android": "https://dc.lft.to/lastmile_qr_scan", "ios": "https://dc.lft.to/lastmile_qr_scan"}, "lat": 38.920555666666665, "bike_id": "4177a07bf452498d5686208ac0eb685c", "is_disabled": 0, "lon": -77.03461733333333, "is_reserved": 0, "fusion_lat": 0.0, "type": "electric_scooter"}, {"fusion_lon": 0.0, "name": "8f51511f8321b1e583a2b934e651b2fe", "rental_uris": {"android": "https://dc.lft.to/lastmile_qr_scan", "ios": "https://dc.lft.to/lastmile_qr_scan"}, "lat": 38.884992, "bike_id": "8f51511f8321b1e583a2b934e651b2fe", "is_disabled": 0, "lon": -77.0217855, "is_reserved": 0, "fusion_lat": 0.0, "type": "electric_scooter"}, {"fusion_lon": 0.0, "name": "630b93081ab06931f8b83e8c533f5051", "rental_uris": {"android": "https://dc.lft.to/lastmile_qr_scan", "ios": "https://dc.lft.to/lastmile_qr_scan"}, "lat": 38.898324333333335, "bike_id": "630b93081ab06931f8b83e8c533f5051", "is_disabled": 0, "lon": -77.0304055, "is_reserved": 0, "fusion_lat": 0.0, "type": "electric_scooter"}, {"fusion_lon": 0.0, "name": "d66dedbdd6f4219717906a3d1aae66de", "rental_uris": {"android": "https://dc.lft.to/lastmile_qr_scan", "ios": "https://dc.lft.to/lastmile_qr_scan"}, "lat": 38.92486616666667, "bike_id": "d66dedbdd6f4219717906a3d1aae66de", "is_disabled": 0, "lon": -77.03148683333333, "is_reserved": 0, "fusion_lat": 0.0, "type": "electric_scooter"}, {"fusion_lon": 0.0, "name": "ad57faa0395bf2b8dc294372badaee97", "rental_uris": {"android": "https://dc.lft.to/lastmile_qr_scan", "ios": "https://dc.lft.to/lastmile_qr_scan"}, "lat": 38.96412983333333, "bike_id": "ad57faa0395bf2b8dc294372badaee97", "is_disabled": 0, "lon": -77.03286516666667, "is_reserved": 0, "fusion_lat": 0.0, "type": "electric_scooter"}, {"fusion_lon": 0.0, "name": "5e3e10f7f25007ae9ca5bda806c8b1a4", "rental_uris": {"android": "https://dc.lft.to/lastmile_qr_scan", "ios": "https://dc.lft.to/lastmile_qr_scan"}, "lat": 38.92973416666667, "bike_id": "5e3e10f7f25007ae9ca5bda806c8b1a4", "is_disabled": 0, "lon": -77.02346683333333, "is_reserved": 0, "fusion_lat": 0.0, "type": "electric_scooter"}, {"fusion_lon": 0.0, "name": "b9adb6b985014a64f527a1b18037fbfe", "rental_uris": {"android": "https://dc.lft.to/lastmile_qr_scan", "ios": "https://dc.lft.to/lastmile_qr_scan"}, "lat": 38.924465, "bike_id": "b9adb6b985014a64f527a1b18037fbfe", "is_disabled": 0, "lon": -77.0201945, "is_reserved": 0, "fusion_lat": 0.0, "type": "electric_scooter"}, {"fusion_lon": 0.0, "name": "69492b3ffb221e810711478bc249c002", "rental_uris": {"android": "https://dc.lft.to/lastmile_qr_scan", "ios": "https://dc.lft.to/lastmile_qr_scan"}, "lat": 38.904803333333334, "bike_id": "69492b3ffb221e810711478bc249c002", "is_disabled": 0, "lon": -77.04195766666666, "is_reserved": 0, "fusion_lat": 0.0, "type": "electric_scooter"}, {"fusion_lon": 0.0, "name": "6dd9cd5974297fc7a4fc2dbb3f87cd6e", "rental_uris": {"android": "https://dc.lft.to/lastmile_qr_scan", "ios": "https://dc.lft.to/lastmile_qr_scan"}, "lat": 38.8922585, "bike_id": "6dd9cd5974297fc7a4fc2dbb3f87cd6e", "is_disabled": 0, "lon": -77.04865716666667, "is_reserved": 0, "fusion_lat": 0.0, "type": "electric_scooter"}, {"fusion_lon": 0.0, "name": "d664e7f36860009a19ff14147b8ad297", "rental_uris": {"android": "https://dc.lft.to/lastmile_qr_scan", "ios": "https://dc.lft.to/lastmile_qr_scan"}, "lat": 38.902624333333335, "bike_id": "d664e7f36860009a19ff14147b8ad297", "is_disabled": 0, "lon": -77.0303285, "is_reserved": 0, "fusion_lat": 0.0, "type": "electric_scooter"}, {"fusion_lon": 0.0, "name": "2e8c3dee527f3ba59b8167a6fc26fe23", "rental_uris": {"android": "https://dc.lft.to/lastmile_qr_scan", "ios": "https://dc.lft.to/lastmile_qr_scan"}, "lat": 38.92484433333333, "bike_id": "2e8c3dee527f3ba59b8167a6fc26fe23", "is_disabled": 0, "lon": -77.05211216666666, "is_reserved": 0, "fusion_lat": 0.0, "type": "electric_scooter"}, {"fusion_lon": 0.0, "name": "5bdf80350756e3fb87ebda3292b03c3b", "rental_uris": {"android": "https://dc.lft.to/lastmile_qr_scan", "ios": "https://dc.lft.to/lastmile_qr_scan"}, "lat": 38.92688, "bike_id": "5bdf80350756e3fb87ebda3292b03c3b", "is_disabled": 0, "lon": -77.02960583333333, "is_reserved": 0, "fusion_lat": 0.0, "type": "electric_scooter"}, {"fusion_lon": 0.0, "name": "cec4b2c4605918b14433b8c0d5d9b933", "rental_uris": {"android": "https://dc.lft.to/lastmile_qr_scan", "ios": "https://dc.lft.to/lastmile_qr_scan"}, "lat": 38.900720666666665, "bike_id": "cec4b2c4605918b14433b8c0d5d9b933", "is_disabled": 0, "lon": -77.047665, "is_reserved": 0, "fusion_lat": 0.0, "type": "electric_scooter"}, {"fusion_lon": 0.0, "name": "eab75b33218e82bfd524b3de215a4238", "rental_uris": {"android": "https://dc.lft.to/lastmile_qr_scan", "ios": "https://dc.lft.to/lastmile_qr_scan"}, "lat": 38.903423833333335, "bike_id": "eab75b33218e82bfd524b3de215a4238", "is_disabled": 0, "lon": -77.02599283333333, "is_reserved": 0, "fusion_lat": 0.0, "type": "electric_scooter"}, {"fusion_lon": 0.0, "name": "4823270a49f5f7772e87f11c46541e78", "rental_uris": {"android": "https://dc.lft.to/lastmile_qr_scan", "ios": "https://dc.lft.to/lastmile_qr_scan"}, "lat": 38.874977333333334, "bike_id": "4823270a49f5f7772e87f11c46541e78", "is_disabled": 0, "lon": -76.997915, "is_reserved": 0, "fusion_lat": 0.0, "type": "electric_scooter"}, {"fusion_lon": 0.0, "name": "2e7996a5bdbca32371b0bf0b52d982de", "rental_uris": {"android": "https://dc.lft.to/lastmile_qr_scan", "ios": "https://dc.lft.to/lastmile_qr_scan"}, "lat": 38.870786333333335, "bike_id": "2e7996a5bdbca32371b0bf0b52d982de", "is_disabled": 0, "lon": -77.11046066666667, "is_reserved": 0, "fusion_lat": 0.0, "type": "electric_bike"}, {"fusion_lon": 0.0, "name": "4208a7bdcd605fa75428e8b2e8d73639", "rental_uris": {"android": "https://dc.lft.to/lastmile_qr_scan", "ios": "https://dc.lft.to/lastmile_qr_scan"}, "lat": 38.92395633333334, "bike_id": "4208a7bdcd605fa75428e8b2e8d73639", "is_disabled": 0, "lon": -77.03408466666667, "is_reserved": 0, "fusion_lat": 0.0, "type": "electric_scooter"}, {"fusion_lon": 0.0, "name": "bafd1318cd0aa76209d0a412b9229157", "rental_uris": {"android": "https://dc.lft.to/lastmile_qr_scan", "ios": "https://dc.lft.to/lastmile_qr_scan"}, "lat": 38.901275166666665, "bike_id": "bafd1318cd0aa76209d0a412b9229157", "is_disabled": 0, "lon": -77.0320595, "is_reserved": 0, "fusion_lat": 0.0, "type": "electric_scooter"}, {"fusion_lon": 0.0, "name": "95a40af6d0afa2ba8ffaa06b924b0192", "rental_uris": {"android": "https://dc.lft.to/lastmile_qr_scan", "ios": "https://dc.lft.to/lastmile_qr_scan"}, "lat": 38.913258666666664, "bike_id": "95a40af6d0afa2ba8ffaa06b924b0192", "is_disabled": 0, "lon": -77.0447995, "is_reserved": 0, "fusion_lat": 0.0, "type": "electric_scooter"}, {"fusion_lon": 0.0, "name": "ad1e1b9b762b1539288cd12150e6419c", "rental_uris": {"android": "https://dc.lft.to/lastmile_qr_scan", "ios": "https://dc.lft.to/lastmile_qr_scan"}, "lat": 38.90245483333333, "bike_id": "ad1e1b9b762b1539288cd12150e6419c", "is_disabled": 0, "lon": -77.018877, "is_reserved": 0, "fusion_lat": 0.0, "type": "electric_scooter"}, {"fusion_lon": 0.0, "name": "02a5586e0867a54910068de4e6c3d5d0", "rental_uris": {"android": "https://dc.lft.to/lastmile_qr_scan", "ios": "https://dc.lft.to/lastmile_qr_scan"}, "lat": 38.89969283333333, "bike_id": "02a5586e0867a54910068de4e6c3d5d0", "is_disabled": 0, "lon": -77.014238, "is_reserved": 0, "fusion_lat": 0.0, "type": "electric_scooter"}, {"fusion_lon": 0.0, "name": "8be7c72b5e26c04cdf9553c7841937a6", "rental_uris": {"android": "https://dc.lft.to/lastmile_qr_scan", "ios": "https://dc.lft.to/lastmile_qr_scan"}, "lat": 38.88737116666667, "bike_id": "8be7c72b5e26c04cdf9553c7841937a6", "is_disabled": 0, "lon": -77.0153105, "is_reserved": 0, "fusion_lat": 0.0, "type": "electric_scooter"}, {"fusion_lon": 0.0, "name": "5e6226a0fe901783fdbe3c92349475ed", "rental_uris": {"android": "https://dc.lft.to/lastmile_qr_scan", "ios": "https://dc.lft.to/lastmile_qr_scan"}, "lat": 38.896079, "bike_id": "5e6226a0fe901783fdbe3c92349475ed", "is_disabled": 0, "lon": -77.009324, "is_reserved": 0, "fusion_lat": 0.0, "type": "electric_scooter"}, {"fusion_lon": 0.0, "name": "99dc7160565e0707ddd08cfc147a0fcc", "rental_uris": {"android": "https://dc.lft.to/lastmile_qr_scan", "ios": "https://dc.lft.to/lastmile_qr_scan"}, "lat": 38.9018665, "bike_id": "99dc7160565e0707ddd08cfc147a0fcc", "is_disabled": 0, "lon": -76.93003216666666, "is_reserved": 0, "fusion_lat": 0.0, "type": "electric_scooter"}, {"fusion_lon": 0.0, "name": "3bc2459965b15720780a55a1f597e588", "rental_uris": {"android": "https://dc.lft.to/lastmile_qr_scan", "ios": "https://dc.lft.to/lastmile_qr_scan"}, "lat": 38.906837, "bike_id": "3bc2459965b15720780a55a1f597e588", "is_disabled": 0, "lon": -77.03809883333334, "is_reserved": 0, "fusion_lat": 0.0, "type": "electric_scooter"}, {"fusion_lon": 0.0, "name": "003de37215505d26d554a8dfc76c8f22", "rental_uris": {"android": "https://dc.lft.to/lastmile_qr_scan", "ios": "https://dc.lft.to/lastmile_qr_scan"}, "lat": 38.90264066666667, "bike_id": "003de37215505d26d554a8dfc76c8f22", "is_disabled": 0, "lon": -77.02446716666667, "is_reserved": 0, "fusion_lat": 0.0, "type": "electric_scooter"}, {"fusion_lon": 0.0, "name": "a4454aada3192a804de7bcadf5e00456", "rental_uris": {"android": "https://dc.lft.to/lastmile_qr_scan", "ios": "https://dc.lft.to/lastmile_qr_scan"}, "lat": 38.9191805, "bike_id": "a4454aada3192a804de7bcadf5e00456", "is_disabled": 0, "lon": -77.03425016666667, "is_reserved": 0, "fusion_lat": 0.0, "type": "electric_scooter"}, {"fusion_lon": 0.0, "name": "6fe816ee6899fbd32f0f85ce86c56070", "rental_uris": {"android": "https://dc.lft.to/lastmile_qr_scan", "ios": "https://dc.lft.to/lastmile_qr_scan"}, "lat": 38.955800333333336, "bike_id": "6fe816ee6899fbd32f0f85ce86c56070", "is_disabled": 0, "lon": -77.07008933333333, "is_reserved": 0, "fusion_lat": 0.0, "type": "electric_scooter"}, {"fusion_lon": 0.0, "name": "426373c2dcd4a2bb4c3e9fb7d25b662b", "rental_uris": {"android": "https://dc.lft.to/lastmile_qr_scan", "ios": "https://dc.lft.to/lastmile_qr_scan"}, "lat": 38.95662433333333, "bike_id": "426373c2dcd4a2bb4c3e9fb7d25b662b", "is_disabled": 0, "lon": -77.08371466666667, "is_reserved": 0, "fusion_lat": 0.0, "type": "electric_scooter"}, {"fusion_lon": 0.0, "name": "46a49cc9fa966715c587dd026c5701af", "rental_uris": {"android": "https://dc.lft.to/lastmile_qr_scan", "ios": "https://dc.lft.to/lastmile_qr_scan"}, "lat": 38.87851883333333, "bike_id": "46a49cc9fa966715c587dd026c5701af", "is_disabled": 0, "lon": -77.02236566666667, "is_reserved": 0, "fusion_lat": 0.0, "type": "electric_scooter"}, {"fusion_lon": 0.0, "name": "acec8a886ab646b31668f300a36fa964", "rental_uris": {"android": "https://dc.lft.to/lastmile_qr_scan", "ios": "https://dc.lft.to/lastmile_qr_scan"}, "lat": 38.8961985, "bike_id": "acec8a886ab646b31668f300a36fa964", "is_disabled": 0, "lon": -77.02220616666666, "is_reserved": 0, "fusion_lat": 0.0, "type": "electric_scooter"}, {"fusion_lon": 0.0, "name": "4f7670c240f0855a13d415f4cbef7743", "rental_uris": {"android": "https://dc.lft.to/lastmile_qr_scan", "ios": "https://dc.lft.to/lastmile_qr_scan"}, "lat": 38.876832, "bike_id": "4f7670c240f0855a13d415f4cbef7743", "is_disabled": 0, "lon": -77.00566516666666, "is_reserved": 0, "fusion_lat": 0.0, "type": "electric_scooter"}, {"fusion_lon": 0.0, "name": "553ad72dbca6939987ba4d06cd859fae", "rental_uris": {"android": "https://dc.lft.to/lastmile_qr_scan", "ios": "https://dc.lft.to/lastmile_qr_scan"}, "lat": 38.924688333333336, "bike_id": "553ad72dbca6939987ba4d06cd859fae", "is_disabled": 0, "lon": -77.022182, "is_reserved": 0, "fusion_lat": 0.0, "type": "electric_scooter"}, {"fusion_lon": 0.0, "name": "9b0475c932752f8da2c63ed9a679b951", "rental_uris": {"android": "https://dc.lft.to/lastmile_qr_scan", "ios": "https://dc.lft.to/lastmile_qr_scan"}, "lat": 38.893652, "bike_id": "9b0475c932752f8da2c63ed9a679b951", "is_disabled": 0, "lon": -77.003299, "is_reserved": 0, "fusion_lat": 0.0, "type": "electric_scooter"}, {"fusion_lon": 0.0, "name": "2455d0164c47dba63406d049d9389d62", "rental_uris": {"android": "https://dc.lft.to/lastmile_qr_scan", "ios": "https://dc.lft.to/lastmile_qr_scan"}, "lat": 38.9261535, "bike_id": "2455d0164c47dba63406d049d9389d62", "is_disabled": 0, "lon": -77.02161066666666, "is_reserved": 0, "fusion_lat": 0.0, "type": "electric_scooter"}, {"fusion_lon": 0.0, "name": "286fe82935d75e87bb22ea620830f646", "rental_uris": {"android": "https://dc.lft.to/lastmile_qr_scan", "ios": "https://dc.lft.to/lastmile_qr_scan"}, "lat": 38.912855666666665, "bike_id": "286fe82935d75e87bb22ea620830f646", "is_disabled": 0, "lon": -76.98542266666666, "is_reserved": 0, "fusion_lat": 0.0, "type": "electric_scooter"}, {"fusion_lon": 0.0, "name": "693e7b5ffc83a4420f852b23e83af48c", "rental_uris": {"android": "https://dc.lft.to/lastmile_qr_scan", "ios": "https://dc.lft.to/lastmile_qr_scan"}, "lat": 39.029267, "bike_id": "693e7b5ffc83a4420f852b23e83af48c", "is_disabled": 0, "lon": -77.01354516666666, "is_reserved": 0, "fusion_lat": 0.0, "type": "electric_bike"}, {"fusion_lon": 0.0, "name": "02e1b7b3fdbcbbce60f3d0b80ed67bea", "rental_uris": {"android": "https://dc.lft.to/lastmile_qr_scan", "ios": "https://dc.lft.to/lastmile_qr_scan"}, "lat": 38.9319815, "bike_id": "02e1b7b3fdbcbbce60f3d0b80ed67bea", "is_disabled": 0, "lon": -77.03748166666666, "is_reserved": 0, "fusion_lat": 0.0, "type": "electric_scooter"}, {"fusion_lon": 0.0, "name": "e0cacc0772bbd183365202ed11c159a7", "rental_uris": {"android": "https://dc.lft.to/lastmile_qr_scan", "ios": "https://dc.lft.to/lastmile_qr_scan"}, "lat": 38.9027615, "bike_id": "e0cacc0772bbd183365202ed11c159a7", "is_disabled": 0, "lon": -77.034273, "is_reserved": 0, "fusion_lat": 0.0, "type": "electric_scooter"}, {"fusion_lon": 0.0, "name": "0e9baed5f5ac33c3d361c960314cdeed", "rental_uris": {"android": "https://dc.lft.to/lastmile_qr_scan", "ios": "https://dc.lft.to/lastmile_qr_scan"}, "lat": 38.88822416666667, "bike_id": "0e9baed5f5ac33c3d361c960314cdeed", "is_disabled": 0, "lon": -76.977019, "is_reserved": 0, "fusion_lat": 0.0, "type": "electric_scooter"}, {"fusion_lon": 0.0, "name": "4f52cee590948a59ede68c8c3c22fed9", "rental_uris": {"android": "https://dc.lft.to/lastmile_qr_scan", "ios": "https://dc.lft.to/lastmile_qr_scan"}, "lat": 38.9002345, "bike_id": "4f52cee590948a59ede68c8c3c22fed9", "is_disabled": 0, "lon": -76.988565, "is_reserved": 0, "fusion_lat": 0.0, "type": "electric_scooter"}, {"fusion_lon": 0.0, "name": "78a89224bdf1759c68dee42f7c6c5d89", "rental_uris": {"android": "https://dc.lft.to/lastmile_qr_scan", "ios": "https://dc.lft.to/lastmile_qr_scan"}, "lat": 38.9054925, "bike_id": "78a89224bdf1759c68dee42f7c6c5d89", "is_disabled": 0, "lon": -77.04566133333333, "is_reserved": 0, "fusion_lat": 0.0, "type": "electric_scooter"}, {"fusion_lon": 0.0, "name": "7109f7d0f212a13821aa2cfdb604cd97", "rental_uris": {"android": "https://dc.lft.to/lastmile_qr_scan", "ios": "https://dc.lft.to/lastmile_qr_scan"}, "lat": 38.90263516666667, "bike_id": "7109f7d0f212a13821aa2cfdb604cd97", "is_disabled": 0, "lon": -77.0174075, "is_reserved": 0, "fusion_lat": 0.0, "type": "electric_scooter"}, {"fusion_lon": 0.0, "name": "b79b4aac8f6ff32d028b94bbe300c7ac", "rental_uris": {"android": "https://dc.lft.to/lastmile_qr_scan", "ios": "https://dc.lft.to/lastmile_qr_scan"}, "lat": 38.90636683333334, "bike_id": "b79b4aac8f6ff32d028b94bbe300c7ac", "is_disabled": 0, "lon": -77.03888883333333, "is_reserved": 0, "fusion_lat": 0.0, "type": "electric_scooter"}, {"fusion_lon": 0.0, "name": "51062fbebb5f7943179f4144461b8969", "rental_uris": {"android": "https://dc.lft.to/lastmile_qr_scan", "ios": "https://dc.lft.to/lastmile_qr_scan"}, "lat": 38.901589666666666, "bike_id": "51062fbebb5f7943179f4144461b8969", "is_disabled": 0, "lon": -76.9807715, "is_reserved": 0, "fusion_lat": 0.0, "type": "electric_scooter"}, {"fusion_lon": 0.0, "name": "fb5baae07d711d9af4027972ba181715", "rental_uris": {"android": "https://dc.lft.to/lastmile_qr_scan", "ios": "https://dc.lft.to/lastmile_qr_scan"}, "lat": 38.913475166666665, "bike_id": "fb5baae07d711d9af4027972ba181715", "is_disabled": 0, "lon": -77.01223083333333, "is_reserved": 0, "fusion_lat": 0.0, "type": "electric_scooter"}, {"fusion_lon": 0.0, "name": "021d4faf13055fb2d7380ea542d4ef34", "rental_uris": {"android": "https://dc.lft.to/lastmile_qr_scan", "ios": "https://dc.lft.to/lastmile_qr_scan"}, "lat": 38.964657333333335, "bike_id": "021d4faf13055fb2d7380ea542d4ef34", "is_disabled": 0, "lon": -77.03556383333333, "is_reserved": 0, "fusion_lat": 0.0, "type": "electric_bike"}, {"fusion_lon": 0.0, "name": "4a632ab668aa1aa51587a0fbce35f3af", "rental_uris": {"android": "https://dc.lft.to/lastmile_qr_scan", "ios": "https://dc.lft.to/lastmile_qr_scan"}, "lat": 38.906818333333334, "bike_id": "4a632ab668aa1aa51587a0fbce35f3af", "is_disabled": 0, "lon": -77.02693866666667, "is_reserved": 0, "fusion_lat": 0.0, "type": "electric_scooter"}, {"fusion_lon": 0.0, "name": "70bbf7cc22653e3a72345c535504c033", "rental_uris": {"android": "https://dc.lft.to/lastmile_qr_scan", "ios": "https://dc.lft.to/lastmile_qr_scan"}, "lat": 38.9077785, "bike_id": "70bbf7cc22653e3a72345c535504c033", "is_disabled": 0, "lon": -77.071714, "is_reserved": 0, "fusion_lat": 0.0, "type": "electric_scooter"}, {"fusion_lon": 0.0, "name": "e509922c7a292cb7fae33ab87080fb3f", "rental_uris": {"android": "https://dc.lft.to/lastmile_qr_scan", "ios": "https://dc.lft.to/lastmile_qr_scan"}, "lat": 38.924188, "bike_id": "e509922c7a292cb7fae33ab87080fb3f", "is_disabled": 0, "lon": -77.02007616666667, "is_reserved": 0, "fusion_lat": 0.0, "type": "electric_scooter"}, {"fusion_lon": 0.0, "name": "76fe6a61cd028f3f334f6a0247f64f99", "rental_uris": {"android": "https://dc.lft.to/lastmile_qr_scan", "ios": "https://dc.lft.to/lastmile_qr_scan"}, "lat": 38.89254, "bike_id": "76fe6a61cd028f3f334f6a0247f64f99", "is_disabled": 0, "lon": -77.01259566666667, "is_reserved": 0, "fusion_lat": 0.0, "type": "electric_scooter"}, {"fusion_lon": 0.0, "name": "72da8ea2e45c634c2b3cdef01aeecc32", "rental_uris": {"android": "https://dc.lft.to/lastmile_qr_scan", "ios": "https://dc.lft.to/lastmile_qr_scan"}, "lat": 38.9197705, "bike_id": "72da8ea2e45c634c2b3cdef01aeecc32", "is_disabled": 0, "lon": -77.02178083333334, "is_reserved": 0, "fusion_lat": 0.0, "type": "electric_scooter"}, {"fusion_lon": 0.0, "name": "ed9ebd80adeec8af2c0c39fa320743a9", "rental_uris": {"android": "https://dc.lft.to/lastmile_qr_scan", "ios": "https://dc.lft.to/lastmile_qr_scan"}, "lat": 38.9091725, "bike_id": "ed9ebd80adeec8af2c0c39fa320743a9", "is_disabled": 0, "lon": -76.98977483333333, "is_reserved": 0, "fusion_lat": 0.0, "type": "electric_scooter"}, {"fusion_lon": 0.0, "name": "989e938a38f5c6530b088fdc8858cb72", "rental_uris": {"android": "https://dc.lft.to/lastmile_qr_scan", "ios": "https://dc.lft.to/lastmile_qr_scan"}, "lat": 38.94311833333333, "bike_id": "989e938a38f5c6530b088fdc8858cb72", "is_disabled": 0, "lon": -77.05932166666666, "is_reserved": 0, "fusion_lat": 0.0, "type": "electric_scooter"}, {"fusion_lon": 0.0, "name": "f00437fbd0ab788534a31e699029a6ba", "rental_uris": {"android": "https://dc.lft.to/lastmile_qr_scan", "ios": "https://dc.lft.to/lastmile_qr_scan"}, "lat": 38.907283, "bike_id": "f00437fbd0ab788534a31e699029a6ba", "is_disabled": 0, "lon": -77.0074415, "is_reserved": 0, "fusion_lat": 0.0, "type": "electric_scooter"}, {"fusion_lon": 0.0, "name": "a196ec577a12881b841c7fc64bd7b8bb", "rental_uris": {"android": "https://dc.lft.to/lastmile_qr_scan", "ios": "https://dc.lft.to/lastmile_qr_scan"}, "lat": 38.9247835, "bike_id": "a196ec577a12881b841c7fc64bd7b8bb", "is_disabled": 0, "lon": -77.0221975, "is_reserved": 0, "fusion_lat": 0.0, "type": "electric_scooter"}, {"fusion_lon": 0.0, "name": "934a1754318cb8e1db1b394c07541fc7", "rental_uris": {"android": "https://dc.lft.to/lastmile_qr_scan", "ios": "https://dc.lft.to/lastmile_qr_scan"}, "lat": 38.936996, "bike_id": "934a1754318cb8e1db1b394c07541fc7", "is_disabled": 0, "lon": -77.056006, "is_reserved": 0, "fusion_lat": 0.0, "type": "electric_scooter"}, {"fusion_lon": 0.0, "name": "e91d9d2e5d2a74bed26e9841f9fb9e0d", "rental_uris": {"android": "https://dc.lft.to/lastmile_qr_scan", "ios": "https://dc.lft.to/lastmile_qr_scan"}, "lat": 38.90426516666667, "bike_id": "e91d9d2e5d2a74bed26e9841f9fb9e0d", "is_disabled": 0, "lon": -77.04063616666667, "is_reserved": 0, "fusion_lat": 0.0, "type": "electric_scooter"}, {"fusion_lon": 0.0, "name": "0f56aebd8955bef7e24c049e600609ce", "rental_uris": {"android": "https://dc.lft.to/lastmile_qr_scan", "ios": "https://dc.lft.to/lastmile_qr_scan"}, "lat": 38.88772766666666, "bike_id": "0f56aebd8955bef7e24c049e600609ce", "is_disabled": 0, "lon": -76.932619, "is_reserved": 0, "fusion_lat": 0.0, "type": "electric_scooter"}, {"fusion_lon": 0.0, "name": "c12329375e838b5a3af07440944a326e", "rental_uris": {"android": "https://dc.lft.to/lastmile_qr_scan", "ios": "https://dc.lft.to/lastmile_qr_scan"}, "lat": 38.92471583333333, "bike_id": "c12329375e838b5a3af07440944a326e", "is_disabled": 0, "lon": -77.02113983333334, "is_reserved": 0, "fusion_lat": 0.0, "type": "electric_scooter"}, {"fusion_lon": 0.0, "name": "c176e5c73bb573ca7b036e3781af7a45", "rental_uris": {"android": "https://dc.lft.to/lastmile_qr_scan", "ios": "https://dc.lft.to/lastmile_qr_scan"}, "lat": 38.929803666666665, "bike_id": "c176e5c73bb573ca7b036e3781af7a45", "is_disabled": 0, "lon": -77.0364975, "is_reserved": 0, "fusion_lat": 0.0, "type": "electric_scooter"}, {"fusion_lon": 0.0, "name": "37144606246ec2817d623054f233a4b9", "rental_uris": {"android": "https://dc.lft.to/lastmile_qr_scan", "ios": "https://dc.lft.to/lastmile_qr_scan"}, "lat": 38.920210833333336, "bike_id": "37144606246ec2817d623054f233a4b9", "is_disabled": 0, "lon": -77.01908383333334, "is_reserved": 0, "fusion_lat": 0.0, "type": "electric_scooter"}, {"fusion_lon": 0.0, "name": "1905a0e7bc7933413b36a192620bb5e0", "rental_uris": {"android": "https://dc.lft.to/lastmile_qr_scan", "ios": "https://dc.lft.to/lastmile_qr_scan"}, "lat": 38.9184535, "bike_id": "1905a0e7bc7933413b36a192620bb5e0", "is_disabled": 0, "lon": -77.03861583333334, "is_reserved": 0, "fusion_lat": 0.0, "type": "electric_scooter"}, {"fusion_lon": 0.0, "name": "74698168a877eae357505f69a7514974", "rental_uris": {"android": "https://dc.lft.to/lastmile_qr_scan", "ios": "https://dc.lft.to/lastmile_qr_scan"}, "lat": 38.92344216666667, "bike_id": "74698168a877eae357505f69a7514974", "is_disabled": 0, "lon": -77.01904733333333, "is_reserved": 0, "fusion_lat": 0.0, "type": "electric_scooter"}, {"fusion_lon": 0.0, "name": "3571f4e70b6fb86670deae768e3d3309", "rental_uris": {"android": "https://dc.lft.to/lastmile_qr_scan", "ios": "https://dc.lft.to/lastmile_qr_scan"}, "lat": 38.89184383333333, "bike_id": "3571f4e70b6fb86670deae768e3d3309", "is_disabled": 0, "lon": -76.93596016666666, "is_reserved": 0, "fusion_lat": 0.0, "type": "electric_scooter"}, {"fusion_lon": 0.0, "name": "9bd342d7530600b91de16a8efe59a2d2", "rental_uris": {"android": "https://dc.lft.to/lastmile_qr_scan", "ios": "https://dc.lft.to/lastmile_qr_scan"}, "lat": 38.897274333333336, "bike_id": "9bd342d7530600b91de16a8efe59a2d2", "is_disabled": 0, "lon": -77.0276955, "is_reserved": 0, "fusion_lat": 0.0, "type": "electric_scooter"}, {"fusion_lon": 0.0, "name": "5576fb9a5d4dac7c71f3cd22a0294ae5", "rental_uris": {"android": "https://dc.lft.to/lastmile_qr_scan", "ios": "https://dc.lft.to/lastmile_qr_scan"}, "lat": 38.90828033333333, "bike_id": "5576fb9a5d4dac7c71f3cd22a0294ae5", "is_disabled": 0, "lon": -77.03369916666666, "is_reserved": 0, "fusion_lat": 0.0, "type": "electric_scooter"}, {"fusion_lon": 0.0, "name": "223f5073e887630dd0e9604b5470b6ba", "rental_uris": {"android": "https://dc.lft.to/lastmile_qr_scan", "ios": "https://dc.lft.to/lastmile_qr_scan"}, "lat": 38.91110066666667, "bike_id": "223f5073e887630dd0e9604b5470b6ba", "is_disabled": 0, "lon": -77.038309, "is_reserved": 0, "fusion_lat": 0.0, "type": "electric_scooter"}, {"fusion_lon": 0.0, "name": "bc7da4ea12c75f70d04c83bba210b7d1", "rental_uris": {"android": "https://dc.lft.to/lastmile_qr_scan", "ios": "https://dc.lft.to/lastmile_qr_scan"}, "lat": 38.9089575, "bike_id": "bc7da4ea12c75f70d04c83bba210b7d1", "is_disabled": 0, "lon": -77.02289783333333, "is_reserved": 0, "fusion_lat": 0.0, "type": "electric_scooter"}, {"fusion_lon": 0.0, "name": "a2b4b90dcf2c89a4442f0be8c83a9ff7", "rental_uris": {"android": "https://dc.lft.to/lastmile_qr_scan", "ios": "https://dc.lft.to/lastmile_qr_scan"}, "lat": 38.9223375, "bike_id": "a2b4b90dcf2c89a4442f0be8c83a9ff7", "is_disabled": 0, "lon": -76.975324, "is_reserved": 0, "fusion_lat": 0.0, "type": "electric_scooter"}, {"fusion_lon": 0.0, "name": "6d76f9d79e6c300e4e7b695045cde648", "rental_uris": {"android": "https://dc.lft.to/lastmile_qr_scan", "ios": "https://dc.lft.to/lastmile_qr_scan"}, "lat": 38.887378, "bike_id": "6d76f9d79e6c300e4e7b695045cde648", "is_disabled": 0, "lon": -77.00198216666666, "is_reserved": 0, "fusion_lat": 0.0, "type": "electric_scooter"}, {"fusion_lon": 0.0, "name": "36194ad1d0d8a7f64e0f2d7fd87c5889", "rental_uris": {"android": "https://dc.lft.to/lastmile_qr_scan", "ios": "https://dc.lft.to/lastmile_qr_scan"}, "lat": 38.911820166666665, "bike_id": "36194ad1d0d8a7f64e0f2d7fd87c5889", "is_disabled": 0, "lon": -77.06097816666667, "is_reserved": 0, "fusion_lat": 0.0, "type": "electric_scooter"}, {"fusion_lon": 0.0, "name": "2e577a8419c0988252ebc83e7beddbd1", "rental_uris": {"android": "https://dc.lft.to/lastmile_qr_scan", "ios": "https://dc.lft.to/lastmile_qr_scan"}, "lat": 38.928649, "bike_id": "2e577a8419c0988252ebc83e7beddbd1", "is_disabled": 0, "lon": -77.01403983333333, "is_reserved": 0, "fusion_lat": 0.0, "type": "electric_scooter"}, {"fusion_lon": 0.0, "name": "c777cafeac427d27c554e71a36ff7e0e", "rental_uris": {"android": "https://dc.lft.to/lastmile_qr_scan", "ios": "https://dc.lft.to/lastmile_qr_scan"}, "lat": 38.90681716666667, "bike_id": "c777cafeac427d27c554e71a36ff7e0e", "is_disabled": 0, "lon": -77.050097, "is_reserved": 0, "fusion_lat": 0.0, "type": "electric_scooter"}, {"fusion_lon": 0.0, "name": "4bb64af771f955e1e7540124f2c0f20d", "rental_uris": {"android": "https://dc.lft.to/lastmile_qr_scan", "ios": "https://dc.lft.to/lastmile_qr_scan"}, "lat": 38.902214, "bike_id": "4bb64af771f955e1e7540124f2c0f20d", "is_disabled": 0, "lon": -77.02367016666666, "is_reserved": 0, "fusion_lat": 0.0, "type": "electric_scooter"}, {"fusion_lon": 0.0, "name": "6a8332a6327140ff7e30c3836cd3abb8", "rental_uris": {"android": "https://dc.lft.to/lastmile_qr_scan", "ios": "https://dc.lft.to/lastmile_qr_scan"}, "lat": 38.92726566666666, "bike_id": "6a8332a6327140ff7e30c3836cd3abb8", "is_disabled": 0, "lon": -77.04111866666666, "is_reserved": 0, "fusion_lat": 0.0, "type": "electric_scooter"}, {"fusion_lon": 0.0, "name": "36853af810ee11fd00a9eeb462e93c8a", "rental_uris": {"android": "https://dc.lft.to/lastmile_qr_scan", "ios": "https://dc.lft.to/lastmile_qr_scan"}, "lat": 38.901870333333335, "bike_id": "36853af810ee11fd00a9eeb462e93c8a", "is_disabled": 0, "lon": -76.9884245, "is_reserved": 0, "fusion_lat": 0.0, "type": "electric_scooter"}, {"fusion_lon": 0.0, "name": "3b7d97804e668b408277798bf5b723d5", "rental_uris": {"android": "https://dc.lft.to/lastmile_qr_scan", "ios": "https://dc.lft.to/lastmile_qr_scan"}, "lat": 38.89354983333333, "bike_id": "3b7d97804e668b408277798bf5b723d5", "is_disabled": 0, "lon": -77.0033205, "is_reserved": 0, "fusion_lat": 0.0, "type": "electric_scooter"}, {"fusion_lon": 0.0, "name": "ec0c4e6f2fcacd3010a18d8eaa7af639", "rental_uris": {"android": "https://dc.lft.to/lastmile_qr_scan", "ios": "https://dc.lft.to/lastmile_qr_scan"}, "lat": 38.90563983333333, "bike_id": "ec0c4e6f2fcacd3010a18d8eaa7af639", "is_disabled": 0, "lon": -77.034837, "is_reserved": 0, "fusion_lat": 0.0, "type": "electric_scooter"}, {"fusion_lon": 0.0, "name": "ce05dc8b5c49de7c1c51bbf45b82f10a", "rental_uris": {"android": "https://dc.lft.to/lastmile_qr_scan", "ios": "https://dc.lft.to/lastmile_qr_scan"}, "lat": 38.890189666666664, "bike_id": "ce05dc8b5c49de7c1c51bbf45b82f10a", "is_disabled": 0, "lon": -76.937176, "is_reserved": 0, "fusion_lat": 0.0, "type": "electric_scooter"}, {"fusion_lon": 0.0, "name": "7b4d4b355505ce290c7862f750fa840c", "rental_uris": {"android": "https://dc.lft.to/lastmile_qr_scan", "ios": "https://dc.lft.to/lastmile_qr_scan"}, "lat": 38.92399866666667, "bike_id": "7b4d4b355505ce290c7862f750fa840c", "is_disabled": 0, "lon": -76.99594083333334, "is_reserved": 0, "fusion_lat": 0.0, "type": "electric_scooter"}, {"fusion_lon": 0.0, "name": "53e66eb7530e9210ef20bdb28aebc8b8", "rental_uris": {"android": "https://dc.lft.to/lastmile_qr_scan", "ios": "https://dc.lft.to/lastmile_qr_scan"}, "lat": 38.80384133333333, "bike_id": "53e66eb7530e9210ef20bdb28aebc8b8", "is_disabled": 0, "lon": -76.9881755, "is_reserved": 0, "fusion_lat": 0.0, "type": "electric_bike"}, {"fusion_lon": 0.0, "name": "015d408777c5dd7f685bb7b72e183318", "rental_uris": {"android": "https://dc.lft.to/lastmile_qr_scan", "ios": "https://dc.lft.to/lastmile_qr_scan"}, "lat": 38.890193333333336, "bike_id": "015d408777c5dd7f685bb7b72e183318", "is_disabled": 0, "lon": -76.9371765, "is_reserved": 0, "fusion_lat": 0.0, "type": "electric_scooter"}, {"fusion_lon": 0.0, "name": "75ffa61d611065c3551262313abea1e3", "rental_uris": {"android": "https://dc.lft.to/lastmile_qr_scan", "ios": "https://dc.lft.to/lastmile_qr_scan"}, "lat": 38.896801833333335, "bike_id": "75ffa61d611065c3551262313abea1e3", "is_disabled": 0, "lon": -76.93667183333334, "is_reserved": 0, "fusion_lat": 0.0, "type": "electric_scooter"}, {"fusion_lon": 0.0, "name": "23e14fe073b9dc0e8624eb3ca2367c1d", "rental_uris": {"android": "https://dc.lft.to/lastmile_qr_scan", "ios": "https://dc.lft.to/lastmile_qr_scan"}, "lat": 38.880263, "bike_id": "23e14fe073b9dc0e8624eb3ca2367c1d", "is_disabled": 0, "lon": -76.943256, "is_reserved": 0, "fusion_lat": 0.0, "type": "electric_scooter"}, {"fusion_lon": 0.0, "name": "1180fce9aa7aa41bd10d0362556fb3a7", "rental_uris": {"android": "https://dc.lft.to/lastmile_qr_scan", "ios": "https://dc.lft.to/lastmile_qr_scan"}, "lat": 38.892235166666666, "bike_id": "1180fce9aa7aa41bd10d0362556fb3a7", "is_disabled": 0, "lon": -77.02632616666666, "is_reserved": 0, "fusion_lat": 0.0, "type": "electric_scooter"}, {"fusion_lon": 0.0, "name": "af3b83a985b7d5961487708e2e4e1d43", "rental_uris": {"android": "https://dc.lft.to/lastmile_qr_scan", "ios": "https://dc.lft.to/lastmile_qr_scan"}, "lat": 38.86660166666667, "bike_id": "af3b83a985b7d5961487708e2e4e1d43", "is_disabled": 0, "lon": -76.979108, "is_reserved": 0, "fusion_lat": 0.0, "type": "electric_scooter"}, {"fusion_lon": 0.0, "name": "62c419946ccbe657fb5ea6b5f9ea3940", "rental_uris": {"android": "https://dc.lft.to/lastmile_qr_scan", "ios": "https://dc.lft.to/lastmile_qr_scan"}, "lat": 38.92305866666667, "bike_id": "62c419946ccbe657fb5ea6b5f9ea3940", "is_disabled": 0, "lon": -77.03026216666666, "is_reserved": 0, "fusion_lat": 0.0, "type": "electric_scooter"}, {"fusion_lon": 0.0, "name": "c512d111a0c69ab63d6825a841ff737a", "rental_uris": {"android": "https://dc.lft.to/lastmile_qr_scan", "ios": "https://dc.lft.to/lastmile_qr_scan"}, "lat": 38.90720783333333, "bike_id": "c512d111a0c69ab63d6825a841ff737a", "is_disabled": 0, "lon": -77.02546683333334, "is_reserved": 0, "fusion_lat": 0.0, "type": "electric_scooter"}, {"fusion_lon": 0.0, "name": "5cf876572388645a3ae2f71829d2dd1f", "rental_uris": {"android": "https://dc.lft.to/lastmile_qr_scan", "ios": "https://dc.lft.to/lastmile_qr_scan"}, "lat": 38.8974345, "bike_id": "5cf876572388645a3ae2f71829d2dd1f", "is_disabled": 0, "lon": -77.02611166666667, "is_reserved": 0, "fusion_lat": 0.0, "type": "electric_scooter"}, {"fusion_lon": 0.0, "name": "dc841c968a986d999ce4191d636920e9", "rental_uris": {"android": "https://dc.lft.to/lastmile_qr_scan", "ios": "https://dc.lft.to/lastmile_qr_scan"}, "lat": 38.918854, "bike_id": "dc841c968a986d999ce4191d636920e9", "is_disabled": 0, "lon": -77.02741983333334, "is_reserved": 0, "fusion_lat": 0.0, "type": "electric_scooter"}, {"fusion_lon": 0.0, "name": "b2bf83c72753e579d2e86c49d129634d", "rental_uris": {"android": "https://dc.lft.to/lastmile_qr_scan", "ios": "https://dc.lft.to/lastmile_qr_scan"}, "lat": 38.944767666666664, "bike_id": "b2bf83c72753e579d2e86c49d129634d", "is_disabled": 0, "lon": -76.98686966666666, "is_reserved": 0, "fusion_lat": 0.0, "type": "electric_bike"}, {"fusion_lon": 0.0, "name": "68be503d3c91d73edf7a213718684d3d", "rental_uris": {"android": "https://dc.lft.to/lastmile_qr_scan", "ios": "https://dc.lft.to/lastmile_qr_scan"}, "lat": 38.90461666666667, "bike_id": "68be503d3c91d73edf7a213718684d3d", "is_disabled": 0, "lon": -77.0321485, "is_reserved": 0, "fusion_lat": 0.0, "type": "electric_scooter"}, {"fusion_lon": 0.0, "name": "9140d13538b551751aa964d0a4af884d", "rental_uris": {"android": "https://dc.lft.to/lastmile_qr_scan", "ios": "https://dc.lft.to/lastmile_qr_scan"}, "lat": 38.8839795, "bike_id": "9140d13538b551751aa964d0a4af884d", "is_disabled": 0, "lon": -77.01974133333333, "is_reserved": 0, "fusion_lat": 0.0, "type": "electric_scooter"}, {"fusion_lon": 0.0, "name": "2208731216d78918ce7699af947fa5e7", "rental_uris": {"android": "https://dc.lft.to/lastmile_qr_scan", "ios": "https://dc.lft.to/lastmile_qr_scan"}, "lat": 38.894775, "bike_id": "2208731216d78918ce7699af947fa5e7", "is_disabled": 0, "lon": -76.99483483333333, "is_reserved": 0, "fusion_lat": 0.0, "type": "electric_scooter"}, {"fusion_lon": 0.0, "name": "e0c3f087a52cd3cfa6f462291727096b", "rental_uris": {"android": "https://dc.lft.to/lastmile_qr_scan", "ios": "https://dc.lft.to/lastmile_qr_scan"}, "lat": 38.90744083333333, "bike_id": "e0c3f087a52cd3cfa6f462291727096b", "is_disabled": 0, "lon": -77.0153175, "is_reserved": 0, "fusion_lat": 0.0, "type": "electric_scooter"}, {"fusion_lon": 0.0, "name": "cd94ca44c6500392f9cb4579dfa8f213", "rental_uris": {"android": "https://dc.lft.to/lastmile_qr_scan", "ios": "https://dc.lft.to/lastmile_qr_scan"}, "lat": 38.994146666666666, "bike_id": "cd94ca44c6500392f9cb4579dfa8f213", "is_disabled": 0, "lon": -77.01798916666667, "is_reserved": 0, "fusion_lat": 0.0, "type": "electric_bike"}, {"fusion_lon": 0.0, "name": "d50153a945ead84be0d1a868473149ab", "rental_uris": {"android": "https://dc.lft.to/lastmile_qr_scan", "ios": "https://dc.lft.to/lastmile_qr_scan"}, "lat": 38.92509866666666, "bike_id": "d50153a945ead84be0d1a868473149ab", "is_disabled": 0, "lon": -77.02401116666667, "is_reserved": 0, "fusion_lat": 0.0, "type": "electric_scooter"}, {"fusion_lon": 0.0, "name": "7f9e52e27fc0bae4e48142da0dc1f583", "rental_uris": {"android": "https://dc.lft.to/lastmile_qr_scan", "ios": "https://dc.lft.to/lastmile_qr_scan"}, "lat": 38.83869133333334, "bike_id": "7f9e52e27fc0bae4e48142da0dc1f583", "is_disabled": 0, "lon": -76.9953615, "is_reserved": 0, "fusion_lat": 0.0, "type": "electric_bike"}, {"fusion_lon": 0.0, "name": "237145b49f6898fed33ea6697b5ad5b0", "rental_uris": {"android": "https://dc.lft.to/lastmile_qr_scan", "ios": "https://dc.lft.to/lastmile_qr_scan"}, "lat": 38.9015785, "bike_id": "237145b49f6898fed33ea6697b5ad5b0", "is_disabled": 0, "lon": -77.03358483333334, "is_reserved": 0, "fusion_lat": 0.0, "type": "electric_scooter"}, {"fusion_lon": 0.0, "name": "631f4e66b38ab8d09ec4214b80c79928", "rental_uris": {"android": "https://dc.lft.to/lastmile_qr_scan", "ios": "https://dc.lft.to/lastmile_qr_scan"}, "lat": 38.897065166666664, "bike_id": "631f4e66b38ab8d09ec4214b80c79928", "is_disabled": 0, "lon": -77.01322616666667, "is_reserved": 0, "fusion_lat": 0.0, "type": "electric_scooter"}, {"fusion_lon": 0.0, "name": "61050fae521fd0bb75915bda19743257", "rental_uris": {"android": "https://dc.lft.to/lastmile_qr_scan", "ios": "https://dc.lft.to/lastmile_qr_scan"}, "lat": 38.877536, "bike_id": "61050fae521fd0bb75915bda19743257", "is_disabled": 0, "lon": -77.005929, "is_reserved": 0, "fusion_lat": 0.0, "type": "electric_scooter"}, {"fusion_lon": 0.0, "name": "00beac0b0f5c0f61062e6d71cd509c57", "rental_uris": {"android": "https://dc.lft.to/lastmile_qr_scan", "ios": "https://dc.lft.to/lastmile_qr_scan"}, "lat": 38.898416833333336, "bike_id": "00beac0b0f5c0f61062e6d71cd509c57", "is_disabled": 0, "lon": -77.04835316666667, "is_reserved": 0, "fusion_lat": 0.0, "type": "electric_scooter"}, {"fusion_lon": 0.0, "name": "451dce0dfdfeb9fbd52c1ad15e3f7eea", "rental_uris": {"android": "https://dc.lft.to/lastmile_qr_scan", "ios": "https://dc.lft.to/lastmile_qr_scan"}, "lat": 38.90455516666667, "bike_id": "451dce0dfdfeb9fbd52c1ad15e3f7eea", "is_disabled": 0, "lon": -77.02165683333334, "is_reserved": 0, "fusion_lat": 0.0, "type": "electric_scooter"}, {"fusion_lon": 0.0, "name": "23847be8644de30823b90210286c2f8d", "rental_uris": {"android": "https://dc.lft.to/lastmile_qr_scan", "ios": "https://dc.lft.to/lastmile_qr_scan"}, "lat": 38.938931833333335, "bike_id": "23847be8644de30823b90210286c2f8d", "is_disabled": 0, "lon": -77.0176365, "is_reserved": 0, "fusion_lat": 0.0, "type": "electric_scooter"}, {"fusion_lon": 0.0, "name": "c8197baa94fb9a20b03290806c5507a9", "rental_uris": {"android": "https://dc.lft.to/lastmile_qr_scan", "ios": "https://dc.lft.to/lastmile_qr_scan"}, "lat": 38.9068325, "bike_id": "c8197baa94fb9a20b03290806c5507a9", "is_disabled": 0, "lon": -77.02692016666667, "is_reserved": 0, "fusion_lat": 0.0, "type": "electric_scooter"}, {"fusion_lon": 0.0, "name": "8031de52a66012e6cd3a15dbf3c320a0", "rental_uris": {"android": "https://dc.lft.to/lastmile_qr_scan", "ios": "https://dc.lft.to/lastmile_qr_scan"}, "lat": 38.842797166666664, "bike_id": "8031de52a66012e6cd3a15dbf3c320a0", "is_disabled": 0, "lon": -76.9884285, "is_reserved": 0, "fusion_lat": 0.0, "type": "electric_bike"}, {"fusion_lon": 0.0, "name": "4b672af85b980deaf9a4e5d59685cbe9", "rental_uris": {"android": "https://dc.lft.to/lastmile_qr_scan", "ios": "https://dc.lft.to/lastmile_qr_scan"}, "lat": 38.9280685, "bike_id": "4b672af85b980deaf9a4e5d59685cbe9", "is_disabled": 0, "lon": -77.02427416666667, "is_reserved": 0, "fusion_lat": 0.0, "type": "electric_scooter"}, {"fusion_lon": 0.0, "name": "fc9a6f4a0794ed78da6af8a69d2c1bbe", "rental_uris": {"android": "https://dc.lft.to/lastmile_qr_scan", "ios": "https://dc.lft.to/lastmile_qr_scan"}, "lat": 38.89863, "bike_id": "fc9a6f4a0794ed78da6af8a69d2c1bbe", "is_disabled": 0, "lon": -77.04879416666667, "is_reserved": 0, "fusion_lat": 0.0, "type": "electric_scooter"}, {"fusion_lon": 0.0, "name": "810963951847cb1b8e36377dfbcab198", "rental_uris": {"android": "https://dc.lft.to/lastmile_qr_scan", "ios": "https://dc.lft.to/lastmile_qr_scan"}, "lat": 38.9431945, "bike_id": "810963951847cb1b8e36377dfbcab198", "is_disabled": 0, "lon": -76.990189, "is_reserved": 0, "fusion_lat": 0.0, "type": "electric_bike"}, {"fusion_lon": 0.0, "name": "51eea0339e09a34e6462cb47814ccf32", "rental_uris": {"android": "https://dc.lft.to/lastmile_qr_scan", "ios": "https://dc.lft.to/lastmile_qr_scan"}, "lat": 38.8882515, "bike_id": "51eea0339e09a34e6462cb47814ccf32", "is_disabled": 0, "lon": -76.97702483333333, "is_reserved": 0, "fusion_lat": 0.0, "type": "electric_scooter"}, {"fusion_lon": 0.0, "name": "2f454d9543824ef5ad9a7bf4960df5bd", "rental_uris": {"android": "https://dc.lft.to/lastmile_qr_scan", "ios": "https://dc.lft.to/lastmile_qr_scan"}, "lat": 38.93144933333333, "bike_id": "2f454d9543824ef5ad9a7bf4960df5bd", "is_disabled": 0, "lon": -77.05695466666667, "is_reserved": 0, "fusion_lat": 0.0, "type": "electric_scooter"}, {"fusion_lon": 0.0, "name": "724d10c9dfef4525fdb5269eaf65fd71", "rental_uris": {"android": "https://dc.lft.to/lastmile_qr_scan", "ios": "https://dc.lft.to/lastmile_qr_scan"}, "lat": 38.91243883333333, "bike_id": "724d10c9dfef4525fdb5269eaf65fd71", "is_disabled": 0, "lon": -76.98667633333334, "is_reserved": 0, "fusion_lat": 0.0, "type": "electric_scooter"}, {"fusion_lon": 0.0, "name": "1e858fe4d754a51f47b0bb78d4619c46", "rental_uris": {"android": "https://dc.lft.to/lastmile_qr_scan", "ios": "https://dc.lft.to/lastmile_qr_scan"}, "lat": 38.900505, "bike_id": "1e858fe4d754a51f47b0bb78d4619c46", "is_disabled": 0, "lon": -77.04350016666666, "is_reserved": 0, "fusion_lat": 0.0, "type": "electric_scooter"}, {"fusion_lon": 0.0, "name": "4d30713509d2192cee2be96c5c26b1d7", "rental_uris": {"android": "https://dc.lft.to/lastmile_qr_scan", "ios": "https://dc.lft.to/lastmile_qr_scan"}, "lat": 38.96023616666667, "bike_id": "4d30713509d2192cee2be96c5c26b1d7", "is_disabled": 0, "lon": -77.02429383333333, "is_reserved": 0, "fusion_lat": 0.0, "type": "electric_scooter"}, {"fusion_lon": 0.0, "name": "48f743f1024439787ed81126117aeb87", "rental_uris": {"android": "https://dc.lft.to/lastmile_qr_scan", "ios": "https://dc.lft.to/lastmile_qr_scan"}, "lat": 38.90381816666667, "bike_id": "48f743f1024439787ed81126117aeb87", "is_disabled": 0, "lon": -77.03546633333333, "is_reserved": 0, "fusion_lat": 0.0, "type": "electric_scooter"}, {"fusion_lon": 0.0, "name": "bb452221fab146d050ca0ce7dabe8dd9", "rental_uris": {"android": "https://dc.lft.to/lastmile_qr_scan", "ios": "https://dc.lft.to/lastmile_qr_scan"}, "lat": 38.896550833333336, "bike_id": "bb452221fab146d050ca0ce7dabe8dd9", "is_disabled": 0, "lon": -77.02404666666666, "is_reserved": 0, "fusion_lat": 0.0, "type": "electric_scooter"}, {"fusion_lon": 0.0, "name": "a722f69d53c94dd85ef26c6635ab1b32", "rental_uris": {"android": "https://dc.lft.to/lastmile_qr_scan", "ios": "https://dc.lft.to/lastmile_qr_scan"}, "lat": 38.93062716666667, "bike_id": "a722f69d53c94dd85ef26c6635ab1b32", "is_disabled": 0, "lon": -77.05584016666667, "is_reserved": 0, "fusion_lat": 0.0, "type": "electric_scooter"}, {"fusion_lon": 0.0, "name": "c5c2663cdc324535d6cd656b8ac71ec4", "rental_uris": {"android": "https://dc.lft.to/lastmile_qr_scan", "ios": "https://dc.lft.to/lastmile_qr_scan"}, "lat": 38.8821305, "bike_id": "c5c2663cdc324535d6cd656b8ac71ec4", "is_disabled": 0, "lon": -77.028447, "is_reserved": 0, "fusion_lat": 0.0, "type": "electric_scooter"}, {"fusion_lon": 0.0, "name": "bf6034358cab8d7993df8997fdca8456", "rental_uris": {"android": "https://dc.lft.to/lastmile_qr_scan", "ios": "https://dc.lft.to/lastmile_qr_scan"}, "lat": 38.906016, "bike_id": "bf6034358cab8d7993df8997fdca8456", "is_disabled": 0, "lon": -77.04044183333333, "is_reserved": 0, "fusion_lat": 0.0, "type": "electric_scooter"}, {"fusion_lon": 0.0, "name": "3068df49189b5d8fe21939b83239f5bc", "rental_uris": {"android": "https://dc.lft.to/lastmile_qr_scan", "ios": "https://dc.lft.to/lastmile_qr_scan"}, "lat": 38.8065835, "bike_id": "3068df49189b5d8fe21939b83239f5bc", "is_disabled": 0, "lon": -77.08760266666667, "is_reserved": 0, "fusion_lat": 0.0, "type": "electric_bike"}, {"fusion_lon": 0.0, "name": "a2b51916ce0a3d5b600a7f1fc3f85f94", "rental_uris": {"android": "https://dc.lft.to/lastmile_qr_scan", "ios": "https://dc.lft.to/lastmile_qr_scan"}, "lat": 38.931149833333336, "bike_id": "a2b51916ce0a3d5b600a7f1fc3f85f94", "is_disabled": 0, "lon": -77.0303495, "is_reserved": 0, "fusion_lat": 0.0, "type": "electric_scooter"}, {"fusion_lon": 0.0, "name": "ce06c8a32fd16fb39fd8b53477609873", "rental_uris": {"android": "https://dc.lft.to/lastmile_qr_scan", "ios": "https://dc.lft.to/lastmile_qr_scan"}, "lat": 38.89453483333333, "bike_id": "ce06c8a32fd16fb39fd8b53477609873", "is_disabled": 0, "lon": -77.0266715, "is_reserved": 0, "fusion_lat": 0.0, "type": "electric_scooter"}, {"fusion_lon": 0.0, "name": "cb0da37e69c870be419dbcdf5bba4d22", "rental_uris": {"android": "https://dc.lft.to/lastmile_qr_scan", "ios": "https://dc.lft.to/lastmile_qr_scan"}, "lat": 38.9231035, "bike_id": "cb0da37e69c870be419dbcdf5bba4d22", "is_disabled": 0, "lon": -77.04259916666666, "is_reserved": 0, "fusion_lat": 0.0, "type": "electric_scooter"}, {"fusion_lon": 0.0, "name": "b1732b2c7f5d39fb35fb8a7e7c12de44", "rental_uris": {"android": "https://dc.lft.to/lastmile_qr_scan", "ios": "https://dc.lft.to/lastmile_qr_scan"}, "lat": 38.902798833333335, "bike_id": "b1732b2c7f5d39fb35fb8a7e7c12de44", "is_disabled": 0, "lon": -77.03266633333334, "is_reserved": 0, "fusion_lat": 0.0, "type": "electric_scooter"}, {"fusion_lon": 0.0, "name": "87f8c327ce6e521adafac5af3bce3254", "rental_uris": {"android": "https://dc.lft.to/lastmile_qr_scan", "ios": "https://dc.lft.to/lastmile_qr_scan"}, "lat": 38.8843265, "bike_id": "87f8c327ce6e521adafac5af3bce3254", "is_disabled": 0, "lon": -77.023195, "is_reserved": 0, "fusion_lat": 0.0, "type": "electric_scooter"}, {"fusion_lon": 0.0, "name": "4883be0d2bdd2a754f24af80282b612d", "rental_uris": {"android": "https://dc.lft.to/lastmile_qr_scan", "ios": "https://dc.lft.to/lastmile_qr_scan"}, "lat": 38.90404266666667, "bike_id": "4883be0d2bdd2a754f24af80282b612d", "is_disabled": 0, "lon": -76.97363883333334, "is_reserved": 0, "fusion_lat": 0.0, "type": "electric_scooter"}, {"fusion_lon": 0.0, "name": "cb37e6a956c837b0acb12962736ce760", "rental_uris": {"android": "https://dc.lft.to/lastmile_qr_scan", "ios": "https://dc.lft.to/lastmile_qr_scan"}, "lat": 38.89630483333333, "bike_id": "cb37e6a956c837b0acb12962736ce760", "is_disabled": 0, "lon": -77.02609283333334, "is_reserved": 0, "fusion_lat": 0.0, "type": "electric_scooter"}, {"fusion_lon": 0.0, "name": "4944627901283131f6840bc0499bf441", "rental_uris": {"android": "https://dc.lft.to/lastmile_qr_scan", "ios": "https://dc.lft.to/lastmile_qr_scan"}, "lat": 38.89738, "bike_id": "4944627901283131f6840bc0499bf441", "is_disabled": 0, "lon": -77.0256765, "is_reserved": 0, "fusion_lat": 0.0, "type": "electric_scooter"}, {"fusion_lon": 0.0, "name": "2e84665f9403b807f83867060453a4b5", "rental_uris": {"android": "https://dc.lft.to/lastmile_qr_scan", "ios": "https://dc.lft.to/lastmile_qr_scan"}, "lat": 38.94370083333333, "bike_id": "2e84665f9403b807f83867060453a4b5", "is_disabled": 0, "lon": -77.06109666666667, "is_reserved": 0, "fusion_lat": 0.0, "type": "electric_scooter"}, {"fusion_lon": 0.0, "name": "84789fb9695ef7d2f2a3cde14250e6ae", "rental_uris": {"android": "https://dc.lft.to/lastmile_qr_scan", "ios": "https://dc.lft.to/lastmile_qr_scan"}, "lat": 38.85447683333334, "bike_id": "84789fb9695ef7d2f2a3cde14250e6ae", "is_disabled": 0, "lon": -76.98606466666666, "is_reserved": 0, "fusion_lat": 0.0, "type": "electric_bike"}, {"fusion_lon": 0.0, "name": "4cff089cbbcd8eb2b6f43c7419073beb", "rental_uris": {"android": "https://dc.lft.to/lastmile_qr_scan", "ios": "https://dc.lft.to/lastmile_qr_scan"}, "lat": 38.84616066666667, "bike_id": "4cff089cbbcd8eb2b6f43c7419073beb", "is_disabled": 0, "lon": -76.96929, "is_reserved": 0, "fusion_lat": 0.0, "type": "electric_bike"}, {"fusion_lon": 0.0, "name": "442b88a45209ea133b1fbe0f348ef81f", "rental_uris": {"android": "https://dc.lft.to/lastmile_qr_scan", "ios": "https://dc.lft.to/lastmile_qr_scan"}, "lat": 38.875761, "bike_id": "442b88a45209ea133b1fbe0f348ef81f", "is_disabled": 0, "lon": -77.00579516666667, "is_reserved": 0, "fusion_lat": 0.0, "type": "electric_scooter"}, {"fusion_lon": 0.0, "name": "89974a3601a9696ac9349890f71ab80b", "rental_uris": {"android": "https://dc.lft.to/lastmile_qr_scan", "ios": "https://dc.lft.to/lastmile_qr_scan"}, "lat": 38.9267135, "bike_id": "89974a3601a9696ac9349890f71ab80b", "is_disabled": 0, "lon": -77.01503333333334, "is_reserved": 0, "fusion_lat": 0.0, "type": "electric_scooter"}, {"fusion_lon": 0.0, "name": "6d426c12bdc66760006599e235f597c6", "rental_uris": {"android": "https://dc.lft.to/lastmile_qr_scan", "ios": "https://dc.lft.to/lastmile_qr_scan"}, "lat": 38.897986, "bike_id": "6d426c12bdc66760006599e235f597c6", "is_disabled": 0, "lon": -77.03215583333333, "is_reserved": 0, "fusion_lat": 0.0, "type": "electric_scooter"}, {"fusion_lon": 0.0, "name": "c642be8640d350020d0891f1c02e94de", "rental_uris": {"android": "https://dc.lft.to/lastmile_qr_scan", "ios": "https://dc.lft.to/lastmile_qr_scan"}, "lat": 38.925127333333336, "bike_id": "c642be8640d350020d0891f1c02e94de", "is_disabled": 0, "lon": -77.02285533333334, "is_reserved": 0, "fusion_lat": 0.0, "type": "electric_scooter"}, {"fusion_lon": 0.0, "name": "1af82d51a05627e00d1b0cb553341f9d", "rental_uris": {"android": "https://dc.lft.to/lastmile_qr_scan", "ios": "https://dc.lft.to/lastmile_qr_scan"}, "lat": 38.898038666666665, "bike_id": "1af82d51a05627e00d1b0cb553341f9d", "is_disabled": 0, "lon": -77.01902483333333, "is_reserved": 0, "fusion_lat": 0.0, "type": "electric_scooter"}, {"fusion_lon": 0.0, "name": "c76bed123f4273171fb8381172794b88", "rental_uris": {"android": "https://dc.lft.to/lastmile_qr_scan", "ios": "https://dc.lft.to/lastmile_qr_scan"}, "lat": 38.92143683333333, "bike_id": "c76bed123f4273171fb8381172794b88", "is_disabled": 0, "lon": -77.03519433333334, "is_reserved": 0, "fusion_lat": 0.0, "type": "electric_scooter"}, {"fusion_lon": 0.0, "name": "a437a695121a45a66e4cd7aea5244ec8", "rental_uris": {"android": "https://dc.lft.to/lastmile_qr_scan", "ios": "https://dc.lft.to/lastmile_qr_scan"}, "lat": 38.915497, "bike_id": "a437a695121a45a66e4cd7aea5244ec8", "is_disabled": 0, "lon": -77.03960533333333, "is_reserved": 0, "fusion_lat": 0.0, "type": "electric_scooter"}, {"fusion_lon": 0.0, "name": "0e752892f4cd97e5c25915a15675d2c5", "rental_uris": {"android": "https://dc.lft.to/lastmile_qr_scan", "ios": "https://dc.lft.to/lastmile_qr_scan"}, "lat": 38.89346616666667, "bike_id": "0e752892f4cd97e5c25915a15675d2c5", "is_disabled": 0, "lon": -76.99384166666667, "is_reserved": 0, "fusion_lat": 0.0, "type": "electric_scooter"}, {"fusion_lon": 0.0, "name": "dadb63aef8ec8b96d7d5bada615a2d35", "rental_uris": {"android": "https://dc.lft.to/lastmile_qr_scan", "ios": "https://dc.lft.to/lastmile_qr_scan"}, "lat": 38.90087716666667, "bike_id": "dadb63aef8ec8b96d7d5bada615a2d35", "is_disabled": 0, "lon": -77.03666716666666, "is_reserved": 0, "fusion_lat": 0.0, "type": "electric_scooter"}, {"fusion_lon": 0.0, "name": "863ae9db9f7abc1c03ab74de33c727ac", "rental_uris": {"android": "https://dc.lft.to/lastmile_qr_scan", "ios": "https://dc.lft.to/lastmile_qr_scan"}, "lat": 38.928968833333336, "bike_id": "863ae9db9f7abc1c03ab74de33c727ac", "is_disabled": 0, "lon": -77.03489533333334, "is_reserved": 0, "fusion_lat": 0.0, "type": "electric_scooter"}, {"fusion_lon": 0.0, "name": "c6cb941d952910917c6c55d432eb4026", "rental_uris": {"android": "https://dc.lft.to/lastmile_qr_scan", "ios": "https://dc.lft.to/lastmile_qr_scan"}, "lat": 38.895449166666666, "bike_id": "c6cb941d952910917c6c55d432eb4026", "is_disabled": 0, "lon": -76.98895866666666, "is_reserved": 0, "fusion_lat": 0.0, "type": "electric_scooter"}, {"fusion_lon": 0.0, "name": "00a67e3acbd86383e634a8ac0c9947da", "rental_uris": {"android": "https://dc.lft.to/lastmile_qr_scan", "ios": "https://dc.lft.to/lastmile_qr_scan"}, "lat": 38.893387, "bike_id": "00a67e3acbd86383e634a8ac0c9947da", "is_disabled": 0, "lon": -77.03173016666666, "is_reserved": 0, "fusion_lat": 0.0, "type": "electric_scooter"}, {"fusion_lon": 0.0, "name": "c22b829952e480cce29e3473a4ce2dc2", "rental_uris": {"android": "https://dc.lft.to/lastmile_qr_scan", "ios": "https://dc.lft.to/lastmile_qr_scan"}, "lat": 38.92821083333333, "bike_id": "c22b829952e480cce29e3473a4ce2dc2", "is_disabled": 0, "lon": -77.03276216666667, "is_reserved": 0, "fusion_lat": 0.0, "type": "electric_scooter"}, {"fusion_lon": 0.0, "name": "b11e6bf4c71a7a38129b5b9140afc411", "rental_uris": {"android": "https://dc.lft.to/lastmile_qr_scan", "ios": "https://dc.lft.to/lastmile_qr_scan"}, "lat": 38.935358666666666, "bike_id": "b11e6bf4c71a7a38129b5b9140afc411", "is_disabled": 0, "lon": -77.02850866666667, "is_reserved": 0, "fusion_lat": 0.0, "type": "electric_scooter"}, {"fusion_lon": 0.0, "name": "d651bce9b867f62678f4edf3d473f7d0", "rental_uris": {"android": "https://dc.lft.to/lastmile_qr_scan", "ios": "https://dc.lft.to/lastmile_qr_scan"}, "lat": 38.8782245, "bike_id": "d651bce9b867f62678f4edf3d473f7d0", "is_disabled": 0, "lon": -77.0047545, "is_reserved": 0, "fusion_lat": 0.0, "type": "electric_scooter"}, {"fusion_lon": 0.0, "name": "809985ab0e0f41b31a6a2c38390fa4d2", "rental_uris": {"android": "https://dc.lft.to/lastmile_qr_scan", "ios": "https://dc.lft.to/lastmile_qr_scan"}, "lat": 38.885308, "bike_id": "809985ab0e0f41b31a6a2c38390fa4d2", "is_disabled": 0, "lon": -76.9795555, "is_reserved": 0, "fusion_lat": 0.0, "type": "electric_scooter"}, {"fusion_lon": 0.0, "name": "f5cbb8060a04626603aa962e6aeb6a9d", "rental_uris": {"android": "https://dc.lft.to/lastmile_qr_scan", "ios": "https://dc.lft.to/lastmile_qr_scan"}, "lat": 38.896666333333336, "bike_id": "f5cbb8060a04626603aa962e6aeb6a9d", "is_disabled": 0, "lon": -77.02736866666666, "is_reserved": 0, "fusion_lat": 0.0, "type": "electric_scooter"}, {"fusion_lon": 0.0, "name": "95b6b49f486af48336e4c72c81611d5e", "rental_uris": {"android": "https://dc.lft.to/lastmile_qr_scan", "ios": "https://dc.lft.to/lastmile_qr_scan"}, "lat": 38.935204166666665, "bike_id": "95b6b49f486af48336e4c72c81611d5e", "is_disabled": 0, "lon": -77.03377283333333, "is_reserved": 0, "fusion_lat": 0.0, "type": "electric_scooter"}, {"fusion_lon": 0.0, "name": "9bc7052c1d14397f4071ee786efcc6e7", "rental_uris": {"android": "https://dc.lft.to/lastmile_qr_scan", "ios": "https://dc.lft.to/lastmile_qr_scan"}, "lat": 38.90263433333333, "bike_id": "9bc7052c1d14397f4071ee786efcc6e7", "is_disabled": 0, "lon": -77.01766333333333, "is_reserved": 0, "fusion_lat": 0.0, "type": "electric_scooter"}, {"fusion_lon": 0.0, "name": "d9303ba5cb20ba5c4227a709cdeaf204", "rental_uris": {"android": "https://dc.lft.to/lastmile_qr_scan", "ios": "https://dc.lft.to/lastmile_qr_scan"}, "lat": 38.8951025, "bike_id": "d9303ba5cb20ba5c4227a709cdeaf204", "is_disabled": 0, "lon": -77.01100133333334, "is_reserved": 0, "fusion_lat": 0.0, "type": "electric_scooter"}, {"fusion_lon": 0.0, "name": "7fa34ecc1185af4f190c4f6c17191b7d", "rental_uris": {"android": "https://dc.lft.to/lastmile_qr_scan", "ios": "https://dc.lft.to/lastmile_qr_scan"}, "lat": 38.89165283333333, "bike_id": "7fa34ecc1185af4f190c4f6c17191b7d", "is_disabled": 0, "lon": -77.02181483333334, "is_reserved": 0, "fusion_lat": 0.0, "type": "electric_scooter"}, {"fusion_lon": 0.0, "name": "781275e5c42b0981f3d111c44600d59f", "rental_uris": {"android": "https://dc.lft.to/lastmile_qr_scan", "ios": "https://dc.lft.to/lastmile_qr_scan"}, "lat": 38.935562166666664, "bike_id": "781275e5c42b0981f3d111c44600d59f", "is_disabled": 0, "lon": -76.998033, "is_reserved": 0, "fusion_lat": 0.0, "type": "electric_scooter"}, {"fusion_lon": 0.0, "name": "8a5dddb7793c793c75e30f60fba5f5db", "rental_uris": {"android": "https://dc.lft.to/lastmile_qr_scan", "ios": "https://dc.lft.to/lastmile_qr_scan"}, "lat": 38.9057345, "bike_id": "8a5dddb7793c793c75e30f60fba5f5db", "is_disabled": 0, "lon": -77.021756, "is_reserved": 0, "fusion_lat": 0.0, "type": "electric_scooter"}, {"fusion_lon": 0.0, "name": "53c6e447a8f68021b381c7b3f2433480", "rental_uris": {"android": "https://dc.lft.to/lastmile_qr_scan", "ios": "https://dc.lft.to/lastmile_qr_scan"}, "lat": 38.928991333333336, "bike_id": "53c6e447a8f68021b381c7b3f2433480", "is_disabled": 0, "lon": -77.03482266666667, "is_reserved": 0, "fusion_lat": 0.0, "type": "electric_scooter"}, {"fusion_lon": 0.0, "name": "a17753d437bf68eeaedec44dbfee8527", "rental_uris": {"android": "https://dc.lft.to/lastmile_qr_scan", "ios": "https://dc.lft.to/lastmile_qr_scan"}, "lat": 38.9018345, "bike_id": "a17753d437bf68eeaedec44dbfee8527", "is_disabled": 0, "lon": -77.04664166666667, "is_reserved": 0, "fusion_lat": 0.0, "type": "electric_scooter"}, {"fusion_lon": 0.0, "name": "3a6236132d0a02926da8b1cc4ea5351a", "rental_uris": {"android": "https://dc.lft.to/lastmile_qr_scan", "ios": "https://dc.lft.to/lastmile_qr_scan"}, "lat": 38.900289666666666, "bike_id": "3a6236132d0a02926da8b1cc4ea5351a", "is_disabled": 0, "lon": -76.986861, "is_reserved": 0, "fusion_lat": 0.0, "type": "electric_scooter"}, {"fusion_lon": 0.0, "name": "c820de1c2c55a3bc467997788b27b53e", "rental_uris": {"android": "https://dc.lft.to/lastmile_qr_scan", "ios": "https://dc.lft.to/lastmile_qr_scan"}, "lat": 38.90444883333333, "bike_id": "c820de1c2c55a3bc467997788b27b53e", "is_disabled": 0, "lon": -77.05316766666667, "is_reserved": 0, "fusion_lat": 0.0, "type": "electric_scooter"}, {"fusion_lon": 0.0, "name": "d72732a0a070961b7443544a0ee6cc42", "rental_uris": {"android": "https://dc.lft.to/lastmile_qr_scan", "ios": "https://dc.lft.to/lastmile_qr_scan"}, "lat": 38.932684333333334, "bike_id": "d72732a0a070961b7443544a0ee6cc42", "is_disabled": 0, "lon": -77.03861483333333, "is_reserved": 0, "fusion_lat": 0.0, "type": "electric_scooter"}, {"fusion_lon": 0.0, "name": "5400bbc819a4cc361339ae989b4e22b8", "rental_uris": {"android": "https://dc.lft.to/lastmile_qr_scan", "ios": "https://dc.lft.to/lastmile_qr_scan"}, "lat": 38.89879233333333, "bike_id": "5400bbc819a4cc361339ae989b4e22b8", "is_disabled": 0, "lon": -76.9318405, "is_reserved": 0, "fusion_lat": 0.0, "type": "electric_scooter"}, {"fusion_lon": 0.0, "name": "980154c1510a1aa9b02fa6b867e0a548", "rental_uris": {"android": "https://dc.lft.to/lastmile_qr_scan", "ios": "https://dc.lft.to/lastmile_qr_scan"}, "lat": 38.93354383333333, "bike_id": "980154c1510a1aa9b02fa6b867e0a548", "is_disabled": 0, "lon": -77.0857105, "is_reserved": 0, "fusion_lat": 0.0, "type": "electric_scooter"}, {"fusion_lon": 0.0, "name": "89f986af38f9becd93870ac597da28b5", "rental_uris": {"android": "https://dc.lft.to/lastmile_qr_scan", "ios": "https://dc.lft.to/lastmile_qr_scan"}, "lat": 38.920389166666666, "bike_id": "89f986af38f9becd93870ac597da28b5", "is_disabled": 0, "lon": -76.9795525, "is_reserved": 0, "fusion_lat": 0.0, "type": "electric_bike"}, {"fusion_lon": 0.0, "name": "2ac2ccc0e13f5ff24f33079e0602461e", "rental_uris": {"android": "https://dc.lft.to/lastmile_qr_scan", "ios": "https://dc.lft.to/lastmile_qr_scan"}, "lat": 39.010998, "bike_id": "2ac2ccc0e13f5ff24f33079e0602461e", "is_disabled": 0, "lon": -77.04960083333333, "is_reserved": 0, "fusion_lat": 0.0, "type": "electric_bike"}, {"fusion_lon": 0.0, "name": "9574cbd85b6fd19fabcc99376e427502", "rental_uris": {"android": "https://dc.lft.to/lastmile_qr_scan", "ios": "https://dc.lft.to/lastmile_qr_scan"}, "lat": 38.81338016666667, "bike_id": "9574cbd85b6fd19fabcc99376e427502", "is_disabled": 0, "lon": -77.05092133333333, "is_reserved": 0, "fusion_lat": 0.0, "type": "electric_bike"}, {"fusion_lon": 0.0, "name": "614da3def79e31d2722a3b360ae7f71a", "rental_uris": {"android": "https://dc.lft.to/lastmile_qr_scan", "ios": "https://dc.lft.to/lastmile_qr_scan"}, "lat": 38.885044, "bike_id": "614da3def79e31d2722a3b360ae7f71a", "is_disabled": 0, "lon": -77.00220533333334, "is_reserved": 0, "fusion_lat": 0.0, "type": "electric_scooter"}, {"fusion_lon": 0.0, "name": "b8a525216bb6dc3d58c56e81b65cf9cd", "rental_uris": {"android": "https://dc.lft.to/lastmile_qr_scan", "ios": "https://dc.lft.to/lastmile_qr_scan"}, "lat": 38.9038885, "bike_id": "b8a525216bb6dc3d58c56e81b65cf9cd", "is_disabled": 0, "lon": -77.02830216666666, "is_reserved": 0, "fusion_lat": 0.0, "type": "electric_scooter"}, {"fusion_lon": 0.0, "name": "4f1fa586b80dc803284f5b00d14f9f09", "rental_uris": {"android": "https://dc.lft.to/lastmile_qr_scan", "ios": "https://dc.lft.to/lastmile_qr_scan"}, "lat": 38.91331783333333, "bike_id": "4f1fa586b80dc803284f5b00d14f9f09", "is_disabled": 0, "lon": -77.03199383333333, "is_reserved": 0, "fusion_lat": 0.0, "type": "electric_scooter"}, {"fusion_lon": 0.0, "name": "12124a7351f2f54d0e15c9bd97de4a8b", "rental_uris": {"android": "https://dc.lft.to/lastmile_qr_scan", "ios": "https://dc.lft.to/lastmile_qr_scan"}, "lat": 38.91362, "bike_id": "12124a7351f2f54d0e15c9bd97de4a8b", "is_disabled": 0, "lon": -77.019925, "is_reserved": 0, "fusion_lat": 0.0, "type": "electric_scooter"}, {"fusion_lon": 0.0, "name": "67bb708b8e03f2e7a27cd98d3a191154", "rental_uris": {"android": "https://dc.lft.to/lastmile_qr_scan", "ios": "https://dc.lft.to/lastmile_qr_scan"}, "lat": 38.90738966666667, "bike_id": "67bb708b8e03f2e7a27cd98d3a191154", "is_disabled": 0, "lon": -77.013082, "is_reserved": 0, "fusion_lat": 0.0, "type": "electric_scooter"}, {"fusion_lon": 0.0, "name": "6575ef01cd91d754e8f4f8578c84bb4e", "rental_uris": {"android": "https://dc.lft.to/lastmile_qr_scan", "ios": "https://dc.lft.to/lastmile_qr_scan"}, "lat": 38.90315583333334, "bike_id": "6575ef01cd91d754e8f4f8578c84bb4e", "is_disabled": 0, "lon": -77.02203816666666, "is_reserved": 0, "fusion_lat": 0.0, "type": "electric_scooter"}, {"fusion_lon": 0.0, "name": "37020ba8401ee46f141b49ce6b9b53b6", "rental_uris": {"android": "https://dc.lft.to/lastmile_qr_scan", "ios": "https://dc.lft.to/lastmile_qr_scan"}, "lat": 38.910587666666665, "bike_id": "37020ba8401ee46f141b49ce6b9b53b6", "is_disabled": 0, "lon": -77.02190166666666, "is_reserved": 0, "fusion_lat": 0.0, "type": "electric_scooter"}, {"fusion_lon": 0.0, "name": "fe227533c7e645121ac5c90d83e1bf5f", "rental_uris": {"android": "https://dc.lft.to/lastmile_qr_scan", "ios": "https://dc.lft.to/lastmile_qr_scan"}, "lat": 38.91483266666667, "bike_id": "fe227533c7e645121ac5c90d83e1bf5f", "is_disabled": 0, "lon": -77.03246566666667, "is_reserved": 0, "fusion_lat": 0.0, "type": "electric_scooter"}, {"fusion_lon": 0.0, "name": "82b3398c5b4647f4a544e51545bfbc35", "rental_uris": {"android": "https://dc.lft.to/lastmile_qr_scan", "ios": "https://dc.lft.to/lastmile_qr_scan"}, "lat": 38.926033, "bike_id": "82b3398c5b4647f4a544e51545bfbc35", "is_disabled": 0, "lon": -77.02154116666667, "is_reserved": 0, "fusion_lat": 0.0, "type": "electric_scooter"}, {"fusion_lon": 0.0, "name": "dfb7868f824cd690381c05d0671119e1", "rental_uris": {"android": "https://dc.lft.to/lastmile_qr_scan", "ios": "https://dc.lft.to/lastmile_qr_scan"}, "lat": 38.865306833333335, "bike_id": "dfb7868f824cd690381c05d0671119e1", "is_disabled": 0, "lon": -76.96904, "is_reserved": 0, "fusion_lat": 0.0, "type": "electric_scooter"}, {"fusion_lon": 0.0, "name": "30cbb6623389070f5c8e14ed3d6a770a", "rental_uris": {"android": "https://dc.lft.to/lastmile_qr_scan", "ios": "https://dc.lft.to/lastmile_qr_scan"}, "lat": 38.896185, "bike_id": "30cbb6623389070f5c8e14ed3d6a770a", "is_disabled": 0, "lon": -77.04074216666666, "is_reserved": 0, "fusion_lat": 0.0, "type": "electric_scooter"}, {"fusion_lon": 0.0, "name": "f20510f4ab0381e322a8b5753dcebc45", "rental_uris": {"android": "https://dc.lft.to/lastmile_qr_scan", "ios": "https://dc.lft.to/lastmile_qr_scan"}, "lat": 38.884421333333336, "bike_id": "f20510f4ab0381e322a8b5753dcebc45", "is_disabled": 0, "lon": -76.95763916666667, "is_reserved": 0, "fusion_lat": 0.0, "type": "electric_scooter"}, {"fusion_lon": 0.0, "name": "f7cd2e14a95b1d92849ab663385fc683", "rental_uris": {"android": "https://dc.lft.to/lastmile_qr_scan", "ios": "https://dc.lft.to/lastmile_qr_scan"}, "lat": 38.8922655, "bike_id": "f7cd2e14a95b1d92849ab663385fc683", "is_disabled": 0, "lon": -77.02563866666667, "is_reserved": 0, "fusion_lat": 0.0, "type": "electric_scooter"}, {"fusion_lon": 0.0, "name": "6fe47d4fa2db72561710ed93d7dd1c5f", "rental_uris": {"android": "https://dc.lft.to/lastmile_qr_scan", "ios": "https://dc.lft.to/lastmile_qr_scan"}, "lat": 38.907318833333335, "bike_id": "6fe47d4fa2db72561710ed93d7dd1c5f", "is_disabled": 0, "lon": -77.05010016666667, "is_reserved": 0, "fusion_lat": 0.0, "type": "electric_scooter"}, {"fusion_lon": 0.0, "name": "e79fecd2353477cb78c6b8e3d5bd6d73", "rental_uris": {"android": "https://dc.lft.to/lastmile_qr_scan", "ios": "https://dc.lft.to/lastmile_qr_scan"}, "lat": 38.90390883333333, "bike_id": "e79fecd2353477cb78c6b8e3d5bd6d73", "is_disabled": 0, "lon": -77.03442216666667, "is_reserved": 0, "fusion_lat": 0.0, "type": "electric_scooter"}, {"fusion_lon": 0.0, "name": "98d797b0b5d588587a154053e2d34003", "rental_uris": {"android": "https://dc.lft.to/lastmile_qr_scan", "ios": "https://dc.lft.to/lastmile_qr_scan"}, "lat": 38.8898885, "bike_id": "98d797b0b5d588587a154053e2d34003", "is_disabled": 0, "lon": -77.003139, "is_reserved": 0, "fusion_lat": 0.0, "type": "electric_scooter"}, {"fusion_lon": 0.0, "name": "a07f4207815c07ae4c37dc3e2663a52d", "rental_uris": {"android": "https://dc.lft.to/lastmile_qr_scan", "ios": "https://dc.lft.to/lastmile_qr_scan"}, "lat": 38.90722183333333, "bike_id": "a07f4207815c07ae4c37dc3e2663a52d", "is_disabled": 0, "lon": -77.03942383333333, "is_reserved": 0, "fusion_lat": 0.0, "type": "electric_scooter"}, {"fusion_lon": 0.0, "name": "6f618b5803689a0618c92bc846cbb0a6", "rental_uris": {"android": "https://dc.lft.to/lastmile_qr_scan", "ios": "https://dc.lft.to/lastmile_qr_scan"}, "lat": 38.961241333333334, "bike_id": "6f618b5803689a0618c92bc846cbb0a6", "is_disabled": 0, "lon": -77.02789416666667, "is_reserved": 0, "fusion_lat": 0.0, "type": "electric_scooter"}, {"fusion_lon": 0.0, "name": "197d1b39f11a02adf4283eeb0308398b", "rental_uris": {"android": "https://dc.lft.to/lastmile_qr_scan", "ios": "https://dc.lft.to/lastmile_qr_scan"}, "lat": 38.90157166666667, "bike_id": "197d1b39f11a02adf4283eeb0308398b", "is_disabled": 0, "lon": -77.04178483333334, "is_reserved": 0, "fusion_lat": 0.0, "type": "electric_scooter"}, {"fusion_lon": 0.0, "name": "6ff414043b91de87c37cec14adb34373", "rental_uris": {"android": "https://dc.lft.to/lastmile_qr_scan", "ios": "https://dc.lft.to/lastmile_qr_scan"}, "lat": 38.898973, "bike_id": "6ff414043b91de87c37cec14adb34373", "is_disabled": 0, "lon": -76.97602, "is_reserved": 0, "fusion_lat": 0.0, "type": "electric_scooter"}, {"fusion_lon": 0.0, "name": "821abc7f32025d31c302e009f097633a", "rental_uris": {"android": "https://dc.lft.to/lastmile_qr_scan", "ios": "https://dc.lft.to/lastmile_qr_scan"}, "lat": 38.929424, "bike_id": "821abc7f32025d31c302e009f097633a", "is_disabled": 0, "lon": -77.03247416666666, "is_reserved": 0, "fusion_lat": 0.0, "type": "electric_scooter"}, {"fusion_lon": 0.0, "name": "9ab106360021e917046f536bfb3795c1", "rental_uris": {"android": "https://dc.lft.to/lastmile_qr_scan", "ios": "https://dc.lft.to/lastmile_qr_scan"}, "lat": 38.929346333333335, "bike_id": "9ab106360021e917046f536bfb3795c1", "is_disabled": 0, "lon": -77.03283366666666, "is_reserved": 0, "fusion_lat": 0.0, "type": "electric_scooter"}, {"fusion_lon": 0.0, "name": "cd27977dde78a209a17885812c791eb5", "rental_uris": {"android": "https://dc.lft.to/lastmile_qr_scan", "ios": "https://dc.lft.to/lastmile_qr_scan"}, "lat": 38.90514733333333, "bike_id": "cd27977dde78a209a17885812c791eb5", "is_disabled": 0, "lon": -77.04349833333333, "is_reserved": 0, "fusion_lat": 0.0, "type": "electric_scooter"}, {"fusion_lon": 0.0, "name": "5a51f92e4abdf15ee47a0bb9d6e3736d", "rental_uris": {"android": "https://dc.lft.to/lastmile_qr_scan", "ios": "https://dc.lft.to/lastmile_qr_scan"}, "lat": 38.913661166666664, "bike_id": "5a51f92e4abdf15ee47a0bb9d6e3736d", "is_disabled": 0, "lon": -77.0918835, "is_reserved": 0, "fusion_lat": 0.0, "type": "electric_scooter"}, {"fusion_lon": 0.0, "name": "7a64aecc5ba19fee2924b0a6a45feabe", "rental_uris": {"android": "https://dc.lft.to/lastmile_qr_scan", "ios": "https://dc.lft.to/lastmile_qr_scan"}, "lat": 38.90373783333333, "bike_id": "7a64aecc5ba19fee2924b0a6a45feabe", "is_disabled": 0, "lon": -77.03849916666667, "is_reserved": 0, "fusion_lat": 0.0, "type": "electric_scooter"}, {"fusion_lon": 0.0, "name": "d93ae6b201dd055a528a595c90db2e4e", "rental_uris": {"android": "https://dc.lft.to/lastmile_qr_scan", "ios": "https://dc.lft.to/lastmile_qr_scan"}, "lat": 38.919245333333336, "bike_id": "d93ae6b201dd055a528a595c90db2e4e", "is_disabled": 0, "lon": -77.00973333333333, "is_reserved": 0, "fusion_lat": 0.0, "type": "electric_scooter"}, {"fusion_lon": 0.0, "name": "bd14949d8770493208aa9f30dc09f11f", "rental_uris": {"android": "https://dc.lft.to/lastmile_qr_scan", "ios": "https://dc.lft.to/lastmile_qr_scan"}, "lat": 38.903495, "bike_id": "bd14949d8770493208aa9f30dc09f11f", "is_disabled": 0, "lon": -77.02613083333334, "is_reserved": 0, "fusion_lat": 0.0, "type": "electric_scooter"}, {"fusion_lon": 0.0, "name": "6bee828108e4025aa31ebfc7d24b4270", "rental_uris": {"android": "https://dc.lft.to/lastmile_qr_scan", "ios": "https://dc.lft.to/lastmile_qr_scan"}, "lat": 38.906189166666664, "bike_id": "6bee828108e4025aa31ebfc7d24b4270", "is_disabled": 0, "lon": -76.95011083333333, "is_reserved": 0, "fusion_lat": 0.0, "type": "electric_scooter"}, {"fusion_lon": 0.0, "name": "7173a0f2a6a3f37cbefb7647059f0e7c", "rental_uris": {"android": "https://dc.lft.to/lastmile_qr_scan", "ios": "https://dc.lft.to/lastmile_qr_scan"}, "lat": 38.8851285, "bike_id": "7173a0f2a6a3f37cbefb7647059f0e7c", "is_disabled": 0, "lon": -77.01117366666666, "is_reserved": 0, "fusion_lat": 0.0, "type": "electric_scooter"}, {"fusion_lon": 0.0, "name": "118eb5ed0b0609d4547a96df9ca3166f", "rental_uris": {"android": "https://dc.lft.to/lastmile_qr_scan", "ios": "https://dc.lft.to/lastmile_qr_scan"}, "lat": 38.96127416666667, "bike_id": "118eb5ed0b0609d4547a96df9ca3166f", "is_disabled": 0, "lon": -77.02796166666667, "is_reserved": 0, "fusion_lat": 0.0, "type": "electric_scooter"}, {"fusion_lon": 0.0, "name": "a44425eeaa4057fb4e5aa567c2eaf9f5", "rental_uris": {"android": "https://dc.lft.to/lastmile_qr_scan", "ios": "https://dc.lft.to/lastmile_qr_scan"}, "lat": 38.88641916666667, "bike_id": "a44425eeaa4057fb4e5aa567c2eaf9f5", "is_disabled": 0, "lon": -77.01526166666666, "is_reserved": 0, "fusion_lat": 0.0, "type": "electric_scooter"}, {"fusion_lon": 0.0, "name": "77327d0ef898b134c760245d4635bd77", "rental_uris": {"android": "https://dc.lft.to/lastmile_qr_scan", "ios": "https://dc.lft.to/lastmile_qr_scan"}, "lat": 38.90450166666667, "bike_id": "77327d0ef898b134c760245d4635bd77", "is_disabled": 0, "lon": -77.051372, "is_reserved": 0, "fusion_lat": 0.0, "type": "electric_scooter"}, {"fusion_lon": 0.0, "name": "4e2045d6104872ee7d33f424364e766f", "rental_uris": {"android": "https://dc.lft.to/lastmile_qr_scan", "ios": "https://dc.lft.to/lastmile_qr_scan"}, "lat": 38.91912283333333, "bike_id": "4e2045d6104872ee7d33f424364e766f", "is_disabled": 0, "lon": -77.02140516666667, "is_reserved": 0, "fusion_lat": 0.0, "type": "electric_scooter"}, {"fusion_lon": 0.0, "name": "ff209310ca29385ec85358a1a7f5c236", "rental_uris": {"android": "https://dc.lft.to/lastmile_qr_scan", "ios": "https://dc.lft.to/lastmile_qr_scan"}, "lat": 38.923500833333335, "bike_id": "ff209310ca29385ec85358a1a7f5c236", "is_disabled": 0, "lon": -77.01905866666667, "is_reserved": 0, "fusion_lat": 0.0, "type": "electric_scooter"}, {"fusion_lon": 0.0, "name": "3cd7a4b77af60fad6dfcceebf99a0016", "rental_uris": {"android": "https://dc.lft.to/lastmile_qr_scan", "ios": "https://dc.lft.to/lastmile_qr_scan"}, "lat": 38.906126, "bike_id": "3cd7a4b77af60fad6dfcceebf99a0016", "is_disabled": 0, "lon": -77.04488416666666, "is_reserved": 0, "fusion_lat": 0.0, "type": "electric_scooter"}, {"fusion_lon": 0.0, "name": "8bcae691464370221fa51cef833cfc6e", "rental_uris": {"android": "https://dc.lft.to/lastmile_qr_scan", "ios": "https://dc.lft.to/lastmile_qr_scan"}, "lat": 38.89972783333333, "bike_id": "8bcae691464370221fa51cef833cfc6e", "is_disabled": 0, "lon": -76.93753566666666, "is_reserved": 0, "fusion_lat": 0.0, "type": "electric_scooter"}, {"fusion_lon": 0.0, "name": "42f2b47441c21f4cb0f0bd96dc3a2ab4", "rental_uris": {"android": "https://dc.lft.to/lastmile_qr_scan", "ios": "https://dc.lft.to/lastmile_qr_scan"}, "lat": 38.9224105, "bike_id": "42f2b47441c21f4cb0f0bd96dc3a2ab4", "is_disabled": 0, "lon": -77.02148883333334, "is_reserved": 0, "fusion_lat": 0.0, "type": "electric_scooter"}, {"fusion_lon": 0.0, "name": "f289b7d095de15f7176a981b054b0aca", "rental_uris": {"android": "https://dc.lft.to/lastmile_qr_scan", "ios": "https://dc.lft.to/lastmile_qr_scan"}, "lat": 38.884002333333335, "bike_id": "f289b7d095de15f7176a981b054b0aca", "is_disabled": 0, "lon": -77.01773466666667, "is_reserved": 0, "fusion_lat": 0.0, "type": "electric_scooter"}, {"fusion_lon": 0.0, "name": "da7a46f6d66cd38179bcbe430fbe928d", "rental_uris": {"android": "https://dc.lft.to/lastmile_qr_scan", "ios": "https://dc.lft.to/lastmile_qr_scan"}, "lat": 38.928859, "bike_id": "da7a46f6d66cd38179bcbe430fbe928d", "is_disabled": 0, "lon": -77.03478783333334, "is_reserved": 0, "fusion_lat": 0.0, "type": "electric_scooter"}, {"fusion_lon": 0.0, "name": "3fe2ac4916d82b0fc8ce71ea488469ff", "rental_uris": {"android": "https://dc.lft.to/lastmile_qr_scan", "ios": "https://dc.lft.to/lastmile_qr_scan"}, "lat": 38.9112035, "bike_id": "3fe2ac4916d82b0fc8ce71ea488469ff", "is_disabled": 0, "lon": -77.04236216666666, "is_reserved": 0, "fusion_lat": 0.0, "type": "electric_scooter"}, {"fusion_lon": 0.0, "name": "8971e6e1ad557b4ff7368d36122f08cd", "rental_uris": {"android": "https://dc.lft.to/lastmile_qr_scan", "ios": "https://dc.lft.to/lastmile_qr_scan"}, "lat": 38.88372783333333, "bike_id": "8971e6e1ad557b4ff7368d36122f08cd", "is_disabled": 0, "lon": -76.92418416666666, "is_reserved": 0, "fusion_lat": 0.0, "type": "electric_scooter"}, {"fusion_lon": 0.0, "name": "7cec6f362b4d5dbfdbba2db8d762ceb4", "rental_uris": {"android": "https://dc.lft.to/lastmile_qr_scan", "ios": "https://dc.lft.to/lastmile_qr_scan"}, "lat": 38.89854066666667, "bike_id": "7cec6f362b4d5dbfdbba2db8d762ceb4", "is_disabled": 0, "lon": -77.043721, "is_reserved": 0, "fusion_lat": 0.0, "type": "electric_scooter"}, {"fusion_lon": 0.0, "name": "c98273a0b742bc96e22920cbce4f3ed3", "rental_uris": {"android": "https://dc.lft.to/lastmile_qr_scan", "ios": "https://dc.lft.to/lastmile_qr_scan"}, "lat": 38.89911083333333, "bike_id": "c98273a0b742bc96e22920cbce4f3ed3", "is_disabled": 0, "lon": -77.032985, "is_reserved": 0, "fusion_lat": 0.0, "type": "electric_scooter"}, {"fusion_lon": 0.0, "name": "bed50a063cd54e1c244680dc1b1e47e1", "rental_uris": {"android": "https://dc.lft.to/lastmile_qr_scan", "ios": "https://dc.lft.to/lastmile_qr_scan"}, "lat": 38.90836133333333, "bike_id": "bed50a063cd54e1c244680dc1b1e47e1", "is_disabled": 0, "lon": -77.07301216666667, "is_reserved": 0, "fusion_lat": 0.0, "type": "electric_scooter"}, {"fusion_lon": 0.0, "name": "941813d15c7ac9ff12fd19de71638dec", "rental_uris": {"android": "https://dc.lft.to/lastmile_qr_scan", "ios": "https://dc.lft.to/lastmile_qr_scan"}, "lat": 38.9236345, "bike_id": "941813d15c7ac9ff12fd19de71638dec", "is_disabled": 0, "lon": -77.05049416666667, "is_reserved": 0, "fusion_lat": 0.0, "type": "electric_scooter"}, {"fusion_lon": 0.0, "name": "86028e51ca8d61577765fc47590c7320", "rental_uris": {"android": "https://dc.lft.to/lastmile_qr_scan", "ios": "https://dc.lft.to/lastmile_qr_scan"}, "lat": 38.910511666666665, "bike_id": "86028e51ca8d61577765fc47590c7320", "is_disabled": 0, "lon": -77.04373816666667, "is_reserved": 0, "fusion_lat": 0.0, "type": "electric_scooter"}, {"fusion_lon": 0.0, "name": "26378845f3d7a1fc008233599b389c3e", "rental_uris": {"android": "https://dc.lft.to/lastmile_qr_scan", "ios": "https://dc.lft.to/lastmile_qr_scan"}, "lat": 38.91418083333333, "bike_id": "26378845f3d7a1fc008233599b389c3e", "is_disabled": 0, "lon": -77.01804433333334, "is_reserved": 0, "fusion_lat": 0.0, "type": "electric_scooter"}, {"fusion_lon": 0.0, "name": "eca4bb7fa961296add9b54e9c27bd06a", "rental_uris": {"android": "https://dc.lft.to/lastmile_qr_scan", "ios": "https://dc.lft.to/lastmile_qr_scan"}, "lat": 38.92604816666667, "bike_id": "eca4bb7fa961296add9b54e9c27bd06a", "is_disabled": 0, "lon": -77.021572, "is_reserved": 0, "fusion_lat": 0.0, "type": "electric_scooter"}, {"fusion_lon": 0.0, "name": "de5798de4f7c7274c26d866945f9ff44", "rental_uris": {"android": "https://dc.lft.to/lastmile_qr_scan", "ios": "https://dc.lft.to/lastmile_qr_scan"}, "lat": 38.92923916666667, "bike_id": "de5798de4f7c7274c26d866945f9ff44", "is_disabled": 0, "lon": -76.99815733333334, "is_reserved": 0, "fusion_lat": 0.0, "type": "electric_scooter"}, {"fusion_lon": 0.0, "name": "f17246e2f6b68b216d6de4f95daaf80c", "rental_uris": {"android": "https://dc.lft.to/lastmile_qr_scan", "ios": "https://dc.lft.to/lastmile_qr_scan"}, "lat": 38.921566, "bike_id": "f17246e2f6b68b216d6de4f95daaf80c", "is_disabled": 0, "lon": -77.033775, "is_reserved": 0, "fusion_lat": 0.0, "type": "electric_scooter"}, {"fusion_lon": 0.0, "name": "a301e9db64437cb7d3be45af3adc592c", "rental_uris": {"android": "https://dc.lft.to/lastmile_qr_scan", "ios": "https://dc.lft.to/lastmile_qr_scan"}, "lat": 38.935090833333334, "bike_id": "a301e9db64437cb7d3be45af3adc592c", "is_disabled": 0, "lon": -77.02010016666667, "is_reserved": 0, "fusion_lat": 0.0, "type": "electric_scooter"}, {"fusion_lon": 0.0, "name": "8d99d3213e10d23d1715b6744785a4cb", "rental_uris": {"android": "https://dc.lft.to/lastmile_qr_scan", "ios": "https://dc.lft.to/lastmile_qr_scan"}, "lat": 38.92801516666667, "bike_id": "8d99d3213e10d23d1715b6744785a4cb", "is_disabled": 0, "lon": -77.033754, "is_reserved": 0, "fusion_lat": 0.0, "type": "electric_scooter"}, {"fusion_lon": 0.0, "name": "7c409b3ae810762f72e704a43e89fb7f", "rental_uris": {"android": "https://dc.lft.to/lastmile_qr_scan", "ios": "https://dc.lft.to/lastmile_qr_scan"}, "lat": 38.896987833333334, "bike_id": "7c409b3ae810762f72e704a43e89fb7f", "is_disabled": 0, "lon": -77.043416, "is_reserved": 0, "fusion_lat": 0.0, "type": "electric_scooter"}, {"fusion_lon": 0.0, "name": "a207fb98029eea5f2d7a21c6b5fa8c51", "rental_uris": {"android": "https://dc.lft.to/lastmile_qr_scan", "ios": "https://dc.lft.to/lastmile_qr_scan"}, "lat": 38.920005833333335, "bike_id": "a207fb98029eea5f2d7a21c6b5fa8c51", "is_disabled": 0, "lon": -77.02702083333334, "is_reserved": 0, "fusion_lat": 0.0, "type": "electric_scooter"}, {"fusion_lon": 0.0, "name": "9c34979384b244600b0a136dc4a689cc", "rental_uris": {"android": "https://dc.lft.to/lastmile_qr_scan", "ios": "https://dc.lft.to/lastmile_qr_scan"}, "lat": 38.920592666666664, "bike_id": "9c34979384b244600b0a136dc4a689cc", "is_disabled": 0, "lon": -76.97073283333333, "is_reserved": 0, "fusion_lat": 0.0, "type": "electric_bike"}, {"fusion_lon": 0.0, "name": "106c48074b3de0f872eaaf928194a339", "rental_uris": {"android": "https://dc.lft.to/lastmile_qr_scan", "ios": "https://dc.lft.to/lastmile_qr_scan"}, "lat": 38.91817233333333, "bike_id": "106c48074b3de0f872eaaf928194a339", "is_disabled": 0, "lon": -77.02292633333333, "is_reserved": 0, "fusion_lat": 0.0, "type": "electric_scooter"}, {"fusion_lon": 0.0, "name": "cb1bbf41e4b19c251ab43b7c96e5b33f", "rental_uris": {"android": "https://dc.lft.to/lastmile_qr_scan", "ios": "https://dc.lft.to/lastmile_qr_scan"}, "lat": 38.892215666666665, "bike_id": "cb1bbf41e4b19c251ab43b7c96e5b33f", "is_disabled": 0, "lon": -77.0436725, "is_reserved": 0, "fusion_lat": 0.0, "type": "electric_scooter"}, {"fusion_lon": 0.0, "name": "afe297b1653eb44af2ea6acbeb072c0b", "rental_uris": {"android": "https://dc.lft.to/lastmile_qr_scan", "ios": "https://dc.lft.to/lastmile_qr_scan"}, "lat": 38.80734183333333, "bike_id": "afe297b1653eb44af2ea6acbeb072c0b", "is_disabled": 0, "lon": -76.99256216666667, "is_reserved": 0, "fusion_lat": 0.0, "type": "electric_bike"}, {"fusion_lon": 0.0, "name": "f0f2a744b43288fbdc5e490c1401d319", "rental_uris": {"android": "https://dc.lft.to/lastmile_qr_scan", "ios": "https://dc.lft.to/lastmile_qr_scan"}, "lat": 38.92690133333333, "bike_id": "f0f2a744b43288fbdc5e490c1401d319", "is_disabled": 0, "lon": -77.02962133333334, "is_reserved": 0, "fusion_lat": 0.0, "type": "electric_scooter"}, {"fusion_lon": 0.0, "name": "e802cc6677a2754d48a27ddb5c5334a4", "rental_uris": {"android": "https://dc.lft.to/lastmile_qr_scan", "ios": "https://dc.lft.to/lastmile_qr_scan"}, "lat": 38.937359666666666, "bike_id": "e802cc6677a2754d48a27ddb5c5334a4", "is_disabled": 0, "lon": -77.03259883333334, "is_reserved": 0, "fusion_lat": 0.0, "type": "electric_scooter"}, {"fusion_lon": 0.0, "name": "a6195de58f66977d4bdd2fcc0391c4f2", "rental_uris": {"android": "https://dc.lft.to/lastmile_qr_scan", "ios": "https://dc.lft.to/lastmile_qr_scan"}, "lat": 38.884363, "bike_id": "a6195de58f66977d4bdd2fcc0391c4f2", "is_disabled": 0, "lon": -76.957456, "is_reserved": 0, "fusion_lat": 0.0, "type": "electric_scooter"}, {"fusion_lon": 0.0, "name": "a310784f3406f5905a038d0e7b5afb94", "rental_uris": {"android": "https://dc.lft.to/lastmile_qr_scan", "ios": "https://dc.lft.to/lastmile_qr_scan"}, "lat": 38.92062166666667, "bike_id": "a310784f3406f5905a038d0e7b5afb94", "is_disabled": 0, "lon": -77.02510816666667, "is_reserved": 0, "fusion_lat": 0.0, "type": "electric_scooter"}, {"fusion_lon": 0.0, "name": "a31d41ab37e794332f8c4f1bcac2b1fb", "rental_uris": {"android": "https://dc.lft.to/lastmile_qr_scan", "ios": "https://dc.lft.to/lastmile_qr_scan"}, "lat": 38.92411766666667, "bike_id": "a31d41ab37e794332f8c4f1bcac2b1fb", "is_disabled": 0, "lon": -77.021276, "is_reserved": 0, "fusion_lat": 0.0, "type": "electric_scooter"}, {"fusion_lon": 0.0, "name": "c008c19cbaf203c137189cb8025cbda9", "rental_uris": {"android": "https://dc.lft.to/lastmile_qr_scan", "ios": "https://dc.lft.to/lastmile_qr_scan"}, "lat": 38.950919666666664, "bike_id": "c008c19cbaf203c137189cb8025cbda9", "is_disabled": 0, "lon": -76.99793466666667, "is_reserved": 0, "fusion_lat": 0.0, "type": "electric_scooter"}, {"fusion_lon": 0.0, "name": "4360570f1286abc05633b86979f852b7", "rental_uris": {"android": "https://dc.lft.to/lastmile_qr_scan", "ios": "https://dc.lft.to/lastmile_qr_scan"}, "lat": 38.89229616666667, "bike_id": "4360570f1286abc05633b86979f852b7", "is_disabled": 0, "lon": -77.03376483333334, "is_reserved": 0, "fusion_lat": 0.0, "type": "electric_scooter"}, {"fusion_lon": 0.0, "name": "5779ad69dbc1a4ecc917459c6ba7ae3f", "rental_uris": {"android": "https://dc.lft.to/lastmile_qr_scan", "ios": "https://dc.lft.to/lastmile_qr_scan"}, "lat": 38.9000925, "bike_id": "5779ad69dbc1a4ecc917459c6ba7ae3f", "is_disabled": 0, "lon": -77.04124666666667, "is_reserved": 0, "fusion_lat": 0.0, "type": "electric_scooter"}, {"fusion_lon": 0.0, "name": "4bdc5b6f52ee9511d89f4ffe4b0ddff5", "rental_uris": {"android": "https://dc.lft.to/lastmile_qr_scan", "ios": "https://dc.lft.to/lastmile_qr_scan"}, "lat": 38.899131833333335, "bike_id": "4bdc5b6f52ee9511d89f4ffe4b0ddff5", "is_disabled": 0, "lon": -76.93389633333334, "is_reserved": 0, "fusion_lat": 0.0, "type": "electric_scooter"}, {"fusion_lon": 0.0, "name": "8e71d840d12650434d08f8ee5128078e", "rental_uris": {"android": "https://dc.lft.to/lastmile_qr_scan", "ios": "https://dc.lft.to/lastmile_qr_scan"}, "lat": 38.87998266666666, "bike_id": "8e71d840d12650434d08f8ee5128078e", "is_disabled": 0, "lon": -77.03741716666667, "is_reserved": 0, "fusion_lat": 0.0, "type": "electric_scooter"}, {"fusion_lon": 0.0, "name": "0fb77eb0a39f171b9f031e23d4644e75", "rental_uris": {"android": "https://dc.lft.to/lastmile_qr_scan", "ios": "https://dc.lft.to/lastmile_qr_scan"}, "lat": 38.90284533333333, "bike_id": "0fb77eb0a39f171b9f031e23d4644e75", "is_disabled": 0, "lon": -77.0312575, "is_reserved": 0, "fusion_lat": 0.0, "type": "electric_scooter"}, {"fusion_lon": 0.0, "name": "261960aac83f64a56d19f2afa8cdaad2", "rental_uris": {"android": "https://dc.lft.to/lastmile_qr_scan", "ios": "https://dc.lft.to/lastmile_qr_scan"}, "lat": 38.9156975, "bike_id": "261960aac83f64a56d19f2afa8cdaad2", "is_disabled": 0, "lon": -77.06795233333334, "is_reserved": 0, "fusion_lat": 0.0, "type": "electric_scooter"}, {"fusion_lon": 0.0, "name": "190e3fb1b647eaededc93345425b0041", "rental_uris": {"android": "https://dc.lft.to/lastmile_qr_scan", "ios": "https://dc.lft.to/lastmile_qr_scan"}, "lat": 38.91284, "bike_id": "190e3fb1b647eaededc93345425b0041", "is_disabled": 0, "lon": -77.03446516666666, "is_reserved": 0, "fusion_lat": 0.0, "type": "electric_scooter"}, {"fusion_lon": 0.0, "name": "e127874325029172670759df6dffd721", "rental_uris": {"android": "https://dc.lft.to/lastmile_qr_scan", "ios": "https://dc.lft.to/lastmile_qr_scan"}, "lat": 38.9286745, "bike_id": "e127874325029172670759df6dffd721", "is_disabled": 0, "lon": -77.01409783333334, "is_reserved": 0, "fusion_lat": 0.0, "type": "electric_scooter"}, {"fusion_lon": 0.0, "name": "82891685c95f66ffbc879da22e78798f", "rental_uris": {"android": "https://dc.lft.to/lastmile_qr_scan", "ios": "https://dc.lft.to/lastmile_qr_scan"}, "lat": 38.90165, "bike_id": "82891685c95f66ffbc879da22e78798f", "is_disabled": 0, "lon": -77.021958, "is_reserved": 0, "fusion_lat": 0.0, "type": "electric_scooter"}, {"fusion_lon": 0.0, "name": "fb292c6b3f39626118f5da3edaf35f16", "rental_uris": {"android": "https://dc.lft.to/lastmile_qr_scan", "ios": "https://dc.lft.to/lastmile_qr_scan"}, "lat": 38.898256333333336, "bike_id": "fb292c6b3f39626118f5da3edaf35f16", "is_disabled": 0, "lon": -77.04885216666666, "is_reserved": 0, "fusion_lat": 0.0, "type": "electric_scooter"}, {"fusion_lon": 0.0, "name": "cde0b6cc4d238e56204f98dd44a6aef4", "rental_uris": {"android": "https://dc.lft.to/lastmile_qr_scan", "ios": "https://dc.lft.to/lastmile_qr_scan"}, "lat": 38.87684633333333, "bike_id": "cde0b6cc4d238e56204f98dd44a6aef4", "is_disabled": 0, "lon": -77.00070116666667, "is_reserved": 0, "fusion_lat": 0.0, "type": "electric_scooter"}, {"fusion_lon": 0.0, "name": "aebfdb20109b82cc7947bc4c39b11f88", "rental_uris": {"android": "https://dc.lft.to/lastmile_qr_scan", "ios": "https://dc.lft.to/lastmile_qr_scan"}, "lat": 38.898914833333336, "bike_id": "aebfdb20109b82cc7947bc4c39b11f88", "is_disabled": 0, "lon": -77.021757, "is_reserved": 0, "fusion_lat": 0.0, "type": "electric_scooter"}, {"fusion_lon": 0.0, "name": "6cb7dc34dbf3285d0798e67bc81b48d6", "rental_uris": {"android": "https://dc.lft.to/lastmile_qr_scan", "ios": "https://dc.lft.to/lastmile_qr_scan"}, "lat": 38.904497166666665, "bike_id": "6cb7dc34dbf3285d0798e67bc81b48d6", "is_disabled": 0, "lon": -77.043521, "is_reserved": 0, "fusion_lat": 0.0, "type": "electric_scooter"}, {"fusion_lon": 0.0, "name": "0f6617a1640d7f65ff0fe5f335bfb508", "rental_uris": {"android": "https://dc.lft.to/lastmile_qr_scan", "ios": "https://dc.lft.to/lastmile_qr_scan"}, "lat": 38.92650283333333, "bike_id": "0f6617a1640d7f65ff0fe5f335bfb508", "is_disabled": 0, "lon": -77.03544716666667, "is_reserved": 0, "fusion_lat": 0.0, "type": "electric_scooter"}, {"fusion_lon": 0.0, "name": "5e473e873fa05ac2422468077388f755", "rental_uris": {"android": "https://dc.lft.to/lastmile_qr_scan", "ios": "https://dc.lft.to/lastmile_qr_scan"}, "lat": 38.905746, "bike_id": "5e473e873fa05ac2422468077388f755", "is_disabled": 0, "lon": -77.0403695, "is_reserved": 0, "fusion_lat": 0.0, "type": "electric_scooter"}, {"fusion_lon": 0.0, "name": "6c87dd3870714e7e99884758f9c18d09", "rental_uris": {"android": "https://dc.lft.to/lastmile_qr_scan", "ios": "https://dc.lft.to/lastmile_qr_scan"}, "lat": 38.926012, "bike_id": "6c87dd3870714e7e99884758f9c18d09", "is_disabled": 0, "lon": -77.02158483333334, "is_reserved": 0, "fusion_lat": 0.0, "type": "electric_scooter"}, {"fusion_lon": 0.0, "name": "84089312dc71ceecb9bd9308e131a09c", "rental_uris": {"android": "https://dc.lft.to/lastmile_qr_scan", "ios": "https://dc.lft.to/lastmile_qr_scan"}, "lat": 38.917176833333336, "bike_id": "84089312dc71ceecb9bd9308e131a09c", "is_disabled": 0, "lon": -77.03863916666667, "is_reserved": 0, "fusion_lat": 0.0, "type": "electric_scooter"}, {"fusion_lon": 0.0, "name": "f2d03d307b247722a89dac3b006df363", "rental_uris": {"android": "https://dc.lft.to/lastmile_qr_scan", "ios": "https://dc.lft.to/lastmile_qr_scan"}, "lat": 38.95030716666667, "bike_id": "f2d03d307b247722a89dac3b006df363", "is_disabled": 0, "lon": -76.9709795, "is_reserved": 0, "fusion_lat": 0.0, "type": "electric_bike"}, {"fusion_lon": 0.0, "name": "52dfc694c7d6aa9c33256578633c0cbf", "rental_uris": {"android": "https://dc.lft.to/lastmile_qr_scan", "ios": "https://dc.lft.to/lastmile_qr_scan"}, "lat": 38.89782866666667, "bike_id": "52dfc694c7d6aa9c33256578633c0cbf", "is_disabled": 0, "lon": -77.016023, "is_reserved": 0, "fusion_lat": 0.0, "type": "electric_scooter"}, {"fusion_lon": 0.0, "name": "71c03d09045e7e6fe87535d437df5fac", "rental_uris": {"android": "https://dc.lft.to/lastmile_qr_scan", "ios": "https://dc.lft.to/lastmile_qr_scan"}, "lat": 38.916988833333335, "bike_id": "71c03d09045e7e6fe87535d437df5fac", "is_disabled": 0, "lon": -77.0319045, "is_reserved": 0, "fusion_lat": 0.0, "type": "electric_scooter"}, {"fusion_lon": 0.0, "name": "a953cb3a28c506a1b51644b1e3b2530c", "rental_uris": {"android": "https://dc.lft.to/lastmile_qr_scan", "ios": "https://dc.lft.to/lastmile_qr_scan"}, "lat": 38.919061666666664, "bike_id": "a953cb3a28c506a1b51644b1e3b2530c", "is_disabled": 0, "lon": -77.04105733333333, "is_reserved": 0, "fusion_lat": 0.0, "type": "electric_scooter"}, {"fusion_lon": 0.0, "name": "fe99b8157bb801fe1146c00ce2f931f3", "rental_uris": {"android": "https://dc.lft.to/lastmile_qr_scan", "ios": "https://dc.lft.to/lastmile_qr_scan"}, "lat": 38.89166616666667, "bike_id": "fe99b8157bb801fe1146c00ce2f931f3", "is_disabled": 0, "lon": -77.02177816666666, "is_reserved": 0, "fusion_lat": 0.0, "type": "electric_scooter"}, {"fusion_lon": 0.0, "name": "f33de0921bcc5e069cd718097bf7500e", "rental_uris": {"android": "https://dc.lft.to/lastmile_qr_scan", "ios": "https://dc.lft.to/lastmile_qr_scan"}, "lat": 38.889904, "bike_id": "f33de0921bcc5e069cd718097bf7500e", "is_disabled": 0, "lon": -77.0031475, "is_reserved": 0, "fusion_lat": 0.0, "type": "electric_scooter"}, {"fusion_lon": 0.0, "name": "b35f70deb64ac9e93f5a3ba760accc02", "rental_uris": {"android": "https://dc.lft.to/lastmile_qr_scan", "ios": "https://dc.lft.to/lastmile_qr_scan"}, "lat": 38.91272283333333, "bike_id": "b35f70deb64ac9e93f5a3ba760accc02", "is_disabled": 0, "lon": -77.03331833333333, "is_reserved": 0, "fusion_lat": 0.0, "type": "electric_scooter"}, {"fusion_lon": 0.0, "name": "eb261be275bf99a3fee00cb4e16554a7", "rental_uris": {"android": "https://dc.lft.to/lastmile_qr_scan", "ios": "https://dc.lft.to/lastmile_qr_scan"}, "lat": 38.83832866666667, "bike_id": "eb261be275bf99a3fee00cb4e16554a7", "is_disabled": 0, "lon": -77.07911533333333, "is_reserved": 0, "fusion_lat": 0.0, "type": "electric_bike"}, {"fusion_lon": 0.0, "name": "4e9292c8abc881c880e1339b9bd36bc8", "rental_uris": {"android": "https://dc.lft.to/lastmile_qr_scan", "ios": "https://dc.lft.to/lastmile_qr_scan"}, "lat": 38.891045, "bike_id": "4e9292c8abc881c880e1339b9bd36bc8", "is_disabled": 0, "lon": -77.00211233333333, "is_reserved": 0, "fusion_lat": 0.0, "type": "electric_scooter"}, {"fusion_lon": 0.0, "name": "bcf2a5aa121d55f13d33ae57c228d48a", "rental_uris": {"android": "https://dc.lft.to/lastmile_qr_scan", "ios": "https://dc.lft.to/lastmile_qr_scan"}, "lat": 38.923478333333335, "bike_id": "bcf2a5aa121d55f13d33ae57c228d48a", "is_disabled": 0, "lon": -77.05089766666667, "is_reserved": 0, "fusion_lat": 0.0, "type": "electric_scooter"}, {"fusion_lon": 0.0, "name": "b8bcd3f6b2616353867d348bcfdf5804", "rental_uris": {"android": "https://dc.lft.to/lastmile_qr_scan", "ios": "https://dc.lft.to/lastmile_qr_scan"}, "lat": 38.903421333333334, "bike_id": "b8bcd3f6b2616353867d348bcfdf5804", "is_disabled": 0, "lon": -76.97612966666667, "is_reserved": 0, "fusion_lat": 0.0, "type": "electric_scooter"}, {"fusion_lon": 0.0, "name": "7ed6ade5cb7ace163aa0b876f81a6d6a", "rental_uris": {"android": "https://dc.lft.to/lastmile_qr_scan", "ios": "https://dc.lft.to/lastmile_qr_scan"}, "lat": 38.89366033333334, "bike_id": "7ed6ade5cb7ace163aa0b876f81a6d6a", "is_disabled": 0, "lon": -77.00331533333333, "is_reserved": 0, "fusion_lat": 0.0, "type": "electric_scooter"}, {"fusion_lon": 0.0, "name": "7ad096a597357feab7824fa68e3b5698", "rental_uris": {"android": "https://dc.lft.to/lastmile_qr_scan", "ios": "https://dc.lft.to/lastmile_qr_scan"}, "lat": 38.92420033333333, "bike_id": "7ad096a597357feab7824fa68e3b5698", "is_disabled": 0, "lon": -77.01945233333333, "is_reserved": 0, "fusion_lat": 0.0, "type": "electric_scooter"}, {"fusion_lon": 0.0, "name": "300ca8d69db1fdd2f3fc6fd7e3b66c4d", "rental_uris": {"android": "https://dc.lft.to/lastmile_qr_scan", "ios": "https://dc.lft.to/lastmile_qr_scan"}, "lat": 38.91898583333333, "bike_id": "300ca8d69db1fdd2f3fc6fd7e3b66c4d", "is_disabled": 0, "lon": -77.10173133333333, "is_reserved": 0, "fusion_lat": 0.0, "type": "electric_bike"}, {"fusion_lon": 0.0, "name": "28f1cb59a1e72ccf060a59fc69b0daaa", "rental_uris": {"android": "https://dc.lft.to/lastmile_qr_scan", "ios": "https://dc.lft.to/lastmile_qr_scan"}, "lat": 38.952651333333336, "bike_id": "28f1cb59a1e72ccf060a59fc69b0daaa", "is_disabled": 0, "lon": -77.00179233333333, "is_reserved": 0, "fusion_lat": 0.0, "type": "electric_scooter"}, {"fusion_lon": 0.0, "name": "66390c19bc448bbab63559c934fc1e94", "rental_uris": {"android": "https://dc.lft.to/lastmile_qr_scan", "ios": "https://dc.lft.to/lastmile_qr_scan"}, "lat": 38.83586833333333, "bike_id": "66390c19bc448bbab63559c934fc1e94", "is_disabled": 0, "lon": -76.99027716666667, "is_reserved": 0, "fusion_lat": 0.0, "type": "electric_bike"}, {"fusion_lon": 0.0, "name": "2fb74e9967d2e0b260d1f1197de66bf2", "rental_uris": {"android": "https://dc.lft.to/lastmile_qr_scan", "ios": "https://dc.lft.to/lastmile_qr_scan"}, "lat": 38.928725, "bike_id": "2fb74e9967d2e0b260d1f1197de66bf2", "is_disabled": 0, "lon": -77.03385533333334, "is_reserved": 0, "fusion_lat": 0.0, "type": "electric_scooter"}, {"fusion_lon": 0.0, "name": "5e3ba7374b2a4dda7aecba91fca2f90e", "rental_uris": {"android": "https://dc.lft.to/lastmile_qr_scan", "ios": "https://dc.lft.to/lastmile_qr_scan"}, "lat": 38.91610383333333, "bike_id": "5e3ba7374b2a4dda7aecba91fca2f90e", "is_disabled": 0, "lon": -77.04584816666667, "is_reserved": 0, "fusion_lat": 0.0, "type": "electric_scooter"}, {"fusion_lon": 0.0, "name": "78f4acfe67ba10dacf4458e51ad224ce", "rental_uris": {"android": "https://dc.lft.to/lastmile_qr_scan", "ios": "https://dc.lft.to/lastmile_qr_scan"}, "lat": 38.90007583333333, "bike_id": "78f4acfe67ba10dacf4458e51ad224ce", "is_disabled": 0, "lon": -77.02715133333334, "is_reserved": 0, "fusion_lat": 0.0, "type": "electric_scooter"}, {"fusion_lon": 0.0, "name": "567a0a716e77236975a2d9eb59bb89c3", "rental_uris": {"android": "https://dc.lft.to/lastmile_qr_scan", "ios": "https://dc.lft.to/lastmile_qr_scan"}, "lat": 38.964018, "bike_id": "567a0a716e77236975a2d9eb59bb89c3", "is_disabled": 0, "lon": -77.02587583333333, "is_reserved": 0, "fusion_lat": 0.0, "type": "electric_scooter"}, {"fusion_lon": 0.0, "name": "ad2eed566876ad601ba578f971281749", "rental_uris": {"android": "https://dc.lft.to/lastmile_qr_scan", "ios": "https://dc.lft.to/lastmile_qr_scan"}, "lat": 38.930662833333336, "bike_id": "ad2eed566876ad601ba578f971281749", "is_disabled": 0, "lon": -77.02788033333333, "is_reserved": 0, "fusion_lat": 0.0, "type": "electric_scooter"}, {"fusion_lon": 0.0, "name": "7130db9c44bdea684d29506f065f3e1e", "rental_uris": {"android": "https://dc.lft.to/lastmile_qr_scan", "ios": "https://dc.lft.to/lastmile_qr_scan"}, "lat": 38.92153183333333, "bike_id": "7130db9c44bdea684d29506f065f3e1e", "is_disabled": 0, "lon": -77.03532316666667, "is_reserved": 0, "fusion_lat": 0.0, "type": "electric_scooter"}, {"fusion_lon": 0.0, "name": "eb8638187f06258258d47dbedf5dd58c", "rental_uris": {"android": "https://dc.lft.to/lastmile_qr_scan", "ios": "https://dc.lft.to/lastmile_qr_scan"}, "lat": 38.88590116666666, "bike_id": "eb8638187f06258258d47dbedf5dd58c", "is_disabled": 0, "lon": -76.99146583333334, "is_reserved": 0, "fusion_lat": 0.0, "type": "electric_bike"}, {"fusion_lon": 0.0, "name": "d5557ff98b0ba4962bc5b2bab942b007", "rental_uris": {"android": "https://dc.lft.to/lastmile_qr_scan", "ios": "https://dc.lft.to/lastmile_qr_scan"}, "lat": 39.0254395, "bike_id": "d5557ff98b0ba4962bc5b2bab942b007", "is_disabled": 0, "lon": -77.044458, "is_reserved": 0, "fusion_lat": 0.0, "type": "electric_bike"}, {"fusion_lon": 0.0, "name": "f26acf4c795d0e0c7b33a6d51d3e9739", "rental_uris": {"android": "https://dc.lft.to/lastmile_qr_scan", "ios": "https://dc.lft.to/lastmile_qr_scan"}, "lat": 38.921518666666664, "bike_id": "f26acf4c795d0e0c7b33a6d51d3e9739", "is_disabled": 0, "lon": -77.03519916666667, "is_reserved": 0, "fusion_lat": 0.0, "type": "electric_scooter"}, {"fusion_lon": 0.0, "name": "5707bb3066949a51896c0a4be03e750c", "rental_uris": {"android": "https://dc.lft.to/lastmile_qr_scan", "ios": "https://dc.lft.to/lastmile_qr_scan"}, "lat": 38.87667416666667, "bike_id": "5707bb3066949a51896c0a4be03e750c", "is_disabled": 0, "lon": -77.00383483333333, "is_reserved": 0, "fusion_lat": 0.0, "type": "electric_scooter"}, {"fusion_lon": 0.0, "name": "8375f7bc9f38f26aa85bd99f222b06da", "rental_uris": {"android": "https://dc.lft.to/lastmile_qr_scan", "ios": "https://dc.lft.to/lastmile_qr_scan"}, "lat": 38.94185183333333, "bike_id": "8375f7bc9f38f26aa85bd99f222b06da", "is_disabled": 0, "lon": -77.02490016666667, "is_reserved": 0, "fusion_lat": 0.0, "type": "electric_scooter"}, {"fusion_lon": 0.0, "name": "9190e081b09a2a16ef8773e003cade48", "rental_uris": {"android": "https://dc.lft.to/lastmile_qr_scan", "ios": "https://dc.lft.to/lastmile_qr_scan"}, "lat": 38.878533, "bike_id": "9190e081b09a2a16ef8773e003cade48", "is_disabled": 0, "lon": -77.01971166666667, "is_reserved": 0, "fusion_lat": 0.0, "type": "electric_scooter"}, {"fusion_lon": 0.0, "name": "455265445d006f13125b44f97b8890a4", "rental_uris": {"android": "https://dc.lft.to/lastmile_qr_scan", "ios": "https://dc.lft.to/lastmile_qr_scan"}, "lat": 38.906498166666665, "bike_id": "455265445d006f13125b44f97b8890a4", "is_disabled": 0, "lon": -77.014285, "is_reserved": 0, "fusion_lat": 0.0, "type": "electric_scooter"}, {"fusion_lon": 0.0, "name": "adabb85c9acd3d1c68911587bc9d76df", "rental_uris": {"android": "https://dc.lft.to/lastmile_qr_scan", "ios": "https://dc.lft.to/lastmile_qr_scan"}, "lat": 38.904349333333336, "bike_id": "adabb85c9acd3d1c68911587bc9d76df", "is_disabled": 0, "lon": -77.04673033333333, "is_reserved": 0, "fusion_lat": 0.0, "type": "electric_scooter"}, {"fusion_lon": 0.0, "name": "70fc411dc4b4dc2fc874685fba7c21d7", "rental_uris": {"android": "https://dc.lft.to/lastmile_qr_scan", "ios": "https://dc.lft.to/lastmile_qr_scan"}, "lat": 38.93743583333333, "bike_id": "70fc411dc4b4dc2fc874685fba7c21d7", "is_disabled": 0, "lon": -77.03260616666667, "is_reserved": 0, "fusion_lat": 0.0, "type": "electric_scooter"}, {"fusion_lon": 0.0, "name": "7fa6743de2a4ddb84fb7ed1fa14c1977", "rental_uris": {"android": "https://dc.lft.to/lastmile_qr_scan", "ios": "https://dc.lft.to/lastmile_qr_scan"}, "lat": 38.90264283333333, "bike_id": "7fa6743de2a4ddb84fb7ed1fa14c1977", "is_disabled": 0, "lon": -77.03142383333333, "is_reserved": 0, "fusion_lat": 0.0, "type": "electric_scooter"}, {"fusion_lon": 0.0, "name": "5d09dac89dc9e96d9254a2d6ed9b2453", "rental_uris": {"android": "https://dc.lft.to/lastmile_qr_scan", "ios": "https://dc.lft.to/lastmile_qr_scan"}, "lat": 38.89237766666667, "bike_id": "5d09dac89dc9e96d9254a2d6ed9b2453", "is_disabled": 0, "lon": -77.04878416666666, "is_reserved": 0, "fusion_lat": 0.0, "type": "electric_scooter"}, {"fusion_lon": 0.0, "name": "06998177e14db240d6aacb6ff0c76857", "rental_uris": {"android": "https://dc.lft.to/lastmile_qr_scan", "ios": "https://dc.lft.to/lastmile_qr_scan"}, "lat": 38.93700583333333, "bike_id": "06998177e14db240d6aacb6ff0c76857", "is_disabled": 0, "lon": -77.027163, "is_reserved": 0, "fusion_lat": 0.0, "type": "electric_scooter"}, {"fusion_lon": 0.0, "name": "3dd444849a59b1fc488cdd9a45c1171d", "rental_uris": {"android": "https://dc.lft.to/lastmile_qr_scan", "ios": "https://dc.lft.to/lastmile_qr_scan"}, "lat": 38.90186083333333, "bike_id": "3dd444849a59b1fc488cdd9a45c1171d", "is_disabled": 0, "lon": -77.03664266666667, "is_reserved": 0, "fusion_lat": 0.0, "type": "electric_scooter"}, {"fusion_lon": 0.0, "name": "518ec6a6ff4d7635fe2027d021ffcbf5", "rental_uris": {"android": "https://dc.lft.to/lastmile_qr_scan", "ios": "https://dc.lft.to/lastmile_qr_scan"}, "lat": 38.902663833333335, "bike_id": "518ec6a6ff4d7635fe2027d021ffcbf5", "is_disabled": 0, "lon": -77.03065283333333, "is_reserved": 0, "fusion_lat": 0.0, "type": "electric_scooter"},