{"data": {"bikes": [{"is_reserved": 0, "fusion_lon": 0.0, "fusion_lat": 0.0, "name": "5e9f30adae7d42804758441bf1066c8b", "type": "electric_scooter", "is_disabled": 0, "lat": 38.90733316666667, "rental_uris": {"android": "https://dc.lft.to/lastmile_qr_scan", "ios": "https://dc.lft.to/lastmile_qr_scan"}, "bike_id": "5e9f30adae7d42804758441bf1066c8b", "lon": -77.04352066666667}, {"is_reserved": 0, "fusion_lon": 0.0, "fusion_lat": 0.0, "name": "59e2ab02d47c2a27d729d5234e0a5396", "type": "electric_scooter", "is_disabled": 0, "lat": 38.85541816666667, "rental_uris": {"android": "https://dc.lft.to/lastmile_qr_scan", "ios": "https://dc.lft.to/lastmile_qr_scan"}, "bike_id": "59e2ab02d47c2a27d729d5234e0a5396", "lon": -76.984188}, {"is_reserved": 0, "fusion_lon": 0.0, "fusion_lat": 0.0, "name": "075760ab99340e70c40ed19cb12d73a5", "type": "electric_scooter", "is_disabled": 0, "lat": 38.92985066666667, "rental_uris": {"android": "https://dc.lft.to/lastmile_qr_scan", "ios": "https://dc.lft.to/lastmile_qr_scan"}, "bike_id": "075760ab99340e70c40ed19cb12d73a5", "lon": -77.01329333333334}, {"is_reserved": 0, "fusion_lon": 0.0, "fusion_lat": 0.0, "name": "51c2c225c985c5d672f87c780d6a5fbd", "type": "electric_scooter", "is_disabled": 0, "lat": 38.884081, "rental_uris": {"android": "https://dc.lft.to/lastmile_qr_scan", "ios": "https://dc.lft.to/lastmile_qr_scan"}, "bike_id": "51c2c225c985c5d672f87c780d6a5fbd", "lon": -77.0176705}, {"is_reserved": 0, "fusion_lon": 0.0, "fusion_lat": 0.0, "name": "1b158e342116a222e06c3f9d6fd9ab7c", "type": "electric_scooter", "is_disabled": 0, "lat": 38.90086816666667, "rental_uris": {"android": "https://dc.lft.to/lastmile_qr_scan", "ios": "https://dc.lft.to/lastmile_qr_scan"}, "bike_id": "1b158e342116a222e06c3f9d6fd9ab7c", "lon": -76.930182}, {"is_reserved": 0, "fusion_lon": 0.0, "fusion_lat": 0.0, "name": "8a6eb9f669b9892a2c82a040a2c79e10", "type": "electric_scooter", "is_disabled": 0, "lat": 38.917699166666665, "rental_uris": {"android": "https://dc.lft.to/lastmile_qr_scan", "ios": "https://dc.lft.to/lastmile_qr_scan"}, "bike_id": "8a6eb9f669b9892a2c82a040a2c79e10", "lon": -77.0405785}, {"is_reserved": 0, "fusion_lon": 0.0, "fusion_lat": 0.0, "name": "9ed24ffcb3fb279f2e2111316f9d471f", "type": "electric_scooter", "is_disabled": 0, "lat": 38.898649166666665, "rental_uris": {"android": "https://dc.lft.to/lastmile_qr_scan", "ios": "https://dc.lft.to/lastmile_qr_scan"}, "bike_id": "9ed24ffcb3fb279f2e2111316f9d471f", "lon": -76.92760333333334}, {"is_reserved": 0, "fusion_lon": 0.0, "fusion_lat": 0.0, "name": "f14ebb024202ffca224f93665034fa16", "type": "electric_scooter", "is_disabled": 0, "lat": 38.884894, "rental_uris": {"android": "https://dc.lft.to/lastmile_qr_scan", "ios": "https://dc.lft.to/lastmile_qr_scan"}, "bike_id": "f14ebb024202ffca224f93665034fa16", "lon": -76.92622633333333}, {"is_reserved": 0, "fusion_lon": 0.0, "fusion_lat": 0.0, "name": "87685c0cdf14933a498ef045bceae2e5", "type": "electric_scooter", "is_disabled": 0, "lat": 38.898285666666666, "rental_uris": {"android": "https://dc.lft.to/lastmile_qr_scan", "ios": "https://dc.lft.to/lastmile_qr_scan"}, "bike_id": "87685c0cdf14933a498ef045bceae2e5", "lon": -77.029415}, {"is_reserved": 0, "fusion_lon": 0.0, "fusion_lat": 0.0, "name": "8180d8178774d9c71c57f07fda91009d", "type": "electric_bike", "is_disabled": 0, "lat": 38.956591333333336, "rental_uris": {"android": "https://dc.lft.to/lastmile_qr_scan", "ios": "https://dc.lft.to/lastmile_qr_scan"}, "bike_id": "8180d8178774d9c71c57f07fda91009d", "lon": -77.01276383333334}, {"is_reserved": 0, "fusion_lon": 0.0, "fusion_lat": 0.0, "name": "b55b7cbb858c7fe5b068496e957ac92e", "type": "electric_scooter", "is_disabled": 0, "lat": 38.8670315, "rental_uris": {"android": "https://dc.lft.to/lastmile_qr_scan", "ios": "https://dc.lft.to/lastmile_qr_scan"}, "bike_id": "b55b7cbb858c7fe5b068496e957ac92e", "lon": -76.98590066666667}, {"is_reserved": 0, "fusion_lon": 0.0, "fusion_lat": 0.0, "name": "331fc3b12eea9d60f15a5544967e1c0b", "type": "electric_scooter", "is_disabled": 0, "lat": 38.892325, "rental_uris": {"android": "https://dc.lft.to/lastmile_qr_scan", "ios": "https://dc.lft.to/lastmile_qr_scan"}, "bike_id": "331fc3b12eea9d60f15a5544967e1c0b", "lon": -77.0238375}, {"is_reserved": 0, "fusion_lon": 0.0, "fusion_lat": 0.0, "name": "fcf5e6685fc7288e0ac1a7cd028644c8", "type": "electric_scooter", "is_disabled": 0, "lat": 38.9254205, "rental_uris": {"android": "https://dc.lft.to/lastmile_qr_scan", "ios": "https://dc.lft.to/lastmile_qr_scan"}, "bike_id": "fcf5e6685fc7288e0ac1a7cd028644c8", "lon": -76.97217283333333}, {"is_reserved": 0, "fusion_lon": 0.0, "fusion_lat": 0.0, "name": "875117465f5b77a957866a5daa3c56dd", "type": "electric_scooter", "is_disabled": 0, "lat": 38.92499866666667, "rental_uris": {"android": "https://dc.lft.to/lastmile_qr_scan", "ios": "https://dc.lft.to/lastmile_qr_scan"}, "bike_id": "875117465f5b77a957866a5daa3c56dd", "lon": -77.03234683333334}, {"is_reserved": 0, "fusion_lon": 0.0, "fusion_lat": 0.0, "name": "e9b1b55a0183d2b479f5a4bccc87b03e", "type": "electric_scooter", "is_disabled": 0, "lat": 38.910129833333336, "rental_uris": {"android": "https://dc.lft.to/lastmile_qr_scan", "ios": "https://dc.lft.to/lastmile_qr_scan"}, "bike_id": "e9b1b55a0183d2b479f5a4bccc87b03e", "lon": -77.042651}, {"is_reserved": 0, "fusion_lon": 0.0, "fusion_lat": 0.0, "name": "4717d89d27e1147aa2fda2e4c78f43ed", "type": "electric_scooter", "is_disabled": 0, "lat": 38.931084, "rental_uris": {"android": "https://dc.lft.to/lastmile_qr_scan", "ios": "https://dc.lft.to/lastmile_qr_scan"}, "bike_id": "4717d89d27e1147aa2fda2e4c78f43ed", "lon": -77.0381195}, {"is_reserved": 0, "fusion_lon": 0.0, "fusion_lat": 0.0, "name": "4750480dcac212023e38ca1d3b07bc1d", "type": "electric_scooter", "is_disabled": 0, "lat": 38.9156015, "rental_uris": {"android": "https://dc.lft.to/lastmile_qr_scan", "ios": "https://dc.lft.to/lastmile_qr_scan"}, "bike_id": "4750480dcac212023e38ca1d3b07bc1d", "lon": -77.053174}, {"is_reserved": 0, "fusion_lon": 0.0, "fusion_lat": 0.0, "name": "dc72bde837d5e8b640eb330e95b772a9", "type": "electric_scooter", "is_disabled": 0, "lat": 38.906066833333334, "rental_uris": {"android": "https://dc.lft.to/lastmile_qr_scan", "ios": "https://dc.lft.to/lastmile_qr_scan"}, "bike_id": "dc72bde837d5e8b640eb330e95b772a9", "lon": -77.034264}, {"is_reserved": 0, "fusion_lon": 0.0, "fusion_lat": 0.0, "name": "a2e5c3ba3843433036ec85948d530d30", "type": "electric_scooter", "is_disabled": 0, "lat": 38.89626783333333, "rental_uris": {"android": "https://dc.lft.to/lastmile_qr_scan", "ios": "https://dc.lft.to/lastmile_qr_scan"}, "bike_id": "a2e5c3ba3843433036ec85948d530d30", "lon": -77.029494}, {"is_reserved": 0, "fusion_lon": 0.0, "fusion_lat": 0.0, "name": "5258b54c99704c3b25ddde60a04e50e6", "type": "electric_scooter", "is_disabled": 0, "lat": 38.90812533333333, "rental_uris": {"android": "https://dc.lft.to/lastmile_qr_scan", "ios": "https://dc.lft.to/lastmile_qr_scan"}, "bike_id": "5258b54c99704c3b25ddde60a04e50e6", "lon": -77.04327016666667}, {"is_reserved": 0, "fusion_lon": 0.0, "fusion_lat": 0.0, "name": "9efabf5262369fcf31a0676bded9b6fa", "type": "electric_scooter", "is_disabled": 0, "lat": 38.92114516666667, "rental_uris": {"android": "https://dc.lft.to/lastmile_qr_scan", "ios": "https://dc.lft.to/lastmile_qr_scan"}, "bike_id": "9efabf5262369fcf31a0676bded9b6fa", "lon": -77.04203883333334}, {"is_reserved": 0, "fusion_lon": 0.0, "fusion_lat": 0.0, "name": "c7c8cbc88d4df21ae643c0de4e9757eb", "type": "electric_scooter", "is_disabled": 0, "lat": 38.90012083333333, "rental_uris": {"android": "https://dc.lft.to/lastmile_qr_scan", "ios": "https://dc.lft.to/lastmile_qr_scan"}, "bike_id": "c7c8cbc88d4df21ae643c0de4e9757eb", "lon": -76.93032816666667}, {"is_reserved": 0, "fusion_lon": 0.0, "fusion_lat": 0.0, "name": "5aeb95f6e36cdfaf38bba8bd0ea58b59", "type": "electric_scooter", "is_disabled": 0, "lat": 38.933303, "rental_uris": {"android": "https://dc.lft.to/lastmile_qr_scan", "ios": "https://dc.lft.to/lastmile_qr_scan"}, "bike_id": "5aeb95f6e36cdfaf38bba8bd0ea58b59", "lon": -77.08557116666667}, {"is_reserved": 0, "fusion_lon": 0.0, "fusion_lat": 0.0, "name": "06725ac3fe6a270115ae6bf4ab76fdf0", "type": "electric_scooter", "is_disabled": 0, "lat": 38.908316166666665, "rental_uris": {"android": "https://dc.lft.to/lastmile_qr_scan", "ios": "https://dc.lft.to/lastmile_qr_scan"}, "bike_id": "06725ac3fe6a270115ae6bf4ab76fdf0", "lon": -76.94159066666667}, {"is_reserved": 0, "fusion_lon": 0.0, "fusion_lat": 0.0, "name": "8745148b5c419c93b67268cca7346ab4", "type": "electric_scooter", "is_disabled": 0, "lat": 38.91698, "rental_uris": {"android": "https://dc.lft.to/lastmile_qr_scan", "ios": "https://dc.lft.to/lastmile_qr_scan"}, "bike_id": "8745148b5c419c93b67268cca7346ab4", "lon": -77.02599366666666}, {"is_reserved": 0, "fusion_lon": 0.0, "fusion_lat": 0.0, "name": "d291d057da0a06706ac2495bf7e93704", "type": "electric_scooter", "is_disabled": 0, "lat": 38.927290666666664, "rental_uris": {"android": "https://dc.lft.to/lastmile_qr_scan", "ios": "https://dc.lft.to/lastmile_qr_scan"}, "bike_id": "d291d057da0a06706ac2495bf7e93704", "lon": -77.03989383333334}, {"is_reserved": 0, "fusion_lon": 0.0, "fusion_lat": 0.0, "name": "15d838eccc0f3b347f2b46a5f5f9ed85", "type": "electric_scooter", "is_disabled": 0, "lat": 38.897545666666666, "rental_uris": {"android": "https://dc.lft.to/lastmile_qr_scan", "ios": "https://dc.lft.to/lastmile_qr_scan"}, "bike_id": "15d838eccc0f3b347f2b46a5f5f9ed85", "lon": -77.04820266666667}, {"is_reserved": 0, "fusion_lon": 0.0, "fusion_lat": 0.0, "name": "8ef7af3b4bf5905a4c3d1c83dbef64ee", "type": "electric_scooter", "is_disabled": 0, "lat": 38.90146883333333, "rental_uris": {"android": "https://dc.lft.to/lastmile_qr_scan", "ios": "https://dc.lft.to/lastmile_qr_scan"}, "bike_id": "8ef7af3b4bf5905a4c3d1c83dbef64ee", "lon": -77.03995816666666}, {"is_reserved": 0, "fusion_lon": 0.0, "fusion_lat": 0.0, "name": "0c6227b4518b206c74f6ff672a975f10", "type": "electric_scooter", "is_disabled": 0, "lat": 38.9064355, "rental_uris": {"android": "https://dc.lft.to/lastmile_qr_scan", "ios": "https://dc.lft.to/lastmile_qr_scan"}, "bike_id": "0c6227b4518b206c74f6ff672a975f10", "lon": -77.06902616666666}, {"is_reserved": 0, "fusion_lon": 0.0, "fusion_lat": 0.0, "name": "9ac6d34bdc9cb37154aa8d67fc67eff8", "type": "electric_bike", "is_disabled": 0, "lat": 38.872827666666666, "rental_uris": {"android": "https://dc.lft.to/lastmile_qr_scan", "ios": "https://dc.lft.to/lastmile_qr_scan"}, "bike_id": "9ac6d34bdc9cb37154aa8d67fc67eff8", "lon": -77.23332066666667}, {"is_reserved": 0, "fusion_lon": 0.0, "fusion_lat": 0.0, "name": "4573cb683a7771d67e12ec3cc90cbf2f", "type": "electric_scooter", "is_disabled": 0, "lat": 38.90591916666666, "rental_uris": {"android": "https://dc.lft.to/lastmile_qr_scan", "ios": "https://dc.lft.to/lastmile_qr_scan"}, "bike_id": "4573cb683a7771d67e12ec3cc90cbf2f", "lon": -76.99301516666667}, {"is_reserved": 0, "fusion_lon": 0.0, "fusion_lat": 0.0, "name": "f476ca0cdddd21ff4eb555e82b8a6f22", "type": "electric_scooter", "is_disabled": 0, "lat": 38.92981416666667, "rental_uris": {"android": "https://dc.lft.to/lastmile_qr_scan", "ios": "https://dc.lft.to/lastmile_qr_scan"}, "bike_id": "f476ca0cdddd21ff4eb555e82b8a6f22", "lon": -77.05527983333333}, {"is_reserved": 0, "fusion_lon": 0.0, "fusion_lat": 0.0, "name": "c9f2575ba3612ddac5d72a62de252fc4", "type": "electric_scooter", "is_disabled": 0, "lat": 38.90583516666667, "rental_uris": {"android": "https://dc.lft.to/lastmile_qr_scan", "ios": "https://dc.lft.to/lastmile_qr_scan"}, "bike_id": "c9f2575ba3612ddac5d72a62de252fc4", "lon": -77.0030095}, {"is_reserved": 0, "fusion_lon": 0.0, "fusion_lat": 0.0, "name": "289161bfaf81bbd93ddcd7c8ff6ad401", "type": "electric_scooter", "is_disabled": 0, "lat": 38.901625, "rental_uris": {"android": "https://dc.lft.to/lastmile_qr_scan", "ios": "https://dc.lft.to/lastmile_qr_scan"}, "bike_id": "289161bfaf81bbd93ddcd7c8ff6ad401", "lon": -77.060084}, {"is_reserved": 0, "fusion_lon": 0.0, "fusion_lat": 0.0, "name": "3ae9863f199612ea3676dc7bda5ebb98", "type": "electric_scooter", "is_disabled": 0, "lat": 38.89551816666667, "rental_uris": {"android": "https://dc.lft.to/lastmile_qr_scan", "ios": "https://dc.lft.to/lastmile_qr_scan"}, "bike_id": "3ae9863f199612ea3676dc7bda5ebb98", "lon": -76.94879016666667}, {"is_reserved": 0, "fusion_lon": 0.0, "fusion_lat": 0.0, "name": "dc4842e7f69cd6febdb2bb14eec1c3d7", "type": "electric_scooter", "is_disabled": 0, "lat": 38.9233395, "rental_uris": {"android": "https://dc.lft.to/lastmile_qr_scan", "ios": "https://dc.lft.to/lastmile_qr_scan"}, "bike_id": "dc4842e7f69cd6febdb2bb14eec1c3d7", "lon": -77.0418625}, {"is_reserved": 0, "fusion_lon": 0.0, "fusion_lat": 0.0, "name": "c25e2302d4527d9f790375b87ea8eab6", "type": "electric_scooter", "is_disabled": 0, "lat": 38.917908833333335, "rental_uris": {"android": "https://dc.lft.to/lastmile_qr_scan", "ios": "https://dc.lft.to/lastmile_qr_scan"}, "bike_id": "c25e2302d4527d9f790375b87ea8eab6", "lon": -77.03208083333334}, {"is_reserved": 0, "fusion_lon": 0.0, "fusion_lat": 0.0, "name": "d4852b9c44e34e9bf6bb2b0d1d6092d6", "type": "electric_scooter", "is_disabled": 0, "lat": 38.907273833333335, "rental_uris": {"android": "https://dc.lft.to/lastmile_qr_scan", "ios": "https://dc.lft.to/lastmile_qr_scan"}, "bike_id": "d4852b9c44e34e9bf6bb2b0d1d6092d6", "lon": -77.02501333333333}, {"is_reserved": 0, "fusion_lon": 0.0, "fusion_lat": 0.0, "name": "73a129f706ebafc926b4f3f860a67885", "type": "electric_scooter", "is_disabled": 0, "lat": 38.913760833333335, "rental_uris": {"android": "https://dc.lft.to/lastmile_qr_scan", "ios": "https://dc.lft.to/lastmile_qr_scan"}, "bike_id": "73a129f706ebafc926b4f3f860a67885", "lon": -77.04133383333334}, {"is_reserved": 0, "fusion_lon": 0.0, "fusion_lat": 0.0, "name": "bbb4f8029c48a58e16d00b502538b6a0", "type": "electric_scooter", "is_disabled": 0, "lat": 38.90513633333333, "rental_uris": {"android": "https://dc.lft.to/lastmile_qr_scan", "ios": "https://dc.lft.to/lastmile_qr_scan"}, "bike_id": "bbb4f8029c48a58e16d00b502538b6a0", "lon": -77.034446}, {"is_reserved": 0, "fusion_lon": 0.0, "fusion_lat": 0.0, "name": "c592caa0524ee3e2cca5d11674f8ee68", "type": "electric_scooter", "is_disabled": 0, "lat": 38.907290833333334, "rental_uris": {"android": "https://dc.lft.to/lastmile_qr_scan", "ios": "https://dc.lft.to/lastmile_qr_scan"}, "bike_id": "c592caa0524ee3e2cca5d11674f8ee68", "lon": -77.03352633333333}, {"is_reserved": 0, "fusion_lon": 0.0, "fusion_lat": 0.0, "name": "d2b8d412a1e772c186a1b45ecf82c2f6", "type": "electric_scooter", "is_disabled": 0, "lat": 38.92255766666667, "rental_uris": {"android": "https://dc.lft.to/lastmile_qr_scan", "ios": "https://dc.lft.to/lastmile_qr_scan"}, "bike_id": "d2b8d412a1e772c186a1b45ecf82c2f6", "lon": -77.04281633333333}, {"is_reserved": 0, "fusion_lon": 0.0, "fusion_lat": 0.0, "name": "7abc2bc97a39f0ffc7f7d9f650a5b899", "type": "electric_scooter", "is_disabled": 0, "lat": 38.918933, "rental_uris": {"android": "https://dc.lft.to/lastmile_qr_scan", "ios": "https://dc.lft.to/lastmile_qr_scan"}, "bike_id": "7abc2bc97a39f0ffc7f7d9f650a5b899", "lon": -77.02983016666667}, {"is_reserved": 0, "fusion_lon": 0.0, "fusion_lat": 0.0, "name": "84cc1eecef5d7665a6dcdc20eeb7a83a", "type": "electric_scooter", "is_disabled": 0, "lat": 38.90559233333333, "rental_uris": {"android": "https://dc.lft.to/lastmile_qr_scan", "ios": "https://dc.lft.to/lastmile_qr_scan"}, "bike_id": "84cc1eecef5d7665a6dcdc20eeb7a83a", "lon": -77.04331883333333}, {"is_reserved": 0, "fusion_lon": 0.0, "fusion_lat": 0.0, "name": "ee76957f739fa595aae16396d51b492e", "type": "electric_scooter", "is_disabled": 0, "lat": 38.858011, "rental_uris": {"android": "https://dc.lft.to/lastmile_qr_scan", "ios": "https://dc.lft.to/lastmile_qr_scan"}, "bike_id": "ee76957f739fa595aae16396d51b492e", "lon": -76.989104}, {"is_reserved": 0, "fusion_lon": 0.0, "fusion_lat": 0.0, "name": "220ca9a541b97f77274cf5650cc42981", "type": "electric_scooter", "is_disabled": 0, "lat": 38.895042333333336, "rental_uris": {"android": "https://dc.lft.to/lastmile_qr_scan", "ios": "https://dc.lft.to/lastmile_qr_scan"}, "bike_id": "220ca9a541b97f77274cf5650cc42981", "lon": -76.93474616666667}, {"is_reserved": 0, "fusion_lon": 0.0, "fusion_lat": 0.0, "name": "07b226a4d97371aee79f5df21086bd8e", "type": "electric_scooter", "is_disabled": 0, "lat": 38.887673166666666, "rental_uris": {"android": "https://dc.lft.to/lastmile_qr_scan", "ios": "https://dc.lft.to/lastmile_qr_scan"}, "bike_id": "07b226a4d97371aee79f5df21086bd8e", "lon": -76.98677666666667}, {"is_reserved": 0, "fusion_lon": 0.0, "fusion_lat": 0.0, "name": "40360d906b2f0a43e731733eaf439af5", "type": "electric_scooter", "is_disabled": 0, "lat": 38.92110066666667, "rental_uris": {"android": "https://dc.lft.to/lastmile_qr_scan", "ios": "https://dc.lft.to/lastmile_qr_scan"}, "bike_id": "40360d906b2f0a43e731733eaf439af5", "lon": -76.99406016666667}, {"is_reserved": 0, "fusion_lon": 0.0, "fusion_lat": 0.0, "name": "6ed333b47daa2867a3121bb5fd102d32", "type": "electric_bike", "is_disabled": 0, "lat": 39.05640616666667, "rental_uris": {"android": "https://dc.lft.to/lastmile_qr_scan", "ios": "https://dc.lft.to/lastmile_qr_scan"}, "bike_id": "6ed333b47daa2867a3121bb5fd102d32", "lon": -77.12528166666667}, {"is_reserved": 0, "fusion_lon": 0.0, "fusion_lat": 0.0, "name": "083c6d9c052a942a720d316580cdbee1", "type": "electric_scooter", "is_disabled": 0, "lat": 38.92291216666667, "rental_uris": {"android": "https://dc.lft.to/lastmile_qr_scan", "ios": "https://dc.lft.to/lastmile_qr_scan"}, "bike_id": "083c6d9c052a942a720d316580cdbee1", "lon": -77.04268183333333}, {"is_reserved": 0, "fusion_lon": 0.0, "fusion_lat": 0.0, "name": "afe37965c4b51174bdeac708cb14b5ff", "type": "electric_scooter", "is_disabled": 0, "lat": 38.9218875, "rental_uris": {"android": "https://dc.lft.to/lastmile_qr_scan", "ios": "https://dc.lft.to/lastmile_qr_scan"}, "bike_id": "afe37965c4b51174bdeac708cb14b5ff", "lon": -77.02108183333333}, {"is_reserved": 0, "fusion_lon": 0.0, "fusion_lat": 0.0, "name": "f29cef212a1bcfdb81f0e865e0279ea8", "type": "electric_scooter", "is_disabled": 0, "lat": 38.905818333333336, "rental_uris": {"android": "https://dc.lft.to/lastmile_qr_scan", "ios": "https://dc.lft.to/lastmile_qr_scan"}, "bike_id": "f29cef212a1bcfdb81f0e865e0279ea8", "lon": -77.03260666666667}, {"is_reserved": 0, "fusion_lon": 0.0, "fusion_lat": 0.0, "name": "f93c41baf4ce554a1df05eaf7a1fa90f", "type": "electric_scooter", "is_disabled": 0, "lat": 38.90394666666667, "rental_uris": {"android": "https://dc.lft.to/lastmile_qr_scan", "ios": "https://dc.lft.to/lastmile_qr_scan"}, "bike_id": "f93c41baf4ce554a1df05eaf7a1fa90f", "lon": -77.03836516666667}, {"is_reserved": 0, "fusion_lon": 0.0, "fusion_lat": 0.0, "name": "8f5acc9b729bfd31ed940e21eab6d285", "type": "electric_scooter", "is_disabled": 0, "lat": 38.89751066666667, "rental_uris": {"android": "https://dc.lft.to/lastmile_qr_scan", "ios": "https://dc.lft.to/lastmile_qr_scan"}, "bike_id": "8f5acc9b729bfd31ed940e21eab6d285", "lon": -77.03336333333333}, {"is_reserved": 0, "fusion_lon": 0.0, "fusion_lat": 0.0, "name": "162e672880962e880d5b45116e767fc8", "type": "electric_scooter", "is_disabled": 0, "lat": 38.910320166666665, "rental_uris": {"android": "https://dc.lft.to/lastmile_qr_scan", "ios": "https://dc.lft.to/lastmile_qr_scan"}, "bike_id": "162e672880962e880d5b45116e767fc8", "lon": -77.03443316666667}, {"is_reserved": 0, "fusion_lon": 0.0, "fusion_lat": 0.0, "name": "a4032dbc9509af7267b31862df06677a", "type": "electric_scooter", "is_disabled": 0, "lat": 38.91342516666667, "rental_uris": {"android": "https://dc.lft.to/lastmile_qr_scan", "ios": "https://dc.lft.to/lastmile_qr_scan"}, "bike_id": "a4032dbc9509af7267b31862df06677a", "lon": -77.02577866666667}, {"is_reserved": 0, "fusion_lon": 0.0, "fusion_lat": 0.0, "name": "cd41f60b5cfce5b8c54ba552daec7918", "type": "electric_scooter", "is_disabled": 0, "lat": 38.850696666666664, "rental_uris": {"android": "https://dc.lft.to/lastmile_qr_scan", "ios": "https://dc.lft.to/lastmile_qr_scan"}, "bike_id": "cd41f60b5cfce5b8c54ba552daec7918", "lon": -76.970062}, {"is_reserved": 0, "fusion_lon": 0.0, "fusion_lat": 0.0, "name": "a6d6eeea49888150c96bfba7e05cc48b", "type": "electric_scooter", "is_disabled": 0, "lat": 38.950724, "rental_uris": {"android": "https://dc.lft.to/lastmile_qr_scan", "ios": "https://dc.lft.to/lastmile_qr_scan"}, "bike_id": "a6d6eeea49888150c96bfba7e05cc48b", "lon": -77.06533516666667}, {"is_reserved": 0, "fusion_lon": 0.0, "fusion_lat": 0.0, "name": "dd3ca24d0a396b03c2f57965602f2594", "type": "electric_scooter", "is_disabled": 0, "lat": 38.92211316666667, "rental_uris": {"android": "https://dc.lft.to/lastmile_qr_scan", "ios": "https://dc.lft.to/lastmile_qr_scan"}, "bike_id": "dd3ca24d0a396b03c2f57965602f2594", "lon": -77.029589}, {"is_reserved": 0, "fusion_lon": 0.0, "fusion_lat": 0.0, "name": "f82a56523d46dcd42d91b0649d8b9813", "type": "electric_scooter", "is_disabled": 0, "lat": 38.899897, "rental_uris": {"android": "https://dc.lft.to/lastmile_qr_scan", "ios": "https://dc.lft.to/lastmile_qr_scan"}, "bike_id": "f82a56523d46dcd42d91b0649d8b9813", "lon": -77.00916683333334}, {"is_reserved": 0, "fusion_lon": 0.0, "fusion_lat": 0.0, "name": "c6acb7b386e96c206260118485a24e6d", "type": "electric_scooter", "is_disabled": 0, "lat": 38.920049666666664, "rental_uris": {"android": "https://dc.lft.to/lastmile_qr_scan", "ios": "https://dc.lft.to/lastmile_qr_scan"}, "bike_id": "c6acb7b386e96c206260118485a24e6d", "lon": -77.02143716666667}, {"is_reserved": 0, "fusion_lon": 0.0, "fusion_lat": 0.0, "name": "c523fa428d9b23caa2e969822d3d0614", "type": "electric_scooter", "is_disabled": 0, "lat": 38.922536, "rental_uris": {"android": "https://dc.lft.to/lastmile_qr_scan", "ios": "https://dc.lft.to/lastmile_qr_scan"}, "bike_id": "c523fa428d9b23caa2e969822d3d0614", "lon": -77.03069466666666}, {"is_reserved": 0, "fusion_lon": 0.0, "fusion_lat": 0.0, "name": "a31d2d09a18030b936f084377383e600", "type": "electric_scooter", "is_disabled": 0, "lat": 38.917334833333335, "rental_uris": {"android": "https://dc.lft.to/lastmile_qr_scan", "ios": "https://dc.lft.to/lastmile_qr_scan"}, "bike_id": "a31d2d09a18030b936f084377383e600", "lon": -77.04092516666667}, {"is_reserved": 0, "fusion_lon": 0.0, "fusion_lat": 0.0, "name": "9e9b98e2d69207208340a83ede0154e1", "type": "electric_scooter", "is_disabled": 0, "lat": 38.90925133333333, "rental_uris": {"android": "https://dc.lft.to/lastmile_qr_scan", "ios": "https://dc.lft.to/lastmile_qr_scan"}, "bike_id": "9e9b98e2d69207208340a83ede0154e1", "lon": -77.07280183333333}, {"is_reserved": 0, "fusion_lon": 0.0, "fusion_lat": 0.0, "name": "cae5a93d6e52d16315dd8f01a2f1d999", "type": "electric_scooter", "is_disabled": 0, "lat": 38.89314816666667, "rental_uris": {"android": "https://dc.lft.to/lastmile_qr_scan", "ios": "https://dc.lft.to/lastmile_qr_scan"}, "bike_id": "cae5a93d6e52d16315dd8f01a2f1d999", "lon": -76.93978}, {"is_reserved": 0, "fusion_lon": 0.0, "fusion_lat": 0.0, "name": "3ed45fd684e28a192fa247754aaf2bf3", "type": "electric_scooter", "is_disabled": 0, "lat": 38.92855816666667, "rental_uris": {"android": "https://dc.lft.to/lastmile_qr_scan", "ios": "https://dc.lft.to/lastmile_qr_scan"}, "bike_id": "3ed45fd684e28a192fa247754aaf2bf3", "lon": -77.027368}, {"is_reserved": 0, "fusion_lon": 0.0, "fusion_lat": 0.0, "name": "fb380536ae645985d2987f6d292145da", "type": "electric_scooter", "is_disabled": 0, "lat": 38.90145316666667, "rental_uris": {"android": "https://dc.lft.to/lastmile_qr_scan", "ios": "https://dc.lft.to/lastmile_qr_scan"}, "bike_id": "fb380536ae645985d2987f6d292145da", "lon": -77.013062}, {"is_reserved": 0, "fusion_lon": 0.0, "fusion_lat": 0.0, "name": "191654cb6cbc743139acfd990cf0e13b", "type": "electric_scooter", "is_disabled": 0, "lat": 38.8794495, "rental_uris": {"android": "https://dc.lft.to/lastmile_qr_scan", "ios": "https://dc.lft.to/lastmile_qr_scan"}, "bike_id": "191654cb6cbc743139acfd990cf0e13b", "lon": -77.01465883333333}, {"is_reserved": 0, "fusion_lon": 0.0, "fusion_lat": 0.0, "name": "0ba403797993f803dd7c283c528bbf49", "type": "electric_scooter", "is_disabled": 0, "lat": 38.926609, "rental_uris": {"android": "https://dc.lft.to/lastmile_qr_scan", "ios": "https://dc.lft.to/lastmile_qr_scan"}, "bike_id": "0ba403797993f803dd7c283c528bbf49", "lon": -77.0373085}, {"is_reserved": 0, "fusion_lon": 0.0, "fusion_lat": 0.0, "name": "d531dab4047d75bc0ae4d7f057937aa2", "type": "electric_scooter", "is_disabled": 0, "lat": 38.90036466666667, "rental_uris": {"android": "https://dc.lft.to/lastmile_qr_scan", "ios": "https://dc.lft.to/lastmile_qr_scan"}, "bike_id": "d531dab4047d75bc0ae4d7f057937aa2", "lon": -76.9985915}, {"is_reserved": 0, "fusion_lon": 0.0, "fusion_lat": 0.0, "name": "c3d34fc10293aac0c8a526bab3dd9d9e", "type": "electric_scooter", "is_disabled": 0, "lat": 38.874989, "rental_uris": {"android": "https://dc.lft.to/lastmile_qr_scan", "ios": "https://dc.lft.to/lastmile_qr_scan"}, "bike_id": "c3d34fc10293aac0c8a526bab3dd9d9e", "lon": -76.99975666666667}, {"is_reserved": 0, "fusion_lon": 0.0, "fusion_lat": 0.0, "name": "834d88d78a6bf362434577296d5fa8fb", "type": "electric_scooter", "is_disabled": 0, "lat": 38.8626245, "rental_uris": {"android": "https://dc.lft.to/lastmile_qr_scan", "ios": "https://dc.lft.to/lastmile_qr_scan"}, "bike_id": "834d88d78a6bf362434577296d5fa8fb", "lon": -76.995169}, {"is_reserved": 0, "fusion_lon": 0.0, "fusion_lat": 0.0, "name": "15af3426cac47f4a791d0ee4c5710bf7", "type": "electric_scooter", "is_disabled": 0, "lat": 38.927764, "rental_uris": {"android": "https://dc.lft.to/lastmile_qr_scan", "ios": "https://dc.lft.to/lastmile_qr_scan"}, "bike_id": "15af3426cac47f4a791d0ee4c5710bf7", "lon": -77.02779216666667}, {"is_reserved": 0, "fusion_lon": 0.0, "fusion_lat": 0.0, "name": "18ae4de6b9ae53ee39193ff81c58f2a5", "type": "electric_bike", "is_disabled": 0, "lat": 38.880621166666664, "rental_uris": {"android": "https://dc.lft.to/lastmile_qr_scan", "ios": "https://dc.lft.to/lastmile_qr_scan"}, "bike_id": "18ae4de6b9ae53ee39193ff81c58f2a5", "lon": -76.96236633333334}, {"is_reserved": 0, "fusion_lon": 0.0, "fusion_lat": 0.0, "name": "b5323ed8b556269031694a5bf89efbf7", "type": "electric_scooter", "is_disabled": 0, "lat": 38.918004833333335, "rental_uris": {"android": "https://dc.lft.to/lastmile_qr_scan", "ios": "https://dc.lft.to/lastmile_qr_scan"}, "bike_id": "b5323ed8b556269031694a5bf89efbf7", "lon": -77.04021333333333}, {"is_reserved": 0, "fusion_lon": 0.0, "fusion_lat": 0.0, "name": "98fbb5025664a17d9b27a6efe20816f2", "type": "electric_scooter", "is_disabled": 0, "lat": 38.9421115, "rental_uris": {"android": "https://dc.lft.to/lastmile_qr_scan", "ios": "https://dc.lft.to/lastmile_qr_scan"}, "bike_id": "98fbb5025664a17d9b27a6efe20816f2", "lon": -77.0252145}, {"is_reserved": 0, "fusion_lon": 0.0, "fusion_lat": 0.0, "name": "5f63325a5e7ac05c216583eda57726ea", "type": "electric_bike", "is_disabled": 0, "lat": 38.87282233333333, "rental_uris": {"android": "https://dc.lft.to/lastmile_qr_scan", "ios": "https://dc.lft.to/lastmile_qr_scan"}, "bike_id": "5f63325a5e7ac05c216583eda57726ea", "lon": -77.23315016666666}, {"is_reserved": 0, "fusion_lon": 0.0, "fusion_lat": 0.0, "name": "120d15e9ed98dafdffb3e29e94f22580", "type": "electric_scooter", "is_disabled": 0, "lat": 38.8670165, "rental_uris": {"android": "https://dc.lft.to/lastmile_qr_scan", "ios": "https://dc.lft.to/lastmile_qr_scan"}, "bike_id": "120d15e9ed98dafdffb3e29e94f22580", "lon": -76.98589516666667}, {"is_reserved": 0, "fusion_lon": 0.0, "fusion_lat": 0.0, "name": "145ea304c0fa51a94edce29cd7bdc0f5", "type": "electric_scooter", "is_disabled": 0, "lat": 38.8922635, "rental_uris": {"android": "https://dc.lft.to/lastmile_qr_scan", "ios": "https://dc.lft.to/lastmile_qr_scan"}, "bike_id": "145ea304c0fa51a94edce29cd7bdc0f5", "lon": -77.0286415}, {"is_reserved": 0, "fusion_lon": 0.0, "fusion_lat": 0.0, "name": "eab65aa443bd484b75286bc6f6724184", "type": "electric_scooter", "is_disabled": 0, "lat": 38.918581, "rental_uris": {"android": "https://dc.lft.to/lastmile_qr_scan", "ios": "https://dc.lft.to/lastmile_qr_scan"}, "bike_id": "eab65aa443bd484b75286bc6f6724184", "lon": -77.01671116666667}, {"is_reserved": 0, "fusion_lon": 0.0, "fusion_lat": 0.0, "name": "f4ade8f63140ec89a5b77ca56f784497", "type": "electric_scooter", "is_disabled": 0, "lat": 38.90402916666667, "rental_uris": {"android": "https://dc.lft.to/lastmile_qr_scan", "ios": "https://dc.lft.to/lastmile_qr_scan"}, "bike_id": "f4ade8f63140ec89a5b77ca56f784497", "lon": -77.038277}, {"is_reserved": 0, "fusion_lon": 0.0, "fusion_lat": 0.0, "name": "5454e48e0c0e02b2f6228d63d88d686d", "type": "electric_bike", "is_disabled": 0, "lat": 38.961446333333335, "rental_uris": {"android": "https://dc.lft.to/lastmile_qr_scan", "ios": "https://dc.lft.to/lastmile_qr_scan"}, "bike_id": "5454e48e0c0e02b2f6228d63d88d686d", "lon": -77.02295433333333}, {"is_reserved": 0, "fusion_lon": 0.0, "fusion_lat": 0.0, "name": "6533e4d40cfc5f60738c8c50b35481d3", "type": "electric_scooter", "is_disabled": 0, "lat": 38.907324333333335, "rental_uris": {"android": "https://dc.lft.to/lastmile_qr_scan", "ios": "https://dc.lft.to/lastmile_qr_scan"}, "bike_id": "6533e4d40cfc5f60738c8c50b35481d3", "lon": -77.01132566666666}, {"is_reserved": 0, "fusion_lon": 0.0, "fusion_lat": 0.0, "name": "44d4cf0c63679d44d98060799159ddf6", "type": "electric_scooter", "is_disabled": 0, "lat": 38.92458333333333, "rental_uris": {"android": "https://dc.lft.to/lastmile_qr_scan", "ios": "https://dc.lft.to/lastmile_qr_scan"}, "bike_id": "44d4cf0c63679d44d98060799159ddf6", "lon": -77.04115566666667}, {"is_reserved": 0, "fusion_lon": 0.0, "fusion_lat": 0.0, "name": "a945c179e6cf23ea327b3c09b2faccd6", "type": "electric_scooter", "is_disabled": 0, "lat": 38.887362333333336, "rental_uris": {"android": "https://dc.lft.to/lastmile_qr_scan", "ios": "https://dc.lft.to/lastmile_qr_scan"}, "bike_id": "a945c179e6cf23ea327b3c09b2faccd6", "lon": -77.02838683333333}, {"is_reserved": 0, "fusion_lon": 0.0, "fusion_lat": 0.0, "name": "aa969b166a0b496503bc45055957ea34", "type": "electric_scooter", "is_disabled": 0, "lat": 38.92184016666667, "rental_uris": {"android": "https://dc.lft.to/lastmile_qr_scan", "ios": "https://dc.lft.to/lastmile_qr_scan"}, "bike_id": "aa969b166a0b496503bc45055957ea34", "lon": -77.021056}, {"is_reserved": 0, "fusion_lon": 0.0, "fusion_lat": 0.0, "name": "c9c54419fdb6bb2c7bd519b7892f5896", "type": "electric_scooter", "is_disabled": 0, "lat": 38.908056, "rental_uris": {"android": "https://dc.lft.to/lastmile_qr_scan", "ios": "https://dc.lft.to/lastmile_qr_scan"}, "bike_id": "c9c54419fdb6bb2c7bd519b7892f5896", "lon": -77.03859616666666}, {"is_reserved": 0, "fusion_lon": 0.0, "fusion_lat": 0.0, "name": "b7c4c4a433fc5033e2123b91515cc6da", "type": "electric_bike", "is_disabled": 0, "lat": 38.910185166666665, "rental_uris": {"android": "https://dc.lft.to/lastmile_qr_scan", "ios": "https://dc.lft.to/lastmile_qr_scan"}, "bike_id": "b7c4c4a433fc5033e2123b91515cc6da", "lon": -77.22796916666667}, {"is_reserved": 0, "fusion_lon": 0.0, "fusion_lat": 0.0, "name": "cf8ac13cd3efb409d7dc97ae62fc09d7", "type": "electric_scooter", "is_disabled": 0, "lat": 38.9231775, "rental_uris": {"android": "https://dc.lft.to/lastmile_qr_scan", "ios": "https://dc.lft.to/lastmile_qr_scan"}, "bike_id": "cf8ac13cd3efb409d7dc97ae62fc09d7", "lon": -77.02762566666667}, {"is_reserved": 0, "fusion_lon": 0.0, "fusion_lat": 0.0, "name": "430bdd3d9a9017b26ae3bdbd389d8cd6", "type": "electric_scooter", "is_disabled": 0, "lat": 38.86257783333333, "rental_uris": {"android": "https://dc.lft.to/lastmile_qr_scan", "ios": "https://dc.lft.to/lastmile_qr_scan"}, "bike_id": "430bdd3d9a9017b26ae3bdbd389d8cd6", "lon": -76.99515983333333}, {"is_reserved": 0, "fusion_lon": 0.0, "fusion_lat": 0.0, "name": "5ece57f5d1decfe84c0b54e15dc544a9", "type": "electric_scooter", "is_disabled": 0, "lat": 38.91552883333333, "rental_uris": {"android": "https://dc.lft.to/lastmile_qr_scan", "ios": "https://dc.lft.to/lastmile_qr_scan"}, "bike_id": "5ece57f5d1decfe84c0b54e15dc544a9", "lon": -77.0220385}, {"is_reserved": 0, "fusion_lon": 0.0, "fusion_lat": 0.0, "name": "09a2c67941515b16808d413e495056f3", "type": "electric_scooter", "is_disabled": 0, "lat": 38.887418, "rental_uris": {"android": "https://dc.lft.to/lastmile_qr_scan", "ios": "https://dc.lft.to/lastmile_qr_scan"}, "bike_id": "09a2c67941515b16808d413e495056f3", "lon": -77.02213066666667}, {"is_reserved": 0, "fusion_lon": 0.0, "fusion_lat": 0.0, "name": "d75b35e7f58c317f3b8935f9ebc00568", "type": "electric_scooter", "is_disabled": 0, "lat": 38.895141833333334, "rental_uris": {"android": "https://dc.lft.to/lastmile_qr_scan", "ios": "https://dc.lft.to/lastmile_qr_scan"}, "bike_id": "d75b35e7f58c317f3b8935f9ebc00568", "lon": -77.04679266666666}, {"is_reserved": 0, "fusion_lon": 0.0, "fusion_lat": 0.0, "name": "0332bbb41e50e095144aa45742f21ad5", "type": "electric_scooter", "is_disabled": 0, "lat": 38.904546, "rental_uris": {"android": "https://dc.lft.to/lastmile_qr_scan", "ios": "https://dc.lft.to/lastmile_qr_scan"}, "bike_id": "0332bbb41e50e095144aa45742f21ad5", "lon": -77.04470116666667}, {"is_reserved": 0, "fusion_lon": 0.0, "fusion_lat": 0.0, "name": "94f28b81d2b8c3ceb0c01067bec33e7f", "type": "electric_scooter", "is_disabled": 0, "lat": 38.902817666666664, "rental_uris": {"android": "https://dc.lft.to/lastmile_qr_scan", "ios": "https://dc.lft.to/lastmile_qr_scan"}, "bike_id": "94f28b81d2b8c3ceb0c01067bec33e7f", "lon": -77.04174333333333}, {"is_reserved": 0, "fusion_lon": 0.0, "fusion_lat": 0.0, "name": "5c0f10152aac125a3a23fd65e2e2bafd", "type": "electric_scooter", "is_disabled": 0, "lat": 38.90684266666667, "rental_uris": {"android": "https://dc.lft.to/lastmile_qr_scan", "ios": "https://dc.lft.to/lastmile_qr_scan"}, "bike_id": "5c0f10152aac125a3a23fd65e2e2bafd", "lon": -77.03859016666667}, {"is_reserved": 0, "fusion_lon": 0.0, "fusion_lat": 0.0, "name": "0ff4ca6fd760bdee188f6ad91bc24ccf", "type": "electric_scooter", "is_disabled": 0, "lat": 38.88131283333333, "rental_uris": {"android": "https://dc.lft.to/lastmile_qr_scan", "ios": "https://dc.lft.to/lastmile_qr_scan"}, "bike_id": "0ff4ca6fd760bdee188f6ad91bc24ccf", "lon": -77.0166825}, {"is_reserved": 0, "fusion_lon": 0.0, "fusion_lat": 0.0, "name": "ebdb6943a655a9beeb997ae89f288685", "type": "electric_scooter", "is_disabled": 0, "lat": 38.90428516666667, "rental_uris": {"android": "https://dc.lft.to/lastmile_qr_scan", "ios": "https://dc.lft.to/lastmile_qr_scan"}, "bike_id": "ebdb6943a655a9beeb997ae89f288685", "lon": -77.05318483333333}, {"is_reserved": 0, "fusion_lon": 0.0, "fusion_lat": 0.0, "name": "2356bd8e740b7f2e40f1364796da6a38", "type": "electric_scooter", "is_disabled": 0, "lat": 38.916183333333336, "rental_uris": {"android": "https://dc.lft.to/lastmile_qr_scan", "ios": "https://dc.lft.to/lastmile_qr_scan"}, "bike_id": "2356bd8e740b7f2e40f1364796da6a38", "lon": -77.02201083333334}, {"is_reserved": 0, "fusion_lon": 0.0, "fusion_lat": 0.0, "name": "319b51bd3720f165dc8f651bcff6ae62", "type": "electric_scooter", "is_disabled": 0, "lat": 38.88609183333333, "rental_uris": {"android": "https://dc.lft.to/lastmile_qr_scan", "ios": "https://dc.lft.to/lastmile_qr_scan"}, "bike_id": "319b51bd3720f165dc8f651bcff6ae62", "lon": -76.99094283333334}, {"is_reserved": 0, "fusion_lon": 0.0, "fusion_lat": 0.0, "name": "c85a4eb5f72d18d1f08428bd0ee064f4", "type": "electric_scooter", "is_disabled": 0, "lat": 38.90832983333333, "rental_uris": {"android": "https://dc.lft.to/lastmile_qr_scan", "ios": "https://dc.lft.to/lastmile_qr_scan"}, "bike_id": "c85a4eb5f72d18d1f08428bd0ee064f4", "lon": -77.03851083333333}, {"is_reserved": 0, "fusion_lon": 0.0, "fusion_lat": 0.0, "name": "c64ba4eca212e01eb686af7fb2e3d6f9", "type": "electric_scooter", "is_disabled": 0, "lat": 38.886355333333334, "rental_uris": {"android": "https://dc.lft.to/lastmile_qr_scan", "ios": "https://dc.lft.to/lastmile_qr_scan"}, "bike_id": "c64ba4eca212e01eb686af7fb2e3d6f9", "lon": -77.02220483333333}, {"is_reserved": 0, "fusion_lon": 0.0, "fusion_lat": 0.0, "name": "965fdfbbe5b47edd86badcb93b8802b1", "type": "electric_scooter", "is_disabled": 0, "lat": 38.899133166666665, "rental_uris": {"android": "https://dc.lft.to/lastmile_qr_scan", "ios": "https://dc.lft.to/lastmile_qr_scan"}, "bike_id": "965fdfbbe5b47edd86badcb93b8802b1", "lon": -77.03235766666667}, {"is_reserved": 0, "fusion_lon": 0.0, "fusion_lat": 0.0, "name": "5806064cf05cf914e18bab34384f5ee2", "type": "electric_scooter", "is_disabled": 0, "lat": 38.90613916666667, "rental_uris": {"android": "https://dc.lft.to/lastmile_qr_scan", "ios": "https://dc.lft.to/lastmile_qr_scan"}, "bike_id": "5806064cf05cf914e18bab34384f5ee2", "lon": -77.04045683333334}, {"is_reserved": 0, "fusion_lon": 0.0, "fusion_lat": 0.0, "name": "5ea95c8c17953498c213cbe2560f8e4d", "type": "electric_scooter", "is_disabled": 0, "lat": 38.9012615, "rental_uris": {"android": "https://dc.lft.to/lastmile_qr_scan", "ios": "https://dc.lft.to/lastmile_qr_scan"}, "bike_id": "5ea95c8c17953498c213cbe2560f8e4d", "lon": -77.03322233333333}, {"is_reserved": 0, "fusion_lon": 0.0, "fusion_lat": 0.0, "name": "28d8769169f091d3322d76f3071035c3", "type": "electric_scooter", "is_disabled": 0, "lat": 38.91988683333334, "rental_uris": {"android": "https://dc.lft.to/lastmile_qr_scan", "ios": "https://dc.lft.to/lastmile_qr_scan"}, "bike_id": "28d8769169f091d3322d76f3071035c3", "lon": -77.02501733333334}, {"is_reserved": 0, "fusion_lon": 0.0, "fusion_lat": 0.0, "name": "6450eb57ad4e0b580d9ab12e56ae9113", "type": "electric_scooter", "is_disabled": 0, "lat": 38.906625166666664, "rental_uris": {"android": "https://dc.lft.to/lastmile_qr_scan", "ios": "https://dc.lft.to/lastmile_qr_scan"}, "bike_id": "6450eb57ad4e0b580d9ab12e56ae9113", "lon": -77.002036}, {"is_reserved": 0, "fusion_lon": 0.0, "fusion_lat": 0.0, "name": "acf74cf0e1e964bc5946454bb95c6771", "type": "electric_scooter", "is_disabled": 0, "lat": 38.9386735, "rental_uris": {"android": "https://dc.lft.to/lastmile_qr_scan", "ios": "https://dc.lft.to/lastmile_qr_scan"}, "bike_id": "acf74cf0e1e964bc5946454bb95c6771", "lon": -77.03082133333334}, {"is_reserved": 0, "fusion_lon": 0.0, "fusion_lat": 0.0, "name": "8305155319fe1f3c9f3777795e94f1fb", "type": "electric_scooter", "is_disabled": 0, "lat": 38.9253725, "rental_uris": {"android": "https://dc.lft.to/lastmile_qr_scan", "ios": "https://dc.lft.to/lastmile_qr_scan"}, "bike_id": "8305155319fe1f3c9f3777795e94f1fb", "lon": -76.99597416666667}, {"is_reserved": 0, "fusion_lon": 0.0, "fusion_lat": 0.0, "name": "ed350351ae39136efaad78f6f280e32a", "type": "electric_bike", "is_disabled": 0, "lat": 38.8291715, "rental_uris": {"android": "https://dc.lft.to/lastmile_qr_scan", "ios": "https://dc.lft.to/lastmile_qr_scan"}, "bike_id": "ed350351ae39136efaad78f6f280e32a", "lon": -76.99778716666667}, {"is_reserved": 0, "fusion_lon": 0.0, "fusion_lat": 0.0, "name": "2dff17f4213db4bb808b828b0eeed07e", "type": "electric_scooter", "is_disabled": 0, "lat": 38.91672616666666, "rental_uris": {"android": "https://dc.lft.to/lastmile_qr_scan", "ios": "https://dc.lft.to/lastmile_qr_scan"}, "bike_id": "2dff17f4213db4bb808b828b0eeed07e", "lon": -77.03206833333333}, {"is_reserved": 0, "fusion_lon": 0.0, "fusion_lat": 0.0, "name": "9cb7505210703b69b116cd53700c3928", "type": "electric_scooter", "is_disabled": 0, "lat": 38.904061, "rental_uris": {"android": "https://dc.lft.to/lastmile_qr_scan", "ios": "https://dc.lft.to/lastmile_qr_scan"}, "bike_id": "9cb7505210703b69b116cd53700c3928", "lon": -77.06774033333333}, {"is_reserved": 0, "fusion_lon": 0.0, "fusion_lat": 0.0, "name": "0c23da33c0b3e2bb416d5ab933ac550a", "type": "electric_scooter", "is_disabled": 0, "lat": 38.91274683333333, "rental_uris": {"android": "https://dc.lft.to/lastmile_qr_scan", "ios": "https://dc.lft.to/lastmile_qr_scan"}, "bike_id": "0c23da33c0b3e2bb416d5ab933ac550a", "lon": -77.02247333333334}, {"is_reserved": 0, "fusion_lon": 0.0, "fusion_lat": 0.0, "name": "c450477e63076880bf04d2c47938170e", "type": "electric_scooter", "is_disabled": 0, "lat": 38.90159933333333, "rental_uris": {"android": "https://dc.lft.to/lastmile_qr_scan", "ios": "https://dc.lft.to/lastmile_qr_scan"}, "bike_id": "c450477e63076880bf04d2c47938170e", "lon": -77.03196816666667}, {"is_reserved": 0, "fusion_lon": 0.0, "fusion_lat": 0.0, "name": "a5c8620bd714f0eff7474043a8db75f6", "type": "electric_scooter", "is_disabled": 0, "lat": 38.89855883333333, "rental_uris": {"android": "https://dc.lft.to/lastmile_qr_scan", "ios": "https://dc.lft.to/lastmile_qr_scan"}, "bike_id": "a5c8620bd714f0eff7474043a8db75f6", "lon": -77.00739}, {"is_reserved": 0, "fusion_lon": 0.0, "fusion_lat": 0.0, "name": "bb7ca8648264e0683e41ae05c6947bf8", "type": "electric_scooter", "is_disabled": 0, "lat": 38.933864, "rental_uris": {"android": "https://dc.lft.to/lastmile_qr_scan", "ios": "https://dc.lft.to/lastmile_qr_scan"}, "bike_id": "bb7ca8648264e0683e41ae05c6947bf8", "lon": -76.98110283333334}, {"is_reserved": 0, "fusion_lon": 0.0, "fusion_lat": 0.0, "name": "7df4daafc3f95f65a640027361c5f179", "type": "electric_scooter", "is_disabled": 0, "lat": 38.86064733333333, "rental_uris": {"android": "https://dc.lft.to/lastmile_qr_scan", "ios": "https://dc.lft.to/lastmile_qr_scan"}, "bike_id": "7df4daafc3f95f65a640027361c5f179", "lon": -76.98425066666667}, {"is_reserved": 0, "fusion_lon": 0.0, "fusion_lat": 0.0, "name": "b5c4b5128afce1fd052084c6ff753563", "type": "electric_scooter", "is_disabled": 0, "lat": 38.90560683333333, "rental_uris": {"android": "https://dc.lft.to/lastmile_qr_scan", "ios": "https://dc.lft.to/lastmile_qr_scan"}, "bike_id": "b5c4b5128afce1fd052084c6ff753563", "lon": -77.00592233333333}, {"is_reserved": 0, "fusion_lon": 0.0, "fusion_lat": 0.0, "name": "f1315ea59b2904c22fa3760f09ab2702", "type": "electric_scooter", "is_disabled": 0, "lat": 38.938649833333336, "rental_uris": {"android": "https://dc.lft.to/lastmile_qr_scan", "ios": "https://dc.lft.to/lastmile_qr_scan"}, "bike_id": "f1315ea59b2904c22fa3760f09ab2702", "lon": -77.02651316666666}, {"is_reserved": 0, "fusion_lon": 0.0, "fusion_lat": 0.0, "name": "c4e032cc1826cb46940f32bb3c781a5f", "type": "electric_scooter", "is_disabled": 0, "lat": 38.89896733333333, "rental_uris": {"android": "https://dc.lft.to/lastmile_qr_scan", "ios": "https://dc.lft.to/lastmile_qr_scan"}, "bike_id": "c4e032cc1826cb46940f32bb3c781a5f", "lon": -76.93401366666667}, {"is_reserved": 0, "fusion_lon": 0.0, "fusion_lat": 0.0, "name": "f67ed85ae89b4eea68d17d413e10c099", "type": "electric_scooter", "is_disabled": 0, "lat": 38.92060683333333, "rental_uris": {"android": "https://dc.lft.to/lastmile_qr_scan", "ios": "https://dc.lft.to/lastmile_qr_scan"}, "bike_id": "f67ed85ae89b4eea68d17d413e10c099", "lon": -77.02561466666667}, {"is_reserved": 0, "fusion_lon": 0.0, "fusion_lat": 0.0, "name": "593c04608bbf981be8bfb7c4f24734ba", "type": "electric_scooter", "is_disabled": 0, "lat": 38.90276383333333, "rental_uris": {"android": "https://dc.lft.to/lastmile_qr_scan", "ios": "https://dc.lft.to/lastmile_qr_scan"}, "bike_id": "593c04608bbf981be8bfb7c4f24734ba", "lon": -77.04591633333334}, {"is_reserved": 0, "fusion_lon": 0.0, "fusion_lat": 0.0, "name": "bd35f5969f9afed6b128b0378f58ca8a", "type": "electric_scooter", "is_disabled": 0, "lat": 38.923396333333336, "rental_uris": {"android": "https://dc.lft.to/lastmile_qr_scan", "ios": "https://dc.lft.to/lastmile_qr_scan"}, "bike_id": "bd35f5969f9afed6b128b0378f58ca8a", "lon": -77.04324883333334}, {"is_reserved": 0, "fusion_lon": 0.0, "fusion_lat": 0.0, "name": "686ab36f105d21e82dfd63f35e1725f8", "type": "electric_scooter", "is_disabled": 0, "lat": 38.929032666666664, "rental_uris": {"android": "https://dc.lft.to/lastmile_qr_scan", "ios": "https://dc.lft.to/lastmile_qr_scan"}, "bike_id": "686ab36f105d21e82dfd63f35e1725f8", "lon": -77.03254733333333}, {"is_reserved": 0, "fusion_lon": 0.0, "fusion_lat": 0.0, "name": "05399f8a2c1677e51b64f65e4360318a", "type": "electric_scooter", "is_disabled": 0, "lat": 38.93483483333333, "rental_uris": {"android": "https://dc.lft.to/lastmile_qr_scan", "ios": "https://dc.lft.to/lastmile_qr_scan"}, "bike_id": "05399f8a2c1677e51b64f65e4360318a", "lon": -77.0579285}, {"is_reserved": 0, "fusion_lon": 0.0, "fusion_lat": 0.0, "name": "8a7d75565363f3b58defe30568b3801f", "type": "electric_scooter", "is_disabled": 0, "lat": 38.89358433333334, "rental_uris": {"android": "https://dc.lft.to/lastmile_qr_scan", "ios": "https://dc.lft.to/lastmile_qr_scan"}, "bike_id": "8a7d75565363f3b58defe30568b3801f", "lon": -77.00333166666667}, {"is_reserved": 0, "fusion_lon": 0.0, "fusion_lat": 0.0, "name": "ae115d129bc1862ba979e8bf4a057dd0", "type": "electric_scooter", "is_disabled": 0, "lat": 38.9033605, "rental_uris": {"android": "https://dc.lft.to/lastmile_qr_scan", "ios": "https://dc.lft.to/lastmile_qr_scan"}, "bike_id": "ae115d129bc1862ba979e8bf4a057dd0", "lon": -77.04362016666667}, {"is_reserved": 0, "fusion_lon": 0.0, "fusion_lat": 0.0, "name": "b83b665c8e9d2f61c30ed89add9dc0b1", "type": "electric_scooter", "is_disabled": 0, "lat": 38.92092783333333, "rental_uris": {"android": "https://dc.lft.to/lastmile_qr_scan", "ios": "https://dc.lft.to/lastmile_qr_scan"}, "bike_id": "b83b665c8e9d2f61c30ed89add9dc0b1", "lon": -77.022192}, {"is_reserved": 0, "fusion_lon": 0.0, "fusion_lat": 0.0, "name": "9d083fef507135cd8bff586534c84c95", "type": "electric_scooter", "is_disabled": 0, "lat": 38.880535333333334, "rental_uris": {"android": "https://dc.lft.to/lastmile_qr_scan", "ios": "https://dc.lft.to/lastmile_qr_scan"}, "bike_id": "9d083fef507135cd8bff586534c84c95", "lon": -77.02001633333333}, {"is_reserved": 0, "fusion_lon": 0.0, "fusion_lat": 0.0, "name": "da59dc423e860b02bdd1ddf64e47c16a", "type": "electric_bike", "is_disabled": 0, "lat": 38.87734916666667, "rental_uris": {"android": "https://dc.lft.to/lastmile_qr_scan", "ios": "https://dc.lft.to/lastmile_qr_scan"}, "bike_id": "da59dc423e860b02bdd1ddf64e47c16a", "lon": -76.981056}, {"is_reserved": 0, "fusion_lon": 0.0, "fusion_lat": 0.0, "name": "0e4ba1fbd780764df70f2ca0ddbc9aa1", "type": "electric_scooter", "is_disabled": 0, "lat": 38.930063833333335, "rental_uris": {"android": "https://dc.lft.to/lastmile_qr_scan", "ios": "https://dc.lft.to/lastmile_qr_scan"}, "bike_id": "0e4ba1fbd780764df70f2ca0ddbc9aa1", "lon": -77.0129955}, {"is_reserved": 0, "fusion_lon": 0.0, "fusion_lat": 0.0, "name": "bcaba7173224346bbb2f7877b823eb92", "type": "electric_scooter", "is_disabled": 0, "lat": 38.9039675, "rental_uris": {"android": "https://dc.lft.to/lastmile_qr_scan", "ios": "https://dc.lft.to/lastmile_qr_scan"}, "bike_id": "bcaba7173224346bbb2f7877b823eb92", "lon": -77.04013533333334}, {"is_reserved": 0, "fusion_lon": 0.0, "fusion_lat": 0.0, "name": "92a58a3a6c1c5872f47e85e27ab6911a", "type": "electric_scooter", "is_disabled": 0, "lat": 38.908789166666665, "rental_uris": {"android": "https://dc.lft.to/lastmile_qr_scan", "ios": "https://dc.lft.to/lastmile_qr_scan"}, "bike_id": "92a58a3a6c1c5872f47e85e27ab6911a", "lon": -77.0375545}, {"is_reserved": 0, "fusion_lon": 0.0, "fusion_lat": 0.0, "name": "29bd9f3ff89c4d2a3d7c43e76d53d1bc", "type": "electric_scooter", "is_disabled": 0, "lat": 38.90137416666666, "rental_uris": {"android": "https://dc.lft.to/lastmile_qr_scan", "ios": "https://dc.lft.to/lastmile_qr_scan"}, "bike_id": "29bd9f3ff89c4d2a3d7c43e76d53d1bc", "lon": -77.03966316666667}, {"is_reserved": 0, "fusion_lon": 0.0, "fusion_lat": 0.0, "name": "4180de72cdffd599140bd5f2bf76918b", "type": "electric_scooter", "is_disabled": 0, "lat": 38.86664283333333, "rental_uris": {"android": "https://dc.lft.to/lastmile_qr_scan", "ios": "https://dc.lft.to/lastmile_qr_scan"}, "bike_id": "4180de72cdffd599140bd5f2bf76918b", "lon": -76.9854205}, {"is_reserved": 0, "fusion_lon": 0.0, "fusion_lat": 0.0, "name": "dc9427438aae22df386196fc7b78c1d8", "type": "electric_scooter", "is_disabled": 0, "lat": 38.91793533333333, "rental_uris": {"android": "https://dc.lft.to/lastmile_qr_scan", "ios": "https://dc.lft.to/lastmile_qr_scan"}, "bike_id": "dc9427438aae22df386196fc7b78c1d8", "lon": -77.0319645}, {"is_reserved": 0, "fusion_lon": 0.0, "fusion_lat": 0.0, "name": "b93991abebb36dad1171e0bff7c46761", "type": "electric_scooter", "is_disabled": 0, "lat": 38.89526716666667, "rental_uris": {"android": "https://dc.lft.to/lastmile_qr_scan", "ios": "https://dc.lft.to/lastmile_qr_scan"}, "bike_id": "b93991abebb36dad1171e0bff7c46761", "lon": -77.0033675}, {"is_reserved": 0, "fusion_lon": 0.0, "fusion_lat": 0.0, "name": "e4715662b4d08504870830989ab4d08a", "type": "electric_scooter", "is_disabled": 0, "lat": 38.89933966666667, "rental_uris": {"android": "https://dc.lft.to/lastmile_qr_scan", "ios": "https://dc.lft.to/lastmile_qr_scan"}, "bike_id": "e4715662b4d08504870830989ab4d08a", "lon": -77.04060583333333}, {"is_reserved": 0, "fusion_lon": 0.0, "fusion_lat": 0.0, "name": "9c82ad3c6a48a6ae2597f0c1754cae5f", "type": "electric_scooter", "is_disabled": 0, "lat": 38.892299, "rental_uris": {"android": "https://dc.lft.to/lastmile_qr_scan", "ios": "https://dc.lft.to/lastmile_qr_scan"}, "bike_id": "9c82ad3c6a48a6ae2597f0c1754cae5f", "lon": -77.04367766666667}, {"is_reserved": 0, "fusion_lon": 0.0, "fusion_lat": 0.0, "name": "3ae8d7f594109ee4a2f5fb7fbae279f4", "type": "electric_scooter", "is_disabled": 0, "lat": 38.920746666666666, "rental_uris": {"android": "https://dc.lft.to/lastmile_qr_scan", "ios": "https://dc.lft.to/lastmile_qr_scan"}, "bike_id": "3ae8d7f594109ee4a2f5fb7fbae279f4", "lon": -77.01445766666667}, {"is_reserved": 0, "fusion_lon": 0.0, "fusion_lat": 0.0, "name": "fd3371d19e12761cc3f72b06d69986c2", "type": "electric_scooter", "is_disabled": 0, "lat": 38.92331866666667, "rental_uris": {"android": "https://dc.lft.to/lastmile_qr_scan", "ios": "https://dc.lft.to/lastmile_qr_scan"}, "bike_id": "fd3371d19e12761cc3f72b06d69986c2", "lon": -77.0432215}, {"is_reserved": 0, "fusion_lon": 0.0, "fusion_lat": 0.0, "name": "06269b131e709cb33c96e66a96f85f2a", "type": "electric_scooter", "is_disabled": 0, "lat": 38.9077175, "rental_uris": {"android": "https://dc.lft.to/lastmile_qr_scan", "ios": "https://dc.lft.to/lastmile_qr_scan"}, "bike_id": "06269b131e709cb33c96e66a96f85f2a", "lon": -77.03821983333333}, {"is_reserved": 0, "fusion_lon": 0.0, "fusion_lat": 0.0, "name": "2f505d23b50b703a7fd87ae7b1c11c32", "type": "electric_scooter", "is_disabled": 0, "lat": 38.916624666666664, "rental_uris": {"android": "https://dc.lft.to/lastmile_qr_scan", "ios": "https://dc.lft.to/lastmile_qr_scan"}, "bike_id": "2f505d23b50b703a7fd87ae7b1c11c32", "lon": -77.0191755}, {"is_reserved": 0, "fusion_lon": 0.0, "fusion_lat": 0.0, "name": "c925c93edec12e8819ecf27c6803a0a4", "type": "electric_scooter", "is_disabled": 0, "lat": 38.87464283333333, "rental_uris": {"android": "https://dc.lft.to/lastmile_qr_scan", "ios": "https://dc.lft.to/lastmile_qr_scan"}, "bike_id": "c925c93edec12e8819ecf27c6803a0a4", "lon": -77.0054355}, {"is_reserved": 0, "fusion_lon": 0.0, "fusion_lat": 0.0, "name": "46b8bbdd77b5c519c47bc5cdf182b8ef", "type": "electric_scooter", "is_disabled": 0, "lat": 38.866601833333334, "rental_uris": {"android": "https://dc.lft.to/lastmile_qr_scan", "ios": "https://dc.lft.to/lastmile_qr_scan"}, "bike_id": "46b8bbdd77b5c519c47bc5cdf182b8ef", "lon": -76.98882166666667}, {"is_reserved": 0, "fusion_lon": 0.0, "fusion_lat": 0.0, "name": "b563cc55bcc0993666d4a31ea1f2ba26", "type": "electric_scooter", "is_disabled": 0, "lat": 38.92109, "rental_uris": {"android": "https://dc.lft.to/lastmile_qr_scan", "ios": "https://dc.lft.to/lastmile_qr_scan"}, "bike_id": "b563cc55bcc0993666d4a31ea1f2ba26", "lon": -77.03336866666666}, {"is_reserved": 0, "fusion_lon": 0.0, "fusion_lat": 0.0, "name": "e46de2c150b00e9525a4b20ee546dc2b", "type": "electric_scooter", "is_disabled": 0, "lat": 38.920496666666665, "rental_uris": {"android": "https://dc.lft.to/lastmile_qr_scan", "ios": "https://dc.lft.to/lastmile_qr_scan"}, "bike_id": "e46de2c150b00e9525a4b20ee546dc2b", "lon": -77.0165595}, {"is_reserved": 0, "fusion_lon": 0.0, "fusion_lat": 0.0, "name": "e0e51c6aed78472e0b8bbdebf9df7189", "type": "electric_scooter", "is_disabled": 0, "lat": 38.90888366666667, "rental_uris": {"android": "https://dc.lft.to/lastmile_qr_scan", "ios": "https://dc.lft.to/lastmile_qr_scan"}, "bike_id": "e0e51c6aed78472e0b8bbdebf9df7189", "lon": -76.985409}, {"is_reserved": 0, "fusion_lon": 0.0, "fusion_lat": 0.0, "name": "d6f4d11bd30b71ba9e150b7524f7b1d8", "type": "electric_scooter", "is_disabled": 0, "lat": 38.86360766666667, "rental_uris": {"android": "https://dc.lft.to/lastmile_qr_scan", "ios": "https://dc.lft.to/lastmile_qr_scan"}, "bike_id": "d6f4d11bd30b71ba9e150b7524f7b1d8", "lon": -76.98703}, {"is_reserved": 0, "fusion_lon": 0.0, "fusion_lat": 0.0, "name": "8f4287b760ffd81dfc5b55bd9710142a", "type": "electric_scooter", "is_disabled": 0, "lat": 38.90717633333333, "rental_uris": {"android": "https://dc.lft.to/lastmile_qr_scan", "ios": "https://dc.lft.to/lastmile_qr_scan"}, "bike_id": "8f4287b760ffd81dfc5b55bd9710142a", "lon": -77.04988916666667}, {"is_reserved": 0, "fusion_lon": 0.0, "fusion_lat": 0.0, "name": "c100fdca11fff0debc1cd1335e18859c", "type": "electric_scooter", "is_disabled": 0, "lat": 38.89231766666666, "rental_uris": {"android": "https://dc.lft.to/lastmile_qr_scan", "ios": "https://dc.lft.to/lastmile_qr_scan"}, "bike_id": "c100fdca11fff0debc1cd1335e18859c", "lon": -77.03140483333334}, {"is_reserved": 0, "fusion_lon": 0.0, "fusion_lat": 0.0, "name": "98225045da48f3436305b488b8208535", "type": "electric_scooter", "is_disabled": 0, "lat": 38.9155425, "rental_uris": {"android": "https://dc.lft.to/lastmile_qr_scan", "ios": "https://dc.lft.to/lastmile_qr_scan"}, "bike_id": "98225045da48f3436305b488b8208535", "lon": -77.02206766666667}, {"is_reserved": 0, "fusion_lon": 0.0, "fusion_lat": 0.0, "name": "38e58e42139256dc17d2b81981eed22a", "type": "electric_scooter", "is_disabled": 0, "lat": 38.900245166666664, "rental_uris": {"android": "https://dc.lft.to/lastmile_qr_scan", "ios": "https://dc.lft.to/lastmile_qr_scan"}, "bike_id": "38e58e42139256dc17d2b81981eed22a", "lon": -76.99582066666666}, {"is_reserved": 0, "fusion_lon": 0.0, "fusion_lat": 0.0, "name": "c918d6c2decdd5cc08f79adce4ddbd5d", "type": "electric_scooter", "is_disabled": 0, "lat": 38.88743783333334, "rental_uris": {"android": "https://dc.lft.to/lastmile_qr_scan", "ios": "https://dc.lft.to/lastmile_qr_scan"}, "bike_id": "c918d6c2decdd5cc08f79adce4ddbd5d", "lon": -77.02739766666667}, {"is_reserved": 0, "fusion_lon": 0.0, "fusion_lat": 0.0, "name": "b7f81698efb2b88ea5fe060e5dbea8a9", "type": "electric_scooter", "is_disabled": 0, "lat": 38.926620166666666, "rental_uris": {"android": "https://dc.lft.to/lastmile_qr_scan", "ios": "https://dc.lft.to/lastmile_qr_scan"}, "bike_id": "b7f81698efb2b88ea5fe060e5dbea8a9", "lon": -77.02273483333333}, {"is_reserved": 0, "fusion_lon": 0.0, "fusion_lat": 0.0, "name": "8ad279e847d13ab73caf4198d08d8655", "type": "electric_scooter", "is_disabled": 0, "lat": 38.8868165, "rental_uris": {"android": "https://dc.lft.to/lastmile_qr_scan", "ios": "https://dc.lft.to/lastmile_qr_scan"}, "bike_id": "8ad279e847d13ab73caf4198d08d8655", "lon": -76.95466416666666}, {"is_reserved": 0, "fusion_lon": 0.0, "fusion_lat": 0.0, "name": "6687999b5b22e5ddc0b0d032425b7456", "type": "electric_scooter", "is_disabled": 0, "lat": 38.9073725, "rental_uris": {"android": "https://dc.lft.to/lastmile_qr_scan", "ios": "https://dc.lft.to/lastmile_qr_scan"}, "bike_id": "6687999b5b22e5ddc0b0d032425b7456", "lon": -76.986925}, {"is_reserved": 0, "fusion_lon": 0.0, "fusion_lat": 0.0, "name": "4cf9d308a9e13d5401a1912eefa65267", "type": "electric_scooter", "is_disabled": 0, "lat": 38.89226333333333, "rental_uris": {"android": "https://dc.lft.to/lastmile_qr_scan", "ios": "https://dc.lft.to/lastmile_qr_scan"}, "bike_id": "4cf9d308a9e13d5401a1912eefa65267", "lon": -77.04375366666666}, {"is_reserved": 0, "fusion_lon": 0.0, "fusion_lat": 0.0, "name": "449cb4809c672626da111824f0447e76", "type": "electric_scooter", "is_disabled": 0, "lat": 38.91661766666667, "rental_uris": {"android": "https://dc.lft.to/lastmile_qr_scan", "ios": "https://dc.lft.to/lastmile_qr_scan"}, "bike_id": "449cb4809c672626da111824f0447e76", "lon": -77.029736}, {"is_reserved": 0, "fusion_lon": 0.0, "fusion_lat": 0.0, "name": "c24cef436c519de9c418e308c7a63b0c", "type": "electric_scooter", "is_disabled": 0, "lat": 38.8922405, "rental_uris": {"android": "https://dc.lft.to/lastmile_qr_scan", "ios": "https://dc.lft.to/lastmile_qr_scan"}, "bike_id": "c24cef436c519de9c418e308c7a63b0c", "lon": -77.0436965}, {"is_reserved": 0, "fusion_lon": 0.0, "fusion_lat": 0.0, "name": "dd2a2a7f3783c7deeb20eb21b192710b", "type": "electric_scooter", "is_disabled": 0, "lat": 38.909819666666664, "rental_uris": {"android": "https://dc.lft.to/lastmile_qr_scan", "ios": "https://dc.lft.to/lastmile_qr_scan"}, "bike_id": "dd2a2a7f3783c7deeb20eb21b192710b", "lon": -77.04226116666666}, {"is_reserved": 0, "fusion_lon": 0.0, "fusion_lat": 0.0, "name": "be55a012b9bdf3297ed5d4733c4d5c00", "type": "electric_scooter", "is_disabled": 0, "lat": 38.88018833333334, "rental_uris": {"android": "https://dc.lft.to/lastmile_qr_scan", "ios": "https://dc.lft.to/lastmile_qr_scan"}, "bike_id": "be55a012b9bdf3297ed5d4733c4d5c00", "lon": -77.02483733333334}, {"is_reserved": 0, "fusion_lon": 0.0, "fusion_lat": 0.0, "name": "b5a4ec63e08686c35c7a6df36493a5d6", "type": "electric_scooter", "is_disabled": 0, "lat": 38.8930215, "rental_uris": {"android": "https://dc.lft.to/lastmile_qr_scan", "ios": "https://dc.lft.to/lastmile_qr_scan"}, "bike_id": "b5a4ec63e08686c35c7a6df36493a5d6", "lon": -76.93928783333334}, {"is_reserved": 0, "fusion_lon": 0.0, "fusion_lat": 0.0, "name": "abcba4434184759a118f6072e4ed4158", "type": "electric_scooter", "is_disabled": 0, "lat": 38.89745083333333, "rental_uris": {"android": "https://dc.lft.to/lastmile_qr_scan", "ios": "https://dc.lft.to/lastmile_qr_scan"}, "bike_id": "abcba4434184759a118f6072e4ed4158", "lon": -77.04648633333333}, {"is_reserved": 0, "fusion_lon": 0.0, "fusion_lat": 0.0, "name": "b4e3a9a5c899accecee6122ed8a22c5e", "type": "electric_scooter", "is_disabled": 0, "lat": 38.918245, "rental_uris": {"android": "https://dc.lft.to/lastmile_qr_scan", "ios": "https://dc.lft.to/lastmile_qr_scan"}, "bike_id": "b4e3a9a5c899accecee6122ed8a22c5e", "lon": -77.03689983333334}, {"is_reserved": 0, "fusion_lon": 0.0, "fusion_lat": 0.0, "name": "bffbc79ec6f75cef63a2989ccd3f229b", "type": "electric_scooter", "is_disabled": 0, "lat": 38.9368135, "rental_uris": {"android": "https://dc.lft.to/lastmile_qr_scan", "ios": "https://dc.lft.to/lastmile_qr_scan"}, "bike_id": "bffbc79ec6f75cef63a2989ccd3f229b", "lon": -77.03576016666666}, {"is_reserved": 0, "fusion_lon": 0.0, "fusion_lat": 0.0, "name": "a14457fd9493e7065bb9997408a0e7c0", "type": "electric_scooter", "is_disabled": 0, "lat": 38.901615166666666, "rental_uris": {"android": "https://dc.lft.to/lastmile_qr_scan", "ios": "https://dc.lft.to/lastmile_qr_scan"}, "bike_id": "a14457fd9493e7065bb9997408a0e7c0", "lon": -77.03195883333333}, {"is_reserved": 0, "fusion_lon": 0.0, "fusion_lat": 0.0, "name": "5e62b2a1266eb174beede42cb5ed669e", "type": "electric_scooter", "is_disabled": 0, "lat": 38.8724155, "rental_uris": {"android": "https://dc.lft.to/lastmile_qr_scan", "ios": "https://dc.lft.to/lastmile_qr_scan"}, "bike_id": "5e62b2a1266eb174beede42cb5ed669e", "lon": -77.01170866666666}, {"is_reserved": 0, "fusion_lon": 0.0, "fusion_lat": 0.0, "name": "8eda08e4078326a6a8f4c88f06d955a2", "type": "electric_scooter", "is_disabled": 0, "lat": 38.898442333333335, "rental_uris": {"android": "https://dc.lft.to/lastmile_qr_scan", "ios": "https://dc.lft.to/lastmile_qr_scan"}, "bike_id": "8eda08e4078326a6a8f4c88f06d955a2", "lon": -77.00744833333333}, {"is_reserved": 0, "fusion_lon": 0.0, "fusion_lat": 0.0, "name": "0f65095399e59b665d30e5beab83f5f9", "type": "electric_bike", "is_disabled": 0, "lat": 38.88198766666667, "rental_uris": {"android": "https://dc.lft.to/lastmile_qr_scan", "ios": "https://dc.lft.to/lastmile_qr_scan"}, "bike_id": "0f65095399e59b665d30e5beab83f5f9", "lon": -77.005811}, {"is_reserved": 0, "fusion_lon": 0.0, "fusion_lat": 0.0, "name": "c6aa1a82e50189a243baf72f67970550", "type": "electric_scooter", "is_disabled": 0, "lat": 38.8839365, "rental_uris": {"android": "https://dc.lft.to/lastmile_qr_scan", "ios": "https://dc.lft.to/lastmile_qr_scan"}, "bike_id": "c6aa1a82e50189a243baf72f67970550", "lon": -77.03037733333333}, {"is_reserved": 0, "fusion_lon": 0.0, "fusion_lat": 0.0, "name": "0b95e19e2b2c4da116dc64fac86ac5bb", "type": "electric_scooter", "is_disabled": 0, "lat": 38.8601165, "rental_uris": {"android": "https://dc.lft.to/lastmile_qr_scan", "ios": "https://dc.lft.to/lastmile_qr_scan"}, "bike_id": "0b95e19e2b2c4da116dc64fac86ac5bb", "lon": -76.98520966666666}, {"is_reserved": 0, "fusion_lon": 0.0, "fusion_lat": 0.0, "name": "04ac445c7f4173d86d8718b53060a93f", "type": "electric_scooter", "is_disabled": 0, "lat": 38.898766, "rental_uris": {"android": "https://dc.lft.to/lastmile_qr_scan", "ios": "https://dc.lft.to/lastmile_qr_scan"}, "bike_id": "04ac445c7f4173d86d8718b53060a93f", "lon": -76.9318565}, {"is_reserved": 0, "fusion_lon": 0.0, "fusion_lat": 0.0, "name": "367e1e04737e363d4db15fead94a3c06", "type": "electric_scooter", "is_disabled": 0, "lat": 38.905548833333334, "rental_uris": {"android": "https://dc.lft.to/lastmile_qr_scan", "ios": "https://dc.lft.to/lastmile_qr_scan"}, "bike_id": "367e1e04737e363d4db15fead94a3c06", "lon": -77.00597566666667}, {"is_reserved": 0, "fusion_lon": 0.0, "fusion_lat": 0.0, "name": "9e9349c959f135e12c0b5eafaaafb24a", "type": "electric_scooter", "is_disabled": 0, "lat": 38.8763685, "rental_uris": {"android": "https://dc.lft.to/lastmile_qr_scan", "ios": "https://dc.lft.to/lastmile_qr_scan"}, "bike_id": "9e9349c959f135e12c0b5eafaaafb24a", "lon": -77.01254366666667}, {"is_reserved": 0, "fusion_lon": 0.0, "fusion_lat": 0.0, "name": "32865d24274e89aed4caadbe3bf80683", "type": "electric_scooter", "is_disabled": 0, "lat": 38.87723483333333, "rental_uris": {"android": "https://dc.lft.to/lastmile_qr_scan", "ios": "https://dc.lft.to/lastmile_qr_scan"}, "bike_id": "32865d24274e89aed4caadbe3bf80683", "lon": -77.01651366666667}, {"is_reserved": 0, "fusion_lon": 0.0, "fusion_lat": 0.0, "name": "a1dd625db2178cb96d7c3e48cc72109e", "type": "electric_scooter", "is_disabled": 0, "lat": 38.906252333333335, "rental_uris": {"android": "https://dc.lft.to/lastmile_qr_scan", "ios": "https://dc.lft.to/lastmile_qr_scan"}, "bike_id": "a1dd625db2178cb96d7c3e48cc72109e", "lon": -76.98684266666666}, {"is_reserved": 0, "fusion_lon": 0.0, "fusion_lat": 0.0, "name": "3249c4a8bd34b33b3a4c835121249423", "type": "electric_scooter", "is_disabled": 0, "lat": 38.8936365, "rental_uris": {"android": "https://dc.lft.to/lastmile_qr_scan", "ios": "https://dc.lft.to/lastmile_qr_scan"}, "bike_id": "3249c4a8bd34b33b3a4c835121249423", "lon": -77.003349}, {"is_reserved": 0, "fusion_lon": 0.0, "fusion_lat": 0.0, "name": "66b08f129d610b03768091b499b0eee3", "type": "electric_scooter", "is_disabled": 0, "lat": 38.91422983333333, "rental_uris": {"android": "https://dc.lft.to/lastmile_qr_scan", "ios": "https://dc.lft.to/lastmile_qr_scan"}, "bike_id": "66b08f129d610b03768091b499b0eee3", "lon": -77.0491875}, {"is_reserved": 0, "fusion_lon": 0.0, "fusion_lat": 0.0, "name": "1cdb6efd53da8712092bb64b758b2e02", "type": "electric_scooter", "is_disabled": 0, "lat": 38.916252166666666, "rental_uris": {"android": "https://dc.lft.to/lastmile_qr_scan", "ios": "https://dc.lft.to/lastmile_qr_scan"}, "bike_id": "1cdb6efd53da8712092bb64b758b2e02", "lon": -77.0318185}, {"is_reserved": 0, "fusion_lon": 0.0, "fusion_lat": 0.0, "name": "875fdceb931d552baa12c86f728aee4a", "type": "electric_scooter", "is_disabled": 0, "lat": 38.880853, "rental_uris": {"android": "https://dc.lft.to/lastmile_qr_scan", "ios": "https://dc.lft.to/lastmile_qr_scan"}, "bike_id": "875fdceb931d552baa12c86f728aee4a", "lon": -76.99840683333333}, {"is_reserved": 0, "fusion_lon": 0.0, "fusion_lat": 0.0, "name": "5b499e271d3463618483a1a6a9a8feb3", "type": "electric_scooter", "is_disabled": 0, "lat": 38.874762, "rental_uris": {"android": "https://dc.lft.to/lastmile_qr_scan", "ios": "https://dc.lft.to/lastmile_qr_scan"}, "bike_id": "5b499e271d3463618483a1a6a9a8feb3", "lon": -77.00554216666667}, {"is_reserved": 0, "fusion_lon": 0.0, "fusion_lat": 0.0, "name": "1ad21d93ba598401a8494f5760e1d632", "type": "electric_scooter", "is_disabled": 0, "lat": 38.9086345, "rental_uris": {"android": "https://dc.lft.to/lastmile_qr_scan", "ios": "https://dc.lft.to/lastmile_qr_scan"}, "bike_id": "1ad21d93ba598401a8494f5760e1d632", "lon": -77.04319933333333}, {"is_reserved": 0, "fusion_lon": 0.0, "fusion_lat": 0.0, "name": "1c8158a7103a00c257782f8c5147e3d1", "type": "electric_bike", "is_disabled": 0, "lat": 38.9492305, "rental_uris": {"android": "https://dc.lft.to/lastmile_qr_scan", "ios": "https://dc.lft.to/lastmile_qr_scan"}, "bike_id": "1c8158a7103a00c257782f8c5147e3d1", "lon": -77.007984}, {"is_reserved": 0, "fusion_lon": 0.0, "fusion_lat": 0.0, "name": "60618add8175d0ec6c3db4bd6dde49ea", "type": "electric_scooter", "is_disabled": 0, "lat": 38.8806205, "rental_uris": {"android": "https://dc.lft.to/lastmile_qr_scan", "ios": "https://dc.lft.to/lastmile_qr_scan"}, "bike_id": "60618add8175d0ec6c3db4bd6dde49ea", "lon": -76.93210383333333}, {"is_reserved": 0, "fusion_lon": 0.0, "fusion_lat": 0.0, "name": "c282edbacf9539261e4a5c2fc2fa670f", "type": "electric_scooter", "is_disabled": 0, "lat": 38.901316333333334, "rental_uris": {"android": "https://dc.lft.to/lastmile_qr_scan", "ios": "https://dc.lft.to/lastmile_qr_scan"}, "bike_id": "c282edbacf9539261e4a5c2fc2fa670f", "lon": -77.02734716666667}, {"is_reserved": 0, "fusion_lon": 0.0, "fusion_lat": 0.0, "name": "4e4b02b4a6f830d3dd6cd8b4574efac7", "type": "electric_scooter", "is_disabled": 0, "lat": 38.892244166666664, "rental_uris": {"android": "https://dc.lft.to/lastmile_qr_scan", "ios": "https://dc.lft.to/lastmile_qr_scan"}, "bike_id": "4e4b02b4a6f830d3dd6cd8b4574efac7", "lon": -77.0223165}, {"is_reserved": 0, "fusion_lon": 0.0, "fusion_lat": 0.0, "name": "f86f06370c693b7d740fa0e91bec2afc", "type": "electric_scooter", "is_disabled": 0, "lat": 38.90127183333333, "rental_uris": {"android": "https://dc.lft.to/lastmile_qr_scan", "ios": "https://dc.lft.to/lastmile_qr_scan"}, "bike_id": "f86f06370c693b7d740fa0e91bec2afc", "lon": -77.04356366666667}, {"is_reserved": 0, "fusion_lon": 0.0, "fusion_lat": 0.0, "name": "adf0860c251834d40e8b5e846035fb63", "type": "electric_scooter", "is_disabled": 0, "lat": 38.91494133333333, "rental_uris": {"android": "https://dc.lft.to/lastmile_qr_scan", "ios": "https://dc.lft.to/lastmile_qr_scan"}, "bike_id": "adf0860c251834d40e8b5e846035fb63", "lon": -77.04158466666667}, {"is_reserved": 0, "fusion_lon": 0.0, "fusion_lat": 0.0, "name": "650db2351a998c0a27e4608f5bda5ec5", "type": "electric_scooter", "is_disabled": 0, "lat": 38.90371733333333, "rental_uris": {"android": "https://dc.lft.to/lastmile_qr_scan", "ios": "https://dc.lft.to/lastmile_qr_scan"}, "bike_id": "650db2351a998c0a27e4608f5bda5ec5", "lon": -77.04547166666667}, {"is_reserved": 0, "fusion_lon": 0.0, "fusion_lat": 0.0, "name": "e99e8bebce8f9fda99d6e97c103b0713", "type": "electric_scooter", "is_disabled": 0, "lat": 38.907245333333336, "rental_uris": {"android": "https://dc.lft.to/lastmile_qr_scan", "ios": "https://dc.lft.to/lastmile_qr_scan"}, "bike_id": "e99e8bebce8f9fda99d6e97c103b0713", "lon": -77.003417}, {"is_reserved": 0, "fusion_lon": 0.0, "fusion_lat": 0.0, "name": "8028fd0deae4d0cb5b28b4a2fb4fc564", "type": "electric_scooter", "is_disabled": 0, "lat": 38.87988466666667, "rental_uris": {"android": "https://dc.lft.to/lastmile_qr_scan", "ios": "https://dc.lft.to/lastmile_qr_scan"}, "bike_id": "8028fd0deae4d0cb5b28b4a2fb4fc564", "lon": -77.0240485}, {"is_reserved": 0, "fusion_lon": 0.0, "fusion_lat": 0.0, "name": "b4c3e19e0992a518e1673656b296cb21", "type": "electric_bike", "is_disabled": 0, "lat": 38.9138915, "rental_uris": {"android": "https://dc.lft.to/lastmile_qr_scan", "ios": "https://dc.lft.to/lastmile_qr_scan"}, "bike_id": "b4c3e19e0992a518e1673656b296cb21", "lon": -77.08926883333334}, {"is_reserved": 0, "fusion_lon": 0.0, "fusion_lat": 0.0, "name": "ac60c991aa9f6c65c50f18b37e44781b", "type": "electric_scooter", "is_disabled": 0, "lat": 38.913652166666665, "rental_uris": {"android": "https://dc.lft.to/lastmile_qr_scan", "ios": "https://dc.lft.to/lastmile_qr_scan"}, "bike_id": "ac60c991aa9f6c65c50f18b37e44781b", "lon": -77.02954283333334}, {"is_reserved": 0, "fusion_lon": 0.0, "fusion_lat": 0.0, "name": "f92b4e53c344bf9d3734f05a6e23b6d7", "type": "electric_scooter", "is_disabled": 0, "lat": 38.948428, "rental_uris": {"android": "https://dc.lft.to/lastmile_qr_scan", "ios": "https://dc.lft.to/lastmile_qr_scan"}, "bike_id": "f92b4e53c344bf9d3734f05a6e23b6d7", "lon": -77.02541633333334}, {"is_reserved": 0, "fusion_lon": 0.0, "fusion_lat": 0.0, "name": "d354ef05275131518d89cad984a34d70", "type": "electric_scooter", "is_disabled": 0, "lat": 38.94960716666667, "rental_uris": {"android": "https://dc.lft.to/lastmile_qr_scan", "ios": "https://dc.lft.to/lastmile_qr_scan"}, "bike_id": "d354ef05275131518d89cad984a34d70", "lon": -77.02721916666667}, {"is_reserved": 0, "fusion_lon": 0.0, "fusion_lat": 0.0, "name": "630b97498f3ce14a463d1ddd15367ef0", "type": "electric_scooter", "is_disabled": 0, "lat": 38.844348, "rental_uris": {"android": "https://dc.lft.to/lastmile_qr_scan", "ios": "https://dc.lft.to/lastmile_qr_scan"}, "bike_id": "630b97498f3ce14a463d1ddd15367ef0", "lon": -76.99814233333333}, {"is_reserved": 0, "fusion_lon": 0.0, "fusion_lat": 0.0, "name": "348df6e70695c907698be84b2ec70f19", "type": "electric_scooter", "is_disabled": 0, "lat": 38.90816933333333, "rental_uris": {"android": "https://dc.lft.to/lastmile_qr_scan", "ios": "https://dc.lft.to/lastmile_qr_scan"}, "bike_id": "348df6e70695c907698be84b2ec70f19", "lon": -77.043265}, {"is_reserved": 0, "fusion_lon": 0.0, "fusion_lat": 0.0, "name": "31d5b924b3ffa454296c14a4fb5c67f5", "type": "electric_scooter", "is_disabled": 0, "lat": 38.90089283333333, "rental_uris": {"android": "https://dc.lft.to/lastmile_qr_scan", "ios": "https://dc.lft.to/lastmile_qr_scan"}, "bike_id": "31d5b924b3ffa454296c14a4fb5c67f5", "lon": -77.04751766666666}, {"is_reserved": 0, "fusion_lon": 0.0, "fusion_lat": 0.0, "name": "e2a63efd50b3979b812b30e91662b756", "type": "electric_scooter", "is_disabled": 0, "lat": 38.928089666666665, "rental_uris": {"android": "https://dc.lft.to/lastmile_qr_scan", "ios": "https://dc.lft.to/lastmile_qr_scan"}, "bike_id": "e2a63efd50b3979b812b30e91662b756", "lon": -77.014119}, {"is_reserved": 0, "fusion_lon": 0.0, "fusion_lat": 0.0, "name": "e3d6a6fac472a1009d5bc5bc90dcfe4c", "type": "electric_bike", "is_disabled": 0, "lat": 38.83435516666667, "rental_uris": {"android": "https://dc.lft.to/lastmile_qr_scan", "ios": "https://dc.lft.to/lastmile_qr_scan"}, "bike_id": "e3d6a6fac472a1009d5bc5bc90dcfe4c", "lon": -77.1035675}, {"is_reserved": 0, "fusion_lon": 0.0, "fusion_lat": 0.0, "name": "1ddaadc478a6ae2b564495adef74d672", "type": "electric_scooter", "is_disabled": 0, "lat": 38.908818833333335, "rental_uris": {"android": "https://dc.lft.to/lastmile_qr_scan", "ios": "https://dc.lft.to/lastmile_qr_scan"}, "bike_id": "1ddaadc478a6ae2b564495adef74d672", "lon": -77.0717135}, {"is_reserved": 0, "fusion_lon": 0.0, "fusion_lat": 0.0, "name": "09a6aa0d873230f79604cc77c0de90b7", "type": "electric_scooter", "is_disabled": 0, "lat": 38.92974983333333, "rental_uris": {"android": "https://dc.lft.to/lastmile_qr_scan", "ios": "https://dc.lft.to/lastmile_qr_scan"}, "bike_id": "09a6aa0d873230f79604cc77c0de90b7", "lon": -77.02337416666667}, {"is_reserved": 0, "fusion_lon": 0.0, "fusion_lat": 0.0, "name": "b2320f648ed11df5cfee6eb34af15bb1", "type": "electric_scooter", "is_disabled": 0, "lat": 38.9567015, "rental_uris": {"android": "https://dc.lft.to/lastmile_qr_scan", "ios": "https://dc.lft.to/lastmile_qr_scan"}, "bike_id": "b2320f648ed11df5cfee6eb34af15bb1", "lon": -77.0102845}, {"is_reserved": 0, "fusion_lon": 0.0, "fusion_lat": 0.0, "name": "4771b89636c477720aa6f9ea1b879e75", "type": "electric_scooter", "is_disabled": 0, "lat": 38.92379583333334, "rental_uris": {"android": "https://dc.lft.to/lastmile_qr_scan", "ios": "https://dc.lft.to/lastmile_qr_scan"}, "bike_id": "4771b89636c477720aa6f9ea1b879e75", "lon": -77.03126433333334}, {"is_reserved": 0, "fusion_lon": 0.0, "fusion_lat": 0.0, "name": "6ab3ebabd1fda0cfc1d3eca0d5fbff21", "type": "electric_scooter", "is_disabled": 0, "lat": 38.899742833333335, "rental_uris": {"android": "https://dc.lft.to/lastmile_qr_scan", "ios": "https://dc.lft.to/lastmile_qr_scan"}, "bike_id": "6ab3ebabd1fda0cfc1d3eca0d5fbff21", "lon": -77.033597}, {"is_reserved": 0, "fusion_lon": 0.0, "fusion_lat": 0.0, "name": "fb21fc74611b843893df76da0d432267", "type": "electric_scooter", "is_disabled": 0, "lat": 38.87401083333334, "rental_uris": {"android": "https://dc.lft.to/lastmile_qr_scan", "ios": "https://dc.lft.to/lastmile_qr_scan"}, "bike_id": "fb21fc74611b843893df76da0d432267", "lon": -77.000196}, {"is_reserved": 0, "fusion_lon": 0.0, "fusion_lat": 0.0, "name": "0f7289a8c1153916711bbe9665ed4390", "type": "electric_scooter", "is_disabled": 0, "lat": 38.902705833333336, "rental_uris": {"android": "https://dc.lft.to/lastmile_qr_scan", "ios": "https://dc.lft.to/lastmile_qr_scan"}, "bike_id": "0f7289a8c1153916711bbe9665ed4390", "lon": -77.03338483333333}, {"is_reserved": 0, "fusion_lon": 0.0, "fusion_lat": 0.0, "name": "5049d97e12cec955a12366511ded1a07", "type": "electric_scooter", "is_disabled": 0, "lat": 38.908218, "rental_uris": {"android": "https://dc.lft.to/lastmile_qr_scan", "ios": "https://dc.lft.to/lastmile_qr_scan"}, "bike_id": "5049d97e12cec955a12366511ded1a07", "lon": -77.03444883333333}, {"is_reserved": 0, "fusion_lon": 0.0, "fusion_lat": 0.0, "name": "78bf40b812c3a04e990894ac4a7725d8", "type": "electric_scooter", "is_disabled": 0, "lat": 38.897446333333335, "rental_uris": {"android": "https://dc.lft.to/lastmile_qr_scan", "ios": "https://dc.lft.to/lastmile_qr_scan"}, "bike_id": "78bf40b812c3a04e990894ac4a7725d8", "lon": -77.04715366666667}, {"is_reserved": 0, "fusion_lon": 0.0, "fusion_lat": 0.0, "name": "ece8e66b6e02180583ca8fd317ffe0e9", "type": "electric_bike", "is_disabled": 0, "lat": 38.85417283333334, "rental_uris": {"android": "https://dc.lft.to/lastmile_qr_scan", "ios": "https://dc.lft.to/lastmile_qr_scan"}, "bike_id": "ece8e66b6e02180583ca8fd317ffe0e9", "lon": -77.1206715}, {"is_reserved": 0, "fusion_lon": 0.0, "fusion_lat": 0.0, "name": "9c83fbf154470db569a6b22e68a4ab73", "type": "electric_scooter", "is_disabled": 0, "lat": 38.9324425, "rental_uris": {"android": "https://dc.lft.to/lastmile_qr_scan", "ios": "https://dc.lft.to/lastmile_qr_scan"}, "bike_id": "9c83fbf154470db569a6b22e68a4ab73", "lon": -77.03854216666667}, {"is_reserved": 0, "fusion_lon": 0.0, "fusion_lat": 0.0, "name": "c5f037c4800c7b997cbe01a9befb7c02", "type": "electric_bike", "is_disabled": 0, "lat": 38.893568, "rental_uris": {"android": "https://dc.lft.to/lastmile_qr_scan", "ios": "https://dc.lft.to/lastmile_qr_scan"}, "bike_id": "c5f037c4800c7b997cbe01a9befb7c02", "lon": -77.187392}, {"is_reserved": 0, "fusion_lon": 0.0, "fusion_lat": 0.0, "name": "594c9f23745c556444911b27b995ea73", "type": "electric_scooter", "is_disabled": 0, "lat": 38.912672, "rental_uris": {"android": "https://dc.lft.to/lastmile_qr_scan", "ios": "https://dc.lft.to/lastmile_qr_scan"}, "bike_id": "594c9f23745c556444911b27b995ea73", "lon": -77.07343}, {"is_reserved": 0, "fusion_lon": 0.0, "fusion_lat": 0.0, "name": "fc63a249ee80af135d2afc7a852ab898", "type": "electric_scooter", "is_disabled": 0, "lat": 38.9034125, "rental_uris": {"android": "https://dc.lft.to/lastmile_qr_scan", "ios": "https://dc.lft.to/lastmile_qr_scan"}, "bike_id": "fc63a249ee80af135d2afc7a852ab898", "lon": -76.975859}, {"is_reserved": 0, "fusion_lon": 0.0, "fusion_lat": 0.0, "name": "da0bfe092fe0bdc9529d18d22a9848c4", "type": "electric_scooter", "is_disabled": 0, "lat": 38.9191125, "rental_uris": {"android": "https://dc.lft.to/lastmile_qr_scan", "ios": "https://dc.lft.to/lastmile_qr_scan"}, "bike_id": "da0bfe092fe0bdc9529d18d22a9848c4", "lon": -77.02170533333333}, {"is_reserved": 0, "fusion_lon": 0.0, "fusion_lat": 0.0, "name": "2ccdac3d23f3bf3454098eb58334d0e0", "type": "electric_scooter", "is_disabled": 0, "lat": 38.899371333333335, "rental_uris": {"android": "https://dc.lft.to/lastmile_qr_scan", "ios": "https://dc.lft.to/lastmile_qr_scan"}, "bike_id": "2ccdac3d23f3bf3454098eb58334d0e0", "lon": -76.945762}, {"is_reserved": 0, "fusion_lon": 0.0, "fusion_lat": 0.0, "name": "14d6c19af85f19f170b7f22d8ac36fa6", "type": "electric_scooter", "is_disabled": 0, "lat": 38.90785733333333, "rental_uris": {"android": "https://dc.lft.to/lastmile_qr_scan", "ios": "https://dc.lft.to/lastmile_qr_scan"}, "bike_id": "14d6c19af85f19f170b7f22d8ac36fa6", "lon": -77.03210083333333}, {"is_reserved": 0, "fusion_lon": 0.0, "fusion_lat": 0.0, "name": "73b144bc9ed412e078c1867559179e21", "type": "electric_scooter", "is_disabled": 0, "lat": 38.8991945, "rental_uris": {"android": "https://dc.lft.to/lastmile_qr_scan", "ios": "https://dc.lft.to/lastmile_qr_scan"}, "bike_id": "73b144bc9ed412e078c1867559179e21", "lon": -76.9338365}, {"is_reserved": 0, "fusion_lon": 0.0, "fusion_lat": 0.0, "name": "d26030040c0e591856c51f485bcc3573", "type": "electric_scooter", "is_disabled": 0, "lat": 38.90274566666667, "rental_uris": {"android": "https://dc.lft.to/lastmile_qr_scan", "ios": "https://dc.lft.to/lastmile_qr_scan"}, "bike_id": "d26030040c0e591856c51f485bcc3573", "lon": -77.01763883333334}, {"is_reserved": 0, "fusion_lon": 0.0, "fusion_lat": 0.0, "name": "cffdea545107415d9f5e54799f3377a6", "type": "electric_scooter", "is_disabled": 0, "lat": 38.92337416666667, "rental_uris": {"android": "https://dc.lft.to/lastmile_qr_scan", "ios": "https://dc.lft.to/lastmile_qr_scan"}, "bike_id": "cffdea545107415d9f5e54799f3377a6", "lon": -76.999115}, {"is_reserved": 0, "fusion_lon": 0.0, "fusion_lat": 0.0, "name": "d15e00a15d0da5d6b56896ab364247fe", "type": "electric_scooter", "is_disabled": 0, "lat": 38.88030783333333, "rental_uris": {"android": "https://dc.lft.to/lastmile_qr_scan", "ios": "https://dc.lft.to/lastmile_qr_scan"}, "bike_id": "d15e00a15d0da5d6b56896ab364247fe", "lon": -76.98475783333333}, {"is_reserved": 0, "fusion_lon": 0.0, "fusion_lat": 0.0, "name": "a73ec8e3fc3f11bc8eb26b6d066b7117", "type": "electric_scooter", "is_disabled": 0, "lat": 38.911768333333335, "rental_uris": {"android": "https://dc.lft.to/lastmile_qr_scan", "ios": "https://dc.lft.to/lastmile_qr_scan"}, "bike_id": "a73ec8e3fc3f11bc8eb26b6d066b7117", "lon": -77.044431}, {"is_reserved": 0, "fusion_lon": 0.0, "fusion_lat": 0.0, "name": "33ba0788539f6dc917de81f46db61e24", "type": "electric_scooter", "is_disabled": 0, "lat": 38.90585733333333, "rental_uris": {"android": "https://dc.lft.to/lastmile_qr_scan", "ios": "https://dc.lft.to/lastmile_qr_scan"}, "bike_id": "33ba0788539f6dc917de81f46db61e24", "lon": -77.00882466666667}, {"is_reserved": 0, "fusion_lon": 0.0, "fusion_lat": 0.0, "name": "8edda3980639dcba1ed9558ea1de1dfc", "type": "electric_scooter", "is_disabled": 0, "lat": 38.88076916666667, "rental_uris": {"android": "https://dc.lft.to/lastmile_qr_scan", "ios": "https://dc.lft.to/lastmile_qr_scan"}, "bike_id": "8edda3980639dcba1ed9558ea1de1dfc", "lon": -77.00582183333333}, {"is_reserved": 0, "fusion_lon": 0.0, "fusion_lat": 0.0, "name": "a84baaec27ec855bd0f3af93a19317d5", "type": "electric_scooter", "is_disabled": 0, "lat": 38.91921583333333, "rental_uris": {"android": "https://dc.lft.to/lastmile_qr_scan", "ios": "https://dc.lft.to/lastmile_qr_scan"}, "bike_id": "a84baaec27ec855bd0f3af93a19317d5", "lon": -77.02394966666667}, {"is_reserved": 0, "fusion_lon": 0.0, "fusion_lat": 0.0, "name": "23e8d700c7b0b8376ac25788f37eabf7", "type": "electric_scooter", "is_disabled": 0, "lat": 38.908572, "rental_uris": {"android": "https://dc.lft.to/lastmile_qr_scan", "ios": "https://dc.lft.to/lastmile_qr_scan"}, "bike_id": "23e8d700c7b0b8376ac25788f37eabf7", "lon": -77.04039116666667}, {"is_reserved": 0, "fusion_lon": 0.0, "fusion_lat": 0.0, "name": "77b1fdf3d12cdb53bfae188f897f0fb8", "type": "electric_bike", "is_disabled": 0, "lat": 38.88251916666667, "rental_uris": {"android": "https://dc.lft.to/lastmile_qr_scan", "ios": "https://dc.lft.to/lastmile_qr_scan"}, "bike_id": "77b1fdf3d12cdb53bfae188f897f0fb8", "lon": -76.96253366666667}, {"is_reserved": 0, "fusion_lon": 0.0, "fusion_lat": 0.0, "name": "cfe8c535686f71d3c0520c8a7414a0f3", "type": "electric_scooter", "is_disabled": 0, "lat": 38.90068983333333, "rental_uris": {"android": "https://dc.lft.to/lastmile_qr_scan", "ios": "https://dc.lft.to/lastmile_qr_scan"}, "bike_id": "cfe8c535686f71d3c0520c8a7414a0f3", "lon": -77.04831183333333}, {"is_reserved": 0, "fusion_lon": 0.0, "fusion_lat": 0.0, "name": "946e469c19ce64f7959f95bcb958ba5a", "type": "electric_scooter", "is_disabled": 0, "lat": 38.904606, "rental_uris": {"android": "https://dc.lft.to/lastmile_qr_scan", "ios": "https://dc.lft.to/lastmile_qr_scan"}, "bike_id": "946e469c19ce64f7959f95bcb958ba5a", "lon": -77.03266333333333}, {"is_reserved": 0, "fusion_lon": 0.0, "fusion_lat": 0.0, "name": "8fe8279bfc05f25993672e00bca3a2b7", "type": "electric_scooter", "is_disabled": 0, "lat": 38.96113183333333, "rental_uris": {"android": "https://dc.lft.to/lastmile_qr_scan", "ios": "https://dc.lft.to/lastmile_qr_scan"}, "bike_id": "8fe8279bfc05f25993672e00bca3a2b7", "lon": -77.00947433333333}, {"is_reserved": 0, "fusion_lon": 0.0, "fusion_lat": 0.0, "name": "4c9542f089a1c399964811808970fde4", "type": "electric_scooter", "is_disabled": 0, "lat": 38.90381, "rental_uris": {"android": "https://dc.lft.to/lastmile_qr_scan", "ios": "https://dc.lft.to/lastmile_qr_scan"}, "bike_id": "4c9542f089a1c399964811808970fde4", "lon": -77.041679}, {"is_reserved": 0, "fusion_lon": 0.0, "fusion_lat": 0.0, "name": "82d66a0136f842627c9170624ee2c81e", "type": "electric_scooter", "is_disabled": 0, "lat": 38.905303833333335, "rental_uris": {"android": "https://dc.lft.to/lastmile_qr_scan", "ios": "https://dc.lft.to/lastmile_qr_scan"}, "bike_id": "82d66a0136f842627c9170624ee2c81e", "lon": -77.06381583333334}, {"is_reserved": 0, "fusion_lon": 0.0, "fusion_lat": 0.0, "name": "9a7323189848e45722b3ab083169d0dc", "type": "electric_scooter", "is_disabled": 0, "lat": 38.91064683333333, "rental_uris": {"android": "https://dc.lft.to/lastmile_qr_scan", "ios": "https://dc.lft.to/lastmile_qr_scan"}, "bike_id": "9a7323189848e45722b3ab083169d0dc", "lon": -77.021869}, {"is_reserved": 0, "fusion_lon": 0.0, "fusion_lat": 0.0, "name": "982a24388302165bbc95080ee5b24db6", "type": "electric_scooter", "is_disabled": 0, "lat": 38.90090383333333, "rental_uris": {"android": "https://dc.lft.to/lastmile_qr_scan", "ios": "https://dc.lft.to/lastmile_qr_scan"}, "bike_id": "982a24388302165bbc95080ee5b24db6", "lon": -77.05068866666667}, {"is_reserved": 0, "fusion_lon": 0.0, "fusion_lat": 0.0, "name": "1c1a5b3f0a945d95c471fa014ba6916a", "type": "electric_scooter", "is_disabled": 0, "lat": 38.91694966666667, "rental_uris": {"android": "https://dc.lft.to/lastmile_qr_scan", "ios": "https://dc.lft.to/lastmile_qr_scan"}, "bike_id": "1c1a5b3f0a945d95c471fa014ba6916a", "lon": -77.0259455}, {"is_reserved": 0, "fusion_lon": 0.0, "fusion_lat": 0.0, "name": "4c6e5193161f8920b78036ef23b8a1a4", "type": "electric_scooter", "is_disabled": 0, "lat": 38.90688383333333, "rental_uris": {"android": "https://dc.lft.to/lastmile_qr_scan", "ios": "https://dc.lft.to/lastmile_qr_scan"}, "bike_id": "4c6e5193161f8920b78036ef23b8a1a4", "lon": -77.0432865}, {"is_reserved": 0, "fusion_lon": 0.0, "fusion_lat": 0.0, "name": "7ef065d0b7163caf08ad83adafa8c6f4", "type": "electric_scooter", "is_disabled": 0, "lat": 38.92751833333333, "rental_uris": {"android": "https://dc.lft.to/lastmile_qr_scan", "ios": "https://dc.lft.to/lastmile_qr_scan"}, "bike_id": "7ef065d0b7163caf08ad83adafa8c6f4", "lon": -77.02535533333334}, {"is_reserved": 0, "fusion_lon": 0.0, "fusion_lat": 0.0, "name": "bccc8d7832c959cd62fd60876a9fd67e", "type": "electric_bike", "is_disabled": 0, "lat": 38.962284833333335, "rental_uris": {"android": "https://dc.lft.to/lastmile_qr_scan", "ios": "https://dc.lft.to/lastmile_qr_scan"}, "bike_id": "bccc8d7832c959cd62fd60876a9fd67e", "lon": -77.02626483333333}, {"is_reserved": 0, "fusion_lon": 0.0, "fusion_lat": 0.0, "name": "baba5c648db2af2922a115dc00364116", "type": "electric_scooter", "is_disabled": 0, "lat": 38.90522516666667, "rental_uris": {"android": "https://dc.lft.to/lastmile_qr_scan", "ios": "https://dc.lft.to/lastmile_qr_scan"}, "bike_id": "baba5c648db2af2922a115dc00364116", "lon": -77.06466183333333}, {"is_reserved": 0, "fusion_lon": 0.0, "fusion_lat": 0.0, "name": "fb30bcbea7f6292e892f800d0fb9eda0", "type": "electric_scooter", "is_disabled": 0, "lat": 38.90492783333333, "rental_uris": {"android": "https://dc.lft.to/lastmile_qr_scan", "ios": "https://dc.lft.to/lastmile_qr_scan"}, "bike_id": "fb30bcbea7f6292e892f800d0fb9eda0", "lon": -77.06017483333333}, {"is_reserved": 0, "fusion_lon": 0.0, "fusion_lat": 0.0, "name": "3a5ecf8478683bd58b2b9e4c14eccaa8", "type": "electric_scooter", "is_disabled": 0, "lat": 38.863926666666664, "rental_uris": {"android": "https://dc.lft.to/lastmile_qr_scan", "ios": "https://dc.lft.to/lastmile_qr_scan"}, "bike_id": "3a5ecf8478683bd58b2b9e4c14eccaa8", "lon": -76.98922383333333}, {"is_reserved": 0, "fusion_lon": 0.0, "fusion_lat": 0.0, "name": "d32fca495416145ed0fb9f91dfc25c7b", "type": "electric_scooter", "is_disabled": 0, "lat": 38.895165166666665, "rental_uris": {"android": "https://dc.lft.to/lastmile_qr_scan", "ios": "https://dc.lft.to/lastmile_qr_scan"}, "bike_id": "d32fca495416145ed0fb9f91dfc25c7b", "lon": -77.046789}, {"is_reserved": 0, "fusion_lon": 0.0, "fusion_lat": 0.0, "name": "8f733c936537f2d6600efa5dd83bd6e1", "type": "electric_scooter", "is_disabled": 0, "lat": 38.9004405, "rental_uris": {"android": "https://dc.lft.to/lastmile_qr_scan", "ios": "https://dc.lft.to/lastmile_qr_scan"}, "bike_id": "8f733c936537f2d6600efa5dd83bd6e1", "lon": -77.02911833333333}, {"is_reserved": 0, "fusion_lon": 0.0, "fusion_lat": 0.0, "name": "153b90c198ef712606d855dcdf77d508", "type": "electric_scooter", "is_disabled": 0, "lat": 38.932172666666666, "rental_uris": {"android": "https://dc.lft.to/lastmile_qr_scan", "ios": "https://dc.lft.to/lastmile_qr_scan"}, "bike_id": "153b90c198ef712606d855dcdf77d508", "lon": -77.03260683333333}, {"is_reserved": 0, "fusion_lon": 0.0, "fusion_lat": 0.0, "name": "af4274b812f5a0cca09d1fb019b3d39a", "type": "electric_scooter", "is_disabled": 0, "lat": 38.885370333333334, "rental_uris": {"android": "https://dc.lft.to/lastmile_qr_scan", "ios": "https://dc.lft.to/lastmile_qr_scan"}, "bike_id": "af4274b812f5a0cca09d1fb019b3d39a", "lon": -76.9826425}, {"is_reserved": 0, "fusion_lon": 0.0, "fusion_lat": 0.0, "name": "d3ac643bbcb252b7314c193b56a36bf9", "type": "electric_scooter", "is_disabled": 0, "lat": 38.8973575, "rental_uris": {"android": "https://dc.lft.to/lastmile_qr_scan", "ios": "https://dc.lft.to/lastmile_qr_scan"}, "bike_id": "d3ac643bbcb252b7314c193b56a36bf9", "lon": -77.055698}, {"is_reserved": 0, "fusion_lon": 0.0, "fusion_lat": 0.0, "name": "53f36a0daf68b6b89caf6347f441a9f4", "type": "electric_scooter", "is_disabled": 0, "lat": 38.92619116666667, "rental_uris": {"android": "https://dc.lft.to/lastmile_qr_scan", "ios": "https://dc.lft.to/lastmile_qr_scan"}, "bike_id": "53f36a0daf68b6b89caf6347f441a9f4", "lon": -77.02166283333334}, {"is_reserved": 0, "fusion_lon": 0.0, "fusion_lat": 0.0, "name": "cc659d2b8f107863938a7058affe7a4a", "type": "electric_bike", "is_disabled": 0, "lat": 38.896358666666664, "rental_uris": {"android": "https://dc.lft.to/lastmile_qr_scan", "ios": "https://dc.lft.to/lastmile_qr_scan"}, "bike_id": "cc659d2b8f107863938a7058affe7a4a", "lon": -76.90730616666667}, {"is_reserved": 0, "fusion_lon": 0.0, "fusion_lat": 0.0, "name": "0ec52a192b683d037a12a5a7b592cac0", "type": "electric_scooter", "is_disabled": 0, "lat": 38.897528333333334, "rental_uris": {"android": "https://dc.lft.to/lastmile_qr_scan", "ios": "https://dc.lft.to/lastmile_qr_scan"}, "bike_id": "0ec52a192b683d037a12a5a7b592cac0", "lon": -77.03341416666666}, {"is_reserved": 0, "fusion_lon": 0.0, "fusion_lat": 0.0, "name": "a6c52ae7df9d85fc39c5410093e7923b", "type": "electric_scooter", "is_disabled": 0, "lat": 38.905018, "rental_uris": {"android": "https://dc.lft.to/lastmile_qr_scan", "ios": "https://dc.lft.to/lastmile_qr_scan"}, "bike_id": "a6c52ae7df9d85fc39c5410093e7923b", "lon": -76.974225}, {"is_reserved": 0, "fusion_lon": 0.0, "fusion_lat": 0.0, "name": "8227456603d06101976dcb3ffe52de95", "type": "electric_scooter", "is_disabled": 0, "lat": 38.9096055, "rental_uris": {"android": "https://dc.lft.to/lastmile_qr_scan", "ios": "https://dc.lft.to/lastmile_qr_scan"}, "bike_id": "8227456603d06101976dcb3ffe52de95", "lon": -77.03202283333333}, {"is_reserved": 0, "fusion_lon": 0.0, "fusion_lat": 0.0, "name": "ff996589a972719539a8b8dfd515655b", "type": "electric_scooter", "is_disabled": 0, "lat": 38.918274, "rental_uris": {"android": "https://dc.lft.to/lastmile_qr_scan", "ios": "https://dc.lft.to/lastmile_qr_scan"}, "bike_id": "ff996589a972719539a8b8dfd515655b", "lon": -77.03458733333333}, {"is_reserved": 0, "fusion_lon": 0.0, "fusion_lat": 0.0, "name": "3cc3e14569058f01f194da8e0073273d", "type": "electric_scooter", "is_disabled": 0, "lat": 38.91267883333333, "rental_uris": {"android": "https://dc.lft.to/lastmile_qr_scan", "ios": "https://dc.lft.to/lastmile_qr_scan"}, "bike_id": "3cc3e14569058f01f194da8e0073273d", "lon": -77.028697}, {"is_reserved": 0, "fusion_lon": 0.0, "fusion_lat": 0.0, "name": "a38b03ee1cb2f1f61336f657b6d66347", "type": "electric_scooter", "is_disabled": 0, "lat": 38.8922505, "rental_uris": {"android": "https://dc.lft.to/lastmile_qr_scan", "ios": "https://dc.lft.to/lastmile_qr_scan"}, "bike_id": "a38b03ee1cb2f1f61336f657b6d66347", "lon": -77.04688666666667}, {"is_reserved": 0, "fusion_lon": 0.0, "fusion_lat": 0.0, "name": "6f1eadffbe52b13c821207b7994216fa", "type": "electric_bike", "is_disabled": 0, "lat": 39.01479966666667, "rental_uris": {"android": "https://dc.lft.to/lastmile_qr_scan", "ios": "https://dc.lft.to/lastmile_qr_scan"}, "bike_id": "6f1eadffbe52b13c821207b7994216fa", "lon": -77.05493833333334}, {"is_reserved": 0, "fusion_lon": 0.0, "fusion_lat": 0.0, "name": "56ecd083cd0cd4e93affdc0663f0a5c8", "type": "electric_scooter", "is_disabled": 0, "lat": 38.90640283333333, "rental_uris": {"android": "https://dc.lft.to/lastmile_qr_scan", "ios": "https://dc.lft.to/lastmile_qr_scan"}, "bike_id": "56ecd083cd0cd4e93affdc0663f0a5c8", "lon": -77.02393683333334}, {"is_reserved": 0, "fusion_lon": 0.0, "fusion_lat": 0.0, "name": "c6b08af16aa85726d55773ae365355fd", "type": "electric_scooter", "is_disabled": 0, "lat": 38.922569833333334, "rental_uris": {"android": "https://dc.lft.to/lastmile_qr_scan", "ios": "https://dc.lft.to/lastmile_qr_scan"}, "bike_id": "c6b08af16aa85726d55773ae365355fd", "lon": -77.01934416666667}, {"is_reserved": 0, "fusion_lon": 0.0, "fusion_lat": 0.0, "name": "9b3954af950dce4ac624c1ce26861ad8", "type": "electric_scooter", "is_disabled": 0, "lat": 38.902451666666664, "rental_uris": {"android": "https://dc.lft.to/lastmile_qr_scan", "ios": "https://dc.lft.to/lastmile_qr_scan"}, "bike_id": "9b3954af950dce4ac624c1ce26861ad8", "lon": -77.00200716666667}, {"is_reserved": 0, "fusion_lon": 0.0, "fusion_lat": 0.0, "name": "e7b0ca9edf8b744b6049d2f54344e134", "type": "electric_scooter", "is_disabled": 0, "lat": 38.915668333333336, "rental_uris": {"android": "https://dc.lft.to/lastmile_qr_scan", "ios": "https://dc.lft.to/lastmile_qr_scan"}, "bike_id": "e7b0ca9edf8b744b6049d2f54344e134", "lon": -77.04098416666666}, {"is_reserved": 0, "fusion_lon": 0.0, "fusion_lat": 0.0, "name": "bd8d5a8a8604a183b5dee34e132c37cb", "type": "electric_bike", "is_disabled": 0, "lat": 38.96744483333333, "rental_uris": {"android": "https://dc.lft.to/lastmile_qr_scan", "ios": "https://dc.lft.to/lastmile_qr_scan"}, "bike_id": "bd8d5a8a8604a183b5dee34e132c37cb", "lon": -76.98192533333334}, {"is_reserved": 0, "fusion_lon": 0.0, "fusion_lat": 0.0, "name": "68d829b8b660e26b3f94497d2a3d3fbc", "type": "electric_scooter", "is_disabled": 0, "lat": 38.91268683333333, "rental_uris": {"android": "https://dc.lft.to/lastmile_qr_scan", "ios": "https://dc.lft.to/lastmile_qr_scan"}, "bike_id": "68d829b8b660e26b3f94497d2a3d3fbc", "lon": -77.03920266666667}, {"is_reserved": 0, "fusion_lon": 0.0, "fusion_lat": 0.0, "name": "d471831fa7bb3ead2b74f6b1ec8275b3", "type": "electric_scooter", "is_disabled": 0, "lat": 38.907108, "rental_uris": {"android": "https://dc.lft.to/lastmile_qr_scan", "ios": "https://dc.lft.to/lastmile_qr_scan"}, "bike_id": "d471831fa7bb3ead2b74f6b1ec8275b3", "lon": -77.02384566666667}, {"is_reserved": 0, "fusion_lon": 0.0, "fusion_lat": 0.0, "name": "ddcf45c19f8c250ea52d30a05f3ee7b7", "type": "electric_scooter", "is_disabled": 0, "lat": 38.9102825, "rental_uris": {"android": "https://dc.lft.to/lastmile_qr_scan", "ios": "https://dc.lft.to/lastmile_qr_scan"}, "bike_id": "ddcf45c19f8c250ea52d30a05f3ee7b7", "lon": -77.0449305}, {"is_reserved": 0, "fusion_lon": 0.0, "fusion_lat": 0.0, "name": "8c377a126c4bde864d8bbe4ceaf18867", "type": "electric_scooter", "is_disabled": 0, "lat": 38.90394383333334, "rental_uris": {"android": "https://dc.lft.to/lastmile_qr_scan", "ios": "https://dc.lft.to/lastmile_qr_scan"}, "bike_id": "8c377a126c4bde864d8bbe4ceaf18867", "lon": -77.04287416666666}, {"is_reserved": 0, "fusion_lon": 0.0, "fusion_lat": 0.0, "name": "f63d51c3efd02a8b4a8d1202dd005582", "type": "electric_scooter", "is_disabled": 0, "lat": 38.902766, "rental_uris": {"android": "https://dc.lft.to/lastmile_qr_scan", "ios": "https://dc.lft.to/lastmile_qr_scan"}, "bike_id": "f63d51c3efd02a8b4a8d1202dd005582", "lon": -77.03977533333334}, {"is_reserved": 0, "fusion_lon": 0.0, "fusion_lat": 0.0, "name": "05b84fa139803fad25c68b59e2c95ecb", "type": "electric_scooter", "is_disabled": 0, "lat": 38.90915316666667, "rental_uris": {"android": "https://dc.lft.to/lastmile_qr_scan", "ios": "https://dc.lft.to/lastmile_qr_scan"}, "bike_id": "05b84fa139803fad25c68b59e2c95ecb", "lon": -77.072684}, {"is_reserved": 0, "fusion_lon": 0.0, "fusion_lat": 0.0, "name": "ef104a82702dd9c0a0780bf53f75f909", "type": "electric_scooter", "is_disabled": 0, "lat": 38.8744885, "rental_uris": {"android": "https://dc.lft.to/lastmile_qr_scan", "ios": "https://dc.lft.to/lastmile_qr_scan"}, "bike_id": "ef104a82702dd9c0a0780bf53f75f909", "lon": -77.00563616666666}, {"is_reserved": 0, "fusion_lon": 0.0, "fusion_lat": 0.0, "name": "9bad041271bb4d724d09da683a2f8568", "type": "electric_scooter", "is_disabled": 0, "lat": 38.89950916666667, "rental_uris": {"android": "https://dc.lft.to/lastmile_qr_scan", "ios": "https://dc.lft.to/lastmile_qr_scan"}, "bike_id": "9bad041271bb4d724d09da683a2f8568", "lon": -77.02385133333334}, {"is_reserved": 0, "fusion_lon": 0.0, "fusion_lat": 0.0, "name": "6b7e3cfa26208d0a4ba773c349639f36", "type": "electric_scooter", "is_disabled": 0, "lat": 38.86736583333333, "rental_uris": {"android": "https://dc.lft.to/lastmile_qr_scan", "ios": "https://dc.lft.to/lastmile_qr_scan"}, "bike_id": "6b7e3cfa26208d0a4ba773c349639f36", "lon": -76.98782666666666}, {"is_reserved": 0, "fusion_lon": 0.0, "fusion_lat": 0.0, "name": "7ca654bc2ac45710a311387295206d6f", "type": "electric_scooter", "is_disabled": 0, "lat": 38.92847583333333, "rental_uris": {"android": "https://dc.lft.to/lastmile_qr_scan", "ios": "https://dc.lft.to/lastmile_qr_scan"}, "bike_id": "7ca654bc2ac45710a311387295206d6f", "lon": -77.03271583333333}, {"is_reserved": 0, "fusion_lon": 0.0, "fusion_lat": 0.0, "name": "8c4367dbc71d72949b2db02a47ad2a46", "type": "electric_scooter", "is_disabled": 0, "lat": 38.903853166666664, "rental_uris": {"android": "https://dc.lft.to/lastmile_qr_scan", "ios": "https://dc.lft.to/lastmile_qr_scan"}, "bike_id": "8c4367dbc71d72949b2db02a47ad2a46", "lon": -77.0456665}, {"is_reserved": 0, "fusion_lon": 0.0, "fusion_lat": 0.0, "name": "683ff84e371c28ecd2e58b048b78392d", "type": "electric_bike", "is_disabled": 0, "lat": 38.880572666666666, "rental_uris": {"android": "https://dc.lft.to/lastmile_qr_scan", "ios": "https://dc.lft.to/lastmile_qr_scan"}, "bike_id": "683ff84e371c28ecd2e58b048b78392d", "lon": -77.01128283333334}, {"is_reserved": 0, "fusion_lon": 0.0, "fusion_lat": 0.0, "name": "6c65e2b4db2b173c90f9e71a3d1f6a87", "type": "electric_scooter", "is_disabled": 0, "lat": 38.900153, "rental_uris": {"android": "https://dc.lft.to/lastmile_qr_scan", "ios": "https://dc.lft.to/lastmile_qr_scan"}, "bike_id": "6c65e2b4db2b173c90f9e71a3d1f6a87", "lon": -76.99619983333334}, {"is_reserved": 0, "fusion_lon": 0.0, "fusion_lat": 0.0, "name": "82c178a1a83c53af6bedf49a1f9d5747", "type": "electric_scooter", "is_disabled": 0, "lat": 38.893692333333334, "rental_uris": {"android": "https://dc.lft.to/lastmile_qr_scan", "ios": "https://dc.lft.to/lastmile_qr_scan"}, "bike_id": "82c178a1a83c53af6bedf49a1f9d5747", "lon": -77.0320815}, {"is_reserved": 0, "fusion_lon": 0.0, "fusion_lat": 0.0, "name": "062f3c2c8521b238c6d8a1be9d4cf1be", "type": "electric_scooter", "is_disabled": 0, "lat": 38.92326966666667, "rental_uris": {"android": "https://dc.lft.to/lastmile_qr_scan", "ios": "https://dc.lft.to/lastmile_qr_scan"}, "bike_id": "062f3c2c8521b238c6d8a1be9d4cf1be", "lon": -77.04389266666666}, {"is_reserved": 0, "fusion_lon": 0.0, "fusion_lat": 0.0, "name": "b86d6fa99b1e52e557e5d0e10e31ad0e", "type": "electric_scooter", "is_disabled": 0, "lat": 38.90538166666666, "rental_uris": {"android": "https://dc.lft.to/lastmile_qr_scan", "ios": "https://dc.lft.to/lastmile_qr_scan"}, "bike_id": "b86d6fa99b1e52e557e5d0e10e31ad0e", "lon": -77.04199066666666}, {"is_reserved": 0, "fusion_lon": 0.0, "fusion_lat": 0.0, "name": "41ec5b4d04aac00acee151f18ed15379", "type": "electric_scooter", "is_disabled": 0, "lat": 38.952064666666665, "rental_uris": {"android": "https://dc.lft.to/lastmile_qr_scan", "ios": "https://dc.lft.to/lastmile_qr_scan"}, "bike_id": "41ec5b4d04aac00acee151f18ed15379", "lon": -77.02737833333333}, {"is_reserved": 0, "fusion_lon": 0.0, "fusion_lat": 0.0, "name": "ad1282525053885be4d46518e19cc150", "type": "electric_scooter", "is_disabled": 0, "lat": 38.903435333333334, "rental_uris": {"android": "https://dc.lft.to/lastmile_qr_scan", "ios": "https://dc.lft.to/lastmile_qr_scan"}, "bike_id": "ad1282525053885be4d46518e19cc150", "lon": -77.005819}, {"is_reserved": 0, "fusion_lon": 0.0, "fusion_lat": 0.0, "name": "1ce164ad08689bb1c75824530e1ceb95", "type": "electric_scooter", "is_disabled": 0, "lat": 38.87545133333333, "rental_uris": {"android": "https://dc.lft.to/lastmile_qr_scan", "ios": "https://dc.lft.to/lastmile_qr_scan"}, "bike_id": "1ce164ad08689bb1c75824530e1ceb95", "lon": -77.0061355}, {"is_reserved": 0, "fusion_lon": 0.0, "fusion_lat": 0.0, "name": "a7e5a280434ad86368c3108ab0b925cc", "type": "electric_scooter", "is_disabled": 0, "lat": 38.907279333333335, "rental_uris": {"android": "https://dc.lft.to/lastmile_qr_scan", "ios": "https://dc.lft.to/lastmile_qr_scan"}, "bike_id": "a7e5a280434ad86368c3108ab0b925cc", "lon": -77.048118}, {"is_reserved": 0, "fusion_lon": 0.0, "fusion_lat": 0.0, "name": "24b07d844c9ebe60ea2b1468281e4ecb", "type": "electric_scooter", "is_disabled": 0, "lat": 38.91805316666667, "rental_uris": {"android": "https://dc.lft.to/lastmile_qr_scan", "ios": "https://dc.lft.to/lastmile_qr_scan"}, "bike_id": "24b07d844c9ebe60ea2b1468281e4ecb", "lon": -77.03189816666666},