{"data": {"bikes": [{"bike_id": "6dbb5e7656666473cde4680ea19d7bf6", "is_reserved": 0, "name": "6dbb5e7656666473cde4680ea19d7bf6", "lat": 38.84092283333333, "fusion_lat": 0.0, "lon": -77.10704233333334, "is_disabled": 0, "fusion_lon": 0.0, "rental_uris": {"android": "https://dc.lft.to/lastmile_qr_scan", "ios": "https://dc.lft.to/lastmile_qr_scan"}, "type": "electric_bike"}, {"bike_id": "cfc667e85b4a7575eed4226c3f0b287c", "is_reserved": 0, "name": "cfc667e85b4a7575eed4226c3f0b287c", "lat": 38.898308666666665, "fusion_lat": 0.0, "lon": -77.00745916666666, "is_disabled": 0, "fusion_lon": 0.0, "rental_uris": {"android": "https://dc.lft.to/lastmile_qr_scan", "ios": "https://dc.lft.to/lastmile_qr_scan"}, "type": "electric_scooter"}, {"bike_id": "906f613a274a401f5c7167af838f0600", "is_reserved": 0, "name": "906f613a274a401f5c7167af838f0600", "lat": 38.9161025, "fusion_lat": 0.0, "lon": -77.0230835, "is_disabled": 0, "fusion_lon": 0.0, "rental_uris": {"android": "https://dc.lft.to/lastmile_qr_scan", "ios": "https://dc.lft.to/lastmile_qr_scan"}, "type": "electric_scooter"}, {"bike_id": "8b616e7877f9db3e00e26dca10ea4f14", "is_reserved": 0, "name": "8b616e7877f9db3e00e26dca10ea4f14", "lat": 38.900339, "fusion_lat": 0.0, "lon": -77.00202583333333, "is_disabled": 0, "fusion_lon": 0.0, "rental_uris": {"android": "https://dc.lft.to/lastmile_qr_scan", "ios": "https://dc.lft.to/lastmile_qr_scan"}, "type": "electric_scooter"}, {"bike_id": "89122ef00be51e637351e713d7cdfa48", "is_reserved": 0, "name": "89122ef00be51e637351e713d7cdfa48", "lat": 38.8718215, "fusion_lat": 0.0, "lon": -77.006063, "is_disabled": 0, "fusion_lon": 0.0, "rental_uris": {"android": "https://dc.lft.to/lastmile_qr_scan", "ios": "https://dc.lft.to/lastmile_qr_scan"}, "type": "electric_scooter"}, {"bike_id": "ad852f5414825c3ba5a68232d276f001", "is_reserved": 0, "name": "ad852f5414825c3ba5a68232d276f001", "lat": 38.902294166666664, "fusion_lat": 0.0, "lon": -77.01604083333334, "is_disabled": 0, "fusion_lon": 0.0, "rental_uris": {"android": "https://dc.lft.to/lastmile_qr_scan", "ios": "https://dc.lft.to/lastmile_qr_scan"}, "type": "electric_scooter"}, {"bike_id": "04aae3839b20ff5929caa236a218067b", "is_reserved": 0, "name": "04aae3839b20ff5929caa236a218067b", "lat": 38.92344466666667, "fusion_lat": 0.0, "lon": -77.05180083333333, "is_disabled": 0, "fusion_lon": 0.0, "rental_uris": {"android": "https://dc.lft.to/lastmile_qr_scan", "ios": "https://dc.lft.to/lastmile_qr_scan"}, "type": "electric_scooter"}, {"bike_id": "2d5307d49494248a40a1da2be5295b20", "is_reserved": 0, "name": "2d5307d49494248a40a1da2be5295b20", "lat": 38.89323016666667, "fusion_lat": 0.0, "lon": -77.08599933333333, "is_disabled": 0, "fusion_lon": 0.0, "rental_uris": {"android": "https://dc.lft.to/lastmile_qr_scan", "ios": "https://dc.lft.to/lastmile_qr_scan"}, "type": "electric_bike"}, {"bike_id": "2cd2a4eade57301f1f31e0699998646b", "is_reserved": 0, "name": "2cd2a4eade57301f1f31e0699998646b", "lat": 38.914259333333334, "fusion_lat": 0.0, "lon": -77.03211, "is_disabled": 0, "fusion_lon": 0.0, "rental_uris": {"android": "https://dc.lft.to/lastmile_qr_scan", "ios": "https://dc.lft.to/lastmile_qr_scan"}, "type": "electric_scooter"}, {"bike_id": "f53013139e808f27d43ddc56a6913086", "is_reserved": 0, "name": "f53013139e808f27d43ddc56a6913086", "lat": 38.900071833333335, "fusion_lat": 0.0, "lon": -77.05420166666667, "is_disabled": 0, "fusion_lon": 0.0, "rental_uris": {"android": "https://dc.lft.to/lastmile_qr_scan", "ios": "https://dc.lft.to/lastmile_qr_scan"}, "type": "electric_scooter"}, {"bike_id": "4b3fe37aabdac4892df18d163a2b9d42", "is_reserved": 0, "name": "4b3fe37aabdac4892df18d163a2b9d42", "lat": 38.92646516666667, "fusion_lat": 0.0, "lon": -77.00756633333333, "is_disabled": 0, "fusion_lon": 0.0, "rental_uris": {"android": "https://dc.lft.to/lastmile_qr_scan", "ios": "https://dc.lft.to/lastmile_qr_scan"}, "type": "electric_scooter"}, {"bike_id": "258061556312c944d1a391eda03eb993", "is_reserved": 0, "name": "258061556312c944d1a391eda03eb993", "lat": 38.890795833333335, "fusion_lat": 0.0, "lon": -77.0403945, "is_disabled": 0, "fusion_lon": 0.0, "rental_uris": {"android": "https://dc.lft.to/lastmile_qr_scan", "ios": "https://dc.lft.to/lastmile_qr_scan"}, "type": "electric_scooter"}, {"bike_id": "40198a7f8c1963ba34ea9219b62d4200", "is_reserved": 0, "name": "40198a7f8c1963ba34ea9219b62d4200", "lat": 38.8833025, "fusion_lat": 0.0, "lon": -77.01365533333333, "is_disabled": 0, "fusion_lon": 0.0, "rental_uris": {"android": "https://dc.lft.to/lastmile_qr_scan", "ios": "https://dc.lft.to/lastmile_qr_scan"}, "type": "electric_scooter"}, {"bike_id": "6efba6626379070c000743db0cde1fc8", "is_reserved": 0, "name": "6efba6626379070c000743db0cde1fc8", "lat": 38.916851, "fusion_lat": 0.0, "lon": -77.02381316666667, "is_disabled": 0, "fusion_lon": 0.0, "rental_uris": {"android": "https://dc.lft.to/lastmile_qr_scan", "ios": "https://dc.lft.to/lastmile_qr_scan"}, "type": "electric_scooter"}, {"bike_id": "563781c275b85f302ae65b305af384ee", "is_reserved": 0, "name": "563781c275b85f302ae65b305af384ee", "lat": 38.90411616666667, "fusion_lat": 0.0, "lon": -77.06266433333333, "is_disabled": 0, "fusion_lon": 0.0, "rental_uris": {"android": "https://dc.lft.to/lastmile_qr_scan", "ios": "https://dc.lft.to/lastmile_qr_scan"}, "type": "electric_scooter"}, {"bike_id": "0503b40d36068cedbe2425e5f117de12", "is_reserved": 0, "name": "0503b40d36068cedbe2425e5f117de12", "lat": 38.905654166666665, "fusion_lat": 0.0, "lon": -77.00707833333334, "is_disabled": 0, "fusion_lon": 0.0, "rental_uris": {"android": "https://dc.lft.to/lastmile_qr_scan", "ios": "https://dc.lft.to/lastmile_qr_scan"}, "type": "electric_scooter"}, {"bike_id": "9752020b040b2427e18be0ff918ec33b", "is_reserved": 0, "name": "9752020b040b2427e18be0ff918ec33b", "lat": 38.900296, "fusion_lat": 0.0, "lon": -76.99136833333333, "is_disabled": 0, "fusion_lon": 0.0, "rental_uris": {"android": "https://dc.lft.to/lastmile_qr_scan", "ios": "https://dc.lft.to/lastmile_qr_scan"}, "type": "electric_scooter"}, {"bike_id": "69508dc0e5f9dfce109f7db1250ce32d", "is_reserved": 0, "name": "69508dc0e5f9dfce109f7db1250ce32d", "lat": 38.875322833333335, "fusion_lat": 0.0, "lon": -77.00506983333334, "is_disabled": 0, "fusion_lon": 0.0, "rental_uris": {"android": "https://dc.lft.to/lastmile_qr_scan", "ios": "https://dc.lft.to/lastmile_qr_scan"}, "type": "electric_scooter"}, {"bike_id": "d757aeeee94492c56bbea897d39cbca4", "is_reserved": 0, "name": "d757aeeee94492c56bbea897d39cbca4", "lat": 38.90144216666667, "fusion_lat": 0.0, "lon": -77.01908166666666, "is_disabled": 0, "fusion_lon": 0.0, "rental_uris": {"android": "https://dc.lft.to/lastmile_qr_scan", "ios": "https://dc.lft.to/lastmile_qr_scan"}, "type": "electric_scooter"}, {"bike_id": "c97fbbeefde2d54ecb879488806460fd", "is_reserved": 0, "name": "c97fbbeefde2d54ecb879488806460fd", "lat": 38.9006495, "fusion_lat": 0.0, "lon": -76.92744666666667, "is_disabled": 0, "fusion_lon": 0.0, "rental_uris": {"android": "https://dc.lft.to/lastmile_qr_scan", "ios": "https://dc.lft.to/lastmile_qr_scan"}, "type": "electric_scooter"}, {"bike_id": "15c82b5b6fa2ee155cf90e99eb37658a", "is_reserved": 0, "name": "15c82b5b6fa2ee155cf90e99eb37658a", "lat": 38.89553816666667, "fusion_lat": 0.0, "lon": -76.94872816666667, "is_disabled": 0, "fusion_lon": 0.0, "rental_uris": {"android": "https://dc.lft.to/lastmile_qr_scan", "ios": "https://dc.lft.to/lastmile_qr_scan"}, "type": "electric_scooter"}, {"bike_id": "c340cc9704f89f1897410612d903f19a", "is_reserved": 0, "name": "c340cc9704f89f1897410612d903f19a", "lat": 38.86959233333333, "fusion_lat": 0.0, "lon": -77.01370783333333, "is_disabled": 0, "fusion_lon": 0.0, "rental_uris": {"android": "https://dc.lft.to/lastmile_qr_scan", "ios": "https://dc.lft.to/lastmile_qr_scan"}, "type": "electric_scooter"}, {"bike_id": "bbf1fa824604d7a3c7128c08ebe222cf", "is_reserved": 0, "name": "bbf1fa824604d7a3c7128c08ebe222cf", "lat": 38.89545616666667, "fusion_lat": 0.0, "lon": -76.94949133333333, "is_disabled": 0, "fusion_lon": 0.0, "rental_uris": {"android": "https://dc.lft.to/lastmile_qr_scan", "ios": "https://dc.lft.to/lastmile_qr_scan"}, "type": "electric_scooter"}, {"bike_id": "3f744b12780bc9727a7334f24784a192", "is_reserved": 0, "name": "3f744b12780bc9727a7334f24784a192", "lat": 38.8076205, "fusion_lat": 0.0, "lon": -77.129819, "is_disabled": 0, "fusion_lon": 0.0, "rental_uris": {"android": "https://dc.lft.to/lastmile_qr_scan", "ios": "https://dc.lft.to/lastmile_qr_scan"}, "type": "electric_bike"}, {"bike_id": "7535313d69705f41fd4a62975b6e84e1", "is_reserved": 0, "name": "7535313d69705f41fd4a62975b6e84e1", "lat": 38.91109, "fusion_lat": 0.0, "lon": -77.0454385, "is_disabled": 0, "fusion_lon": 0.0, "rental_uris": {"android": "https://dc.lft.to/lastmile_qr_scan", "ios": "https://dc.lft.to/lastmile_qr_scan"}, "type": "electric_scooter"}, {"bike_id": "ad3892d4f3e04f0c07cd2158ed1c9ee5", "is_reserved": 0, "name": "ad3892d4f3e04f0c07cd2158ed1c9ee5", "lat": 38.909638, "fusion_lat": 0.0, "lon": -77.02410066666667, "is_disabled": 0, "fusion_lon": 0.0, "rental_uris": {"android": "https://dc.lft.to/lastmile_qr_scan", "ios": "https://dc.lft.to/lastmile_qr_scan"}, "type": "electric_scooter"}, {"bike_id": "3e323dda6b5b9dc50458435a27acb566", "is_reserved": 0, "name": "3e323dda6b5b9dc50458435a27acb566", "lat": 38.9275195, "fusion_lat": 0.0, "lon": -77.02425433333333, "is_disabled": 0, "fusion_lon": 0.0, "rental_uris": {"android": "https://dc.lft.to/lastmile_qr_scan", "ios": "https://dc.lft.to/lastmile_qr_scan"}, "type": "electric_scooter"}, {"bike_id": "559b6d05375566e8426134dfce3b7121", "is_reserved": 0, "name": "559b6d05375566e8426134dfce3b7121", "lat": 38.89728, "fusion_lat": 0.0, "lon": -77.0232635, "is_disabled": 0, "fusion_lon": 0.0, "rental_uris": {"android": "https://dc.lft.to/lastmile_qr_scan", "ios": "https://dc.lft.to/lastmile_qr_scan"}, "type": "electric_scooter"}, {"bike_id": "9e203e50a206eee3b4070cbd416a20e5", "is_reserved": 0, "name": "9e203e50a206eee3b4070cbd416a20e5", "lat": 38.904134666666664, "fusion_lat": 0.0, "lon": -77.04664133333333, "is_disabled": 0, "fusion_lon": 0.0, "rental_uris": {"android": "https://dc.lft.to/lastmile_qr_scan", "ios": "https://dc.lft.to/lastmile_qr_scan"}, "type": "electric_scooter"}, {"bike_id": "08c0fa461b8e2017c86e2eefa009598b", "is_reserved": 0, "name": "08c0fa461b8e2017c86e2eefa009598b", "lat": 38.92231433333333, "fusion_lat": 0.0, "lon": -77.03517333333333, "is_disabled": 0, "fusion_lon": 0.0, "rental_uris": {"android": "https://dc.lft.to/lastmile_qr_scan", "ios": "https://dc.lft.to/lastmile_qr_scan"}, "type": "electric_scooter"}, {"bike_id": "5f14c1f37a858fba48442b150f94ec5a", "is_reserved": 0, "name": "5f14c1f37a858fba48442b150f94ec5a", "lat": 38.9508445, "fusion_lat": 0.0, "lon": -76.99793716666667, "is_disabled": 0, "fusion_lon": 0.0, "rental_uris": {"android": "https://dc.lft.to/lastmile_qr_scan", "ios": "https://dc.lft.to/lastmile_qr_scan"}, "type": "electric_bike"}, {"bike_id": "0ba2e397ab8a85dfa6163d1a5e75c80d", "is_reserved": 0, "name": "0ba2e397ab8a85dfa6163d1a5e75c80d", "lat": 38.891967666666666, "fusion_lat": 0.0, "lon": -77.02219033333333, "is_disabled": 0, "fusion_lon": 0.0, "rental_uris": {"android": "https://dc.lft.to/lastmile_qr_scan", "ios": "https://dc.lft.to/lastmile_qr_scan"}, "type": "electric_scooter"}, {"bike_id": "4c8705864ef7577142957578035903d3", "is_reserved": 0, "name": "4c8705864ef7577142957578035903d3", "lat": 38.936894333333335, "fusion_lat": 0.0, "lon": -76.9905825, "is_disabled": 0, "fusion_lon": 0.0, "rental_uris": {"android": "https://dc.lft.to/lastmile_qr_scan", "ios": "https://dc.lft.to/lastmile_qr_scan"}, "type": "electric_bike"}, {"bike_id": "46a548a7bc09d0b6324d7a20f77023fe", "is_reserved": 0, "name": "46a548a7bc09d0b6324d7a20f77023fe", "lat": 38.904272666666664, "fusion_lat": 0.0, "lon": -77.0198065, "is_disabled": 0, "fusion_lon": 0.0, "rental_uris": {"android": "https://dc.lft.to/lastmile_qr_scan", "ios": "https://dc.lft.to/lastmile_qr_scan"}, "type": "electric_scooter"}, {"bike_id": "fb75f9c34af9a9357c3195506209db4d", "is_reserved": 0, "name": "fb75f9c34af9a9357c3195506209db4d", "lat": 38.871846833333336, "fusion_lat": 0.0, "lon": -77.0058065, "is_disabled": 0, "fusion_lon": 0.0, "rental_uris": {"android": "https://dc.lft.to/lastmile_qr_scan", "ios": "https://dc.lft.to/lastmile_qr_scan"}, "type": "electric_scooter"}, {"bike_id": "a8274dbdb56e8a35868d10274a0494c8", "is_reserved": 0, "name": "a8274dbdb56e8a35868d10274a0494c8", "lat": 38.92345433333333, "fusion_lat": 0.0, "lon": -77.051659, "is_disabled": 0, "fusion_lon": 0.0, "rental_uris": {"android": "https://dc.lft.to/lastmile_qr_scan", "ios": "https://dc.lft.to/lastmile_qr_scan"}, "type": "electric_scooter"}, {"bike_id": "eac820174c5627c294ea253c5d8aff0b", "is_reserved": 0, "name": "eac820174c5627c294ea253c5d8aff0b", "lat": 38.9053945, "fusion_lat": 0.0, "lon": -77.06516116666667, "is_disabled": 0, "fusion_lon": 0.0, "rental_uris": {"android": "https://dc.lft.to/lastmile_qr_scan", "ios": "https://dc.lft.to/lastmile_qr_scan"}, "type": "electric_scooter"}, {"bike_id": "5160cdff58a7a678a77737a07238ccc4", "is_reserved": 0, "name": "5160cdff58a7a678a77737a07238ccc4", "lat": 38.908383, "fusion_lat": 0.0, "lon": -76.99978316666666, "is_disabled": 0, "fusion_lon": 0.0, "rental_uris": {"android": "https://dc.lft.to/lastmile_qr_scan", "ios": "https://dc.lft.to/lastmile_qr_scan"}, "type": "electric_scooter"}, {"bike_id": "1f50e1d5debcc7934eeae3b8b6d35bbc", "is_reserved": 0, "name": "1f50e1d5debcc7934eeae3b8b6d35bbc", "lat": 38.895202833333336, "fusion_lat": 0.0, "lon": -77.04481616666666, "is_disabled": 0, "fusion_lon": 0.0, "rental_uris": {"android": "https://dc.lft.to/lastmile_qr_scan", "ios": "https://dc.lft.to/lastmile_qr_scan"}, "type": "electric_scooter"}, {"bike_id": "024df21fc84d0df28b970532d12b1221", "is_reserved": 0, "name": "024df21fc84d0df28b970532d12b1221", "lat": 38.884182, "fusion_lat": 0.0, "lon": -76.94199966666666, "is_disabled": 0, "fusion_lon": 0.0, "rental_uris": {"android": "https://dc.lft.to/lastmile_qr_scan", "ios": "https://dc.lft.to/lastmile_qr_scan"}, "type": "electric_scooter"}, {"bike_id": "575335f13214d1116884608d8ccb3de9", "is_reserved": 0, "name": "575335f13214d1116884608d8ccb3de9", "lat": 38.887286833333334, "fusion_lat": 0.0, "lon": -76.98355283333333, "is_disabled": 0, "fusion_lon": 0.0, "rental_uris": {"android": "https://dc.lft.to/lastmile_qr_scan", "ios": "https://dc.lft.to/lastmile_qr_scan"}, "type": "electric_scooter"}, {"bike_id": "a486f1a87f881ac6cb65c4d7dae72aac", "is_reserved": 0, "name": "a486f1a87f881ac6cb65c4d7dae72aac", "lat": 38.900477, "fusion_lat": 0.0, "lon": -77.02613633333333, "is_disabled": 0, "fusion_lon": 0.0, "rental_uris": {"android": "https://dc.lft.to/lastmile_qr_scan", "ios": "https://dc.lft.to/lastmile_qr_scan"}, "type": "electric_scooter"}, {"bike_id": "a17879f3e1ce6380b9481e218b706382", "is_reserved": 0, "name": "a17879f3e1ce6380b9481e218b706382", "lat": 38.91960566666667, "fusion_lat": 0.0, "lon": -77.02389966666667, "is_disabled": 0, "fusion_lon": 0.0, "rental_uris": {"android": "https://dc.lft.to/lastmile_qr_scan", "ios": "https://dc.lft.to/lastmile_qr_scan"}, "type": "electric_scooter"}, {"bike_id": "55b82797225c6b6dd06d9e5344707f66", "is_reserved": 0, "name": "55b82797225c6b6dd06d9e5344707f66", "lat": 38.87559316666667, "fusion_lat": 0.0, "lon": -77.00602566666667, "is_disabled": 0, "fusion_lon": 0.0, "rental_uris": {"android": "https://dc.lft.to/lastmile_qr_scan", "ios": "https://dc.lft.to/lastmile_qr_scan"}, "type": "electric_scooter"}, {"bike_id": "433a483b53e136886926e69bbb4df0b7", "is_reserved": 0, "name": "433a483b53e136886926e69bbb4df0b7", "lat": 38.9015755, "fusion_lat": 0.0, "lon": -76.98069816666667, "is_disabled": 0, "fusion_lon": 0.0, "rental_uris": {"android": "https://dc.lft.to/lastmile_qr_scan", "ios": "https://dc.lft.to/lastmile_qr_scan"}, "type": "electric_scooter"}, {"bike_id": "bf66a70ae37fac5fc4a43f049b52af56", "is_reserved": 0, "name": "bf66a70ae37fac5fc4a43f049b52af56", "lat": 38.905747, "fusion_lat": 0.0, "lon": -77.0444235, "is_disabled": 0, "fusion_lon": 0.0, "rental_uris": {"android": "https://dc.lft.to/lastmile_qr_scan", "ios": "https://dc.lft.to/lastmile_qr_scan"}, "type": "electric_scooter"}, {"bike_id": "1f8571b5f2b823c933cc545921bc24bb", "is_reserved": 0, "name": "1f8571b5f2b823c933cc545921bc24bb", "lat": 38.876759666666665, "fusion_lat": 0.0, "lon": -77.0058915, "is_disabled": 0, "fusion_lon": 0.0, "rental_uris": {"android": "https://dc.lft.to/lastmile_qr_scan", "ios": "https://dc.lft.to/lastmile_qr_scan"}, "type": "electric_scooter"}, {"bike_id": "33ba083596db50cf14f5c296c5d95d33", "is_reserved": 0, "name": "33ba083596db50cf14f5c296c5d95d33", "lat": 38.92388583333333, "fusion_lat": 0.0, "lon": -77.04303316666666, "is_disabled": 0, "fusion_lon": 0.0, "rental_uris": {"android": "https://dc.lft.to/lastmile_qr_scan", "ios": "https://dc.lft.to/lastmile_qr_scan"}, "type": "electric_scooter"}, {"bike_id": "44542a51ead4845cbfb84b57898fb4eb", "is_reserved": 0, "name": "44542a51ead4845cbfb84b57898fb4eb", "lat": 38.8766205, "fusion_lat": 0.0, "lon": -77.001122, "is_disabled": 0, "fusion_lon": 0.0, "rental_uris": {"android": "https://dc.lft.to/lastmile_qr_scan", "ios": "https://dc.lft.to/lastmile_qr_scan"}, "type": "electric_scooter"}, {"bike_id": "835d102256399ba9ae72ae3d100a254b", "is_reserved": 0, "name": "835d102256399ba9ae72ae3d100a254b", "lat": 38.915766833333336, "fusion_lat": 0.0, "lon": -77.012306, "is_disabled": 0, "fusion_lon": 0.0, "rental_uris": {"android": "https://dc.lft.to/lastmile_qr_scan", "ios": "https://dc.lft.to/lastmile_qr_scan"}, "type": "electric_scooter"}, {"bike_id": "735c2c933892c10490b72907e061c0d5", "is_reserved": 0, "name": "735c2c933892c10490b72907e061c0d5", "lat": 38.900684166666665, "fusion_lat": 0.0, "lon": -77.04907066666667, "is_disabled": 0, "fusion_lon": 0.0, "rental_uris": {"android": "https://dc.lft.to/lastmile_qr_scan", "ios": "https://dc.lft.to/lastmile_qr_scan"}, "type": "electric_scooter"}, {"bike_id": "42d684d4529c6f97b400a3ae779f5883", "is_reserved": 0, "name": "42d684d4529c6f97b400a3ae779f5883", "lat": 38.9195695, "fusion_lat": 0.0, "lon": -77.012212, "is_disabled": 0, "fusion_lon": 0.0, "rental_uris": {"android": "https://dc.lft.to/lastmile_qr_scan", "ios": "https://dc.lft.to/lastmile_qr_scan"}, "type": "electric_scooter"}, {"bike_id": "a9f485dbe745531ff73b021170d1a7a2", "is_reserved": 0, "name": "a9f485dbe745531ff73b021170d1a7a2", "lat": 38.91846916666667, "fusion_lat": 0.0, "lon": -77.048304, "is_disabled": 0, "fusion_lon": 0.0, "rental_uris": {"android": "https://dc.lft.to/lastmile_qr_scan", "ios": "https://dc.lft.to/lastmile_qr_scan"}, "type": "electric_scooter"}, {"bike_id": "9e8f99a97ae258998d9ccd36f6ad44a7", "is_reserved": 0, "name": "9e8f99a97ae258998d9ccd36f6ad44a7", "lat": 38.904767166666666, "fusion_lat": 0.0, "lon": -77.00212733333333, "is_disabled": 0, "fusion_lon": 0.0, "rental_uris": {"android": "https://dc.lft.to/lastmile_qr_scan", "ios": "https://dc.lft.to/lastmile_qr_scan"}, "type": "electric_bike"}, {"bike_id": "bf63c5e8ff3d04cd8025572bec9503df", "is_reserved": 0, "name": "bf63c5e8ff3d04cd8025572bec9503df", "lat": 38.89719683333333, "fusion_lat": 0.0, "lon": -77.0079765, "is_disabled": 0, "fusion_lon": 0.0, "rental_uris": {"android": "https://dc.lft.to/lastmile_qr_scan", "ios": "https://dc.lft.to/lastmile_qr_scan"}, "type": "electric_scooter"}, {"bike_id": "e2f431bf27dc210837184603c1f8aacb", "is_reserved": 0, "name": "e2f431bf27dc210837184603c1f8aacb", "lat": 38.916874, "fusion_lat": 0.0, "lon": -77.0376415, "is_disabled": 0, "fusion_lon": 0.0, "rental_uris": {"android": "https://dc.lft.to/lastmile_qr_scan", "ios": "https://dc.lft.to/lastmile_qr_scan"}, "type": "electric_scooter"}, {"bike_id": "4f4696ee48da9252e381eb7bb552d2fc", "is_reserved": 0, "name": "4f4696ee48da9252e381eb7bb552d2fc", "lat": 38.91693766666667, "fusion_lat": 0.0, "lon": -77.04597766666667, "is_disabled": 0, "fusion_lon": 0.0, "rental_uris": {"android": "https://dc.lft.to/lastmile_qr_scan", "ios": "https://dc.lft.to/lastmile_qr_scan"}, "type": "electric_scooter"}, {"bike_id": "fce17c145d202b98781b3e69b4e82bb7", "is_reserved": 0, "name": "fce17c145d202b98781b3e69b4e82bb7", "lat": 38.90531816666667, "fusion_lat": 0.0, "lon": -77.05640983333333, "is_disabled": 0, "fusion_lon": 0.0, "rental_uris": {"android": "https://dc.lft.to/lastmile_qr_scan", "ios": "https://dc.lft.to/lastmile_qr_scan"}, "type": "electric_scooter"}, {"bike_id": "96e1b2c1e208a181d57f4d33190e93ce", "is_reserved": 0, "name": "96e1b2c1e208a181d57f4d33190e93ce", "lat": 38.918077, "fusion_lat": 0.0, "lon": -77.02682533333333, "is_disabled": 0, "fusion_lon": 0.0, "rental_uris": {"android": "https://dc.lft.to/lastmile_qr_scan", "ios": "https://dc.lft.to/lastmile_qr_scan"}, "type": "electric_scooter"}, {"bike_id": "d0a78bfd3586f5be4a1e0750660a53a1", "is_reserved": 0, "name": "d0a78bfd3586f5be4a1e0750660a53a1", "lat": 38.94816433333333, "fusion_lat": 0.0, "lon": -77.10005933333333, "is_disabled": 0, "fusion_lon": 0.0, "rental_uris": {"android": "https://dc.lft.to/lastmile_qr_scan", "ios": "https://dc.lft.to/lastmile_qr_scan"}, "type": "electric_bike"}, {"bike_id": "8f27829ccb5b62380b2d334a941d1213", "is_reserved": 0, "name": "8f27829ccb5b62380b2d334a941d1213", "lat": 38.89730316666667, "fusion_lat": 0.0, "lon": -77.05522133333334, "is_disabled": 0, "fusion_lon": 0.0, "rental_uris": {"android": "https://dc.lft.to/lastmile_qr_scan", "ios": "https://dc.lft.to/lastmile_qr_scan"}, "type": "electric_scooter"}, {"bike_id": "49e3390e930bebba42858196925b1ed2", "is_reserved": 0, "name": "49e3390e930bebba42858196925b1ed2", "lat": 38.899233333333335, "fusion_lat": 0.0, "lon": -77.05431566666667, "is_disabled": 0, "fusion_lon": 0.0, "rental_uris": {"android": "https://dc.lft.to/lastmile_qr_scan", "ios": "https://dc.lft.to/lastmile_qr_scan"}, "type": "electric_scooter"}, {"bike_id": "e2553405a26d253b1553113c556a5f4a", "is_reserved": 0, "name": "e2553405a26d253b1553113c556a5f4a", "lat": 38.9159765, "fusion_lat": 0.0, "lon": -76.99360116666666, "is_disabled": 0, "fusion_lon": 0.0, "rental_uris": {"android": "https://dc.lft.to/lastmile_qr_scan", "ios": "https://dc.lft.to/lastmile_qr_scan"}, "type": "electric_scooter"}, {"bike_id": "997d9410bb652a1e50c3b3b5887da55c", "is_reserved": 0, "name": "997d9410bb652a1e50c3b3b5887da55c", "lat": 38.9265085, "fusion_lat": 0.0, "lon": -77.0431325, "is_disabled": 0, "fusion_lon": 0.0, "rental_uris": {"android": "https://dc.lft.to/lastmile_qr_scan", "ios": "https://dc.lft.to/lastmile_qr_scan"}, "type": "electric_scooter"}, {"bike_id": "3a8df3707d76eb6481f131be47161d93", "is_reserved": 0, "name": "3a8df3707d76eb6481f131be47161d93", "lat": 38.912866, "fusion_lat": 0.0, "lon": -77.02383666666667, "is_disabled": 0, "fusion_lon": 0.0, "rental_uris": {"android": "https://dc.lft.to/lastmile_qr_scan", "ios": "https://dc.lft.to/lastmile_qr_scan"}, "type": "electric_scooter"}, {"bike_id": "863b8c33a6d54d5ff59b4ba3391a9e55", "is_reserved": 0, "name": "863b8c33a6d54d5ff59b4ba3391a9e55", "lat": 38.918117, "fusion_lat": 0.0, "lon": -77.03153866666666, "is_disabled": 0, "fusion_lon": 0.0, "rental_uris": {"android": "https://dc.lft.to/lastmile_qr_scan", "ios": "https://dc.lft.to/lastmile_qr_scan"}, "type": "electric_scooter"}, {"bike_id": "80c047e9a4dc9705ebe152a140617f0e", "is_reserved": 0, "name": "80c047e9a4dc9705ebe152a140617f0e", "lat": 38.847566, "fusion_lat": 0.0, "lon": -76.99500916666666, "is_disabled": 0, "fusion_lon": 0.0, "rental_uris": {"android": "https://dc.lft.to/lastmile_qr_scan", "ios": "https://dc.lft.to/lastmile_qr_scan"}, "type": "electric_scooter"}, {"bike_id": "cc16e8ed981a0ea38193ec1da4e334a0", "is_reserved": 0, "name": "cc16e8ed981a0ea38193ec1da4e334a0", "lat": 38.916538333333335, "fusion_lat": 0.0, "lon": -77.030078, "is_disabled": 0, "fusion_lon": 0.0, "rental_uris": {"android": "https://dc.lft.to/lastmile_qr_scan", "ios": "https://dc.lft.to/lastmile_qr_scan"}, "type": "electric_scooter"}, {"bike_id": "481deaddb26ce39b938f0c1b44993228", "is_reserved": 0, "name": "481deaddb26ce39b938f0c1b44993228", "lat": 38.89853316666667, "fusion_lat": 0.0, "lon": -76.93188783333333, "is_disabled": 0, "fusion_lon": 0.0, "rental_uris": {"android": "https://dc.lft.to/lastmile_qr_scan", "ios": "https://dc.lft.to/lastmile_qr_scan"}, "type": "electric_bike"}, {"bike_id": "1200d80f71ef9c2ba526f384218d9f1a", "is_reserved": 0, "name": "1200d80f71ef9c2ba526f384218d9f1a", "lat": 38.85935, "fusion_lat": 0.0, "lon": -76.996989, "is_disabled": 0, "fusion_lon": 0.0, "rental_uris": {"android": "https://dc.lft.to/lastmile_qr_scan", "ios": "https://dc.lft.to/lastmile_qr_scan"}, "type": "electric_scooter"}, {"bike_id": "5099107d883a8fc671fb811406d2aa59", "is_reserved": 0, "name": "5099107d883a8fc671fb811406d2aa59", "lat": 38.897189, "fusion_lat": 0.0, "lon": -77.0272605, "is_disabled": 0, "fusion_lon": 0.0, "rental_uris": {"android": "https://dc.lft.to/lastmile_qr_scan", "ios": "https://dc.lft.to/lastmile_qr_scan"}, "type": "electric_scooter"}, {"bike_id": "f6e2dab564da774e4a6a0fc8c0ba7b8e", "is_reserved": 0, "name": "f6e2dab564da774e4a6a0fc8c0ba7b8e", "lat": 38.88111816666667, "fusion_lat": 0.0, "lon": -77.01649633333334, "is_disabled": 0, "fusion_lon": 0.0, "rental_uris": {"android": "https://dc.lft.to/lastmile_qr_scan", "ios": "https://dc.lft.to/lastmile_qr_scan"}, "type": "electric_scooter"}, {"bike_id": "fe7bcfb2cdd59964114882973cd094a9", "is_reserved": 0, "name": "fe7bcfb2cdd59964114882973cd094a9", "lat": 38.900619166666665, "fusion_lat": 0.0, "lon": -76.93389716666667, "is_disabled": 0, "fusion_lon": 0.0, "rental_uris": {"android": "https://dc.lft.to/lastmile_qr_scan", "ios": "https://dc.lft.to/lastmile_qr_scan"}, "type": "electric_scooter"}, {"bike_id": "209ff92446aa4638a52a25bbf70b386c", "is_reserved": 0, "name": "209ff92446aa4638a52a25bbf70b386c", "lat": 38.938944166666666, "fusion_lat": 0.0, "lon": -76.98607783333334, "is_disabled": 0, "fusion_lon": 0.0, "rental_uris": {"android": "https://dc.lft.to/lastmile_qr_scan", "ios": "https://dc.lft.to/lastmile_qr_scan"}, "type": "electric_scooter"}, {"bike_id": "081271cc0bbbb76522df129f44dcb60c", "is_reserved": 0, "name": "081271cc0bbbb76522df129f44dcb60c", "lat": 38.8982975, "fusion_lat": 0.0, "lon": -76.94632433333334, "is_disabled": 0, "fusion_lon": 0.0, "rental_uris": {"android": "https://dc.lft.to/lastmile_qr_scan", "ios": "https://dc.lft.to/lastmile_qr_scan"}, "type": "electric_scooter"}, {"bike_id": "91e4f10ff82c2b993e42783cce6d9239", "is_reserved": 0, "name": "91e4f10ff82c2b993e42783cce6d9239", "lat": 38.91718916666667, "fusion_lat": 0.0, "lon": -77.02532233333334, "is_disabled": 0, "fusion_lon": 0.0, "rental_uris": {"android": "https://dc.lft.to/lastmile_qr_scan", "ios": "https://dc.lft.to/lastmile_qr_scan"}, "type": "electric_scooter"}, {"bike_id": "78a8d90411dc2f314d74804fb94ceed8", "is_reserved": 0, "name": "78a8d90411dc2f314d74804fb94ceed8", "lat": 38.91693266666667, "fusion_lat": 0.0, "lon": -77.030366, "is_disabled": 0, "fusion_lon": 0.0, "rental_uris": {"android": "https://dc.lft.to/lastmile_qr_scan", "ios": "https://dc.lft.to/lastmile_qr_scan"}, "type": "electric_scooter"}, {"bike_id": "e6f96a1964aa7616f3d800df582576da", "is_reserved": 0, "name": "e6f96a1964aa7616f3d800df582576da", "lat": 38.921973666666666, "fusion_lat": 0.0, "lon": -76.99695416666667, "is_disabled": 0, "fusion_lon": 0.0, "rental_uris": {"android": "https://dc.lft.to/lastmile_qr_scan", "ios": "https://dc.lft.to/lastmile_qr_scan"}, "type": "electric_scooter"}, {"bike_id": "9d56b31b0eb90a2e2aeae7c832bd6699", "is_reserved": 0, "name": "9d56b31b0eb90a2e2aeae7c832bd6699", "lat": 38.9045015, "fusion_lat": 0.0, "lon": -77.03208533333333, "is_disabled": 0, "fusion_lon": 0.0, "rental_uris": {"android": "https://dc.lft.to/lastmile_qr_scan", "ios": "https://dc.lft.to/lastmile_qr_scan"}, "type": "electric_scooter"}, {"bike_id": "b41de5e167e497c6544534faf590a84c", "is_reserved": 0, "name": "b41de5e167e497c6544534faf590a84c", "lat": 38.917499166666666, "fusion_lat": 0.0, "lon": -77.0416085, "is_disabled": 0, "fusion_lon": 0.0, "rental_uris": {"android": "https://dc.lft.to/lastmile_qr_scan", "ios": "https://dc.lft.to/lastmile_qr_scan"}, "type": "electric_scooter"}, {"bike_id": "6120d6e7d7ad01c7180c1bc2a808a00e", "is_reserved": 0, "name": "6120d6e7d7ad01c7180c1bc2a808a00e", "lat": 38.907314666666664, "fusion_lat": 0.0, "lon": -77.04283616666666, "is_disabled": 0, "fusion_lon": 0.0, "rental_uris": {"android": "https://dc.lft.to/lastmile_qr_scan", "ios": "https://dc.lft.to/lastmile_qr_scan"}, "type": "electric_scooter"}, {"bike_id": "2f65fdd0d891484a84af4cb001fc395a", "is_reserved": 0, "name": "2f65fdd0d891484a84af4cb001fc395a", "lat": 38.87645366666667, "fusion_lat": 0.0, "lon": -77.0006745, "is_disabled": 0, "fusion_lon": 0.0, "rental_uris": {"android": "https://dc.lft.to/lastmile_qr_scan", "ios": "https://dc.lft.to/lastmile_qr_scan"}, "type": "electric_scooter"}, {"bike_id": "7e68dbc88476132a3a284057030273a7", "is_reserved": 0, "name": "7e68dbc88476132a3a284057030273a7", "lat": 38.92379833333333, "fusion_lat": 0.0, "lon": -77.03536283333334, "is_disabled": 0, "fusion_lon": 0.0, "rental_uris": {"android": "https://dc.lft.to/lastmile_qr_scan", "ios": "https://dc.lft.to/lastmile_qr_scan"}, "type": "electric_scooter"}, {"bike_id": "f267a203a85117009e5936b8e3baf769", "is_reserved": 0, "name": "f267a203a85117009e5936b8e3baf769", "lat": 38.91577233333334, "fusion_lat": 0.0, "lon": -76.983844, "is_disabled": 0, "fusion_lon": 0.0, "rental_uris": {"android": "https://dc.lft.to/lastmile_qr_scan", "ios": "https://dc.lft.to/lastmile_qr_scan"}, "type": "electric_scooter"}, {"bike_id": "e9e66db4dd4c367c08483749905f0051", "is_reserved": 0, "name": "e9e66db4dd4c367c08483749905f0051", "lat": 38.903519833333334, "fusion_lat": 0.0, "lon": -77.02946416666667, "is_disabled": 0, "fusion_lon": 0.0, "rental_uris": {"android": "https://dc.lft.to/lastmile_qr_scan", "ios": "https://dc.lft.to/lastmile_qr_scan"}, "type": "electric_scooter"}, {"bike_id": "2a3639db0c2222a6a25ae4809b4d9855", "is_reserved": 0, "name": "2a3639db0c2222a6a25ae4809b4d9855", "lat": 38.89904883333333, "fusion_lat": 0.0, "lon": -77.02715, "is_disabled": 0, "fusion_lon": 0.0, "rental_uris": {"android": "https://dc.lft.to/lastmile_qr_scan", "ios": "https://dc.lft.to/lastmile_qr_scan"}, "type": "electric_scooter"}, {"bike_id": "ab85add87dded4c81c747794d2a408b2", "is_reserved": 0, "name": "ab85add87dded4c81c747794d2a408b2", "lat": 38.90650183333333, "fusion_lat": 0.0, "lon": -77.03155283333334, "is_disabled": 0, "fusion_lon": 0.0, "rental_uris": {"android": "https://dc.lft.to/lastmile_qr_scan", "ios": "https://dc.lft.to/lastmile_qr_scan"}, "type": "electric_scooter"}, {"bike_id": "faf7e7834dd92eb0ff761e264965c9de", "is_reserved": 0, "name": "faf7e7834dd92eb0ff761e264965c9de", "lat": 38.88770733333333, "fusion_lat": 0.0, "lon": -77.02367116666667, "is_disabled": 0, "fusion_lon": 0.0, "rental_uris": {"android": "https://dc.lft.to/lastmile_qr_scan", "ios": "https://dc.lft.to/lastmile_qr_scan"}, "type": "electric_scooter"}, {"bike_id": "ae7e2af81f1b5d726bb49461fb58a62c", "is_reserved": 0, "name": "ae7e2af81f1b5d726bb49461fb58a62c", "lat": 38.954696166666665, "fusion_lat": 0.0, "lon": -77.00914866666666, "is_disabled": 0, "fusion_lon": 0.0, "rental_uris": {"android": "https://dc.lft.to/lastmile_qr_scan", "ios": "https://dc.lft.to/lastmile_qr_scan"}, "type": "electric_scooter"}, {"bike_id": "27f5691b282607b1a36ef0824f26de06", "is_reserved": 0, "name": "27f5691b282607b1a36ef0824f26de06", "lat": 38.92187066666666, "fusion_lat": 0.0, "lon": -77.04344933333333, "is_disabled": 0, "fusion_lon": 0.0, "rental_uris": {"android": "https://dc.lft.to/lastmile_qr_scan", "ios": "https://dc.lft.to/lastmile_qr_scan"}, "type": "electric_scooter"}, {"bike_id": "46eac9f3fcb9075be214d2d250b4697c", "is_reserved": 0, "name": "46eac9f3fcb9075be214d2d250b4697c", "lat": 38.9293805, "fusion_lat": 0.0, "lon": -77.03286783333333, "is_disabled": 0, "fusion_lon": 0.0, "rental_uris": {"android": "https://dc.lft.to/lastmile_qr_scan", "ios": "https://dc.lft.to/lastmile_qr_scan"}, "type": "electric_scooter"}, {"bike_id": "84529906cc99fd70fdd3aea1f77a3f57", "is_reserved": 0, "name": "84529906cc99fd70fdd3aea1f77a3f57", "lat": 38.898556166666665, "fusion_lat": 0.0, "lon": -76.95046483333333, "is_disabled": 0, "fusion_lon": 0.0, "rental_uris": {"android": "https://dc.lft.to/lastmile_qr_scan", "ios": "https://dc.lft.to/lastmile_qr_scan"}, "type": "electric_scooter"}, {"bike_id": "99a4be0951eb71cc9b7d057affbcc2eb", "is_reserved": 0, "name": "99a4be0951eb71cc9b7d057affbcc2eb", "lat": 38.905901, "fusion_lat": 0.0, "lon": -77.04694833333333, "is_disabled": 0, "fusion_lon": 0.0, "rental_uris": {"android": "https://dc.lft.to/lastmile_qr_scan", "ios": "https://dc.lft.to/lastmile_qr_scan"}, "type": "electric_scooter"}, {"bike_id": "cea94203ed4a86f59512456905e6e5a8", "is_reserved": 0, "name": "cea94203ed4a86f59512456905e6e5a8", "lat": 38.921195833333336, "fusion_lat": 0.0, "lon": -77.23677166666667, "is_disabled": 0, "fusion_lon": 0.0, "rental_uris": {"android": "https://dc.lft.to/lastmile_qr_scan", "ios": "https://dc.lft.to/lastmile_qr_scan"}, "type": "electric_bike"}, {"bike_id": "c362084c444b66257ee0ff6d4ca9b275", "is_reserved": 0, "name": "c362084c444b66257ee0ff6d4ca9b275", "lat": 38.87668, "fusion_lat": 0.0, "lon": -77.003056, "is_disabled": 0, "fusion_lon": 0.0, "rental_uris": {"android": "https://dc.lft.to/lastmile_qr_scan", "ios": "https://dc.lft.to/lastmile_qr_scan"}, "type": "electric_scooter"}, {"bike_id": "46ba79fcb9a92fa2cfa481df9b58bf52", "is_reserved": 0, "name": "46ba79fcb9a92fa2cfa481df9b58bf52", "lat": 38.956228, "fusion_lat": 0.0, "lon": -77.070181, "is_disabled": 0, "fusion_lon": 0.0, "rental_uris": {"android": "https://dc.lft.to/lastmile_qr_scan", "ios": "https://dc.lft.to/lastmile_qr_scan"}, "type": "electric_scooter"}, {"bike_id": "c3730e5af11106a8048b130806df8cef", "is_reserved": 0, "name": "c3730e5af11106a8048b130806df8cef", "lat": 38.86985, "fusion_lat": 0.0, "lon": -77.01369683333333, "is_disabled": 0, "fusion_lon": 0.0, "rental_uris": {"android": "https://dc.lft.to/lastmile_qr_scan", "ios": "https://dc.lft.to/lastmile_qr_scan"}, "type": "electric_bike"}, {"bike_id": "9a6fa822e39940b1934b4458324de39e", "is_reserved": 0, "name": "9a6fa822e39940b1934b4458324de39e", "lat": 38.89226583333333, "fusion_lat": 0.0, "lon": -77.0489515, "is_disabled": 0, "fusion_lon": 0.0, "rental_uris": {"android": "https://dc.lft.to/lastmile_qr_scan", "ios": "https://dc.lft.to/lastmile_qr_scan"}, "type": "electric_scooter"}, {"bike_id": "1f69a08c925ac1658bdc6be1f0173421", "is_reserved": 0, "name": "1f69a08c925ac1658bdc6be1f0173421", "lat": 38.93595716666667, "fusion_lat": 0.0, "lon": -77.0380745, "is_disabled": 0, "fusion_lon": 0.0, "rental_uris": {"android": "https://dc.lft.to/lastmile_qr_scan", "ios": "https://dc.lft.to/lastmile_qr_scan"}, "type": "electric_scooter"}, {"bike_id": "c1519865b50f4f66f24070af99d61ca2", "is_reserved": 0, "name": "c1519865b50f4f66f24070af99d61ca2", "lat": 38.916341333333335, "fusion_lat": 0.0, "lon": -77.05072183333333, "is_disabled": 0, "fusion_lon": 0.0, "rental_uris": {"android": "https://dc.lft.to/lastmile_qr_scan", "ios": "https://dc.lft.to/lastmile_qr_scan"}, "type": "electric_scooter"}, {"bike_id": "a68e555e2e20e40ede49f8994af27d53", "is_reserved": 0, "name": "a68e555e2e20e40ede49f8994af27d53", "lat": 38.89991283333333, "fusion_lat": 0.0, "lon": -77.02430883333334, "is_disabled": 0, "fusion_lon": 0.0, "rental_uris": {"android": "https://dc.lft.to/lastmile_qr_scan", "ios": "https://dc.lft.to/lastmile_qr_scan"}, "type": "electric_scooter"}, {"bike_id": "a7a3f5f32657b3d096de85b7e465ff3b", "is_reserved": 0, "name": "a7a3f5f32657b3d096de85b7e465ff3b", "lat": 38.899980666666664, "fusion_lat": 0.0, "lon": -77.027037, "is_disabled": 0, "fusion_lon": 0.0, "rental_uris": {"android": "https://dc.lft.to/lastmile_qr_scan", "ios": "https://dc.lft.to/lastmile_qr_scan"}, "type": "electric_scooter"}, {"bike_id": "21aedb78889ec5b4645b5c6413ab2d6e", "is_reserved": 0, "name": "21aedb78889ec5b4645b5c6413ab2d6e", "lat": 38.918559333333334, "fusion_lat": 0.0, "lon": -77.04040783333333, "is_disabled": 0, "fusion_lon": 0.0, "rental_uris": {"android": "https://dc.lft.to/lastmile_qr_scan", "ios": "https://dc.lft.to/lastmile_qr_scan"}, "type": "electric_scooter"}, {"bike_id": "0ad98db9e6af2ee47da666401487bd0f", "is_reserved": 0, "name": "0ad98db9e6af2ee47da666401487bd0f", "lat": 38.920322666666664, "fusion_lat": 0.0, "lon": -77.0819025, "is_disabled": 0, "fusion_lon": 0.0, "rental_uris": {"android": "https://dc.lft.to/lastmile_qr_scan", "ios": "https://dc.lft.to/lastmile_qr_scan"}, "type": "electric_scooter"}, {"bike_id": "286ed79916777f557b1e67a9f0e82b3d", "is_reserved": 0, "name": "286ed79916777f557b1e67a9f0e82b3d", "lat": 38.920143, "fusion_lat": 0.0, "lon": -77.04406116666667, "is_disabled": 0, "fusion_lon": 0.0, "rental_uris": {"android": "https://dc.lft.to/lastmile_qr_scan", "ios": "https://dc.lft.to/lastmile_qr_scan"}, "type": "electric_scooter"}, {"bike_id": "33d464b504b34a604e3df0ae36ec8b39", "is_reserved": 0, "name": "33d464b504b34a604e3df0ae36ec8b39", "lat": 38.9342235, "fusion_lat": 0.0, "lon": -77.0427435, "is_disabled": 0, "fusion_lon": 0.0, "rental_uris": {"android": "https://dc.lft.to/lastmile_qr_scan", "ios": "https://dc.lft.to/lastmile_qr_scan"}, "type": "electric_scooter"}, {"bike_id": "5d4707fdfb504c59cdc7067249a4c9cb", "is_reserved": 0, "name": "5d4707fdfb504c59cdc7067249a4c9cb", "lat": 38.90647383333334, "fusion_lat": 0.0, "lon": -77.02692466666667, "is_disabled": 0, "fusion_lon": 0.0, "rental_uris": {"android": "https://dc.lft.to/lastmile_qr_scan", "ios": "https://dc.lft.to/lastmile_qr_scan"}, "type": "electric_scooter"}, {"bike_id": "f794d9980c5960bf5e77143a9ce902b0", "is_reserved": 0, "name": "f794d9980c5960bf5e77143a9ce902b0", "lat": 38.905541166666666, "fusion_lat": 0.0, "lon": -77.00712733333333, "is_disabled": 0, "fusion_lon": 0.0, "rental_uris": {"android": "https://dc.lft.to/lastmile_qr_scan", "ios": "https://dc.lft.to/lastmile_qr_scan"}, "type": "electric_scooter"}, {"bike_id": "8637b4b741042ef21f3003a8b1a7934d", "is_reserved": 0, "name": "8637b4b741042ef21f3003a8b1a7934d", "lat": 38.88745183333333, "fusion_lat": 0.0, "lon": -77.02773166666667, "is_disabled": 0, "fusion_lon": 0.0, "rental_uris": {"android": "https://dc.lft.to/lastmile_qr_scan", "ios": "https://dc.lft.to/lastmile_qr_scan"}, "type": "electric_scooter"}, {"bike_id": "ee3bbb37d61708153a58caf10e1c049b", "is_reserved": 0, "name": "ee3bbb37d61708153a58caf10e1c049b", "lat": 38.9211645, "fusion_lat": 0.0, "lon": -77.02689616666666, "is_disabled": 0, "fusion_lon": 0.0, "rental_uris": {"android": "https://dc.lft.to/lastmile_qr_scan", "ios": "https://dc.lft.to/lastmile_qr_scan"}, "type": "electric_scooter"}, {"bike_id": "49fe4b3b392d610291ecda50f4b8f6ce", "is_reserved": 0, "name": "49fe4b3b392d610291ecda50f4b8f6ce", "lat": 38.90022333333334, "fusion_lat": 0.0, "lon": -77.0349335, "is_disabled": 0, "fusion_lon": 0.0, "rental_uris": {"android": "https://dc.lft.to/lastmile_qr_scan", "ios": "https://dc.lft.to/lastmile_qr_scan"}, "type": "electric_scooter"}, {"bike_id": "4202a3a3eda8756e70ecdbfa41194e2b", "is_reserved": 0, "name": "4202a3a3eda8756e70ecdbfa41194e2b", "lat": 38.890797, "fusion_lat": 0.0, "lon": -77.040415, "is_disabled": 0, "fusion_lon": 0.0, "rental_uris": {"android": "https://dc.lft.to/lastmile_qr_scan", "ios": "https://dc.lft.to/lastmile_qr_scan"}, "type": "electric_scooter"}, {"bike_id": "666f42538ab6a9acb7791a52fbfa74e9", "is_reserved": 0, "name": "666f42538ab6a9acb7791a52fbfa74e9", "lat": 38.916907, "fusion_lat": 0.0, "lon": -77.02959933333334, "is_disabled": 0, "fusion_lon": 0.0, "rental_uris": {"android": "https://dc.lft.to/lastmile_qr_scan", "ios": "https://dc.lft.to/lastmile_qr_scan"}, "type": "electric_scooter"}, {"bike_id": "26a6576c89ce532df8c8abef59480169", "is_reserved": 0, "name": "26a6576c89ce532df8c8abef59480169", "lat": 38.9074315, "fusion_lat": 0.0, "lon": -77.03469666666666, "is_disabled": 0, "fusion_lon": 0.0, "rental_uris": {"android": "https://dc.lft.to/lastmile_qr_scan", "ios": "https://dc.lft.to/lastmile_qr_scan"}, "type": "electric_scooter"}, {"bike_id": "00015c8e04ef0eda9d255c71fb007852", "is_reserved": 0, "name": "00015c8e04ef0eda9d255c71fb007852", "lat": 38.919308666666666, "fusion_lat": 0.0, "lon": -77.01844183333333, "is_disabled": 0, "fusion_lon": 0.0, "rental_uris": {"android": "https://dc.lft.to/lastmile_qr_scan", "ios": "https://dc.lft.to/lastmile_qr_scan"}, "type": "electric_scooter"}, {"bike_id": "16e2fadf349193ced9d145d5aed47d2e", "is_reserved": 0, "name": "16e2fadf349193ced9d145d5aed47d2e", "lat": 38.911085166666666, "fusion_lat": 0.0, "lon": -77.03832816666667, "is_disabled": 0, "fusion_lon": 0.0, "rental_uris": {"android": "https://dc.lft.to/lastmile_qr_scan", "ios": "https://dc.lft.to/lastmile_qr_scan"}, "type": "electric_scooter"}, {"bike_id": "003634502223f4ace00955c3f49ce383", "is_reserved": 0, "name": "003634502223f4ace00955c3f49ce383", "lat": 38.900531666666666, "fusion_lat": 0.0, "lon": -77.00061866666667, "is_disabled": 0, "fusion_lon": 0.0, "rental_uris": {"android": "https://dc.lft.to/lastmile_qr_scan", "ios": "https://dc.lft.to/lastmile_qr_scan"}, "type": "electric_scooter"}, {"bike_id": "37e4efd5861641c179b1a420db0b43d5", "is_reserved": 0, "name": "37e4efd5861641c179b1a420db0b43d5", "lat": 38.91695466666667, "fusion_lat": 0.0, "lon": -77.03120633333333, "is_disabled": 0, "fusion_lon": 0.0, "rental_uris": {"android": "https://dc.lft.to/lastmile_qr_scan", "ios": "https://dc.lft.to/lastmile_qr_scan"}, "type": "electric_scooter"}, {"bike_id": "043a87f96eae4cae1ef5fe8d6bca9232", "is_reserved": 0, "name": "043a87f96eae4cae1ef5fe8d6bca9232", "lat": 38.895801666666664, "fusion_lat": 0.0, "lon": -76.9832285, "is_disabled": 0, "fusion_lon": 0.0, "rental_uris": {"android": "https://dc.lft.to/lastmile_qr_scan", "ios": "https://dc.lft.to/lastmile_qr_scan"}, "type": "electric_scooter"}, {"bike_id": "c32072eb12d685c8b2edac4aa4635430", "is_reserved": 0, "name": "c32072eb12d685c8b2edac4aa4635430", "lat": 38.896007166666664, "fusion_lat": 0.0, "lon": -77.023335, "is_disabled": 0, "fusion_lon": 0.0, "rental_uris": {"android": "https://dc.lft.to/lastmile_qr_scan", "ios": "https://dc.lft.to/lastmile_qr_scan"}, "type": "electric_scooter"}, {"bike_id": "bc16ff934c3f48327263a1acc6002483", "is_reserved": 0, "name": "bc16ff934c3f48327263a1acc6002483", "lat": 38.92101133333333, "fusion_lat": 0.0, "lon": -77.0419135, "is_disabled": 0, "fusion_lon": 0.0, "rental_uris": {"android": "https://dc.lft.to/lastmile_qr_scan", "ios": "https://dc.lft.to/lastmile_qr_scan"}, "type": "electric_scooter"}, {"bike_id": "564b08890ac1cfc82b2d34eeb857c686", "is_reserved": 0, "name": "564b08890ac1cfc82b2d34eeb857c686", "lat": 38.90215233333333, "fusion_lat": 0.0, "lon": -77.02365516666667, "is_disabled": 0, "fusion_lon": 0.0, "rental_uris": {"android": "https://dc.lft.to/lastmile_qr_scan", "ios": "https://dc.lft.to/lastmile_qr_scan"}, "type": "electric_scooter"}, {"bike_id": "4cfa747abc81bcd55e505105f60bc641", "is_reserved": 0, "name": "4cfa747abc81bcd55e505105f60bc641", "lat": 38.87950283333333, "fusion_lat": 0.0, "lon": -77.00623133333333, "is_disabled": 0, "fusion_lon": 0.0, "rental_uris": {"android": "https://dc.lft.to/lastmile_qr_scan", "ios": "https://dc.lft.to/lastmile_qr_scan"}, "type": "electric_scooter"}, {"bike_id": "3bbb7c0268080ff14975c5c86042fb33", "is_reserved": 0, "name": "3bbb7c0268080ff14975c5c86042fb33", "lat": 38.900278, "fusion_lat": 0.0, "lon": -77.03496083333333, "is_disabled": 0, "fusion_lon": 0.0, "rental_uris": {"android": "https://dc.lft.to/lastmile_qr_scan", "ios": "https://dc.lft.to/lastmile_qr_scan"}, "type": "electric_scooter"}, {"bike_id": "962fb51661ea63de041034bf1b306153", "is_reserved": 0, "name": "962fb51661ea63de041034bf1b306153", "lat": 38.868269, "fusion_lat": 0.0, "lon": -77.01145433333333, "is_disabled": 0, "fusion_lon": 0.0, "rental_uris": {"android": "https://dc.lft.to/lastmile_qr_scan", "ios": "https://dc.lft.to/lastmile_qr_scan"}, "type": "electric_scooter"}, {"bike_id": "6cb7ee0929eabb81e3ab211ca7da7945", "is_reserved": 0, "name": "6cb7ee0929eabb81e3ab211ca7da7945", "lat": 38.932907, "fusion_lat": 0.0, "lon": -77.02851583333333, "is_disabled": 0, "fusion_lon": 0.0, "rental_uris": {"android": "https://dc.lft.to/lastmile_qr_scan", "ios": "https://dc.lft.to/lastmile_qr_scan"}, "type": "electric_scooter"}, {"bike_id": "05c96aea904c2a00b71756d6107c2b51", "is_reserved": 0, "name": "05c96aea904c2a00b71756d6107c2b51", "lat": 38.898218166666666, "fusion_lat": 0.0, "lon": -77.02787183333334, "is_disabled": 0, "fusion_lon": 0.0, "rental_uris": {"android": "https://dc.lft.to/lastmile_qr_scan", "ios": "https://dc.lft.to/lastmile_qr_scan"}, "type": "electric_scooter"}, {"bike_id": "554aed1c274ec39eebc59e158aa4489e", "is_reserved": 0, "name": "554aed1c274ec39eebc59e158aa4489e", "lat": 38.9020275, "fusion_lat": 0.0, "lon": -77.023457, "is_disabled": 0, "fusion_lon": 0.0, "rental_uris": {"android": "https://dc.lft.to/lastmile_qr_scan", "ios": "https://dc.lft.to/lastmile_qr_scan"}, "type": "electric_scooter"}, {"bike_id": "61941db975c712c90a11fb5e94b8c869", "is_reserved": 0, "name": "61941db975c712c90a11fb5e94b8c869", "lat": 38.92833133333333, "fusion_lat": 0.0, "lon": -76.9958955, "is_disabled": 0, "fusion_lon": 0.0, "rental_uris": {"android": "https://dc.lft.to/lastmile_qr_scan", "ios": "https://dc.lft.to/lastmile_qr_scan"}, "type": "electric_scooter"}, {"bike_id": "9fcffaeddaacad19575732d14d84c67b", "is_reserved": 0, "name": "9fcffaeddaacad19575732d14d84c67b", "lat": 38.9039175, "fusion_lat": 0.0, "lon": -77.06008833333334, "is_disabled": 0, "fusion_lon": 0.0, "rental_uris": {"android": "https://dc.lft.to/lastmile_qr_scan", "ios": "https://dc.lft.to/lastmile_qr_scan"}, "type": "electric_scooter"}, {"bike_id": "01b166feb3876f58c61009d7253fc774", "is_reserved": 0, "name": "01b166feb3876f58c61009d7253fc774", "lat": 38.9170055, "fusion_lat": 0.0, "lon": -77.04081816666667, "is_disabled": 0, "fusion_lon": 0.0, "rental_uris": {"android": "https://dc.lft.to/lastmile_qr_scan", "ios": "https://dc.lft.to/lastmile_qr_scan"}, "type": "electric_scooter"}, {"bike_id": "a6cce52a47dbab6a3024d5bc7e03f04b", "is_reserved": 0, "name": "a6cce52a47dbab6a3024d5bc7e03f04b", "lat": 38.88742666666667, "fusion_lat": 0.0, "lon": -77.0213035, "is_disabled": 0, "fusion_lon": 0.0, "rental_uris": {"android": "https://dc.lft.to/lastmile_qr_scan", "ios": "https://dc.lft.to/lastmile_qr_scan"}, "type": "electric_scooter"}, {"bike_id": "c30f854c76949a6dc67307b903e49280", "is_reserved": 0, "name": "c30f854c76949a6dc67307b903e49280", "lat": 38.9390975, "fusion_lat": 0.0, "lon": -77.02474183333334, "is_disabled": 0, "fusion_lon": 0.0, "rental_uris": {"android": "https://dc.lft.to/lastmile_qr_scan", "ios": "https://dc.lft.to/lastmile_qr_scan"}, "type": "electric_scooter"}, {"bike_id": "54f66985764a942039829c92197d65b9", "is_reserved": 0, "name": "54f66985764a942039829c92197d65b9", "lat": 38.90273283333333, "fusion_lat": 0.0, "lon": -76.92901066666667, "is_disabled": 0, "fusion_lon": 0.0, "rental_uris": {"android": "https://dc.lft.to/lastmile_qr_scan", "ios": "https://dc.lft.to/lastmile_qr_scan"}, "type": "electric_scooter"}, {"bike_id": "ccdfc9db2bc4f87a2a1931467da63557", "is_reserved": 0, "name": "ccdfc9db2bc4f87a2a1931467da63557", "lat": 38.9171345, "fusion_lat": 0.0, "lon": -76.97647183333333, "is_disabled": 0, "fusion_lon": 0.0, "rental_uris": {"android": "https://dc.lft.to/lastmile_qr_scan", "ios": "https://dc.lft.to/lastmile_qr_scan"}, "type": "electric_scooter"}, {"bike_id": "31775f93082bbe2bc3e4d6c85dd52713", "is_reserved": 0, "name": "31775f93082bbe2bc3e4d6c85dd52713", "lat": 38.900447, "fusion_lat": 0.0, "lon": -77.00205416666667, "is_disabled": 0, "fusion_lon": 0.0, "rental_uris": {"android": "https://dc.lft.to/lastmile_qr_scan", "ios": "https://dc.lft.to/lastmile_qr_scan"}, "type": "electric_scooter"}, {"bike_id": "f00eb87e5af6b70dd5ad6b9fccae08a6", "is_reserved": 0, "name": "f00eb87e5af6b70dd5ad6b9fccae08a6", "lat": 38.9125485, "fusion_lat": 0.0, "lon": -77.0443715, "is_disabled": 0, "fusion_lon": 0.0, "rental_uris": {"android": "https://dc.lft.to/lastmile_qr_scan", "ios": "https://dc.lft.to/lastmile_qr_scan"}, "type": "electric_scooter"}, {"bike_id": "734c5a9072f15dfda4fe68b3d0180f66", "is_reserved": 0, "name": "734c5a9072f15dfda4fe68b3d0180f66", "lat": 38.901881, "fusion_lat": 0.0, "lon": -77.016263, "is_disabled": 0, "fusion_lon": 0.0, "rental_uris": {"android": "https://dc.lft.to/lastmile_qr_scan", "ios": "https://dc.lft.to/lastmile_qr_scan"}, "type": "electric_scooter"}, {"bike_id": "1e1eb12dc85232a8720e2b2b73e9265a", "is_reserved": 0, "name": "1e1eb12dc85232a8720e2b2b73e9265a", "lat": 38.90958166666667, "fusion_lat": 0.0, "lon": -77.04649716666667, "is_disabled": 0, "fusion_lon": 0.0, "rental_uris": {"android": "https://dc.lft.to/lastmile_qr_scan", "ios": "https://dc.lft.to/lastmile_qr_scan"}, "type": "electric_scooter"}, {"bike_id": "20787e4d677738acdf7f10a434bd95b5", "is_reserved": 0, "name": "20787e4d677738acdf7f10a434bd95b5", "lat": 38.91045716666667, "fusion_lat": 0.0, "lon": -77.03408383333333, "is_disabled": 0, "fusion_lon": 0.0, "rental_uris": {"android": "https://dc.lft.to/lastmile_qr_scan", "ios": "https://dc.lft.to/lastmile_qr_scan"}, "type": "electric_scooter"}, {"bike_id": "a81596b18b85d272bae27f82cee5e781", "is_reserved": 0, "name": "a81596b18b85d272bae27f82cee5e781", "lat": 38.90737433333334, "fusion_lat": 0.0, "lon": -77.02954216666667, "is_disabled": 0, "fusion_lon": 0.0, "rental_uris": {"android": "https://dc.lft.to/lastmile_qr_scan", "ios": "https://dc.lft.to/lastmile_qr_scan"}, "type": "electric_scooter"}, {"bike_id": "1b1273aa6aa77d6a730fae0163b13f41", "is_reserved": 0, "name": "1b1273aa6aa77d6a730fae0163b13f41", "lat": 38.9305645, "fusion_lat": 0.0, "lon": -77.0186215, "is_disabled": 0, "fusion_lon": 0.0, "rental_uris": {"android": "https://dc.lft.to/lastmile_qr_scan", "ios": "https://dc.lft.to/lastmile_qr_scan"}, "type": "electric_scooter"}, {"bike_id": "a4838d439392d285870b2b000b2d825d", "is_reserved": 0, "name": "a4838d439392d285870b2b000b2d825d", "lat": 38.900248500000004, "fusion_lat": 0.0, "lon": -77.04853516666667, "is_disabled": 0, "fusion_lon": 0.0, "rental_uris": {"android": "https://dc.lft.to/lastmile_qr_scan", "ios": "https://dc.lft.to/lastmile_qr_scan"}, "type": "electric_scooter"}, {"bike_id": "0dc10ba9ed9739c41975202e7e77ffa0", "is_reserved": 0, "name": "0dc10ba9ed9739c41975202e7e77ffa0", "lat": 38.92388233333333, "fusion_lat": 0.0, "lon": -77.02163016666667, "is_disabled": 0, "fusion_lon": 0.0, "rental_uris": {"android": "https://dc.lft.to/lastmile_qr_scan", "ios": "https://dc.lft.to/lastmile_qr_scan"}, "type": "electric_scooter"}, {"bike_id": "aee07d39135c66b25ecea4aa7c7d9ed4", "is_reserved": 0, "name": "aee07d39135c66b25ecea4aa7c7d9ed4", "lat": 38.91625916666667, "fusion_lat": 0.0, "lon": -77.03133366666667, "is_disabled": 0, "fusion_lon": 0.0, "rental_uris": {"android": "https://dc.lft.to/lastmile_qr_scan", "ios": "https://dc.lft.to/lastmile_qr_scan"}, "type": "electric_scooter"}, {"bike_id": "f1b74d6f447c633b1944acf33cb57f92", "is_reserved": 0, "name": "f1b74d6f447c633b1944acf33cb57f92", "lat": 38.90884333333333, "fusion_lat": 0.0, "lon": -77.02971783333334, "is_disabled": 0, "fusion_lon": 0.0, "rental_uris": {"android": "https://dc.lft.to/lastmile_qr_scan", "ios": "https://dc.lft.to/lastmile_qr_scan"}, "type": "electric_scooter"}, {"bike_id": "ae5d227312b2e14aa5c94d8296684cde", "is_reserved": 0, "name": "ae5d227312b2e14aa5c94d8296684cde", "lat": 38.91406383333333, "fusion_lat": 0.0, "lon": -77.031637, "is_disabled": 0, "fusion_lon": 0.0, "rental_uris": {"android": "https://dc.lft.to/lastmile_qr_scan", "ios": "https://dc.lft.to/lastmile_qr_scan"}, "type": "electric_scooter"}, {"bike_id": "1aa67186c9fb584b3c9be3e6e3900530", "is_reserved": 0, "name": "1aa67186c9fb584b3c9be3e6e3900530", "lat": 38.916070500000004, "fusion_lat": 0.0, "lon": -77.04375416666667, "is_disabled": 0, "fusion_lon": 0.0, "rental_uris": {"android": "https://dc.lft.to/lastmile_qr_scan", "ios": "https://dc.lft.to/lastmile_qr_scan"}, "type": "electric_scooter"}, {"bike_id": "6a146680dac216691e57af62b02224ce", "is_reserved": 0, "name": "6a146680dac216691e57af62b02224ce", "lat": 38.90720533333333, "fusion_lat": 0.0, "lon": -77.02984216666667, "is_disabled": 0, "fusion_lon": 0.0, "rental_uris": {"android": "https://dc.lft.to/lastmile_qr_scan", "ios": "https://dc.lft.to/lastmile_qr_scan"}, "type": "electric_scooter"}, {"bike_id": "8e1e3a82dcf6ea5d0cbe87f1c90f6389", "is_reserved": 0, "name": "8e1e3a82dcf6ea5d0cbe87f1c90f6389", "lat": 38.916915333333336, "fusion_lat": 0.0, "lon": -77.02640533333333, "is_disabled": 0, "fusion_lon": 0.0, "rental_uris": {"android": "https://dc.lft.to/lastmile_qr_scan", "ios": "https://dc.lft.to/lastmile_qr_scan"}, "type": "electric_scooter"}, {"bike_id": "d38f0718ef8b6afee9c4ea3cadacabb9", "is_reserved": 0, "name": "d38f0718ef8b6afee9c4ea3cadacabb9", "lat": 38.916491, "fusion_lat": 0.0, "lon": -77.022789, "is_disabled": 0, "fusion_lon": 0.0, "rental_uris": {"android": "https://dc.lft.to/lastmile_qr_scan", "ios": "https://dc.lft.to/lastmile_qr_scan"}, "type": "electric_scooter"}, {"bike_id": "5786a4fc457e122abe603c3874f09ece", "is_reserved": 0, "name": "5786a4fc457e122abe603c3874f09ece", "lat": 38.9184165, "fusion_lat": 0.0, "lon": -76.96558033333334, "is_disabled": 0, "fusion_lon": 0.0, "rental_uris": {"android": "https://dc.lft.to/lastmile_qr_scan", "ios": "https://dc.lft.to/lastmile_qr_scan"}, "type": "electric_scooter"}, {"bike_id": "a38b7ac748906de151b5e00c8a236d4d", "is_reserved": 0, "name": "a38b7ac748906de151b5e00c8a236d4d", "lat": 38.884577, "fusion_lat": 0.0, "lon": -76.952378, "is_disabled": 0, "fusion_lon": 0.0, "rental_uris": {"android": "https://dc.lft.to/lastmile_qr_scan", "ios": "https://dc.lft.to/lastmile_qr_scan"}, "type": "electric_bike"}, {"bike_id": "c593a3d1f94726fcc3b4d7efed33bc04", "is_reserved": 0, "name": "c593a3d1f94726fcc3b4d7efed33bc04", "lat": 38.927971666666664, "fusion_lat": 0.0, "lon": -77.02294116666667, "is_disabled": 0, "fusion_lon": 0.0, "rental_uris": {"android": "https://dc.lft.to/lastmile_qr_scan", "ios": "https://dc.lft.to/lastmile_qr_scan"}, "type": "electric_scooter"}, {"bike_id": "c090b75c4f699fdbb93eaf2387b3b38b", "is_reserved": 0, "name": "c090b75c4f699fdbb93eaf2387b3b38b", "lat": 38.924771166666666, "fusion_lat": 0.0, "lon": -77.03534183333333, "is_disabled": 0, "fusion_lon": 0.0, "rental_uris": {"android": "https://dc.lft.to/lastmile_qr_scan", "ios": "https://dc.lft.to/lastmile_qr_scan"}, "type": "electric_scooter"}, {"bike_id": "b861cd55f81c8e3ac6a6b2603f5747d0", "is_reserved": 0, "name": "b861cd55f81c8e3ac6a6b2603f5747d0", "lat": 38.99389083333333, "fusion_lat": 0.0, "lon": -76.9288415, "is_disabled": 0, "fusion_lon": 0.0, "rental_uris": {"android": "https://dc.lft.to/lastmile_qr_scan", "ios": "https://dc.lft.to/lastmile_qr_scan"}, "type": "electric_bike"}, {"bike_id": "ff7822f553a57e206a80cddfd8227dc2", "is_reserved": 0, "name": "ff7822f553a57e206a80cddfd8227dc2", "lat": 38.924664, "fusion_lat": 0.0, "lon": -77.05233666666666, "is_disabled": 0, "fusion_lon": 0.0, "rental_uris": {"android": "https://dc.lft.to/lastmile_qr_scan", "ios": "https://dc.lft.to/lastmile_qr_scan"}, "type": "electric_scooter"}, {"bike_id": "7854c3d81b3b998fc3948fc9885b94c2", "is_reserved": 0, "name": "7854c3d81b3b998fc3948fc9885b94c2", "lat": 38.917254666666665, "fusion_lat": 0.0, "lon": -77.0191025, "is_disabled": 0, "fusion_lon": 0.0, "rental_uris": {"android": "https://dc.lft.to/lastmile_qr_scan", "ios": "https://dc.lft.to/lastmile_qr_scan"}, "type": "electric_scooter"}, {"bike_id": "8f4b45be5245612ce2275fe6a6c246ed", "is_reserved": 0, "name": "8f4b45be5245612ce2275fe6a6c246ed", "lat": 38.866664166666666, "fusion_lat": 0.0, "lon": -76.9890215, "is_disabled": 0, "fusion_lon": 0.0, "rental_uris": {"android": "https://dc.lft.to/lastmile_qr_scan", "ios": "https://dc.lft.to/lastmile_qr_scan"}, "type": "electric_scooter"}, {"bike_id": "8accda6e40c42d8159f74b07ff536115", "is_reserved": 0, "name": "8accda6e40c42d8159f74b07ff536115", "lat": 38.86979566666667, "fusion_lat": 0.0, "lon": -77.01372883333333, "is_disabled": 0, "fusion_lon": 0.0, "rental_uris": {"android": "https://dc.lft.to/lastmile_qr_scan", "ios": "https://dc.lft.to/lastmile_qr_scan"}, "type": "electric_scooter"}, {"bike_id": "69be56078c10af5d454cf39e65c098b3", "is_reserved": 0, "name": "69be56078c10af5d454cf39e65c098b3", "lat": 38.88731333333333, "fusion_lat": 0.0, "lon": -77.03173916666667, "is_disabled": 0, "fusion_lon": 0.0, "rental_uris": {"android": "https://dc.lft.to/lastmile_qr_scan", "ios": "https://dc.lft.to/lastmile_qr_scan"}, "type": "electric_scooter"}, {"bike_id": "75d8540175879a55837fb0d9777ae5a3", "is_reserved": 0, "name": "75d8540175879a55837fb0d9777ae5a3", "lat": 38.910454, "fusion_lat": 0.0, "lon": -77.03844066666667, "is_disabled": 0, "fusion_lon": 0.0, "rental_uris": {"android": "https://dc.lft.to/lastmile_qr_scan", "ios": "https://dc.lft.to/lastmile_qr_scan"}, "type": "electric_scooter"}, {"bike_id": "11512f97dc86dc546318bedce9178804", "is_reserved": 0, "name": "11512f97dc86dc546318bedce9178804", "lat": 38.909518166666665, "fusion_lat": 0.0, "lon": -77.02710916666666, "is_disabled": 0, "fusion_lon": 0.0, "rental_uris": {"android": "https://dc.lft.to/lastmile_qr_scan", "ios": "https://dc.lft.to/lastmile_qr_scan"}, "type": "electric_scooter"}, {"bike_id": "4953b731efc6332b1b9f56c034cbb0f7", "is_reserved": 0, "name": "4953b731efc6332b1b9f56c034cbb0f7", "lat": 38.912601, "fusion_lat": 0.0, "lon": -77.03572416666667, "is_disabled": 0, "fusion_lon": 0.0, "rental_uris": {"android": "https://dc.lft.to/lastmile_qr_scan", "ios": "https://dc.lft.to/lastmile_qr_scan"}, "type": "electric_scooter"}, {"bike_id": "3768126021b48736ab8c6ea7745e43c6", "is_reserved": 0, "name": "3768126021b48736ab8c6ea7745e43c6", "lat": 38.9280465, "fusion_lat": 0.0, "lon": -77.0141245, "is_disabled": 0, "fusion_lon": 0.0, "rental_uris": {"android": "https://dc.lft.to/lastmile_qr_scan", "ios": "https://dc.lft.to/lastmile_qr_scan"}, "type": "electric_scooter"}, {"bike_id": "30d72ee59c8a8490c81dc43cdfe22c61", "is_reserved": 0, "name": "30d72ee59c8a8490c81dc43cdfe22c61", "lat": 38.87495666666667, "fusion_lat": 0.0, "lon": -77.0028245, "is_disabled": 0, "fusion_lon": 0.0, "rental_uris": {"android": "https://dc.lft.to/lastmile_qr_scan", "ios": "https://dc.lft.to/lastmile_qr_scan"}, "type": "electric_scooter"}, {"bike_id": "d530cb208a65f1ba6c13783ea5a0b01e", "is_reserved": 0, "name": "d530cb208a65f1ba6c13783ea5a0b01e", "lat": 38.87663116666667, "fusion_lat": 0.0, "lon": -77.0008125, "is_disabled": 0, "fusion_lon": 0.0, "rental_uris": {"android": "https://dc.lft.to/lastmile_qr_scan", "ios": "https://dc.lft.to/lastmile_qr_scan"}, "type": "electric_scooter"}, {"bike_id": "5d4a4b5c92726f74da942b46dc8b0cce", "is_reserved": 0, "name": "5d4a4b5c92726f74da942b46dc8b0cce", "lat": 38.926799333333335, "fusion_lat": 0.0, "lon": -77.03145483333333, "is_disabled": 0, "fusion_lon": 0.0, "rental_uris": {"android": "https://dc.lft.to/lastmile_qr_scan", "ios": "https://dc.lft.to/lastmile_qr_scan"}, "type": "electric_scooter"}, {"bike_id": "5df1596aae73cd6bf69e462c25a566c6", "is_reserved": 0, "name": "5df1596aae73cd6bf69e462c25a566c6", "lat": 38.92226, "fusion_lat": 0.0, "lon": -77.04554366666666, "is_disabled": 0, "fusion_lon": 0.0, "rental_uris": {"android": "https://dc.lft.to/lastmile_qr_scan", "ios": "https://dc.lft.to/lastmile_qr_scan"}, "type": "electric_scooter"}, {"bike_id": "57365bde9f4b5a505b9a35b13e69c69a", "is_reserved": 0, "name": "57365bde9f4b5a505b9a35b13e69c69a", "lat": 38.953978, "fusion_lat": 0.0, "lon": -77.02790383333334, "is_disabled": 0, "fusion_lon": 0.0, "rental_uris": {"android": "https://dc.lft.to/lastmile_qr_scan", "ios": "https://dc.lft.to/lastmile_qr_scan"}, "type": "electric_scooter"}, {"bike_id": "a046ce8bb961a854e5b018f56e4b65ea", "is_reserved": 0, "name": "a046ce8bb961a854e5b018f56e4b65ea", "lat": 38.90366916666667, "fusion_lat": 0.0, "lon": -77.0502535, "is_disabled": 0, "fusion_lon": 0.0, "rental_uris": {"android": "https://dc.lft.to/lastmile_qr_scan", "ios": "https://dc.lft.to/lastmile_qr_scan"}, "type": "electric_scooter"}, {"bike_id": "c2aaf3b8ef68a520f22de3e58c2ec396", "is_reserved": 0, "name": "c2aaf3b8ef68a520f22de3e58c2ec396", "lat": 38.899433, "fusion_lat": 0.0, "lon": -77.01970483333334, "is_disabled": 0, "fusion_lon": 0.0, "rental_uris": {"android": "https://dc.lft.to/lastmile_qr_scan", "ios": "https://dc.lft.to/lastmile_qr_scan"}, "type": "electric_scooter"}, {"bike_id": "82f07e6601777dd6c7b22ba5e3291249", "is_reserved": 0, "name": "82f07e6601777dd6c7b22ba5e3291249", "lat": 38.924853666666664, "fusion_lat": 0.0, "lon": -77.02592966666667, "is_disabled": 0, "fusion_lon": 0.0, "rental_uris": {"android": "https://dc.lft.to/lastmile_qr_scan", "ios": "https://dc.lft.to/lastmile_qr_scan"}, "type": "electric_scooter"}, {"bike_id": "2f4004e8537fe1428d855a90f0563c4d", "is_reserved": 0, "name": "2f4004e8537fe1428d855a90f0563c4d", "lat": 38.90361733333334, "fusion_lat": 0.0, "lon": -77.00987933333333, "is_disabled": 0, "fusion_lon": 0.0, "rental_uris": {"android": "https://dc.lft.to/lastmile_qr_scan", "ios": "https://dc.lft.to/lastmile_qr_scan"}, "type": "electric_scooter"}, {"bike_id": "a6c3fd51e04466fb60991f26ec588d5b", "is_reserved": 0, "name": "a6c3fd51e04466fb60991f26ec588d5b", "lat": 38.924774666666664, "fusion_lat": 0.0, "lon": -77.02656733333333, "is_disabled": 0, "fusion_lon": 0.0, "rental_uris": {"android": "https://dc.lft.to/lastmile_qr_scan", "ios": "https://dc.lft.to/lastmile_qr_scan"}, "type": "electric_scooter"}, {"bike_id": "a6058c51823263922fa54b7ae1f97835", "is_reserved": 0, "name": "a6058c51823263922fa54b7ae1f97835", "lat": 38.838293666666665, "fusion_lat": 0.0, "lon": -76.99678533333334, "is_disabled": 0, "fusion_lon": 0.0, "rental_uris": {"android": "https://dc.lft.to/lastmile_qr_scan", "ios": "https://dc.lft.to/lastmile_qr_scan"}, "type": "electric_scooter"}, {"bike_id": "d2b023b19bd333f65a5979cd3af314b3", "is_reserved": 0, "name": "d2b023b19bd333f65a5979cd3af314b3", "lat": 38.871499166666666, "fusion_lat": 0.0, "lon": -77.01069166666667, "is_disabled": 0, "fusion_lon": 0.0, "rental_uris": {"android": "https://dc.lft.to/lastmile_qr_scan", "ios": "https://dc.lft.to/lastmile_qr_scan"}, "type": "electric_scooter"}, {"bike_id": "e0f0a126ab89f157e38d2bd8eb4ec1a6", "is_reserved": 0, "name": "e0f0a126ab89f157e38d2bd8eb4ec1a6", "lat": 38.902502166666665, "fusion_lat": 0.0, "lon": -77.04611533333333, "is_disabled": 0, "fusion_lon": 0.0, "rental_uris": {"android": "https://dc.lft.to/lastmile_qr_scan", "ios": "https://dc.lft.to/lastmile_qr_scan"}, "type": "electric_scooter"}, {"bike_id": "443ccfec5046691eeb204e8ab8bdf459", "is_reserved": 0, "name": "443ccfec5046691eeb204e8ab8bdf459", "lat": 38.8923465, "fusion_lat": 0.0, "lon": -77.0319935, "is_disabled": 0, "fusion_lon": 0.0, "rental_uris": {"android": "https://dc.lft.to/lastmile_qr_scan", "ios": "https://dc.lft.to/lastmile_qr_scan"}, "type": "electric_scooter"}, {"bike_id": "53c25dbd30a7617420db3f101fea3ca1", "is_reserved": 0, "name": "53c25dbd30a7617420db3f101fea3ca1", "lat": 38.892215, "fusion_lat": 0.0, "lon": -77.032223, "is_disabled": 0, "fusion_lon": 0.0, "rental_uris": {"android": "https://dc.lft.to/lastmile_qr_scan", "ios": "https://dc.lft.to/lastmile_qr_scan"}, "type": "electric_scooter"}, {"bike_id": "fbdce4743d83fa86298fa7988a8ca854", "is_reserved": 0, "name": "fbdce4743d83fa86298fa7988a8ca854", "lat": 38.878703333333334, "fusion_lat": 0.0, "lon": -76.9994735, "is_disabled": 0, "fusion_lon": 0.0, "rental_uris": {"android": "https://dc.lft.to/lastmile_qr_scan", "ios": "https://dc.lft.to/lastmile_qr_scan"}, "type": "electric_scooter"}, {"bike_id": "0aed574b57ef28fd0bc41fa18e9e3c23", "is_reserved": 0, "name": "0aed574b57ef28fd0bc41fa18e9e3c23", "lat": 38.922420333333335, "fusion_lat": 0.0, "lon": -77.03519316666667, "is_disabled": 0, "fusion_lon": 0.0, "rental_uris": {"android": "https://dc.lft.to/lastmile_qr_scan", "ios": "https://dc.lft.to/lastmile_qr_scan"}, "type": "electric_scooter"}, {"bike_id": "2f689788cd584dff212f7ae0f40849a7", "is_reserved": 0, "name": "2f689788cd584dff212f7ae0f40849a7", "lat": 38.9348345, "fusion_lat": 0.0, "lon": -77.07273933333333, "is_disabled": 0, "fusion_lon": 0.0, "rental_uris": {"android": "https://dc.lft.to/lastmile_qr_scan", "ios": "https://dc.lft.to/lastmile_qr_scan"}, "type": "electric_scooter"}, {"bike_id": "0071c34a5c96e3b95e1be6821e231f21", "is_reserved": 0, "name": "0071c34a5c96e3b95e1be6821e231f21", "lat": 38.908224, "fusion_lat": 0.0, "lon": -77.02181083333333, "is_disabled": 0, "fusion_lon": 0.0, "rental_uris": {"android": "https://dc.lft.to/lastmile_qr_scan", "ios": "https://dc.lft.to/lastmile_qr_scan"}, "type": "electric_scooter"}, {"bike_id": "4d437bc9b59e33f69bf27fde1d31f761", "is_reserved": 0, "name": "4d437bc9b59e33f69bf27fde1d31f761", "lat": 38.920349333333334, "fusion_lat": 0.0, "lon": -77.025862, "is_disabled": 0, "fusion_lon": 0.0, "rental_uris": {"android": "https://dc.lft.to/lastmile_qr_scan", "ios": "https://dc.lft.to/lastmile_qr_scan"}, "type": "electric_scooter"}, {"bike_id": "6665ef892e466c92c6c8b46339e2a3ca", "is_reserved": 0, "name": "6665ef892e466c92c6c8b46339e2a3ca", "lat": 38.912212, "fusion_lat": 0.0, "lon": -77.03195483333333, "is_disabled": 0, "fusion_lon": 0.0, "rental_uris": {"android": "https://dc.lft.to/lastmile_qr_scan", "ios": "https://dc.lft.to/lastmile_qr_scan"}, "type": "electric_scooter"}, {"bike_id": "eb109724fbc9e4f038fb8bab72317f0f", "is_reserved": 0, "name": "eb109724fbc9e4f038fb8bab72317f0f", "lat": 38.923619, "fusion_lat": 0.0, "lon": -77.02962533333333, "is_disabled": 0, "fusion_lon": 0.0, "rental_uris": {"android": "https://dc.lft.to/lastmile_qr_scan", "ios": "https://dc.lft.to/lastmile_qr_scan"}, "type": "electric_scooter"}, {"bike_id": "05999149978c3863ad4a37fdffe171d0", "is_reserved": 0, "name": "05999149978c3863ad4a37fdffe171d0", "lat": 38.92155966666667, "fusion_lat": 0.0, "lon": -77.03516366666666, "is_disabled": 0, "fusion_lon": 0.0, "rental_uris": {"android": "https://dc.lft.to/lastmile_qr_scan", "ios": "https://dc.lft.to/lastmile_qr_scan"}, "type": "electric_scooter"}, {"bike_id": "59fd48a5ee868c965f1f25d1d1aee94a", "is_reserved": 0, "name": "59fd48a5ee868c965f1f25d1d1aee94a", "lat": 38.904532333333336, "fusion_lat": 0.0, "lon": -77.028223, "is_disabled": 0, "fusion_lon": 0.0, "rental_uris": {"android": "https://dc.lft.to/lastmile_qr_scan", "ios": "https://dc.lft.to/lastmile_qr_scan"}, "type": "electric_scooter"}, {"bike_id": "2a67f2689c28e3938d020407227d44ec", "is_reserved": 0, "name": "2a67f2689c28e3938d020407227d44ec", "lat": 38.9266845, "fusion_lat": 0.0, "lon": -77.0302265, "is_disabled": 0, "fusion_lon": 0.0, "rental_uris": {"android": "https://dc.lft.to/lastmile_qr_scan", "ios": "https://dc.lft.to/lastmile_qr_scan"}, "type": "electric_scooter"}, {"bike_id": "09abc4006371bf5deb21b94f57090d6d", "is_reserved": 0, "name": "09abc4006371bf5deb21b94f57090d6d", "lat": 38.917056333333335, "fusion_lat": 0.0, "lon": -77.04275283333334, "is_disabled": 0, "fusion_lon": 0.0, "rental_uris": {"android": "https://dc.lft.to/lastmile_qr_scan", "ios": "https://dc.lft.to/lastmile_qr_scan"}, "type": "electric_scooter"}, {"bike_id": "5ef152cea29abc705faf7fc1c8794161", "is_reserved": 0, "name": "5ef152cea29abc705faf7fc1c8794161", "lat": 38.930124666666664, "fusion_lat": 0.0, "lon": -77.05521866666666, "is_disabled": 0, "fusion_lon": 0.0, "rental_uris": {"android": "https://dc.lft.to/lastmile_qr_scan", "ios": "https://dc.lft.to/lastmile_qr_scan"}, "type": "electric_scooter"}, {"bike_id": "8cdabfa62b27d12af4a0e1dae2ae19d9", "is_reserved": 0, "name": "8cdabfa62b27d12af4a0e1dae2ae19d9", "lat": 38.86933116666667, "fusion_lat": 0.0, "lon": -77.01368133333334, "is_disabled": 0, "fusion_lon": 0.0, "rental_uris": {"android": "https://dc.lft.to/lastmile_qr_scan", "ios": "https://dc.lft.to/lastmile_qr_scan"}, "type": "electric_scooter"}, {"bike_id": "4ff18e2c86952c5ec51fcbe7313375c1", "is_reserved": 0, "name": "4ff18e2c86952c5ec51fcbe7313375c1", "lat": 38.9593525, "fusion_lat": 0.0, "lon": -76.9283485, "is_disabled": 0, "fusion_lon": 0.0, "rental_uris": {"android": "https://dc.lft.to/lastmile_qr_scan", "ios": "https://dc.lft.to/lastmile_qr_scan"}, "type": "electric_bike"}, {"bike_id": "96ca2e5f42ac493944b53eb506578bc4", "is_reserved": 0, "name": "96ca2e5f42ac493944b53eb506578bc4", "lat": 38.928743, "fusion_lat": 0.0, "lon": -77.03336866666666, "is_disabled": 0, "fusion_lon": 0.0, "rental_uris": {"android": "https://dc.lft.to/lastmile_qr_scan", "ios": "https://dc.lft.to/lastmile_qr_scan"}, "type": "electric_scooter"}, {"bike_id": "e7b5b2a479ac6bf39d443b5868ee524b", "is_reserved": 0, "name": "e7b5b2a479ac6bf39d443b5868ee524b", "lat": 38.895695833333335, "fusion_lat": 0.0, "lon": -76.98318683333333, "is_disabled": 0, "fusion_lon": 0.0, "rental_uris": {"android": "https://dc.lft.to/lastmile_qr_scan", "ios": "https://dc.lft.to/lastmile_qr_scan"}, "type": "electric_scooter"}, {"bike_id": "6ede08b9e756bf9cb760a8fa2ab0fdc3", "is_reserved": 0, "name": "6ede08b9e756bf9cb760a8fa2ab0fdc3", "lat": 38.87911183333333, "fusion_lat": 0.0, "lon": -76.99482016666667, "is_disabled": 0, "fusion_lon": 0.0, "rental_uris": {"android": "https://dc.lft.to/lastmile_qr_scan", "ios": "https://dc.lft.to/lastmile_qr_scan"}, "type": "electric_scooter"}, {"bike_id": "278eb0689046d19f1a1ce1e434901ec7", "is_reserved": 0, "name": "278eb0689046d19f1a1ce1e434901ec7", "lat": 38.923399833333335, "fusion_lat": 0.0, "lon": -77.019053, "is_disabled": 0, "fusion_lon": 0.0, "rental_uris": {"android": "https://dc.lft.to/lastmile_qr_scan", "ios": "https://dc.lft.to/lastmile_qr_scan"}, "type": "electric_scooter"}, {"bike_id": "2f8c003834e059913247ecade7181c30", "is_reserved": 0, "name": "2f8c003834e059913247ecade7181c30", "lat": 38.91635483333334, "fusion_lat": 0.0, "lon": -77.04009083333334, "is_disabled": 0, "fusion_lon": 0.0, "rental_uris": {"android": "https://dc.lft.to/lastmile_qr_scan", "ios": "https://dc.lft.to/lastmile_qr_scan"}, "type": "electric_scooter"}, {"bike_id": "25e1045468fd067a71c93d98b722e933", "is_reserved": 0, "name": "25e1045468fd067a71c93d98b722e933", "lat": 38.89841, "fusion_lat": 0.0, "lon": -77.02191083333334, "is_disabled": 0, "fusion_lon": 0.0, "rental_uris": {"android": "https://dc.lft.to/lastmile_qr_scan", "ios": "https://dc.lft.to/lastmile_qr_scan"}, "type": "electric_scooter"}, {"bike_id": "7abbabf5ef2d5897c80e85a156c30e1d", "is_reserved": 0, "name": "7abbabf5ef2d5897c80e85a156c30e1d", "lat": 38.87155833333333, "fusion_lat": 0.0, "lon": -77.13142633333334, "is_disabled": 0, "fusion_lon": 0.0, "rental_uris": {"android": "https://dc.lft.to/lastmile_qr_scan", "ios": "https://dc.lft.to/lastmile_qr_scan"}, "type": "electric_bike"}, {"bike_id": "4286c556173bcd1d93cb49e06d779ad7", "is_reserved": 0, "name": "4286c556173bcd1d93cb49e06d779ad7", "lat": 38.87555866666667, "fusion_lat": 0.0, "lon": -77.00603383333333, "is_disabled": 0, "fusion_lon": 0.0, "rental_uris": {"android": "https://dc.lft.to/lastmile_qr_scan", "ios": "https://dc.lft.to/lastmile_qr_scan"}, "type": "electric_scooter"}, {"bike_id": "a8be201a0bdcf170f128d721d8c36ef9", "is_reserved": 0, "name": "a8be201a0bdcf170f128d721d8c36ef9", "lat": 38.91108233333333, "fusion_lat": 0.0, "lon": -77.0454315, "is_disabled": 0, "fusion_lon": 0.0, "rental_uris": {"android": "https://dc.lft.to/lastmile_qr_scan", "ios": "https://dc.lft.to/lastmile_qr_scan"}, "type": "electric_scooter"}, {"bike_id": "b418d17b6d6b042d4b4dc6941dd64a20", "is_reserved": 0, "name": "b418d17b6d6b042d4b4dc6941dd64a20", "lat": 38.90541416666667, "fusion_lat": 0.0, "lon": -77.045046, "is_disabled": 0, "fusion_lon": 0.0, "rental_uris": {"android": "https://dc.lft.to/lastmile_qr_scan", "ios": "https://dc.lft.to/lastmile_qr_scan"}, "type": "electric_scooter"}, {"bike_id": "027afbf2787e15691af4660595b48c22", "is_reserved": 0, "name": "027afbf2787e15691af4660595b48c22", "lat": 38.904079833333334, "fusion_lat": 0.0, "lon": -76.973291, "is_disabled": 0, "fusion_lon": 0.0, "rental_uris": {"android": "https://dc.lft.to/lastmile_qr_scan", "ios": "https://dc.lft.to/lastmile_qr_scan"}, "type": "electric_scooter"}, {"bike_id": "0be787ebe5dc5fdbfc87a8c71a615332", "is_reserved": 0, "name": "0be787ebe5dc5fdbfc87a8c71a615332", "lat": 38.90251966666666, "fusion_lat": 0.0, "lon": -77.034176, "is_disabled": 0, "fusion_lon": 0.0, "rental_uris": {"android": "https://dc.lft.to/lastmile_qr_scan", "ios": "https://dc.lft.to/lastmile_qr_scan"}, "type": "electric_scooter"}, {"bike_id": "b218da2483a654c0cf71b858f64b29d7", "is_reserved": 0, "name": "b218da2483a654c0cf71b858f64b29d7", "lat": 38.91712616666667, "fusion_lat": 0.0, "lon": -77.04125416666666, "is_disabled": 0, "fusion_lon": 0.0, "rental_uris": {"android": "https://dc.lft.to/lastmile_qr_scan", "ios": "https://dc.lft.to/lastmile_qr_scan"}, "type": "electric_scooter"}, {"bike_id": "60ce1d7560a0edfb582358baacb54e21", "is_reserved": 0, "name": "60ce1d7560a0edfb582358baacb54e21", "lat": 38.90084133333333, "fusion_lat": 0.0, "lon": -77.02313433333333, "is_disabled": 0, "fusion_lon": 0.0, "rental_uris": {"android": "https://dc.lft.to/lastmile_qr_scan", "ios": "https://dc.lft.to/lastmile_qr_scan"}, "type": "electric_scooter"}, {"bike_id": "45c3abe3e812def624d1f3c8bbfa3b08", "is_reserved": 0, "name": "45c3abe3e812def624d1f3c8bbfa3b08", "lat": 38.89220266666667, "fusion_lat": 0.0, "lon": -77.0450705, "is_disabled": 0, "fusion_lon": 0.0, "rental_uris": {"android": "https://dc.lft.to/lastmile_qr_scan", "ios": "https://dc.lft.to/lastmile_qr_scan"}, "type": "electric_scooter"}, {"bike_id": "5d3ec1968eae972c157263ac71c42f33", "is_reserved": 0, "name": "5d3ec1968eae972c157263ac71c42f33", "lat": 38.9141155, "fusion_lat": 0.0, "lon": -77.04176416666667, "is_disabled": 0, "fusion_lon": 0.0, "rental_uris": {"android": "https://dc.lft.to/lastmile_qr_scan", "ios": "https://dc.lft.to/lastmile_qr_scan"}, "type": "electric_scooter"}, {"bike_id": "4c7ac8b7679782a99c7bbd0f3890ff50", "is_reserved": 0, "name": "4c7ac8b7679782a99c7bbd0f3890ff50", "lat": 38.892482333333334, "fusion_lat": 0.0, "lon": -77.03958716666666, "is_disabled": 0, "fusion_lon": 0.0, "rental_uris": {"android": "https://dc.lft.to/lastmile_qr_scan", "ios": "https://dc.lft.to/lastmile_qr_scan"}, "type": "electric_scooter"}, {"bike_id": "97fc34da3fd17d2bc1fac8df2d17fe16", "is_reserved": 0, "name": "97fc34da3fd17d2bc1fac8df2d17fe16", "lat": 38.94832533333334, "fusion_lat": 0.0, "lon": -77.099964, "is_disabled": 0, "fusion_lon": 0.0, "rental_uris": {"android": "https://dc.lft.to/lastmile_qr_scan", "ios": "https://dc.lft.to/lastmile_qr_scan"}, "type": "electric_scooter"}, {"bike_id": "23364988cfa204d9ef95bac4fb8982dc", "is_reserved": 0, "name": "23364988cfa204d9ef95bac4fb8982dc", "lat": 38.8837065, "fusion_lat": 0.0, "lon": -76.99516783333334, "is_disabled": 0, "fusion_lon": 0.0, "rental_uris": {"android": "https://dc.lft.to/lastmile_qr_scan", "ios": "https://dc.lft.to/lastmile_qr_scan"}, "type": "electric_scooter"}, {"bike_id": "9b987d3af8b08b13cec2b2499e7cdd45", "is_reserved": 0, "name": "9b987d3af8b08b13cec2b2499e7cdd45", "lat": 38.8936155, "fusion_lat": 0.0, "lon": -77.00331416666667, "is_disabled": 0, "fusion_lon": 0.0, "rental_uris": {"android": "https://dc.lft.to/lastmile_qr_scan", "ios": "https://dc.lft.to/lastmile_qr_scan"}, "type": "electric_scooter"}, {"bike_id": "8160882044cdf267399592d3be834632", "is_reserved": 0, "name": "8160882044cdf267399592d3be834632", "lat": 38.923272, "fusion_lat": 0.0, "lon": -77.04028066666666, "is_disabled": 0, "fusion_lon": 0.0, "rental_uris": {"android": "https://dc.lft.to/lastmile_qr_scan", "ios": "https://dc.lft.to/lastmile_qr_scan"}, "type": "electric_scooter"}, {"bike_id": "8d125c7c1fb81ce6fec56d3d0939f2ac", "is_reserved": 0, "name": "8d125c7c1fb81ce6fec56d3d0939f2ac", "lat": 38.91215066666667, "fusion_lat": 0.0, "lon": -77.0295715, "is_disabled": 0, "fusion_lon": 0.0, "rental_uris": {"android": "https://dc.lft.to/lastmile_qr_scan", "ios": "https://dc.lft.to/lastmile_qr_scan"}, "type": "electric_scooter"}, {"bike_id": "db15846df5d5e9ead77e391b5c52dd52", "is_reserved": 0, "name": "db15846df5d5e9ead77e391b5c52dd52", "lat": 38.92018816666667, "fusion_lat": 0.0, "lon": -77.01314733333334, "is_disabled": 0, "fusion_lon": 0.0, "rental_uris": {"android": "https://dc.lft.to/lastmile_qr_scan", "ios": "https://dc.lft.to/lastmile_qr_scan"}, "type": "electric_scooter"}, {"bike_id": "384f411f6af5401de763a14d1c040708", "is_reserved": 0, "name": "384f411f6af5401de763a14d1c040708", "lat": 38.914598166666664, "fusion_lat": 0.0, "lon": -77.00211066666667, "is_disabled": 0, "fusion_lon": 0.0, "rental_uris": {"android": "https://dc.lft.to/lastmile_qr_scan", "ios": "https://dc.lft.to/lastmile_qr_scan"}, "type": "electric_scooter"}, {"bike_id": "750bba8b54aa412e3659c9862bacc4e7", "is_reserved": 0, "name": "750bba8b54aa412e3659c9862bacc4e7", "lat": 38.88743433333333, "fusion_lat": 0.0, "lon": -77.0256715, "is_disabled": 0, "fusion_lon": 0.0, "rental_uris": {"android": "https://dc.lft.to/lastmile_qr_scan", "ios": "https://dc.lft.to/lastmile_qr_scan"}, "type": "electric_scooter"}, {"bike_id": "a017e91613650b0f90191456efd72b8c", "is_reserved": 0, "name": "a017e91613650b0f90191456efd72b8c", "lat": 38.898767666666664, "fusion_lat": 0.0, "lon": -76.9318245, "is_disabled": 0, "fusion_lon": 0.0, "rental_uris": {"android": "https://dc.lft.to/lastmile_qr_scan", "ios": "https://dc.lft.to/lastmile_qr_scan"}, "type": "electric_scooter"}, {"bike_id": "f80ce7921f1d083fc83744419f9a0e77", "is_reserved": 0, "name": "f80ce7921f1d083fc83744419f9a0e77", "lat": 38.90553883333333, "fusion_lat": 0.0, "lon": -77.00518083333333, "is_disabled": 0, "fusion_lon": 0.0, "rental_uris": {"android": "https://dc.lft.to/lastmile_qr_scan", "ios": "https://dc.lft.to/lastmile_qr_scan"}, "type": "electric_scooter"}, {"bike_id": "a7d5db5435e232ac2ba43bbd2316cf11", "is_reserved": 0, "name": "a7d5db5435e232ac2ba43bbd2316cf11", "lat": 38.90300766666667, "fusion_lat": 0.0, "lon": -77.05814416666666, "is_disabled": 0, "fusion_lon": 0.0, "rental_uris": {"android": "https://dc.lft.to/lastmile_qr_scan", "ios": "https://dc.lft.to/lastmile_qr_scan"}, "type": "electric_scooter"}, {"bike_id": "eb27dd196d4a5b131102297199262664", "is_reserved": 0, "name": "eb27dd196d4a5b131102297199262664", "lat": 38.907213166666665, "fusion_lat": 0.0, "lon": -77.02891266666667, "is_disabled": 0, "fusion_lon": 0.0, "rental_uris": {"android": "https://dc.lft.to/lastmile_qr_scan", "ios": "https://dc.lft.to/lastmile_qr_scan"}, "type": "electric_scooter"}, {"bike_id": "0128f6454a694649d17acdeab87479d8", "is_reserved": 0, "name": "0128f6454a694649d17acdeab87479d8", "lat": 38.932579833333335, "fusion_lat": 0.0, "lon": -76.9889995, "is_disabled": 0, "fusion_lon": 0.0, "rental_uris": {"android": "https://dc.lft.to/lastmile_qr_scan", "ios": "https://dc.lft.to/lastmile_qr_scan"}, "type": "electric_scooter"}, {"bike_id": "23c9d54543d5e72d6e5e4c91a8ea9b94", "is_reserved": 0, "name": "23c9d54543d5e72d6e5e4c91a8ea9b94", "lat": 38.90500183333333, "fusion_lat": 0.0, "lon": -77.0295515, "is_disabled": 0, "fusion_lon": 0.0, "rental_uris": {"android": "https://dc.lft.to/lastmile_qr_scan", "ios": "https://dc.lft.to/lastmile_qr_scan"}, "type": "electric_scooter"}, {"bike_id": "586db015327c4ed4fdfad1adaea28984", "is_reserved": 0, "name": "586db015327c4ed4fdfad1adaea28984", "lat": 38.863320333333334, "fusion_lat": 0.0, "lon": -76.98723816666667, "is_disabled": 0, "fusion_lon": 0.0, "rental_uris": {"android": "https://dc.lft.to/lastmile_qr_scan", "ios": "https://dc.lft.to/lastmile_qr_scan"}, "type": "electric_bike"}, {"bike_id": "3ae086087b03444238474c301c64b06c", "is_reserved": 0, "name": "3ae086087b03444238474c301c64b06c", "lat": 38.8720985, "fusion_lat": 0.0, "lon": -77.0166525, "is_disabled": 0, "fusion_lon": 0.0, "rental_uris": {"android": "https://dc.lft.to/lastmile_qr_scan", "ios": "https://dc.lft.to/lastmile_qr_scan"}, "type": "electric_scooter"}, {"bike_id": "f7b3e2520c346c0b67cd71f940f1a136", "is_reserved": 0, "name": "f7b3e2520c346c0b67cd71f940f1a136", "lat": 38.91960233333333, "fusion_lat": 0.0, "lon": -77.04166966666666, "is_disabled": 0, "fusion_lon": 0.0, "rental_uris": {"android": "https://dc.lft.to/lastmile_qr_scan", "ios": "https://dc.lft.to/lastmile_qr_scan"}, "type": "electric_scooter"}, {"bike_id": "bae62b4cc8a320dce394ea3016984219", "is_reserved": 0, "name": "bae62b4cc8a320dce394ea3016984219", "lat": 38.886596833333336, "fusion_lat": 0.0, "lon": -77.0198275, "is_disabled": 0, "fusion_lon": 0.0, "rental_uris": {"android": "https://dc.lft.to/lastmile_qr_scan", "ios": "https://dc.lft.to/lastmile_qr_scan"}, "type": "electric_scooter"}, {"bike_id": "4290451c9b566ad8ee743e84dc84cd54", "is_reserved": 0, "name": "4290451c9b566ad8ee743e84dc84cd54", "lat": 38.90500483333334, "fusion_lat": 0.0, "lon": -77.02947666666667, "is_disabled": 0, "fusion_lon": 0.0, "rental_uris": {"android": "https://dc.lft.to/lastmile_qr_scan", "ios": "https://dc.lft.to/lastmile_qr_scan"}, "type": "electric_scooter"}, {"bike_id": "bee954f5c39fd00bbc85142b2ddf3f1b", "is_reserved": 0, "name": "bee954f5c39fd00bbc85142b2ddf3f1b", "lat": 38.9083875, "fusion_lat": 0.0, "lon": -77.06338583333333, "is_disabled": 0, "fusion_lon": 0.0, "rental_uris": {"android": "https://dc.lft.to/lastmile_qr_scan", "ios": "https://dc.lft.to/lastmile_qr_scan"}, "type": "electric_scooter"}, {"bike_id": "087640258085aaa7e48000bda22ab1f5", "is_reserved": 0, "name": "087640258085aaa7e48000bda22ab1f5", "lat": 38.92190883333333, "fusion_lat": 0.0, "lon": -77.04199866666667, "is_disabled": 0, "fusion_lon": 0.0, "rental_uris": {"android": "https://dc.lft.to/lastmile_qr_scan", "ios": "https://dc.lft.to/lastmile_qr_scan"}, "type": "electric_scooter"}, {"bike_id": "827c8c617e931b76a49ed68f42516462", "is_reserved": 0, "name": "827c8c617e931b76a49ed68f42516462", "lat": 38.88139183333333, "fusion_lat": 0.0, "lon": -76.99834266666667, "is_disabled": 0, "fusion_lon": 0.0, "rental_uris": {"android": "https://dc.lft.to/lastmile_qr_scan", "ios": "https://dc.lft.to/lastmile_qr_scan"}, "type": "electric_bike"}, {"bike_id": "5ffe71c283eeb009a0bc2795ddebd9fa", "is_reserved": 0, "name": "5ffe71c283eeb009a0bc2795ddebd9fa", "lat": 38.799827, "fusion_lat": 0.0, "lon": -77.129778, "is_disabled": 0, "fusion_lon": 0.0, "rental_uris": {"android": "https://dc.lft.to/lastmile_qr_scan", "ios": "https://dc.lft.to/lastmile_qr_scan"}, "type": "electric_bike"}, {"bike_id": "60440001b9fe9cf38ebfcdd4ba188c87", "is_reserved": 0, "name": "60440001b9fe9cf38ebfcdd4ba188c87", "lat": 38.91731866666667, "fusion_lat": 0.0, "lon": -77.0417085, "is_disabled": 0, "fusion_lon": 0.0, "rental_uris": {"android": "https://dc.lft.to/lastmile_qr_scan", "ios": "https://dc.lft.to/lastmile_qr_scan"}, "type": "electric_scooter"}, {"bike_id": "36c4769274d3dfd1b45c61c78b3af55d", "is_reserved": 0, "name": "36c4769274d3dfd1b45c61c78b3af55d", "lat": 38.918688333333336, "fusion_lat": 0.0, "lon": -77.041541, "is_disabled": 0, "fusion_lon": 0.0, "rental_uris": {"android": "https://dc.lft.to/lastmile_qr_scan", "ios": "https://dc.lft.to/lastmile_qr_scan"}, "type": "electric_scooter"}, {"bike_id": "e69d25f453833dce57b99de0d79804a0", "is_reserved": 0, "name": "e69d25f453833dce57b99de0d79804a0", "lat": 38.9095975, "fusion_lat": 0.0, "lon": -77.032326, "is_disabled": 0, "fusion_lon": 0.0, "rental_uris": {"android": "https://dc.lft.to/lastmile_qr_scan", "ios": "https://dc.lft.to/lastmile_qr_scan"}, "type": "electric_scooter"}, {"bike_id": "1c5727ae98487fe3aadd663eeba83689", "is_reserved": 0, "name": "1c5727ae98487fe3aadd663eeba83689", "lat": 38.92478166666667, "fusion_lat": 0.0, "lon": -77.026521, "is_disabled": 0, "fusion_lon": 0.0, "rental_uris": {"android": "https://dc.lft.to/lastmile_qr_scan", "ios": "https://dc.lft.to/lastmile_qr_scan"}, "type": "electric_scooter"}, {"bike_id": "2da0f22e8bd0a89fe957363ac0e23255", "is_reserved": 0, "name": "2da0f22e8bd0a89fe957363ac0e23255", "lat": 38.923413, "fusion_lat": 0.0, "lon": -77.0522675, "is_disabled": 0, "fusion_lon": 0.0, "rental_uris": {"android": "https://dc.lft.to/lastmile_qr_scan", "ios": "https://dc.lft.to/lastmile_qr_scan"}, "type": "electric_scooter"}, {"bike_id": "ee8e56b24b4edf0380a793377004c32c", "is_reserved": 0, "name": "ee8e56b24b4edf0380a793377004c32c", "lat": 38.896628, "fusion_lat": 0.0, "lon": -77.02484, "is_disabled": 0, "fusion_lon": 0.0, "rental_uris": {"android": "https://dc.lft.to/lastmile_qr_scan", "ios": "https://dc.lft.to/lastmile_qr_scan"}, "type": "electric_scooter"}, {"bike_id": "8725cf4d3128a6e21e5a6cee260e57c0", "is_reserved": 0, "name": "8725cf4d3128a6e21e5a6cee260e57c0", "lat": 38.9402335, "fusion_lat": 0.0, "lon": -76.97610083333333, "is_disabled": 0, "fusion_lon": 0.0, "rental_uris": {"android": "https://dc.lft.to/lastmile_qr_scan", "ios": "https://dc.lft.to/lastmile_qr_scan"}, "type": "electric_bike"}, {"bike_id": "9ad097621b1140578a27769907e2a6c4", "is_reserved": 0, "name": "9ad097621b1140578a27769907e2a6c4", "lat": 38.95627416666667, "fusion_lat": 0.0, "lon": -77.02833033333333, "is_disabled": 0, "fusion_lon": 0.0, "rental_uris": {"android": "https://dc.lft.to/lastmile_qr_scan", "ios": "https://dc.lft.to/lastmile_qr_scan"}, "type": "electric_scooter"}, {"bike_id": "d27a40f9c246ecf0ad890fbc7bbd9896", "is_reserved": 0, "name": "d27a40f9c246ecf0ad890fbc7bbd9896", "lat": 38.84357633333333, "fusion_lat": 0.0, "lon": -76.97823416666667, "is_disabled": 0, "fusion_lon": 0.0, "rental_uris": {"android": "https://dc.lft.to/lastmile_qr_scan", "ios": "https://dc.lft.to/lastmile_qr_scan"}, "type": "electric_bike"}, {"bike_id": "c345cb1e3c258d2f08d9c307673f4a67", "is_reserved": 0, "name": "c345cb1e3c258d2f08d9c307673f4a67", "lat": 38.901522, "fusion_lat": 0.0, "lon": -77.03232183333333, "is_disabled": 0, "fusion_lon": 0.0, "rental_uris": {"android": "https://dc.lft.to/lastmile_qr_scan", "ios": "https://dc.lft.to/lastmile_qr_scan"}, "type": "electric_scooter"}, {"bike_id": "5e9e305120896231dace082f52c2981a", "is_reserved": 0, "name": "5e9e305120896231dace082f52c2981a", "lat": 38.92346933333334, "fusion_lat": 0.0, "lon": -77.03217416666666, "is_disabled": 0, "fusion_lon": 0.0, "rental_uris": {"android": "https://dc.lft.to/lastmile_qr_scan", "ios": "https://dc.lft.to/lastmile_qr_scan"}, "type": "electric_scooter"}, {"bike_id": "a58d9e4333f7be5ca8b736fd9449c6c9", "is_reserved": 0, "name": "a58d9e4333f7be5ca8b736fd9449c6c9", "lat": 38.895897, "fusion_lat": 0.0, "lon": -77.04801983333333, "is_disabled": 0, "fusion_lon": 0.0, "rental_uris": {"android": "https://dc.lft.to/lastmile_qr_scan", "ios": "https://dc.lft.to/lastmile_qr_scan"}, "type": "electric_scooter"}, {"bike_id": "56c6e444ff3fa088ebbddf05e1465500", "is_reserved": 0, "name": "56c6e444ff3fa088ebbddf05e1465500", "lat": 38.915864166666665, "fusion_lat": 0.0, "lon": -76.98389283333333, "is_disabled": 0, "fusion_lon": 0.0, "rental_uris": {"android": "https://dc.lft.to/lastmile_qr_scan", "ios": "https://dc.lft.to/lastmile_qr_scan"}, "type": "electric_scooter"}, {"bike_id": "fd7e62e0d400d687ad18cba57c21ac5d", "is_reserved": 0, "name": "fd7e62e0d400d687ad18cba57c21ac5d", "lat": 38.898449666666664, "fusion_lat": 0.0, "lon": -77.0335145, "is_disabled": 0, "fusion_lon": 0.0, "rental_uris": {"android": "https://dc.lft.to/lastmile_qr_scan", "ios": "https://dc.lft.to/lastmile_qr_scan"}, "type": "electric_scooter"}, {"bike_id": "a7a15c2621fa4452b01cf51af801dc06", "is_reserved": 0, "name": "a7a15c2621fa4452b01cf51af801dc06", "lat": 38.9165365, "fusion_lat": 0.0, "lon": -77.04151833333333, "is_disabled": 0, "fusion_lon": 0.0, "rental_uris": {"android": "https://dc.lft.to/lastmile_qr_scan", "ios": "https://dc.lft.to/lastmile_qr_scan"}, "type": "electric_scooter"}, {"bike_id": "5535881f2ddb4b1dbeeca64c0382f3d9", "is_reserved": 0, "name": "5535881f2ddb4b1dbeeca64c0382f3d9", "lat": 38.904999333333336, "fusion_lat": 0.0, "lon": -76.97446183333334, "is_disabled": 0, "fusion_lon": 0.0, "rental_uris": {"android": "https://dc.lft.to/lastmile_qr_scan", "ios": "https://dc.lft.to/lastmile_qr_scan"}, "type": "electric_bike"}, {"bike_id": "5414de0b6acab12d7cfd07807bdf2883", "is_reserved": 0, "name": "5414de0b6acab12d7cfd07807bdf2883", "lat": 38.879768, "fusion_lat": 0.0, "lon": -77.00597366666666, "is_disabled": 0, "fusion_lon": 0.0, "rental_uris": {"android": "https://dc.lft.to/lastmile_qr_scan", "ios": "https://dc.lft.to/lastmile_qr_scan"}, "type": "electric_scooter"}, {"bike_id": "520e22eff1eb625bc4ff42f933fab886", "is_reserved": 0, "name": "520e22eff1eb625bc4ff42f933fab886", "lat": 38.907307333333335, "fusion_lat": 0.0, "lon": -77.02950533333333, "is_disabled": 0, "fusion_lon": 0.0, "rental_uris": {"android": "https://dc.lft.to/lastmile_qr_scan", "ios": "https://dc.lft.to/lastmile_qr_scan"}, "type": "electric_scooter"}, {"bike_id": "963fc1cca0b6a4d43ed231b088a54624", "is_reserved": 0, "name": "963fc1cca0b6a4d43ed231b088a54624", "lat": 38.870622833333336, "fusion_lat": 0.0, "lon": -77.00741683333334, "is_disabled": 0, "fusion_lon": 0.0, "rental_uris": {"android": "https://dc.lft.to/lastmile_qr_scan", "ios": "https://dc.lft.to/lastmile_qr_scan"}, "type": "electric_scooter"}, {"bike_id": "b91b962ebb6460a10946fcd55cf3d1c1", "is_reserved": 0, "name": "b91b962ebb6460a10946fcd55cf3d1c1", "lat": 38.90682283333334, "fusion_lat": 0.0, "lon": -77.071785, "is_disabled": 0, "fusion_lon": 0.0, "rental_uris": {"android": "https://dc.lft.to/lastmile_qr_scan", "ios": "https://dc.lft.to/lastmile_qr_scan"}, "type": "electric_scooter"}, {"bike_id": "8dc998fe07e72b6bea10497cebed981c", "is_reserved": 0, "name": "8dc998fe07e72b6bea10497cebed981c", "lat": 38.939208, "fusion_lat": 0.0, "lon": -77.02469016666667, "is_disabled": 0, "fusion_lon": 0.0, "rental_uris": {"android": "https://dc.lft.to/lastmile_qr_scan", "ios": "https://dc.lft.to/lastmile_qr_scan"}, "type": "electric_scooter"}, {"bike_id": "63e6af7e95929b7b2b148b22504444ac", "is_reserved": 0, "name": "63e6af7e95929b7b2b148b22504444ac", "lat": 38.8737765, "fusion_lat": 0.0, "lon": -77.00127666666667, "is_disabled": 0, "fusion_lon": 0.0, "rental_uris": {"android": "https://dc.lft.to/lastmile_qr_scan", "ios": "https://dc.lft.to/lastmile_qr_scan"}, "type": "electric_scooter"}, {"bike_id": "eb669daee08e431e78f2ab22db82194b", "is_reserved": 0, "name": "eb669daee08e431e78f2ab22db82194b", "lat": 38.9622185, "fusion_lat": 0.0, "lon": -77.0280495, "is_disabled": 0, "fusion_lon": 0.0, "rental_uris": {"android": "https://dc.lft.to/lastmile_qr_scan", "ios": "https://dc.lft.to/lastmile_qr_scan"}, "type": "electric_bike"}, {"bike_id": "a483b8ec89d49a5332cedaa4eae30f56", "is_reserved": 0, "name": "a483b8ec89d49a5332cedaa4eae30f56", "lat": 38.908529333333334, "fusion_lat": 0.0, "lon": -77.0272205, "is_disabled": 0, "fusion_lon": 0.0, "rental_uris": {"android": "https://dc.lft.to/lastmile_qr_scan", "ios": "https://dc.lft.to/lastmile_qr_scan"}, "type": "electric_scooter"}, {"bike_id": "11f53420d70ba79e4fd3a666bde5c440", "is_reserved": 0, "name": "11f53420d70ba79e4fd3a666bde5c440", "lat": 38.89953783333333, "fusion_lat": 0.0, "lon": -77.044913, "is_disabled": 0, "fusion_lon": 0.0, "rental_uris": {"android": "https://dc.lft.to/lastmile_qr_scan", "ios": "https://dc.lft.to/lastmile_qr_scan"}, "type": "electric_scooter"}, {"bike_id": "5725fddd648f739e6adf948c8f46da2a", "is_reserved": 0, "name": "5725fddd648f739e6adf948c8f46da2a", "lat": 38.91713166666667, "fusion_lat": 0.0, "lon": -77.03547433333334, "is_disabled": 0, "fusion_lon": 0.0, "rental_uris": {"android": "https://dc.lft.to/lastmile_qr_scan", "ios": "https://dc.lft.to/lastmile_qr_scan"}, "type": "electric_scooter"}, {"bike_id": "cf9cae75b7a05db153f1cbced678becb", "is_reserved": 0, "name": "cf9cae75b7a05db153f1cbced678becb", "lat": 38.887350166666664, "fusion_lat": 0.0, "lon": -77.0238455, "is_disabled": 0, "fusion_lon": 0.0, "rental_uris": {"android": "https://dc.lft.to/lastmile_qr_scan", "ios": "https://dc.lft.to/lastmile_qr_scan"}, "type": "electric_scooter"}, {"bike_id": "64460d52d88dbcdfc18de41e913e6649", "is_reserved": 0, "name": "64460d52d88dbcdfc18de41e913e6649", "lat": 38.90274133333333, "fusion_lat": 0.0, "lon": -77.0285045, "is_disabled": 0, "fusion_lon": 0.0, "rental_uris": {"android": "https://dc.lft.to/lastmile_qr_scan", "ios": "https://dc.lft.to/lastmile_qr_scan"}, "type": "electric_scooter"}, {"bike_id": "26704b070e1cbe4e080bad410266989e", "is_reserved": 0, "name": "26704b070e1cbe4e080bad410266989e", "lat": 38.900664, "fusion_lat": 0.0, "lon": -77.01315316666667, "is_disabled": 0, "fusion_lon": 0.0, "rental_uris": {"android": "https://dc.lft.to/lastmile_qr_scan", "ios": "https://dc.lft.to/lastmile_qr_scan"}, "type": "electric_scooter"}, {"bike_id": "53d0cc10598a6f7ef752756be8463a8e", "is_reserved": 0, "name": "53d0cc10598a6f7ef752756be8463a8e", "lat": 38.84610216666667, "fusion_lat": 0.0, "lon": -76.96911766666666, "is_disabled": 0, "fusion_lon": 0.0, "rental_uris": {"android": "https://dc.lft.to/lastmile_qr_scan", "ios": "https://dc.lft.to/lastmile_qr_scan"}, "type": "electric_bike"}, {"bike_id": "340749d5fadd7a3b1e06191ea16dedc1", "is_reserved": 0, "name": "340749d5fadd7a3b1e06191ea16dedc1", "lat": 38.919249, "fusion_lat": 0.0, "lon": -77.03108116666667, "is_disabled": 0, "fusion_lon": 0.0, "rental_uris": {"android": "https://dc.lft.to/lastmile_qr_scan", "ios": "https://dc.lft.to/lastmile_qr_scan"}, "type": "electric_scooter"}, {"bike_id": "2b8773d517779c2eb2fd942cab1140fb", "is_reserved": 0, "name": "2b8773d517779c2eb2fd942cab1140fb", "lat": 38.87679116666666, "fusion_lat": 0.0, "lon": -77.003467, "is_disabled": 0, "fusion_lon": 0.0, "rental_uris": {"android": "https://dc.lft.to/lastmile_qr_scan", "ios": "https://dc.lft.to/lastmile_qr_scan"}, "type": "electric_scooter"}, {"bike_id": "740b52f5bae294a4352c715323006212", "is_reserved": 0, "name": "740b52f5bae294a4352c715323006212", "lat": 38.8974005, "fusion_lat": 0.0, "lon": -77.03302766666667, "is_disabled": 0, "fusion_lon": 0.0, "rental_uris": {"android": "https://dc.lft.to/lastmile_qr_scan", "ios": "https://dc.lft.to/lastmile_qr_scan"}, "type": "electric_scooter"}, {"bike_id": "5244720b60e12e451300d2508fe6ab2b", "is_reserved": 0, "name": "5244720b60e12e451300d2508fe6ab2b", "lat": 38.874704333333334, "fusion_lat": 0.0, "lon": -77.00566833333333, "is_disabled": 0, "fusion_lon": 0.0, "rental_uris": {"android": "https://dc.lft.to/lastmile_qr_scan", "ios": "https://dc.lft.to/lastmile_qr_scan"}, "type": "electric_scooter"}, {"bike_id": "9faad97dced65e66e5266fb6388e423b", "is_reserved": 0, "name": "9faad97dced65e66e5266fb6388e423b", "lat": 38.928652666666665, "fusion_lat": 0.0, "lon": -77.03274116666667, "is_disabled": 0, "fusion_lon": 0.0, "rental_uris": {"android": "https://dc.lft.to/lastmile_qr_scan", "ios": "https://dc.lft.to/lastmile_qr_scan"}, "type": "electric_scooter"}, {"bike_id": "c20c6395b76ccf11af8695eee73bc85f", "is_reserved": 0, "name": "c20c6395b76ccf11af8695eee73bc85f", "lat": 38.8922335, "fusion_lat": 0.0, "lon": -77.04325416666667, "is_disabled": 0, "fusion_lon": 0.0, "rental_uris": {"android": "https://dc.lft.to/lastmile_qr_scan", "ios": "https://dc.lft.to/lastmile_qr_scan"}, "type": "electric_scooter"}, {"bike_id": "185fbbb4bc248e106398fe227e783d0c", "is_reserved": 0, "name": "185fbbb4bc248e106398fe227e783d0c", "lat": 38.920451166666666, "fusion_lat": 0.0, "lon": -77.023481, "is_disabled": 0, "fusion_lon": 0.0, "rental_uris": {"android": "https://dc.lft.to/lastmile_qr_scan", "ios": "https://dc.lft.to/lastmile_qr_scan"}, "type": "electric_scooter"}, {"bike_id": "9c0ac548c82ed6760248ff6c7810e99a", "is_reserved": 0, "name": "9c0ac548c82ed6760248ff6c7810e99a", "lat": 38.89564466666667, "fusion_lat": 0.0, "lon": -76.948725, "is_disabled": 0, "fusion_lon": 0.0, "rental_uris": {"android": "https://dc.lft.to/lastmile_qr_scan", "ios": "https://dc.lft.to/lastmile_qr_scan"}, "type": "electric_scooter"}, {"bike_id": "24fd160b8664cea4e1c9ea6b51b43f69", "is_reserved": 0, "name": "24fd160b8664cea4e1c9ea6b51b43f69", "lat": 38.96575133333333, "fusion_lat": 0.0, "lon": -77.00266416666666, "is_disabled": 0, "fusion_lon": 0.0, "rental_uris": {"android": "https://dc.lft.to/lastmile_qr_scan", "ios": "https://dc.lft.to/lastmile_qr_scan"}, "type": "electric_scooter"}, {"bike_id": "36140ea52172247b07c13ae736901246", "is_reserved": 0, "name": "36140ea52172247b07c13ae736901246", "lat": 38.898477, "fusion_lat": 0.0, "lon": -77.030398, "is_disabled": 0, "fusion_lon": 0.0, "rental_uris": {"android": "https://dc.lft.to/lastmile_qr_scan", "ios": "https://dc.lft.to/lastmile_qr_scan"}, "type": "electric_scooter"}, {"bike_id": "6861d8cb76bbccaeff57da8dd9e2f6b7", "is_reserved": 0, "name": "6861d8cb76bbccaeff57da8dd9e2f6b7", "lat": 38.96183216666667, "fusion_lat": 0.0, "lon": -77.052659, "is_disabled": 0, "fusion_lon": 0.0, "rental_uris": {"android": "https://dc.lft.to/lastmile_qr_scan", "ios": "https://dc.lft.to/lastmile_qr_scan"}, "type": "electric_bike"}, {"bike_id": "1fef99d17ecdd850a52b71f15f6ddfbe", "is_reserved": 0, "name": "1fef99d17ecdd850a52b71f15f6ddfbe", "lat": 38.905863333333336, "fusion_lat": 0.0, "lon": -77.02380266666667, "is_disabled": 0, "fusion_lon": 0.0, "rental_uris": {"android": "https://dc.lft.to/lastmile_qr_scan", "ios": "https://dc.lft.to/lastmile_qr_scan"}, "type": "electric_scooter"}, {"bike_id": "816c16006a3d6dfdb35ae6aef790acd8", "is_reserved": 0, "name": "816c16006a3d6dfdb35ae6aef790acd8", "lat": 38.867386833333335, "fusion_lat": 0.0, "lon": -76.98786766666667, "is_disabled": 0, "fusion_lon": 0.0, "rental_uris": {"android": "https://dc.lft.to/lastmile_qr_scan", "ios": "https://dc.lft.to/lastmile_qr_scan"}, "type": "electric_scooter"}, {"bike_id": "7c6085e0ccab2d68d5a03d3c2d8ff657", "is_reserved": 0, "name": "7c6085e0ccab2d68d5a03d3c2d8ff657", "lat": 38.904851666666666, "fusion_lat": 0.0, "lon": -77.02109666666666, "is_disabled": 0, "fusion_lon": 0.0, "rental_uris": {"android": "https://dc.lft.to/lastmile_qr_scan", "ios": "https://dc.lft.to/lastmile_qr_scan"}, "type": "electric_scooter"}, {"bike_id": "56d85bd202b752047ff3968a69157ec7", "is_reserved": 0, "name": "56d85bd202b752047ff3968a69157ec7", "lat": 38.92419783333333, "fusion_lat": 0.0, "lon": -77.05748033333333, "is_disabled": 0, "fusion_lon": 0.0, "rental_uris": {"android": "https://dc.lft.to/lastmile_qr_scan", "ios": "https://dc.lft.to/lastmile_qr_scan"}, "type": "electric_scooter"}, {"bike_id": "02d9707beca3b31444e746b570aec334", "is_reserved": 0, "name": "02d9707beca3b31444e746b570aec334", "lat": 38.91720083333333, "fusion_lat": 0.0, "lon": -77.0269795, "is_disabled": 0, "fusion_lon": 0.0, "rental_uris": {"android": "https://dc.lft.to/lastmile_qr_scan", "ios": "https://dc.lft.to/lastmile_qr_scan"}, "type": "electric_scooter"}, {"bike_id": "92744176237091541ccefba7b715fbc8", "is_reserved": 0, "name": "92744176237091541ccefba7b715fbc8", "lat": 38.873739, "fusion_lat": 0.0, "lon": -77.00124733333334, "is_disabled": 0, "fusion_lon": 0.0, "rental_uris": {"android": "https://dc.lft.to/lastmile_qr_scan", "ios": "https://dc.lft.to/lastmile_qr_scan"}, "type": "electric_scooter"}, {"bike_id": "4a739f2a4c47d4da9250e3771a241af8", "is_reserved": 0, "name": "4a739f2a4c47d4da9250e3771a241af8", "lat": 38.89221966666667, "fusion_lat": 0.0, "lon": -77.02628683333333, "is_disabled": 0, "fusion_lon": 0.0, "rental_uris": {"android": "https://dc.lft.to/lastmile_qr_scan", "ios": "https://dc.lft.to/lastmile_qr_scan"}, "type": "electric_scooter"},