{"data": {"bikes": [{"lon": -77.024863, "bike_id": "522d186b4bc0848659ceeb4112c05b71", "lat": 38.90732283333333, "fusion_lon": 0.0, "fusion_lat": 0.0, "type": "electric_scooter", "name": "522d186b4bc0848659ceeb4112c05b71", "is_disabled": 0, "rental_uris": {"ios": "https://dc.lft.to/lastmile_qr_scan", "android": "https://dc.lft.to/lastmile_qr_scan"}, "is_reserved": 0}, {"lon": -77.04545733333333, "bike_id": "d48b66e67f031381d0ae40fc8bb80a1e", "lat": 38.909541833333336, "fusion_lon": 0.0, "fusion_lat": 0.0, "type": "electric_scooter", "name": "d48b66e67f031381d0ae40fc8bb80a1e", "is_disabled": 0, "rental_uris": {"ios": "https://dc.lft.to/lastmile_qr_scan", "android": "https://dc.lft.to/lastmile_qr_scan"}, "is_reserved": 0}, {"lon": -77.00547883333333, "bike_id": "ac4bc97171485351c5b8d0b3367b484c", "lat": 38.887563, "fusion_lon": 0.0, "fusion_lat": 0.0, "type": "electric_scooter", "name": "ac4bc97171485351c5b8d0b3367b484c", "is_disabled": 0, "rental_uris": {"ios": "https://dc.lft.to/lastmile_qr_scan", "android": "https://dc.lft.to/lastmile_qr_scan"}, "is_reserved": 0}, {"lon": -77.0257365, "bike_id": "e0f785aa3960b1f4cbdb8c0f17ce94ee", "lat": 38.9140735, "fusion_lon": 0.0, "fusion_lat": 0.0, "type": "electric_scooter", "name": "e0f785aa3960b1f4cbdb8c0f17ce94ee", "is_disabled": 0, "rental_uris": {"ios": "https://dc.lft.to/lastmile_qr_scan", "android": "https://dc.lft.to/lastmile_qr_scan"}, "is_reserved": 0}, {"lon": -77.01047333333334, "bike_id": "eaea951632c30dcf2c73963418cf1953", "lat": 38.86673566666666, "fusion_lon": 0.0, "fusion_lat": 0.0, "type": "electric_scooter", "name": "eaea951632c30dcf2c73963418cf1953", "is_disabled": 0, "rental_uris": {"ios": "https://dc.lft.to/lastmile_qr_scan", "android": "https://dc.lft.to/lastmile_qr_scan"}, "is_reserved": 0}, {"lon": -77.03974916666667, "bike_id": "134b7dd60d88d5ea7bda4e14f8cc67ca", "lat": 38.9208075, "fusion_lon": 0.0, "fusion_lat": 0.0, "type": "electric_scooter", "name": "134b7dd60d88d5ea7bda4e14f8cc67ca", "is_disabled": 0, "rental_uris": {"ios": "https://dc.lft.to/lastmile_qr_scan", "android": "https://dc.lft.to/lastmile_qr_scan"}, "is_reserved": 0}, {"lon": -77.034885, "bike_id": "40b9d7159e8080de3db823907af86565", "lat": 38.905916833333336, "fusion_lon": 0.0, "fusion_lat": 0.0, "type": "electric_scooter", "name": "40b9d7159e8080de3db823907af86565", "is_disabled": 0, "rental_uris": {"ios": "https://dc.lft.to/lastmile_qr_scan", "android": "https://dc.lft.to/lastmile_qr_scan"}, "is_reserved": 0}, {"lon": -77.01105716666666, "bike_id": "c98c27c2ff777744761c5d18a054c0b2", "lat": 38.90347216666667, "fusion_lon": 0.0, "fusion_lat": 0.0, "type": "electric_scooter", "name": "c98c27c2ff777744761c5d18a054c0b2", "is_disabled": 0, "rental_uris": {"ios": "https://dc.lft.to/lastmile_qr_scan", "android": "https://dc.lft.to/lastmile_qr_scan"}, "is_reserved": 0}, {"lon": -77.02004183333334, "bike_id": "469db1c923a27f95f62f2b33766b4777", "lat": 38.9241115, "fusion_lon": 0.0, "fusion_lat": 0.0, "type": "electric_scooter", "name": "469db1c923a27f95f62f2b33766b4777", "is_disabled": 0, "rental_uris": {"ios": "https://dc.lft.to/lastmile_qr_scan", "android": "https://dc.lft.to/lastmile_qr_scan"}, "is_reserved": 0}, {"lon": -77.00300583333333, "bike_id": "bc48742e934e3b56a070b21ef7ad054c", "lat": 38.894957, "fusion_lon": 0.0, "fusion_lat": 0.0, "type": "electric_scooter", "name": "bc48742e934e3b56a070b21ef7ad054c", "is_disabled": 0, "rental_uris": {"ios": "https://dc.lft.to/lastmile_qr_scan", "android": "https://dc.lft.to/lastmile_qr_scan"}, "is_reserved": 0}, {"lon": -77.0331865, "bike_id": "e507d44df49fd8fabb9811e08241ee56", "lat": 38.90322033333333, "fusion_lon": 0.0, "fusion_lat": 0.0, "type": "electric_scooter", "name": "e507d44df49fd8fabb9811e08241ee56", "is_disabled": 0, "rental_uris": {"ios": "https://dc.lft.to/lastmile_qr_scan", "android": "https://dc.lft.to/lastmile_qr_scan"}, "is_reserved": 0}, {"lon": -77.0849455, "bike_id": "efacbe0fdd84b8f68d54d3f004ce9847", "lat": 38.959450833333335, "fusion_lon": 0.0, "fusion_lat": 0.0, "type": "electric_scooter", "name": "efacbe0fdd84b8f68d54d3f004ce9847", "is_disabled": 0, "rental_uris": {"ios": "https://dc.lft.to/lastmile_qr_scan", "android": "https://dc.lft.to/lastmile_qr_scan"}, "is_reserved": 0}, {"lon": -77.03035266666667, "bike_id": "5299da2c632642843636bb005c8f1520", "lat": 38.878383166666666, "fusion_lon": 0.0, "fusion_lat": 0.0, "type": "electric_scooter", "name": "5299da2c632642843636bb005c8f1520", "is_disabled": 0, "rental_uris": {"ios": "https://dc.lft.to/lastmile_qr_scan", "android": "https://dc.lft.to/lastmile_qr_scan"}, "is_reserved": 0}, {"lon": -77.04349983333333, "bike_id": "ec318227fb9b6d73670c27284d6cfdb0", "lat": 38.91056233333333, "fusion_lon": 0.0, "fusion_lat": 0.0, "type": "electric_scooter", "name": "ec318227fb9b6d73670c27284d6cfdb0", "is_disabled": 0, "rental_uris": {"ios": "https://dc.lft.to/lastmile_qr_scan", "android": "https://dc.lft.to/lastmile_qr_scan"}, "is_reserved": 0}, {"lon": -77.01817933333334, "bike_id": "2264edf997d2b7462ffc241eca343bfc", "lat": 38.923701, "fusion_lon": 0.0, "fusion_lat": 0.0, "type": "electric_scooter", "name": "2264edf997d2b7462ffc241eca343bfc", "is_disabled": 0, "rental_uris": {"ios": "https://dc.lft.to/lastmile_qr_scan", "android": "https://dc.lft.to/lastmile_qr_scan"}, "is_reserved": 0}, {"lon": -77.051173, "bike_id": "2f12f3f774dffe3b727f702738b0edc4", "lat": 38.9229925, "fusion_lon": 0.0, "fusion_lat": 0.0, "type": "electric_scooter", "name": "2f12f3f774dffe3b727f702738b0edc4", "is_disabled": 0, "rental_uris": {"ios": "https://dc.lft.to/lastmile_qr_scan", "android": "https://dc.lft.to/lastmile_qr_scan"}, "is_reserved": 0}, {"lon": -77.01307716666666, "bike_id": "8f6ce3cbdfd555490b379b2092db055b", "lat": 38.90735216666667, "fusion_lon": 0.0, "fusion_lat": 0.0, "type": "electric_scooter", "name": "8f6ce3cbdfd555490b379b2092db055b", "is_disabled": 0, "rental_uris": {"ios": "https://dc.lft.to/lastmile_qr_scan", "android": "https://dc.lft.to/lastmile_qr_scan"}, "is_reserved": 0}, {"lon": -77.1389505, "bike_id": "ca16e957e6eca03767ab7066e88d4905", "lat": 38.896744166666664, "fusion_lon": 0.0, "fusion_lat": 0.0, "type": "electric_bike", "name": "ca16e957e6eca03767ab7066e88d4905", "is_disabled": 0, "rental_uris": {"ios": "https://dc.lft.to/lastmile_qr_scan", "android": "https://dc.lft.to/lastmile_qr_scan"}, "is_reserved": 0}, {"lon": -77.059113, "bike_id": "7a8937d4f039efdaa7f2c9f30d3abd84", "lat": 38.903799166666666, "fusion_lon": 0.0, "fusion_lat": 0.0, "type": "electric_scooter", "name": "7a8937d4f039efdaa7f2c9f30d3abd84", "is_disabled": 0, "rental_uris": {"ios": "https://dc.lft.to/lastmile_qr_scan", "android": "https://dc.lft.to/lastmile_qr_scan"}, "is_reserved": 0}, {"lon": -76.980212, "bike_id": "a787a7960d03c66f97b11b49940080f6", "lat": 38.88867716666667, "fusion_lon": 0.0, "fusion_lat": 0.0, "type": "electric_scooter", "name": "a787a7960d03c66f97b11b49940080f6", "is_disabled": 0, "rental_uris": {"ios": "https://dc.lft.to/lastmile_qr_scan", "android": "https://dc.lft.to/lastmile_qr_scan"}, "is_reserved": 0}, {"lon": -77.02697, "bike_id": "2c2413146e79df780aac53f5051b9c20", "lat": 38.915222166666666, "fusion_lon": 0.0, "fusion_lat": 0.0, "type": "electric_scooter", "name": "2c2413146e79df780aac53f5051b9c20", "is_disabled": 0, "rental_uris": {"ios": "https://dc.lft.to/lastmile_qr_scan", "android": "https://dc.lft.to/lastmile_qr_scan"}, "is_reserved": 0}, {"lon": -77.11574783333333, "bike_id": "c0eea0229ac56d6904fc52e26b8c7805", "lat": 38.99346216666667, "fusion_lon": 0.0, "fusion_lat": 0.0, "type": "electric_bike", "name": "c0eea0229ac56d6904fc52e26b8c7805", "is_disabled": 0, "rental_uris": {"ios": "https://dc.lft.to/lastmile_qr_scan", "android": "https://dc.lft.to/lastmile_qr_scan"}, "is_reserved": 0}, {"lon": -77.01966266666666, "bike_id": "28c750775988ae85169a04111a960f7c", "lat": 38.9565435, "fusion_lon": 0.0, "fusion_lat": 0.0, "type": "electric_scooter", "name": "28c750775988ae85169a04111a960f7c", "is_disabled": 0, "rental_uris": {"ios": "https://dc.lft.to/lastmile_qr_scan", "android": "https://dc.lft.to/lastmile_qr_scan"}, "is_reserved": 0}, {"lon": -77.031885, "bike_id": "62cf09a3774f65040d750a040edf9442", "lat": 38.90918333333333, "fusion_lon": 0.0, "fusion_lat": 0.0, "type": "electric_scooter", "name": "62cf09a3774f65040d750a040edf9442", "is_disabled": 0, "rental_uris": {"ios": "https://dc.lft.to/lastmile_qr_scan", "android": "https://dc.lft.to/lastmile_qr_scan"}, "is_reserved": 0}, {"lon": -77.04413, "bike_id": "1cc2bb8268a2f9bb180033dbcc137fcd", "lat": 38.921251166666664, "fusion_lon": 0.0, "fusion_lat": 0.0, "type": "electric_scooter", "name": "1cc2bb8268a2f9bb180033dbcc137fcd", "is_disabled": 0, "rental_uris": {"ios": "https://dc.lft.to/lastmile_qr_scan", "android": "https://dc.lft.to/lastmile_qr_scan"}, "is_reserved": 0}, {"lon": -77.02973616666667, "bike_id": "2190e648f4abc295fcd74ede6d7594c9", "lat": 38.91727916666667, "fusion_lon": 0.0, "fusion_lat": 0.0, "type": "electric_scooter", "name": "2190e648f4abc295fcd74ede6d7594c9", "is_disabled": 0, "rental_uris": {"ios": "https://dc.lft.to/lastmile_qr_scan", "android": "https://dc.lft.to/lastmile_qr_scan"}, "is_reserved": 0}, {"lon": -77.01479683333334, "bike_id": "465343439327d1f802b43e7301b25ed9", "lat": 38.958726, "fusion_lon": 0.0, "fusion_lat": 0.0, "type": "electric_scooter", "name": "465343439327d1f802b43e7301b25ed9", "is_disabled": 0, "rental_uris": {"ios": "https://dc.lft.to/lastmile_qr_scan", "android": "https://dc.lft.to/lastmile_qr_scan"}, "is_reserved": 0}, {"lon": -77.03633666666667, "bike_id": "18e89faf89356bbc46bd674b68538b81", "lat": 38.913096, "fusion_lon": 0.0, "fusion_lat": 0.0, "type": "electric_scooter", "name": "18e89faf89356bbc46bd674b68538b81", "is_disabled": 0, "rental_uris": {"ios": "https://dc.lft.to/lastmile_qr_scan", "android": "https://dc.lft.to/lastmile_qr_scan"}, "is_reserved": 0}, {"lon": -77.02795366666666, "bike_id": "0672c008cd156b44ca1975d6b8ad4eb7", "lat": 38.92371683333333, "fusion_lon": 0.0, "fusion_lat": 0.0, "type": "electric_scooter", "name": "0672c008cd156b44ca1975d6b8ad4eb7", "is_disabled": 0, "rental_uris": {"ios": "https://dc.lft.to/lastmile_qr_scan", "android": "https://dc.lft.to/lastmile_qr_scan"}, "is_reserved": 0}, {"lon": -77.00971816666667, "bike_id": "562c5d35f5a2cde9015ce99cb185f3d1", "lat": 38.91411083333333, "fusion_lon": 0.0, "fusion_lat": 0.0, "type": "electric_scooter", "name": "562c5d35f5a2cde9015ce99cb185f3d1", "is_disabled": 0, "rental_uris": {"ios": "https://dc.lft.to/lastmile_qr_scan", "android": "https://dc.lft.to/lastmile_qr_scan"}, "is_reserved": 0}, {"lon": -77.0387385, "bike_id": "bafa42b6bc4621c4509f65bd1538643f", "lat": 38.91709683333333, "fusion_lon": 0.0, "fusion_lat": 0.0, "type": "electric_scooter", "name": "bafa42b6bc4621c4509f65bd1538643f", "is_disabled": 0, "rental_uris": {"ios": "https://dc.lft.to/lastmile_qr_scan", "android": "https://dc.lft.to/lastmile_qr_scan"}, "is_reserved": 0}, {"lon": -77.04321383333334, "bike_id": "8b7f7ca0213108ebc6ae86bc0ded5a29", "lat": 38.922027666666665, "fusion_lon": 0.0, "fusion_lat": 0.0, "type": "electric_scooter", "name": "8b7f7ca0213108ebc6ae86bc0ded5a29", "is_disabled": 0, "rental_uris": {"ios": "https://dc.lft.to/lastmile_qr_scan", "android": "https://dc.lft.to/lastmile_qr_scan"}, "is_reserved": 0}, {"lon": -77.02707066666666, "bike_id": "1f85c1c7e70731def003f67dbbd6857f", "lat": 38.906642166666664, "fusion_lon": 0.0, "fusion_lat": 0.0, "type": "electric_scooter", "name": "1f85c1c7e70731def003f67dbbd6857f", "is_disabled": 0, "rental_uris": {"ios": "https://dc.lft.to/lastmile_qr_scan", "android": "https://dc.lft.to/lastmile_qr_scan"}, "is_reserved": 0}, {"lon": -77.0358985, "bike_id": "70d1463dd2ac6859ff71d58072200175", "lat": 38.9267555, "fusion_lon": 0.0, "fusion_lat": 0.0, "type": "electric_scooter", "name": "70d1463dd2ac6859ff71d58072200175", "is_disabled": 0, "rental_uris": {"ios": "https://dc.lft.to/lastmile_qr_scan", "android": "https://dc.lft.to/lastmile_qr_scan"}, "is_reserved": 0}, {"lon": -76.93752566666667, "bike_id": "86359a5a6d03d792011020cd7fdb4f5a", "lat": 38.8905045, "fusion_lon": 0.0, "fusion_lat": 0.0, "type": "electric_scooter", "name": "86359a5a6d03d792011020cd7fdb4f5a", "is_disabled": 0, "rental_uris": {"ios": "https://dc.lft.to/lastmile_qr_scan", "android": "https://dc.lft.to/lastmile_qr_scan"}, "is_reserved": 0}, {"lon": -77.11606066666667, "bike_id": "b2e460b0a8f31e92d7ed60f3d1f5545f", "lat": 38.85487633333334, "fusion_lon": 0.0, "fusion_lat": 0.0, "type": "electric_bike", "name": "b2e460b0a8f31e92d7ed60f3d1f5545f", "is_disabled": 0, "rental_uris": {"ios": "https://dc.lft.to/lastmile_qr_scan", "android": "https://dc.lft.to/lastmile_qr_scan"}, "is_reserved": 0}, {"lon": -76.997548, "bike_id": "3b8a764aa9605d64e80a1060b28eecbe", "lat": 38.90133983333333, "fusion_lon": 0.0, "fusion_lat": 0.0, "type": "electric_scooter", "name": "3b8a764aa9605d64e80a1060b28eecbe", "is_disabled": 0, "rental_uris": {"ios": "https://dc.lft.to/lastmile_qr_scan", "android": "https://dc.lft.to/lastmile_qr_scan"}, "is_reserved": 0}, {"lon": -77.00947483333333, "bike_id": "b2deb6b56e4faae1fc62656580eba5f3", "lat": 38.876372833333335, "fusion_lon": 0.0, "fusion_lat": 0.0, "type": "electric_scooter", "name": "b2deb6b56e4faae1fc62656580eba5f3", "is_disabled": 0, "rental_uris": {"ios": "https://dc.lft.to/lastmile_qr_scan", "android": "https://dc.lft.to/lastmile_qr_scan"}, "is_reserved": 0}, {"lon": -76.98114433333333, "bike_id": "5ed017a3ef7521aaebc93d08115437b1", "lat": 38.904074333333334, "fusion_lon": 0.0, "fusion_lat": 0.0, "type": "electric_scooter", "name": "5ed017a3ef7521aaebc93d08115437b1", "is_disabled": 0, "rental_uris": {"ios": "https://dc.lft.to/lastmile_qr_scan", "android": "https://dc.lft.to/lastmile_qr_scan"}, "is_reserved": 0}, {"lon": -76.99023933333334, "bike_id": "c4b8f566a2c2fb8c0a91e9da5ed34a1b", "lat": 38.90154016666666, "fusion_lon": 0.0, "fusion_lat": 0.0, "type": "electric_scooter", "name": "c4b8f566a2c2fb8c0a91e9da5ed34a1b", "is_disabled": 0, "rental_uris": {"ios": "https://dc.lft.to/lastmile_qr_scan", "android": "https://dc.lft.to/lastmile_qr_scan"}, "is_reserved": 0}, {"lon": -77.03263116666666, "bike_id": "17eea40da8e73dc3b8799dac3eada6f4", "lat": 38.91999366666667, "fusion_lon": 0.0, "fusion_lat": 0.0, "type": "electric_scooter", "name": "17eea40da8e73dc3b8799dac3eada6f4", "is_disabled": 0, "rental_uris": {"ios": "https://dc.lft.to/lastmile_qr_scan", "android": "https://dc.lft.to/lastmile_qr_scan"}, "is_reserved": 0}, {"lon": -77.00342566666667, "bike_id": "01e45aa4bbf88fb16874eeb0da3d0cf3", "lat": 38.8993255, "fusion_lon": 0.0, "fusion_lat": 0.0, "type": "electric_scooter", "name": "01e45aa4bbf88fb16874eeb0da3d0cf3", "is_disabled": 0, "rental_uris": {"ios": "https://dc.lft.to/lastmile_qr_scan", "android": "https://dc.lft.to/lastmile_qr_scan"}, "is_reserved": 0}, {"lon": -77.0551175, "bike_id": "4c2fab81173415830ed02e65e2c400b1", "lat": 38.90440516666666, "fusion_lon": 0.0, "fusion_lat": 0.0, "type": "electric_scooter", "name": "4c2fab81173415830ed02e65e2c400b1", "is_disabled": 0, "rental_uris": {"ios": "https://dc.lft.to/lastmile_qr_scan", "android": "https://dc.lft.to/lastmile_qr_scan"}, "is_reserved": 0}, {"lon": -77.0503915, "bike_id": "5048605059265a7b0b9230312283c0c1", "lat": 38.92386583333333, "fusion_lon": 0.0, "fusion_lat": 0.0, "type": "electric_scooter", "name": "5048605059265a7b0b9230312283c0c1", "is_disabled": 0, "rental_uris": {"ios": "https://dc.lft.to/lastmile_qr_scan", "android": "https://dc.lft.to/lastmile_qr_scan"}, "is_reserved": 0}, {"lon": -77.029502, "bike_id": "3088442e9bd76d29dad5b820effa67e9", "lat": 38.921752833333336, "fusion_lon": 0.0, "fusion_lat": 0.0, "type": "electric_scooter", "name": "3088442e9bd76d29dad5b820effa67e9", "is_disabled": 0, "rental_uris": {"ios": "https://dc.lft.to/lastmile_qr_scan", "android": "https://dc.lft.to/lastmile_qr_scan"}, "is_reserved": 0}, {"lon": -77.03263216666667, "bike_id": "3a394026a2310f5e9db43ab446dca349", "lat": 38.94156, "fusion_lon": 0.0, "fusion_lat": 0.0, "type": "electric_scooter", "name": "3a394026a2310f5e9db43ab446dca349", "is_disabled": 0, "rental_uris": {"ios": "https://dc.lft.to/lastmile_qr_scan", "android": "https://dc.lft.to/lastmile_qr_scan"}, "is_reserved": 0}, {"lon": -77.03670216666667, "bike_id": "607c0e19b95461827f5d461e3d2c30d6", "lat": 38.91688383333333, "fusion_lon": 0.0, "fusion_lat": 0.0, "type": "electric_scooter", "name": "607c0e19b95461827f5d461e3d2c30d6", "is_disabled": 0, "rental_uris": {"ios": "https://dc.lft.to/lastmile_qr_scan", "android": "https://dc.lft.to/lastmile_qr_scan"}, "is_reserved": 0}, {"lon": -77.06405233333334, "bike_id": "0b46007f74d25ecc9bb132e690394256", "lat": 38.8405655, "fusion_lon": 0.0, "fusion_lat": 0.0, "type": "electric_bike", "name": "0b46007f74d25ecc9bb132e690394256", "is_disabled": 0, "rental_uris": {"ios": "https://dc.lft.to/lastmile_qr_scan", "android": "https://dc.lft.to/lastmile_qr_scan"}, "is_reserved": 0}, {"lon": -77.036352, "bike_id": "280128c764f3b4469df88720235b6e95", "lat": 38.923444333333336, "fusion_lon": 0.0, "fusion_lat": 0.0, "type": "electric_scooter", "name": "280128c764f3b4469df88720235b6e95", "is_disabled": 0, "rental_uris": {"ios": "https://dc.lft.to/lastmile_qr_scan", "android": "https://dc.lft.to/lastmile_qr_scan"}, "is_reserved": 0}, {"lon": -77.02359383333334, "bike_id": "edd9c57a88e2860717cb486eb4f823f3", "lat": 38.920657166666665, "fusion_lon": 0.0, "fusion_lat": 0.0, "type": "electric_scooter", "name": "edd9c57a88e2860717cb486eb4f823f3", "is_disabled": 0, "rental_uris": {"ios": "https://dc.lft.to/lastmile_qr_scan", "android": "https://dc.lft.to/lastmile_qr_scan"}, "is_reserved": 0}, {"lon": -77.03240833333334, "bike_id": "5663feb239e9fa12dcf6265f4a402f97", "lat": 38.9045545, "fusion_lon": 0.0, "fusion_lat": 0.0, "type": "electric_scooter", "name": "5663feb239e9fa12dcf6265f4a402f97", "is_disabled": 0, "rental_uris": {"ios": "https://dc.lft.to/lastmile_qr_scan", "android": "https://dc.lft.to/lastmile_qr_scan"}, "is_reserved": 0}, {"lon": -77.02167533333333, "bike_id": "790dc0f27e1732ce8fbbed78a9d945c7", "lat": 38.887507, "fusion_lon": 0.0, "fusion_lat": 0.0, "type": "electric_scooter", "name": "790dc0f27e1732ce8fbbed78a9d945c7", "is_disabled": 0, "rental_uris": {"ios": "https://dc.lft.to/lastmile_qr_scan", "android": "https://dc.lft.to/lastmile_qr_scan"}, "is_reserved": 0}, {"lon": -77.02945483333333, "bike_id": "15d16938edafba1c4c02ce8de7a8db0b", "lat": 38.9217345, "fusion_lon": 0.0, "fusion_lat": 0.0, "type": "electric_scooter", "name": "15d16938edafba1c4c02ce8de7a8db0b", "is_disabled": 0, "rental_uris": {"ios": "https://dc.lft.to/lastmile_qr_scan", "android": "https://dc.lft.to/lastmile_qr_scan"}, "is_reserved": 0}, {"lon": -76.97859283333334, "bike_id": "2214d33ca0411e6be3bae207bf4b7373", "lat": 38.87073933333333, "fusion_lon": 0.0, "fusion_lat": 0.0, "type": "electric_scooter", "name": "2214d33ca0411e6be3bae207bf4b7373", "is_disabled": 0, "rental_uris": {"ios": "https://dc.lft.to/lastmile_qr_scan", "android": "https://dc.lft.to/lastmile_qr_scan"}, "is_reserved": 0}, {"lon": -77.01776533333333, "bike_id": "edc17e5967a6ef5b6474de751bf78e37", "lat": 38.901261833333336, "fusion_lon": 0.0, "fusion_lat": 0.0, "type": "electric_scooter", "name": "edc17e5967a6ef5b6474de751bf78e37", "is_disabled": 0, "rental_uris": {"ios": "https://dc.lft.to/lastmile_qr_scan", "android": "https://dc.lft.to/lastmile_qr_scan"}, "is_reserved": 0}, {"lon": -77.02899883333333, "bike_id": "951ebd909d26fb4cafd2414316dc8529", "lat": 38.940430666666664, "fusion_lon": 0.0, "fusion_lat": 0.0, "type": "electric_scooter", "name": "951ebd909d26fb4cafd2414316dc8529", "is_disabled": 0, "rental_uris": {"ios": "https://dc.lft.to/lastmile_qr_scan", "android": "https://dc.lft.to/lastmile_qr_scan"}, "is_reserved": 0}, {"lon": -77.0265465, "bike_id": "544300862183e0355a3910fd3cc1c1e1", "lat": 38.930992833333335, "fusion_lon": 0.0, "fusion_lat": 0.0, "type": "electric_scooter", "name": "544300862183e0355a3910fd3cc1c1e1", "is_disabled": 0, "rental_uris": {"ios": "https://dc.lft.to/lastmile_qr_scan", "android": "https://dc.lft.to/lastmile_qr_scan"}, "is_reserved": 0}, {"lon": -77.00189816666666, "bike_id": "f88533dad48937ddff93e11ddc9e06ef", "lat": 38.9147795, "fusion_lon": 0.0, "fusion_lat": 0.0, "type": "electric_scooter", "name": "f88533dad48937ddff93e11ddc9e06ef", "is_disabled": 0, "rental_uris": {"ios": "https://dc.lft.to/lastmile_qr_scan", "android": "https://dc.lft.to/lastmile_qr_scan"}, "is_reserved": 0}, {"lon": -77.04523583333334, "bike_id": "892dfa33684dbe25a6b68ae4507ecf76", "lat": 38.93529233333334, "fusion_lon": 0.0, "fusion_lat": 0.0, "type": "electric_scooter", "name": "892dfa33684dbe25a6b68ae4507ecf76", "is_disabled": 0, "rental_uris": {"ios": "https://dc.lft.to/lastmile_qr_scan", "android": "https://dc.lft.to/lastmile_qr_scan"}, "is_reserved": 0}, {"lon": -77.02618466666667, "bike_id": "f88f7e8b0524b8f71515be3bbb833f64", "lat": 38.9282395, "fusion_lon": 0.0, "fusion_lat": 0.0, "type": "electric_scooter", "name": "f88f7e8b0524b8f71515be3bbb833f64", "is_disabled": 0, "rental_uris": {"ios": "https://dc.lft.to/lastmile_qr_scan", "android": "https://dc.lft.to/lastmile_qr_scan"}, "is_reserved": 0}, {"lon": -77.00573866666667, "bike_id": "99dfc82aaa668745203c486088d3495a", "lat": 38.905450333333334, "fusion_lon": 0.0, "fusion_lat": 0.0, "type": "electric_scooter", "name": "99dfc82aaa668745203c486088d3495a", "is_disabled": 0, "rental_uris": {"ios": "https://dc.lft.to/lastmile_qr_scan", "android": "https://dc.lft.to/lastmile_qr_scan"}, "is_reserved": 0}, {"lon": -77.02372533333333, "bike_id": "73d1cdf081149c130c91abac6614cc4d", "lat": 38.9010785, "fusion_lon": 0.0, "fusion_lat": 0.0, "type": "electric_scooter", "name": "73d1cdf081149c130c91abac6614cc4d", "is_disabled": 0, "rental_uris": {"ios": "https://dc.lft.to/lastmile_qr_scan", "android": "https://dc.lft.to/lastmile_qr_scan"}, "is_reserved": 0}, {"lon": -76.9836, "bike_id": "5e0ca236dba13d510299633efcd81a01", "lat": 38.915428, "fusion_lon": 0.0, "fusion_lat": 0.0, "type": "electric_scooter", "name": "5e0ca236dba13d510299633efcd81a01", "is_disabled": 0, "rental_uris": {"ios": "https://dc.lft.to/lastmile_qr_scan", "android": "https://dc.lft.to/lastmile_qr_scan"}, "is_reserved": 0}, {"lon": -77.03634816666667, "bike_id": "6c7c49a7cc10d76ffc3f5ff8699e26d9", "lat": 38.936051666666664, "fusion_lon": 0.0, "fusion_lat": 0.0, "type": "electric_scooter", "name": "6c7c49a7cc10d76ffc3f5ff8699e26d9", "is_disabled": 0, "rental_uris": {"ios": "https://dc.lft.to/lastmile_qr_scan", "android": "https://dc.lft.to/lastmile_qr_scan"}, "is_reserved": 0}, {"lon": -76.985653, "bike_id": "f1406f6890b3bba4a20f70e40771191e", "lat": 38.90638516666667, "fusion_lon": 0.0, "fusion_lat": 0.0, "type": "electric_scooter", "name": "f1406f6890b3bba4a20f70e40771191e", "is_disabled": 0, "rental_uris": {"ios": "https://dc.lft.to/lastmile_qr_scan", "android": "https://dc.lft.to/lastmile_qr_scan"}, "is_reserved": 0}, {"lon": -77.02445933333334, "bike_id": "b8aae3ff22829d85ff76e6d69bdc208a", "lat": 38.899873166666666, "fusion_lon": 0.0, "fusion_lat": 0.0, "type": "electric_scooter", "name": "b8aae3ff22829d85ff76e6d69bdc208a", "is_disabled": 0, "rental_uris": {"ios": "https://dc.lft.to/lastmile_qr_scan", "android": "https://dc.lft.to/lastmile_qr_scan"}, "is_reserved": 0}, {"lon": -77.02516966666667, "bike_id": "853de88d6269ee6da6d793b8ee5cc2cb", "lat": 38.942067, "fusion_lon": 0.0, "fusion_lat": 0.0, "type": "electric_scooter", "name": "853de88d6269ee6da6d793b8ee5cc2cb", "is_disabled": 0, "rental_uris": {"ios": "https://dc.lft.to/lastmile_qr_scan", "android": "https://dc.lft.to/lastmile_qr_scan"}, "is_reserved": 0}, {"lon": -76.99501083333334, "bike_id": "81d585d790bd9f6ca08f9a8b04938328", "lat": 38.897702333333335, "fusion_lon": 0.0, "fusion_lat": 0.0, "type": "electric_scooter", "name": "81d585d790bd9f6ca08f9a8b04938328", "is_disabled": 0, "rental_uris": {"ios": "https://dc.lft.to/lastmile_qr_scan", "android": "https://dc.lft.to/lastmile_qr_scan"}, "is_reserved": 0}, {"lon": -77.04177066666666, "bike_id": "e2b88db7c75ccf3423a1bc57d992aa8a", "lat": 38.90106333333333, "fusion_lon": 0.0, "fusion_lat": 0.0, "type": "electric_scooter", "name": "e2b88db7c75ccf3423a1bc57d992aa8a", "is_disabled": 0, "rental_uris": {"ios": "https://dc.lft.to/lastmile_qr_scan", "android": "https://dc.lft.to/lastmile_qr_scan"}, "is_reserved": 0}, {"lon": -77.00216033333334, "bike_id": "3774fba0d5914d2115fd18432089fe1c", "lat": 38.90052716666667, "fusion_lon": 0.0, "fusion_lat": 0.0, "type": "electric_scooter", "name": "3774fba0d5914d2115fd18432089fe1c", "is_disabled": 0, "rental_uris": {"ios": "https://dc.lft.to/lastmile_qr_scan", "android": "https://dc.lft.to/lastmile_qr_scan"}, "is_reserved": 0}, {"lon": -77.01747566666667, "bike_id": "c37b6b9385a5824b42ea2d6ad806d125", "lat": 38.88201816666667, "fusion_lon": 0.0, "fusion_lat": 0.0, "type": "electric_scooter", "name": "c37b6b9385a5824b42ea2d6ad806d125", "is_disabled": 0, "rental_uris": {"ios": "https://dc.lft.to/lastmile_qr_scan", "android": "https://dc.lft.to/lastmile_qr_scan"}, "is_reserved": 0}, {"lon": -77.011594, "bike_id": "ce5fbe5ce9dbc280d9d830f33287c409", "lat": 38.895829166666665, "fusion_lon": 0.0, "fusion_lat": 0.0, "type": "electric_scooter", "name": "ce5fbe5ce9dbc280d9d830f33287c409", "is_disabled": 0, "rental_uris": {"ios": "https://dc.lft.to/lastmile_qr_scan", "android": "https://dc.lft.to/lastmile_qr_scan"}, "is_reserved": 0}, {"lon": -76.99701033333334, "bike_id": "92db0952c2a58c36f99bcee63da46458", "lat": 38.8442915, "fusion_lon": 0.0, "fusion_lat": 0.0, "type": "electric_scooter", "name": "92db0952c2a58c36f99bcee63da46458", "is_disabled": 0, "rental_uris": {"ios": "https://dc.lft.to/lastmile_qr_scan", "android": "https://dc.lft.to/lastmile_qr_scan"}, "is_reserved": 0}, {"lon": -77.00535733333334, "bike_id": "1531105a67cf79b6a6979733d3cdafb0", "lat": 38.87545083333333, "fusion_lon": 0.0, "fusion_lat": 0.0, "type": "electric_scooter", "name": "1531105a67cf79b6a6979733d3cdafb0", "is_disabled": 0, "rental_uris": {"ios": "https://dc.lft.to/lastmile_qr_scan", "android": "https://dc.lft.to/lastmile_qr_scan"}, "is_reserved": 0}, {"lon": -77.03659116666667, "bike_id": "6803bfe28018ef113dcc22acc8f25aab", "lat": 38.91736566666667, "fusion_lon": 0.0, "fusion_lat": 0.0, "type": "electric_scooter", "name": "6803bfe28018ef113dcc22acc8f25aab", "is_disabled": 0, "rental_uris": {"ios": "https://dc.lft.to/lastmile_qr_scan", "android": "https://dc.lft.to/lastmile_qr_scan"}, "is_reserved": 0}, {"lon": -77.000992, "bike_id": "419d70c152cb52880dffb5f00bf99b8f", "lat": 38.873719, "fusion_lon": 0.0, "fusion_lat": 0.0, "type": "electric_scooter", "name": "419d70c152cb52880dffb5f00bf99b8f", "is_disabled": 0, "rental_uris": {"ios": "https://dc.lft.to/lastmile_qr_scan", "android": "https://dc.lft.to/lastmile_qr_scan"}, "is_reserved": 0}, {"lon": -76.98334416666667, "bike_id": "9d53ed592eb824953c83c6a4d5182d8d", "lat": 38.8954555, "fusion_lon": 0.0, "fusion_lat": 0.0, "type": "electric_scooter", "name": "9d53ed592eb824953c83c6a4d5182d8d", "is_disabled": 0, "rental_uris": {"ios": "https://dc.lft.to/lastmile_qr_scan", "android": "https://dc.lft.to/lastmile_qr_scan"}, "is_reserved": 0}, {"lon": -77.076086, "bike_id": "33cb30b67176994dea28c0e948ba411d", "lat": 38.920554833333334, "fusion_lon": 0.0, "fusion_lat": 0.0, "type": "electric_scooter", "name": "33cb30b67176994dea28c0e948ba411d", "is_disabled": 0, "rental_uris": {"ios": "https://dc.lft.to/lastmile_qr_scan", "android": "https://dc.lft.to/lastmile_qr_scan"}, "is_reserved": 0}, {"lon": -76.9788645, "bike_id": "deb86f1c1d8c7ce9fa7a102d7a62c772", "lat": 38.88539016666667, "fusion_lon": 0.0, "fusion_lat": 0.0, "type": "electric_scooter", "name": "deb86f1c1d8c7ce9fa7a102d7a62c772", "is_disabled": 0, "rental_uris": {"ios": "https://dc.lft.to/lastmile_qr_scan", "android": "https://dc.lft.to/lastmile_qr_scan"}, "is_reserved": 0}, {"lon": -77.03158333333333, "bike_id": "adad96c577fadd7625b7d308834f8482", "lat": 38.8922135, "fusion_lon": 0.0, "fusion_lat": 0.0, "type": "electric_scooter", "name": "adad96c577fadd7625b7d308834f8482", "is_disabled": 0, "rental_uris": {"ios": "https://dc.lft.to/lastmile_qr_scan", "android": "https://dc.lft.to/lastmile_qr_scan"}, "is_reserved": 0}, {"lon": -77.12424316666667, "bike_id": "24b86a3d480f58af2dd0884a78e65b8c", "lat": 38.877172333333334, "fusion_lon": 0.0, "fusion_lat": 0.0, "type": "electric_bike", "name": "24b86a3d480f58af2dd0884a78e65b8c", "is_disabled": 0, "rental_uris": {"ios": "https://dc.lft.to/lastmile_qr_scan", "android": "https://dc.lft.to/lastmile_qr_scan"}, "is_reserved": 0}, {"lon": -77.0325615, "bike_id": "bc6011cd4741a94745abf1b71742cc12", "lat": 38.92768, "fusion_lon": 0.0, "fusion_lat": 0.0, "type": "electric_scooter", "name": "bc6011cd4741a94745abf1b71742cc12", "is_disabled": 0, "rental_uris": {"ios": "https://dc.lft.to/lastmile_qr_scan", "android": "https://dc.lft.to/lastmile_qr_scan"}, "is_reserved": 0}, {"lon": -76.9760085, "bike_id": "7b9e0f8dffd22c1e9ef2beda76bd7e92", "lat": 38.897536, "fusion_lon": 0.0, "fusion_lat": 0.0, "type": "electric_scooter", "name": "7b9e0f8dffd22c1e9ef2beda76bd7e92", "is_disabled": 0, "rental_uris": {"ios": "https://dc.lft.to/lastmile_qr_scan", "android": "https://dc.lft.to/lastmile_qr_scan"}, "is_reserved": 0}, {"lon": -77.0238, "bike_id": "fcea104ea6461da2478395e4fc0345f4", "lat": 38.9093395, "fusion_lon": 0.0, "fusion_lat": 0.0, "type": "electric_scooter", "name": "fcea104ea6461da2478395e4fc0345f4", "is_disabled": 0, "rental_uris": {"ios": "https://dc.lft.to/lastmile_qr_scan", "android": "https://dc.lft.to/lastmile_qr_scan"}, "is_reserved": 0}, {"lon": -76.98169933333334, "bike_id": "5779c8f7f78affebe2d288addf53ada3", "lat": 38.904443, "fusion_lon": 0.0, "fusion_lat": 0.0, "type": "electric_scooter", "name": "5779c8f7f78affebe2d288addf53ada3", "is_disabled": 0, "rental_uris": {"ios": "https://dc.lft.to/lastmile_qr_scan", "android": "https://dc.lft.to/lastmile_qr_scan"}, "is_reserved": 0}, {"lon": -77.02162383333334, "bike_id": "fcd102fbe2c64e153233cc30bf5444a7", "lat": 38.90972883333333, "fusion_lon": 0.0, "fusion_lat": 0.0, "type": "electric_scooter", "name": "fcd102fbe2c64e153233cc30bf5444a7", "is_disabled": 0, "rental_uris": {"ios": "https://dc.lft.to/lastmile_qr_scan", "android": "https://dc.lft.to/lastmile_qr_scan"}, "is_reserved": 0}, {"lon": -77.02163, "bike_id": "a23d5bd5d82cc8c07f2238a7599025dd", "lat": 38.8929935, "fusion_lon": 0.0, "fusion_lat": 0.0, "type": "electric_scooter", "name": "a23d5bd5d82cc8c07f2238a7599025dd", "is_disabled": 0, "rental_uris": {"ios": "https://dc.lft.to/lastmile_qr_scan", "android": "https://dc.lft.to/lastmile_qr_scan"}, "is_reserved": 0}, {"lon": -77.02270266666666, "bike_id": "10794cf8cad1b4db030dff6caba6ca58", "lat": 38.8948935, "fusion_lon": 0.0, "fusion_lat": 0.0, "type": "electric_scooter", "name": "10794cf8cad1b4db030dff6caba6ca58", "is_disabled": 0, "rental_uris": {"ios": "https://dc.lft.to/lastmile_qr_scan", "android": "https://dc.lft.to/lastmile_qr_scan"}, "is_reserved": 0}, {"lon": -77.02345783333334, "bike_id": "699941e099caf238249398c2e236a884", "lat": 38.9224935, "fusion_lon": 0.0, "fusion_lat": 0.0, "type": "electric_scooter", "name": "699941e099caf238249398c2e236a884", "is_disabled": 0, "rental_uris": {"ios": "https://dc.lft.to/lastmile_qr_scan", "android": "https://dc.lft.to/lastmile_qr_scan"}, "is_reserved": 0}, {"lon": -76.98105766666667, "bike_id": "d1de77eab052a82c446f252b5318d8ee", "lat": 38.904097666666665, "fusion_lon": 0.0, "fusion_lat": 0.0, "type": "electric_scooter", "name": "d1de77eab052a82c446f252b5318d8ee", "is_disabled": 0, "rental_uris": {"ios": "https://dc.lft.to/lastmile_qr_scan", "android": "https://dc.lft.to/lastmile_qr_scan"}, "is_reserved": 0}, {"lon": -76.98682866666667, "bike_id": "631321b42454d5de839d573fc1b80dfb", "lat": 38.91215233333333, "fusion_lon": 0.0, "fusion_lat": 0.0, "type": "electric_scooter", "name": "631321b42454d5de839d573fc1b80dfb", "is_disabled": 0, "rental_uris": {"ios": "https://dc.lft.to/lastmile_qr_scan", "android": "https://dc.lft.to/lastmile_qr_scan"}, "is_reserved": 0}, {"lon": -77.02586533333333, "bike_id": "d9d6694266ed8ccd1376ab78c51f1dee", "lat": 38.8922955, "fusion_lon": 0.0, "fusion_lat": 0.0, "type": "electric_scooter", "name": "d9d6694266ed8ccd1376ab78c51f1dee", "is_disabled": 0, "rental_uris": {"ios": "https://dc.lft.to/lastmile_qr_scan", "android": "https://dc.lft.to/lastmile_qr_scan"}, "is_reserved": 0}, {"lon": -76.99766533333333, "bike_id": "232f313bba432afa2ae0086872f84993", "lat": 38.924495, "fusion_lon": 0.0, "fusion_lat": 0.0, "type": "electric_scooter", "name": "232f313bba432afa2ae0086872f84993", "is_disabled": 0, "rental_uris": {"ios": "https://dc.lft.to/lastmile_qr_scan", "android": "https://dc.lft.to/lastmile_qr_scan"}, "is_reserved": 0}, {"lon": -77.030728, "bike_id": "9e6bb84780bceeff3f0f7e7cedec91af", "lat": 38.885865833333334, "fusion_lon": 0.0, "fusion_lat": 0.0, "type": "electric_scooter", "name": "9e6bb84780bceeff3f0f7e7cedec91af", "is_disabled": 0, "rental_uris": {"ios": "https://dc.lft.to/lastmile_qr_scan", "android": "https://dc.lft.to/lastmile_qr_scan"}, "is_reserved": 0}, {"lon": -77.0034275, "bike_id": "12cbd82adf9441161cfa0b017096d6df", "lat": 38.89524883333333, "fusion_lon": 0.0, "fusion_lat": 0.0, "type": "electric_scooter", "name": "12cbd82adf9441161cfa0b017096d6df", "is_disabled": 0, "rental_uris": {"ios": "https://dc.lft.to/lastmile_qr_scan", "android": "https://dc.lft.to/lastmile_qr_scan"}, "is_reserved": 0}, {"lon": -77.02105083333333, "bike_id": "e09b57b7153e8c6665fc6ca21b8d8528", "lat": 38.9300505, "fusion_lon": 0.0, "fusion_lat": 0.0, "type": "electric_scooter", "name": "e09b57b7153e8c6665fc6ca21b8d8528", "is_disabled": 0, "rental_uris": {"ios": "https://dc.lft.to/lastmile_qr_scan", "android": "https://dc.lft.to/lastmile_qr_scan"}, "is_reserved": 0}, {"lon": -77.00044316666667, "bike_id": "e98522a00e65fe172765f894a815692f", "lat": 38.90013716666667, "fusion_lon": 0.0, "fusion_lat": 0.0, "type": "electric_scooter", "name": "e98522a00e65fe172765f894a815692f", "is_disabled": 0, "rental_uris": {"ios": "https://dc.lft.to/lastmile_qr_scan", "android": "https://dc.lft.to/lastmile_qr_scan"}, "is_reserved": 0}, {"lon": -77.029908, "bike_id": "9f1f2a4ace319e14938d2c1df22b551c", "lat": 38.974405, "fusion_lon": 0.0, "fusion_lat": 0.0, "type": "electric_bike", "name": "9f1f2a4ace319e14938d2c1df22b551c", "is_disabled": 0, "rental_uris": {"ios": "https://dc.lft.to/lastmile_qr_scan", "android": "https://dc.lft.to/lastmile_qr_scan"}, "is_reserved": 0}, {"lon": -77.04865233333334, "bike_id": "8c2d0f6b8f03a702f3321b7cdc7d15b1", "lat": 38.892224, "fusion_lon": 0.0, "fusion_lat": 0.0, "type": "electric_scooter", "name": "8c2d0f6b8f03a702f3321b7cdc7d15b1", "is_disabled": 0, "rental_uris": {"ios": "https://dc.lft.to/lastmile_qr_scan", "android": "https://dc.lft.to/lastmile_qr_scan"}, "is_reserved": 0}, {"lon": -77.01888983333333, "bike_id": "f1a1b7846eaf89fdd0d020afb5240610", "lat": 38.914884666666666, "fusion_lon": 0.0, "fusion_lat": 0.0, "type": "electric_scooter", "name": "f1a1b7846eaf89fdd0d020afb5240610", "is_disabled": 0, "rental_uris": {"ios": "https://dc.lft.to/lastmile_qr_scan", "android": "https://dc.lft.to/lastmile_qr_scan"}, "is_reserved": 0}, {"lon": -77.047385, "bike_id": "a8cfa818c87cdb59694426b7d85a0ced", "lat": 38.90985083333333, "fusion_lon": 0.0, "fusion_lat": 0.0, "type": "electric_scooter", "name": "a8cfa818c87cdb59694426b7d85a0ced", "is_disabled": 0, "rental_uris": {"ios": "https://dc.lft.to/lastmile_qr_scan", "android": "https://dc.lft.to/lastmile_qr_scan"}, "is_reserved": 0}, {"lon": -77.043741, "bike_id": "43bc2c87445f37c0e4667598bd10a92c", "lat": 38.905787, "fusion_lon": 0.0, "fusion_lat": 0.0, "type": "electric_scooter", "name": "43bc2c87445f37c0e4667598bd10a92c", "is_disabled": 0, "rental_uris": {"ios": "https://dc.lft.to/lastmile_qr_scan", "android": "https://dc.lft.to/lastmile_qr_scan"}, "is_reserved": 0}, {"lon": -77.032541, "bike_id": "0de492e9545ec7370f75a68b268c0c2f", "lat": 38.90855466666667, "fusion_lon": 0.0, "fusion_lat": 0.0, "type": "electric_scooter", "name": "0de492e9545ec7370f75a68b268c0c2f", "is_disabled": 0, "rental_uris": {"ios": "https://dc.lft.to/lastmile_qr_scan", "android": "https://dc.lft.to/lastmile_qr_scan"}, "is_reserved": 0}, {"lon": -77.033411, "bike_id": "0691f42a15650dd9fb9f590effab75ac", "lat": 38.899624833333334, "fusion_lon": 0.0, "fusion_lat": 0.0, "type": "electric_scooter", "name": "0691f42a15650dd9fb9f590effab75ac", "is_disabled": 0, "rental_uris": {"ios": "https://dc.lft.to/lastmile_qr_scan", "android": "https://dc.lft.to/lastmile_qr_scan"}, "is_reserved": 0}, {"lon": -77.00635833333334, "bike_id": "78a41ec6ad3a3a5349e79e76ce8fb1d7", "lat": 38.95599766666667, "fusion_lon": 0.0, "fusion_lat": 0.0, "type": "electric_scooter", "name": "78a41ec6ad3a3a5349e79e76ce8fb1d7", "is_disabled": 0, "rental_uris": {"ios": "https://dc.lft.to/lastmile_qr_scan", "android": "https://dc.lft.to/lastmile_qr_scan"}, "is_reserved": 0}, {"lon": -77.01103366666666, "bike_id": "ae485796c905f99f2df323c0d95a4b0d", "lat": 38.90378183333333, "fusion_lon": 0.0, "fusion_lat": 0.0, "type": "electric_scooter", "name": "ae485796c905f99f2df323c0d95a4b0d", "is_disabled": 0, "rental_uris": {"ios": "https://dc.lft.to/lastmile_qr_scan", "android": "https://dc.lft.to/lastmile_qr_scan"}, "is_reserved": 0}, {"lon": -76.996063, "bike_id": "1a1e506e17b784a31dd6c36af3edf66b", "lat": 38.925510333333335, "fusion_lon": 0.0, "fusion_lat": 0.0, "type": "electric_scooter", "name": "1a1e506e17b784a31dd6c36af3edf66b", "is_disabled": 0, "rental_uris": {"ios": "https://dc.lft.to/lastmile_qr_scan", "android": "https://dc.lft.to/lastmile_qr_scan"}, "is_reserved": 0}, {"lon": -77.0271605, "bike_id": "384a5e8872cc89b492d077029f5461b6", "lat": 38.911827, "fusion_lon": 0.0, "fusion_lat": 0.0, "type": "electric_scooter", "name": "384a5e8872cc89b492d077029f5461b6", "is_disabled": 0, "rental_uris": {"ios": "https://dc.lft.to/lastmile_qr_scan", "android": "https://dc.lft.to/lastmile_qr_scan"}, "is_reserved": 0}, {"lon": -76.98463216666667, "bike_id": "eacd291fea6e342376e813c4ff1afd4a", "lat": 38.909751666666665, "fusion_lon": 0.0, "fusion_lat": 0.0, "type": "electric_bike", "name": "eacd291fea6e342376e813c4ff1afd4a", "is_disabled": 0, "rental_uris": {"ios": "https://dc.lft.to/lastmile_qr_scan", "android": "https://dc.lft.to/lastmile_qr_scan"}, "is_reserved": 0}, {"lon": -77.02372566666666, "bike_id": "dac0f19310e1a27cfd59413dbaeb7857", "lat": 38.92662583333333, "fusion_lon": 0.0, "fusion_lat": 0.0, "type": "electric_scooter", "name": "dac0f19310e1a27cfd59413dbaeb7857", "is_disabled": 0, "rental_uris": {"ios": "https://dc.lft.to/lastmile_qr_scan", "android": "https://dc.lft.to/lastmile_qr_scan"}, "is_reserved": 0}, {"lon": -77.03871983333333, "bike_id": "81b393eebbd7ac294e3ca4b34884fa56", "lat": 38.92311133333333, "fusion_lon": 0.0, "fusion_lat": 0.0, "type": "electric_scooter", "name": "81b393eebbd7ac294e3ca4b34884fa56", "is_disabled": 0, "rental_uris": {"ios": "https://dc.lft.to/lastmile_qr_scan", "android": "https://dc.lft.to/lastmile_qr_scan"}, "is_reserved": 0}, {"lon": -77.03341516666667, "bike_id": "f8ba7b869e47f0c2fc8a8f9921458019", "lat": 38.917005833333334, "fusion_lon": 0.0, "fusion_lat": 0.0, "type": "electric_scooter", "name": "f8ba7b869e47f0c2fc8a8f9921458019", "is_disabled": 0, "rental_uris": {"ios": "https://dc.lft.to/lastmile_qr_scan", "android": "https://dc.lft.to/lastmile_qr_scan"}, "is_reserved": 0}, {"lon": -77.048974, "bike_id": "3dec385586836a1670a279532ee1ab84", "lat": 38.890035833333336, "fusion_lon": 0.0, "fusion_lat": 0.0, "type": "electric_scooter", "name": "3dec385586836a1670a279532ee1ab84", "is_disabled": 0, "rental_uris": {"ios": "https://dc.lft.to/lastmile_qr_scan", "android": "https://dc.lft.to/lastmile_qr_scan"}, "is_reserved": 0}, {"lon": -77.01298383333334, "bike_id": "7222ff317a54ec31231a9ea49228445a", "lat": 38.92999966666667, "fusion_lon": 0.0, "fusion_lat": 0.0, "type": "electric_scooter", "name": "7222ff317a54ec31231a9ea49228445a", "is_disabled": 0, "rental_uris": {"ios": "https://dc.lft.to/lastmile_qr_scan", "android": "https://dc.lft.to/lastmile_qr_scan"}, "is_reserved": 0}, {"lon": -77.020884, "bike_id": "e21301492580c8997df7d5d2cbe7509b", "lat": 38.957506, "fusion_lon": 0.0, "fusion_lat": 0.0, "type": "electric_scooter", "name": "e21301492580c8997df7d5d2cbe7509b", "is_disabled": 0, "rental_uris": {"ios": "https://dc.lft.to/lastmile_qr_scan", "android": "https://dc.lft.to/lastmile_qr_scan"}, "is_reserved": 0}, {"lon": -77.0277145, "bike_id": "ce2cbc42991d0b76f23babe9b14f9860", "lat": 38.89699133333333, "fusion_lon": 0.0, "fusion_lat": 0.0, "type": "electric_scooter", "name": "ce2cbc42991d0b76f23babe9b14f9860", "is_disabled": 0, "rental_uris": {"ios": "https://dc.lft.to/lastmile_qr_scan", "android": "https://dc.lft.to/lastmile_qr_scan"}, "is_reserved": 0}, {"lon": -76.96059766666667, "bike_id": "c7bc2858084d94fa25c45f0bb7e46b6c", "lat": 38.884045, "fusion_lon": 0.0, "fusion_lat": 0.0, "type": "electric_bike", "name": "c7bc2858084d94fa25c45f0bb7e46b6c", "is_disabled": 0, "rental_uris": {"ios": "https://dc.lft.to/lastmile_qr_scan", "android": "https://dc.lft.to/lastmile_qr_scan"}, "is_reserved": 0}, {"lon": -77.048623, "bike_id": "7da05638a02a3f84141388240d7ed8c7", "lat": 38.904426666666666, "fusion_lon": 0.0, "fusion_lat": 0.0, "type": "electric_scooter", "name": "7da05638a02a3f84141388240d7ed8c7", "is_disabled": 0, "rental_uris": {"ios": "https://dc.lft.to/lastmile_qr_scan", "android": "https://dc.lft.to/lastmile_qr_scan"}, "is_reserved": 0}, {"lon": -76.98704266666667, "bike_id": "d5025b18f4dec63bdbff7d5d53e29c00", "lat": 38.86542083333333, "fusion_lon": 0.0, "fusion_lat": 0.0, "type": "electric_scooter", "name": "d5025b18f4dec63bdbff7d5d53e29c00", "is_disabled": 0, "rental_uris": {"ios": "https://dc.lft.to/lastmile_qr_scan", "android": "https://dc.lft.to/lastmile_qr_scan"}, "is_reserved": 0}, {"lon": -77.04239933333334, "bike_id": "9d81f384e07cf3390f1387d953ef0f30", "lat": 38.91059583333333, "fusion_lon": 0.0, "fusion_lat": 0.0, "type": "electric_scooter", "name": "9d81f384e07cf3390f1387d953ef0f30", "is_disabled": 0, "rental_uris": {"ios": "https://dc.lft.to/lastmile_qr_scan", "android": "https://dc.lft.to/lastmile_qr_scan"}, "is_reserved": 0}, {"lon": -77.04932183333334, "bike_id": "fe6b7d2a5844890d8fe3b0cff28bbd0d", "lat": 38.91829833333333, "fusion_lon": 0.0, "fusion_lat": 0.0, "type": "electric_scooter", "name": "fe6b7d2a5844890d8fe3b0cff28bbd0d", "is_disabled": 0, "rental_uris": {"ios": "https://dc.lft.to/lastmile_qr_scan", "android": "https://dc.lft.to/lastmile_qr_scan"}, "is_reserved": 0}, {"lon": -76.97277916666667, "bike_id": "c7dffb45dcbdad689174430b8f67883f", "lat": 38.91451433333334, "fusion_lon": 0.0, "fusion_lat": 0.0, "type": "electric_bike", "name": "c7dffb45dcbdad689174430b8f67883f", "is_disabled": 0, "rental_uris": {"ios": "https://dc.lft.to/lastmile_qr_scan", "android": "https://dc.lft.to/lastmile_qr_scan"}, "is_reserved": 0}, {"lon": -77.0229045, "bike_id": "2ba06eb46c36863cec62fc3f9adc4cb0", "lat": 38.92660933333333, "fusion_lon": 0.0, "fusion_lat": 0.0, "type": "electric_scooter", "name": "2ba06eb46c36863cec62fc3f9adc4cb0", "is_disabled": 0, "rental_uris": {"ios": "https://dc.lft.to/lastmile_qr_scan", "android": "https://dc.lft.to/lastmile_qr_scan"}, "is_reserved": 0}, {"lon": -76.99608116666667, "bike_id": "831dd0c0b37f664371b17397153bdbd2", "lat": 38.9096345, "fusion_lon": 0.0, "fusion_lat": 0.0, "type": "electric_scooter", "name": "831dd0c0b37f664371b17397153bdbd2", "is_disabled": 0, "rental_uris": {"ios": "https://dc.lft.to/lastmile_qr_scan", "android": "https://dc.lft.to/lastmile_qr_scan"}, "is_reserved": 0}, {"lon": -77.03845966666667, "bike_id": "4985bfb380b6bae3304baeafeea04c3d", "lat": 38.9073025, "fusion_lon": 0.0, "fusion_lat": 0.0, "type": "electric_scooter", "name": "4985bfb380b6bae3304baeafeea04c3d", "is_disabled": 0, "rental_uris": {"ios": "https://dc.lft.to/lastmile_qr_scan", "android": "https://dc.lft.to/lastmile_qr_scan"}, "is_reserved": 0}, {"lon": -76.99332616666666, "bike_id": "8543ea468d33aa9c2feda9c42cba2ab8", "lat": 38.87143716666667, "fusion_lon": 0.0, "fusion_lat": 0.0, "type": "electric_scooter", "name": "8543ea468d33aa9c2feda9c42cba2ab8", "is_disabled": 0, "rental_uris": {"ios": "https://dc.lft.to/lastmile_qr_scan", "android": "https://dc.lft.to/lastmile_qr_scan"}, "is_reserved": 0}, {"lon": -76.988615, "bike_id": "48277869ef023a2302e410750148e6c0", "lat": 38.95483, "fusion_lon": 0.0, "fusion_lat": 0.0, "type": "electric_bike", "name": "48277869ef023a2302e410750148e6c0", "is_disabled": 0, "rental_uris": {"ios": "https://dc.lft.to/lastmile_qr_scan", "android": "https://dc.lft.to/lastmile_qr_scan"}, "is_reserved": 0}, {"lon": -77.073568, "bike_id": "b6fabeb431196972fa570b0bf5910092", "lat": 38.930587, "fusion_lon": 0.0, "fusion_lat": 0.0, "type": "electric_bike", "name": "b6fabeb431196972fa570b0bf5910092", "is_disabled": 0, "rental_uris": {"ios": "https://dc.lft.to/lastmile_qr_scan", "android": "https://dc.lft.to/lastmile_qr_scan"}, "is_reserved": 0}, {"lon": -76.98725483333334, "bike_id": "a2302e1d49e115471fbfe40d43263d9e", "lat": 38.86706516666667, "fusion_lon": 0.0, "fusion_lat": 0.0, "type": "electric_scooter", "name": "a2302e1d49e115471fbfe40d43263d9e", "is_disabled": 0, "rental_uris": {"ios": "https://dc.lft.to/lastmile_qr_scan", "android": "https://dc.lft.to/lastmile_qr_scan"}, "is_reserved": 0}, {"lon": -77.03333783333333, "bike_id": "0c20e11d5622fbbdf21afbf433ef3d9e", "lat": 38.936415833333335, "fusion_lon": 0.0, "fusion_lat": 0.0, "type": "electric_scooter", "name": "0c20e11d5622fbbdf21afbf433ef3d9e", "is_disabled": 0, "rental_uris": {"ios": "https://dc.lft.to/lastmile_qr_scan", "android": "https://dc.lft.to/lastmile_qr_scan"}, "is_reserved": 0}, {"lon": -76.9488565, "bike_id": "1398270ffc7586d301de43ed15f5d4ac", "lat": 38.89511183333333, "fusion_lon": 0.0, "fusion_lat": 0.0, "type": "electric_scooter", "name": "1398270ffc7586d301de43ed15f5d4ac", "is_disabled": 0, "rental_uris": {"ios": "https://dc.lft.to/lastmile_qr_scan", "android": "https://dc.lft.to/lastmile_qr_scan"}, "is_reserved": 0}, {"lon": -77.016417, "bike_id": "b310a08d67a506d9fdc80b33316c130c", "lat": 38.905727666666664, "fusion_lon": 0.0, "fusion_lat": 0.0, "type": "electric_scooter", "name": "b310a08d67a506d9fdc80b33316c130c", "is_disabled": 0, "rental_uris": {"ios": "https://dc.lft.to/lastmile_qr_scan", "android": "https://dc.lft.to/lastmile_qr_scan"}, "is_reserved": 0}, {"lon": -77.03937116666667, "bike_id": "28ba06b31d63af2ddddd143ca456046c", "lat": 38.90559716666667, "fusion_lon": 0.0, "fusion_lat": 0.0, "type": "electric_scooter", "name": "28ba06b31d63af2ddddd143ca456046c", "is_disabled": 0, "rental_uris": {"ios": "https://dc.lft.to/lastmile_qr_scan", "android": "https://dc.lft.to/lastmile_qr_scan"}, "is_reserved": 0}, {"lon": -77.0003915, "bike_id": "319f57a11a54d6072c79f709865aa4a5", "lat": 38.92395616666667, "fusion_lon": 0.0, "fusion_lat": 0.0, "type": "electric_scooter", "name": "319f57a11a54d6072c79f709865aa4a5", "is_disabled": 0, "rental_uris": {"ios": "https://dc.lft.to/lastmile_qr_scan", "android": "https://dc.lft.to/lastmile_qr_scan"}, "is_reserved": 0}, {"lon": -76.970468, "bike_id": "a46a2ed452deb9672da8496061c16107", "lat": 38.89774083333333, "fusion_lon": 0.0, "fusion_lat": 0.0, "type": "electric_scooter", "name": "a46a2ed452deb9672da8496061c16107", "is_disabled": 0, "rental_uris": {"ios": "https://dc.lft.to/lastmile_qr_scan", "android": "https://dc.lft.to/lastmile_qr_scan"}, "is_reserved": 0}, {"lon": -77.05722383333334, "bike_id": "199cef6138be2385ba864a6a918dc1aa", "lat": 38.933649833333334, "fusion_lon": 0.0, "fusion_lat": 0.0, "type": "electric_scooter", "name": "199cef6138be2385ba864a6a918dc1aa", "is_disabled": 0, "rental_uris": {"ios": "https://dc.lft.to/lastmile_qr_scan", "android": "https://dc.lft.to/lastmile_qr_scan"}, "is_reserved": 0}, {"lon": -77.04615116666666, "bike_id": "9fe4f7bc31e6ad2ff0dedceb1f717f3b", "lat": 38.90558716666666, "fusion_lon": 0.0, "fusion_lat": 0.0, "type": "electric_scooter", "name": "9fe4f7bc31e6ad2ff0dedceb1f717f3b", "is_disabled": 0, "rental_uris": {"ios": "https://dc.lft.to/lastmile_qr_scan", "android": "https://dc.lft.to/lastmile_qr_scan"}, "is_reserved": 0}, {"lon": -77.00929433333333, "bike_id": "af099305b1902f1ad8e64d19cf2cd3db", "lat": 38.896437166666665, "fusion_lon": 0.0, "fusion_lat": 0.0, "type": "electric_scooter", "name": "af099305b1902f1ad8e64d19cf2cd3db", "is_disabled": 0, "rental_uris": {"ios": "https://dc.lft.to/lastmile_qr_scan", "android": "https://dc.lft.to/lastmile_qr_scan"}, "is_reserved": 0}, {"lon": -77.02950883333334, "bike_id": "b8efe3c8e5adeb204c6b1e4752b77486", "lat": 38.9124915, "fusion_lon": 0.0, "fusion_lat": 0.0, "type": "electric_scooter", "name": "b8efe3c8e5adeb204c6b1e4752b77486", "is_disabled": 0, "rental_uris": {"ios": "https://dc.lft.to/lastmile_qr_scan", "android": "https://dc.lft.to/lastmile_qr_scan"}, "is_reserved": 0}, {"lon": -77.0281405, "bike_id": "d48c9872e082ab813e2fd4a72e0b2121", "lat": 38.922496333333335, "fusion_lon": 0.0, "fusion_lat": 0.0, "type": "electric_scooter", "name": "d48c9872e082ab813e2fd4a72e0b2121", "is_disabled": 0, "rental_uris": {"ios": "https://dc.lft.to/lastmile_qr_scan", "android": "https://dc.lft.to/lastmile_qr_scan"}, "is_reserved": 0}, {"lon": -76.98841866666666, "bike_id": "c577a5077fc2816eeafe0bd8ac63b26d", "lat": 38.842786, "fusion_lon": 0.0, "fusion_lat": 0.0, "type": "electric_bike", "name": "c577a5077fc2816eeafe0bd8ac63b26d", "is_disabled": 0, "rental_uris": {"ios": "https://dc.lft.to/lastmile_qr_scan", "android": "https://dc.lft.to/lastmile_qr_scan"}, "is_reserved": 0}, {"lon": -77.02385533333333, "bike_id": "5c56defdd8cdf58ff42fdeef884daab2", "lat": 38.909581333333335, "fusion_lon": 0.0, "fusion_lat": 0.0, "type": "electric_scooter", "name": "5c56defdd8cdf58ff42fdeef884daab2", "is_disabled": 0, "rental_uris": {"ios": "https://dc.lft.to/lastmile_qr_scan", "android": "https://dc.lft.to/lastmile_qr_scan"}, "is_reserved": 0}, {"lon": -77.01762716666667, "bike_id": "200064f983f7788c34a3d1e952955b5d", "lat": 38.902526333333334, "fusion_lon": 0.0, "fusion_lat": 0.0, "type": "electric_scooter", "name": "200064f983f7788c34a3d1e952955b5d", "is_disabled": 0, "rental_uris": {"ios": "https://dc.lft.to/lastmile_qr_scan", "android": "https://dc.lft.to/lastmile_qr_scan"}, "is_reserved": 0}, {"lon": -77.00192316666667, "bike_id": "f41a48d926f0ccac743b66297ceb263e", "lat": 38.90237366666667, "fusion_lon": 0.0, "fusion_lat": 0.0, "type": "electric_scooter", "name": "f41a48d926f0ccac743b66297ceb263e", "is_disabled": 0, "rental_uris": {"ios": "https://dc.lft.to/lastmile_qr_scan", "android": "https://dc.lft.to/lastmile_qr_scan"}, "is_reserved": 0}, {"lon": -77.02359433333334, "bike_id": "764cd6be11a4a96a057da49168fe8e3e", "lat": 38.892199166666664, "fusion_lon": 0.0, "fusion_lat": 0.0, "type": "electric_scooter", "name": "764cd6be11a4a96a057da49168fe8e3e", "is_disabled": 0, "rental_uris": {"ios": "https://dc.lft.to/lastmile_qr_scan", "android": "https://dc.lft.to/lastmile_qr_scan"}, "is_reserved": 0}, {"lon": -77.03651, "bike_id": "6acf0ceb5af8af9608ad6822e980f091", "lat": 38.902870666666665, "fusion_lon": 0.0, "fusion_lat": 0.0, "type": "electric_scooter", "name": "6acf0ceb5af8af9608ad6822e980f091", "is_disabled": 0, "rental_uris": {"ios": "https://dc.lft.to/lastmile_qr_scan", "android": "https://dc.lft.to/lastmile_qr_scan"}, "is_reserved": 0}, {"lon": -77.040257, "bike_id": "6b5e5a9f58f12e1b43bb2b800994d49a", "lat": 38.9057745, "fusion_lon": 0.0, "fusion_lat": 0.0, "type": "electric_scooter", "name": "6b5e5a9f58f12e1b43bb2b800994d49a", "is_disabled": 0, "rental_uris": {"ios": "https://dc.lft.to/lastmile_qr_scan", "android": "https://dc.lft.to/lastmile_qr_scan"}, "is_reserved": 0}, {"lon": -77.0101875, "bike_id": "bb3ea3923903a065e7c34cf7f8e0c255", "lat": 38.91706216666667, "fusion_lon": 0.0, "fusion_lat": 0.0, "type": "electric_scooter", "name": "bb3ea3923903a065e7c34cf7f8e0c255", "is_disabled": 0, "rental_uris": {"ios": "https://dc.lft.to/lastmile_qr_scan", "android": "https://dc.lft.to/lastmile_qr_scan"}, "is_reserved": 0}, {"lon": -77.0312225, "bike_id": "90e1b12a42bb05599cd073100f9a575b", "lat": 38.9149475, "fusion_lon": 0.0, "fusion_lat": 0.0, "type": "electric_scooter", "name": "90e1b12a42bb05599cd073100f9a575b", "is_disabled": 0, "rental_uris": {"ios": "https://dc.lft.to/lastmile_qr_scan", "android": "https://dc.lft.to/lastmile_qr_scan"}, "is_reserved": 0}, {"lon": -77.03629466666666, "bike_id": "b2bf7785f0a00d07bab748a9a0b70da9", "lat": 38.93679016666667, "fusion_lon": 0.0, "fusion_lat": 0.0, "type": "electric_scooter", "name": "b2bf7785f0a00d07bab748a9a0b70da9", "is_disabled": 0, "rental_uris": {"ios": "https://dc.lft.to/lastmile_qr_scan", "android": "https://dc.lft.to/lastmile_qr_scan"}, "is_reserved": 0}, {"lon": -76.94958183333334, "bike_id": "ea54db523425313c31b357b908f96e48", "lat": 38.904962833333336, "fusion_lon": 0.0, "fusion_lat": 0.0, "type": "electric_scooter", "name": "ea54db523425313c31b357b908f96e48", "is_disabled": 0, "rental_uris": {"ios": "https://dc.lft.to/lastmile_qr_scan", "android": "https://dc.lft.to/lastmile_qr_scan"}, "is_reserved": 0}, {"lon": -77.00144166666666, "bike_id": "0932e4eee7966331dd4459e690a56854", "lat": 38.90780783333334, "fusion_lon": 0.0, "fusion_lat": 0.0, "type": "electric_scooter", "name": "0932e4eee7966331dd4459e690a56854", "is_disabled": 0, "rental_uris": {"ios": "https://dc.lft.to/lastmile_qr_scan", "android": "https://dc.lft.to/lastmile_qr_scan"}, "is_reserved": 0}, {"lon": -77.08954366666667, "bike_id": "88b469944ba4fe53468f9f308a59e536", "lat": 38.842971666666664, "fusion_lon": 0.0, "fusion_lat": 0.0, "type": "electric_bike", "name": "88b469944ba4fe53468f9f308a59e536", "is_disabled": 0, "rental_uris": {"ios": "https://dc.lft.to/lastmile_qr_scan", "android": "https://dc.lft.to/lastmile_qr_scan"}, "is_reserved": 0}, {"lon": -77.00738166666666, "bike_id": "d6dd5d3829802e8ec9b4374005652bf9", "lat": 38.92543416666667, "fusion_lon": 0.0, "fusion_lat": 0.0, "type": "electric_scooter", "name": "d6dd5d3829802e8ec9b4374005652bf9", "is_disabled": 0, "rental_uris": {"ios": "https://dc.lft.to/lastmile_qr_scan", "android": "https://dc.lft.to/lastmile_qr_scan"}, "is_reserved": 0}, {"lon": -77.03059683333333, "bike_id": "a95ea29cf03c3d75b9a353a23defb65d", "lat": 38.93100183333333, "fusion_lon": 0.0, "fusion_lat": 0.0, "type": "electric_scooter", "name": "a95ea29cf03c3d75b9a353a23defb65d", "is_disabled": 0, "rental_uris": {"ios": "https://dc.lft.to/lastmile_qr_scan", "android": "https://dc.lft.to/lastmile_qr_scan"}, "is_reserved": 0}, {"lon": -76.95754766666667, "bike_id": "2badf02caea01b9e15724d2d4555b496", "lat": 38.884376333333336, "fusion_lon": 0.0, "fusion_lat": 0.0, "type": "electric_scooter", "name": "2badf02caea01b9e15724d2d4555b496", "is_disabled": 0, "rental_uris": {"ios": "https://dc.lft.to/lastmile_qr_scan", "android": "https://dc.lft.to/lastmile_qr_scan"}, "is_reserved": 0}, {"lon": -77.03213, "bike_id": "06fe29f754c7cf420021136a73912b8e", "lat": 38.914772, "fusion_lon": 0.0, "fusion_lat": 0.0, "type": "electric_scooter", "name": "06fe29f754c7cf420021136a73912b8e", "is_disabled": 0, "rental_uris": {"ios": "https://dc.lft.to/lastmile_qr_scan", "android": "https://dc.lft.to/lastmile_qr_scan"}, "is_reserved": 0}, {"lon": -77.04108633333334, "bike_id": "ccb9d7c38d17fee8b3dd39bc073b036c", "lat": 38.9119225, "fusion_lon": 0.0, "fusion_lat": 0.0, "type": "electric_scooter", "name": "ccb9d7c38d17fee8b3dd39bc073b036c", "is_disabled": 0, "rental_uris": {"ios": "https://dc.lft.to/lastmile_qr_scan", "android": "https://dc.lft.to/lastmile_qr_scan"}, "is_reserved": 0}, {"lon": -77.038528, "bike_id": "764035864ab32133d42f0ff442087770", "lat": 38.916654666666666, "fusion_lon": 0.0, "fusion_lat": 0.0, "type": "electric_scooter", "name": "764035864ab32133d42f0ff442087770", "is_disabled": 0, "rental_uris": {"ios": "https://dc.lft.to/lastmile_qr_scan", "android": "https://dc.lft.to/lastmile_qr_scan"}, "is_reserved": 0}, {"lon": -77.03423816666667, "bike_id": "f10f7a8c3a053927cc16c8726001cea8", "lat": 38.919352833333335, "fusion_lon": 0.0, "fusion_lat": 0.0, "type": "electric_scooter", "name": "f10f7a8c3a053927cc16c8726001cea8", "is_disabled": 0, "rental_uris": {"ios": "https://dc.lft.to/lastmile_qr_scan", "android": "https://dc.lft.to/lastmile_qr_scan"}, "is_reserved": 0}, {"lon": -76.97236933333333, "bike_id": "07f242fefda1c3c1a92287e25de0f83a", "lat": 38.949042666666664, "fusion_lon": 0.0, "fusion_lat": 0.0, "type": "electric_bike", "name": "07f242fefda1c3c1a92287e25de0f83a", "is_disabled": 0, "rental_uris": {"ios": "https://dc.lft.to/lastmile_qr_scan", "android": "https://dc.lft.to/lastmile_qr_scan"}, "is_reserved": 0}, {"lon": -77.02925933333333, "bike_id": "a200abbfd6f453d69f4623e4bea7e02e", "lat": 38.934640333333334, "fusion_lon": 0.0, "fusion_lat": 0.0, "type": "electric_scooter", "name": "a200abbfd6f453d69f4623e4bea7e02e", "is_disabled": 0, "rental_uris": {"ios": "https://dc.lft.to/lastmile_qr_scan", "android": "https://dc.lft.to/lastmile_qr_scan"}, "is_reserved": 0}, {"lon": -77.0065675, "bike_id": "f43fab43adeaed2d73384af0f29c9566", "lat": 38.94465916666667, "fusion_lon": 0.0, "fusion_lat": 0.0, "type": "electric_scooter", "name": "f43fab43adeaed2d73384af0f29c9566", "is_disabled": 0, "rental_uris": {"ios": "https://dc.lft.to/lastmile_qr_scan", "android": "https://dc.lft.to/lastmile_qr_scan"}, "is_reserved": 0}, {"lon": -77.0287035, "bike_id": "8f29e7c6241a600e8757453bada0eebd", "lat": 38.88488066666667, "fusion_lon": 0.0, "fusion_lat": 0.0, "type": "electric_scooter", "name": "8f29e7c6241a600e8757453bada0eebd", "is_disabled": 0, "rental_uris": {"ios": "https://dc.lft.to/lastmile_qr_scan", "android": "https://dc.lft.to/lastmile_qr_scan"}, "is_reserved": 0}, {"lon": -77.05456316666667, "bike_id": "911706e48139ef7fd3c76ce3d273d3c7", "lat": 38.8553455, "fusion_lon": 0.0, "fusion_lat": 0.0, "type": "electric_bike", "name": "911706e48139ef7fd3c76ce3d273d3c7", "is_disabled": 0, "rental_uris": {"ios": "https://dc.lft.to/lastmile_qr_scan", "android": "https://dc.lft.to/lastmile_qr_scan"}, "is_reserved": 0}, {"lon": -77.04334883333334, "bike_id": "e1ee6dab0242279dfb9f2777df5c37ae", "lat": 38.9132895, "fusion_lon": 0.0, "fusion_lat": 0.0, "type": "electric_scooter", "name": "e1ee6dab0242279dfb9f2777df5c37ae", "is_disabled": 0, "rental_uris": {"ios": "https://dc.lft.to/lastmile_qr_scan", "android": "https://dc.lft.to/lastmile_qr_scan"}, "is_reserved": 0}, {"lon": -77.00679316666667, "bike_id": "f97a55f5777abd09f9400c6e7be6656d", "lat": 38.90012633333333, "fusion_lon": 0.0, "fusion_lat": 0.0, "type": "electric_scooter", "name": "f97a55f5777abd09f9400c6e7be6656d", "is_disabled": 0, "rental_uris": {"ios": "https://dc.lft.to/lastmile_qr_scan", "android": "https://dc.lft.to/lastmile_qr_scan"}, "is_reserved": 0}, {"lon": -77.12655633333334, "bike_id": "f8631745606d4a3e1f3c3e281fcedbd9", "lat": 38.81513416666667, "fusion_lon": 0.0, "fusion_lat": 0.0, "type": "electric_bike", "name": "f8631745606d4a3e1f3c3e281fcedbd9", "is_disabled": 0, "rental_uris": {"ios": "https://dc.lft.to/lastmile_qr_scan", "android": "https://dc.lft.to/lastmile_qr_scan"}, "is_reserved": 0}, {"lon": -77.01438733333333, "bike_id": "942501b0cd3e0dcee94602f8e65b22db", "lat": 38.87673683333333, "fusion_lon": 0.0, "fusion_lat": 0.0, "type": "electric_bike", "name": "942501b0cd3e0dcee94602f8e65b22db", "is_disabled": 0, "rental_uris": {"ios": "https://dc.lft.to/lastmile_qr_scan", "android": "https://dc.lft.to/lastmile_qr_scan"}, "is_reserved": 0}, {"lon": -77.02323516666667, "bike_id": "c70919ff65f64d744165dd45cba07214", "lat": 38.9088885, "fusion_lon": 0.0, "fusion_lat": 0.0, "type": "electric_scooter", "name": "c70919ff65f64d744165dd45cba07214", "is_disabled": 0, "rental_uris": {"ios": "https://dc.lft.to/lastmile_qr_scan", "android": "https://dc.lft.to/lastmile_qr_scan"}, "is_reserved": 0}, {"lon": -76.9376335, "bike_id": "04975f25c9fbe5edc0cd7bd0dfd956e3", "lat": 38.878615333333336, "fusion_lon": 0.0, "fusion_lat": 0.0, "type": "electric_scooter", "name": "04975f25c9fbe5edc0cd7bd0dfd956e3", "is_disabled": 0, "rental_uris": {"ios": "https://dc.lft.to/lastmile_qr_scan", "android": "https://dc.lft.to/lastmile_qr_scan"}, "is_reserved": 0}, {"lon": -77.035308, "bike_id": "81a583a5740614cb29ad57bad49e7588", "lat": 38.923402833333334, "fusion_lon": 0.0, "fusion_lat": 0.0, "type": "electric_scooter", "name": "81a583a5740614cb29ad57bad49e7588", "is_disabled": 0, "rental_uris": {"ios": "https://dc.lft.to/lastmile_qr_scan", "android": "https://dc.lft.to/lastmile_qr_scan"}, "is_reserved": 0}, {"lon": -76.945019, "bike_id": "f1fea89187abd3ecdae2a7d935d4ebc6", "lat": 38.8648155, "fusion_lon": 0.0, "fusion_lat": 0.0, "type": "electric_bike", "name": "f1fea89187abd3ecdae2a7d935d4ebc6", "is_disabled": 0, "rental_uris": {"ios": "https://dc.lft.to/lastmile_qr_scan", "android": "https://dc.lft.to/lastmile_qr_scan"}, "is_reserved": 0}, {"lon": -77.0354625, "bike_id": "d8b44b851f87ce37581f9ec8ada7c6dd", "lat": 38.918373333333335, "fusion_lon": 0.0, "fusion_lat": 0.0, "type": "electric_scooter", "name": "d8b44b851f87ce37581f9ec8ada7c6dd", "is_disabled": 0, "rental_uris": {"ios": "https://dc.lft.to/lastmile_qr_scan", "android": "https://dc.lft.to/lastmile_qr_scan"}, "is_reserved": 0}, {"lon": -76.99859, "bike_id": "0bdb38a3d5065471b469088d11bc68be", "lat": 38.8941525, "fusion_lon": 0.0, "fusion_lat": 0.0, "type": "electric_scooter", "name": "0bdb38a3d5065471b469088d11bc68be", "is_disabled": 0, "rental_uris": {"ios": "https://dc.lft.to/lastmile_qr_scan", "android": "https://dc.lft.to/lastmile_qr_scan"}, "is_reserved": 0}, {"lon": -77.0355195, "bike_id": "c98341cfc821465b09ca41b06afabdb0", "lat": 38.9183775, "fusion_lon": 0.0, "fusion_lat": 0.0, "type": "electric_scooter", "name": "c98341cfc821465b09ca41b06afabdb0", "is_disabled": 0, "rental_uris": {"ios": "https://dc.lft.to/lastmile_qr_scan", "android": "https://dc.lft.to/lastmile_qr_scan"}, "is_reserved": 0}, {"lon": -76.99019683333333, "bike_id": "7b3c55ec975229b611b21121f15934f9", "lat": 38.94599616666667, "fusion_lon": 0.0, "fusion_lat": 0.0, "type": "electric_scooter", "name": "7b3c55ec975229b611b21121f15934f9", "is_disabled": 0, "rental_uris": {"ios": "https://dc.lft.to/lastmile_qr_scan", "android": "https://dc.lft.to/lastmile_qr_scan"}, "is_reserved": 0}, {"lon": -77.04974733333333, "bike_id": "a1b67ba040ff8d36e433ad4f15ae5443", "lat": 39.062926833333336, "fusion_lon": 0.0, "fusion_lat": 0.0, "type": "electric_bike", "name": "a1b67ba040ff8d36e433ad4f15ae5443", "is_disabled": 0, "rental_uris": {"ios": "https://dc.lft.to/lastmile_qr_scan", "android": "https://dc.lft.to/lastmile_qr_scan"}, "is_reserved": 0}, {"lon": -77.04596466666666, "bike_id": "5f0149e996c7317910bafe6ca16688d0", "lat": 38.89612783333333, "fusion_lon": 0.0, "fusion_lat": 0.0, "type": "electric_scooter", "name": "5f0149e996c7317910bafe6ca16688d0", "is_disabled": 0, "rental_uris": {"ios": "https://dc.lft.to/lastmile_qr_scan", "android": "https://dc.lft.to/lastmile_qr_scan"}, "is_reserved": 0}, {"lon": -77.051516, "bike_id": "21703f16632cc31c266f1ae7dfee8dcc", "lat": 38.89866383333333, "fusion_lon": 0.0, "fusion_lat": 0.0, "type": "electric_scooter", "name": "21703f16632cc31c266f1ae7dfee8dcc", "is_disabled": 0, "rental_uris": {"ios": "https://dc.lft.to/lastmile_qr_scan", "android": "https://dc.lft.to/lastmile_qr_scan"}, "is_reserved": 0}, {"lon": -77.001282, "bike_id": "c1c94b8299b9c155901b2c5c4e83523e", "lat": 38.9050385, "fusion_lon": 0.0, "fusion_lat": 0.0, "type": "electric_scooter", "name": "c1c94b8299b9c155901b2c5c4e83523e", "is_disabled": 0, "rental_uris": {"ios": "https://dc.lft.to/lastmile_qr_scan", "android": "https://dc.lft.to/lastmile_qr_scan"}, "is_reserved": 0}, {"lon": -76.9376235, "bike_id": "394e634408f2b6c4329dd1bbd2db2e41", "lat": 38.89968283333333, "fusion_lon": 0.0, "fusion_lat": 0.0, "type": "electric_scooter", "name": "394e634408f2b6c4329dd1bbd2db2e41", "is_disabled": 0, "rental_uris": {"ios": "https://dc.lft.to/lastmile_qr_scan", "android": "https://dc.lft.to/lastmile_qr_scan"}, "is_reserved": 0}, {"lon": -77.0525085, "bike_id": "f49646b507bb3fe1920bc8346c121912", "lat": 38.92378816666667, "fusion_lon": 0.0, "fusion_lat": 0.0, "type": "electric_scooter", "name": "f49646b507bb3fe1920bc8346c121912", "is_disabled": 0, "rental_uris": {"ios": "https://dc.lft.to/lastmile_qr_scan", "android": "https://dc.lft.to/lastmile_qr_scan"}, "is_reserved": 0}, {"lon": -77.02436083333333, "bike_id": "65ab982509cc0dbf40982edcf77c2acb", "lat": 38.9169185, "fusion_lon": 0.0, "fusion_lat": 0.0, "type": "electric_scooter", "name": "65ab982509cc0dbf40982edcf77c2acb", "is_disabled": 0, "rental_uris": {"ios": "https://dc.lft.to/lastmile_qr_scan", "android": "https://dc.lft.to/lastmile_qr_scan"}, "is_reserved": 0}, {"lon": -76.92371533333333, "bike_id": "1960b2bd50e7b64007bef03e689c545c", "lat": 38.88376066666667, "fusion_lon": 0.0, "fusion_lat": 0.0, "type": "electric_bike", "name": "1960b2bd50e7b64007bef03e689c545c", "is_disabled": 0, "rental_uris": {"ios": "https://dc.lft.to/lastmile_qr_scan", "android": "https://dc.lft.to/lastmile_qr_scan"}, "is_reserved": 0}, {"lon": -76.99371316666667, "bike_id": "41c5a1c4a87db70f6b6ed29eb2381c8f", "lat": 38.97187383333333, "fusion_lon": 0.0, "fusion_lat": 0.0, "type": "electric_bike", "name": "41c5a1c4a87db70f6b6ed29eb2381c8f", "is_disabled": 0, "rental_uris": {"ios": "https://dc.lft.to/lastmile_qr_scan", "android": "https://dc.lft.to/lastmile_qr_scan"}, "is_reserved": 0}, {"lon": -77.03770333333334, "bike_id": "9776683430cae1c4ea204b216128ef0d", "lat": 38.90283566666667, "fusion_lon": 0.0, "fusion_lat": 0.0, "type": "electric_scooter", "name": "9776683430cae1c4ea204b216128ef0d", "is_disabled": 0, "rental_uris": {"ios": "https://dc.lft.to/lastmile_qr_scan", "android": "https://dc.lft.to/lastmile_qr_scan"}, "is_reserved": 0}, {"lon": -77.00338266666667, "bike_id": "9f888049c58d25765ac458e361a8a75f", "lat": 38.895241666666664, "fusion_lon": 0.0, "fusion_lat": 0.0, "type": "electric_scooter", "name": "9f888049c58d25765ac458e361a8a75f", "is_disabled": 0, "rental_uris": {"ios": "https://dc.lft.to/lastmile_qr_scan", "android": "https://dc.lft.to/lastmile_qr_scan"}, "is_reserved": 0}, {"lon": -77.02208466666667, "bike_id": "f927b792dae55adbc037deb8ef0e5392", "lat": 38.914206666666665, "fusion_lon": 0.0, "fusion_lat": 0.0, "type": "electric_scooter", "name": "f927b792dae55adbc037deb8ef0e5392", "is_disabled": 0, "rental_uris": {"ios": "https://dc.lft.to/lastmile_qr_scan", "android": "https://dc.lft.to/lastmile_qr_scan"}, "is_reserved": 0}, {"lon": -76.99933016666667, "bike_id": "c76574d6956360dc7c35037c464a4baa", "lat": 38.843017333333336, "fusion_lon": 0.0, "fusion_lat": 0.0, "type": "electric_scooter", "name": "c76574d6956360dc7c35037c464a4baa", "is_disabled": 0, "rental_uris": {"ios": "https://dc.lft.to/lastmile_qr_scan", "android": "https://dc.lft.to/lastmile_qr_scan"}, "is_reserved": 0}, {"lon": -77.07007766666666, "bike_id": "0fed53611cb4848b76dbf3452906449f", "lat": 38.9585465, "fusion_lon": 0.0, "fusion_lat": 0.0, "type": "electric_scooter", "name": "0fed53611cb4848b76dbf3452906449f", "is_disabled": 0, "rental_uris": {"ios": "https://dc.lft.to/lastmile_qr_scan", "android": "https://dc.lft.to/lastmile_qr_scan"}, "is_reserved": 0}, {"lon": -77.02408516666667, "bike_id": "6575996bec01c7c676b6e1d3ab7a02d5", "lat": 38.917082, "fusion_lon": 0.0, "fusion_lat": 0.0, "type": "electric_scooter", "name": "6575996bec01c7c676b6e1d3ab7a02d5", "is_disabled": 0, "rental_uris": {"ios": "https://dc.lft.to/lastmile_qr_scan", "android": "https://dc.lft.to/lastmile_qr_scan"}, "is_reserved": 0}, {"lon": -77.08063666666666, "bike_id": "8abf868db9347ddffad8b3a91a363bd0", "lat": 38.9631485, "fusion_lon": 0.0, "fusion_lat": 0.0, "type": "electric_bike", "name": "8abf868db9347ddffad8b3a91a363bd0", "is_disabled": 0, "rental_uris": {"ios": "https://dc.lft.to/lastmile_qr_scan", "android": "https://dc.lft.to/lastmile_qr_scan"}, "is_reserved": 0}, {"lon": -76.94869633333333, "bike_id": "3523914bf36f240284238b4594bf98bb", "lat": 38.89545916666667, "fusion_lon": 0.0, "fusion_lat": 0.0, "type": "electric_scooter", "name": "3523914bf36f240284238b4594bf98bb", "is_disabled": 0, "rental_uris": {"ios": "https://dc.lft.to/lastmile_qr_scan", "android": "https://dc.lft.to/lastmile_qr_scan"}, "is_reserved": 0}, {"lon": -77.03155616666666, "bike_id": "1c51d0d858428a0d4b3d539d7f4017d6", "lat": 38.936061333333335, "fusion_lon": 0.0, "fusion_lat": 0.0, "type": "electric_scooter", "name": "1c51d0d858428a0d4b3d539d7f4017d6", "is_disabled": 0, "rental_uris": {"ios": "https://dc.lft.to/lastmile_qr_scan", "android": "https://dc.lft.to/lastmile_qr_scan"}, "is_reserved": 0}, {"lon": -77.027192, "bike_id": "70cffca9a601a72ba3c35678d14288a7", "lat": 38.97235516666667, "fusion_lon": 0.0, "fusion_lat": 0.0, "type": "electric_scooter", "name": "70cffca9a601a72ba3c35678d14288a7", "is_disabled": 0, "rental_uris": {"ios": "https://dc.lft.to/lastmile_qr_scan", "android": "https://dc.lft.to/lastmile_qr_scan"}, "is_reserved": 0}, {"lon": -77.0318195, "bike_id": "200bc6bbb8778a5c2da26dee97b604d2", "lat": 38.91427783333334, "fusion_lon": 0.0, "fusion_lat": 0.0, "type": "electric_scooter", "name": "200bc6bbb8778a5c2da26dee97b604d2", "is_disabled": 0, "rental_uris": {"ios": "https://dc.lft.to/lastmile_qr_scan", "android": "https://dc.lft.to/lastmile_qr_scan"}, "is_reserved": 0}, {"lon": -77.02086166666666, "bike_id": "f578c00cb8d7e593c21d9ccf03821426", "lat": 38.945300333333336, "fusion_lon": 0.0, "fusion_lat": 0.0, "type": "electric_scooter", "name": "f578c00cb8d7e593c21d9ccf03821426", "is_disabled": 0, "rental_uris": {"ios": "https://dc.lft.to/lastmile_qr_scan", "android": "https://dc.lft.to/lastmile_qr_scan"}, "is_reserved": 0}, {"lon": -77.0092975, "bike_id": "cce0591365b00c6ee9ee32931ff816fb", "lat": 38.883116333333334, "fusion_lon": 0.0, "fusion_lat": 0.0, "type": "electric_scooter", "name": "cce0591365b00c6ee9ee32931ff816fb", "is_disabled": 0, "rental_uris": {"ios": "https://dc.lft.to/lastmile_qr_scan", "android": "https://dc.lft.to/lastmile_qr_scan"}, "is_reserved": 0}, {"lon": -77.009696, "bike_id": "1488e2a36817ba65692bc5375e14a8d1", "lat": 38.90785233333333, "fusion_lon": 0.0, "fusion_lat": 0.0, "type": "electric_scooter", "name": "1488e2a36817ba65692bc5375e14a8d1", "is_disabled": 0, "rental_uris": {"ios": "https://dc.lft.to/lastmile_qr_scan", "android": "https://dc.lft.to/lastmile_qr_scan"}, "is_reserved": 0}, {"lon": -77.02472583333333, "bike_id": "abe458c6b7d03d0b9bde372b1759d130", "lat": 38.90400916666667, "fusion_lon": 0.0, "fusion_lat": 0.0, "type": "electric_scooter", "name": "abe458c6b7d03d0b9bde372b1759d130", "is_disabled": 0, "rental_uris": {"ios": "https://dc.lft.to/lastmile_qr_scan", "android": "https://dc.lft.to/lastmile_qr_scan"}, "is_reserved": 0}, {"lon": -77.018278, "bike_id": "32e138d73bbcfa5d9e0aad41e2dabad9", "lat": 38.900774166666665, "fusion_lon": 0.0, "fusion_lat": 0.0, "type": "electric_scooter", "name": "32e138d73bbcfa5d9e0aad41e2dabad9", "is_disabled": 0, "rental_uris": {"ios": "https://dc.lft.to/lastmile_qr_scan", "android": "https://dc.lft.to/lastmile_qr_scan"}, "is_reserved": 0}, {"lon": -77.0422505, "bike_id": "241a4522f468379c94c50b29d4e1fd1c", "lat": 38.90932883333333, "fusion_lon": 0.0, "fusion_lat": 0.0, "type": "electric_scooter", "name": "241a4522f468379c94c50b29d4e1fd1c", "is_disabled": 0, "rental_uris": {"ios": "https://dc.lft.to/lastmile_qr_scan", "android": "https://dc.lft.to/lastmile_qr_scan"}, "is_reserved": 0}, {"lon": -77.041105, "bike_id": "25b71dc1dab174cbd3c82234661776eb", "lat": 38.92804366666667, "fusion_lon": 0.0, "fusion_lat": 0.0, "type": "electric_scooter", "name": "25b71dc1dab174cbd3c82234661776eb", "is_disabled": 0, "rental_uris": {"ios": "https://dc.lft.to/lastmile_qr_scan", "android": "https://dc.lft.to/lastmile_qr_scan"}, "is_reserved": 0}, {"lon": -76.99581183333333, "bike_id": "f3170b29356ad1ac03a5b480956ca889", "lat": 38.85294483333333, "fusion_lon": 0.0, "fusion_lat": 0.0, "type": "electric_bike", "name": "f3170b29356ad1ac03a5b480956ca889", "is_disabled": 0, "rental_uris": {"ios": "https://dc.lft.to/lastmile_qr_scan", "android": "https://dc.lft.to/lastmile_qr_scan"}, "is_reserved": 0}, {"lon": -76.96259366666666, "bike_id": "ef66f441fa70362054b007896e8a232b", "lat": 38.88246066666667, "fusion_lon": 0.0, "fusion_lat": 0.0, "type": "electric_bike", "name": "ef66f441fa70362054b007896e8a232b", "is_disabled": 0, "rental_uris": {"ios": "https://dc.lft.to/lastmile_qr_scan", "android": "https://dc.lft.to/lastmile_qr_scan"}, "is_reserved": 0}, {"lon": -77.03329066666667, "bike_id": "18dfd62269931edae5bfabaf05dbc43b", "lat": 38.91715333333333, "fusion_lon": 0.0, "fusion_lat": 0.0, "type": "electric_scooter", "name": "18dfd62269931edae5bfabaf05dbc43b", "is_disabled": 0, "rental_uris": {"ios": "https://dc.lft.to/lastmile_qr_scan", "android": "https://dc.lft.to/lastmile_qr_scan"}, "is_reserved": 0}, {"lon": -76.99843, "bike_id": "56911b0ab15120cc274fc70db32a6de5", "lat": 38.90006, "fusion_lon": 0.0, "fusion_lat": 0.0, "type": "electric_scooter", "name": "56911b0ab15120cc274fc70db32a6de5", "is_disabled": 0, "rental_uris": {"ios": "https://dc.lft.to/lastmile_qr_scan", "android": "https://dc.lft.to/lastmile_qr_scan"}, "is_reserved": 0}, {"lon": -77.03170433333334, "bike_id": "cc1b0a44fecf74bf9193394de132f762", "lat": 38.912652333333334, "fusion_lon": 0.0, "fusion_lat": 0.0, "type": "electric_scooter", "name": "cc1b0a44fecf74bf9193394de132f762", "is_disabled": 0, "rental_uris": {"ios": "https://dc.lft.to/lastmile_qr_scan", "android": "https://dc.lft.to/lastmile_qr_scan"}, "is_reserved": 0}, {"lon": -77.04172133333333, "bike_id": "a0e774d00f19f4b6da0f78fbf4281bc0", "lat": 38.910002666666664, "fusion_lon": 0.0, "fusion_lat": 0.0, "type": "electric_scooter", "name": "a0e774d00f19f4b6da0f78fbf4281bc0", "is_disabled": 0, "rental_uris": {"ios": "https://dc.lft.to/lastmile_qr_scan", "android": "https://dc.lft.to/lastmile_qr_scan"}, "is_reserved": 0}, {"lon": -77.1310325, "bike_id": "4d759b5fa2341f7b9368ae269bc733d0", "lat": 39.024361166666665, "fusion_lon": 0.0, "fusion_lat": 0.0, "type": "electric_bike", "name": "4d759b5fa2341f7b9368ae269bc733d0", "is_disabled": 0, "rental_uris": {"ios": "https://dc.lft.to/lastmile_qr_scan", "android": "https://dc.lft.to/lastmile_qr_scan"}, "is_reserved": 0}, {"lon": -77.09597516666666, "bike_id": "aa9b31d94c35aeabea59df72a005fa16", "lat": 39.02891533333333, "fusion_lon": 0.0, "fusion_lat": 0.0, "type": "electric_bike", "name": "aa9b31d94c35aeabea59df72a005fa16", "is_disabled": 0, "rental_uris": {"ios": "https://dc.lft.to/lastmile_qr_scan", "android": "https://dc.lft.to/lastmile_qr_scan"}, "is_reserved": 0}, {"lon": -77.03935733333333, "bike_id": "0d722bc21c9b5319ab20bd552a6bbbd3", "lat": 38.921146666666665, "fusion_lon": 0.0, "fusion_lat": 0.0, "type": "electric_scooter", "name": "0d722bc21c9b5319ab20bd552a6bbbd3", "is_disabled": 0, "rental_uris": {"ios": "https://dc.lft.to/lastmile_qr_scan", "android": "https://dc.lft.to/lastmile_qr_scan"}, "is_reserved": 0}, {"lon": -77.0454915, "bike_id": "e558868ffd441ff729b3d917eb571ade", "lat": 38.912689666666665, "fusion_lon": 0.0, "fusion_lat": 0.0, "type": "electric_scooter", "name": "e558868ffd441ff729b3d917eb571ade", "is_disabled": 0, "rental_uris": {"ios": "https://dc.lft.to/lastmile_qr_scan", "android": "https://dc.lft.to/lastmile_qr_scan"}, "is_reserved": 0}, {"lon": -77.011153, "bike_id": "592acdbbc183ae87434e1049171679bd", "lat": 38.885518833333336, "fusion_lon": 0.0, "fusion_lat": 0.0, "type": "electric_scooter", "name": "592acdbbc183ae87434e1049171679bd", "is_disabled": 0, "rental_uris": {"ios": "https://dc.lft.to/lastmile_qr_scan", "android": "https://dc.lft.to/lastmile_qr_scan"}, "is_reserved": 0}, {"lon": -77.02956616666667, "bike_id": "b494f2af204c8333027887645665ea85", "lat": 38.9051795, "fusion_lon": 0.0, "fusion_lat": 0.0, "type": "electric_scooter", "name": "b494f2af204c8333027887645665ea85", "is_disabled": 0, "rental_uris": {"ios": "https://dc.lft.to/lastmile_qr_scan", "android": "https://dc.lft.to/lastmile_qr_scan"}, "is_reserved": 0}, {"lon": -77.0562525, "bike_id": "8033733ee9d49b8dd8c7b833113f75b9", "lat": 38.96075583333333, "fusion_lon": 0.0, "fusion_lat": 0.0, "type": "electric_scooter", "name": "8033733ee9d49b8dd8c7b833113f75b9", "is_disabled": 0, "rental_uris": {"ios": "https://dc.lft.to/lastmile_qr_scan", "android": "https://dc.lft.to/lastmile_qr_scan"}, "is_reserved": 0}, {"lon": -77.03534616666667, "bike_id": "90f642f793af1cc24a63beed6d74a7f7", "lat": 38.92423266666667, "fusion_lon": 0.0, "fusion_lat": 0.0, "type": "electric_scooter", "name": "90f642f793af1cc24a63beed6d74a7f7", "is_disabled": 0, "rental_uris": {"ios": "https://dc.lft.to/lastmile_qr_scan", "android": "https://dc.lft.to/lastmile_qr_scan"}, "is_reserved": 0}, {"lon": -77.00575333333333, "bike_id": "fe71e8e17af106b13bed28f4f999737c", "lat": 38.884364, "fusion_lon": 0.0, "fusion_lat": 0.0, "type": "electric_scooter", "name": "fe71e8e17af106b13bed28f4f999737c", "is_disabled": 0, "rental_uris": {"ios": "https://dc.lft.to/lastmile_qr_scan", "android": "https://dc.lft.to/lastmile_qr_scan"}, "is_reserved": 0}, {"lon": -76.9984245, "bike_id": "20480cf51edc8148720d38ccf0c9119e", "lat": 38.90214116666667, "fusion_lon": 0.0, "fusion_lat": 0.0, "type": "electric_scooter", "name": "20480cf51edc8148720d38ccf0c9119e", "is_disabled": 0, "rental_uris": {"ios": "https://dc.lft.to/lastmile_qr_scan", "android": "https://dc.lft.to/lastmile_qr_scan"}, "is_reserved": 0}, {"lon": -77.04210683333334, "bike_id": "a9039bce9f3794529d51e78b31b9e7fd", "lat": 38.9209225, "fusion_lon": 0.0, "fusion_lat": 0.0, "type": "electric_scooter", "name": "a9039bce9f3794529d51e78b31b9e7fd", "is_disabled": 0, "rental_uris": {"ios": "https://dc.lft.to/lastmile_qr_scan", "android": "https://dc.lft.to/lastmile_qr_scan"}, "is_reserved": 0}, {"lon": -76.96785283333334, "bike_id": "36a2af03a05e2686987f625352ab2696", "lat": 38.86850333333334, "fusion_lon": 0.0, "fusion_lat": 0.0, "type": "electric_scooter", "name": "36a2af03a05e2686987f625352ab2696", "is_disabled": 0, "rental_uris": {"ios": "https://dc.lft.to/lastmile_qr_scan", "android": "https://dc.lft.to/lastmile_qr_scan"}, "is_reserved": 0}, {"lon": -77.03524516666667, "bike_id": "0bc51b2a072e35b7859cf7b8e098a03e", "lat": 38.924125833333335, "fusion_lon": 0.0, "fusion_lat": 0.0, "type": "electric_bike", "name": "0bc51b2a072e35b7859cf7b8e098a03e", "is_disabled": 0, "rental_uris": {"ios": "https://dc.lft.to/lastmile_qr_scan", "android": "https://dc.lft.to/lastmile_qr_scan"}, "is_reserved": 0}, {"lon": -77.03260066666667, "bike_id": "46c6bc2346e578791da23495f98350ac", "lat": 38.93728866666667, "fusion_lon": 0.0, "fusion_lat": 0.0, "type": "electric_scooter", "name": "46c6bc2346e578791da23495f98350ac", "is_disabled": 0, "rental_uris": {"ios": "https://dc.lft.to/lastmile_qr_scan", "android": "https://dc.lft.to/lastmile_qr_scan"}, "is_reserved": 0}, {"lon": -76.96151816666666, "bike_id": "98e3aa763e96084b0fc48cccc059746e", "lat": 38.883583, "fusion_lon": 0.0, "fusion_lat": 0.0, "type": "electric_scooter", "name": "98e3aa763e96084b0fc48cccc059746e", "is_disabled": 0, "rental_uris": {"ios": "https://dc.lft.to/lastmile_qr_scan", "android": "https://dc.lft.to/lastmile_qr_scan"}, "is_reserved": 0}, {"lon": -77.03887783333333, "bike_id": "398cd42f1678cf1da4928cb465c95656", "lat": 38.910130333333335, "fusion_lon": 0.0, "fusion_lat": 0.0, "type": "electric_scooter", "name": "398cd42f1678cf1da4928cb465c95656", "is_disabled": 0, "rental_uris": {"ios": "https://dc.lft.to/lastmile_qr_scan", "android": "https://dc.lft.to/lastmile_qr_scan"}, "is_reserved": 0}, {"lon": -77.03863833333334, "bike_id": "7724f3dcd2caa8f3de5fe6d16b36b017", "lat": 38.94505683333333, "fusion_lon": 0.0, "fusion_lat": 0.0, "type": "electric_scooter", "name": "7724f3dcd2caa8f3de5fe6d16b36b017", "is_disabled": 0, "rental_uris": {"ios": "https://dc.lft.to/lastmile_qr_scan", "android": "https://dc.lft.to/lastmile_qr_scan"}, "is_reserved": 0}, {"lon": -77.02613416666667, "bike_id": "b33dcbe0f95284a7b898909c23e5b70f", "lat": 38.91416666666667, "fusion_lon": 0.0, "fusion_lat": 0.0, "type": "electric_scooter", "name": "b33dcbe0f95284a7b898909c23e5b70f", "is_disabled": 0, "rental_uris": {"ios": "https://dc.lft.to/lastmile_qr_scan", "android": "https://dc.lft.to/lastmile_qr_scan"}, "is_reserved": 0}, {"lon": -77.03217933333333, "bike_id": "6dc0adb99d559ae897dad983f068529c", "lat": 38.91478683333333, "fusion_lon": 0.0, "fusion_lat": 0.0, "type": "electric_scooter", "name": "6dc0adb99d559ae897dad983f068529c", "is_disabled": 0, "rental_uris": {"ios": "https://dc.lft.to/lastmile_qr_scan", "android": "https://dc.lft.to/lastmile_qr_scan"}, "is_reserved": 0}, {"lon": -76.95366716666666, "bike_id": "cb1970924252dd61d770e15837682574", "lat": 38.892034, "fusion_lon": 0.0, "fusion_lat": 0.0, "type": "electric_scooter", "name": "cb1970924252dd61d770e15837682574", "is_disabled": 0, "rental_uris": {"ios": "https://dc.lft.to/lastmile_qr_scan", "android": "https://dc.lft.to/lastmile_qr_scan"}, "is_reserved": 0}, {"lon": -76.98721266666666, "bike_id": "4c6a004e009f82e80b5a800d33869dcb", "lat": 38.8668415, "fusion_lon": 0.0, "fusion_lat": 0.0, "type": "electric_scooter", "name": "4c6a004e009f82e80b5a800d33869dcb", "is_disabled": 0, "rental_uris": {"ios": "https://dc.lft.to/lastmile_qr_scan", "android": "https://dc.lft.to/lastmile_qr_scan"}, "is_reserved": 0}, {"lon": -76.99172916666667, "bike_id": "8c9ea08f8d17d7a70009966aaab5e7f6", "lat": 38.8898865, "fusion_lon": 0.0, "fusion_lat": 0.0, "type": "electric_scooter", "name": "8c9ea08f8d17d7a70009966aaab5e7f6", "is_disabled": 0, "rental_uris": {"ios": "https://dc.lft.to/lastmile_qr_scan", "android": "https://dc.lft.to/lastmile_qr_scan"}, "is_reserved": 0}, {"lon": -77.02712816666667, "bike_id": "f5874293bf4f580b83619f5633f66cda", "lat": 38.904745166666665, "fusion_lon": 0.0, "fusion_lat": 0.0, "type": "electric_scooter", "name": "f5874293bf4f580b83619f5633f66cda", "is_disabled": 0, "rental_uris": {"ios": "https://dc.lft.to/lastmile_qr_scan", "android": "https://dc.lft.to/lastmile_qr_scan"}, "is_reserved": 0}, {"lon": -77.00971333333334, "bike_id": "7a3087fc81c2db8fd8b9811f224f71ea", "lat": 38.9118565, "fusion_lon": 0.0, "fusion_lat": 0.0, "type": "electric_scooter", "name": "7a3087fc81c2db8fd8b9811f224f71ea", "is_disabled": 0, "rental_uris": {"ios": "https://dc.lft.to/lastmile_qr_scan", "android": "https://dc.lft.to/lastmile_qr_scan"}, "is_reserved": 0}, {"lon": -77.0398935, "bike_id": "a91c93ed57c695417d27385d8f442942", "lat": 38.9036275, "fusion_lon": 0.0, "fusion_lat": 0.0, "type": "electric_scooter", "name": "a91c93ed57c695417d27385d8f442942", "is_disabled": 0, "rental_uris": {"ios": "https://dc.lft.to/lastmile_qr_scan", "android": "https://dc.lft.to/lastmile_qr_scan"}, "is_reserved": 0}, {"lon": -77.0192565, "bike_id": "32ee047d279e26a083e46494c013189b", "lat": 38.89837416666667, "fusion_lon": 0.0, "fusion_lat": 0.0, "type": "electric_scooter", "name": "32ee047d279e26a083e46494c013189b", "is_disabled": 0, "rental_uris": {"ios": "https://dc.lft.to/lastmile_qr_scan", "android": "https://dc.lft.to/lastmile_qr_scan"}, "is_reserved": 0}, {"lon": -77.02279616666667, "bike_id": "92c5fa28fe0dc8e91649069861ddf738", "lat": 38.926863, "fusion_lon": 0.0, "fusion_lat": 0.0, "type": "electric_scooter", "name": "92c5fa28fe0dc8e91649069861ddf738", "is_disabled": 0, "rental_uris": {"ios": "https://dc.lft.to/lastmile_qr_scan", "android": "https://dc.lft.to/lastmile_qr_scan"}, "is_reserved": 0}, {"lon": -77.035506, "bike_id": "df961664745c80d297c888b5c509026d", "lat": 38.92415333333334, "fusion_lon": 0.0, "fusion_lat": 0.0, "type": "electric_scooter", "name": "df961664745c80d297c888b5c509026d", "is_disabled": 0, "rental_uris": {"ios": "https://dc.lft.to/lastmile_qr_scan", "android": "https://dc.lft.to/lastmile_qr_scan"}, "is_reserved": 0}, {"lon": -77.00758133333333, "bike_id": "b24ef8a1a2da13c44c80f503a30d057f", "lat": 38.9004835, "fusion_lon": 0.0, "fusion_lat": 0.0, "type": "electric_scooter", "name": "b24ef8a1a2da13c44c80f503a30d057f", "is_disabled": 0, "rental_uris": {"ios": "https://dc.lft.to/lastmile_qr_scan", "android": "https://dc.lft.to/lastmile_qr_scan"}, "is_reserved": 0}, {"lon": -77.02587333333334, "bike_id": "7d08fcf636dffe8398a7c46ac6b33c79", "lat": 38.89230466666667, "fusion_lon": 0.0, "fusion_lat": 0.0, "type": "electric_scooter", "name": "7d08fcf636dffe8398a7c46ac6b33c79", "is_disabled": 0, "rental_uris": {"ios": "https://dc.lft.to/lastmile_qr_scan", "android": "https://dc.lft.to/lastmile_qr_scan"}, "is_reserved": 0}, {"lon": -76.98156633333333, "bike_id": "b244b727e3fbcfb52300349328341b39", "lat": 38.92571516666667, "fusion_lon": 0.0, "fusion_lat": 0.0, "type": "electric_scooter", "name": "b244b727e3fbcfb52300349328341b39", "is_disabled": 0, "rental_uris": {"ios": "https://dc.lft.to/lastmile_qr_scan", "android": "https://dc.lft.to/lastmile_qr_scan"}, "is_reserved": 0}, {"lon": -77.032566, "bike_id": "56b836607bc61ae5fadb0f863312b7dd", "lat": 38.9140205, "fusion_lon": 0.0, "fusion_lat": 0.0, "type": "electric_scooter", "name": "56b836607bc61ae5fadb0f863312b7dd", "is_disabled": 0, "rental_uris": {"ios": "https://dc.lft.to/lastmile_qr_scan", "android": "https://dc.lft.to/lastmile_qr_scan"}, "is_reserved": 0}, {"lon": -76.99643983333333, "bike_id": "169a167fc8aeffedf372b9874684a4ac", "lat": 38.988279, "fusion_lon": 0.0, "fusion_lat": 0.0, "type": "electric_bike", "name": "169a167fc8aeffedf372b9874684a4ac", "is_disabled": 0, "rental_uris": {"ios": "https://dc.lft.to/lastmile_qr_scan", "android": "https://dc.lft.to/lastmile_qr_scan"}, "is_reserved": 0}, {"lon": -77.04986216666667, "bike_id": "d430d73d3f681b303c30ce83433c7873", "lat": 38.896075833333335, "fusion_lon": 0.0, "fusion_lat": 0.0, "type": "electric_scooter", "name": "d430d73d3f681b303c30ce83433c7873", "is_disabled": 0, "rental_uris": {"ios": "https://dc.lft.to/lastmile_qr_scan", "android": "https://dc.lft.to/lastmile_qr_scan"}, "is_reserved": 0}, {"lon": -77.02617916666667, "bike_id": "a69a3cd5e56e3eb9b3c8f584df721acb", "lat": 38.89816, "fusion_lon": 0.0, "fusion_lat": 0.0, "type": "electric_scooter", "name": "a69a3cd5e56e3eb9b3c8f584df721acb", "is_disabled": 0, "rental_uris": {"ios": "https://dc.lft.to/lastmile_qr_scan", "android": "https://dc.lft.to/lastmile_qr_scan"}, "is_reserved": 0}, {"lon": -77.02847533333333, "bike_id": "8fdd4cd9b649e3d982e2b85edb689673", "lat": 38.9323895, "fusion_lon": 0.0, "fusion_lat": 0.0, "type": "electric_scooter", "name": "8fdd4cd9b649e3d982e2b85edb689673", "is_disabled": 0, "rental_uris": {"ios": "https://dc.lft.to/lastmile_qr_scan", "android": "https://dc.lft.to/lastmile_qr_scan"}, "is_reserved": 0}, {"lon": -77.0413955, "bike_id": "c965e2301740f457107905e8f86596c7", "lat": 38.92349466666667, "fusion_lon": 0.0, "fusion_lat": 0.0, "type": "electric_scooter", "name": "c965e2301740f457107905e8f86596c7", "is_disabled": 0, "rental_uris": {"ios": "https://dc.lft.to/lastmile_qr_scan", "android": "https://dc.lft.to/lastmile_qr_scan"}, "is_reserved": 0}, {"lon": -77.02212083333333, "bike_id": "ffa92c9714356bc909ac98c670471416", "lat": 38.95099616666667, "fusion_lon": 0.0, "fusion_lat": 0.0, "type": "electric_scooter", "name": "ffa92c9714356bc909ac98c670471416", "is_disabled": 0, "rental_uris": {"ios": "https://dc.lft.to/lastmile_qr_scan", "android": "https://dc.lft.to/lastmile_qr_scan"}, "is_reserved": 0}, {"lon": -77.0057125, "bike_id": "376cf6961383abffdfd3d2678b696f50", "lat": 38.876544, "fusion_lon": 0.0, "fusion_lat": 0.0, "type": "electric_scooter", "name": "376cf6961383abffdfd3d2678b696f50", "is_disabled": 0, "rental_uris": {"ios": "https://dc.lft.to/lastmile_qr_scan", "android": "https://dc.lft.to/lastmile_qr_scan"}, "is_reserved": 0}, {"lon": -77.04169516666667, "bike_id": "8b8a14b00cc7d225fd76dd8aaeacd0d6", "lat": 38.9177025, "fusion_lon": 0.0, "fusion_lat": 0.0, "type": "electric_scooter", "name": "8b8a14b00cc7d225fd76dd8aaeacd0d6", "is_disabled": 0, "rental_uris": {"ios": "https://dc.lft.to/lastmile_qr_scan", "android": "https://dc.lft.to/lastmile_qr_scan"}, "is_reserved": 0}, {"lon": -77.00167366666666, "bike_id": "941f7064855335e6e1aab712350c9aca", "lat": 38.90041016666667, "fusion_lon": 0.0, "fusion_lat": 0.0, "type": "electric_scooter", "name": "941f7064855335e6e1aab712350c9aca", "is_disabled": 0, "rental_uris": {"ios": "https://dc.lft.to/lastmile_qr_scan", "android": "https://dc.lft.to/lastmile_qr_scan"}, "is_reserved": 0}, {"lon": -76.98010216666667, "bike_id": "9775c46be689d58102423080f3f8ce37", "lat": 38.853189, "fusion_lon": 0.0, "fusion_lat": 0.0, "type": "electric_bike", "name": "9775c46be689d58102423080f3f8ce37", "is_disabled": 0, "rental_uris": {"ios": "https://dc.lft.to/lastmile_qr_scan", "android": "https://dc.lft.to/lastmile_qr_scan"}, "is_reserved": 0}, {"lon": -77.02614183333333, "bike_id": "5a733934244dfb4004a6968af7ff0083", "lat": 38.9140315, "fusion_lon": 0.0, "fusion_lat": 0.0, "type": "electric_scooter", "name": "5a733934244dfb4004a6968af7ff0083", "is_disabled": 0, "rental_uris": {"ios": "https://dc.lft.to/lastmile_qr_scan", "android": "https://dc.lft.to/lastmile_qr_scan"}, "is_reserved": 0}, {"lon": -77.02142033333334, "bike_id": "5a7961180dc916464f88a87431ae5a03", "lat": 38.91411516666667, "fusion_lon": 0.0, "fusion_lat": 0.0, "type": "electric_scooter", "name": "5a7961180dc916464f88a87431ae5a03", "is_disabled": 0, "rental_uris": {"ios": "https://dc.lft.to/lastmile_qr_scan", "android": "https://dc.lft.to/lastmile_qr_scan"}, "is_reserved": 0}, {"lon": -77.02004816666667, "bike_id": "748242afac9583a49733851c9d408e73", "lat": 38.924089, "fusion_lon": 0.0, "fusion_lat": 0.0, "type": "electric_scooter", "name": "748242afac9583a49733851c9d408e73", "is_disabled": 0, "rental_uris": {"ios": "https://dc.lft.to/lastmile_qr_scan", "android": "https://dc.lft.to/lastmile_qr_scan"}, "is_reserved": 0}, {"lon": -77.10151483333334, "bike_id": "58e419e50e648f64b203506a9da0d106", "lat": 38.92532666666666, "fusion_lon": 0.0, "fusion_lat": 0.0, "type": "electric_scooter", "name": "58e419e50e648f64b203506a9da0d106", "is_disabled": 0, "rental_uris": {"ios": "https://dc.lft.to/lastmile_qr_scan", "android": "https://dc.lft.to/lastmile_qr_scan"}, "is_reserved": 0}, {"lon": -76.93879916666667, "bike_id": "a4dd86cac5ed865aedb3064f82cdf455", "lat": 38.95635033333333, "fusion_lon": 0.0, "fusion_lat": 0.0, "type": "electric_bike", "name": "a4dd86cac5ed865aedb3064f82cdf455", "is_disabled": 0, "rental_uris": {"ios": "https://dc.lft.to/lastmile_qr_scan", "android": "https://dc.lft.to/lastmile_qr_scan"}, "is_reserved": 0}, {"lon": -76.9838815, "bike_id": "e401d4adc4f655a8bd66bb2876348b95", "lat": 38.904727, "fusion_lon": 0.0, "fusion_lat": 0.0, "type": "electric_scooter", "name": "e401d4adc4f655a8bd66bb2876348b95", "is_disabled": 0, "rental_uris": {"ios": "https://dc.lft.to/lastmile_qr_scan", "android": "https://dc.lft.to/lastmile_qr_scan"}, "is_reserved": 0}, {"lon": -77.04534083333333, "bike_id": "486112f72d6e72d6e86d29caca494ea7", "lat": 38.913301, "fusion_lon": 0.0, "fusion_lat": 0.0, "type": "electric_scooter", "name": "486112f72d6e72d6e86d29caca494ea7", "is_disabled": 0, "rental_uris": {"ios": "https://dc.lft.to/lastmile_qr_scan", "android": "https://dc.lft.to/lastmile_qr_scan"}, "is_reserved": 0}, {"lon": -77.233169, "bike_id": "d664bc959982540c1330f7d748b55db7", "lat": 38.872835333333335, "fusion_lon": 0.0, "fusion_lat": 0.0, "type": "electric_bike", "name": "d664bc959982540c1330f7d748b55db7", "is_disabled": 0, "rental_uris": {"ios": "https://dc.lft.to/lastmile_qr_scan", "android": "https://dc.lft.to/lastmile_qr_scan"}, "is_reserved": 0}, {"lon": -76.97298483333333, "bike_id": "41416acb1c89eb6f04f3fb4770532038", "lat": 38.916466, "fusion_lon": 0.0, "fusion_lat": 0.0, "type": "electric_bike", "name": "41416acb1c89eb6f04f3fb4770532038", "is_disabled": 0, "rental_uris": {"ios": "https://dc.lft.to/lastmile_qr_scan", "android": "https://dc.lft.to/lastmile_qr_scan"}, "is_reserved": 0}, {"lon": -77.0315445, "bike_id": "4589c06cf68b2559631f03d8541b4364", "lat": 38.91698383333333, "fusion_lon": 0.0, "fusion_lat": 0.0, "type": "electric_scooter", "name": "4589c06cf68b2559631f03d8541b4364", "is_disabled": 0, "rental_uris": {"ios": "https://dc.lft.to/lastmile_qr_scan", "android": "https://dc.lft.to/lastmile_qr_scan"}, "is_reserved": 0}, {"lon": -77.02836933333333, "bike_id": "95b4859c52c2760f43b6b2be65de6c6f", "lat": 38.88773966666667, "fusion_lon": 0.0, "fusion_lat": 0.0, "type": "electric_scooter", "name": "95b4859c52c2760f43b6b2be65de6c6f", "is_disabled": 0, "rental_uris": {"ios": "https://dc.lft.to/lastmile_qr_scan", "android": "https://dc.lft.to/lastmile_qr_scan"}, "is_reserved": 0}, {"lon": -77.05213483333333, "bike_id": "ca9de278441e13a9952e533c55a4894d", "lat": 38.924828, "fusion_lon": 0.0, "fusion_lat": 0.0, "type": "electric_scooter", "name": "ca9de278441e13a9952e533c55a4894d", "is_disabled": 0, "rental_uris": {"ios": "https://dc.lft.to/lastmile_qr_scan", "android": "https://dc.lft.to/lastmile_qr_scan"}, "is_reserved": 0}, {"lon": -77.23327616666667, "bike_id": "7f08ba136165df2d011e1265e2c4007b", "lat": 38.8727735, "fusion_lon": 0.0, "fusion_lat": 0.0, "type": "electric_bike", "name": "7f08ba136165df2d011e1265e2c4007b", "is_disabled": 0, "rental_uris": {"ios": "https://dc.lft.to/lastmile_qr_scan", "android": "https://dc.lft.to/lastmile_qr_scan"}, "is_reserved": 0}, {"lon": -77.00890733333334, "bike_id": "91f8abd89294b02256883cd1185a70d5", "lat": 38.922802833333336, "fusion_lon": 0.0, "fusion_lat": 0.0, "type": "electric_scooter", "name": "91f8abd89294b02256883cd1185a70d5", "is_disabled": 0, "rental_uris": {"ios": "https://dc.lft.to/lastmile_qr_scan", "android": "https://dc.lft.to/lastmile_qr_scan"}, "is_reserved": 0}, {"lon": -77.03401183333334, "bike_id": "ea3a85b85337f16ffcde2e27513ec8e6", "lat": 38.92633566666667, "fusion_lon": 0.0, "fusion_lat": 0.0, "type": "electric_scooter", "name": "ea3a85b85337f16ffcde2e27513ec8e6", "is_disabled": 0, "rental_uris": {"ios": "https://dc.lft.to/lastmile_qr_scan", "android": "https://dc.lft.to/lastmile_qr_scan"}, "is_reserved": 0}, {"lon": -77.01907383333334, "bike_id": "bfd6eba27f38b821c8cc2917c18795b3", "lat": 38.903111, "fusion_lon": 0.0, "fusion_lat": 0.0, "type": "electric_bike", "name": "bfd6eba27f38b821c8cc2917c18795b3", "is_disabled": 0, "rental_uris": {"ios": "https://dc.lft.to/lastmile_qr_scan", "android": "https://dc.lft.to/lastmile_qr_scan"}, "is_reserved": 0}, {"lon": -77.02890333333333, "bike_id": "12d330c460f7ab71942b9706248d2002", "lat": 38.9043, "fusion_lon": 0.0, "fusion_lat": 0.0, "type": "electric_scooter", "name": "12d330c460f7ab71942b9706248d2002", "is_disabled": 0, "rental_uris": {"ios": "https://dc.lft.to/lastmile_qr_scan", "android": "https://dc.lft.to/lastmile_qr_scan"}, "is_reserved": 0}, {"lon": -76.965506, "bike_id": "3ac73bf5f5bb456f8c6ddee66a1c557c", "lat": 38.918540166666666, "fusion_lon": 0.0, "fusion_lat": 0.0, "type": "electric_scooter", "name": "3ac73bf5f5bb456f8c6ddee66a1c557c", "is_disabled": 0, "rental_uris": {"ios": "https://dc.lft.to/lastmile_qr_scan", "android": "https://dc.lft.to/lastmile_qr_scan"}, "is_reserved": 0}, {"lon": -77.01188666666667, "bike_id": "e2b13328c19ba17a559e98f105677532", "lat": 38.91554, "fusion_lon": 0.0, "fusion_lat": 0.0, "type": "electric_scooter", "name": "e2b13328c19ba17a559e98f105677532", "is_disabled": 0, "rental_uris": {"ios": "https://dc.lft.to/lastmile_qr_scan", "android": "https://dc.lft.to/lastmile_qr_scan"}, "is_reserved": 0}, {"lon": -77.0367295, "bike_id": "2ca84560566c2b3ce895f368f266d461", "lat": 38.916926333333336, "fusion_lon": 0.0, "fusion_lat": 0.0, "type": "electric_scooter", "name": "2ca84560566c2b3ce895f368f266d461", "is_disabled": 0, "rental_uris": {"ios": "https://dc.lft.to/lastmile_qr_scan", "android": "https://dc.lft.to/lastmile_qr_scan"}, "is_reserved": 0}, {"lon": -77.02698683333334, "bike_id": "5655d1b14853053790bb246e53ca326c", "lat": 38.927751666666666, "fusion_lon": 0.0, "fusion_lat": 0.0, "type": "electric_scooter", "name": "5655d1b14853053790bb246e53ca326c", "is_disabled": 0, "rental_uris": {"ios": "https://dc.lft.to/lastmile_qr_scan", "android": "https://dc.lft.to/lastmile_qr_scan"}, "is_reserved": 0}, {"lon": -77.02387716666667, "bike_id": "a310d8cd48e268447fdcf775b29e0aab", "lat": 38.917475333333336, "fusion_lon": 0.0, "fusion_lat": 0.0, "type": "electric_scooter", "name": "a310d8cd48e268447fdcf775b29e0aab", "is_disabled": 0, "rental_uris": {"ios": "https://dc.lft.to/lastmile_qr_scan", "android": "https://dc.lft.to/lastmile_qr_scan"}, "is_reserved": 0}, {"lon": -77.0075725, "bike_id": "8fe555a27faf71959da558eca2170374", "lat": 38.91025283333333, "fusion_lon": 0.0, "fusion_lat": 0.0, "type": "electric_scooter", "name": "8fe555a27faf71959da558eca2170374", "is_disabled": 0, "rental_uris": {"ios": "https://dc.lft.to/lastmile_qr_scan", "android": "https://dc.lft.to/lastmile_qr_scan"}, "is_reserved": 0}, {"lon": -77.00477416666666, "bike_id": "cfa800cb0fa77bbd35d2d9e42524fb93", "lat": 38.874758666666665, "fusion_lon": 0.0, "fusion_lat": 0.0, "type": "electric_scooter", "name": "cfa800cb0fa77bbd35d2d9e42524fb93", "is_disabled": 0, "rental_uris": {"ios": "https://dc.lft.to/lastmile_qr_scan", "android": "https://dc.lft.to/lastmile_qr_scan"}, "is_reserved": 0}, {"lon": -76.9732465, "bike_id": "7f3dc265f71f7cc04bffbcabbd0c478a", "lat": 38.9048025, "fusion_lon": 0.0, "fusion_lat": 0.0, "type": "electric_bike", "name": "7f3dc265f71f7cc04bffbcabbd0c478a", "is_disabled": 0, "rental_uris": {"ios": "https://dc.lft.to/lastmile_qr_scan", "android": "https://dc.lft.to/lastmile_qr_scan"}, "is_reserved": 0}, {"lon": -76.99525383333334, "bike_id": "cfc3d16a09f7669b7f7700922b71cb91", "lat": 38.894793, "fusion_lon": 0.0, "fusion_lat": 0.0, "type": "electric_scooter", "name": "cfc3d16a09f7669b7f7700922b71cb91", "is_disabled": 0, "rental_uris": {"ios": "https://dc.lft.to/lastmile_qr_scan", "android": "https://dc.lft.to/lastmile_qr_scan"}, "is_reserved": 0}, {"lon": -76.95526066666666, "bike_id": "b7db09b62047ef61bc49a2ea6acd8289", "lat": 38.887683333333335, "fusion_lon": 0.0, "fusion_lat": 0.0, "type": "electric_scooter", "name": "b7db09b62047ef61bc49a2ea6acd8289", "is_disabled": 0, "rental_uris": {"ios": "https://dc.lft.to/lastmile_qr_scan", "android": "https://dc.lft.to/lastmile_qr_scan"}, "is_reserved": 0}, {"lon": -77.04570466666667, "bike_id": "cf43dea81290aaf7f8ae3457e22df204", "lat": 38.9148235, "fusion_lon": 0.0, "fusion_lat": 0.0, "type": "electric_scooter", "name": "cf43dea81290aaf7f8ae3457e22df204", "is_disabled": 0, "rental_uris": {"ios": "https://dc.lft.to/lastmile_qr_scan", "android": "https://dc.lft.to/lastmile_qr_scan"}, "is_reserved": 0}, {"lon": -77.02898866666666, "bike_id": "30211f6136e1930f3ed33e9df4012bb3", "lat": 38.917104, "fusion_lon": 0.0, "fusion_lat": 0.0, "type": "electric_scooter", "name": "30211f6136e1930f3ed33e9df4012bb3", "is_disabled": 0, "rental_uris": {"ios": "https://dc.lft.to/lastmile_qr_scan", "android": "https://dc.lft.to/lastmile_qr_scan"}, "is_reserved": 0}, {"lon": -76.9849245, "bike_id": "27b9600823a63b3aeb521ffa5fee1b13", "lat": 38.8935625, "fusion_lon": 0.0, "fusion_lat": 0.0, "type": "electric_scooter", "name": "27b9600823a63b3aeb521ffa5fee1b13", "is_disabled": 0, "rental_uris": {"ios": "https://dc.lft.to/lastmile_qr_scan", "android": "https://dc.lft.to/lastmile_qr_scan"}, "is_reserved": 0},