{"data": {"bikes": [{"lat": 38.934500666666665, "fusion_lat": 0.0, "type": "electric_scooter", "name": "8bb4fa3aa025513e8fbccbf29a8f13ee", "is_disabled": 0, "bike_id": "8bb4fa3aa025513e8fbccbf29a8f13ee", "lon": -77.02896683333333, "rental_uris": {"android": "https://dc.lft.to/lastmile_qr_scan", "ios": "https://dc.lft.to/lastmile_qr_scan"}, "fusion_lon": 0.0, "is_reserved": 0}, {"lat": 38.90719133333333, "fusion_lat": 0.0, "type": "electric_scooter", "name": "c2bf626a215d070430689fd81785f3d0", "is_disabled": 0, "bike_id": "c2bf626a215d070430689fd81785f3d0", "lon": -77.02678283333333, "rental_uris": {"android": "https://dc.lft.to/lastmile_qr_scan", "ios": "https://dc.lft.to/lastmile_qr_scan"}, "fusion_lon": 0.0, "is_reserved": 0}, {"lat": 38.92069433333333, "fusion_lat": 0.0, "type": "electric_scooter", "name": "3200d215f90ab2374349fcfc06c3a299", "is_disabled": 0, "bike_id": "3200d215f90ab2374349fcfc06c3a299", "lon": -77.02213316666666, "rental_uris": {"android": "https://dc.lft.to/lastmile_qr_scan", "ios": "https://dc.lft.to/lastmile_qr_scan"}, "fusion_lon": 0.0, "is_reserved": 0}, {"lat": 38.921001333333336, "fusion_lat": 0.0, "type": "electric_scooter", "name": "9a1153d208fbac0709e03a489d50dfbc", "is_disabled": 0, "bike_id": "9a1153d208fbac0709e03a489d50dfbc", "lon": -77.06332466666667, "rental_uris": {"android": "https://dc.lft.to/lastmile_qr_scan", "ios": "https://dc.lft.to/lastmile_qr_scan"}, "fusion_lon": 0.0, "is_reserved": 0}, {"lat": 38.89314916666667, "fusion_lat": 0.0, "type": "electric_scooter", "name": "4bd75d87bf1137bf94e55d109c32afff", "is_disabled": 0, "bike_id": "4bd75d87bf1137bf94e55d109c32afff", "lon": -77.0318815, "rental_uris": {"android": "https://dc.lft.to/lastmile_qr_scan", "ios": "https://dc.lft.to/lastmile_qr_scan"}, "fusion_lon": 0.0, "is_reserved": 0}, {"lat": 38.92271483333333, "fusion_lat": 0.0, "type": "electric_scooter", "name": "bfa7440c5f1dbac0267446b2ade142a3", "is_disabled": 0, "bike_id": "bfa7440c5f1dbac0267446b2ade142a3", "lon": -77.0091745, "rental_uris": {"android": "https://dc.lft.to/lastmile_qr_scan", "ios": "https://dc.lft.to/lastmile_qr_scan"}, "fusion_lon": 0.0, "is_reserved": 0}, {"lat": 38.9217455, "fusion_lat": 0.0, "type": "electric_scooter", "name": "a6c9e4fff1e76b9286f0a006515c3485", "is_disabled": 0, "bike_id": "a6c9e4fff1e76b9286f0a006515c3485", "lon": -77.04699383333333, "rental_uris": {"android": "https://dc.lft.to/lastmile_qr_scan", "ios": "https://dc.lft.to/lastmile_qr_scan"}, "fusion_lon": 0.0, "is_reserved": 0}, {"lat": 38.905171, "fusion_lat": 0.0, "type": "electric_scooter", "name": "9de807a23d0b04c1fcc98a5e3ff49958", "is_disabled": 0, "bike_id": "9de807a23d0b04c1fcc98a5e3ff49958", "lon": -77.06550233333333, "rental_uris": {"android": "https://dc.lft.to/lastmile_qr_scan", "ios": "https://dc.lft.to/lastmile_qr_scan"}, "fusion_lon": 0.0, "is_reserved": 0}, {"lat": 38.93876216666666, "fusion_lat": 0.0, "type": "electric_scooter", "name": "861ed68ed7a4f396d631fdea800c0d39", "is_disabled": 0, "bike_id": "861ed68ed7a4f396d631fdea800c0d39", "lon": -77.024798, "rental_uris": {"android": "https://dc.lft.to/lastmile_qr_scan", "ios": "https://dc.lft.to/lastmile_qr_scan"}, "fusion_lon": 0.0, "is_reserved": 0}, {"lat": 38.910532833333335, "fusion_lat": 0.0, "type": "electric_scooter", "name": "bf043fd7ea4605f6eea6f95de69bee52", "is_disabled": 0, "bike_id": "bf043fd7ea4605f6eea6f95de69bee52", "lon": -77.02191033333334, "rental_uris": {"android": "https://dc.lft.to/lastmile_qr_scan", "ios": "https://dc.lft.to/lastmile_qr_scan"}, "fusion_lon": 0.0, "is_reserved": 0}, {"lat": 38.90006433333333, "fusion_lat": 0.0, "type": "electric_scooter", "name": "74ffb3a1c50531a62737dd517866c6bd", "is_disabled": 0, "bike_id": "74ffb3a1c50531a62737dd517866c6bd", "lon": -77.00227066666666, "rental_uris": {"android": "https://dc.lft.to/lastmile_qr_scan", "ios": "https://dc.lft.to/lastmile_qr_scan"}, "fusion_lon": 0.0, "is_reserved": 0}, {"lat": 38.93914183333333, "fusion_lat": 0.0, "type": "electric_scooter", "name": "44ba9d3333a22bdccc4f5d71d8dbd4d8", "is_disabled": 0, "bike_id": "44ba9d3333a22bdccc4f5d71d8dbd4d8", "lon": -77.06041483333334, "rental_uris": {"android": "https://dc.lft.to/lastmile_qr_scan", "ios": "https://dc.lft.to/lastmile_qr_scan"}, "fusion_lon": 0.0, "is_reserved": 0}, {"lat": 38.903624, "fusion_lat": 0.0, "type": "electric_scooter", "name": "d098390a75b8f09afd5e5833992a77c5", "is_disabled": 0, "bike_id": "d098390a75b8f09afd5e5833992a77c5", "lon": -77.04537333333333, "rental_uris": {"android": "https://dc.lft.to/lastmile_qr_scan", "ios": "https://dc.lft.to/lastmile_qr_scan"}, "fusion_lon": 0.0, "is_reserved": 0}, {"lat": 38.87442383333333, "fusion_lat": 0.0, "type": "electric_scooter", "name": "fc1df7e5d718b2553f8b313b61bca02e", "is_disabled": 0, "bike_id": "fc1df7e5d718b2553f8b313b61bca02e", "lon": -77.0003765, "rental_uris": {"android": "https://dc.lft.to/lastmile_qr_scan", "ios": "https://dc.lft.to/lastmile_qr_scan"}, "fusion_lon": 0.0, "is_reserved": 0}, {"lat": 38.90137266666667, "fusion_lat": 0.0, "type": "electric_scooter", "name": "c824604a73a6967924beaef4373a592d", "is_disabled": 0, "bike_id": "c824604a73a6967924beaef4373a592d", "lon": -77.01911083333333, "rental_uris": {"android": "https://dc.lft.to/lastmile_qr_scan", "ios": "https://dc.lft.to/lastmile_qr_scan"}, "fusion_lon": 0.0, "is_reserved": 0}, {"lat": 38.862353, "fusion_lat": 0.0, "type": "electric_bike", "name": "22c3715dc6c7f04447dbd324f2705ae4", "is_disabled": 0, "bike_id": "22c3715dc6c7f04447dbd324f2705ae4", "lon": -76.95275866666667, "rental_uris": {"android": "https://dc.lft.to/lastmile_qr_scan", "ios": "https://dc.lft.to/lastmile_qr_scan"}, "fusion_lon": 0.0, "is_reserved": 0}, {"lat": 38.913203833333334, "fusion_lat": 0.0, "type": "electric_scooter", "name": "ba2434d34ada21c35a85248df60ef094", "is_disabled": 0, "bike_id": "ba2434d34ada21c35a85248df60ef094", "lon": -77.0332915, "rental_uris": {"android": "https://dc.lft.to/lastmile_qr_scan", "ios": "https://dc.lft.to/lastmile_qr_scan"}, "fusion_lon": 0.0, "is_reserved": 0}, {"lat": 38.90736783333333, "fusion_lat": 0.0, "type": "electric_scooter", "name": "a207578eeebe486a3a3cefe7728b2048", "is_disabled": 0, "bike_id": "a207578eeebe486a3a3cefe7728b2048", "lon": -77.04286833333333, "rental_uris": {"android": "https://dc.lft.to/lastmile_qr_scan", "ios": "https://dc.lft.to/lastmile_qr_scan"}, "fusion_lon": 0.0, "is_reserved": 0}, {"lat": 38.906653666666664, "fusion_lat": 0.0, "type": "electric_scooter", "name": "cd3513e8ded0cf0ecc911607d4320bda", "is_disabled": 0, "bike_id": "cd3513e8ded0cf0ecc911607d4320bda", "lon": -77.02704016666667, "rental_uris": {"android": "https://dc.lft.to/lastmile_qr_scan", "ios": "https://dc.lft.to/lastmile_qr_scan"}, "fusion_lon": 0.0, "is_reserved": 0}, {"lat": 38.923201, "fusion_lat": 0.0, "type": "electric_scooter", "name": "7090a87c8980c97826dbe9d8754e1a84", "is_disabled": 0, "bike_id": "7090a87c8980c97826dbe9d8754e1a84", "lon": -77.01910266666667, "rental_uris": {"android": "https://dc.lft.to/lastmile_qr_scan", "ios": "https://dc.lft.to/lastmile_qr_scan"}, "fusion_lon": 0.0, "is_reserved": 0}, {"lat": 38.92587483333333, "fusion_lat": 0.0, "type": "electric_scooter", "name": "6a257defe4bcfe8d1037483e9af5f22f", "is_disabled": 0, "bike_id": "6a257defe4bcfe8d1037483e9af5f22f", "lon": -77.03222, "rental_uris": {"android": "https://dc.lft.to/lastmile_qr_scan", "ios": "https://dc.lft.to/lastmile_qr_scan"}, "fusion_lon": 0.0, "is_reserved": 0}, {"lat": 38.9005065, "fusion_lat": 0.0, "type": "electric_scooter", "name": "41a4f82d8cbd309eac212883ce955f6f", "is_disabled": 0, "bike_id": "41a4f82d8cbd309eac212883ce955f6f", "lon": -77.04047616666666, "rental_uris": {"android": "https://dc.lft.to/lastmile_qr_scan", "ios": "https://dc.lft.to/lastmile_qr_scan"}, "fusion_lon": 0.0, "is_reserved": 0}, {"lat": 38.91683416666667, "fusion_lat": 0.0, "type": "electric_scooter", "name": "7d25fd233d13c72e9c819b7f6cc696c4", "is_disabled": 0, "bike_id": "7d25fd233d13c72e9c819b7f6cc696c4", "lon": -77.029592, "rental_uris": {"android": "https://dc.lft.to/lastmile_qr_scan", "ios": "https://dc.lft.to/lastmile_qr_scan"}, "fusion_lon": 0.0, "is_reserved": 0}, {"lat": 38.910523166666664, "fusion_lat": 0.0, "type": "electric_scooter", "name": "4d9d683ec279fab3dd699e7660c0595a", "is_disabled": 0, "bike_id": "4d9d683ec279fab3dd699e7660c0595a", "lon": -77.02213716666667, "rental_uris": {"android": "https://dc.lft.to/lastmile_qr_scan", "ios": "https://dc.lft.to/lastmile_qr_scan"}, "fusion_lon": 0.0, "is_reserved": 0}, {"lat": 38.893524, "fusion_lat": 0.0, "type": "electric_bike", "name": "0b2c13d3107d0c262d75c814828b48c4", "is_disabled": 0, "bike_id": "0b2c13d3107d0c262d75c814828b48c4", "lon": -77.18741683333333, "rental_uris": {"android": "https://dc.lft.to/lastmile_qr_scan", "ios": "https://dc.lft.to/lastmile_qr_scan"}, "fusion_lon": 0.0, "is_reserved": 0}, {"lat": 38.918947, "fusion_lat": 0.0, "type": "electric_scooter", "name": "77a4f51bb60e147a153dbf57912ef181", "is_disabled": 0, "bike_id": "77a4f51bb60e147a153dbf57912ef181", "lon": -77.02071266666667, "rental_uris": {"android": "https://dc.lft.to/lastmile_qr_scan", "ios": "https://dc.lft.to/lastmile_qr_scan"}, "fusion_lon": 0.0, "is_reserved": 0}, {"lat": 38.89617583333333, "fusion_lat": 0.0, "type": "electric_scooter", "name": "a65c1f5c55e022ac4854e1eb56c7a443", "is_disabled": 0, "bike_id": "a65c1f5c55e022ac4854e1eb56c7a443", "lon": -77.03951916666666, "rental_uris": {"android": "https://dc.lft.to/lastmile_qr_scan", "ios": "https://dc.lft.to/lastmile_qr_scan"}, "fusion_lon": 0.0, "is_reserved": 0}, {"lat": 38.90299816666667, "fusion_lat": 0.0, "type": "electric_scooter", "name": "27281cf3596b7e1ab82ed450b602c88a", "is_disabled": 0, "bike_id": "27281cf3596b7e1ab82ed450b602c88a", "lon": -77.03445433333333, "rental_uris": {"android": "https://dc.lft.to/lastmile_qr_scan", "ios": "https://dc.lft.to/lastmile_qr_scan"}, "fusion_lon": 0.0, "is_reserved": 0}, {"lat": 38.907407166666665, "fusion_lat": 0.0, "type": "electric_scooter", "name": "d7213498f7904140966e03c77a583093", "is_disabled": 0, "bike_id": "d7213498f7904140966e03c77a583093", "lon": -77.00760383333333, "rental_uris": {"android": "https://dc.lft.to/lastmile_qr_scan", "ios": "https://dc.lft.to/lastmile_qr_scan"}, "fusion_lon": 0.0, "is_reserved": 0}, {"lat": 38.908393333333336, "fusion_lat": 0.0, "type": "electric_scooter", "name": "3cfa708309ee864dc35d2a94ce37c07d", "is_disabled": 0, "bike_id": "3cfa708309ee864dc35d2a94ce37c07d", "lon": -77.05490833333333, "rental_uris": {"android": "https://dc.lft.to/lastmile_qr_scan", "ios": "https://dc.lft.to/lastmile_qr_scan"}, "fusion_lon": 0.0, "is_reserved": 0}, {"lat": 38.89875816666667, "fusion_lat": 0.0, "type": "electric_scooter", "name": "efe39c6c09f93a6862dc78145e49c8ae", "is_disabled": 0, "bike_id": "efe39c6c09f93a6862dc78145e49c8ae", "lon": -77.00928716666667, "rental_uris": {"android": "https://dc.lft.to/lastmile_qr_scan", "ios": "https://dc.lft.to/lastmile_qr_scan"}, "fusion_lon": 0.0, "is_reserved": 0}, {"lat": 38.87714166666667, "fusion_lat": 0.0, "type": "electric_scooter", "name": "4f98b4f53f6289193aab2727b94cd01b", "is_disabled": 0, "bike_id": "4f98b4f53f6289193aab2727b94cd01b", "lon": -77.00328066666667, "rental_uris": {"android": "https://dc.lft.to/lastmile_qr_scan", "ios": "https://dc.lft.to/lastmile_qr_scan"}, "fusion_lon": 0.0, "is_reserved": 0}, {"lat": 38.833733, "fusion_lat": 0.0, "type": "electric_bike", "name": "cfc1687fed202cb6ae2ae9151403336b", "is_disabled": 0, "bike_id": "cfc1687fed202cb6ae2ae9151403336b", "lon": -77.00292766666666, "rental_uris": {"android": "https://dc.lft.to/lastmile_qr_scan", "ios": "https://dc.lft.to/lastmile_qr_scan"}, "fusion_lon": 0.0, "is_reserved": 0}, {"lat": 38.931572, "fusion_lat": 0.0, "type": "electric_scooter", "name": "b740e4a95f8bd3c8bb0854606598c4c0", "is_disabled": 0, "bike_id": "b740e4a95f8bd3c8bb0854606598c4c0", "lon": -77.03613133333333, "rental_uris": {"android": "https://dc.lft.to/lastmile_qr_scan", "ios": "https://dc.lft.to/lastmile_qr_scan"}, "fusion_lon": 0.0, "is_reserved": 0}, {"lat": 38.92068366666667, "fusion_lat": 0.0, "type": "electric_bike", "name": "380f81cf9a628fe4fcbca3b6a735d9fd", "is_disabled": 0, "bike_id": "380f81cf9a628fe4fcbca3b6a735d9fd", "lon": -77.07460016666667, "rental_uris": {"android": "https://dc.lft.to/lastmile_qr_scan", "ios": "https://dc.lft.to/lastmile_qr_scan"}, "fusion_lon": 0.0, "is_reserved": 0}, {"lat": 38.92262933333333, "fusion_lat": 0.0, "type": "electric_scooter", "name": "9a84e2f07c795fb0f85f561b946bcea9", "is_disabled": 0, "bike_id": "9a84e2f07c795fb0f85f561b946bcea9", "lon": -77.021269, "rental_uris": {"android": "https://dc.lft.to/lastmile_qr_scan", "ios": "https://dc.lft.to/lastmile_qr_scan"}, "fusion_lon": 0.0, "is_reserved": 0}, {"lat": 38.9170405, "fusion_lat": 0.0, "type": "electric_scooter", "name": "fbcea109696c29d16596dcb56f5c188c", "is_disabled": 0, "bike_id": "fbcea109696c29d16596dcb56f5c188c", "lon": -77.04174, "rental_uris": {"android": "https://dc.lft.to/lastmile_qr_scan", "ios": "https://dc.lft.to/lastmile_qr_scan"}, "fusion_lon": 0.0, "is_reserved": 0}, {"lat": 38.86517383333333, "fusion_lat": 0.0, "type": "electric_scooter", "name": "941b2263b99b38632da7924c24ba25d9", "is_disabled": 0, "bike_id": "941b2263b99b38632da7924c24ba25d9", "lon": -76.99011283333333, "rental_uris": {"android": "https://dc.lft.to/lastmile_qr_scan", "ios": "https://dc.lft.to/lastmile_qr_scan"}, "fusion_lon": 0.0, "is_reserved": 0}, {"lat": 38.894925, "fusion_lat": 0.0, "type": "electric_scooter", "name": "dadde1920119833838a841b98f9cdabe", "is_disabled": 0, "bike_id": "dadde1920119833838a841b98f9cdabe", "lon": -77.00298933333333, "rental_uris": {"android": "https://dc.lft.to/lastmile_qr_scan", "ios": "https://dc.lft.to/lastmile_qr_scan"}, "fusion_lon": 0.0, "is_reserved": 0}, {"lat": 38.89670566666667, "fusion_lat": 0.0, "type": "electric_scooter", "name": "1bee03470b31d634ae688c8ee2b7c544", "is_disabled": 0, "bike_id": "1bee03470b31d634ae688c8ee2b7c544", "lon": -77.0239215, "rental_uris": {"android": "https://dc.lft.to/lastmile_qr_scan", "ios": "https://dc.lft.to/lastmile_qr_scan"}, "fusion_lon": 0.0, "is_reserved": 0}, {"lat": 38.80449266666667, "fusion_lat": 0.0, "type": "electric_bike", "name": "b6b03c866850dd2d4dea8d3e2fe7b625", "is_disabled": 0, "bike_id": "b6b03c866850dd2d4dea8d3e2fe7b625", "lon": -77.05386983333334, "rental_uris": {"android": "https://dc.lft.to/lastmile_qr_scan", "ios": "https://dc.lft.to/lastmile_qr_scan"}, "fusion_lon": 0.0, "is_reserved": 0}, {"lat": 38.9072945, "fusion_lat": 0.0, "type": "electric_scooter", "name": "40d6347839e4a74101bd7a682802d172", "is_disabled": 0, "bike_id": "40d6347839e4a74101bd7a682802d172", "lon": -77.01095, "rental_uris": {"android": "https://dc.lft.to/lastmile_qr_scan", "ios": "https://dc.lft.to/lastmile_qr_scan"}, "fusion_lon": 0.0, "is_reserved": 0}, {"lat": 38.926873666666665, "fusion_lat": 0.0, "type": "electric_scooter", "name": "e7046e371e2889b60fac316c5b2899c3", "is_disabled": 0, "bike_id": "e7046e371e2889b60fac316c5b2899c3", "lon": -77.0149355, "rental_uris": {"android": "https://dc.lft.to/lastmile_qr_scan", "ios": "https://dc.lft.to/lastmile_qr_scan"}, "fusion_lon": 0.0, "is_reserved": 0}, {"lat": 38.89836433333333, "fusion_lat": 0.0, "type": "electric_scooter", "name": "47d034d26d8df901ee07e6108eaa2717", "is_disabled": 0, "bike_id": "47d034d26d8df901ee07e6108eaa2717", "lon": -77.04155783333333, "rental_uris": {"android": "https://dc.lft.to/lastmile_qr_scan", "ios": "https://dc.lft.to/lastmile_qr_scan"}, "fusion_lon": 0.0, "is_reserved": 0}, {"lat": 38.899820166666665, "fusion_lat": 0.0, "type": "electric_scooter", "name": "88d512beb5aed026256a26dafcaa8b17", "is_disabled": 0, "bike_id": "88d512beb5aed026256a26dafcaa8b17", "lon": -76.98091816666667, "rental_uris": {"android": "https://dc.lft.to/lastmile_qr_scan", "ios": "https://dc.lft.to/lastmile_qr_scan"}, "fusion_lon": 0.0, "is_reserved": 0}, {"lat": 38.91579133333333, "fusion_lat": 0.0, "type": "electric_scooter", "name": "068c66607dcebd66be15ed2ff8336e93", "is_disabled": 0, "bike_id": "068c66607dcebd66be15ed2ff8336e93", "lon": -77.045249, "rental_uris": {"android": "https://dc.lft.to/lastmile_qr_scan", "ios": "https://dc.lft.to/lastmile_qr_scan"}, "fusion_lon": 0.0, "is_reserved": 0}, {"lat": 38.8916525, "fusion_lat": 0.0, "type": "electric_scooter", "name": "ff37c8ea784fb6e526ef78b341d258bf", "is_disabled": 0, "bike_id": "ff37c8ea784fb6e526ef78b341d258bf", "lon": -77.01541233333333, "rental_uris": {"android": "https://dc.lft.to/lastmile_qr_scan", "ios": "https://dc.lft.to/lastmile_qr_scan"}, "fusion_lon": 0.0, "is_reserved": 0}, {"lat": 38.8973405, "fusion_lat": 0.0, "type": "electric_scooter", "name": "07dc0d5cb7526ba31578ce9d03fb73f1", "is_disabled": 0, "bike_id": "07dc0d5cb7526ba31578ce9d03fb73f1", "lon": -77.04786566666667, "rental_uris": {"android": "https://dc.lft.to/lastmile_qr_scan", "ios": "https://dc.lft.to/lastmile_qr_scan"}, "fusion_lon": 0.0, "is_reserved": 0}, {"lat": 38.857556333333335, "fusion_lat": 0.0, "type": "electric_scooter", "name": "1df2b93f9b2335ade06979854abb6d68", "is_disabled": 0, "bike_id": "1df2b93f9b2335ade06979854abb6d68", "lon": -76.99295683333334, "rental_uris": {"android": "https://dc.lft.to/lastmile_qr_scan", "ios": "https://dc.lft.to/lastmile_qr_scan"}, "fusion_lon": 0.0, "is_reserved": 0}, {"lat": 38.92763216666667, "fusion_lat": 0.0, "type": "electric_scooter", "name": "7dbc4f6967f68d3fb97025a213a7ab6c", "is_disabled": 0, "bike_id": "7dbc4f6967f68d3fb97025a213a7ab6c", "lon": -77.02898516666667, "rental_uris": {"android": "https://dc.lft.to/lastmile_qr_scan", "ios": "https://dc.lft.to/lastmile_qr_scan"}, "fusion_lon": 0.0, "is_reserved": 0}, {"lat": 38.956161333333334, "fusion_lat": 0.0, "type": "electric_scooter", "name": "10b126b48928656efa7d0a55e861ba54", "is_disabled": 0, "bike_id": "10b126b48928656efa7d0a55e861ba54", "lon": -77.02843616666667, "rental_uris": {"android": "https://dc.lft.to/lastmile_qr_scan", "ios": "https://dc.lft.to/lastmile_qr_scan"}, "fusion_lon": 0.0, "is_reserved": 0}, {"lat": 38.92713766666667, "fusion_lat": 0.0, "type": "electric_scooter", "name": "10af490dae2af9c9c302026c0768cbdf", "is_disabled": 0, "bike_id": "10af490dae2af9c9c302026c0768cbdf", "lon": -77.0536255, "rental_uris": {"android": "https://dc.lft.to/lastmile_qr_scan", "ios": "https://dc.lft.to/lastmile_qr_scan"}, "fusion_lon": 0.0, "is_reserved": 0}, {"lat": 38.84438166666666, "fusion_lat": 0.0, "type": "electric_scooter", "name": "ad59eb75e1bb104307c85aadfea4feed", "is_disabled": 0, "bike_id": "ad59eb75e1bb104307c85aadfea4feed", "lon": -76.99780033333333, "rental_uris": {"android": "https://dc.lft.to/lastmile_qr_scan", "ios": "https://dc.lft.to/lastmile_qr_scan"}, "fusion_lon": 0.0, "is_reserved": 0}, {"lat": 39.084416833333336, "fusion_lat": 0.0, "type": "electric_bike", "name": "08fcf647c380746895e0e2657b5d2ba7", "is_disabled": 0, "bike_id": "08fcf647c380746895e0e2657b5d2ba7", "lon": -76.95193283333333, "rental_uris": {"android": "https://dc.lft.to/lastmile_qr_scan", "ios": "https://dc.lft.to/lastmile_qr_scan"}, "fusion_lon": 0.0, "is_reserved": 0}, {"lat": 38.925079, "fusion_lat": 0.0, "type": "electric_scooter", "name": "a2a827ad65420aecb83e9ec69affa4b4", "is_disabled": 0, "bike_id": "a2a827ad65420aecb83e9ec69affa4b4", "lon": -77.02314066666666, "rental_uris": {"android": "https://dc.lft.to/lastmile_qr_scan", "ios": "https://dc.lft.to/lastmile_qr_scan"}, "fusion_lon": 0.0, "is_reserved": 0}, {"lat": 38.892307833333334, "fusion_lat": 0.0, "type": "electric_scooter", "name": "56504345fac017379a1834275da91dcf", "is_disabled": 0, "bike_id": "56504345fac017379a1834275da91dcf", "lon": -77.05001633333333, "rental_uris": {"android": "https://dc.lft.to/lastmile_qr_scan", "ios": "https://dc.lft.to/lastmile_qr_scan"}, "fusion_lon": 0.0, "is_reserved": 0}, {"lat": 38.922143, "fusion_lat": 0.0, "type": "electric_scooter", "name": "a504c4eb78a15b2f79c72a3cbcf4dba5", "is_disabled": 0, "bike_id": "a504c4eb78a15b2f79c72a3cbcf4dba5", "lon": -77.04250316666666, "rental_uris": {"android": "https://dc.lft.to/lastmile_qr_scan", "ios": "https://dc.lft.to/lastmile_qr_scan"}, "fusion_lon": 0.0, "is_reserved": 0}, {"lat": 38.9435095, "fusion_lat": 0.0, "type": "electric_scooter", "name": "9d9643207976cc04983d7f8a629e1547", "is_disabled": 0, "bike_id": "9d9643207976cc04983d7f8a629e1547", "lon": -77.06327016666667, "rental_uris": {"android": "https://dc.lft.to/lastmile_qr_scan", "ios": "https://dc.lft.to/lastmile_qr_scan"}, "fusion_lon": 0.0, "is_reserved": 0}, {"lat": 38.926515, "fusion_lat": 0.0, "type": "electric_scooter", "name": "0abe1f661b2b6ac6b3d01fe66c437309", "is_disabled": 0, "bike_id": "0abe1f661b2b6ac6b3d01fe66c437309", "lon": -77.04310183333334, "rental_uris": {"android": "https://dc.lft.to/lastmile_qr_scan", "ios": "https://dc.lft.to/lastmile_qr_scan"}, "fusion_lon": 0.0, "is_reserved": 0}, {"lat": 38.9000785, "fusion_lat": 0.0, "type": "electric_scooter", "name": "09eb696b8982c8a422bdcc9e70c7fb62", "is_disabled": 0, "bike_id": "09eb696b8982c8a422bdcc9e70c7fb62", "lon": -77.043742, "rental_uris": {"android": "https://dc.lft.to/lastmile_qr_scan", "ios": "https://dc.lft.to/lastmile_qr_scan"}, "fusion_lon": 0.0, "is_reserved": 0}, {"lat": 38.91668216666667, "fusion_lat": 0.0, "type": "electric_scooter", "name": "a925eac04635d621e7c9726c730fcbff", "is_disabled": 0, "bike_id": "a925eac04635d621e7c9726c730fcbff", "lon": -77.02375966666666, "rental_uris": {"android": "https://dc.lft.to/lastmile_qr_scan", "ios": "https://dc.lft.to/lastmile_qr_scan"}, "fusion_lon": 0.0, "is_reserved": 0}, {"lat": 38.92617116666667, "fusion_lat": 0.0, "type": "electric_scooter", "name": "4ae31d4351d7a8853a539138f2c1be0c", "is_disabled": 0, "bike_id": "4ae31d4351d7a8853a539138f2c1be0c", "lon": -77.043242, "rental_uris": {"android": "https://dc.lft.to/lastmile_qr_scan", "ios": "https://dc.lft.to/lastmile_qr_scan"}, "fusion_lon": 0.0, "is_reserved": 0}, {"lat": 38.910504833333334, "fusion_lat": 0.0, "type": "electric_scooter", "name": "9b4e0f5417153ed1cb7b735cd249fc57", "is_disabled": 0, "bike_id": "9b4e0f5417153ed1cb7b735cd249fc57", "lon": -77.0434435, "rental_uris": {"android": "https://dc.lft.to/lastmile_qr_scan", "ios": "https://dc.lft.to/lastmile_qr_scan"}, "fusion_lon": 0.0, "is_reserved": 0}, {"lat": 38.91118133333333, "fusion_lat": 0.0, "type": "electric_scooter", "name": "e919a7a0eb58bfc17b21847b8475883c", "is_disabled": 0, "bike_id": "e919a7a0eb58bfc17b21847b8475883c", "lon": -77.04373833333334, "rental_uris": {"android": "https://dc.lft.to/lastmile_qr_scan", "ios": "https://dc.lft.to/lastmile_qr_scan"}, "fusion_lon": 0.0, "is_reserved": 0}, {"lat": 38.893631, "fusion_lat": 0.0, "type": "electric_scooter", "name": "ae04d8f70efb580cfde32b80a3b0ef7d", "is_disabled": 0, "bike_id": "ae04d8f70efb580cfde32b80a3b0ef7d", "lon": -76.947027, "rental_uris": {"android": "https://dc.lft.to/lastmile_qr_scan", "ios": "https://dc.lft.to/lastmile_qr_scan"}, "fusion_lon": 0.0, "is_reserved": 0}, {"lat": 38.860510166666664, "fusion_lat": 0.0, "type": "electric_scooter", "name": "63376cb4d1a82e2f74438e99ed645319", "is_disabled": 0, "bike_id": "63376cb4d1a82e2f74438e99ed645319", "lon": -76.9850585, "rental_uris": {"android": "https://dc.lft.to/lastmile_qr_scan", "ios": "https://dc.lft.to/lastmile_qr_scan"}, "fusion_lon": 0.0, "is_reserved": 0}, {"lat": 38.875796333333334, "fusion_lat": 0.0, "type": "electric_bike", "name": "f78afd732b1a7339edb3aee5c6068627", "is_disabled": 0, "bike_id": "f78afd732b1a7339edb3aee5c6068627", "lon": -77.23411266666666, "rental_uris": {"android": "https://dc.lft.to/lastmile_qr_scan", "ios": "https://dc.lft.to/lastmile_qr_scan"}, "fusion_lon": 0.0, "is_reserved": 0}, {"lat": 38.90256866666667, "fusion_lat": 0.0, "type": "electric_scooter", "name": "2e29cadb743a8800443c9bbcf65836f4", "is_disabled": 0, "bike_id": "2e29cadb743a8800443c9bbcf65836f4", "lon": -77.03001666666667, "rental_uris": {"android": "https://dc.lft.to/lastmile_qr_scan", "ios": "https://dc.lft.to/lastmile_qr_scan"}, "fusion_lon": 0.0, "is_reserved": 0}, {"lat": 38.872913, "fusion_lat": 0.0, "type": "electric_scooter", "name": "3fcdc365fe01d7e0931449bde6df287c", "is_disabled": 0, "bike_id": "3fcdc365fe01d7e0931449bde6df287c", "lon": -77.00984833333334, "rental_uris": {"android": "https://dc.lft.to/lastmile_qr_scan", "ios": "https://dc.lft.to/lastmile_qr_scan"}, "fusion_lon": 0.0, "is_reserved": 0}, {"lat": 38.914159, "fusion_lat": 0.0, "type": "electric_scooter", "name": "0e8ee31e6bc88d8aa4b5bcc706175101", "is_disabled": 0, "bike_id": "0e8ee31e6bc88d8aa4b5bcc706175101", "lon": -77.02216516666667, "rental_uris": {"android": "https://dc.lft.to/lastmile_qr_scan", "ios": "https://dc.lft.to/lastmile_qr_scan"}, "fusion_lon": 0.0, "is_reserved": 0}, {"lat": 38.915987666666666, "fusion_lat": 0.0, "type": "electric_scooter", "name": "9564c3342446fa3bf60e93bf6048a8c0", "is_disabled": 0, "bike_id": "9564c3342446fa3bf60e93bf6048a8c0", "lon": -77.03114, "rental_uris": {"android": "https://dc.lft.to/lastmile_qr_scan", "ios": "https://dc.lft.to/lastmile_qr_scan"}, "fusion_lon": 0.0, "is_reserved": 0}, {"lat": 38.895596, "fusion_lat": 0.0, "type": "electric_scooter", "name": "feaa59e45deb9e6e71da46ed9602e475", "is_disabled": 0, "bike_id": "feaa59e45deb9e6e71da46ed9602e475", "lon": -77.04676533333334, "rental_uris": {"android": "https://dc.lft.to/lastmile_qr_scan", "ios": "https://dc.lft.to/lastmile_qr_scan"}, "fusion_lon": 0.0, "is_reserved": 0}, {"lat": 38.91314416666667, "fusion_lat": 0.0, "type": "electric_scooter", "name": "8070e67c2d20ffcbf534f0c6651e8ea4", "is_disabled": 0, "bike_id": "8070e67c2d20ffcbf534f0c6651e8ea4", "lon": -77.03188116666666, "rental_uris": {"android": "https://dc.lft.to/lastmile_qr_scan", "ios": "https://dc.lft.to/lastmile_qr_scan"}, "fusion_lon": 0.0, "is_reserved": 0}, {"lat": 38.9203875, "fusion_lat": 0.0, "type": "electric_scooter", "name": "5e8347ca6a67c559091d568f67a5f08d", "is_disabled": 0, "bike_id": "5e8347ca6a67c559091d568f67a5f08d", "lon": -77.01671766666666, "rental_uris": {"android": "https://dc.lft.to/lastmile_qr_scan", "ios": "https://dc.lft.to/lastmile_qr_scan"}, "fusion_lon": 0.0, "is_reserved": 0}, {"lat": 38.908694833333335, "fusion_lat": 0.0, "type": "electric_scooter", "name": "fd436b99a06a6e5723d3a7a7957d18ff", "is_disabled": 0, "bike_id": "fd436b99a06a6e5723d3a7a7957d18ff", "lon": -77.04490566666666, "rental_uris": {"android": "https://dc.lft.to/lastmile_qr_scan", "ios": "https://dc.lft.to/lastmile_qr_scan"}, "fusion_lon": 0.0, "is_reserved": 0}, {"lat": 38.924708333333335, "fusion_lat": 0.0, "type": "electric_scooter", "name": "6adf6b0954b2d19a1ca6308ada48aff2", "is_disabled": 0, "bike_id": "6adf6b0954b2d19a1ca6308ada48aff2", "lon": -77.02217166666667, "rental_uris": {"android": "https://dc.lft.to/lastmile_qr_scan", "ios": "https://dc.lft.to/lastmile_qr_scan"}, "fusion_lon": 0.0, "is_reserved": 0}, {"lat": 38.9422915, "fusion_lat": 0.0, "type": "electric_scooter", "name": "44d47a1c556b7122fc5b92258db138c8", "is_disabled": 0, "bike_id": "44d47a1c556b7122fc5b92258db138c8", "lon": -77.01390516666666, "rental_uris": {"android": "https://dc.lft.to/lastmile_qr_scan", "ios": "https://dc.lft.to/lastmile_qr_scan"}, "fusion_lon": 0.0, "is_reserved": 0}, {"lat": 38.8576425, "fusion_lat": 0.0, "type": "electric_bike", "name": "86a6fb57825d486b47bd086b2bad6e16", "is_disabled": 0, "bike_id": "86a6fb57825d486b47bd086b2bad6e16", "lon": -76.98761983333333, "rental_uris": {"android": "https://dc.lft.to/lastmile_qr_scan", "ios": "https://dc.lft.to/lastmile_qr_scan"}, "fusion_lon": 0.0, "is_reserved": 0}, {"lat": 38.89002883333333, "fusion_lat": 0.0, "type": "electric_scooter", "name": "164dd4fde6a294f2d745d9ff4e928ac0", "is_disabled": 0, "bike_id": "164dd4fde6a294f2d745d9ff4e928ac0", "lon": -76.954176, "rental_uris": {"android": "https://dc.lft.to/lastmile_qr_scan", "ios": "https://dc.lft.to/lastmile_qr_scan"}, "fusion_lon": 0.0, "is_reserved": 0}, {"lat": 38.89222433333333, "fusion_lat": 0.0, "type": "electric_scooter", "name": "d8af0b0814adc8c5160c378a9ba2d44c", "is_disabled": 0, "bike_id": "d8af0b0814adc8c5160c378a9ba2d44c", "lon": -77.04195616666667, "rental_uris": {"android": "https://dc.lft.to/lastmile_qr_scan", "ios": "https://dc.lft.to/lastmile_qr_scan"}, "fusion_lon": 0.0, "is_reserved": 0}, {"lat": 38.9231955, "fusion_lat": 0.0, "type": "electric_scooter", "name": "993f7ed16be4f3a3308a034ac7349ab1", "is_disabled": 0, "bike_id": "993f7ed16be4f3a3308a034ac7349ab1", "lon": -77.03898883333333, "rental_uris": {"android": "https://dc.lft.to/lastmile_qr_scan", "ios": "https://dc.lft.to/lastmile_qr_scan"}, "fusion_lon": 0.0, "is_reserved": 0}, {"lat": 38.90226333333333, "fusion_lat": 0.0, "type": "electric_scooter", "name": "a773e98aaf0699c0d3e8122908d38859", "is_disabled": 0, "bike_id": "a773e98aaf0699c0d3e8122908d38859", "lon": -77.03203433333333, "rental_uris": {"android": "https://dc.lft.to/lastmile_qr_scan", "ios": "https://dc.lft.to/lastmile_qr_scan"}, "fusion_lon": 0.0, "is_reserved": 0}, {"lat": 38.94898033333333, "fusion_lat": 0.0, "type": "electric_bike", "name": "6e35c58f05148b148684ad8b3819cc82", "is_disabled": 0, "bike_id": "6e35c58f05148b148684ad8b3819cc82", "lon": -76.9637515, "rental_uris": {"android": "https://dc.lft.to/lastmile_qr_scan", "ios": "https://dc.lft.to/lastmile_qr_scan"}, "fusion_lon": 0.0, "is_reserved": 0}, {"lat": 38.92002433333333, "fusion_lat": 0.0, "type": "electric_scooter", "name": "732bc7b7d791a30aa354293fb864a558", "is_disabled": 0, "bike_id": "732bc7b7d791a30aa354293fb864a558", "lon": -77.0240945, "rental_uris": {"android": "https://dc.lft.to/lastmile_qr_scan", "ios": "https://dc.lft.to/lastmile_qr_scan"}, "fusion_lon": 0.0, "is_reserved": 0}, {"lat": 38.904547666666666, "fusion_lat": 0.0, "type": "electric_scooter", "name": "3a21c34509d28b0967bbcba051b4f821", "is_disabled": 0, "bike_id": "3a21c34509d28b0967bbcba051b4f821", "lon": -77.0436415, "rental_uris": {"android": "https://dc.lft.to/lastmile_qr_scan", "ios": "https://dc.lft.to/lastmile_qr_scan"}, "fusion_lon": 0.0, "is_reserved": 0}, {"lat": 38.901369833333334, "fusion_lat": 0.0, "type": "electric_scooter", "name": "92a7010e4e579acfc266c98d9c38e4f8", "is_disabled": 0, "bike_id": "92a7010e4e579acfc266c98d9c38e4f8", "lon": -77.04154233333334, "rental_uris": {"android": "https://dc.lft.to/lastmile_qr_scan", "ios": "https://dc.lft.to/lastmile_qr_scan"}, "fusion_lon": 0.0, "is_reserved": 0}, {"lat": 38.924682, "fusion_lat": 0.0, "type": "electric_scooter", "name": "771dccddc0669c4e071d0eab0304ab49", "is_disabled": 0, "bike_id": "771dccddc0669c4e071d0eab0304ab49", "lon": -77.028929, "rental_uris": {"android": "https://dc.lft.to/lastmile_qr_scan", "ios": "https://dc.lft.to/lastmile_qr_scan"}, "fusion_lon": 0.0, "is_reserved": 0}, {"lat": 38.92677233333333, "fusion_lat": 0.0, "type": "electric_scooter", "name": "1fb434ec8ca9cd7a8c58674831facdaf", "is_disabled": 0, "bike_id": "1fb434ec8ca9cd7a8c58674831facdaf", "lon": -77.00700016666667, "rental_uris": {"android": "https://dc.lft.to/lastmile_qr_scan", "ios": "https://dc.lft.to/lastmile_qr_scan"}, "fusion_lon": 0.0, "is_reserved": 0}, {"lat": 38.89654566666667, "fusion_lat": 0.0, "type": "electric_scooter", "name": "387450be0ef8f17da60b15f59fb84d8d", "is_disabled": 0, "bike_id": "387450be0ef8f17da60b15f59fb84d8d", "lon": -77.0502585, "rental_uris": {"android": "https://dc.lft.to/lastmile_qr_scan", "ios": "https://dc.lft.to/lastmile_qr_scan"}, "fusion_lon": 0.0, "is_reserved": 0}, {"lat": 38.99669733333333, "fusion_lat": 0.0, "type": "electric_bike", "name": "6ea00738775f6bb93e0fc9f7606a8984", "is_disabled": 0, "bike_id": "6ea00738775f6bb93e0fc9f7606a8984", "lon": -77.0381075, "rental_uris": {"android": "https://dc.lft.to/lastmile_qr_scan", "ios": "https://dc.lft.to/lastmile_qr_scan"}, "fusion_lon": 0.0, "is_reserved": 0}, {"lat": 38.93047983333334, "fusion_lat": 0.0, "type": "electric_scooter", "name": "626e600110277b9dde6e2cb40d10300f", "is_disabled": 0, "bike_id": "626e600110277b9dde6e2cb40d10300f", "lon": -77.02351866666666, "rental_uris": {"android": "https://dc.lft.to/lastmile_qr_scan", "ios": "https://dc.lft.to/lastmile_qr_scan"}, "fusion_lon": 0.0, "is_reserved": 0}, {"lat": 38.924494333333335, "fusion_lat": 0.0, "type": "electric_scooter", "name": "1ad8352000f0331a38709bf55b5151a0", "is_disabled": 0, "bike_id": "1ad8352000f0331a38709bf55b5151a0", "lon": -77.03302533333333, "rental_uris": {"android": "https://dc.lft.to/lastmile_qr_scan", "ios": "https://dc.lft.to/lastmile_qr_scan"}, "fusion_lon": 0.0, "is_reserved": 0}, {"lat": 38.918446, "fusion_lat": 0.0, "type": "electric_scooter", "name": "7518e8c1a292ee33955b4e394f5d5b29", "is_disabled": 0, "bike_id": "7518e8c1a292ee33955b4e394f5d5b29", "lon": -77.04835616666666, "rental_uris": {"android": "https://dc.lft.to/lastmile_qr_scan", "ios": "https://dc.lft.to/lastmile_qr_scan"}, "fusion_lon": 0.0, "is_reserved": 0}, {"lat": 38.88698333333333, "fusion_lat": 0.0, "type": "electric_scooter", "name": "13b0c1f473439a96fe4e53fdbc76aded", "is_disabled": 0, "bike_id": "13b0c1f473439a96fe4e53fdbc76aded", "lon": -77.00067566666667, "rental_uris": {"android": "https://dc.lft.to/lastmile_qr_scan", "ios": "https://dc.lft.to/lastmile_qr_scan"}, "fusion_lon": 0.0, "is_reserved": 0}, {"lat": 38.887655, "fusion_lat": 0.0, "type": "electric_scooter", "name": "9a5d12a5d9c4705007695cd700f49bde", "is_disabled": 0, "bike_id": "9a5d12a5d9c4705007695cd700f49bde", "lon": -77.02228733333334, "rental_uris": {"android": "https://dc.lft.to/lastmile_qr_scan", "ios": "https://dc.lft.to/lastmile_qr_scan"}, "fusion_lon": 0.0, "is_reserved": 0}, {"lat": 38.87371383333333, "fusion_lat": 0.0, "type": "electric_scooter", "name": "ad5646949f2d36c405ee39cfbdc65987", "is_disabled": 0, "bike_id": "ad5646949f2d36c405ee39cfbdc65987", "lon": -77.00112333333334, "rental_uris": {"android": "https://dc.lft.to/lastmile_qr_scan", "ios": "https://dc.lft.to/lastmile_qr_scan"}, "fusion_lon": 0.0, "is_reserved": 0}, {"lat": 38.905346, "fusion_lat": 0.0, "type": "electric_scooter", "name": "e24a23de718ba4b73ba9ed56fe6f8c51", "is_disabled": 0, "bike_id": "e24a23de718ba4b73ba9ed56fe6f8c51", "lon": -77.041515, "rental_uris": {"android": "https://dc.lft.to/lastmile_qr_scan", "ios": "https://dc.lft.to/lastmile_qr_scan"}, "fusion_lon": 0.0, "is_reserved": 0}, {"lat": 38.88488566666667, "fusion_lat": 0.0, "type": "electric_bike", "name": "c54b6e80f28066eade34eec9b3f8f24d", "is_disabled": 0, "bike_id": "c54b6e80f28066eade34eec9b3f8f24d", "lon": -76.95668833333333, "rental_uris": {"android": "https://dc.lft.to/lastmile_qr_scan", "ios": "https://dc.lft.to/lastmile_qr_scan"}, "fusion_lon": 0.0, "is_reserved": 0}, {"lat": 38.906806833333334, "fusion_lat": 0.0, "type": "electric_scooter", "name": "402e92fabdb27e0643e8c882721f8e8f", "is_disabled": 0, "bike_id": "402e92fabdb27e0643e8c882721f8e8f", "lon": -76.98001766666667, "rental_uris": {"android": "https://dc.lft.to/lastmile_qr_scan", "ios": "https://dc.lft.to/lastmile_qr_scan"}, "fusion_lon": 0.0, "is_reserved": 0}, {"lat": 38.9145625, "fusion_lat": 0.0, "type": "electric_scooter", "name": "e7172e6b51ee85f0180e24972a3caf81", "is_disabled": 0, "bike_id": "e7172e6b51ee85f0180e24972a3caf81", "lon": -77.00211683333333, "rental_uris": {"android": "https://dc.lft.to/lastmile_qr_scan", "ios": "https://dc.lft.to/lastmile_qr_scan"}, "fusion_lon": 0.0, "is_reserved": 0}, {"lat": 38.881202333333334, "fusion_lat": 0.0, "type": "electric_scooter", "name": "43934e71e6e3a1c3eb8436953eb22b3b", "is_disabled": 0, "bike_id": "43934e71e6e3a1c3eb8436953eb22b3b", "lon": -77.01668616666667, "rental_uris": {"android": "https://dc.lft.to/lastmile_qr_scan", "ios": "https://dc.lft.to/lastmile_qr_scan"}, "fusion_lon": 0.0, "is_reserved": 0}, {"lat": 38.936362, "fusion_lat": 0.0, "type": "electric_scooter", "name": "59b7b7fb048c7ef29c8250e72b5c0315", "is_disabled": 0, "bike_id": "59b7b7fb048c7ef29c8250e72b5c0315", "lon": -77.03283416666666, "rental_uris": {"android": "https://dc.lft.to/lastmile_qr_scan", "ios": "https://dc.lft.to/lastmile_qr_scan"}, "fusion_lon": 0.0, "is_reserved": 0}, {"lat": 38.9028305, "fusion_lat": 0.0, "type": "electric_scooter", "name": "f590a8162f354f85a54b6667a8a5d148", "is_disabled": 0, "bike_id": "f590a8162f354f85a54b6667a8a5d148", "lon": -77.03433516666666, "rental_uris": {"android": "https://dc.lft.to/lastmile_qr_scan", "ios": "https://dc.lft.to/lastmile_qr_scan"}, "fusion_lon": 0.0, "is_reserved": 0}, {"lat": 38.89371283333333, "fusion_lat": 0.0, "type": "electric_scooter", "name": "cbb7a7bda126cefe5c62d8e5a904d179", "is_disabled": 0, "bike_id": "cbb7a7bda126cefe5c62d8e5a904d179", "lon": -77.02180633333333, "rental_uris": {"android": "https://dc.lft.to/lastmile_qr_scan", "ios": "https://dc.lft.to/lastmile_qr_scan"}, "fusion_lon": 0.0, "is_reserved": 0}, {"lat": 38.919827, "fusion_lat": 0.0, "type": "electric_scooter", "name": "480dd4b98166911504505fe0d4ea2781", "is_disabled": 0, "bike_id": "480dd4b98166911504505fe0d4ea2781", "lon": -76.97304616666666, "rental_uris": {"android": "https://dc.lft.to/lastmile_qr_scan", "ios": "https://dc.lft.to/lastmile_qr_scan"}, "fusion_lon": 0.0, "is_reserved": 0}, {"lat": 38.89394216666667, "fusion_lat": 0.0, "type": "electric_scooter", "name": "1cc15c57d34afeb3b86104dd7823ee19", "is_disabled": 0, "bike_id": "1cc15c57d34afeb3b86104dd7823ee19", "lon": -77.04420133333333, "rental_uris": {"android": "https://dc.lft.to/lastmile_qr_scan", "ios": "https://dc.lft.to/lastmile_qr_scan"}, "fusion_lon": 0.0, "is_reserved": 0}, {"lat": 38.91396616666667, "fusion_lat": 0.0, "type": "electric_scooter", "name": "9a2db62b7a993cc0fcd34d9fd93baf20", "is_disabled": 0, "bike_id": "9a2db62b7a993cc0fcd34d9fd93baf20", "lon": -77.01411516666667, "rental_uris": {"android": "https://dc.lft.to/lastmile_qr_scan", "ios": "https://dc.lft.to/lastmile_qr_scan"}, "fusion_lon": 0.0, "is_reserved": 0}, {"lat": 38.90636333333333, "fusion_lat": 0.0, "type": "electric_scooter", "name": "0f8e4cff8321e1c54a7f3d2507712acf", "is_disabled": 0, "bike_id": "0f8e4cff8321e1c54a7f3d2507712acf", "lon": -77.038785, "rental_uris": {"android": "https://dc.lft.to/lastmile_qr_scan", "ios": "https://dc.lft.to/lastmile_qr_scan"}, "fusion_lon": 0.0, "is_reserved": 0}, {"lat": 38.911095833333334, "fusion_lat": 0.0, "type": "electric_scooter", "name": "b654606bebadd18027a174a92ca56b35", "is_disabled": 0, "bike_id": "b654606bebadd18027a174a92ca56b35", "lon": -77.013624, "rental_uris": {"android": "https://dc.lft.to/lastmile_qr_scan", "ios": "https://dc.lft.to/lastmile_qr_scan"}, "fusion_lon": 0.0, "is_reserved": 0}, {"lat": 38.90638466666667, "fusion_lat": 0.0, "type": "electric_scooter", "name": "9e590d5c945c7835acac0e18b6a55b1a", "is_disabled": 0, "bike_id": "9e590d5c945c7835acac0e18b6a55b1a", "lon": -77.00595516666667, "rental_uris": {"android": "https://dc.lft.to/lastmile_qr_scan", "ios": "https://dc.lft.to/lastmile_qr_scan"}, "fusion_lon": 0.0, "is_reserved": 0}, {"lat": 38.9287135, "fusion_lat": 0.0, "type": "electric_scooter", "name": "0804d225857656c18c692f776cd0b73d", "is_disabled": 0, "bike_id": "0804d225857656c18c692f776cd0b73d", "lon": -77.02329116666667, "rental_uris": {"android": "https://dc.lft.to/lastmile_qr_scan", "ios": "https://dc.lft.to/lastmile_qr_scan"}, "fusion_lon": 0.0, "is_reserved": 0}, {"lat": 38.9472085, "fusion_lat": 0.0, "type": "electric_scooter", "name": "c35160897b19f20f1cac9fcef3b91251", "is_disabled": 0, "bike_id": "c35160897b19f20f1cac9fcef3b91251", "lon": -77.06551866666666, "rental_uris": {"android": "https://dc.lft.to/lastmile_qr_scan", "ios": "https://dc.lft.to/lastmile_qr_scan"}, "fusion_lon": 0.0, "is_reserved": 0}, {"lat": 38.88474133333333, "fusion_lat": 0.0, "type": "electric_scooter", "name": "e13d71d1b83213d7a44f7e2ab1f3d05b", "is_disabled": 0, "bike_id": "e13d71d1b83213d7a44f7e2ab1f3d05b", "lon": -76.9497885, "rental_uris": {"android": "https://dc.lft.to/lastmile_qr_scan", "ios": "https://dc.lft.to/lastmile_qr_scan"}, "fusion_lon": 0.0, "is_reserved": 0}, {"lat": 38.913633, "fusion_lat": 0.0, "type": "electric_scooter", "name": "499f589b2f230f6247c2e4275fae7c37", "is_disabled": 0, "bike_id": "499f589b2f230f6247c2e4275fae7c37", "lon": -77.07228283333333, "rental_uris": {"android": "https://dc.lft.to/lastmile_qr_scan", "ios": "https://dc.lft.to/lastmile_qr_scan"}, "fusion_lon": 0.0, "is_reserved": 0}, {"lat": 38.93010533333333, "fusion_lat": 0.0, "type": "electric_scooter", "name": "d2cd4708a8bb02225149f01eb3ef52a1", "is_disabled": 0, "bike_id": "d2cd4708a8bb02225149f01eb3ef52a1", "lon": -77.02338316666666, "rental_uris": {"android": "https://dc.lft.to/lastmile_qr_scan", "ios": "https://dc.lft.to/lastmile_qr_scan"}, "fusion_lon": 0.0, "is_reserved": 0}, {"lat": 38.932278833333335, "fusion_lat": 0.0, "type": "electric_scooter", "name": "4214e6b50d3971e6c074649ffc7a9c9e", "is_disabled": 0, "bike_id": "4214e6b50d3971e6c074649ffc7a9c9e", "lon": -76.998067, "rental_uris": {"android": "https://dc.lft.to/lastmile_qr_scan", "ios": "https://dc.lft.to/lastmile_qr_scan"}, "fusion_lon": 0.0, "is_reserved": 0}, {"lat": 38.917429, "fusion_lat": 0.0, "type": "electric_scooter", "name": "f1c3bfce96fa3af20ebf4c651f6c4440", "is_disabled": 0, "bike_id": "f1c3bfce96fa3af20ebf4c651f6c4440", "lon": -77.02820466666667, "rental_uris": {"android": "https://dc.lft.to/lastmile_qr_scan", "ios": "https://dc.lft.to/lastmile_qr_scan"}, "fusion_lon": 0.0, "is_reserved": 0}, {"lat": 38.91261, "fusion_lat": 0.0, "type": "electric_scooter", "name": "13343b5eb5b0f45b8919c0ca70ede169", "is_disabled": 0, "bike_id": "13343b5eb5b0f45b8919c0ca70ede169", "lon": -77.04551616666667, "rental_uris": {"android": "https://dc.lft.to/lastmile_qr_scan", "ios": "https://dc.lft.to/lastmile_qr_scan"}, "fusion_lon": 0.0, "is_reserved": 0}, {"lat": 38.898745166666664, "fusion_lat": 0.0, "type": "electric_scooter", "name": "bbae6e29b67fea628cba17d95e98055a", "is_disabled": 0, "bike_id": "bbae6e29b67fea628cba17d95e98055a", "lon": -77.02818283333333, "rental_uris": {"android": "https://dc.lft.to/lastmile_qr_scan", "ios": "https://dc.lft.to/lastmile_qr_scan"}, "fusion_lon": 0.0, "is_reserved": 0}, {"lat": 38.91992416666667, "fusion_lat": 0.0, "type": "electric_scooter", "name": "c2963ede59dea5eb62fac5ddb9d19827", "is_disabled": 0, "bike_id": "c2963ede59dea5eb62fac5ddb9d19827", "lon": -77.02391883333334, "rental_uris": {"android": "https://dc.lft.to/lastmile_qr_scan", "ios": "https://dc.lft.to/lastmile_qr_scan"}, "fusion_lon": 0.0, "is_reserved": 0}, {"lat": 38.89961133333333, "fusion_lat": 0.0, "type": "electric_scooter", "name": "e2e5a0b22b56d6bb78bebbe4af158d9c", "is_disabled": 0, "bike_id": "e2e5a0b22b56d6bb78bebbe4af158d9c", "lon": -77.044808, "rental_uris": {"android": "https://dc.lft.to/lastmile_qr_scan", "ios": "https://dc.lft.to/lastmile_qr_scan"}, "fusion_lon": 0.0, "is_reserved": 0}, {"lat": 38.909672666666665, "fusion_lat": 0.0, "type": "electric_scooter", "name": "e7393050229ff4266a348703748a286c", "is_disabled": 0, "bike_id": "e7393050229ff4266a348703748a286c", "lon": -77.01844566666666, "rental_uris": {"android": "https://dc.lft.to/lastmile_qr_scan", "ios": "https://dc.lft.to/lastmile_qr_scan"}, "fusion_lon": 0.0, "is_reserved": 0}, {"lat": 38.89880466666666, "fusion_lat": 0.0, "type": "electric_scooter", "name": "26558fc00393c7886e96dd05740514f1", "is_disabled": 0, "bike_id": "26558fc00393c7886e96dd05740514f1", "lon": -77.03258, "rental_uris": {"android": "https://dc.lft.to/lastmile_qr_scan", "ios": "https://dc.lft.to/lastmile_qr_scan"}, "fusion_lon": 0.0, "is_reserved": 0}, {"lat": 38.941191, "fusion_lat": 0.0, "type": "electric_scooter", "name": "0136625d711bc8c6f0db8a8738212d47", "is_disabled": 0, "bike_id": "0136625d711bc8c6f0db8a8738212d47", "lon": -77.01539516666666, "rental_uris": {"android": "https://dc.lft.to/lastmile_qr_scan", "ios": "https://dc.lft.to/lastmile_qr_scan"}, "fusion_lon": 0.0, "is_reserved": 0}, {"lat": 38.844633, "fusion_lat": 0.0, "type": "electric_bike", "name": "e90067f50458a53ea6eb8d91649275e7", "is_disabled": 0, "bike_id": "e90067f50458a53ea6eb8d91649275e7", "lon": -77.00167383333333, "rental_uris": {"android": "https://dc.lft.to/lastmile_qr_scan", "ios": "https://dc.lft.to/lastmile_qr_scan"}, "fusion_lon": 0.0, "is_reserved": 0}, {"lat": 38.890817166666665, "fusion_lat": 0.0, "type": "electric_scooter", "name": "7e262247bc07ab729936dc07fcedf8ef", "is_disabled": 0, "bike_id": "7e262247bc07ab729936dc07fcedf8ef", "lon": -76.98823366666667, "rental_uris": {"android": "https://dc.lft.to/lastmile_qr_scan", "ios": "https://dc.lft.to/lastmile_qr_scan"}, "fusion_lon": 0.0, "is_reserved": 0}, {"lat": 38.90778133333333, "fusion_lat": 0.0, "type": "electric_scooter", "name": "62f57dfd4dd8ab5e5140d29111b6349b", "is_disabled": 0, "bike_id": "62f57dfd4dd8ab5e5140d29111b6349b", "lon": -77.04664566666666, "rental_uris": {"android": "https://dc.lft.to/lastmile_qr_scan", "ios": "https://dc.lft.to/lastmile_qr_scan"}, "fusion_lon": 0.0, "is_reserved": 0}, {"lat": 38.92468783333333, "fusion_lat": 0.0, "type": "electric_scooter", "name": "9d6fa6d73c0b5913553096de2d75e6a3", "is_disabled": 0, "bike_id": "9d6fa6d73c0b5913553096de2d75e6a3", "lon": -77.03065766666667, "rental_uris": {"android": "https://dc.lft.to/lastmile_qr_scan", "ios": "https://dc.lft.to/lastmile_qr_scan"}, "fusion_lon": 0.0, "is_reserved": 0}, {"lat": 38.914126, "fusion_lat": 0.0, "type": "electric_scooter", "name": "c6958e340cca69572862c88129b64a19", "is_disabled": 0, "bike_id": "c6958e340cca69572862c88129b64a19", "lon": -77.0156005, "rental_uris": {"android": "https://dc.lft.to/lastmile_qr_scan", "ios": "https://dc.lft.to/lastmile_qr_scan"}, "fusion_lon": 0.0, "is_reserved": 0}, {"lat": 38.8955125, "fusion_lat": 0.0, "type": "electric_scooter", "name": "ea598ec338028b78e26d7abb5a7ba34b", "is_disabled": 0, "bike_id": "ea598ec338028b78e26d7abb5a7ba34b", "lon": -76.94875266666666, "rental_uris": {"android": "https://dc.lft.to/lastmile_qr_scan", "ios": "https://dc.lft.to/lastmile_qr_scan"}, "fusion_lon": 0.0, "is_reserved": 0}, {"lat": 38.901195, "fusion_lat": 0.0, "type": "electric_scooter", "name": "da2f9ac9a362841f6c453d51a9f8b38a", "is_disabled": 0, "bike_id": "da2f9ac9a362841f6c453d51a9f8b38a", "lon": -77.04356866666667, "rental_uris": {"android": "https://dc.lft.to/lastmile_qr_scan", "ios": "https://dc.lft.to/lastmile_qr_scan"}, "fusion_lon": 0.0, "is_reserved": 0}, {"lat": 38.90144316666667, "fusion_lat": 0.0, "type": "electric_scooter", "name": "586a5abf3965e9b562893714e8251aaa", "is_disabled": 0, "bike_id": "586a5abf3965e9b562893714e8251aaa", "lon": -77.0026845, "rental_uris": {"android": "https://dc.lft.to/lastmile_qr_scan", "ios": "https://dc.lft.to/lastmile_qr_scan"}, "fusion_lon": 0.0, "is_reserved": 0}, {"lat": 38.96041066666667, "fusion_lat": 0.0, "type": "electric_scooter", "name": "2b708b28f8516298681936bf236b815b", "is_disabled": 0, "bike_id": "2b708b28f8516298681936bf236b815b", "lon": -77.02796716666667, "rental_uris": {"android": "https://dc.lft.to/lastmile_qr_scan", "ios": "https://dc.lft.to/lastmile_qr_scan"}, "fusion_lon": 0.0, "is_reserved": 0}, {"lat": 38.93474166666667, "fusion_lat": 0.0, "type": "electric_scooter", "name": "803021d3776565c3b7e086a5381774c2", "is_disabled": 0, "bike_id": "803021d3776565c3b7e086a5381774c2", "lon": -77.07283866666667, "rental_uris": {"android": "https://dc.lft.to/lastmile_qr_scan", "ios": "https://dc.lft.to/lastmile_qr_scan"}, "fusion_lon": 0.0, "is_reserved": 0}, {"lat": 38.897290166666664, "fusion_lat": 0.0, "type": "electric_scooter", "name": "3f430b33f8b6be2b2f30dd6428e92fc8", "is_disabled": 0, "bike_id": "3f430b33f8b6be2b2f30dd6428e92fc8", "lon": -77.04552466666667, "rental_uris": {"android": "https://dc.lft.to/lastmile_qr_scan", "ios": "https://dc.lft.to/lastmile_qr_scan"}, "fusion_lon": 0.0, "is_reserved": 0}, {"lat": 38.91301766666667, "fusion_lat": 0.0, "type": "electric_scooter", "name": "cb3f66a23c8907aa04994e7dc8ed6ec5", "is_disabled": 0, "bike_id": "cb3f66a23c8907aa04994e7dc8ed6ec5", "lon": -77.04876266666666, "rental_uris": {"android": "https://dc.lft.to/lastmile_qr_scan", "ios": "https://dc.lft.to/lastmile_qr_scan"}, "fusion_lon": 0.0, "is_reserved": 0}, {"lat": 38.88448733333333, "fusion_lat": 0.0, "type": "electric_scooter", "name": "214db038e97476848b293360fc65077b", "is_disabled": 0, "bike_id": "214db038e97476848b293360fc65077b", "lon": -76.95098516666667, "rental_uris": {"android": "https://dc.lft.to/lastmile_qr_scan", "ios": "https://dc.lft.to/lastmile_qr_scan"}, "fusion_lon": 0.0, "is_reserved": 0}, {"lat": 38.92335833333333, "fusion_lat": 0.0, "type": "electric_scooter", "name": "42ec26b688e1c02ec6e920a8fb73855b", "is_disabled": 0, "bike_id": "42ec26b688e1c02ec6e920a8fb73855b", "lon": -77.035856, "rental_uris": {"android": "https://dc.lft.to/lastmile_qr_scan", "ios": "https://dc.lft.to/lastmile_qr_scan"}, "fusion_lon": 0.0, "is_reserved": 0}, {"lat": 38.876364833333334, "fusion_lat": 0.0, "type": "electric_scooter", "name": "d1d84ade1f2b2f14edf7b47f445db241", "is_disabled": 0, "bike_id": "d1d84ade1f2b2f14edf7b47f445db241", "lon": -77.003857, "rental_uris": {"android": "https://dc.lft.to/lastmile_qr_scan", "ios": "https://dc.lft.to/lastmile_qr_scan"}, "fusion_lon": 0.0, "is_reserved": 0}, {"lat": 38.9318075, "fusion_lat": 0.0, "type": "electric_scooter", "name": "2b925d44f5e0e1f6dd8a1c87b29e390e", "is_disabled": 0, "bike_id": "2b925d44f5e0e1f6dd8a1c87b29e390e", "lon": -77.04304983333333, "rental_uris": {"android": "https://dc.lft.to/lastmile_qr_scan", "ios": "https://dc.lft.to/lastmile_qr_scan"}, "fusion_lon": 0.0, "is_reserved": 0}, {"lat": 38.8966065, "fusion_lat": 0.0, "type": "electric_scooter", "name": "791fb76b4f61e08f153ea01b31010b70", "is_disabled": 0, "bike_id": "791fb76b4f61e08f153ea01b31010b70", "lon": -77.01925766666666, "rental_uris": {"android": "https://dc.lft.to/lastmile_qr_scan", "ios": "https://dc.lft.to/lastmile_qr_scan"}, "fusion_lon": 0.0, "is_reserved": 0}, {"lat": 38.92274533333333, "fusion_lat": 0.0, "type": "electric_scooter", "name": "4fa74630b91f1fc6c6fcd82376a58792", "is_disabled": 0, "bike_id": "4fa74630b91f1fc6c6fcd82376a58792", "lon": -77.04240116666666, "rental_uris": {"android": "https://dc.lft.to/lastmile_qr_scan", "ios": "https://dc.lft.to/lastmile_qr_scan"}, "fusion_lon": 0.0, "is_reserved": 0}, {"lat": 38.865051666666666, "fusion_lat": 0.0, "type": "electric_scooter", "name": "a2125a611d7b71df96b5edec4ebb8c67", "is_disabled": 0, "bike_id": "a2125a611d7b71df96b5edec4ebb8c67", "lon": -76.98999683333334, "rental_uris": {"android": "https://dc.lft.to/lastmile_qr_scan", "ios": "https://dc.lft.to/lastmile_qr_scan"}, "fusion_lon": 0.0, "is_reserved": 0}, {"lat": 38.8856945, "fusion_lat": 0.0, "type": "electric_scooter", "name": "139b00bae3ea17dda57a0c40635cc2e5", "is_disabled": 0, "bike_id": "139b00bae3ea17dda57a0c40635cc2e5", "lon": -77.015441, "rental_uris": {"android": "https://dc.lft.to/lastmile_qr_scan", "ios": "https://dc.lft.to/lastmile_qr_scan"}, "fusion_lon": 0.0, "is_reserved": 0}, {"lat": 38.92376566666667, "fusion_lat": 0.0, "type": "electric_scooter", "name": "07331cd313833c0e061769348ed2dffa", "is_disabled": 0, "bike_id": "07331cd313833c0e061769348ed2dffa", "lon": -77.01900733333333, "rental_uris": {"android": "https://dc.lft.to/lastmile_qr_scan", "ios": "https://dc.lft.to/lastmile_qr_scan"}, "fusion_lon": 0.0, "is_reserved": 0}, {"lat": 38.89341683333333, "fusion_lat": 0.0, "type": "electric_scooter", "name": "aadb7a1b307bf7b0351bc17c09ad576d", "is_disabled": 0, "bike_id": "aadb7a1b307bf7b0351bc17c09ad576d", "lon": -76.94938866666666, "rental_uris": {"android": "https://dc.lft.to/lastmile_qr_scan", "ios": "https://dc.lft.to/lastmile_qr_scan"}, "fusion_lon": 0.0, "is_reserved": 0}, {"lat": 38.924940666666664, "fusion_lat": 0.0, "type": "electric_scooter", "name": "e307f3a8a4b1c4a7c63e5453a150f7b9", "is_disabled": 0, "bike_id": "e307f3a8a4b1c4a7c63e5453a150f7b9", "lon": -77.03181916666666, "rental_uris": {"android": "https://dc.lft.to/lastmile_qr_scan", "ios": "https://dc.lft.to/lastmile_qr_scan"}, "fusion_lon": 0.0, "is_reserved": 0}, {"lat": 38.9604635, "fusion_lat": 0.0, "type": "electric_scooter", "name": "e7c19b94b1857ea8942c844312f44a8d", "is_disabled": 0, "bike_id": "e7c19b94b1857ea8942c844312f44a8d", "lon": -77.02792, "rental_uris": {"android": "https://dc.lft.to/lastmile_qr_scan", "ios": "https://dc.lft.to/lastmile_qr_scan"}, "fusion_lon": 0.0, "is_reserved": 0}, {"lat": 38.9163135, "fusion_lat": 0.0, "type": "electric_scooter", "name": "98b8a4947af42bd53381a650ac583c28", "is_disabled": 0, "bike_id": "98b8a4947af42bd53381a650ac583c28", "lon": -77.02553883333333, "rental_uris": {"android": "https://dc.lft.to/lastmile_qr_scan", "ios": "https://dc.lft.to/lastmile_qr_scan"}, "fusion_lon": 0.0, "is_reserved": 0}, {"lat": 38.89492666666666, "fusion_lat": 0.0, "type": "electric_scooter", "name": "e8c4458652cb11c0dd0cefcd4788e33a", "is_disabled": 0, "bike_id": "e8c4458652cb11c0dd0cefcd4788e33a", "lon": -77.02287233333334, "rental_uris": {"android": "https://dc.lft.to/lastmile_qr_scan", "ios": "https://dc.lft.to/lastmile_qr_scan"}, "fusion_lon": 0.0, "is_reserved": 0}, {"lat": 38.898955, "fusion_lat": 0.0, "type": "electric_bike", "name": "2858e0178b1d065d7a0cc8cbc79a5a1a", "is_disabled": 0, "bike_id": "2858e0178b1d065d7a0cc8cbc79a5a1a", "lon": -77.04865866666667, "rental_uris": {"android": "https://dc.lft.to/lastmile_qr_scan", "ios": "https://dc.lft.to/lastmile_qr_scan"}, "fusion_lon": 0.0, "is_reserved": 0}, {"lat": 38.94410216666667, "fusion_lat": 0.0, "type": "electric_scooter", "name": "4d308f63a20a68842efe61e5f0e2e52d", "is_disabled": 0, "bike_id": "4d308f63a20a68842efe61e5f0e2e52d", "lon": -77.0552055, "rental_uris": {"android": "https://dc.lft.to/lastmile_qr_scan", "ios": "https://dc.lft.to/lastmile_qr_scan"}, "fusion_lon": 0.0, "is_reserved": 0}, {"lat": 38.89669833333333, "fusion_lat": 0.0, "type": "electric_scooter", "name": "384c3ff41b6924c9647dcd9ab259137b", "is_disabled": 0, "bike_id": "384c3ff41b6924c9647dcd9ab259137b", "lon": -77.05111783333334, "rental_uris": {"android": "https://dc.lft.to/lastmile_qr_scan", "ios": "https://dc.lft.to/lastmile_qr_scan"}, "fusion_lon": 0.0, "is_reserved": 0}, {"lat": 38.88503216666667, "fusion_lat": 0.0, "type": "electric_scooter", "name": "33b33be8d4f119bea5f7cead5cc088c4", "is_disabled": 0, "bike_id": "33b33be8d4f119bea5f7cead5cc088c4", "lon": -77.00892433333334, "rental_uris": {"android": "https://dc.lft.to/lastmile_qr_scan", "ios": "https://dc.lft.to/lastmile_qr_scan"}, "fusion_lon": 0.0, "is_reserved": 0}, {"lat": 38.91271033333334, "fusion_lat": 0.0, "type": "electric_scooter", "name": "7ce7611e8fbae40516f8ba05f8421ec6", "is_disabled": 0, "bike_id": "7ce7611e8fbae40516f8ba05f8421ec6", "lon": -77.04843616666666, "rental_uris": {"android": "https://dc.lft.to/lastmile_qr_scan", "ios": "https://dc.lft.to/lastmile_qr_scan"}, "fusion_lon": 0.0, "is_reserved": 0}, {"lat": 38.887623833333336, "fusion_lat": 0.0, "type": "electric_scooter", "name": "ad7af81d2f28f56dd65948204526d754", "is_disabled": 0, "bike_id": "ad7af81d2f28f56dd65948204526d754", "lon": -77.00202766666666, "rental_uris": {"android": "https://dc.lft.to/lastmile_qr_scan", "ios": "https://dc.lft.to/lastmile_qr_scan"}, "fusion_lon": 0.0, "is_reserved": 0}, {"lat": 38.91049483333333, "fusion_lat": 0.0, "type": "electric_scooter", "name": "6624b9c24a1ceb8817d0b5bdf25467cb", "is_disabled": 0, "bike_id": "6624b9c24a1ceb8817d0b5bdf25467cb", "lon": -77.0220465, "rental_uris": {"android": "https://dc.lft.to/lastmile_qr_scan", "ios": "https://dc.lft.to/lastmile_qr_scan"}, "fusion_lon": 0.0, "is_reserved": 0}, {"lat": 38.94154433333333, "fusion_lat": 0.0, "type": "electric_bike", "name": "de570b45e372e77a136857c4d2c0852c", "is_disabled": 0, "bike_id": "de570b45e372e77a136857c4d2c0852c", "lon": -77.001942, "rental_uris": {"android": "https://dc.lft.to/lastmile_qr_scan", "ios": "https://dc.lft.to/lastmile_qr_scan"}, "fusion_lon": 0.0, "is_reserved": 0}, {"lat": 38.914841, "fusion_lat": 0.0, "type": "electric_scooter", "name": "69432c8cdfbcdc5e6573c5f9defde8cc", "is_disabled": 0, "bike_id": "69432c8cdfbcdc5e6573c5f9defde8cc", "lon": -77.04839266666667, "rental_uris": {"android": "https://dc.lft.to/lastmile_qr_scan", "ios": "https://dc.lft.to/lastmile_qr_scan"}, "fusion_lon": 0.0, "is_reserved": 0}, {"lat": 38.865125, "fusion_lat": 0.0, "type": "electric_bike", "name": "62f58bd1e2cd9baeacec52a1494c3dd0", "is_disabled": 0, "bike_id": "62f58bd1e2cd9baeacec52a1494c3dd0", "lon": -77.129392, "rental_uris": {"android": "https://dc.lft.to/lastmile_qr_scan", "ios": "https://dc.lft.to/lastmile_qr_scan"}, "fusion_lon": 0.0, "is_reserved": 0}, {"lat": 38.916747666666666, "fusion_lat": 0.0, "type": "electric_scooter", "name": "403ec997c824d266fa5b3d1f4820bb4c", "is_disabled": 0, "bike_id": "403ec997c824d266fa5b3d1f4820bb4c", "lon": -77.02806316666667, "rental_uris": {"android": "https://dc.lft.to/lastmile_qr_scan", "ios": "https://dc.lft.to/lastmile_qr_scan"}, "fusion_lon": 0.0, "is_reserved": 0}, {"lat": 38.91413283333333, "fusion_lat": 0.0, "type": "electric_scooter", "name": "ac51d9a50d46852891cb7229501fb22d", "is_disabled": 0, "bike_id": "ac51d9a50d46852891cb7229501fb22d", "lon": -77.02211483333333, "rental_uris": {"android": "https://dc.lft.to/lastmile_qr_scan", "ios": "https://dc.lft.to/lastmile_qr_scan"}, "fusion_lon": 0.0, "is_reserved": 0}, {"lat": 38.911565833333334, "fusion_lat": 0.0, "type": "electric_scooter", "name": "5b0c0ea643340ceb8930ff55b1f2fbb1", "is_disabled": 0, "bike_id": "5b0c0ea643340ceb8930ff55b1f2fbb1", "lon": -77.07758883333334, "rental_uris": {"android": "https://dc.lft.to/lastmile_qr_scan", "ios": "https://dc.lft.to/lastmile_qr_scan"}, "fusion_lon": 0.0, "is_reserved": 0}, {"lat": 38.91852633333333, "fusion_lat": 0.0, "type": "electric_scooter", "name": "e969e3cb4c98e9eae53bc9fc46fa0d6e", "is_disabled": 0, "bike_id": "e969e3cb4c98e9eae53bc9fc46fa0d6e", "lon": -77.04838766666667, "rental_uris": {"android": "https://dc.lft.to/lastmile_qr_scan", "ios": "https://dc.lft.to/lastmile_qr_scan"}, "fusion_lon": 0.0, "is_reserved": 0}, {"lat": 38.894753, "fusion_lat": 0.0, "type": "electric_scooter", "name": "e78b1058b7a5c5262d69f4202a0dde52", "is_disabled": 0, "bike_id": "e78b1058b7a5c5262d69f4202a0dde52", "lon": -76.948625, "rental_uris": {"android": "https://dc.lft.to/lastmile_qr_scan", "ios": "https://dc.lft.to/lastmile_qr_scan"}, "fusion_lon": 0.0, "is_reserved": 0}, {"lat": 38.89505066666667, "fusion_lat": 0.0, "type": "electric_scooter", "name": "38353959e9a83bc594d74e975b924b53", "is_disabled": 0, "bike_id": "38353959e9a83bc594d74e975b924b53", "lon": -77.04678533333333, "rental_uris": {"android": "https://dc.lft.to/lastmile_qr_scan", "ios": "https://dc.lft.to/lastmile_qr_scan"}, "fusion_lon": 0.0, "is_reserved": 0}, {"lat": 38.966107666666666, "fusion_lat": 0.0, "type": "electric_scooter", "name": "6f3580315f4699d5ed3d9e226ca47cae", "is_disabled": 0, "bike_id": "6f3580315f4699d5ed3d9e226ca47cae", "lon": -77.02314716666666, "rental_uris": {"android": "https://dc.lft.to/lastmile_qr_scan", "ios": "https://dc.lft.to/lastmile_qr_scan"}, "fusion_lon": 0.0, "is_reserved": 0}, {"lat": 38.94019266666667, "fusion_lat": 0.0, "type": "electric_scooter", "name": "3b350e16c7076b7f04497739c46f46a4", "is_disabled": 0, "bike_id": "3b350e16c7076b7f04497739c46f46a4", "lon": -76.97611216666667, "rental_uris": {"android": "https://dc.lft.to/lastmile_qr_scan", "ios": "https://dc.lft.to/lastmile_qr_scan"}, "fusion_lon": 0.0, "is_reserved": 0}, {"lat": 38.877218, "fusion_lat": 0.0, "type": "electric_scooter", "name": "f5ca89f97cc82123ac7559b9c62f867d", "is_disabled": 0, "bike_id": "f5ca89f97cc82123ac7559b9c62f867d", "lon": -77.00538916666666, "rental_uris": {"android": "https://dc.lft.to/lastmile_qr_scan", "ios": "https://dc.lft.to/lastmile_qr_scan"}, "fusion_lon": 0.0, "is_reserved": 0}, {"lat": 38.90113566666667, "fusion_lat": 0.0, "type": "electric_scooter", "name": "da61114bc77fddb340b027f89bb1aa2a", "is_disabled": 0, "bike_id": "da61114bc77fddb340b027f89bb1aa2a", "lon": -77.0325955, "rental_uris": {"android": "https://dc.lft.to/lastmile_qr_scan", "ios": "https://dc.lft.to/lastmile_qr_scan"}, "fusion_lon": 0.0, "is_reserved": 0}, {"lat": 38.920868666666664, "fusion_lat": 0.0, "type": "electric_scooter", "name": "a2d43027b2298dee8058f8715f4554a5", "is_disabled": 0, "bike_id": "a2d43027b2298dee8058f8715f4554a5", "lon": -77.01784483333333, "rental_uris": {"android": "https://dc.lft.to/lastmile_qr_scan", "ios": "https://dc.lft.to/lastmile_qr_scan"}, "fusion_lon": 0.0, "is_reserved": 0}, {"lat": 38.930676, "fusion_lat": 0.0, "type": "electric_scooter", "name": "7f7635e74fce326ad2fb07cf4316e717", "is_disabled": 0, "bike_id": "7f7635e74fce326ad2fb07cf4316e717", "lon": -77.03636166666666, "rental_uris": {"android": "https://dc.lft.to/lastmile_qr_scan", "ios": "https://dc.lft.to/lastmile_qr_scan"}, "fusion_lon": 0.0, "is_reserved": 0}, {"lat": 38.9248105, "fusion_lat": 0.0, "type": "electric_scooter", "name": "be017d97e5d53e97c775517a6b3f7259", "is_disabled": 0, "bike_id": "be017d97e5d53e97c775517a6b3f7259", "lon": -77.02195216666667, "rental_uris": {"android": "https://dc.lft.to/lastmile_qr_scan", "ios": "https://dc.lft.to/lastmile_qr_scan"}, "fusion_lon": 0.0, "is_reserved": 0}, {"lat": 38.846104, "fusion_lat": 0.0, "type": "electric_bike", "name": "dd832e074702c5650ba4b53652ecae92", "is_disabled": 0, "bike_id": "dd832e074702c5650ba4b53652ecae92", "lon": -76.96914616666666, "rental_uris": {"android": "https://dc.lft.to/lastmile_qr_scan", "ios": "https://dc.lft.to/lastmile_qr_scan"}, "fusion_lon": 0.0, "is_reserved": 0}, {"lat": 38.92075333333333, "fusion_lat": 0.0, "type": "electric_scooter", "name": "fac22482ea4ea362a4df69ccb05190db", "is_disabled": 0, "bike_id": "fac22482ea4ea362a4df69ccb05190db", "lon": -77.02537733333334, "rental_uris": {"android": "https://dc.lft.to/lastmile_qr_scan", "ios": "https://dc.lft.to/lastmile_qr_scan"}, "fusion_lon": 0.0, "is_reserved": 0}, {"lat": 38.905763, "fusion_lat": 0.0, "type": "electric_scooter", "name": "324272675169767423805fe1f5cd5ec5", "is_disabled": 0, "bike_id": "324272675169767423805fe1f5cd5ec5", "lon": -77.037418, "rental_uris": {"android": "https://dc.lft.to/lastmile_qr_scan", "ios": "https://dc.lft.to/lastmile_qr_scan"}, "fusion_lon": 0.0, "is_reserved": 0}, {"lat": 38.912234166666664, "fusion_lat": 0.0, "type": "electric_scooter", "name": "6dac21ed97646000c636e268e05385f9", "is_disabled": 0, "bike_id": "6dac21ed97646000c636e268e05385f9", "lon": -77.02303583333334, "rental_uris": {"android": "https://dc.lft.to/lastmile_qr_scan", "ios": "https://dc.lft.to/lastmile_qr_scan"}, "fusion_lon": 0.0, "is_reserved": 0}, {"lat": 38.8961465, "fusion_lat": 0.0, "type": "electric_scooter", "name": "a6da28455f2985ada6d67a3dc020e451", "is_disabled": 0, "bike_id": "a6da28455f2985ada6d67a3dc020e451", "lon": -77.01170233333333, "rental_uris": {"android": "https://dc.lft.to/lastmile_qr_scan", "ios": "https://dc.lft.to/lastmile_qr_scan"}, "fusion_lon": 0.0, "is_reserved": 0}, {"lat": 38.887444, "fusion_lat": 0.0, "type": "electric_scooter", "name": "5d9fddc8613afe7b3cdde4d85b9183d6", "is_disabled": 0, "bike_id": "5d9fddc8613afe7b3cdde4d85b9183d6", "lon": -77.028611, "rental_uris": {"android": "https://dc.lft.to/lastmile_qr_scan", "ios": "https://dc.lft.to/lastmile_qr_scan"}, "fusion_lon": 0.0, "is_reserved": 0}, {"lat": 38.8755245, "fusion_lat": 0.0, "type": "electric_scooter", "name": "c525d66e01c06ed99accf4dc1800c160", "is_disabled": 0, "bike_id": "c525d66e01c06ed99accf4dc1800c160", "lon": -77.00589333333333, "rental_uris": {"android": "https://dc.lft.to/lastmile_qr_scan", "ios": "https://dc.lft.to/lastmile_qr_scan"}, "fusion_lon": 0.0, "is_reserved": 0}, {"lat": 38.886365, "fusion_lat": 0.0, "type": "electric_scooter", "name": "027c9264c7ff21f3f63bbf272f69c6cc", "is_disabled": 0, "bike_id": "027c9264c7ff21f3f63bbf272f69c6cc", "lon": -77.01749583333333, "rental_uris": {"android": "https://dc.lft.to/lastmile_qr_scan", "ios": "https://dc.lft.to/lastmile_qr_scan"}, "fusion_lon": 0.0, "is_reserved": 0}, {"lat": 38.855943833333335, "fusion_lat": 0.0, "type": "electric_scooter", "name": "4b7c27e638e610108bfeb243012e5670", "is_disabled": 0, "bike_id": "4b7c27e638e610108bfeb243012e5670", "lon": -76.98724033333333, "rental_uris": {"android": "https://dc.lft.to/lastmile_qr_scan", "ios": "https://dc.lft.to/lastmile_qr_scan"}, "fusion_lon": 0.0, "is_reserved": 0}, {"lat": 38.91354233333333, "fusion_lat": 0.0, "type": "electric_scooter", "name": "2aadb06a757d6f77d3bfb121521548b9", "is_disabled": 0, "bike_id": "2aadb06a757d6f77d3bfb121521548b9", "lon": -77.04494016666666, "rental_uris": {"android": "https://dc.lft.to/lastmile_qr_scan", "ios": "https://dc.lft.to/lastmile_qr_scan"}, "fusion_lon": 0.0, "is_reserved": 0}, {"lat": 38.9673645, "fusion_lat": 0.0, "type": "electric_bike", "name": "7d4556bf7da80b321bf4853758baf5b4", "is_disabled": 0, "bike_id": "7d4556bf7da80b321bf4853758baf5b4", "lon": -76.96049666666667, "rental_uris": {"android": "https://dc.lft.to/lastmile_qr_scan", "ios": "https://dc.lft.to/lastmile_qr_scan"}, "fusion_lon": 0.0, "is_reserved": 0}, {"lat": 38.91702016666667, "fusion_lat": 0.0, "type": "electric_scooter", "name": "b4eff06a6819dbe130e0e5f3a19d1b49", "is_disabled": 0, "bike_id": "b4eff06a6819dbe130e0e5f3a19d1b49", "lon": -77.02853916666666, "rental_uris": {"android": "https://dc.lft.to/lastmile_qr_scan", "ios": "https://dc.lft.to/lastmile_qr_scan"}, "fusion_lon": 0.0, "is_reserved": 0}, {"lat": 38.9387855, "fusion_lat": 0.0, "type": "electric_scooter", "name": "7c21196e102f42f33df41380e6a6b44c", "is_disabled": 0, "bike_id": "7c21196e102f42f33df41380e6a6b44c", "lon": -77.03288066666667, "rental_uris": {"android": "https://dc.lft.to/lastmile_qr_scan", "ios": "https://dc.lft.to/lastmile_qr_scan"}, "fusion_lon": 0.0, "is_reserved": 0}, {"lat": 38.922365666666664, "fusion_lat": 0.0, "type": "electric_scooter", "name": "a67516928528599d7bc82a9a722aba3f", "is_disabled": 0, "bike_id": "a67516928528599d7bc82a9a722aba3f", "lon": -77.0213065, "rental_uris": {"android": "https://dc.lft.to/lastmile_qr_scan", "ios": "https://dc.lft.to/lastmile_qr_scan"}, "fusion_lon": 0.0, "is_reserved": 0}, {"lat": 38.90285333333333, "fusion_lat": 0.0, "type": "electric_scooter", "name": "fac42c5eb7c4cf36d55ba27b7a8a1715", "is_disabled": 0, "bike_id": "fac42c5eb7c4cf36d55ba27b7a8a1715", "lon": -77.03436033333334, "rental_uris": {"android": "https://dc.lft.to/lastmile_qr_scan", "ios": "https://dc.lft.to/lastmile_qr_scan"}, "fusion_lon": 0.0, "is_reserved": 0}, {"lat": 38.902252833333336, "fusion_lat": 0.0, "type": "electric_scooter", "name": "5907c5d367008dee8abde6074c3dfefe", "is_disabled": 0, "bike_id": "5907c5d367008dee8abde6074c3dfefe", "lon": -77.034676, "rental_uris": {"android": "https://dc.lft.to/lastmile_qr_scan", "ios": "https://dc.lft.to/lastmile_qr_scan"}, "fusion_lon": 0.0, "is_reserved": 0}, {"lat": 38.904609666666666, "fusion_lat": 0.0, "type": "electric_scooter", "name": "623c84c96dc57f292e26315d3e5794cc", "is_disabled": 0, "bike_id": "623c84c96dc57f292e26315d3e5794cc", "lon": -77.04365283333334, "rental_uris": {"android": "https://dc.lft.to/lastmile_qr_scan", "ios": "https://dc.lft.to/lastmile_qr_scan"}, "fusion_lon": 0.0, "is_reserved": 0}, {"lat": 38.89223783333333, "fusion_lat": 0.0, "type": "electric_scooter", "name": "287f384dd6f6274a030c0f5ce5f40510", "is_disabled": 0, "bike_id": "287f384dd6f6274a030c0f5ce5f40510", "lon": -77.02414066666667, "rental_uris": {"android": "https://dc.lft.to/lastmile_qr_scan", "ios": "https://dc.lft.to/lastmile_qr_scan"}, "fusion_lon": 0.0, "is_reserved": 0}, {"lat": 38.909057, "fusion_lat": 0.0, "type": "electric_scooter", "name": "b7a7b869f7d546fddaffcd0494c0bf61", "is_disabled": 0, "bike_id": "b7a7b869f7d546fddaffcd0494c0bf61", "lon": -77.07186616666667, "rental_uris": {"android": "https://dc.lft.to/lastmile_qr_scan", "ios": "https://dc.lft.to/lastmile_qr_scan"}, "fusion_lon": 0.0, "is_reserved": 0}, {"lat": 38.872117333333335, "fusion_lat": 0.0, "type": "electric_scooter", "name": "69ddf65742539001a4cc8cf03e67d706", "is_disabled": 0, "bike_id": "69ddf65742539001a4cc8cf03e67d706", "lon": -77.0176585, "rental_uris": {"android": "https://dc.lft.to/lastmile_qr_scan", "ios": "https://dc.lft.to/lastmile_qr_scan"}, "fusion_lon": 0.0, "is_reserved": 0}, {"lat": 38.900432333333335, "fusion_lat": 0.0, "type": "electric_scooter", "name": "77753000d47aea4ab780f32d95da7cc8", "is_disabled": 0, "bike_id": "77753000d47aea4ab780f32d95da7cc8", "lon": -77.0075235, "rental_uris": {"android": "https://dc.lft.to/lastmile_qr_scan", "ios": "https://dc.lft.to/lastmile_qr_scan"}, "fusion_lon": 0.0, "is_reserved": 0}, {"lat": 38.9184205, "fusion_lat": 0.0, "type": "electric_scooter", "name": "17334863a74047fe200710e8bd64b5e8", "is_disabled": 0, "bike_id": "17334863a74047fe200710e8bd64b5e8", "lon": -77.040196, "rental_uris": {"android": "https://dc.lft.to/lastmile_qr_scan", "ios": "https://dc.lft.to/lastmile_qr_scan"}, "fusion_lon": 0.0, "is_reserved": 0}, {"lat": 38.95188866666667, "fusion_lat": 0.0, "type": "electric_scooter", "name": "7e611902ad5d13cc8cecdfdb65b46134", "is_disabled": 0, "bike_id": "7e611902ad5d13cc8cecdfdb65b46134", "lon": -77.02724933333333, "rental_uris": {"android": "https://dc.lft.to/lastmile_qr_scan", "ios": "https://dc.lft.to/lastmile_qr_scan"}, "fusion_lon": 0.0, "is_reserved": 0}, {"lat": 38.8842655, "fusion_lat": 0.0, "type": "electric_scooter", "name": "d8263354dd9aaf5f9603b8c0b1c4c89b", "is_disabled": 0, "bike_id": "d8263354dd9aaf5f9603b8c0b1c4c89b", "lon": -76.95755883333334, "rental_uris": {"android": "https://dc.lft.to/lastmile_qr_scan", "ios": "https://dc.lft.to/lastmile_qr_scan"}, "fusion_lon": 0.0, "is_reserved": 0}, {"lat": 38.89340583333333, "fusion_lat": 0.0, "type": "electric_scooter", "name": "30abe3e0bcc1d267fd937b436a3e19ff", "is_disabled": 0, "bike_id": "30abe3e0bcc1d267fd937b436a3e19ff", "lon": -76.94920966666666, "rental_uris": {"android": "https://dc.lft.to/lastmile_qr_scan", "ios": "https://dc.lft.to/lastmile_qr_scan"}, "fusion_lon": 0.0, "is_reserved": 0}, {"lat": 38.87463983333333, "fusion_lat": 0.0, "type": "electric_scooter", "name": "774770a6364d069cde57cd6f1a8173da", "is_disabled": 0, "bike_id": "774770a6364d069cde57cd6f1a8173da", "lon": -77.00492116666666, "rental_uris": {"android": "https://dc.lft.to/lastmile_qr_scan", "ios": "https://dc.lft.to/lastmile_qr_scan"}, "fusion_lon": 0.0, "is_reserved": 0}, {"lat": 38.896129333333334, "fusion_lat": 0.0, "type": "electric_scooter", "name": "1964c8006ef45454fa62376d7aaa9b11", "is_disabled": 0, "bike_id": "1964c8006ef45454fa62376d7aaa9b11", "lon": -77.02256833333334, "rental_uris": {"android": "https://dc.lft.to/lastmile_qr_scan", "ios": "https://dc.lft.to/lastmile_qr_scan"}, "fusion_lon": 0.0, "is_reserved": 0}, {"lat": 38.91118316666667, "fusion_lat": 0.0, "type": "electric_scooter", "name": "f9277980df7fe2fe18ffc5532bc06997", "is_disabled": 0, "bike_id": "f9277980df7fe2fe18ffc5532bc06997", "lon": -77.0219195, "rental_uris": {"android": "https://dc.lft.to/lastmile_qr_scan", "ios": "https://dc.lft.to/lastmile_qr_scan"}, "fusion_lon": 0.0, "is_reserved": 0}, {"lat": 38.9036105, "fusion_lat": 0.0, "type": "electric_scooter", "name": "2d2c81dd4cdf3a80092542921760804f", "is_disabled": 0, "bike_id": "2d2c81dd4cdf3a80092542921760804f", "lon": -77.03304983333334, "rental_uris": {"android": "https://dc.lft.to/lastmile_qr_scan", "ios": "https://dc.lft.to/lastmile_qr_scan"}, "fusion_lon": 0.0, "is_reserved": 0}, {"lat": 38.981077166666665, "fusion_lat": 0.0, "type": "electric_scooter", "name": "d4a116d781a5a274b88302128d918a73", "is_disabled": 0, "bike_id": "d4a116d781a5a274b88302128d918a73", "lon": -77.02242116666666, "rental_uris": {"android": "https://dc.lft.to/lastmile_qr_scan", "ios": "https://dc.lft.to/lastmile_qr_scan"}, "fusion_lon": 0.0, "is_reserved": 0}, {"lat": 38.87181183333333, "fusion_lat": 0.0, "type": "electric_scooter", "name": "09dfdb0412fc454e527accb4bc706a0f", "is_disabled": 0, "bike_id": "09dfdb0412fc454e527accb4bc706a0f", "lon": -77.00608366666667, "rental_uris": {"android": "https://dc.lft.to/lastmile_qr_scan", "ios": "https://dc.lft.to/lastmile_qr_scan"}, "fusion_lon": 0.0, "is_reserved": 0}, {"lat": 38.92373666666667, "fusion_lat": 0.0, "type": "electric_scooter", "name": "53e96baa0fbf0f97dac4a93abf9aad81", "is_disabled": 0, "bike_id": "53e96baa0fbf0f97dac4a93abf9aad81", "lon": -77.0515215, "rental_uris": {"android": "https://dc.lft.to/lastmile_qr_scan", "ios": "https://dc.lft.to/lastmile_qr_scan"}, "fusion_lon": 0.0, "is_reserved": 0}, {"lat": 39.0330515, "fusion_lat": 0.0, "type": "electric_bike", "name": "2bf82dbdcf319930a4c0a42263ec7f82", "is_disabled": 0, "bike_id": "2bf82dbdcf319930a4c0a42263ec7f82", "lon": -77.045283, "rental_uris": {"android": "https://dc.lft.to/lastmile_qr_scan", "ios": "https://dc.lft.to/lastmile_qr_scan"}, "fusion_lon": 0.0, "is_reserved": 0}, {"lat": 38.930453, "fusion_lat": 0.0, "type": "electric_bike", "name": "69b0938d36d65642a08658e7e311ae0e", "is_disabled": 0, "bike_id": "69b0938d36d65642a08658e7e311ae0e", "lon": -76.95834416666666, "rental_uris": {"android": "https://dc.lft.to/lastmile_qr_scan", "ios": "https://dc.lft.to/lastmile_qr_scan"}, "fusion_lon": 0.0, "is_reserved": 0}, {"lat": 38.904192333333334, "fusion_lat": 0.0, "type": "electric_bike", "name": "8553f67da754556195d4a23d1a50c087", "is_disabled": 0, "bike_id": "8553f67da754556195d4a23d1a50c087", "lon": -76.97237083333333, "rental_uris": {"android": "https://dc.lft.to/lastmile_qr_scan", "ios": "https://dc.lft.to/lastmile_qr_scan"}, "fusion_lon": 0.0, "is_reserved": 0}, {"lat": 38.90025116666666, "fusion_lat": 0.0, "type": "electric_scooter", "name": "2ccf3d6a66706ae8a4c8ec4e15095162", "is_disabled": 0, "bike_id": "2ccf3d6a66706ae8a4c8ec4e15095162", "lon": -76.98765783333333, "rental_uris": {"android": "https://dc.lft.to/lastmile_qr_scan", "ios": "https://dc.lft.to/lastmile_qr_scan"}, "fusion_lon": 0.0, "is_reserved": 0}, {"lat": 38.90089783333333, "fusion_lat": 0.0, "type": "electric_scooter", "name": "246d1dd8bfe78f6aa9a286380ff39c63", "is_disabled": 0, "bike_id": "246d1dd8bfe78f6aa9a286380ff39c63", "lon": -77.0243865, "rental_uris": {"android": "https://dc.lft.to/lastmile_qr_scan", "ios": "https://dc.lft.to/lastmile_qr_scan"}, "fusion_lon": 0.0, "is_reserved": 0}, {"lat": 38.918298666666665, "fusion_lat": 0.0, "type": "electric_scooter", "name": "5a113c2e54ce6cdc6cd9d872cae6b530", "is_disabled": 0, "bike_id": "5a113c2e54ce6cdc6cd9d872cae6b530", "lon": -77.03451, "rental_uris": {"android": "https://dc.lft.to/lastmile_qr_scan", "ios": "https://dc.lft.to/lastmile_qr_scan"}, "fusion_lon": 0.0, "is_reserved": 0}, {"lat": 38.893574666666666, "fusion_lat": 0.0, "type": "electric_scooter", "name": "11cf3828e5863913cb7ae3a76a2e7923", "is_disabled": 0, "bike_id": "11cf3828e5863913cb7ae3a76a2e7923", "lon": -77.028422, "rental_uris": {"android": "https://dc.lft.to/lastmile_qr_scan", "ios": "https://dc.lft.to/lastmile_qr_scan"}, "fusion_lon": 0.0, "is_reserved": 0}, {"lat": 38.8579005, "fusion_lat": 0.0, "type": "electric_bike", "name": "8c81ecdd6ce9fb01937ce0fdcb0ffc05", "is_disabled": 0, "bike_id": "8c81ecdd6ce9fb01937ce0fdcb0ffc05", "lon": -77.09961983333334, "rental_uris": {"android": "https://dc.lft.to/lastmile_qr_scan", "ios": "https://dc.lft.to/lastmile_qr_scan"}, "fusion_lon": 0.0, "is_reserved": 0}, {"lat": 38.91343116666667, "fusion_lat": 0.0, "type": "electric_scooter", "name": "92e7d1ee461bfa0453690aad38d5d082", "is_disabled": 0, "bike_id": "92e7d1ee461bfa0453690aad38d5d082", "lon": -77.03198016666667, "rental_uris": {"android": "https://dc.lft.to/lastmile_qr_scan", "ios": "https://dc.lft.to/lastmile_qr_scan"}, "fusion_lon": 0.0, "is_reserved": 0}, {"lat": 38.89221383333334, "fusion_lat": 0.0, "type": "electric_scooter", "name": "36e000ce8138988d4957fc46afe12df0", "is_disabled": 0, "bike_id": "36e000ce8138988d4957fc46afe12df0", "lon": -77.03978116666667, "rental_uris": {"android": "https://dc.lft.to/lastmile_qr_scan", "ios": "https://dc.lft.to/lastmile_qr_scan"}, "fusion_lon": 0.0, "is_reserved": 0}, {"lat": 38.8856605, "fusion_lat": 0.0, "type": "electric_scooter", "name": "b84cd22097adccddc5ffcc2080738f84", "is_disabled": 0, "bike_id": "b84cd22097adccddc5ffcc2080738f84", "lon": -76.9980365, "rental_uris": {"android": "https://dc.lft.to/lastmile_qr_scan", "ios": "https://dc.lft.to/lastmile_qr_scan"}, "fusion_lon": 0.0, "is_reserved": 0}, {"lat": 38.941877, "fusion_lat": 0.0, "type": "electric_scooter", "name": "17c1a655450c17ee453f98994b6aebe8", "is_disabled": 0, "bike_id": "17c1a655450c17ee453f98994b6aebe8", "lon": -77.03839383333333, "rental_uris": {"android": "https://dc.lft.to/lastmile_qr_scan", "ios": "https://dc.lft.to/lastmile_qr_scan"}, "fusion_lon": 0.0, "is_reserved": 0}, {"lat": 38.890726, "fusion_lat": 0.0, "type": "electric_scooter", "name": "6c1f60e5a5bba3893293def7b0353a15", "is_disabled": 0, "bike_id": "6c1f60e5a5bba3893293def7b0353a15", "lon": -77.03326916666667, "rental_uris": {"android": "https://dc.lft.to/lastmile_qr_scan", "ios": "https://dc.lft.to/lastmile_qr_scan"}, "fusion_lon": 0.0, "is_reserved": 0}, {"lat": 38.902563, "fusion_lat": 0.0, "type": "electric_scooter", "name": "4f4cbdebecc1a1b23676d5d6903a6a7e", "is_disabled": 0, "bike_id": "4f4cbdebecc1a1b23676d5d6903a6a7e", "lon": -77.03076666666666, "rental_uris": {"android": "https://dc.lft.to/lastmile_qr_scan", "ios": "https://dc.lft.to/lastmile_qr_scan"}, "fusion_lon": 0.0, "is_reserved": 0}, {"lat": 38.927481666666665, "fusion_lat": 0.0, "type": "electric_scooter", "name": "fa2298bf01cd55efd868751c5360dbc7", "is_disabled": 0, "bike_id": "fa2298bf01cd55efd868751c5360dbc7", "lon": -77.03304533333333, "rental_uris": {"android": "https://dc.lft.to/lastmile_qr_scan", "ios": "https://dc.lft.to/lastmile_qr_scan"}, "fusion_lon": 0.0, "is_reserved": 0}, {"lat": 38.921701, "fusion_lat": 0.0, "type": "electric_scooter", "name": "8a73bbf021003ca8904c9b9ffd14c14e", "is_disabled": 0, "bike_id": "8a73bbf021003ca8904c9b9ffd14c14e", "lon": -77.0471395, "rental_uris": {"android": "https://dc.lft.to/lastmile_qr_scan", "ios": "https://dc.lft.to/lastmile_qr_scan"}, "fusion_lon": 0.0, "is_reserved": 0}, {"lat": 38.90254433333333, "fusion_lat": 0.0, "type": "electric_scooter", "name": "536a2b0f9e9d173a3958662a2fff75c3", "is_disabled": 0, "bike_id": "536a2b0f9e9d173a3958662a2fff75c3", "lon": -77.0054885, "rental_uris": {"android": "https://dc.lft.to/lastmile_qr_scan", "ios": "https://dc.lft.to/lastmile_qr_scan"}, "fusion_lon": 0.0, "is_reserved": 0}, {"lat": 38.8922955, "fusion_lat": 0.0, "type": "electric_scooter", "name": "50fd5844402c81f11783927dead46bc2", "is_disabled": 0, "bike_id": "50fd5844402c81f11783927dead46bc2", "lon": -77.05003533333333, "rental_uris": {"android": "https://dc.lft.to/lastmile_qr_scan", "ios": "https://dc.lft.to/lastmile_qr_scan"}, "fusion_lon": 0.0, "is_reserved": 0}, {"lat": 38.920495, "fusion_lat": 0.0, "type": "electric_scooter", "name": "6b73721310a0d0a30fbd1368ecad7f8c", "is_disabled": 0, "bike_id": "6b73721310a0d0a30fbd1368ecad7f8c", "lon": -77.0253555, "rental_uris": {"android": "https://dc.lft.to/lastmile_qr_scan", "ios": "https://dc.lft.to/lastmile_qr_scan"}, "fusion_lon": 0.0, "is_reserved": 0}, {"lat": 38.915707, "fusion_lat": 0.0, "type": "electric_scooter", "name": "62f6389d2dc03d7b79416596096df9d0", "is_disabled": 0, "bike_id": "62f6389d2dc03d7b79416596096df9d0", "lon": -77.04485683333333, "rental_uris": {"android": "https://dc.lft.to/lastmile_qr_scan", "ios": "https://dc.lft.to/lastmile_qr_scan"}, "fusion_lon": 0.0, "is_reserved": 0}, {"lat": 38.8935035, "fusion_lat": 0.0, "type": "electric_scooter", "name": "7b8d56efe8632859c8d9e6354a8f5572", "is_disabled": 0, "bike_id": "7b8d56efe8632859c8d9e6354a8f5572", "lon": -77.028508, "rental_uris": {"android": "https://dc.lft.to/lastmile_qr_scan", "ios": "https://dc.lft.to/lastmile_qr_scan"}, "fusion_lon": 0.0, "is_reserved": 0}, {"lat": 38.91776816666667, "fusion_lat": 0.0, "type": "electric_scooter", "name": "64b95f6d1751365572241990fa0a17e0", "is_disabled": 0, "bike_id": "64b95f6d1751365572241990fa0a17e0", "lon": -77.023172, "rental_uris": {"android": "https://dc.lft.to/lastmile_qr_scan", "ios": "https://dc.lft.to/lastmile_qr_scan"}, "fusion_lon": 0.0, "is_reserved": 0}, {"lat": 38.918477, "fusion_lat": 0.0, "type": "electric_scooter", "name": "a05ee4af788330efb44e5271073fd59e", "is_disabled": 0, "bike_id": "a05ee4af788330efb44e5271073fd59e", "lon": -77.03205566666666, "rental_uris": {"android": "https://dc.lft.to/lastmile_qr_scan", "ios": "https://dc.lft.to/lastmile_qr_scan"}, "fusion_lon": 0.0, "is_reserved": 0}, {"lat": 38.95072116666667, "fusion_lat": 0.0, "type": "electric_scooter", "name": "1446a11aa31becd5a1ae584508530e56", "is_disabled": 0, "bike_id": "1446a11aa31becd5a1ae584508530e56", "lon": -76.99625, "rental_uris": {"android": "https://dc.lft.to/lastmile_qr_scan", "ios": "https://dc.lft.to/lastmile_qr_scan"}, "fusion_lon": 0.0, "is_reserved": 0}, {"lat": 38.91704, "fusion_lat": 0.0, "type": "electric_scooter", "name": "84495aa2617436ab22ef8893fa89f483", "is_disabled": 0, "bike_id": "84495aa2617436ab22ef8893fa89f483", "lon": -77.03384, "rental_uris": {"android": "https://dc.lft.to/lastmile_qr_scan", "ios": "https://dc.lft.to/lastmile_qr_scan"}, "fusion_lon": 0.0, "is_reserved": 0}, {"lat": 38.922624166666665, "fusion_lat": 0.0, "type": "electric_scooter", "name": "95598034cfe32566cb39ba0661aa3286", "is_disabled": 0, "bike_id": "95598034cfe32566cb39ba0661aa3286", "lon": -77.03275183333334, "rental_uris": {"android": "https://dc.lft.to/lastmile_qr_scan", "ios": "https://dc.lft.to/lastmile_qr_scan"}, "fusion_lon": 0.0, "is_reserved": 0}, {"lat": 38.90258716666666, "fusion_lat": 0.0, "type": "electric_scooter", "name": "f6d8bc2d9cbdacaebceb8eca3a6d6d04", "is_disabled": 0, "bike_id": "f6d8bc2d9cbdacaebceb8eca3a6d6d04", "lon": -77.03845216666667, "rental_uris": {"android": "https://dc.lft.to/lastmile_qr_scan", "ios": "https://dc.lft.to/lastmile_qr_scan"}, "fusion_lon": 0.0, "is_reserved": 0}, {"lat": 38.90028, "fusion_lat": 0.0, "type": "electric_scooter", "name": "689fd60cae1f8d5b1f542108b77b2447", "is_disabled": 0, "bike_id": "689fd60cae1f8d5b1f542108b77b2447", "lon": -77.02386566666667, "rental_uris": {"android": "https://dc.lft.to/lastmile_qr_scan", "ios": "https://dc.lft.to/lastmile_qr_scan"}, "fusion_lon": 0.0, "is_reserved": 0}, {"lat": 38.90987616666666, "fusion_lat": 0.0, "type": "electric_scooter", "name": "3ef8fa43a3bcbee5aacccee539e4c03b", "is_disabled": 0, "bike_id": "3ef8fa43a3bcbee5aacccee539e4c03b", "lon": -77.03844183333334, "rental_uris": {"android": "https://dc.lft.to/lastmile_qr_scan", "ios": "https://dc.lft.to/lastmile_qr_scan"}, "fusion_lon": 0.0, "is_reserved": 0}, {"lat": 38.92712516666667, "fusion_lat": 0.0, "type": "electric_scooter", "name": "b008667f4ab290817364834a4cf255ef", "is_disabled": 0, "bike_id": "b008667f4ab290817364834a4cf255ef", "lon": -77.02340116666667, "rental_uris": {"android": "https://dc.lft.to/lastmile_qr_scan", "ios": "https://dc.lft.to/lastmile_qr_scan"}, "fusion_lon": 0.0, "is_reserved": 0}, {"lat": 38.97255666666667, "fusion_lat": 0.0, "type": "electric_bike", "name": "8ba90bd21d7ba39f49c038e0585f2e5b", "is_disabled": 0, "bike_id": "8ba90bd21d7ba39f49c038e0585f2e5b", "lon": -76.99276066666667, "rental_uris": {"android": "https://dc.lft.to/lastmile_qr_scan", "ios": "https://dc.lft.to/lastmile_qr_scan"}, "fusion_lon": 0.0, "is_reserved": 0}, {"lat": 38.90858166666666, "fusion_lat": 0.0, "type": "electric_scooter", "name": "4eab6664dbe41339ba6508f66ecf2e5e", "is_disabled": 0, "bike_id": "4eab6664dbe41339ba6508f66ecf2e5e", "lon": -77.04561433333333, "rental_uris": {"android": "https://dc.lft.to/lastmile_qr_scan", "ios": "https://dc.lft.to/lastmile_qr_scan"}, "fusion_lon": 0.0, "is_reserved": 0}, {"lat": 38.874021666666664, "fusion_lat": 0.0, "type": "electric_scooter", "name": "0c2063d6e728ff6904c58b7578ba43e4", "is_disabled": 0, "bike_id": "0c2063d6e728ff6904c58b7578ba43e4", "lon": -77.00029816666667, "rental_uris": {"android": "https://dc.lft.to/lastmile_qr_scan", "ios": "https://dc.lft.to/lastmile_qr_scan"}, "fusion_lon": 0.0, "is_reserved": 0}, {"lat": 38.935748333333336, "fusion_lat": 0.0, "type": "electric_scooter", "name": "29be8fe4ed44730d3689c70fb9e4da07", "is_disabled": 0, "bike_id": "29be8fe4ed44730d3689c70fb9e4da07", "lon": -77.03351133333334, "rental_uris": {"android": "https://dc.lft.to/lastmile_qr_scan", "ios": "https://dc.lft.to/lastmile_qr_scan"}, "fusion_lon": 0.0, "is_reserved": 0}, {"lat": 38.927268833333336, "fusion_lat": 0.0, "type": "electric_scooter", "name": "782b4d4e50c93c0967256c6c71ea0fc5", "is_disabled": 0, "bike_id": "782b4d4e50c93c0967256c6c71ea0fc5", "lon": -77.03236583333333, "rental_uris": {"android": "https://dc.lft.to/lastmile_qr_scan", "ios": "https://dc.lft.to/lastmile_qr_scan"}, "fusion_lon": 0.0, "is_reserved": 0}, {"lat": 38.92537216666667, "fusion_lat": 0.0, "type": "electric_scooter", "name": "b41ef77459dca8b4a4aa6ac43b2224c4", "is_disabled": 0, "bike_id": "b41ef77459dca8b4a4aa6ac43b2224c4", "lon": -77.03379566666666, "rental_uris": {"android": "https://dc.lft.to/lastmile_qr_scan", "ios": "https://dc.lft.to/lastmile_qr_scan"}, "fusion_lon": 0.0, "is_reserved": 0}, {"lat": 38.913260666666666, "fusion_lat": 0.0, "type": "electric_scooter", "name": "aa7497b01060733139c35b573181cef6", "is_disabled": 0, "bike_id": "aa7497b01060733139c35b573181cef6", "lon": -77.0453695, "rental_uris": {"android": "https://dc.lft.to/lastmile_qr_scan", "ios": "https://dc.lft.to/lastmile_qr_scan"}, "fusion_lon": 0.0, "is_reserved": 0}, {"lat": 38.91008216666667, "fusion_lat": 0.0, "type": "electric_scooter", "name": "e4b045a8602f452017eb471404c6ed1e", "is_disabled": 0, "bike_id": "e4b045a8602f452017eb471404c6ed1e", "lon": -77.05268233333334, "rental_uris": {"android": "https://dc.lft.to/lastmile_qr_scan", "ios": "https://dc.lft.to/lastmile_qr_scan"}, "fusion_lon": 0.0, "is_reserved": 0}, {"lat": 39.040814833333336, "fusion_lat": 0.0, "type": "electric_bike", "name": "a0c26fc4f2ba1c0dcdc2d3a0f45a5c08", "is_disabled": 0, "bike_id": "a0c26fc4f2ba1c0dcdc2d3a0f45a5c08", "lon": -77.0533895, "rental_uris": {"android": "https://dc.lft.to/lastmile_qr_scan", "ios": "https://dc.lft.to/lastmile_qr_scan"}, "fusion_lon": 0.0, "is_reserved": 0}, {"lat": 38.926716, "fusion_lat": 0.0, "type": "electric_scooter", "name": "37042152906bcbab6b6e4d1f78da309f", "is_disabled": 0, "bike_id": "37042152906bcbab6b6e4d1f78da309f", "lon": -77.02694833333334, "rental_uris": {"android": "https://dc.lft.to/lastmile_qr_scan", "ios": "https://dc.lft.to/lastmile_qr_scan"}, "fusion_lon": 0.0, "is_reserved": 0}, {"lat": 38.87466033333333, "fusion_lat": 0.0, "type": "electric_scooter", "name": "e5468c4f3b9efa026c5eccdac011694a", "is_disabled": 0, "bike_id": "e5468c4f3b9efa026c5eccdac011694a", "lon": -77.00493483333334, "rental_uris": {"android": "https://dc.lft.to/lastmile_qr_scan", "ios": "https://dc.lft.to/lastmile_qr_scan"}, "fusion_lon": 0.0, "is_reserved": 0}, {"lat": 38.904588833333335, "fusion_lat": 0.0, "type": "electric_scooter", "name": "3f1c8401226efb9cef8568487224448a", "is_disabled": 0, "bike_id": "3f1c8401226efb9cef8568487224448a", "lon": -77.03126966666666, "rental_uris": {"android": "https://dc.lft.to/lastmile_qr_scan", "ios": "https://dc.lft.to/lastmile_qr_scan"}, "fusion_lon": 0.0, "is_reserved": 0}, {"lat": 38.92082416666667, "fusion_lat": 0.0, "type": "electric_scooter", "name": "eb20051490c8ecb14009e2bdf1e6d344", "is_disabled": 0, "bike_id": "eb20051490c8ecb14009e2bdf1e6d344", "lon": -77.02043166666667, "rental_uris": {"android": "https://dc.lft.to/lastmile_qr_scan", "ios": "https://dc.lft.to/lastmile_qr_scan"}, "fusion_lon": 0.0, "is_reserved": 0}, {"lat": 38.920449833333336, "fusion_lat": 0.0, "type": "electric_scooter", "name": "eb48d5fc6984548e9051e0c14e4cdde6", "is_disabled": 0, "bike_id": "eb48d5fc6984548e9051e0c14e4cdde6", "lon": -77.0419365, "rental_uris": {"android": "https://dc.lft.to/lastmile_qr_scan", "ios": "https://dc.lft.to/lastmile_qr_scan"}, "fusion_lon": 0.0, "is_reserved": 0}, {"lat": 38.8668445, "fusion_lat": 0.0, "type": "electric_scooter", "name": "58fb89ad7ddb18c8f5613acc52339f32", "is_disabled": 0, "bike_id": "58fb89ad7ddb18c8f5613acc52339f32", "lon": -76.98540933333334, "rental_uris": {"android": "https://dc.lft.to/lastmile_qr_scan", "ios": "https://dc.lft.to/lastmile_qr_scan"}, "fusion_lon": 0.0, "is_reserved": 0}, {"lat": 38.900196333333334, "fusion_lat": 0.0, "type": "electric_scooter", "name": "eab08adc21da8a3654ba1f464b0abd3c", "is_disabled": 0, "bike_id": "eab08adc21da8a3654ba1f464b0abd3c", "lon": -77.00022416666667, "rental_uris": {"android": "https://dc.lft.to/lastmile_qr_scan", "ios": "https://dc.lft.to/lastmile_qr_scan"}, "fusion_lon": 0.0, "is_reserved": 0}, {"lat": 38.903908666666666, "fusion_lat": 0.0, "type": "electric_scooter", "name": "89571ffb6c622e6df42590f8fad53e61", "is_disabled": 0, "bike_id": "89571ffb6c622e6df42590f8fad53e61", "lon": -77.04350566666666, "rental_uris": {"android": "https://dc.lft.to/lastmile_qr_scan", "ios": "https://dc.lft.to/lastmile_qr_scan"}, "fusion_lon": 0.0, "is_reserved": 0}, {"lat": 38.957359833333335, "fusion_lat": 0.0, "type": "electric_scooter", "name": "374bc3c151f0151c911fb6782edc5eed", "is_disabled": 0, "bike_id": "374bc3c151f0151c911fb6782edc5eed", "lon": -77.00220416666667, "rental_uris": {"android": "https://dc.lft.to/lastmile_qr_scan", "ios": "https://dc.lft.to/lastmile_qr_scan"}, "fusion_lon": 0.0, "is_reserved": 0}, {"lat": 38.9396255, "fusion_lat": 0.0, "type": "electric_scooter", "name": "b30027472cfd40abc9a5613e6e9a6096", "is_disabled": 0, "bike_id": "b30027472cfd40abc9a5613e6e9a6096", "lon": -77.02478866666667, "rental_uris": {"android": "https://dc.lft.to/lastmile_qr_scan", "ios": "https://dc.lft.to/lastmile_qr_scan"}, "fusion_lon": 0.0, "is_reserved": 0}, {"lat": 38.918479, "fusion_lat": 0.0, "type": "electric_scooter", "name": "8fdd6b8dac1de4a86d2fde8ce251429b", "is_disabled": 0, "bike_id": "8fdd6b8dac1de4a86d2fde8ce251429b", "lon": -77.06193416666666, "rental_uris": {"android": "https://dc.lft.to/lastmile_qr_scan", "ios": "https://dc.lft.to/lastmile_qr_scan"}, "fusion_lon": 0.0, "is_reserved": 0}, {"lat": 38.94252083333333, "fusion_lat": 0.0, "type": "electric_scooter", "name": "6c32ee21bd167d1680746c101662f708", "is_disabled": 0, "bike_id": "6c32ee21bd167d1680746c101662f708", "lon": -77.090589, "rental_uris": {"android": "https://dc.lft.to/lastmile_qr_scan", "ios": "https://dc.lft.to/lastmile_qr_scan"}, "fusion_lon": 0.0, "is_reserved": 0}, {"lat": 38.92479083333333, "fusion_lat": 0.0, "type": "electric_scooter", "name": "e28170555c65281dc036a48612474daf", "is_disabled": 0, "bike_id": "e28170555c65281dc036a48612474daf", "lon": -77.02236666666667, "rental_uris": {"android": "https://dc.lft.to/lastmile_qr_scan", "ios": "https://dc.lft.to/lastmile_qr_scan"}, "fusion_lon": 0.0, "is_reserved": 0}, {"lat": 38.8950475, "fusion_lat": 0.0, "type": "electric_scooter", "name": "75d82322b7c504870a63d968bbf6ac47", "is_disabled": 0, "bike_id": "75d82322b7c504870a63d968bbf6ac47", "lon": -77.026777, "rental_uris": {"android": "https://dc.lft.to/lastmile_qr_scan", "ios": "https://dc.lft.to/lastmile_qr_scan"}, "fusion_lon": 0.0, "is_reserved": 0}, {"lat": 38.89829833333334, "fusion_lat": 0.0, "type": "electric_scooter", "name": "0c2c32ec043e7504bc2e4df420197b18", "is_disabled": 0, "bike_id": "0c2c32ec043e7504bc2e4df420197b18", "lon": -77.007441, "rental_uris": {"android": "https://dc.lft.to/lastmile_qr_scan", "ios": "https://dc.lft.to/lastmile_qr_scan"}, "fusion_lon": 0.0, "is_reserved": 0}, {"lat": 38.9194165, "fusion_lat": 0.0, "type": "electric_scooter", "name": "956823c4e9aa06d61164c4da5a815c93", "is_disabled": 0, "bike_id": "956823c4e9aa06d61164c4da5a815c93", "lon": -77.02363066666666, "rental_uris": {"android": "https://dc.lft.to/lastmile_qr_scan", "ios": "https://dc.lft.to/lastmile_qr_scan"}, "fusion_lon": 0.0, "is_reserved": 0}, {"lat": 38.89846416666666, "fusion_lat": 0.0, "type": "electric_scooter", "name": "443001deb02e293988413d27b58e3be0", "is_disabled": 0, "bike_id": "443001deb02e293988413d27b58e3be0", "lon": -77.027786, "rental_uris": {"android": "https://dc.lft.to/lastmile_qr_scan", "ios": "https://dc.lft.to/lastmile_qr_scan"}, "fusion_lon": 0.0, "is_reserved": 0}, {"lat": 38.935395166666666, "fusion_lat": 0.0, "type": "electric_bike", "name": "147ff58e5843486179da51ec16466dbb", "is_disabled": 0, "bike_id": "147ff58e5843486179da51ec16466dbb", "lon": -77.05413516666667, "rental_uris": {"android": "https://dc.lft.to/lastmile_qr_scan", "ios": "https://dc.lft.to/lastmile_qr_scan"}, "fusion_lon": 0.0, "is_reserved": 0}, {"lat": 38.894368666666665, "fusion_lat": 0.0, "type": "electric_scooter", "name": "b6585821fb57c8e79d1f140ba186ed22", "is_disabled": 0, "bike_id": "b6585821fb57c8e79d1f140ba186ed22", "lon": -76.98355783333334, "rental_uris": {"android": "https://dc.lft.to/lastmile_qr_scan", "ios": "https://dc.lft.to/lastmile_qr_scan"}, "fusion_lon": 0.0, "is_reserved": 0}, {"lat": 38.90857233333333, "fusion_lat": 0.0, "type": "electric_scooter", "name": "73e49dc68a50ec01387e132005a1df35", "is_disabled": 0, "bike_id": "73e49dc68a50ec01387e132005a1df35", "lon": -77.02240616666667, "rental_uris": {"android": "https://dc.lft.to/lastmile_qr_scan", "ios": "https://dc.lft.to/lastmile_qr_scan"}, "fusion_lon": 0.0, "is_reserved": 0}, {"lat": 38.92028283333333, "fusion_lat": 0.0, "type": "electric_scooter", "name": "2609b760d382385894f54ec4e134bbde", "is_disabled": 0, "bike_id": "2609b760d382385894f54ec4e134bbde", "lon": -77.0296015, "rental_uris": {"android": "https://dc.lft.to/lastmile_qr_scan", "ios": "https://dc.lft.to/lastmile_qr_scan"}, "fusion_lon": 0.0, "is_reserved": 0}, {"lat": 38.96557333333333, "fusion_lat": 0.0, "type": "electric_scooter", "name": "99e13a18e82e25d01dc441cfe1ceb1ee", "is_disabled": 0, "bike_id": "99e13a18e82e25d01dc441cfe1ceb1ee", "lon": -77.00204033333333, "rental_uris": {"android": "https://dc.lft.to/lastmile_qr_scan", "ios": "https://dc.lft.to/lastmile_qr_scan"}, "fusion_lon": 0.0, "is_reserved": 0}, {"lat": 38.896290666666665, "fusion_lat": 0.0, "type": "electric_scooter", "name": "6acfef7641121c16c5c5474c78bfe480", "is_disabled": 0, "bike_id": "6acfef7641121c16c5c5474c78bfe480", "lon": -77.04016616666667, "rental_uris": {"android": "https://dc.lft.to/lastmile_qr_scan", "ios": "https://dc.lft.to/lastmile_qr_scan"}, "fusion_lon": 0.0, "is_reserved": 0}, {"lat": 38.88734216666667, "fusion_lat": 0.0, "type": "electric_scooter", "name": "64c18f45c7f7c326cee8db4083d52994", "is_disabled": 0, "bike_id": "64c18f45c7f7c326cee8db4083d52994", "lon": -77.00349416666667, "rental_uris": {"android": "https://dc.lft.to/lastmile_qr_scan", "ios": "https://dc.lft.to/lastmile_qr_scan"}, "fusion_lon": 0.0, "is_reserved": 0}, {"lat": 38.90341766666667, "fusion_lat": 0.0, "type": "electric_scooter", "name": "50a7958c0049f63e8bd0ee060e4f2502", "is_disabled": 0, "bike_id": "50a7958c0049f63e8bd0ee060e4f2502", "lon": -77.0385515, "rental_uris": {"android": "https://dc.lft.to/lastmile_qr_scan", "ios": "https://dc.lft.to/lastmile_qr_scan"}, "fusion_lon": 0.0, "is_reserved": 0}, {"lat": 38.89609766666667, "fusion_lat": 0.0, "type": "electric_scooter", "name": "5c9694b76246f5df2552dfdf80e92334", "is_disabled": 0, "bike_id": "5c9694b76246f5df2552dfdf80e92334", "lon": -76.94779433333333, "rental_uris": {"android": "https://dc.lft.to/lastmile_qr_scan", "ios": "https://dc.lft.to/lastmile_qr_scan"}, "fusion_lon": 0.0, "is_reserved": 0}, {"lat": 38.883159, "fusion_lat": 0.0, "type": "electric_bike", "name": "97b0a0645819d2acbc30c09ce312ce97", "is_disabled": 0, "bike_id": "97b0a0645819d2acbc30c09ce312ce97", "lon": -76.910909, "rental_uris": {"android": "https://dc.lft.to/lastmile_qr_scan", "ios": "https://dc.lft.to/lastmile_qr_scan"}, "fusion_lon": 0.0, "is_reserved": 0}, {"lat": 38.906933333333335, "fusion_lat": 0.0, "type": "electric_scooter", "name": "41d1a5bea6b414b3344b2b8a6aa59701", "is_disabled": 0, "bike_id": "41d1a5bea6b414b3344b2b8a6aa59701", "lon": -77.03818733333334, "rental_uris": {"android": "https://dc.lft.to/lastmile_qr_scan", "ios": "https://dc.lft.to/lastmile_qr_scan"}, "fusion_lon": 0.0, "is_reserved": 0}, {"lat": 38.89239, "fusion_lat": 0.0, "type": "electric_scooter", "name": "dc5b998a9770b7ba4121d8f60a07f548", "is_disabled": 0, "bike_id": "dc5b998a9770b7ba4121d8f60a07f548", "lon": -77.03194433333333, "rental_uris": {"android": "https://dc.lft.to/lastmile_qr_scan", "ios": "https://dc.lft.to/lastmile_qr_scan"}, "fusion_lon": 0.0, "is_reserved": 0}, {"lat": 38.91708033333333, "fusion_lat": 0.0, "type": "electric_scooter", "name": "770397cd5f55350f651cdcf6dc2a00d6", "is_disabled": 0, "bike_id": "770397cd5f55350f651cdcf6dc2a00d6", "lon": -77.027931, "rental_uris": {"android": "https://dc.lft.to/lastmile_qr_scan", "ios": "https://dc.lft.to/lastmile_qr_scan"}, "fusion_lon": 0.0, "is_reserved": 0}, {"lat": 38.88302733333333, "fusion_lat": 0.0, "type": "electric_scooter", "name": "cd67f2d85dcc5e857102f2f706973d40", "is_disabled": 0, "bike_id": "cd67f2d85dcc5e857102f2f706973d40", "lon": -76.948571, "rental_uris": {"android": "https://dc.lft.to/lastmile_qr_scan", "ios": "https://dc.lft.to/lastmile_qr_scan"}, "fusion_lon": 0.0, "is_reserved": 0}, {"lat": 38.914154, "fusion_lat": 0.0, "type": "electric_scooter", "name": "214a8f224998d8777cbd6083b77b6304", "is_disabled": 0, "bike_id": "214a8f224998d8777cbd6083b77b6304", "lon": -77.03175366666666, "rental_uris": {"android": "https://dc.lft.to/lastmile_qr_scan", "ios": "https://dc.lft.to/lastmile_qr_scan"}, "fusion_lon": 0.0, "is_reserved": 0}, {"lat": 38.892279333333335, "fusion_lat": 0.0, "type": "electric_scooter", "name": "a5409e40a2f6cbc0f8d61a0dae207a11", "is_disabled": 0, "bike_id": "a5409e40a2f6cbc0f8d61a0dae207a11", "lon": -77.04160216666666, "rental_uris": {"android": "https://dc.lft.to/lastmile_qr_scan", "ios": "https://dc.lft.to/lastmile_qr_scan"}, "fusion_lon": 0.0, "is_reserved": 0}, {"lat": 38.885119, "fusion_lat": 0.0, "type": "electric_bike", "name": "fe0e2ad83516a23911402da6dcba9210", "is_disabled": 0, "bike_id": "fe0e2ad83516a23911402da6dcba9210", "lon": -76.95161583333334, "rental_uris": {"android": "https://dc.lft.to/lastmile_qr_scan", "ios": "https://dc.lft.to/lastmile_qr_scan"}, "fusion_lon": 0.0, "is_reserved": 0}, {"lat": 38.9210295, "fusion_lat": 0.0, "type": "electric_scooter", "name": "33345d5a841e0d6998a9b5cfc26e48f4", "is_disabled": 0, "bike_id": "33345d5a841e0d6998a9b5cfc26e48f4", "lon": -77.04707816666667, "rental_uris": {"android": "https://dc.lft.to/lastmile_qr_scan", "ios": "https://dc.lft.to/lastmile_qr_scan"}, "fusion_lon": 0.0, "is_reserved": 0}, {"lat": 38.8650455, "fusion_lat": 0.0, "type": "electric_scooter", "name": "d15506cdfc6e3a2c7d39fcf46ed05b30", "is_disabled": 0, "bike_id": "d15506cdfc6e3a2c7d39fcf46ed05b30", "lon": -76.99001766666666, "rental_uris": {"android": "https://dc.lft.to/lastmile_qr_scan", "ios": "https://dc.lft.to/lastmile_qr_scan"}, "fusion_lon": 0.0, "is_reserved": 0}, {"lat": 38.890859, "fusion_lat": 0.0, "type": "electric_scooter", "name": "7ea6a09ca45b2b53be550618f91e4285", "is_disabled": 0, "bike_id": "7ea6a09ca45b2b53be550618f91e4285", "lon": -76.99602916666667, "rental_uris": {"android": "https://dc.lft.to/lastmile_qr_scan", "ios": "https://dc.lft.to/lastmile_qr_scan"}, "fusion_lon": 0.0, "is_reserved": 0}, {"lat": 38.895143, "fusion_lat": 0.0, "type": "electric_scooter", "name": "584c1ed70ffd52980b02ef6476f22232", "is_disabled": 0, "bike_id": "584c1ed70ffd52980b02ef6476f22232", "lon": -77.04475933333333, "rental_uris": {"android": "https://dc.lft.to/lastmile_qr_scan", "ios": "https://dc.lft.to/lastmile_qr_scan"}, "fusion_lon": 0.0, "is_reserved": 0},