{"data": {"bikes": [{"is_disabled": 0, "rental_uris": {"ios": "https://dc.lft.to/lastmile_qr_scan", "android": "https://dc.lft.to/lastmile_qr_scan"}, "is_reserved": 0, "fusion_lon": 0.0, "lat": 38.891879, "type": "electric_scooter", "name": "c5fda317d46923f0e88db61723745d3b", "bike_id": "c5fda317d46923f0e88db61723745d3b", "fusion_lat": 0.0, "lon": -76.998571}, {"is_disabled": 0, "rental_uris": {"ios": "https://dc.lft.to/lastmile_qr_scan", "android": "https://dc.lft.to/lastmile_qr_scan"}, "is_reserved": 0, "fusion_lon": 0.0, "lat": 39.0053525, "type": "electric_bike", "name": "6ceaf7c8d57a8610a498cb1d3d8921f3", "bike_id": "6ceaf7c8d57a8610a498cb1d3d8921f3", "fusion_lat": 0.0, "lon": -77.10404733333333}, {"is_disabled": 0, "rental_uris": {"ios": "https://dc.lft.to/lastmile_qr_scan", "android": "https://dc.lft.to/lastmile_qr_scan"}, "is_reserved": 0, "fusion_lon": 0.0, "lat": 38.892221166666666, "type": "electric_scooter", "name": "3401d753a128fffb2e03a6a18d646188", "bike_id": "3401d753a128fffb2e03a6a18d646188", "fusion_lat": 0.0, "lon": -77.03222433333333}, {"is_disabled": 0, "rental_uris": {"ios": "https://dc.lft.to/lastmile_qr_scan", "android": "https://dc.lft.to/lastmile_qr_scan"}, "is_reserved": 0, "fusion_lon": 0.0, "lat": 38.965605333333336, "type": "electric_bike", "name": "d8cf51d6a60f093dc63f78cc0fbb906d", "bike_id": "d8cf51d6a60f093dc63f78cc0fbb906d", "fusion_lat": 0.0, "lon": -77.02829766666666}, {"is_disabled": 0, "rental_uris": {"ios": "https://dc.lft.to/lastmile_qr_scan", "android": "https://dc.lft.to/lastmile_qr_scan"}, "is_reserved": 0, "fusion_lon": 0.0, "lat": 38.88742766666667, "type": "electric_scooter", "name": "e5f0e1266f49e69d120030beeffd9c57", "bike_id": "e5f0e1266f49e69d120030beeffd9c57", "fusion_lat": 0.0, "lon": -77.02229683333333}, {"is_disabled": 0, "rental_uris": {"ios": "https://dc.lft.to/lastmile_qr_scan", "android": "https://dc.lft.to/lastmile_qr_scan"}, "is_reserved": 0, "fusion_lon": 0.0, "lat": 38.897202, "type": "electric_scooter", "name": "65bde87952d79f9d1e265a1e4759642f", "bike_id": "65bde87952d79f9d1e265a1e4759642f", "fusion_lat": 0.0, "lon": -77.02445316666666}, {"is_disabled": 0, "rental_uris": {"ios": "https://dc.lft.to/lastmile_qr_scan", "android": "https://dc.lft.to/lastmile_qr_scan"}, "is_reserved": 0, "fusion_lon": 0.0, "lat": 38.91177, "type": "electric_scooter", "name": "4fa9ac2d9ae0eaa24c3dd669bd5af429", "bike_id": "4fa9ac2d9ae0eaa24c3dd669bd5af429", "fusion_lat": 0.0, "lon": -77.02962983333333}, {"is_disabled": 0, "rental_uris": {"ios": "https://dc.lft.to/lastmile_qr_scan", "android": "https://dc.lft.to/lastmile_qr_scan"}, "is_reserved": 0, "fusion_lon": 0.0, "lat": 38.895922666666664, "type": "electric_scooter", "name": "09cf877bdc637400e2b4a44d6bde154a", "bike_id": "09cf877bdc637400e2b4a44d6bde154a", "fusion_lat": 0.0, "lon": -77.0480925}, {"is_disabled": 0, "rental_uris": {"ios": "https://dc.lft.to/lastmile_qr_scan", "android": "https://dc.lft.to/lastmile_qr_scan"}, "is_reserved": 0, "fusion_lon": 0.0, "lat": 38.94140866666667, "type": "electric_scooter", "name": "ab6552848d9a29180bdfa09138b2da1e", "bike_id": "ab6552848d9a29180bdfa09138b2da1e", "fusion_lat": 0.0, "lon": -77.02329966666667}, {"is_disabled": 0, "rental_uris": {"ios": "https://dc.lft.to/lastmile_qr_scan", "android": "https://dc.lft.to/lastmile_qr_scan"}, "is_reserved": 0, "fusion_lon": 0.0, "lat": 38.87562766666667, "type": "electric_scooter", "name": "2af0d952275c25d645ffcb5b2a4b5552", "bike_id": "2af0d952275c25d645ffcb5b2a4b5552", "fusion_lat": 0.0, "lon": -77.00595566666667}, {"is_disabled": 0, "rental_uris": {"ios": "https://dc.lft.to/lastmile_qr_scan", "android": "https://dc.lft.to/lastmile_qr_scan"}, "is_reserved": 0, "fusion_lon": 0.0, "lat": 38.895261833333336, "type": "electric_scooter", "name": "5b1dc01c8ec1bba90fa06a20ac82da1a", "bike_id": "5b1dc01c8ec1bba90fa06a20ac82da1a", "fusion_lat": 0.0, "lon": -77.03356733333334}, {"is_disabled": 0, "rental_uris": {"ios": "https://dc.lft.to/lastmile_qr_scan", "android": "https://dc.lft.to/lastmile_qr_scan"}, "is_reserved": 0, "fusion_lon": 0.0, "lat": 38.938406, "type": "electric_scooter", "name": "a6744f4048dbce7145f264f021bb9fe2", "bike_id": "a6744f4048dbce7145f264f021bb9fe2", "fusion_lat": 0.0, "lon": -77.03261933333333}, {"is_disabled": 0, "rental_uris": {"ios": "https://dc.lft.to/lastmile_qr_scan", "android": "https://dc.lft.to/lastmile_qr_scan"}, "is_reserved": 0, "fusion_lon": 0.0, "lat": 38.9016695, "type": "electric_scooter", "name": "82fd2a0b338a082adb0d51db1bc764ec", "bike_id": "82fd2a0b338a082adb0d51db1bc764ec", "fusion_lat": 0.0, "lon": -76.98083433333333}, {"is_disabled": 0, "rental_uris": {"ios": "https://dc.lft.to/lastmile_qr_scan", "android": "https://dc.lft.to/lastmile_qr_scan"}, "is_reserved": 0, "fusion_lon": 0.0, "lat": 38.921229, "type": "electric_scooter", "name": "ea72e9ce257901b6cb2d16912bf8c13f", "bike_id": "ea72e9ce257901b6cb2d16912bf8c13f", "fusion_lat": 0.0, "lon": -77.009453}, {"is_disabled": 0, "rental_uris": {"ios": "https://dc.lft.to/lastmile_qr_scan", "android": "https://dc.lft.to/lastmile_qr_scan"}, "is_reserved": 0, "fusion_lon": 0.0, "lat": 38.892199166666664, "type": "electric_scooter", "name": "029e066c775a997e4d18332c167c0058", "bike_id": "029e066c775a997e4d18332c167c0058", "fusion_lat": 0.0, "lon": -77.03021166666667}, {"is_disabled": 0, "rental_uris": {"ios": "https://dc.lft.to/lastmile_qr_scan", "android": "https://dc.lft.to/lastmile_qr_scan"}, "is_reserved": 0, "fusion_lon": 0.0, "lat": 38.93344183333333, "type": "electric_scooter", "name": "25e62aab6da4fa3d61537e90c9688270", "bike_id": "25e62aab6da4fa3d61537e90c9688270", "fusion_lat": 0.0, "lon": -77.07265166666667}, {"is_disabled": 0, "rental_uris": {"ios": "https://dc.lft.to/lastmile_qr_scan", "android": "https://dc.lft.to/lastmile_qr_scan"}, "is_reserved": 0, "fusion_lon": 0.0, "lat": 38.8961165, "type": "electric_scooter", "name": "8c92462036e4b88134b1e0908aa20de9", "bike_id": "8c92462036e4b88134b1e0908aa20de9", "fusion_lat": 0.0, "lon": -77.05078316666666}, {"is_disabled": 0, "rental_uris": {"ios": "https://dc.lft.to/lastmile_qr_scan", "android": "https://dc.lft.to/lastmile_qr_scan"}, "is_reserved": 0, "fusion_lon": 0.0, "lat": 38.924435, "type": "electric_scooter", "name": "a21020755fe9835f62a3206fd9cdb6eb", "bike_id": "a21020755fe9835f62a3206fd9cdb6eb", "fusion_lat": 0.0, "lon": -77.020399}, {"is_disabled": 0, "rental_uris": {"ios": "https://dc.lft.to/lastmile_qr_scan", "android": "https://dc.lft.to/lastmile_qr_scan"}, "is_reserved": 0, "fusion_lon": 0.0, "lat": 38.897504166666664, "type": "electric_scooter", "name": "301a29d6932531b79d1289ecf45d5ea0", "bike_id": "301a29d6932531b79d1289ecf45d5ea0", "fusion_lat": 0.0, "lon": -77.01204116666666}, {"is_disabled": 0, "rental_uris": {"ios": "https://dc.lft.to/lastmile_qr_scan", "android": "https://dc.lft.to/lastmile_qr_scan"}, "is_reserved": 0, "fusion_lon": 0.0, "lat": 38.95175916666667, "type": "electric_bike", "name": "f28cbab32c5d53f9726eea52438b985d", "bike_id": "f28cbab32c5d53f9726eea52438b985d", "fusion_lat": 0.0, "lon": -77.03164166666667}, {"is_disabled": 0, "rental_uris": {"ios": "https://dc.lft.to/lastmile_qr_scan", "android": "https://dc.lft.to/lastmile_qr_scan"}, "is_reserved": 0, "fusion_lon": 0.0, "lat": 38.89965516666667, "type": "electric_scooter", "name": "6509b1230d2af54cc4f7003353ba5cfa", "bike_id": "6509b1230d2af54cc4f7003353ba5cfa", "fusion_lat": 0.0, "lon": -77.04518366666667}, {"is_disabled": 0, "rental_uris": {"ios": "https://dc.lft.to/lastmile_qr_scan", "android": "https://dc.lft.to/lastmile_qr_scan"}, "is_reserved": 0, "fusion_lon": 0.0, "lat": 38.807333666666665, "type": "electric_bike", "name": "4a1f5ad3ad31ce0ecbb195db5e6441f3", "bike_id": "4a1f5ad3ad31ce0ecbb195db5e6441f3", "fusion_lat": 0.0, "lon": -76.99256716666666}, {"is_disabled": 0, "rental_uris": {"ios": "https://dc.lft.to/lastmile_qr_scan", "android": "https://dc.lft.to/lastmile_qr_scan"}, "is_reserved": 0, "fusion_lon": 0.0, "lat": 38.90567716666666, "type": "electric_scooter", "name": "4994a5b5fb33c364990edf842d6ec857", "bike_id": "4994a5b5fb33c364990edf842d6ec857", "fusion_lat": 0.0, "lon": -77.0241685}, {"is_disabled": 0, "rental_uris": {"ios": "https://dc.lft.to/lastmile_qr_scan", "android": "https://dc.lft.to/lastmile_qr_scan"}, "is_reserved": 0, "fusion_lon": 0.0, "lat": 38.924921, "type": "electric_scooter", "name": "5b6a7de2f80e178dab60f6e85d496785", "bike_id": "5b6a7de2f80e178dab60f6e85d496785", "fusion_lat": 0.0, "lon": -77.0227605}, {"is_disabled": 0, "rental_uris": {"ios": "https://dc.lft.to/lastmile_qr_scan", "android": "https://dc.lft.to/lastmile_qr_scan"}, "is_reserved": 0, "fusion_lon": 0.0, "lat": 38.901691, "type": "electric_scooter", "name": "124a76e56a8e4602787178d76bdb242f", "bike_id": "124a76e56a8e4602787178d76bdb242f", "fusion_lat": 0.0, "lon": -76.980812}, {"is_disabled": 0, "rental_uris": {"ios": "https://dc.lft.to/lastmile_qr_scan", "android": "https://dc.lft.to/lastmile_qr_scan"}, "is_reserved": 0, "fusion_lon": 0.0, "lat": 38.924730333333336, "type": "electric_scooter", "name": "d7b4163525ad9b705076a6ccf23e8419", "bike_id": "d7b4163525ad9b705076a6ccf23e8419", "fusion_lat": 0.0, "lon": -77.02720683333334}, {"is_disabled": 0, "rental_uris": {"ios": "https://dc.lft.to/lastmile_qr_scan", "android": "https://dc.lft.to/lastmile_qr_scan"}, "is_reserved": 0, "fusion_lon": 0.0, "lat": 38.91589583333333, "type": "electric_scooter", "name": "dec9ba2fc2beadecb044277fc25b5dcc", "bike_id": "dec9ba2fc2beadecb044277fc25b5dcc", "fusion_lat": 0.0, "lon": -77.03201966666667}, {"is_disabled": 0, "rental_uris": {"ios": "https://dc.lft.to/lastmile_qr_scan", "android": "https://dc.lft.to/lastmile_qr_scan"}, "is_reserved": 0, "fusion_lon": 0.0, "lat": 38.900636, "type": "electric_scooter", "name": "1877d06e9bafb59b47f97f177a5e5d8b", "bike_id": "1877d06e9bafb59b47f97f177a5e5d8b", "fusion_lat": 0.0, "lon": -77.01665183333333}, {"is_disabled": 0, "rental_uris": {"ios": "https://dc.lft.to/lastmile_qr_scan", "android": "https://dc.lft.to/lastmile_qr_scan"}, "is_reserved": 0, "fusion_lon": 0.0, "lat": 38.912538166666664, "type": "electric_scooter", "name": "96aace35ca6c5c818455994c50c15fac", "bike_id": "96aace35ca6c5c818455994c50c15fac", "fusion_lat": 0.0, "lon": -77.02867833333333}, {"is_disabled": 0, "rental_uris": {"ios": "https://dc.lft.to/lastmile_qr_scan", "android": "https://dc.lft.to/lastmile_qr_scan"}, "is_reserved": 0, "fusion_lon": 0.0, "lat": 38.88391266666667, "type": "electric_scooter", "name": "753f92ec38b3dd413ea02368428b2de5", "bike_id": "753f92ec38b3dd413ea02368428b2de5", "fusion_lat": 0.0, "lon": -76.93043333333334}, {"is_disabled": 0, "rental_uris": {"ios": "https://dc.lft.to/lastmile_qr_scan", "android": "https://dc.lft.to/lastmile_qr_scan"}, "is_reserved": 0, "fusion_lon": 0.0, "lat": 38.900933, "type": "electric_scooter", "name": "49ff5c374090ce97a175920fd975f9df", "bike_id": "49ff5c374090ce97a175920fd975f9df", "fusion_lat": 0.0, "lon": -76.9742655}, {"is_disabled": 0, "rental_uris": {"ios": "https://dc.lft.to/lastmile_qr_scan", "android": "https://dc.lft.to/lastmile_qr_scan"}, "is_reserved": 0, "fusion_lon": 0.0, "lat": 38.903907333333336, "type": "electric_scooter", "name": "d7061011b0d35b86b890835a28b3de1e", "bike_id": "d7061011b0d35b86b890835a28b3de1e", "fusion_lat": 0.0, "lon": -76.98942666666667}, {"is_disabled": 0, "rental_uris": {"ios": "https://dc.lft.to/lastmile_qr_scan", "android": "https://dc.lft.to/lastmile_qr_scan"}, "is_reserved": 0, "fusion_lon": 0.0, "lat": 38.886463166666665, "type": "electric_bike", "name": "8753f3b6b23c4e0f8bfdef398dd68a81", "bike_id": "8753f3b6b23c4e0f8bfdef398dd68a81", "fusion_lat": 0.0, "lon": -77.0973515}, {"is_disabled": 0, "rental_uris": {"ios": "https://dc.lft.to/lastmile_qr_scan", "android": "https://dc.lft.to/lastmile_qr_scan"}, "is_reserved": 0, "fusion_lon": 0.0, "lat": 38.887736, "type": "electric_scooter", "name": "4a4545f56c923101305a1e1982c75e59", "bike_id": "4a4545f56c923101305a1e1982c75e59", "fusion_lat": 0.0, "lon": -76.9326275}, {"is_disabled": 0, "rental_uris": {"ios": "https://dc.lft.to/lastmile_qr_scan", "android": "https://dc.lft.to/lastmile_qr_scan"}, "is_reserved": 0, "fusion_lon": 0.0, "lat": 38.914037, "type": "electric_scooter", "name": "f810064fc120a0401f4c7754f37af85c", "bike_id": "f810064fc120a0401f4c7754f37af85c", "fusion_lat": 0.0, "lon": -77.03557566666667}, {"is_disabled": 0, "rental_uris": {"ios": "https://dc.lft.to/lastmile_qr_scan", "android": "https://dc.lft.to/lastmile_qr_scan"}, "is_reserved": 0, "fusion_lon": 0.0, "lat": 38.90616033333333, "type": "electric_scooter", "name": "bc51f522eaf7e28ce85105e8978d94a1", "bike_id": "bc51f522eaf7e28ce85105e8978d94a1", "fusion_lat": 0.0, "lon": -76.9780265}, {"is_disabled": 0, "rental_uris": {"ios": "https://dc.lft.to/lastmile_qr_scan", "android": "https://dc.lft.to/lastmile_qr_scan"}, "is_reserved": 0, "fusion_lon": 0.0, "lat": 38.924804, "type": "electric_scooter", "name": "4b7a38096681e0835196d36e762ab055", "bike_id": "4b7a38096681e0835196d36e762ab055", "fusion_lat": 0.0, "lon": -77.02225233333333}, {"is_disabled": 0, "rental_uris": {"ios": "https://dc.lft.to/lastmile_qr_scan", "android": "https://dc.lft.to/lastmile_qr_scan"}, "is_reserved": 0, "fusion_lon": 0.0, "lat": 38.95705183333333, "type": "electric_bike", "name": "db855933013733649f6c5cd35e3ebf8f", "bike_id": "db855933013733649f6c5cd35e3ebf8f", "fusion_lat": 0.0, "lon": -77.35973266666667}, {"is_disabled": 0, "rental_uris": {"ios": "https://dc.lft.to/lastmile_qr_scan", "android": "https://dc.lft.to/lastmile_qr_scan"}, "is_reserved": 0, "fusion_lon": 0.0, "lat": 39.084353166666666, "type": "electric_bike", "name": "dfe16ad46bc6b9249f88720405c46f04", "bike_id": "dfe16ad46bc6b9249f88720405c46f04", "fusion_lat": 0.0, "lon": -76.95139833333333}, {"is_disabled": 0, "rental_uris": {"ios": "https://dc.lft.to/lastmile_qr_scan", "android": "https://dc.lft.to/lastmile_qr_scan"}, "is_reserved": 0, "fusion_lon": 0.0, "lat": 38.90068933333333, "type": "electric_scooter", "name": "78b0460f27139959b74e717b9e82b512", "bike_id": "78b0460f27139959b74e717b9e82b512", "fusion_lat": 0.0, "lon": -76.98704116666667}, {"is_disabled": 0, "rental_uris": {"ios": "https://dc.lft.to/lastmile_qr_scan", "android": "https://dc.lft.to/lastmile_qr_scan"}, "is_reserved": 0, "fusion_lon": 0.0, "lat": 38.92168216666666, "type": "electric_scooter", "name": "92b4b18c83fee6577778a59b1dfce7b8", "bike_id": "92b4b18c83fee6577778a59b1dfce7b8", "fusion_lat": 0.0, "lon": -77.04353266666666}, {"is_disabled": 0, "rental_uris": {"ios": "https://dc.lft.to/lastmile_qr_scan", "android": "https://dc.lft.to/lastmile_qr_scan"}, "is_reserved": 0, "fusion_lon": 0.0, "lat": 38.921953333333335, "type": "electric_scooter", "name": "34ca82a67c881acf943f2bd8f4ec7742", "bike_id": "34ca82a67c881acf943f2bd8f4ec7742", "fusion_lat": 0.0, "lon": -77.0423335}, {"is_disabled": 0, "rental_uris": {"ios": "https://dc.lft.to/lastmile_qr_scan", "android": "https://dc.lft.to/lastmile_qr_scan"}, "is_reserved": 0, "fusion_lon": 0.0, "lat": 38.916894666666664, "type": "electric_scooter", "name": "f18c3d7bb62d5bae725bfa6cb408fa46", "bike_id": "f18c3d7bb62d5bae725bfa6cb408fa46", "fusion_lat": 0.0, "lon": -77.03752866666666}, {"is_disabled": 0, "rental_uris": {"ios": "https://dc.lft.to/lastmile_qr_scan", "android": "https://dc.lft.to/lastmile_qr_scan"}, "is_reserved": 0, "fusion_lon": 0.0, "lat": 38.80403966666667, "type": "electric_bike", "name": "34d3703dddcfc9ed704ad5c5bcd77e37", "bike_id": "34d3703dddcfc9ed704ad5c5bcd77e37", "fusion_lat": 0.0, "lon": -77.11335716666666}, {"is_disabled": 0, "rental_uris": {"ios": "https://dc.lft.to/lastmile_qr_scan", "android": "https://dc.lft.to/lastmile_qr_scan"}, "is_reserved": 0, "fusion_lon": 0.0, "lat": 38.8742285, "type": "electric_bike", "name": "fd1c1ff2071b50954fea1485630f48df", "bike_id": "fd1c1ff2071b50954fea1485630f48df", "fusion_lat": 0.0, "lon": -77.085764}, {"is_disabled": 0, "rental_uris": {"ios": "https://dc.lft.to/lastmile_qr_scan", "android": "https://dc.lft.to/lastmile_qr_scan"}, "is_reserved": 0, "fusion_lon": 0.0, "lat": 38.92472383333333, "type": "electric_scooter", "name": "cd267a14b0b2a8f226d795222225b232", "bike_id": "cd267a14b0b2a8f226d795222225b232", "fusion_lat": 0.0, "lon": -77.02251566666666}, {"is_disabled": 0, "rental_uris": {"ios": "https://dc.lft.to/lastmile_qr_scan", "android": "https://dc.lft.to/lastmile_qr_scan"}, "is_reserved": 0, "fusion_lon": 0.0, "lat": 38.9070285, "type": "electric_scooter", "name": "f843b05f5cc9f4f822ebddfa4232ca03", "bike_id": "f843b05f5cc9f4f822ebddfa4232ca03", "fusion_lat": 0.0, "lon": -76.98697133333333}, {"is_disabled": 0, "rental_uris": {"ios": "https://dc.lft.to/lastmile_qr_scan", "android": "https://dc.lft.to/lastmile_qr_scan"}, "is_reserved": 0, "fusion_lon": 0.0, "lat": 38.91313866666667, "type": "electric_scooter", "name": "42fdf8e6c4c70a781a40d3db4bac4914", "bike_id": "42fdf8e6c4c70a781a40d3db4bac4914", "fusion_lat": 0.0, "lon": -77.01434766666667}, {"is_disabled": 0, "rental_uris": {"ios": "https://dc.lft.to/lastmile_qr_scan", "android": "https://dc.lft.to/lastmile_qr_scan"}, "is_reserved": 0, "fusion_lon": 0.0, "lat": 38.92105333333333, "type": "electric_scooter", "name": "c3cf2a420868f3e56e829827f1f98a5c", "bike_id": "c3cf2a420868f3e56e829827f1f98a5c", "fusion_lat": 0.0, "lon": -77.02214766666667}, {"is_disabled": 0, "rental_uris": {"ios": "https://dc.lft.to/lastmile_qr_scan", "android": "https://dc.lft.to/lastmile_qr_scan"}, "is_reserved": 0, "fusion_lon": 0.0, "lat": 38.8973195, "type": "electric_scooter", "name": "72c64cd7cf11f99fd0a9c5f7bb03152d", "bike_id": "72c64cd7cf11f99fd0a9c5f7bb03152d", "fusion_lat": 0.0, "lon": -77.04997066666667}, {"is_disabled": 0, "rental_uris": {"ios": "https://dc.lft.to/lastmile_qr_scan", "android": "https://dc.lft.to/lastmile_qr_scan"}, "is_reserved": 0, "fusion_lon": 0.0, "lat": 38.90000083333334, "type": "electric_scooter", "name": "624aa353bd51aef75c5efc10d5e9db3b", "bike_id": "624aa353bd51aef75c5efc10d5e9db3b", "fusion_lat": 0.0, "lon": -77.021347}, {"is_disabled": 0, "rental_uris": {"ios": "https://dc.lft.to/lastmile_qr_scan", "android": "https://dc.lft.to/lastmile_qr_scan"}, "is_reserved": 0, "fusion_lon": 0.0, "lat": 38.8718075, "type": "electric_bike", "name": "dc35cfeb789c9407c0a8132a9571bb9c", "bike_id": "dc35cfeb789c9407c0a8132a9571bb9c", "fusion_lat": 0.0, "lon": -77.00615583333334}, {"is_disabled": 0, "rental_uris": {"ios": "https://dc.lft.to/lastmile_qr_scan", "android": "https://dc.lft.to/lastmile_qr_scan"}, "is_reserved": 0, "fusion_lon": 0.0, "lat": 38.914204, "type": "electric_scooter", "name": "c3440490c8ff0c2a87947cf1b554d6b4", "bike_id": "c3440490c8ff0c2a87947cf1b554d6b4", "fusion_lat": 0.0, "lon": -77.0180365}, {"is_disabled": 0, "rental_uris": {"ios": "https://dc.lft.to/lastmile_qr_scan", "android": "https://dc.lft.to/lastmile_qr_scan"}, "is_reserved": 0, "fusion_lon": 0.0, "lat": 38.8707105, "type": "electric_bike", "name": "fdee2945a0bc9095a04f9cc63c41ec29", "bike_id": "fdee2945a0bc9095a04f9cc63c41ec29", "fusion_lat": 0.0, "lon": -77.11041866666666}, {"is_disabled": 0, "rental_uris": {"ios": "https://dc.lft.to/lastmile_qr_scan", "android": "https://dc.lft.to/lastmile_qr_scan"}, "is_reserved": 0, "fusion_lon": 0.0, "lat": 38.91967066666667, "type": "electric_scooter", "name": "2595d66887c4124e00e63aeb692cf2f9", "bike_id": "2595d66887c4124e00e63aeb692cf2f9", "fusion_lat": 0.0, "lon": -77.04641933333333}, {"is_disabled": 0, "rental_uris": {"ios": "https://dc.lft.to/lastmile_qr_scan", "android": "https://dc.lft.to/lastmile_qr_scan"}, "is_reserved": 0, "fusion_lon": 0.0, "lat": 38.9012265, "type": "electric_scooter", "name": "bdf4629dc974fc30870358246b345077", "bike_id": "bdf4629dc974fc30870358246b345077", "fusion_lat": 0.0, "lon": -77.04045933333333}, {"is_disabled": 0, "rental_uris": {"ios": "https://dc.lft.to/lastmile_qr_scan", "android": "https://dc.lft.to/lastmile_qr_scan"}, "is_reserved": 0, "fusion_lon": 0.0, "lat": 38.9330505, "type": "electric_scooter", "name": "22c88a7a08f9b3cb0b8988ee4f26ad3b", "bike_id": "22c88a7a08f9b3cb0b8988ee4f26ad3b", "fusion_lat": 0.0, "lon": -77.030826}, {"is_disabled": 0, "rental_uris": {"ios": "https://dc.lft.to/lastmile_qr_scan", "android": "https://dc.lft.to/lastmile_qr_scan"}, "is_reserved": 0, "fusion_lon": 0.0, "lat": 38.907433, "type": "electric_scooter", "name": "59fb1c8cf401dfcfa799a63effa2bae4", "bike_id": "59fb1c8cf401dfcfa799a63effa2bae4", "fusion_lat": 0.0, "lon": -77.028059}, {"is_disabled": 0, "rental_uris": {"ios": "https://dc.lft.to/lastmile_qr_scan", "android": "https://dc.lft.to/lastmile_qr_scan"}, "is_reserved": 0, "fusion_lon": 0.0, "lat": 38.874709, "type": "electric_scooter", "name": "509c51c2429aafb908e3e0a3af569b4e", "bike_id": "509c51c2429aafb908e3e0a3af569b4e", "fusion_lat": 0.0, "lon": -77.00514116666666}, {"is_disabled": 0, "rental_uris": {"ios": "https://dc.lft.to/lastmile_qr_scan", "android": "https://dc.lft.to/lastmile_qr_scan"}, "is_reserved": 0, "fusion_lon": 0.0, "lat": 38.921624, "type": "electric_scooter", "name": "f2265e5a677e027b8c3e5b41daf258a1", "bike_id": "f2265e5a677e027b8c3e5b41daf258a1", "fusion_lat": 0.0, "lon": -77.05136716666667}, {"is_disabled": 0, "rental_uris": {"ios": "https://dc.lft.to/lastmile_qr_scan", "android": "https://dc.lft.to/lastmile_qr_scan"}, "is_reserved": 0, "fusion_lon": 0.0, "lat": 38.96407766666667, "type": "electric_scooter", "name": "a6813111c2223e5c6fcb6fcb1726848b", "bike_id": "a6813111c2223e5c6fcb6fcb1726848b", "fusion_lat": 0.0, "lon": -77.03290216666667}, {"is_disabled": 0, "rental_uris": {"ios": "https://dc.lft.to/lastmile_qr_scan", "android": "https://dc.lft.to/lastmile_qr_scan"}, "is_reserved": 0, "fusion_lon": 0.0, "lat": 38.9070225, "type": "electric_scooter", "name": "3507e42bf6d74f453fdac39c646e793d", "bike_id": "3507e42bf6d74f453fdac39c646e793d", "fusion_lat": 0.0, "lon": -76.98702316666666}, {"is_disabled": 0, "rental_uris": {"ios": "https://dc.lft.to/lastmile_qr_scan", "android": "https://dc.lft.to/lastmile_qr_scan"}, "is_reserved": 0, "fusion_lon": 0.0, "lat": 38.9117645, "type": "electric_scooter", "name": "3bf97e651ed2dfc2d0d19d8701c513da", "bike_id": "3bf97e651ed2dfc2d0d19d8701c513da", "fusion_lat": 0.0, "lon": -77.03190283333333}, {"is_disabled": 0, "rental_uris": {"ios": "https://dc.lft.to/lastmile_qr_scan", "android": "https://dc.lft.to/lastmile_qr_scan"}, "is_reserved": 0, "fusion_lon": 0.0, "lat": 38.90157416666667, "type": "electric_scooter", "name": "db6f7b5b72220c44eacfdbce1a5af825", "bike_id": "db6f7b5b72220c44eacfdbce1a5af825", "fusion_lat": 0.0, "lon": -77.04385633333334}, {"is_disabled": 0, "rental_uris": {"ios": "https://dc.lft.to/lastmile_qr_scan", "android": "https://dc.lft.to/lastmile_qr_scan"}, "is_reserved": 0, "fusion_lon": 0.0, "lat": 38.92184183333333, "type": "electric_scooter", "name": "42421e31b413969b94df1cbc6103e045", "bike_id": "42421e31b413969b94df1cbc6103e045", "fusion_lat": 0.0, "lon": -77.04028633333333}, {"is_disabled": 0, "rental_uris": {"ios": "https://dc.lft.to/lastmile_qr_scan", "android": "https://dc.lft.to/lastmile_qr_scan"}, "is_reserved": 0, "fusion_lon": 0.0, "lat": 38.93367633333333, "type": "electric_scooter", "name": "c4366323fa432278a7199ee667239286", "bike_id": "c4366323fa432278a7199ee667239286", "fusion_lat": 0.0, "lon": -77.02417966666667}, {"is_disabled": 0, "rental_uris": {"ios": "https://dc.lft.to/lastmile_qr_scan", "android": "https://dc.lft.to/lastmile_qr_scan"}, "is_reserved": 0, "fusion_lon": 0.0, "lat": 38.888757, "type": "electric_bike", "name": "0e51d7392e6b424105fa621da907a6c5", "bike_id": "0e51d7392e6b424105fa621da907a6c5", "fusion_lat": 0.0, "lon": -76.95706683333333}, {"is_disabled": 0, "rental_uris": {"ios": "https://dc.lft.to/lastmile_qr_scan", "android": "https://dc.lft.to/lastmile_qr_scan"}, "is_reserved": 0, "fusion_lon": 0.0, "lat": 38.92322583333333, "type": "electric_scooter", "name": "0d2f4bec221c0da2bec5c47bf311bb67", "bike_id": "0d2f4bec221c0da2bec5c47bf311bb67", "fusion_lat": 0.0, "lon": -77.019651}, {"is_disabled": 0, "rental_uris": {"ios": "https://dc.lft.to/lastmile_qr_scan", "android": "https://dc.lft.to/lastmile_qr_scan"}, "is_reserved": 0, "fusion_lon": 0.0, "lat": 38.91705866666667, "type": "electric_scooter", "name": "27484193cb7ce0f135424afba9826035", "bike_id": "27484193cb7ce0f135424afba9826035", "fusion_lat": 0.0, "lon": -77.037716}, {"is_disabled": 0, "rental_uris": {"ios": "https://dc.lft.to/lastmile_qr_scan", "android": "https://dc.lft.to/lastmile_qr_scan"}, "is_reserved": 0, "fusion_lon": 0.0, "lat": 38.881828166666665, "type": "electric_scooter", "name": "1d9bcaa839d76cb624c788088cad54f8", "bike_id": "1d9bcaa839d76cb624c788088cad54f8", "fusion_lat": 0.0, "lon": -77.006018}, {"is_disabled": 0, "rental_uris": {"ios": "https://dc.lft.to/lastmile_qr_scan", "android": "https://dc.lft.to/lastmile_qr_scan"}, "is_reserved": 0, "fusion_lon": 0.0, "lat": 38.929019, "type": "electric_scooter", "name": "079c790a8b005ab14f2382ac1fff520a", "bike_id": "079c790a8b005ab14f2382ac1fff520a", "fusion_lat": 0.0, "lon": -77.02353716666667}, {"is_disabled": 0, "rental_uris": {"ios": "https://dc.lft.to/lastmile_qr_scan", "android": "https://dc.lft.to/lastmile_qr_scan"}, "is_reserved": 0, "fusion_lon": 0.0, "lat": 38.90973433333333, "type": "electric_bike", "name": "47f8bddddef3054b1800bab4dad34d2a", "bike_id": "47f8bddddef3054b1800bab4dad34d2a", "fusion_lat": 0.0, "lon": -77.0882515}, {"is_disabled": 0, "rental_uris": {"ios": "https://dc.lft.to/lastmile_qr_scan", "android": "https://dc.lft.to/lastmile_qr_scan"}, "is_reserved": 0, "fusion_lon": 0.0, "lat": 38.92256116666667, "type": "electric_scooter", "name": "e76365f0ed06c690c59e9511412e38fd", "bike_id": "e76365f0ed06c690c59e9511412e38fd", "fusion_lat": 0.0, "lon": -77.01929583333333}, {"is_disabled": 0, "rental_uris": {"ios": "https://dc.lft.to/lastmile_qr_scan", "android": "https://dc.lft.to/lastmile_qr_scan"}, "is_reserved": 0, "fusion_lon": 0.0, "lat": 38.895652, "type": "electric_bike", "name": "4ae499c527166794d9b1232724889efa", "bike_id": "4ae499c527166794d9b1232724889efa", "fusion_lat": 0.0, "lon": -77.1273805}, {"is_disabled": 0, "rental_uris": {"ios": "https://dc.lft.to/lastmile_qr_scan", "android": "https://dc.lft.to/lastmile_qr_scan"}, "is_reserved": 0, "fusion_lon": 0.0, "lat": 38.927834833333335, "type": "electric_scooter", "name": "e6bdfb61e65ecbd94eb4d08cb7c6790b", "bike_id": "e6bdfb61e65ecbd94eb4d08cb7c6790b", "fusion_lat": 0.0, "lon": -77.05258216666667}, {"is_disabled": 0, "rental_uris": {"ios": "https://dc.lft.to/lastmile_qr_scan", "android": "https://dc.lft.to/lastmile_qr_scan"}, "is_reserved": 0, "fusion_lon": 0.0, "lat": 38.90236733333333, "type": "electric_scooter", "name": "1c7cd39dc34b665a5900eaa600358bb5", "bike_id": "1c7cd39dc34b665a5900eaa600358bb5", "fusion_lat": 0.0, "lon": -77.026894}, {"is_disabled": 0, "rental_uris": {"ios": "https://dc.lft.to/lastmile_qr_scan", "android": "https://dc.lft.to/lastmile_qr_scan"}, "is_reserved": 0, "fusion_lon": 0.0, "lat": 38.902326333333335, "type": "electric_scooter", "name": "d2d32271673f6e84cdf56cec9b4be82f", "bike_id": "d2d32271673f6e84cdf56cec9b4be82f", "fusion_lat": 0.0, "lon": -77.03771566666667}, {"is_disabled": 0, "rental_uris": {"ios": "https://dc.lft.to/lastmile_qr_scan", "android": "https://dc.lft.to/lastmile_qr_scan"}, "is_reserved": 0, "fusion_lon": 0.0, "lat": 38.9255315, "type": "electric_scooter", "name": "1ab10dca904f41888f15e7f96007ba90", "bike_id": "1ab10dca904f41888f15e7f96007ba90", "fusion_lat": 0.0, "lon": -76.9831325}, {"is_disabled": 0, "rental_uris": {"ios": "https://dc.lft.to/lastmile_qr_scan", "android": "https://dc.lft.to/lastmile_qr_scan"}, "is_reserved": 0, "fusion_lon": 0.0, "lat": 38.94290616666667, "type": "electric_scooter", "name": "4114896255cb073d85fb35e59708d3dd", "bike_id": "4114896255cb073d85fb35e59708d3dd", "fusion_lat": 0.0, "lon": -77.076945}, {"is_disabled": 0, "rental_uris": {"ios": "https://dc.lft.to/lastmile_qr_scan", "android": "https://dc.lft.to/lastmile_qr_scan"}, "is_reserved": 0, "fusion_lon": 0.0, "lat": 38.91624933333333, "type": "electric_scooter", "name": "2b61f01be8d61f9e105c36b849c9771d", "bike_id": "2b61f01be8d61f9e105c36b849c9771d", "fusion_lat": 0.0, "lon": -77.05066216666667}, {"is_disabled": 0, "rental_uris": {"ios": "https://dc.lft.to/lastmile_qr_scan", "android": "https://dc.lft.to/lastmile_qr_scan"}, "is_reserved": 0, "fusion_lon": 0.0, "lat": 38.865152333333334, "type": "electric_scooter", "name": "8f31a63442f837af9c2163e3f580bafe", "bike_id": "8f31a63442f837af9c2163e3f580bafe", "fusion_lat": 0.0, "lon": -76.97333183333333}, {"is_disabled": 0, "rental_uris": {"ios": "https://dc.lft.to/lastmile_qr_scan", "android": "https://dc.lft.to/lastmile_qr_scan"}, "is_reserved": 0, "fusion_lon": 0.0, "lat": 38.914817666666664, "type": "electric_scooter", "name": "494c762a14704b659b872f29eabc2697", "bike_id": "494c762a14704b659b872f29eabc2697", "fusion_lat": 0.0, "lon": -77.0347145}, {"is_disabled": 0, "rental_uris": {"ios": "https://dc.lft.to/lastmile_qr_scan", "android": "https://dc.lft.to/lastmile_qr_scan"}, "is_reserved": 0, "fusion_lon": 0.0, "lat": 38.929367, "type": "electric_scooter", "name": "9d7535af8b5fda51c01465634de0b06d", "bike_id": "9d7535af8b5fda51c01465634de0b06d", "fusion_lat": 0.0, "lon": -77.03294333333334}, {"is_disabled": 0, "rental_uris": {"ios": "https://dc.lft.to/lastmile_qr_scan", "android": "https://dc.lft.to/lastmile_qr_scan"}, "is_reserved": 0, "fusion_lon": 0.0, "lat": 38.896126833333334, "type": "electric_scooter", "name": "971d271a776d9686f1dd846ded0497c5", "bike_id": "971d271a776d9686f1dd846ded0497c5", "fusion_lat": 0.0, "lon": -77.04406333333333}, {"is_disabled": 0, "rental_uris": {"ios": "https://dc.lft.to/lastmile_qr_scan", "android": "https://dc.lft.to/lastmile_qr_scan"}, "is_reserved": 0, "fusion_lon": 0.0, "lat": 38.938407, "type": "electric_scooter", "name": "2a0915cdc0a58033a19dec3632ba5e54", "bike_id": "2a0915cdc0a58033a19dec3632ba5e54", "fusion_lat": 0.0, "lon": -77.03395233333333}, {"is_disabled": 0, "rental_uris": {"ios": "https://dc.lft.to/lastmile_qr_scan", "android": "https://dc.lft.to/lastmile_qr_scan"}, "is_reserved": 0, "fusion_lon": 0.0, "lat": 38.90317733333333, "type": "electric_scooter", "name": "ed670fd73e35bdd33934afd9a69f7594", "bike_id": "ed670fd73e35bdd33934afd9a69f7594", "fusion_lat": 0.0, "lon": -77.05139266666667}, {"is_disabled": 0, "rental_uris": {"ios": "https://dc.lft.to/lastmile_qr_scan", "android": "https://dc.lft.to/lastmile_qr_scan"}, "is_reserved": 0, "fusion_lon": 0.0, "lat": 38.89973, "type": "electric_scooter", "name": "15bcdb0bf086fd23cf3a279c62934990", "bike_id": "15bcdb0bf086fd23cf3a279c62934990", "fusion_lat": 0.0, "lon": -77.03075233333334}, {"is_disabled": 0, "rental_uris": {"ios": "https://dc.lft.to/lastmile_qr_scan", "android": "https://dc.lft.to/lastmile_qr_scan"}, "is_reserved": 0, "fusion_lon": 0.0, "lat": 38.92322433333333, "type": "electric_scooter", "name": "5e2f7f2632dd663feac6e5c4f6bc5cc9", "bike_id": "5e2f7f2632dd663feac6e5c4f6bc5cc9", "fusion_lat": 0.0, "lon": -77.038568}, {"is_disabled": 0, "rental_uris": {"ios": "https://dc.lft.to/lastmile_qr_scan", "android": "https://dc.lft.to/lastmile_qr_scan"}, "is_reserved": 0, "fusion_lon": 0.0, "lat": 38.928507333333336, "type": "electric_scooter", "name": "320c96771fbbc269753ec668f526c47a", "bike_id": "320c96771fbbc269753ec668f526c47a", "fusion_lat": 0.0, "lon": -77.03419083333333}, {"is_disabled": 0, "rental_uris": {"ios": "https://dc.lft.to/lastmile_qr_scan", "android": "https://dc.lft.to/lastmile_qr_scan"}, "is_reserved": 0, "fusion_lon": 0.0, "lat": 38.90238133333333, "type": "electric_scooter", "name": "17f8c4a9b4e9ec07740dd9b5ce1bd55c", "bike_id": "17f8c4a9b4e9ec07740dd9b5ce1bd55c", "fusion_lat": 0.0, "lon": -77.00201233333334}, {"is_disabled": 0, "rental_uris": {"ios": "https://dc.lft.to/lastmile_qr_scan", "android": "https://dc.lft.to/lastmile_qr_scan"}, "is_reserved": 0, "fusion_lon": 0.0, "lat": 38.90351033333334, "type": "electric_scooter", "name": "246bff42602359d0d43ec31939512a76", "bike_id": "246bff42602359d0d43ec31939512a76", "fusion_lat": 0.0, "lon": -77.03826916666667}, {"is_disabled": 0, "rental_uris": {"ios": "https://dc.lft.to/lastmile_qr_scan", "android": "https://dc.lft.to/lastmile_qr_scan"}, "is_reserved": 0, "fusion_lon": 0.0, "lat": 38.898041666666664, "type": "electric_scooter", "name": "05e60ac27970e7da9d1bf908ef553ed2", "bike_id": "05e60ac27970e7da9d1bf908ef553ed2", "fusion_lat": 0.0, "lon": -77.03373583333334}, {"is_disabled": 0, "rental_uris": {"ios": "https://dc.lft.to/lastmile_qr_scan", "android": "https://dc.lft.to/lastmile_qr_scan"}, "is_reserved": 0, "fusion_lon": 0.0, "lat": 38.90367166666667, "type": "electric_scooter", "name": "fc2e6e85436b6b23e591ef419bd710e9", "bike_id": "fc2e6e85436b6b23e591ef419bd710e9", "fusion_lat": 0.0, "lon": -77.03727366666666}, {"is_disabled": 0, "rental_uris": {"ios": "https://dc.lft.to/lastmile_qr_scan", "android": "https://dc.lft.to/lastmile_qr_scan"}, "is_reserved": 0, "fusion_lon": 0.0, "lat": 38.909566166666664, "type": "electric_scooter", "name": "7c159de022057a9f88ce8a99024996e7", "bike_id": "7c159de022057a9f88ce8a99024996e7", "fusion_lat": 0.0, "lon": -77.0350415}, {"is_disabled": 0, "rental_uris": {"ios": "https://dc.lft.to/lastmile_qr_scan", "android": "https://dc.lft.to/lastmile_qr_scan"}, "is_reserved": 0, "fusion_lon": 0.0, "lat": 38.9243635, "type": "electric_scooter", "name": "4b5218e6139bdbb2b2b0ae6a2cf7fb7b", "bike_id": "4b5218e6139bdbb2b2b0ae6a2cf7fb7b", "fusion_lat": 0.0, "lon": -77.02026566666666}, {"is_disabled": 0, "rental_uris": {"ios": "https://dc.lft.to/lastmile_qr_scan", "android": "https://dc.lft.to/lastmile_qr_scan"}, "is_reserved": 0, "fusion_lon": 0.0, "lat": 38.906039166666666, "type": "electric_scooter", "name": "54c6a3f5220a70156f3273559efc8cce", "bike_id": "54c6a3f5220a70156f3273559efc8cce", "fusion_lat": 0.0, "lon": -77.05693966666666}, {"is_disabled": 0, "rental_uris": {"ios": "https://dc.lft.to/lastmile_qr_scan", "android": "https://dc.lft.to/lastmile_qr_scan"}, "is_reserved": 0, "fusion_lon": 0.0, "lat": 38.904585833333336, "type": "electric_scooter", "name": "6a41ab53ea69a5a0d971f0300c2e00b7", "bike_id": "6a41ab53ea69a5a0d971f0300c2e00b7", "fusion_lat": 0.0, "lon": -77.050121}, {"is_disabled": 0, "rental_uris": {"ios": "https://dc.lft.to/lastmile_qr_scan", "android": "https://dc.lft.to/lastmile_qr_scan"}, "is_reserved": 0, "fusion_lon": 0.0, "lat": 38.900714666666666, "type": "electric_scooter", "name": "bb7a3c8b2b738ae597798a875c9edbdb", "bike_id": "bb7a3c8b2b738ae597798a875c9edbdb", "fusion_lat": 0.0, "lon": -77.02177933333333}, {"is_disabled": 0, "rental_uris": {"ios": "https://dc.lft.to/lastmile_qr_scan", "android": "https://dc.lft.to/lastmile_qr_scan"}, "is_reserved": 0, "fusion_lon": 0.0, "lat": 38.9472945, "type": "electric_scooter", "name": "a320d825cbd6fb6f68b6e2ea97468f73", "bike_id": "a320d825cbd6fb6f68b6e2ea97468f73", "fusion_lat": 0.0, "lon": -77.0654685}, {"is_disabled": 0, "rental_uris": {"ios": "https://dc.lft.to/lastmile_qr_scan", "android": "https://dc.lft.to/lastmile_qr_scan"}, "is_reserved": 0, "fusion_lon": 0.0, "lat": 38.8974305, "type": "electric_scooter", "name": "1d5c0c4a4602662f69668231a64f82d2", "bike_id": "1d5c0c4a4602662f69668231a64f82d2", "fusion_lat": 0.0, "lon": -76.9904355}, {"is_disabled": 0, "rental_uris": {"ios": "https://dc.lft.to/lastmile_qr_scan", "android": "https://dc.lft.to/lastmile_qr_scan"}, "is_reserved": 0, "fusion_lon": 0.0, "lat": 38.895080666666665, "type": "electric_scooter", "name": "74b377293b3a3110abb62b1b5211e133", "bike_id": "74b377293b3a3110abb62b1b5211e133", "fusion_lat": 0.0, "lon": -77.02210533333333}, {"is_disabled": 0, "rental_uris": {"ios": "https://dc.lft.to/lastmile_qr_scan", "android": "https://dc.lft.to/lastmile_qr_scan"}, "is_reserved": 0, "fusion_lon": 0.0, "lat": 38.920551333333336, "type": "electric_scooter", "name": "b3884f9b2aa7d11660a0bdddc4b77044", "bike_id": "b3884f9b2aa7d11660a0bdddc4b77044", "fusion_lat": 0.0, "lon": -77.00506883333334}, {"is_disabled": 0, "rental_uris": {"ios": "https://dc.lft.to/lastmile_qr_scan", "android": "https://dc.lft.to/lastmile_qr_scan"}, "is_reserved": 0, "fusion_lon": 0.0, "lat": 38.89268116666667, "type": "electric_scooter", "name": "fed18393bb0fc58714f08276d18dd6d1", "bike_id": "fed18393bb0fc58714f08276d18dd6d1", "fusion_lat": 0.0, "lon": -77.00367266666667}, {"is_disabled": 0, "rental_uris": {"ios": "https://dc.lft.to/lastmile_qr_scan", "android": "https://dc.lft.to/lastmile_qr_scan"}, "is_reserved": 0, "fusion_lon": 0.0, "lat": 38.9563525, "type": "electric_scooter", "name": "883728d3c6013ab75ba41308b2098406", "bike_id": "883728d3c6013ab75ba41308b2098406", "fusion_lat": 0.0, "lon": -77.02445466666667}, {"is_disabled": 0, "rental_uris": {"ios": "https://dc.lft.to/lastmile_qr_scan", "android": "https://dc.lft.to/lastmile_qr_scan"}, "is_reserved": 0, "fusion_lon": 0.0, "lat": 38.927098, "type": "electric_scooter", "name": "4f84c1189b9bd774dd47150d33c3f403", "bike_id": "4f84c1189b9bd774dd47150d33c3f403", "fusion_lat": 0.0, "lon": -77.01496516666667}, {"is_disabled": 0, "rental_uris": {"ios": "https://dc.lft.to/lastmile_qr_scan", "android": "https://dc.lft.to/lastmile_qr_scan"}, "is_reserved": 0, "fusion_lon": 0.0, "lat": 38.91685183333333, "type": "electric_scooter", "name": "968c293a5c05f7cd8bbf438c116d872d", "bike_id": "968c293a5c05f7cd8bbf438c116d872d", "fusion_lat": 0.0, "lon": -77.02971366666667}, {"is_disabled": 0, "rental_uris": {"ios": "https://dc.lft.to/lastmile_qr_scan", "android": "https://dc.lft.to/lastmile_qr_scan"}, "is_reserved": 0, "fusion_lon": 0.0, "lat": 38.92309433333333, "type": "electric_scooter", "name": "aaf85550a4909b333cbb4d7dce9ad646", "bike_id": "aaf85550a4909b333cbb4d7dce9ad646", "fusion_lat": 0.0, "lon": -77.04225683333334}, {"is_disabled": 0, "rental_uris": {"ios": "https://dc.lft.to/lastmile_qr_scan", "android": "https://dc.lft.to/lastmile_qr_scan"}, "is_reserved": 0, "fusion_lon": 0.0, "lat": 38.8989535, "type": "electric_scooter", "name": "281082cac87eb50929d0a739756cae51", "bike_id": "281082cac87eb50929d0a739756cae51", "fusion_lat": 0.0, "lon": -77.03951883333333}, {"is_disabled": 0, "rental_uris": {"ios": "https://dc.lft.to/lastmile_qr_scan", "android": "https://dc.lft.to/lastmile_qr_scan"}, "is_reserved": 0, "fusion_lon": 0.0, "lat": 38.929297166666665, "type": "electric_scooter", "name": "984a59a5df92c1e828380dc6100b1d58", "bike_id": "984a59a5df92c1e828380dc6100b1d58", "fusion_lat": 0.0, "lon": -77.00673416666666}, {"is_disabled": 0, "rental_uris": {"ios": "https://dc.lft.to/lastmile_qr_scan", "android": "https://dc.lft.to/lastmile_qr_scan"}, "is_reserved": 0, "fusion_lon": 0.0, "lat": 38.895119666666666, "type": "electric_scooter", "name": "4edb64df90e8126b32d0326fafc61ca8", "bike_id": "4edb64df90e8126b32d0326fafc61ca8", "fusion_lat": 0.0, "lon": -76.9950855}, {"is_disabled": 0, "rental_uris": {"ios": "https://dc.lft.to/lastmile_qr_scan", "android": "https://dc.lft.to/lastmile_qr_scan"}, "is_reserved": 0, "fusion_lon": 0.0, "lat": 38.9363305, "type": "electric_bike", "name": "aa880fa6a471c461bfba9b414752132e", "bike_id": "aa880fa6a471c461bfba9b414752132e", "fusion_lat": 0.0, "lon": -77.03435716666667}, {"is_disabled": 0, "rental_uris": {"ios": "https://dc.lft.to/lastmile_qr_scan", "android": "https://dc.lft.to/lastmile_qr_scan"}, "is_reserved": 0, "fusion_lon": 0.0, "lat": 38.926632833333336, "type": "electric_scooter", "name": "562ed5c36c19bc58db4c458b09b51d90", "bike_id": "562ed5c36c19bc58db4c458b09b51d90", "fusion_lat": 0.0, "lon": -77.030594}, {"is_disabled": 0, "rental_uris": {"ios": "https://dc.lft.to/lastmile_qr_scan", "android": "https://dc.lft.to/lastmile_qr_scan"}, "is_reserved": 0, "fusion_lon": 0.0, "lat": 38.8348955, "type": "electric_bike", "name": "3f58d1290cd4751349cb2588a944ffed", "bike_id": "3f58d1290cd4751349cb2588a944ffed", "fusion_lat": 0.0, "lon": -77.00442433333333}, {"is_disabled": 0, "rental_uris": {"ios": "https://dc.lft.to/lastmile_qr_scan", "android": "https://dc.lft.to/lastmile_qr_scan"}, "is_reserved": 0, "fusion_lon": 0.0, "lat": 38.903857, "type": "electric_scooter", "name": "3c929443a414be2550fd79c7b24f2276", "bike_id": "3c929443a414be2550fd79c7b24f2276", "fusion_lat": 0.0, "lon": -76.97386516666667}, {"is_disabled": 0, "rental_uris": {"ios": "https://dc.lft.to/lastmile_qr_scan", "android": "https://dc.lft.to/lastmile_qr_scan"}, "is_reserved": 0, "fusion_lon": 0.0, "lat": 38.90737, "type": "electric_scooter", "name": "116787d03545101ec7ee9e4bd4ce0f50", "bike_id": "116787d03545101ec7ee9e4bd4ce0f50", "fusion_lat": 0.0, "lon": -77.04337233333334}, {"is_disabled": 0, "rental_uris": {"ios": "https://dc.lft.to/lastmile_qr_scan", "android": "https://dc.lft.to/lastmile_qr_scan"}, "is_reserved": 0, "fusion_lon": 0.0, "lat": 38.9220255, "type": "electric_scooter", "name": "11d41bfcd6c0fffed523cdff0b294d51", "bike_id": "11d41bfcd6c0fffed523cdff0b294d51", "fusion_lat": 0.0, "lon": -77.042432}, {"is_disabled": 0, "rental_uris": {"ios": "https://dc.lft.to/lastmile_qr_scan", "android": "https://dc.lft.to/lastmile_qr_scan"}, "is_reserved": 0, "fusion_lon": 0.0, "lat": 38.90848966666667, "type": "electric_scooter", "name": "6a7461f4484cb27dd744c90e2d7b8c71", "bike_id": "6a7461f4484cb27dd744c90e2d7b8c71", "fusion_lat": 0.0, "lon": -76.99797116666667}, {"is_disabled": 0, "rental_uris": {"ios": "https://dc.lft.to/lastmile_qr_scan", "android": "https://dc.lft.to/lastmile_qr_scan"}, "is_reserved": 0, "fusion_lon": 0.0, "lat": 38.915561833333335, "type": "electric_scooter", "name": "446b45d289ded5c8c4a6ddf1d1d4d038", "bike_id": "446b45d289ded5c8c4a6ddf1d1d4d038", "fusion_lat": 0.0, "lon": -77.02513833333333}, {"is_disabled": 0, "rental_uris": {"ios": "https://dc.lft.to/lastmile_qr_scan", "android": "https://dc.lft.to/lastmile_qr_scan"}, "is_reserved": 0, "fusion_lon": 0.0, "lat": 38.97473, "type": "electric_bike", "name": "5764a8a1cb9b93a1c1577ee8c3c07f40", "bike_id": "5764a8a1cb9b93a1c1577ee8c3c07f40", "fusion_lat": 0.0, "lon": -76.98661633333333}, {"is_disabled": 0, "rental_uris": {"ios": "https://dc.lft.to/lastmile_qr_scan", "android": "https://dc.lft.to/lastmile_qr_scan"}, "is_reserved": 0, "fusion_lon": 0.0, "lat": 38.887151833333334, "type": "electric_scooter", "name": "652bff3bb2f5e44842cfbbd68d8050ec", "bike_id": "652bff3bb2f5e44842cfbbd68d8050ec", "fusion_lat": 0.0, "lon": -76.99613316666667}, {"is_disabled": 0, "rental_uris": {"ios": "https://dc.lft.to/lastmile_qr_scan", "android": "https://dc.lft.to/lastmile_qr_scan"}, "is_reserved": 0, "fusion_lon": 0.0, "lat": 38.84647116666667, "type": "electric_bike", "name": "830eb9b8832e5539832948d9a4c47309", "bike_id": "830eb9b8832e5539832948d9a4c47309", "fusion_lat": 0.0, "lon": -76.9707525}, {"is_disabled": 0, "rental_uris": {"ios": "https://dc.lft.to/lastmile_qr_scan", "android": "https://dc.lft.to/lastmile_qr_scan"}, "is_reserved": 0, "fusion_lon": 0.0, "lat": 39.02925366666667, "type": "electric_bike", "name": "b7308f93715e0a0f5a2dbb3842ad6e1d", "bike_id": "b7308f93715e0a0f5a2dbb3842ad6e1d", "fusion_lat": 0.0, "lon": -77.0135785}, {"is_disabled": 0, "rental_uris": {"ios": "https://dc.lft.to/lastmile_qr_scan", "android": "https://dc.lft.to/lastmile_qr_scan"}, "is_reserved": 0, "fusion_lon": 0.0, "lat": 38.89219, "type": "electric_scooter", "name": "4e0c210b13e865d43532b23778680dc3", "bike_id": "4e0c210b13e865d43532b23778680dc3", "fusion_lat": 0.0, "lon": -77.046418}, {"is_disabled": 0, "rental_uris": {"ios": "https://dc.lft.to/lastmile_qr_scan", "android": "https://dc.lft.to/lastmile_qr_scan"}, "is_reserved": 0, "fusion_lon": 0.0, "lat": 38.852417833333334, "type": "electric_bike", "name": "788e3ba9c60d7254ef84f4533cd1136a", "bike_id": "788e3ba9c60d7254ef84f4533cd1136a", "fusion_lat": 0.0, "lon": -77.11414016666667}, {"is_disabled": 0, "rental_uris": {"ios": "https://dc.lft.to/lastmile_qr_scan", "android": "https://dc.lft.to/lastmile_qr_scan"}, "is_reserved": 0, "fusion_lon": 0.0, "lat": 38.9366465, "type": "electric_scooter", "name": "f03400db9d7fd4ecac0f359652a31bb0", "bike_id": "f03400db9d7fd4ecac0f359652a31bb0", "fusion_lat": 0.0, "lon": -77.036414}, {"is_disabled": 0, "rental_uris": {"ios": "https://dc.lft.to/lastmile_qr_scan", "android": "https://dc.lft.to/lastmile_qr_scan"}, "is_reserved": 0, "fusion_lon": 0.0, "lat": 38.9182265, "type": "electric_scooter", "name": "c5a48bb16f54bde58572c2064f10f0ea", "bike_id": "c5a48bb16f54bde58572c2064f10f0ea", "fusion_lat": 0.0, "lon": -77.04538166666667}, {"is_disabled": 0, "rental_uris": {"ios": "https://dc.lft.to/lastmile_qr_scan", "android": "https://dc.lft.to/lastmile_qr_scan"}, "is_reserved": 0, "fusion_lon": 0.0, "lat": 38.92509183333333, "type": "electric_scooter", "name": "bd8d382405db615315a37a225d0ec2ad", "bike_id": "bd8d382405db615315a37a225d0ec2ad", "fusion_lat": 0.0, "lon": -77.0022175}, {"is_disabled": 0, "rental_uris": {"ios": "https://dc.lft.to/lastmile_qr_scan", "android": "https://dc.lft.to/lastmile_qr_scan"}, "is_reserved": 0, "fusion_lon": 0.0, "lat": 38.88297516666667, "type": "electric_scooter", "name": "338930ca11ced5646cd7d7bf13194092", "bike_id": "338930ca11ced5646cd7d7bf13194092", "fusion_lat": 0.0, "lon": -76.9349915}, {"is_disabled": 0, "rental_uris": {"ios": "https://dc.lft.to/lastmile_qr_scan", "android": "https://dc.lft.to/lastmile_qr_scan"}, "is_reserved": 0, "fusion_lon": 0.0, "lat": 38.92600183333333, "type": "electric_scooter", "name": "954040bca6b863b414da12c20969899d", "bike_id": "954040bca6b863b414da12c20969899d", "fusion_lat": 0.0, "lon": -77.0215965}, {"is_disabled": 0, "rental_uris": {"ios": "https://dc.lft.to/lastmile_qr_scan", "android": "https://dc.lft.to/lastmile_qr_scan"}, "is_reserved": 0, "fusion_lon": 0.0, "lat": 38.92335166666667, "type": "electric_scooter", "name": "33ca0796bef48495718ac3c10437c782", "bike_id": "33ca0796bef48495718ac3c10437c782", "fusion_lat": 0.0, "lon": -77.05684733333334}, {"is_disabled": 0, "rental_uris": {"ios": "https://dc.lft.to/lastmile_qr_scan", "android": "https://dc.lft.to/lastmile_qr_scan"}, "is_reserved": 0, "fusion_lon": 0.0, "lat": 38.908826166666664, "type": "electric_scooter", "name": "bc5c62fd8dc65904d05a1574ccb849c3", "bike_id": "bc5c62fd8dc65904d05a1574ccb849c3", "fusion_lat": 0.0, "lon": -77.06454433333333}, {"is_disabled": 0, "rental_uris": {"ios": "https://dc.lft.to/lastmile_qr_scan", "android": "https://dc.lft.to/lastmile_qr_scan"}, "is_reserved": 0, "fusion_lon": 0.0, "lat": 38.939314333333336, "type": "electric_scooter", "name": "09833a02fab87a1506cf9ac1135f7a53", "bike_id": "09833a02fab87a1506cf9ac1135f7a53", "fusion_lat": 0.0, "lon": -77.07256283333334}, {"is_disabled": 0, "rental_uris": {"ios": "https://dc.lft.to/lastmile_qr_scan", "android": "https://dc.lft.to/lastmile_qr_scan"}, "is_reserved": 0, "fusion_lon": 0.0, "lat": 38.88644633333333, "type": "electric_scooter", "name": "43bf0d8701126d85ba97e135c8016f21", "bike_id": "43bf0d8701126d85ba97e135c8016f21", "fusion_lat": 0.0, "lon": -77.00094266666666}, {"is_disabled": 0, "rental_uris": {"ios": "https://dc.lft.to/lastmile_qr_scan", "android": "https://dc.lft.to/lastmile_qr_scan"}, "is_reserved": 0, "fusion_lon": 0.0, "lat": 38.892365, "type": "electric_scooter", "name": "de8187c35954dbd708a47db2c182fbca", "bike_id": "de8187c35954dbd708a47db2c182fbca", "fusion_lat": 0.0, "lon": -77.04873616666667}, {"is_disabled": 0, "rental_uris": {"ios": "https://dc.lft.to/lastmile_qr_scan", "android": "https://dc.lft.to/lastmile_qr_scan"}, "is_reserved": 0, "fusion_lon": 0.0, "lat": 38.90008783333333, "type": "electric_scooter", "name": "59c9dce54c32ad1f7947480c848c8858", "bike_id": "59c9dce54c32ad1f7947480c848c8858", "fusion_lat": 0.0, "lon": -77.0437665}, {"is_disabled": 0, "rental_uris": {"ios": "https://dc.lft.to/lastmile_qr_scan", "android": "https://dc.lft.to/lastmile_qr_scan"}, "is_reserved": 0, "fusion_lon": 0.0, "lat": 38.92600183333333, "type": "electric_scooter", "name": "7b3b2a6dde2b3f02dc14c197e667dce9", "bike_id": "7b3b2a6dde2b3f02dc14c197e667dce9", "fusion_lat": 0.0, "lon": -77.02158383333334}, {"is_disabled": 0, "rental_uris": {"ios": "https://dc.lft.to/lastmile_qr_scan", "android": "https://dc.lft.to/lastmile_qr_scan"}, "is_reserved": 0, "fusion_lon": 0.0, "lat": 38.920460166666665, "type": "electric_scooter", "name": "d604e399b2c1f212a47de3ef60fa9233", "bike_id": "d604e399b2c1f212a47de3ef60fa9233", "fusion_lat": 0.0, "lon": -77.03845133333333}, {"is_disabled": 0, "rental_uris": {"ios": "https://dc.lft.to/lastmile_qr_scan", "android": "https://dc.lft.to/lastmile_qr_scan"}, "is_reserved": 0, "fusion_lon": 0.0, "lat": 38.94437033333333, "type": "electric_scooter", "name": "e7a2b30114d76afe535853a2b61eae76", "bike_id": "e7a2b30114d76afe535853a2b61eae76", "fusion_lat": 0.0, "lon": -77.06353766666666}, {"is_disabled": 0, "rental_uris": {"ios": "https://dc.lft.to/lastmile_qr_scan", "android": "https://dc.lft.to/lastmile_qr_scan"}, "is_reserved": 0, "fusion_lon": 0.0, "lat": 38.91358683333333, "type": "electric_scooter", "name": "84f4e41dfbf09c8cd6b241c37df45b31", "bike_id": "84f4e41dfbf09c8cd6b241c37df45b31", "fusion_lat": 0.0, "lon": -77.03872266666667}, {"is_disabled": 0, "rental_uris": {"ios": "https://dc.lft.to/lastmile_qr_scan", "android": "https://dc.lft.to/lastmile_qr_scan"}, "is_reserved": 0, "fusion_lon": 0.0, "lat": 38.90172033333333, "type": "electric_scooter", "name": "b34dcbea0b093615a4182c6bcc10718c", "bike_id": "b34dcbea0b093615a4182c6bcc10718c", "fusion_lat": 0.0, "lon": -76.94157483333333}, {"is_disabled": 0, "rental_uris": {"ios": "https://dc.lft.to/lastmile_qr_scan", "android": "https://dc.lft.to/lastmile_qr_scan"}, "is_reserved": 0, "fusion_lon": 0.0, "lat": 38.84757916666667, "type": "electric_bike", "name": "61fec27b382b1236e7c017b702aefdac", "bike_id": "61fec27b382b1236e7c017b702aefdac", "fusion_lat": 0.0, "lon": -77.05380816666667}, {"is_disabled": 0, "rental_uris": {"ios": "https://dc.lft.to/lastmile_qr_scan", "android": "https://dc.lft.to/lastmile_qr_scan"}, "is_reserved": 0, "fusion_lon": 0.0, "lat": 38.9268445, "type": "electric_scooter", "name": "405fcc92f32831ff43b956e59efe01d0", "bike_id": "405fcc92f32831ff43b956e59efe01d0", "fusion_lat": 0.0, "lon": -77.007663}, {"is_disabled": 0, "rental_uris": {"ios": "https://dc.lft.to/lastmile_qr_scan", "android": "https://dc.lft.to/lastmile_qr_scan"}, "is_reserved": 0, "fusion_lon": 0.0, "lat": 38.93196866666667, "type": "electric_scooter", "name": "9cb080f322d679e51a7ef29920fa212d", "bike_id": "9cb080f322d679e51a7ef29920fa212d", "fusion_lat": 0.0, "lon": -77.024568}, {"is_disabled": 0, "rental_uris": {"ios": "https://dc.lft.to/lastmile_qr_scan", "android": "https://dc.lft.to/lastmile_qr_scan"}, "is_reserved": 0, "fusion_lon": 0.0, "lat": 38.91554, "type": "electric_scooter", "name": "851d073bb271782386dcf0718c4f9f16", "bike_id": "851d073bb271782386dcf0718c4f9f16", "fusion_lat": 0.0, "lon": -77.0347725}, {"is_disabled": 0, "rental_uris": {"ios": "https://dc.lft.to/lastmile_qr_scan", "android": "https://dc.lft.to/lastmile_qr_scan"}, "is_reserved": 0, "fusion_lon": 0.0, "lat": 38.9200965, "type": "electric_scooter", "name": "79e6fa9cb7035e2ddb5cf082dab4ffe3", "bike_id": "79e6fa9cb7035e2ddb5cf082dab4ffe3", "fusion_lat": 0.0, "lon": -77.021795}, {"is_disabled": 0, "rental_uris": {"ios": "https://dc.lft.to/lastmile_qr_scan", "android": "https://dc.lft.to/lastmile_qr_scan"}, "is_reserved": 0, "fusion_lon": 0.0, "lat": 38.902147, "type": "electric_scooter", "name": "a01d8b41fb913a2de9157b4b78285ccd", "bike_id": "a01d8b41fb913a2de9157b4b78285ccd", "fusion_lat": 0.0, "lon": -77.06240283333334}, {"is_disabled": 0, "rental_uris": {"ios": "https://dc.lft.to/lastmile_qr_scan", "android": "https://dc.lft.to/lastmile_qr_scan"}, "is_reserved": 0, "fusion_lon": 0.0, "lat": 38.879324, "type": "electric_bike", "name": "f8217b67080ebbcaf0d39fad463103a9", "bike_id": "f8217b67080ebbcaf0d39fad463103a9", "fusion_lat": 0.0, "lon": -77.00539466666666}, {"is_disabled": 0, "rental_uris": {"ios": "https://dc.lft.to/lastmile_qr_scan", "android": "https://dc.lft.to/lastmile_qr_scan"}, "is_reserved": 0, "fusion_lon": 0.0, "lat": 38.924316, "type": "electric_scooter", "name": "57da4b2a3b944317dab11e3e86bf61de", "bike_id": "57da4b2a3b944317dab11e3e86bf61de", "fusion_lat": 0.0, "lon": -77.02255416666667}, {"is_disabled": 0, "rental_uris": {"ios": "https://dc.lft.to/lastmile_qr_scan", "android": "https://dc.lft.to/lastmile_qr_scan"}, "is_reserved": 0, "fusion_lon": 0.0, "lat": 38.90621516666667, "type": "electric_scooter", "name": "273244b92b6fe6da6b5d0f0fe84645dd", "bike_id": "273244b92b6fe6da6b5d0f0fe84645dd", "fusion_lat": 0.0, "lon": -77.06291383333334}, {"is_disabled": 0, "rental_uris": {"ios": "https://dc.lft.to/lastmile_qr_scan", "android": "https://dc.lft.to/lastmile_qr_scan"}, "is_reserved": 0, "fusion_lon": 0.0, "lat": 38.904194, "type": "electric_scooter", "name": "93206f39a4584ee3e78bbdb834f230aa", "bike_id": "93206f39a4584ee3e78bbdb834f230aa", "fusion_lat": 0.0, "lon": -77.0486665}, {"is_disabled": 0, "rental_uris": {"ios": "https://dc.lft.to/lastmile_qr_scan", "android": "https://dc.lft.to/lastmile_qr_scan"}, "is_reserved": 0, "fusion_lon": 0.0, "lat": 38.87575783333333, "type": "electric_bike", "name": "d3c133795e4b676efa25b46359eac1a7", "bike_id": "d3c133795e4b676efa25b46359eac1a7", "fusion_lat": 0.0, "lon": -77.234099}, {"is_disabled": 0, "rental_uris": {"ios": "https://dc.lft.to/lastmile_qr_scan", "android": "https://dc.lft.to/lastmile_qr_scan"}, "is_reserved": 0, "fusion_lon": 0.0, "lat": 38.922332833333336, "type": "electric_scooter", "name": "cdf4992c1c80f9749ff3b2127d5cdc8f", "bike_id": "cdf4992c1c80f9749ff3b2127d5cdc8f", "fusion_lat": 0.0, "lon": -77.04256083333334}, {"is_disabled": 0, "rental_uris": {"ios": "https://dc.lft.to/lastmile_qr_scan", "android": "https://dc.lft.to/lastmile_qr_scan"}, "is_reserved": 0, "fusion_lon": 0.0, "lat": 38.88037166666667, "type": "electric_scooter", "name": "d2c704a874720537ceae418d0a9d6d67", "bike_id": "d2c704a874720537ceae418d0a9d6d67", "fusion_lat": 0.0, "lon": -76.92730016666667}, {"is_disabled": 0, "rental_uris": {"ios": "https://dc.lft.to/lastmile_qr_scan", "android": "https://dc.lft.to/lastmile_qr_scan"}, "is_reserved": 0, "fusion_lon": 0.0, "lat": 38.909540666666665, "type": "electric_scooter", "name": "5cc6441d6f847a1177cce1c158162e96", "bike_id": "5cc6441d6f847a1177cce1c158162e96", "fusion_lat": 0.0, "lon": -77.045067}, {"is_disabled": 0, "rental_uris": {"ios": "https://dc.lft.to/lastmile_qr_scan", "android": "https://dc.lft.to/lastmile_qr_scan"}, "is_reserved": 0, "fusion_lon": 0.0, "lat": 38.923142, "type": "electric_scooter", "name": "96e31a2a8ec95887a1b6839c844a69ed", "bike_id": "96e31a2a8ec95887a1b6839c844a69ed", "fusion_lat": 0.0, "lon": -77.07308583333334}, {"is_disabled": 0, "rental_uris": {"ios": "https://dc.lft.to/lastmile_qr_scan", "android": "https://dc.lft.to/lastmile_qr_scan"}, "is_reserved": 0, "fusion_lon": 0.0, "lat": 38.898495, "type": "electric_scooter", "name": "2bbed18624076b0cf9bfcc57c3ce1215", "bike_id": "2bbed18624076b0cf9bfcc57c3ce1215", "fusion_lat": 0.0, "lon": -77.01249366666667}, {"is_disabled": 0, "rental_uris": {"ios": "https://dc.lft.to/lastmile_qr_scan", "android": "https://dc.lft.to/lastmile_qr_scan"}, "is_reserved": 0, "fusion_lon": 0.0, "lat": 38.91834733333334, "type": "electric_scooter", "name": "5a37766d70cd38017dfb366b346f88b5", "bike_id": "5a37766d70cd38017dfb366b346f88b5", "fusion_lat": 0.0, "lon": -77.03658833333333}, {"is_disabled": 0, "rental_uris": {"ios": "https://dc.lft.to/lastmile_qr_scan", "android": "https://dc.lft.to/lastmile_qr_scan"}, "is_reserved": 0, "fusion_lon": 0.0, "lat": 38.89553383333333, "type": "electric_scooter", "name": "b63ce8d445b14001656e3f0486c72e10", "bike_id": "b63ce8d445b14001656e3f0486c72e10", "fusion_lat": 0.0, "lon": -77.01120166666666}, {"is_disabled": 0, "rental_uris": {"ios": "https://dc.lft.to/lastmile_qr_scan", "android": "https://dc.lft.to/lastmile_qr_scan"}, "is_reserved": 0, "fusion_lon": 0.0, "lat": 38.90562516666667, "type": "electric_scooter", "name": "c516ee232f5f00e5a2676d6e6762ac26", "bike_id": "c516ee232f5f00e5a2676d6e6762ac26", "fusion_lat": 0.0, "lon": -77.02655633333333}, {"is_disabled": 0, "rental_uris": {"ios": "https://dc.lft.to/lastmile_qr_scan", "android": "https://dc.lft.to/lastmile_qr_scan"}, "is_reserved": 0, "fusion_lon": 0.0, "lat": 38.908704666666665, "type": "electric_scooter", "name": "2cf722485e9edeae06902841cfaa4f68", "bike_id": "2cf722485e9edeae06902841cfaa4f68", "fusion_lat": 0.0, "lon": -77.07154833333334}, {"is_disabled": 0, "rental_uris": {"ios": "https://dc.lft.to/lastmile_qr_scan", "android": "https://dc.lft.to/lastmile_qr_scan"}, "is_reserved": 0, "fusion_lon": 0.0, "lat": 38.90230566666666, "type": "electric_scooter", "name": "1c2cb30230210307584cf09cad394981", "bike_id": "1c2cb30230210307584cf09cad394981", "fusion_lat": 0.0, "lon": -77.016121}, {"is_disabled": 0, "rental_uris": {"ios": "https://dc.lft.to/lastmile_qr_scan", "android": "https://dc.lft.to/lastmile_qr_scan"}, "is_reserved": 0, "fusion_lon": 0.0, "lat": 38.90817033333333, "type": "electric_scooter", "name": "4ad622863ca206f6c248efde54348662", "bike_id": "4ad622863ca206f6c248efde54348662", "fusion_lat": 0.0, "lon": -77.042482}, {"is_disabled": 0, "rental_uris": {"ios": "https://dc.lft.to/lastmile_qr_scan", "android": "https://dc.lft.to/lastmile_qr_scan"}, "is_reserved": 0, "fusion_lon": 0.0, "lat": 38.911762833333334, "type": "electric_scooter", "name": "8996dcb067fbb269e306b853ed0c8819", "bike_id": "8996dcb067fbb269e306b853ed0c8819", "fusion_lat": 0.0, "lon": -77.038658}, {"is_disabled": 0, "rental_uris": {"ios": "https://dc.lft.to/lastmile_qr_scan", "android": "https://dc.lft.to/lastmile_qr_scan"}, "is_reserved": 0, "fusion_lon": 0.0, "lat": 38.912684166666665, "type": "electric_scooter", "name": "91c844e9440368747e935168d676c83d", "bike_id": "91c844e9440368747e935168d676c83d", "fusion_lat": 0.0, "lon": -77.04657516666667}, {"is_disabled": 0, "rental_uris": {"ios": "https://dc.lft.to/lastmile_qr_scan", "android": "https://dc.lft.to/lastmile_qr_scan"}, "is_reserved": 0, "fusion_lon": 0.0, "lat": 38.87889116666667, "type": "electric_scooter", "name": "1fa4744e7021b0a02a2c64fa871390a2", "bike_id": "1fa4744e7021b0a02a2c64fa871390a2", "fusion_lat": 0.0, "lon": -76.9867795}, {"is_disabled": 0, "rental_uris": {"ios": "https://dc.lft.to/lastmile_qr_scan", "android": "https://dc.lft.to/lastmile_qr_scan"}, "is_reserved": 0, "fusion_lon": 0.0, "lat": 38.89884033333333, "type": "electric_scooter", "name": "248b1da38393c4eb139f0bea6205f7da", "bike_id": "248b1da38393c4eb139f0bea6205f7da", "fusion_lat": 0.0, "lon": -77.02812933333334}, {"is_disabled": 0, "rental_uris": {"ios": "https://dc.lft.to/lastmile_qr_scan", "android": "https://dc.lft.to/lastmile_qr_scan"}, "is_reserved": 0, "fusion_lon": 0.0, "lat": 38.90730883333333, "type": "electric_scooter", "name": "754ead14b1e8780639d7b8809921c500", "bike_id": "754ead14b1e8780639d7b8809921c500", "fusion_lat": 0.0, "lon": -77.0450675}, {"is_disabled": 0, "rental_uris": {"ios": "https://dc.lft.to/lastmile_qr_scan", "android": "https://dc.lft.to/lastmile_qr_scan"}, "is_reserved": 0, "fusion_lon": 0.0, "lat": 38.89218316666667, "type": "electric_scooter", "name": "6620b495a6b700f755bc6ad9c81e9bc9", "bike_id": "6620b495a6b700f755bc6ad9c81e9bc9", "fusion_lat": 0.0, "lon": -77.0222435}, {"is_disabled": 0, "rental_uris": {"ios": "https://dc.lft.to/lastmile_qr_scan", "android": "https://dc.lft.to/lastmile_qr_scan"}, "is_reserved": 0, "fusion_lon": 0.0, "lat": 38.8563985, "type": "electric_bike", "name": "f3091e4cd482746d8c43260bed2a9d24", "bike_id": "f3091e4cd482746d8c43260bed2a9d24", "fusion_lat": 0.0, "lon": -77.06840583333333}, {"is_disabled": 0, "rental_uris": {"ios": "https://dc.lft.to/lastmile_qr_scan", "android": "https://dc.lft.to/lastmile_qr_scan"}, "is_reserved": 0, "fusion_lon": 0.0, "lat": 38.882194166666665, "type": "electric_scooter", "name": "1e19779b644406f045a942d6c0975795", "bike_id": "1e19779b644406f045a942d6c0975795", "fusion_lat": 0.0, "lon": -76.9974145}, {"is_disabled": 0, "rental_uris": {"ios": "https://dc.lft.to/lastmile_qr_scan", "android": "https://dc.lft.to/lastmile_qr_scan"}, "is_reserved": 0, "fusion_lon": 0.0, "lat": 38.8983835, "type": "electric_scooter", "name": "5e929d03f602ca60bb4832a60edfe337", "bike_id": "5e929d03f602ca60bb4832a60edfe337", "fusion_lat": 0.0, "lon": -77.02623916666667}, {"is_disabled": 0, "rental_uris": {"ios": "https://dc.lft.to/lastmile_qr_scan", "android": "https://dc.lft.to/lastmile_qr_scan"}, "is_reserved": 0, "fusion_lon": 0.0, "lat": 38.898868666666665, "type": "electric_scooter", "name": "3759bb51df61897074ed68a9cedea299", "bike_id": "3759bb51df61897074ed68a9cedea299", "fusion_lat": 0.0, "lon": -77.03943883333334}, {"is_disabled": 0, "rental_uris": {"ios": "https://dc.lft.to/lastmile_qr_scan", "android": "https://dc.lft.to/lastmile_qr_scan"}, "is_reserved": 0, "fusion_lon": 0.0, "lat": 38.86563233333333, "type": "electric_bike", "name": "85b3f3632fe49827841da7838f2c6d97", "bike_id": "85b3f3632fe49827841da7838f2c6d97", "fusion_lat": 0.0, "lon": -76.9747365}, {"is_disabled": 0, "rental_uris": {"ios": "https://dc.lft.to/lastmile_qr_scan", "android": "https://dc.lft.to/lastmile_qr_scan"}, "is_reserved": 0, "fusion_lon": 0.0, "lat": 38.900574666666664, "type": "electric_scooter", "name": "77e99e6937cb1e8ef007781acdf9f1ad", "bike_id": "77e99e6937cb1e8ef007781acdf9f1ad", "fusion_lat": 0.0, "lon": -77.03846933333334}, {"is_disabled": 0, "rental_uris": {"ios": "https://dc.lft.to/lastmile_qr_scan", "android": "https://dc.lft.to/lastmile_qr_scan"}, "is_reserved": 0, "fusion_lon": 0.0, "lat": 38.91786966666667, "type": "electric_scooter", "name": "4a18b675ed97fb9edef8c548b44f064b", "bike_id": "4a18b675ed97fb9edef8c548b44f064b", "fusion_lat": 0.0, "lon": -77.03214533333333}, {"is_disabled": 0, "rental_uris": {"ios": "https://dc.lft.to/lastmile_qr_scan", "android": "https://dc.lft.to/lastmile_qr_scan"}, "is_reserved": 0, "fusion_lon": 0.0, "lat": 38.824264666666664, "type": "electric_bike", "name": "111ed89cc875f227289c81b16f6b68e3", "bike_id": "111ed89cc875f227289c81b16f6b68e3", "fusion_lat": 0.0, "lon": -77.12038833333334}, {"is_disabled": 0, "rental_uris": {"ios": "https://dc.lft.to/lastmile_qr_scan", "android": "https://dc.lft.to/lastmile_qr_scan"}, "is_reserved": 0, "fusion_lon": 0.0, "lat": 38.9217475, "type": "electric_scooter", "name": "cff51bf09da4c89b0221aecc9ab213fb", "bike_id": "cff51bf09da4c89b0221aecc9ab213fb", "fusion_lat": 0.0, "lon": -77.04234116666667}, {"is_disabled": 0, "rental_uris": {"ios": "https://dc.lft.to/lastmile_qr_scan", "android": "https://dc.lft.to/lastmile_qr_scan"}, "is_reserved": 0, "fusion_lon": 0.0, "lat": 38.912564833333334, "type": "electric_scooter", "name": "5099ec838e6aae1aeabd9a855edc886f", "bike_id": "5099ec838e6aae1aeabd9a855edc886f", "fusion_lat": 0.0, "lon": -77.03866666666667}, {"is_disabled": 0, "rental_uris": {"ios": "https://dc.lft.to/lastmile_qr_scan", "android": "https://dc.lft.to/lastmile_qr_scan"}, "is_reserved": 0, "fusion_lon": 0.0, "lat": 38.95638683333333, "type": "electric_scooter", "name": "28e53ae8a66eea44bfcba51c7efd5740", "bike_id": "28e53ae8a66eea44bfcba51c7efd5740", "fusion_lat": 0.0, "lon": -77.03631983333334}, {"is_disabled": 0, "rental_uris": {"ios": "https://dc.lft.to/lastmile_qr_scan", "android": "https://dc.lft.to/lastmile_qr_scan"}, "is_reserved": 0, "fusion_lon": 0.0, "lat": 38.89085133333333, "type": "electric_bike", "name": "2263236c94bf01406c0fe23cd26eafa9", "bike_id": "2263236c94bf01406c0fe23cd26eafa9", "fusion_lat": 0.0, "lon": -76.95475516666667}, {"is_disabled": 0, "rental_uris": {"ios": "https://dc.lft.to/lastmile_qr_scan", "android": "https://dc.lft.to/lastmile_qr_scan"}, "is_reserved": 0, "fusion_lon": 0.0, "lat": 38.922365, "type": "electric_scooter", "name": "07a80b81bd12562edff02e42172067d7", "bike_id": "07a80b81bd12562edff02e42172067d7", "fusion_lat": 0.0, "lon": -77.04258933333334}, {"is_disabled": 0, "rental_uris": {"ios": "https://dc.lft.to/lastmile_qr_scan", "android": "https://dc.lft.to/lastmile_qr_scan"}, "is_reserved": 0, "fusion_lon": 0.0, "lat": 38.8783575, "type": "electric_scooter", "name": "a63539d0a4796dd446703294ff26d6c3", "bike_id": "a63539d0a4796dd446703294ff26d6c3", "fusion_lat": 0.0, "lon": -77.0159065}, {"is_disabled": 0, "rental_uris": {"ios": "https://dc.lft.to/lastmile_qr_scan", "android": "https://dc.lft.to/lastmile_qr_scan"}, "is_reserved": 0, "fusion_lon": 0.0, "lat": 38.916788333333336, "type": "electric_scooter", "name": "81386557e30af235a0b67674b87e1d5e", "bike_id": "81386557e30af235a0b67674b87e1d5e", "fusion_lat": 0.0, "lon": -77.02292733333333}, {"is_disabled": 0, "rental_uris": {"ios": "https://dc.lft.to/lastmile_qr_scan", "android": "https://dc.lft.to/lastmile_qr_scan"}, "is_reserved": 0, "fusion_lon": 0.0, "lat": 38.8997105, "type": "electric_scooter", "name": "0adbba445ad2b36383752aa58bb522b3", "bike_id": "0adbba445ad2b36383752aa58bb522b3", "fusion_lat": 0.0, "lon": -77.03078133333334}, {"is_disabled": 0, "rental_uris": {"ios": "https://dc.lft.to/lastmile_qr_scan", "android": "https://dc.lft.to/lastmile_qr_scan"}, "is_reserved": 0, "fusion_lon": 0.0, "lat": 38.93193466666666, "type": "electric_scooter", "name": "a9df633b9906694e56dda4f5e04d0bca", "bike_id": "a9df633b9906694e56dda4f5e04d0bca", "fusion_lat": 0.0, "lon": -77.01874083333334}, {"is_disabled": 0, "rental_uris": {"ios": "https://dc.lft.to/lastmile_qr_scan", "android": "https://dc.lft.to/lastmile_qr_scan"}, "is_reserved": 0, "fusion_lon": 0.0, "lat": 38.921397666666664, "type": "electric_scooter", "name": "963495387f0e2e2eb6e613a1d04c1f21", "bike_id": "963495387f0e2e2eb6e613a1d04c1f21", "fusion_lat": 0.0, "lon": -77.0010565}, {"is_disabled": 0, "rental_uris": {"ios": "https://dc.lft.to/lastmile_qr_scan", "android": "https://dc.lft.to/lastmile_qr_scan"}, "is_reserved": 0, "fusion_lon": 0.0, "lat": 38.9077695, "type": "electric_scooter", "name": "79be733f555895c9ce3917f2dc36d3f2", "bike_id": "79be733f555895c9ce3917f2dc36d3f2", "fusion_lat": 0.0, "lon": -77.07165066666667}, {"is_disabled": 0, "rental_uris": {"ios": "https://dc.lft.to/lastmile_qr_scan", "android": "https://dc.lft.to/lastmile_qr_scan"}, "is_reserved": 0, "fusion_lon": 0.0, "lat": 38.99413, "type": "electric_bike", "name": "3bf5e66840da47e51c3e39ccdc5fc62e", "bike_id": "3bf5e66840da47e51c3e39ccdc5fc62e", "fusion_lat": 0.0, "lon": -77.01804666666666}, {"is_disabled": 0, "rental_uris": {"ios": "https://dc.lft.to/lastmile_qr_scan", "android": "https://dc.lft.to/lastmile_qr_scan"}, "is_reserved": 0, "fusion_lon": 0.0, "lat": 38.96772216666667, "type": "electric_bike", "name": "15aa4fa22a6c827696361b69fcc43a27", "bike_id": "15aa4fa22a6c827696361b69fcc43a27", "fusion_lat": 0.0, "lon": -76.9965255}, {"is_disabled": 0, "rental_uris": {"ios": "https://dc.lft.to/lastmile_qr_scan", "android": "https://dc.lft.to/lastmile_qr_scan"}, "is_reserved": 0, "fusion_lon": 0.0, "lat": 38.916798666666665, "type": "electric_scooter", "name": "1bae871109c542dbec7071cd5ec49f77", "bike_id": "1bae871109c542dbec7071cd5ec49f77", "fusion_lat": 0.0, "lon": -77.02297833333333}, {"is_disabled": 0, "rental_uris": {"ios": "https://dc.lft.to/lastmile_qr_scan", "android": "https://dc.lft.to/lastmile_qr_scan"}, "is_reserved": 0, "fusion_lon": 0.0, "lat": 38.89221283333333, "type": "electric_scooter", "name": "9383b0fe401fb43987f160eb30bd2f0d", "bike_id": "9383b0fe401fb43987f160eb30bd2f0d", "fusion_lat": 0.0, "lon": -77.04686666666667}, {"is_disabled": 0, "rental_uris": {"ios": "https://dc.lft.to/lastmile_qr_scan", "android": "https://dc.lft.to/lastmile_qr_scan"}, "is_reserved": 0, "fusion_lon": 0.0, "lat": 38.921044333333334, "type": "electric_bike", "name": "853d993e826b6240dd3e2e0e22513c34", "bike_id": "853d993e826b6240dd3e2e0e22513c34", "fusion_lat": 0.0, "lon": -77.03194233333333}, {"is_disabled": 0, "rental_uris": {"ios": "https://dc.lft.to/lastmile_qr_scan", "android": "https://dc.lft.to/lastmile_qr_scan"}, "is_reserved": 0, "fusion_lon": 0.0, "lat": 38.90980016666666, "type": "electric_scooter", "name": "42726449ff34ed41385feb8f576bf663", "bike_id": "42726449ff34ed41385feb8f576bf663", "fusion_lat": 0.0, "lon": -77.04413516666666}, {"is_disabled": 0, "rental_uris": {"ios": "https://dc.lft.to/lastmile_qr_scan", "android": "https://dc.lft.to/lastmile_qr_scan"}, "is_reserved": 0, "fusion_lon": 0.0, "lat": 38.9126235, "type": "electric_scooter", "name": "c736f8c473cc86b706da5a4af0bc951c", "bike_id": "c736f8c473cc86b706da5a4af0bc951c", "fusion_lat": 0.0, "lon": -77.03146816666667}, {"is_disabled": 0, "rental_uris": {"ios": "https://dc.lft.to/lastmile_qr_scan", "android": "https://dc.lft.to/lastmile_qr_scan"}, "is_reserved": 0, "fusion_lon": 0.0, "lat": 38.896302666666664, "type": "electric_scooter", "name": "cc4cf6ec3ea1f59513224115b4bc60d3", "bike_id": "cc4cf6ec3ea1f59513224115b4bc60d3", "fusion_lat": 0.0, "lon": -77.04350583333333}, {"is_disabled": 0, "rental_uris": {"ios": "https://dc.lft.to/lastmile_qr_scan", "android": "https://dc.lft.to/lastmile_qr_scan"}, "is_reserved": 0, "fusion_lon": 0.0, "lat": 38.887413, "type": "electric_scooter", "name": "abb422f99c6e27abc4c6b4a46a3ef9ce", "bike_id": "abb422f99c6e27abc4c6b4a46a3ef9ce", "fusion_lat": 0.0, "lon": -77.02231216666667}, {"is_disabled": 0, "rental_uris": {"ios": "https://dc.lft.to/lastmile_qr_scan", "android": "https://dc.lft.to/lastmile_qr_scan"}, "is_reserved": 0, "fusion_lon": 0.0, "lat": 38.9248445, "type": "electric_scooter", "name": "3e5fb944c90cff4ccec2a0ddfe1547c1", "bike_id": "3e5fb944c90cff4ccec2a0ddfe1547c1", "fusion_lat": 0.0, "lon": -77.02139183333334}, {"is_disabled": 0, "rental_uris": {"ios": "https://dc.lft.to/lastmile_qr_scan", "android": "https://dc.lft.to/lastmile_qr_scan"}, "is_reserved": 0, "fusion_lon": 0.0, "lat": 38.90239166666667, "type": "electric_scooter", "name": "38926576fb9ce2e1b4290b6b78fbf0ce", "bike_id": "38926576fb9ce2e1b4290b6b78fbf0ce", "fusion_lat": 0.0, "lon": -77.02693533333333}, {"is_disabled": 0, "rental_uris": {"ios": "https://dc.lft.to/lastmile_qr_scan", "android": "https://dc.lft.to/lastmile_qr_scan"}, "is_reserved": 0, "fusion_lon": 0.0, "lat": 38.91249, "type": "electric_scooter", "name": "a90db3f9fa337a9d164d56fef8f62cdc", "bike_id": "a90db3f9fa337a9d164d56fef8f62cdc", "fusion_lat": 0.0, "lon": -76.9374605}, {"is_disabled": 0, "rental_uris": {"ios": "https://dc.lft.to/lastmile_qr_scan", "android": "https://dc.lft.to/lastmile_qr_scan"}, "is_reserved": 0, "fusion_lon": 0.0, "lat": 38.9186045, "type": "electric_scooter", "name": "8c4c9ef079de1133cfac608d2143bd59", "bike_id": "8c4c9ef079de1133cfac608d2143bd59", "fusion_lat": 0.0, "lon": -77.04176183333334}, {"is_disabled": 0, "rental_uris": {"ios": "https://dc.lft.to/lastmile_qr_scan", "android": "https://dc.lft.to/lastmile_qr_scan"}, "is_reserved": 0, "fusion_lon": 0.0, "lat": 38.89837416666667, "type": "electric_scooter", "name": "b001ed825f3eff1256330ac5864b6839", "bike_id": "b001ed825f3eff1256330ac5864b6839", "fusion_lat": 0.0, "lon": -76.9810835}, {"is_disabled": 0, "rental_uris": {"ios": "https://dc.lft.to/lastmile_qr_scan", "android": "https://dc.lft.to/lastmile_qr_scan"}, "is_reserved": 0, "fusion_lon": 0.0, "lat": 38.903970666666666, "type": "electric_scooter", "name": "190c1ea0613b508018cf3d44a838e88b", "bike_id": "190c1ea0613b508018cf3d44a838e88b", "fusion_lat": 0.0, "lon": -77.02825866666667}, {"is_disabled": 0, "rental_uris": {"ios": "https://dc.lft.to/lastmile_qr_scan", "android": "https://dc.lft.to/lastmile_qr_scan"}, "is_reserved": 0, "fusion_lon": 0.0, "lat": 38.904597, "type": "electric_scooter", "name": "362fc15924669df4e023c3a689ba7d6d", "bike_id": "362fc15924669df4e023c3a689ba7d6d", "fusion_lat": 0.0, "lon": -77.00352216666667}, {"is_disabled": 0, "rental_uris": {"ios": "https://dc.lft.to/lastmile_qr_scan", "android": "https://dc.lft.to/lastmile_qr_scan"}, "is_reserved": 0, "fusion_lon": 0.0, "lat": 38.912581833333334, "type": "electric_scooter", "name": "cb4c6a8f23b261addcd8520b676d3ea6", "bike_id": "cb4c6a8f23b261addcd8520b676d3ea6", "fusion_lat": 0.0, "lon": -77.04292616666666}, {"is_disabled": 0, "rental_uris": {"ios": "https://dc.lft.to/lastmile_qr_scan", "android": "https://dc.lft.to/lastmile_qr_scan"}, "is_reserved": 0, "fusion_lon": 0.0, "lat": 38.911174333333335, "type": "electric_scooter", "name": "575b3cf524597428ca6be1699d91b3a8", "bike_id": "575b3cf524597428ca6be1699d91b3a8", "fusion_lat": 0.0, "lon": -77.04366016666667}, {"is_disabled": 0, "rental_uris": {"ios": "https://dc.lft.to/lastmile_qr_scan", "android": "https://dc.lft.to/lastmile_qr_scan"}, "is_reserved": 0, "fusion_lon": 0.0, "lat": 38.92681183333333, "type": "electric_scooter", "name": "f540ab7b8972d5e2b392862f2fbc6de3", "bike_id": "f540ab7b8972d5e2b392862f2fbc6de3", "fusion_lat": 0.0, "lon": -77.01468316666667}, {"is_disabled": 0, "rental_uris": {"ios": "https://dc.lft.to/lastmile_qr_scan", "android": "https://dc.lft.to/lastmile_qr_scan"}, "is_reserved": 0, "fusion_lon": 0.0, "lat": 38.922126, "type": "electric_bike", "name": "5490f85a3bd24a0d98766aacae0fef3a", "bike_id": "5490f85a3bd24a0d98766aacae0fef3a", "fusion_lat": 0.0, "lon": -77.0821465}, {"is_disabled": 0, "rental_uris": {"ios": "https://dc.lft.to/lastmile_qr_scan", "android": "https://dc.lft.to/lastmile_qr_scan"}, "is_reserved": 0, "fusion_lon": 0.0, "lat": 38.94826916666667, "type": "electric_scooter", "name": "a4cf8d6b517b3778fe1f3bc9fb9cf155", "bike_id": "a4cf8d6b517b3778fe1f3bc9fb9cf155", "fusion_lat": 0.0, "lon": -77.0788435}, {"is_disabled": 0, "rental_uris": {"ios": "https://dc.lft.to/lastmile_qr_scan", "android": "https://dc.lft.to/lastmile_qr_scan"}, "is_reserved": 0, "fusion_lon": 0.0, "lat": 38.894558, "type": "electric_scooter", "name": "4b7bf8ceb3130093cc510857cc86ad3d", "bike_id": "4b7bf8ceb3130093cc510857cc86ad3d", "fusion_lat": 0.0, "lon": -77.0189765}, {"is_disabled": 0, "rental_uris": {"ios": "https://dc.lft.to/lastmile_qr_scan", "android": "https://dc.lft.to/lastmile_qr_scan"}, "is_reserved": 0, "fusion_lon": 0.0, "lat": 38.86021183333333, "type": "electric_scooter", "name": "e3e1bce08d8e3a489e86716e3c8f2251", "bike_id": "e3e1bce08d8e3a489e86716e3c8f2251", "fusion_lat": 0.0, "lon": -76.97000483333333}, {"is_disabled": 0, "rental_uris": {"ios": "https://dc.lft.to/lastmile_qr_scan", "android": "https://dc.lft.to/lastmile_qr_scan"}, "is_reserved": 0, "fusion_lon": 0.0, "lat": 38.879094, "type": "electric_scooter", "name": "be5a6dd359bcb826cf69ccc6aad76aed", "bike_id": "be5a6dd359bcb826cf69ccc6aad76aed", "fusion_lat": 0.0, "lon": -77.00570483333334}, {"is_disabled": 0, "rental_uris": {"ios": "https://dc.lft.to/lastmile_qr_scan", "android": "https://dc.lft.to/lastmile_qr_scan"}, "is_reserved": 0, "fusion_lon": 0.0, "lat": 38.896112, "type": "electric_scooter", "name": "9414da5e9f3bf8b778372ff306c515f4", "bike_id": "9414da5e9f3bf8b778372ff306c515f4", "fusion_lat": 0.0, "lon": -77.04794016666666}, {"is_disabled": 0, "rental_uris": {"ios": "https://dc.lft.to/lastmile_qr_scan", "android": "https://dc.lft.to/lastmile_qr_scan"}, "is_reserved": 0, "fusion_lon": 0.0, "lat": 38.952867, "type": "electric_scooter", "name": "1b0e55027e68c1e8571b5436fea17763", "bike_id": "1b0e55027e68c1e8571b5436fea17763", "fusion_lat": 0.0, "lon": -77.0687335}, {"is_disabled": 0, "rental_uris": {"ios": "https://dc.lft.to/lastmile_qr_scan", "android": "https://dc.lft.to/lastmile_qr_scan"}, "is_reserved": 0, "fusion_lon": 0.0, "lat": 38.875970333333335, "type": "electric_scooter", "name": "8e6436b610bc613506120ef12fbaf2c9", "bike_id": "8e6436b610bc613506120ef12fbaf2c9", "fusion_lat": 0.0, "lon": -77.0009155}, {"is_disabled": 0, "rental_uris": {"ios": "https://dc.lft.to/lastmile_qr_scan", "android": "https://dc.lft.to/lastmile_qr_scan"}, "is_reserved": 0, "fusion_lon": 0.0, "lat": 38.897134666666666, "type": "electric_scooter", "name": "91050e7ab6b0de2201e61b65a5c146a3", "bike_id": "91050e7ab6b0de2201e61b65a5c146a3", "fusion_lat": 0.0, "lon": -77.04652833333333}, {"is_disabled": 0, "rental_uris": {"ios": "https://dc.lft.to/lastmile_qr_scan", "android": "https://dc.lft.to/lastmile_qr_scan"}, "is_reserved": 0, "fusion_lon": 0.0, "lat": 38.960458333333335, "type": "electric_scooter", "name": "43efc1b4f1cffb3e3363959665fd2e77", "bike_id": "43efc1b4f1cffb3e3363959665fd2e77", "fusion_lat": 0.0, "lon": -77.00515616666667}, {"is_disabled": 0, "rental_uris": {"ios": "https://dc.lft.to/lastmile_qr_scan", "android": "https://dc.lft.to/lastmile_qr_scan"}, "is_reserved": 0, "fusion_lon": 0.0, "lat": 38.91909166666667, "type": "electric_scooter", "name": "bd2347500e54b03d974502d9b479a694", "bike_id": "bd2347500e54b03d974502d9b479a694", "fusion_lat": 0.0, "lon": -77.02502933333334}, {"is_disabled": 0, "rental_uris": {"ios": "https://dc.lft.to/lastmile_qr_scan", "android": "https://dc.lft.to/lastmile_qr_scan"}, "is_reserved": 0, "fusion_lon": 0.0, "lat": 38.9100645, "type": "electric_scooter", "name": "79f869df6db8e9c4c0ad3fa3dfadf33a", "bike_id": "79f869df6db8e9c4c0ad3fa3dfadf33a", "fusion_lat": 0.0, "lon": -76.98499333333334}, {"is_disabled": 0, "rental_uris": {"ios": "https://dc.lft.to/lastmile_qr_scan", "android": "https://dc.lft.to/lastmile_qr_scan"}, "is_reserved": 0, "fusion_lon": 0.0, "lat": 38.900545, "type": "electric_scooter", "name": "49de00db3d1d400f3b560ddc7487bdc8", "bike_id": "49de00db3d1d400f3b560ddc7487bdc8", "fusion_lat": 0.0, "lon": -76.991476}, {"is_disabled": 0, "rental_uris": {"ios": "https://dc.lft.to/lastmile_qr_scan", "android": "https://dc.lft.to/lastmile_qr_scan"}, "is_reserved": 0, "fusion_lon": 0.0, "lat": 38.86283983333333, "type": "electric_bike", "name": "d6e43a11a6a2d7de20f84a3c478da4c1", "bike_id": "d6e43a11a6a2d7de20f84a3c478da4c1", "fusion_lat": 0.0, "lon": -76.94526716666667}, {"is_disabled": 0, "rental_uris": {"ios": "https://dc.lft.to/lastmile_qr_scan", "android": "https://dc.lft.to/lastmile_qr_scan"}, "is_reserved": 0, "fusion_lon": 0.0, "lat": 38.89616633333333, "type": "electric_scooter", "name": "e8575173f8e0acfc1f9b6a48f2ae5d8e", "bike_id": "e8575173f8e0acfc1f9b6a48f2ae5d8e", "fusion_lat": 0.0, "lon": -77.02706083333334}, {"is_disabled": 0, "rental_uris": {"ios": "https://dc.lft.to/lastmile_qr_scan", "android": "https://dc.lft.to/lastmile_qr_scan"}, "is_reserved": 0, "fusion_lon": 0.0, "lat": 38.93907333333333, "type": "electric_scooter", "name": "92c235e648665df01f40eb0fa4204c09", "bike_id": "92c235e648665df01f40eb0fa4204c09", "fusion_lat": 0.0, "lon": -77.02492033333333}, {"is_disabled": 0, "rental_uris": {"ios": "https://dc.lft.to/lastmile_qr_scan", "android": "https://dc.lft.to/lastmile_qr_scan"}, "is_reserved": 0, "fusion_lon": 0.0, "lat": 38.9190005, "type": "electric_scooter", "name": "586102d01dfff4f570258e2910acbbc1", "bike_id": "586102d01dfff4f570258e2910acbbc1", "fusion_lat": 0.0, "lon": -77.02310483333333}, {"is_disabled": 0, "rental_uris": {"ios": "https://dc.lft.to/lastmile_qr_scan", "android": "https://dc.lft.to/lastmile_qr_scan"}, "is_reserved": 0, "fusion_lon": 0.0, "lat": 38.900216, "type": "electric_scooter", "name": "3394b3b224d7edf468ba83da81eb1f17", "bike_id": "3394b3b224d7edf468ba83da81eb1f17", "fusion_lat": 0.0, "lon": -77.01186483333333}, {"is_disabled": 0, "rental_uris": {"ios": "https://dc.lft.to/lastmile_qr_scan", "android": "https://dc.lft.to/lastmile_qr_scan"}, "is_reserved": 0, "fusion_lon": 0.0, "lat": 38.922649666666665, "type": "electric_scooter", "name": "cf88db99d7ecc05f71b18fe51d07fdd0", "bike_id": "cf88db99d7ecc05f71b18fe51d07fdd0", "fusion_lat": 0.0, "lon": -77.0245055}, {"is_disabled": 0, "rental_uris": {"ios": "https://dc.lft.to/lastmile_qr_scan", "android": "https://dc.lft.to/lastmile_qr_scan"}, "is_reserved": 0, "fusion_lon": 0.0, "lat": 38.925484166666664, "type": "electric_scooter", "name": "364f931496b99003cd38c4c6fe2271a5", "bike_id": "364f931496b99003cd38c4c6fe2271a5", "fusion_lat": 0.0, "lon": -77.02264716666667}, {"is_disabled": 0, "rental_uris": {"ios": "https://dc.lft.to/lastmile_qr_scan", "android": "https://dc.lft.to/lastmile_qr_scan"}, "is_reserved": 0, "fusion_lon": 0.0, "lat": 38.91666466666667, "type": "electric_scooter", "name": "1d0bd7aa8059ab7ed44628ef60015bac", "bike_id": "1d0bd7aa8059ab7ed44628ef60015bac", "fusion_lat": 0.0, "lon": -77.02273283333334}, {"is_disabled": 0, "rental_uris": {"ios": "https://dc.lft.to/lastmile_qr_scan", "android": "https://dc.lft.to/lastmile_qr_scan"}, "is_reserved": 0, "fusion_lon": 0.0, "lat": 38.920311, "type": "electric_scooter", "name": "b2e0fd7bf147cf2b0aebdbced9e4c308", "bike_id": "b2e0fd7bf147cf2b0aebdbced9e4c308", "fusion_lat": 0.0, "lon": -77.0261155}, {"is_disabled": 0, "rental_uris": {"ios": "https://dc.lft.to/lastmile_qr_scan", "android": "https://dc.lft.to/lastmile_qr_scan"}, "is_reserved": 0, "fusion_lon": 0.0, "lat": 38.8992515, "type": "electric_scooter", "name": "bb1d4499e0b3a51029de3fef71f1a7f2", "bike_id": "bb1d4499e0b3a51029de3fef71f1a7f2", "fusion_lat": 0.0, "lon": -77.02191966666666}, {"is_disabled": 0, "rental_uris": {"ios": "https://dc.lft.to/lastmile_qr_scan", "android": "https://dc.lft.to/lastmile_qr_scan"}, "is_reserved": 0, "fusion_lon": 0.0, "lat": 38.908446166666664, "type": "electric_scooter", "name": "a76ebb7e3a14576f1887889856ef4838", "bike_id": "a76ebb7e3a14576f1887889856ef4838", "fusion_lat": 0.0, "lon": -76.93446966666667}, {"is_disabled": 0, "rental_uris": {"ios": "https://dc.lft.to/lastmile_qr_scan", "android": "https://dc.lft.to/lastmile_qr_scan"}, "is_reserved": 0, "fusion_lon": 0.0, "lat": 38.967987666666666, "type": "electric_scooter", "name": "de3c3eafea7931eef7d1bf7b4791cbf1", "bike_id": "de3c3eafea7931eef7d1bf7b4791cbf1", "fusion_lat": 0.0, "lon": -77.02437316666666}, {"is_disabled": 0, "rental_uris": {"ios": "https://dc.lft.to/lastmile_qr_scan", "android": "https://dc.lft.to/lastmile_qr_scan"}, "is_reserved": 0, "fusion_lon": 0.0, "lat": 38.89474333333333, "type": "electric_scooter", "name": "30bf553e65944a6686720cdeb2467b43", "bike_id": "30bf553e65944a6686720cdeb2467b43", "fusion_lat": 0.0, "lon": -77.0268025}, {"is_disabled": 0, "rental_uris": {"ios": "https://dc.lft.to/lastmile_qr_scan", "android": "https://dc.lft.to/lastmile_qr_scan"}, "is_reserved": 0, "fusion_lon": 0.0, "lat": 38.902655333333335, "type": "electric_bike", "name": "19bda51a8768fb3d59b347d4c9816ab1", "bike_id": "19bda51a8768fb3d59b347d4c9816ab1", "fusion_lat": 0.0, "lon": -77.00203583333334}, {"is_disabled": 0, "rental_uris": {"ios": "https://dc.lft.to/lastmile_qr_scan", "android": "https://dc.lft.to/lastmile_qr_scan"}, "is_reserved": 0, "fusion_lon": 0.0, "lat": 38.92324083333333, "type": "electric_scooter", "name": "24ed8575a1afd40eec9ff0626afcfa91", "bike_id": "24ed8575a1afd40eec9ff0626afcfa91", "fusion_lat": 0.0, "lon": -77.01960833333334}, {"is_disabled": 0, "rental_uris": {"ios": "https://dc.lft.to/lastmile_qr_scan", "android": "https://dc.lft.to/lastmile_qr_scan"}, "is_reserved": 0, "fusion_lon": 0.0, "lat": 38.9077245, "type": "electric_scooter", "name": "4747ec804641cc97479a0fdf6ee3d3ca", "bike_id": "4747ec804641cc97479a0fdf6ee3d3ca", "fusion_lat": 0.0, "lon": -77.042319}, {"is_disabled": 0, "rental_uris": {"ios": "https://dc.lft.to/lastmile_qr_scan", "android": "https://dc.lft.to/lastmile_qr_scan"}, "is_reserved": 0, "fusion_lon": 0.0, "lat": 38.89607183333333, "type": "electric_scooter", "name": "170dff8684d323d02db729097f98683d", "bike_id": "170dff8684d323d02db729097f98683d", "fusion_lat": 0.0, "lon": -76.97254533333333}, {"is_disabled": 0, "rental_uris": {"ios": "https://dc.lft.to/lastmile_qr_scan", "android": "https://dc.lft.to/lastmile_qr_scan"}, "is_reserved": 0, "fusion_lon": 0.0, "lat": 38.92121016666667, "type": "electric_scooter", "name": "7e8489578bcadf2ff31cba74971bfa29", "bike_id": "7e8489578bcadf2ff31cba74971bfa29", "fusion_lat": 0.0, "lon": -77.03662966666667}, {"is_disabled": 0, "rental_uris": {"ios": "https://dc.lft.to/lastmile_qr_scan", "android": "https://dc.lft.to/lastmile_qr_scan"}, "is_reserved": 0, "fusion_lon": 0.0, "lat": 38.904939166666665, "type": "electric_scooter", "name": "21ba324e8880602b4d6089d4a0be7d37", "bike_id": "21ba324e8880602b4d6089d4a0be7d37", "fusion_lat": 0.0, "lon": -76.94981983333334}, {"is_disabled": 0, "rental_uris": {"ios": "https://dc.lft.to/lastmile_qr_scan", "android": "https://dc.lft.to/lastmile_qr_scan"}, "is_reserved": 0, "fusion_lon": 0.0, "lat": 38.89217566666667, "type": "electric_scooter", "name": "9f67099989c046d2a5329a1d5ff88d90", "bike_id": "9f67099989c046d2a5329a1d5ff88d90", "fusion_lat": 0.0, "lon": -77.02375066666667}, {"is_disabled": 0, "rental_uris": {"ios": "https://dc.lft.to/lastmile_qr_scan", "android": "https://dc.lft.to/lastmile_qr_scan"}, "is_reserved": 0, "fusion_lon": 0.0, "lat": 38.9014635, "type": "electric_scooter", "name": "52da6d704053df841f1ddb90fb56214f", "bike_id": "52da6d704053df841f1ddb90fb56214f", "fusion_lat": 0.0, "lon": -77.04010733333334}, {"is_disabled": 0, "rental_uris": {"ios": "https://dc.lft.to/lastmile_qr_scan", "android": "https://dc.lft.to/lastmile_qr_scan"}, "is_reserved": 0, "fusion_lon": 0.0, "lat": 38.90853116666667, "type": "electric_scooter", "name": "1515505b225b63f292cee5bb32564e4b", "bike_id": "1515505b225b63f292cee5bb32564e4b", "fusion_lat": 0.0, "lon": -76.99803116666666}, {"is_disabled": 0, "rental_uris": {"ios": "https://dc.lft.to/lastmile_qr_scan", "android": "https://dc.lft.to/lastmile_qr_scan"}, "is_reserved": 0, "fusion_lon": 0.0, "lat": 38.924840333333336, "type": "electric_scooter", "name": "85321f63934f6f18e8b854a9d5b4338d", "bike_id": "85321f63934f6f18e8b854a9d5b4338d", "fusion_lat": 0.0, "lon": -77.022771}, {"is_disabled": 0, "rental_uris": {"ios": "https://dc.lft.to/lastmile_qr_scan", "android": "https://dc.lft.to/lastmile_qr_scan"}, "is_reserved": 0, "fusion_lon": 0.0, "lat": 38.905308166666664, "type": "electric_scooter", "name": "29cd54aca08fbe00cf8272db775eb865", "bike_id": "29cd54aca08fbe00cf8272db775eb865", "fusion_lat": 0.0, "lon": -77.065143}, {"is_disabled": 0, "rental_uris": {"ios": "https://dc.lft.to/lastmile_qr_scan", "android": "https://dc.lft.to/lastmile_qr_scan"}, "is_reserved": 0, "fusion_lon": 0.0, "lat": 38.9264425, "type": "electric_scooter", "name": "778a569f450c0fb1adf60f5eb9685d77", "bike_id": "778a569f450c0fb1adf60f5eb9685d77", "fusion_lat": 0.0, "lon": -77.03402816666667}, {"is_disabled": 0, "rental_uris": {"ios": "https://dc.lft.to/lastmile_qr_scan", "android": "https://dc.lft.to/lastmile_qr_scan"}, "is_reserved": 0, "fusion_lon": 0.0, "lat": 38.91329833333333, "type": "electric_scooter", "name": "33217b0269d433d3a919b8edb67505f0", "bike_id": "33217b0269d433d3a919b8edb67505f0", "fusion_lat": 0.0, "lon": -77.03727233333333}, {"is_disabled": 0, "rental_uris": {"ios": "https://dc.lft.to/lastmile_qr_scan", "android": "https://dc.lft.to/lastmile_qr_scan"}, "is_reserved": 0, "fusion_lon": 0.0, "lat": 38.94922283333333, "type": "electric_scooter", "name": "b9e1ffb863ec3b621c04ce6cb6ca38ac", "bike_id": "b9e1ffb863ec3b621c04ce6cb6ca38ac", "fusion_lat": 0.0, "lon": -77.02324283333333}, {"is_disabled": 0, "rental_uris": {"ios": "https://dc.lft.to/lastmile_qr_scan", "android": "https://dc.lft.to/lastmile_qr_scan"}, "is_reserved": 0, "fusion_lon": 0.0, "lat": 39.05204066666667, "type": "electric_bike", "name": "ecb87fc85784c8bdfb2e6195b1b23d37", "bike_id": "ecb87fc85784c8bdfb2e6195b1b23d37", "fusion_lat": 0.0, "lon": -77.10918533333333}, {"is_disabled": 0, "rental_uris": {"ios": "https://dc.lft.to/lastmile_qr_scan", "android": "https://dc.lft.to/lastmile_qr_scan"}, "is_reserved": 0, "fusion_lon": 0.0, "lat": 38.91253583333334, "type": "electric_scooter", "name": "fdd0e54118e85bd4cb864af3e91b1b25", "bike_id": "fdd0e54118e85bd4cb864af3e91b1b25", "fusion_lat": 0.0, "lon": -77.01155216666666}, {"is_disabled": 0, "rental_uris": {"ios": "https://dc.lft.to/lastmile_qr_scan", "android": "https://dc.lft.to/lastmile_qr_scan"}, "is_reserved": 0, "fusion_lon": 0.0, "lat": 38.91602283333334, "type": "electric_bike", "name": "722396efe0ae1613028e07fcb1b29fd6", "bike_id": "722396efe0ae1613028e07fcb1b29fd6", "fusion_lat": 0.0, "lon": -77.023949}, {"is_disabled": 0, "rental_uris": {"ios": "https://dc.lft.to/lastmile_qr_scan", "android": "https://dc.lft.to/lastmile_qr_scan"}, "is_reserved": 0, "fusion_lon": 0.0, "lat": 38.88476983333334, "type": "electric_scooter", "name": "71b49654170d2e18860c228af2bd4ed5", "bike_id": "71b49654170d2e18860c228af2bd4ed5", "fusion_lat": 0.0, "lon": -77.026518}, {"is_disabled": 0, "rental_uris": {"ios": "https://dc.lft.to/lastmile_qr_scan", "android": "https://dc.lft.to/lastmile_qr_scan"}, "is_reserved": 0, "fusion_lon": 0.0, "lat": 38.904732833333334, "type": "electric_scooter", "name": "78a17fdb9c153500b688116983990ba6", "bike_id": "78a17fdb9c153500b688116983990ba6", "fusion_lat": 0.0, "lon": -77.02914716666666}, {"is_disabled": 0, "rental_uris": {"ios": "https://dc.lft.to/lastmile_qr_scan", "android": "https://dc.lft.to/lastmile_qr_scan"}, "is_reserved": 0, "fusion_lon": 0.0, "lat": 38.91604, "type": "electric_scooter", "name": "2e7e0d27526c985658323515c4a64a21", "bike_id": "2e7e0d27526c985658323515c4a64a21", "fusion_lat": 0.0, "lon": -77.0488025}, {"is_disabled": 0, "rental_uris": {"ios": "https://dc.lft.to/lastmile_qr_scan", "android": "https://dc.lft.to/lastmile_qr_scan"}, "is_reserved": 0, "fusion_lon": 0.0, "lat": 38.921154, "type": "electric_scooter", "name": "c406e4663745607f0050f1b411b903b2", "bike_id": "c406e4663745607f0050f1b411b903b2", "fusion_lat": 0.0, "lon": -77.02066316666667}, {"is_disabled": 0, "rental_uris": {"ios": "https://dc.lft.to/lastmile_qr_scan", "android": "https://dc.lft.to/lastmile_qr_scan"}, "is_reserved": 0, "fusion_lon": 0.0, "lat": 38.903052333333335, "type": "electric_scooter", "name": "6404af3413edebab1c4638c1bfb401c8", "bike_id": "6404af3413edebab1c4638c1bfb401c8", "fusion_lat": 0.0, "lon": -77.0495875}, {"is_disabled": 0, "rental_uris": {"ios": "https://dc.lft.to/lastmile_qr_scan", "android": "https://dc.lft.to/lastmile_qr_scan"}, "is_reserved": 0, "fusion_lon": 0.0, "lat": 38.91738566666667, "type": "electric_scooter", "name": "1f3bf375a651a361f7f2faa128fc7162", "bike_id": "1f3bf375a651a361f7f2faa128fc7162", "fusion_lat": 0.0, "lon": -77.0250265}, {"is_disabled": 0, "rental_uris": {"ios": "https://dc.lft.to/lastmile_qr_scan", "android": "https://dc.lft.to/lastmile_qr_scan"}, "is_reserved": 0, "fusion_lon": 0.0, "lat": 38.915709666666665, "type": "electric_scooter", "name": "b144d687ce42474d5a8a63d22a22f6b8", "bike_id": "b144d687ce42474d5a8a63d22a22f6b8", "fusion_lat": 0.0, "lon": -77.02410666666667}, {"is_disabled": 0, "rental_uris": {"ios": "https://dc.lft.to/lastmile_qr_scan", "android": "https://dc.lft.to/lastmile_qr_scan"}, "is_reserved": 0, "fusion_lon": 0.0, "lat": 38.89222433333333, "type": "electric_scooter", "name": "5253a4baa4f843fee19dcd21239e983e", "bike_id": "5253a4baa4f843fee19dcd21239e983e", "fusion_lat": 0.0, "lon": -77.04639766666666}, {"is_disabled": 0, "rental_uris": {"ios": "https://dc.lft.to/lastmile_qr_scan", "android": "https://dc.lft.to/lastmile_qr_scan"}, "is_reserved": 0, "fusion_lon": 0.0, "lat": 38.89756033333333, "type": "electric_scooter", "name": "f63844f9ed1f9637b84195600e0951bf", "bike_id": "f63844f9ed1f9637b84195600e0951bf", "fusion_lat": 0.0, "lon": -77.02497016666666}, {"is_disabled": 0, "rental_uris": {"ios": "https://dc.lft.to/lastmile_qr_scan", "android": "https://dc.lft.to/lastmile_qr_scan"}, "is_reserved": 0, "fusion_lon": 0.0, "lat": 38.9492145, "type": "electric_scooter", "name": "e704bb8625e31d03d8d1d0332677d818", "bike_id": "e704bb8625e31d03d8d1d0332677d818", "fusion_lat": 0.0, "lon": -77.01863333333333}, {"is_disabled": 0, "rental_uris": {"ios": "https://dc.lft.to/lastmile_qr_scan", "android": "https://dc.lft.to/lastmile_qr_scan"}, "is_reserved": 0, "fusion_lon": 0.0, "lat": 38.900605166666665, "type": "electric_scooter", "name": "10fe35e2aeaf5c3a94728fb1d3c06f03", "bike_id": "10fe35e2aeaf5c3a94728fb1d3c06f03", "fusion_lat": 0.0, "lon": -76.99634216666666}, {"is_disabled": 0, "rental_uris": {"ios": "https://dc.lft.to/lastmile_qr_scan", "android": "https://dc.lft.to/lastmile_qr_scan"}, "is_reserved": 0, "fusion_lon": 0.0, "lat": 38.95639883333333, "type": "electric_scooter", "name": "5933aa7148ff347ccb36ff4f40269117", "bike_id": "5933aa7148ff347ccb36ff4f40269117", "fusion_lat": 0.0, "lon": -77.01949}, {"is_disabled": 0, "rental_uris": {"ios": "https://dc.lft.to/lastmile_qr_scan", "android": "https://dc.lft.to/lastmile_qr_scan"}, "is_reserved": 0, "fusion_lon": 0.0, "lat": 38.89239233333333, "type": "electric_scooter", "name": "af0973167a0b77a8b8a6568a9c46a898", "bike_id": "af0973167a0b77a8b8a6568a9c46a898", "fusion_lat": 0.0, "lon": -77.04185583333333}, {"is_disabled": 0, "rental_uris": {"ios": "https://dc.lft.to/lastmile_qr_scan", "android": "https://dc.lft.to/lastmile_qr_scan"}, "is_reserved": 0, "fusion_lon": 0.0, "lat": 38.90128266666667, "type": "electric_scooter", "name": "78def7226ef756a6a6cc882d2fd310bd", "bike_id": "78def7226ef756a6a6cc882d2fd310bd", "fusion_lat": 0.0, "lon": -77.01245783333333}, {"is_disabled": 0, "rental_uris": {"ios": "https://dc.lft.to/lastmile_qr_scan", "android": "https://dc.lft.to/lastmile_qr_scan"}, "is_reserved": 0, "fusion_lon": 0.0, "lat": 38.9248395, "type": "electric_scooter", "name": "df38df118d5b7e66b2d215d5e057fd58", "bike_id": "df38df118d5b7e66b2d215d5e057fd58", "fusion_lat": 0.0, "lon": -77.02164683333334}, {"is_disabled": 0, "rental_uris": {"ios": "https://dc.lft.to/lastmile_qr_scan", "android": "https://dc.lft.to/lastmile_qr_scan"}, "is_reserved": 0, "fusion_lon": 0.0, "lat": 38.91840966666667, "type": "electric_scooter", "name": "81266b2fc6c9236893e078d19294cea1", "bike_id": "81266b2fc6c9236893e078d19294cea1", "fusion_lat": 0.0, "lon": -77.04026233333333}, {"is_disabled": 0, "rental_uris": {"ios": "https://dc.lft.to/lastmile_qr_scan", "android": "https://dc.lft.to/lastmile_qr_scan"}, "is_reserved": 0, "fusion_lon": 0.0, "lat": 38.931940166666664, "type": "electric_scooter", "name": "6eb4532e7401fc0e0d9e87f71ab26ec2", "bike_id": "6eb4532e7401fc0e0d9e87f71ab26ec2", "fusion_lat": 0.0, "lon": -77.02022183333334}, {"is_disabled": 0, "rental_uris": {"ios": "https://dc.lft.to/lastmile_qr_scan", "android": "https://dc.lft.to/lastmile_qr_scan"}, "is_reserved": 0, "fusion_lon": 0.0, "lat": 38.900126666666665, "type": "electric_scooter", "name": "d7b11ea0fae09abda6cde4b846c6864d", "bike_id": "d7b11ea0fae09abda6cde4b846c6864d", "fusion_lat": 0.0, "lon": -77.0449325}, {"is_disabled": 0, "rental_uris": {"ios": "https://dc.lft.to/lastmile_qr_scan", "android": "https://dc.lft.to/lastmile_qr_scan"}, "is_reserved": 0, "fusion_lon": 0.0, "lat": 38.92472733333334, "type": "electric_scooter", "name": "05ababe82a0dc3c44a56e67fb3e993db", "bike_id": "05ababe82a0dc3c44a56e67fb3e993db", "fusion_lat": 0.0, "lon": -77.02200416666666}, {"is_disabled": 0, "rental_uris": {"ios": "https://dc.lft.to/lastmile_qr_scan", "android": "https://dc.lft.to/lastmile_qr_scan"}, "is_reserved": 0, "fusion_lon": 0.0, "lat": 38.921264666666666, "type": "electric_scooter", "name": "2507c6326d1ba5413e8e37230de89823", "bike_id": "2507c6326d1ba5413e8e37230de89823", "fusion_lat": 0.0, "lon": -77.02074816666666}, {"is_disabled": 0, "rental_uris": {"ios": "https://dc.lft.to/lastmile_qr_scan", "android": "https://dc.lft.to/lastmile_qr_scan"}, "is_reserved": 0, "fusion_lon": 0.0, "lat": 38.877485166666666, "type": "electric_scooter", "name": "b0ebc399e35283209185f2ab3dead164", "bike_id": "b0ebc399e35283209185f2ab3dead164", "fusion_lat": 0.0, "lon": -77.01774216666666}, {"is_disabled": 0, "rental_uris": {"ios": "https://dc.lft.to/lastmile_qr_scan", "android": "https://dc.lft.to/lastmile_qr_scan"}, "is_reserved": 0, "fusion_lon": 0.0, "lat": 38.942736333333336, "type": "electric_scooter", "name": "0d1db5f665814d4b9bd205e3c0d4d488", "bike_id": "0d1db5f665814d4b9bd205e3c0d4d488", "fusion_lat": 0.0, "lon": -77.02945416666667}, {"is_disabled": 0, "rental_uris": {"ios": "https://dc.lft.to/lastmile_qr_scan", "android": "https://dc.lft.to/lastmile_qr_scan"}, "is_reserved": 0, "fusion_lon": 0.0, "lat": 38.89251066666667, "type": "electric_scooter", "name": "aa4db8f33f8172a9dd73fada3de50f24", "bike_id": "aa4db8f33f8172a9dd73fada3de50f24", "fusion_lat": 0.0, "lon": -77.04665133333333}, {"is_disabled": 0, "rental_uris": {"ios": "https://dc.lft.to/lastmile_qr_scan", "android": "https://dc.lft.to/lastmile_qr_scan"}, "is_reserved": 0, "fusion_lon": 0.0, "lat": 38.88363566666666, "type": "electric_scooter", "name": "175294cc484585cb57d48791bdf60932", "bike_id": "175294cc484585cb57d48791bdf60932", "fusion_lat": 0.0, "lon": -77.02637783333333}, {"is_disabled": 0, "rental_uris": {"ios": "https://dc.lft.to/lastmile_qr_scan", "android": "https://dc.lft.to/lastmile_qr_scan"}, "is_reserved": 0, "fusion_lon": 0.0, "lat": 38.884884166666666, "type": "electric_scooter", "name": "6967b29ff25e401389cef2af5f2c911b", "bike_id": "6967b29ff25e401389cef2af5f2c911b", "fusion_lat": 0.0, "lon": -77.00714383333333}, {"is_disabled": 0, "rental_uris": {"ios": "https://dc.lft.to/lastmile_qr_scan", "android": "https://dc.lft.to/lastmile_qr_scan"}, "is_reserved": 0, "fusion_lon": 0.0, "lat": 38.92202416666667, "type": "electric_scooter", "name": "d04b80ad3b1c7980b71c6938929f45b6", "bike_id": "d04b80ad3b1c7980b71c6938929f45b6", "fusion_lat": 0.0, "lon": -77.037945}, {"is_disabled": 0, "rental_uris": {"ios": "https://dc.lft.to/lastmile_qr_scan", "android": "https://dc.lft.to/lastmile_qr_scan"}, "is_reserved": 0, "fusion_lon": 0.0, "lat": 38.92313816666667, "type": "electric_scooter", "name": "76de60bf38116c31b45392b537268f6d", "bike_id": "76de60bf38116c31b45392b537268f6d", "fusion_lat": 0.0, "lon": -77.02905466666667}, {"is_disabled": 0, "rental_uris": {"ios": "https://dc.lft.to/lastmile_qr_scan", "android": "https://dc.lft.to/lastmile_qr_scan"}, "is_reserved": 0, "fusion_lon": 0.0, "lat": 38.89345566666667, "type": "electric_scooter", "name": "3d5fe0aaefa4f5ed9dcb3d615205535e", "bike_id": "3d5fe0aaefa4f5ed9dcb3d615205535e", "fusion_lat": 0.0, "lon": -77.04643483333334}, {"is_disabled": 0, "rental_uris": {"ios": "https://dc.lft.to/lastmile_qr_scan", "android": "https://dc.lft.to/lastmile_qr_scan"}, "is_reserved": 0, "fusion_lon": 0.0, "lat": 38.887377, "type": "electric_scooter", "name": "36334cecfc9ab21ab9c3c825b368d811", "bike_id": "36334cecfc9ab21ab9c3c825b368d811", "fusion_lat": 0.0, "lon": -77.0220455}, {"is_disabled": 0, "rental_uris": {"ios": "https://dc.lft.to/lastmile_qr_scan", "android": "https://dc.lft.to/lastmile_qr_scan"}, "is_reserved": 0, "fusion_lon": 0.0, "lat": 38.90144316666667, "type": "electric_scooter", "name": "bde04d6a3146eb6ba96d460498a951ab", "bike_id": "bde04d6a3146eb6ba96d460498a951ab", "fusion_lat": 0.0, "lon": -77.03959966666666}, {"is_disabled": 0, "rental_uris": {"ios": "https://dc.lft.to/lastmile_qr_scan", "android": "https://dc.lft.to/lastmile_qr_scan"}, "is_reserved": 0, "fusion_lon": 0.0, "lat": 38.91921, "type": "electric_scooter", "name": "99d536810c4ae9552a69be5d72cabdb7", "bike_id": "99d536810c4ae9552a69be5d72cabdb7", "fusion_lat": 0.0, "lon": -77.03105333333333}, {"is_disabled": 0, "rental_uris": {"ios": "https://dc.lft.to/lastmile_qr_scan", "android": "https://dc.lft.to/lastmile_qr_scan"}, "is_reserved": 0, "fusion_lon": 0.0, "lat": 38.894702333333335, "type": "electric_bike", "name": "b2ae0084979cf478a2e21e1a37cd06fe", "bike_id": "b2ae0084979cf478a2e21e1a37cd06fe", "fusion_lat": 0.0, "lon": -77.1912335}, {"is_disabled": 0, "rental_uris": {"ios": "https://dc.lft.to/lastmile_qr_scan", "android": "https://dc.lft.to/lastmile_qr_scan"}, "is_reserved": 0, "fusion_lon": 0.0, "lat": 38.8818905, "type": "electric_scooter", "name": "cf1383fec0797150d04d03505659eae9", "bike_id": "cf1383fec0797150d04d03505659eae9", "fusion_lat": 0.0, "lon": -77.017465}, {"is_disabled": 0, "rental_uris": {"ios": "https://dc.lft.to/lastmile_qr_scan", "android": "https://dc.lft.to/lastmile_qr_scan"},