{"data": {"bikes": [{"is_reserved": 0, "bike_id": "a949b0ff637682bbc996a46e42908d85", "type": "electric_scooter", "name": "a949b0ff637682bbc996a46e42908d85", "is_disabled": 0, "fusion_lon": 0.0, "rental_uris": {"android": "https://dc.lft.to/lastmile_qr_scan", "ios": "https://dc.lft.to/lastmile_qr_scan"}, "lat": 38.909739, "lon": -77.00907466666666, "fusion_lat": 0.0}, {"is_reserved": 0, "bike_id": "0adc216bccaa24c2c710291fb749a4b1", "type": "electric_bike", "name": "0adc216bccaa24c2c710291fb749a4b1", "is_disabled": 0, "fusion_lon": 0.0, "rental_uris": {"android": "https://dc.lft.to/lastmile_qr_scan", "ios": "https://dc.lft.to/lastmile_qr_scan"}, "lat": 38.838288166666665, "lon": -77.07912983333334, "fusion_lat": 0.0}, {"is_reserved": 0, "bike_id": "d4732dd853c6dc64d28f220fa10bdb43", "type": "electric_scooter", "name": "d4732dd853c6dc64d28f220fa10bdb43", "is_disabled": 0, "fusion_lon": 0.0, "rental_uris": {"android": "https://dc.lft.to/lastmile_qr_scan", "ios": "https://dc.lft.to/lastmile_qr_scan"}, "lat": 38.92648533333333, "lon": -77.03710733333334, "fusion_lat": 0.0}, {"is_reserved": 0, "bike_id": "143c0e4cab32f12b975d3dd94f40723f", "type": "electric_bike", "name": "143c0e4cab32f12b975d3dd94f40723f", "is_disabled": 0, "fusion_lon": 0.0, "rental_uris": {"android": "https://dc.lft.to/lastmile_qr_scan", "ios": "https://dc.lft.to/lastmile_qr_scan"}, "lat": 38.92893483333334, "lon": -77.23178516666667, "fusion_lat": 0.0}, {"is_reserved": 0, "bike_id": "6a2186f4b643dab8ebd5784aab588f78", "type": "electric_scooter", "name": "6a2186f4b643dab8ebd5784aab588f78", "is_disabled": 0, "fusion_lon": 0.0, "rental_uris": {"android": "https://dc.lft.to/lastmile_qr_scan", "ios": "https://dc.lft.to/lastmile_qr_scan"}, "lat": 38.91814183333334, "lon": -77.04171483333333, "fusion_lat": 0.0}, {"is_reserved": 0, "bike_id": "1dc3c9bcc8bed9e02eef225ca49e9151", "type": "electric_scooter", "name": "1dc3c9bcc8bed9e02eef225ca49e9151", "is_disabled": 0, "fusion_lon": 0.0, "rental_uris": {"android": "https://dc.lft.to/lastmile_qr_scan", "ios": "https://dc.lft.to/lastmile_qr_scan"}, "lat": 38.922446666666666, "lon": -77.03072916666666, "fusion_lat": 0.0}, {"is_reserved": 0, "bike_id": "b3804056b209fe3a8d33cfe31c312ca8", "type": "electric_scooter", "name": "b3804056b209fe3a8d33cfe31c312ca8", "is_disabled": 0, "fusion_lon": 0.0, "rental_uris": {"android": "https://dc.lft.to/lastmile_qr_scan", "ios": "https://dc.lft.to/lastmile_qr_scan"}, "lat": 38.93507816666666, "lon": -77.03291283333333, "fusion_lat": 0.0}, {"is_reserved": 0, "bike_id": "4a6b9474458c4f4b912d12742df23b5f", "type": "electric_scooter", "name": "4a6b9474458c4f4b912d12742df23b5f", "is_disabled": 0, "fusion_lon": 0.0, "rental_uris": {"android": "https://dc.lft.to/lastmile_qr_scan", "ios": "https://dc.lft.to/lastmile_qr_scan"}, "lat": 38.899187, "lon": -77.0391865, "fusion_lat": 0.0}, {"is_reserved": 0, "bike_id": "4f5684082a4f6d98e25b63d55ecea6cf", "type": "electric_bike", "name": "4f5684082a4f6d98e25b63d55ecea6cf", "is_disabled": 0, "fusion_lon": 0.0, "rental_uris": {"android": "https://dc.lft.to/lastmile_qr_scan", "ios": "https://dc.lft.to/lastmile_qr_scan"}, "lat": 38.909715166666665, "lon": -77.08824466666667, "fusion_lat": 0.0}, {"is_reserved": 0, "bike_id": "9dfe85ad1d5132e74ffddecd43f21e10", "type": "electric_scooter", "name": "9dfe85ad1d5132e74ffddecd43f21e10", "is_disabled": 0, "fusion_lon": 0.0, "rental_uris": {"android": "https://dc.lft.to/lastmile_qr_scan", "ios": "https://dc.lft.to/lastmile_qr_scan"}, "lat": 38.958132666666664, "lon": -77.01454183333334, "fusion_lat": 0.0}, {"is_reserved": 0, "bike_id": "c818cbddebae8e28233f69162b4786eb", "type": "electric_scooter", "name": "c818cbddebae8e28233f69162b4786eb", "is_disabled": 0, "fusion_lon": 0.0, "rental_uris": {"android": "https://dc.lft.to/lastmile_qr_scan", "ios": "https://dc.lft.to/lastmile_qr_scan"}, "lat": 38.92154166666667, "lon": -77.0338155, "fusion_lat": 0.0}, {"is_reserved": 0, "bike_id": "166d9ef980e346457141b607af902fb7", "type": "electric_scooter", "name": "166d9ef980e346457141b607af902fb7", "is_disabled": 0, "fusion_lon": 0.0, "rental_uris": {"android": "https://dc.lft.to/lastmile_qr_scan", "ios": "https://dc.lft.to/lastmile_qr_scan"}, "lat": 38.8863755, "lon": -77.00100916666666, "fusion_lat": 0.0}, {"is_reserved": 0, "bike_id": "4a3b4d8994090638957bb38d511dac74", "type": "electric_scooter", "name": "4a3b4d8994090638957bb38d511dac74", "is_disabled": 0, "fusion_lon": 0.0, "rental_uris": {"android": "https://dc.lft.to/lastmile_qr_scan", "ios": "https://dc.lft.to/lastmile_qr_scan"}, "lat": 38.92195916666667, "lon": -77.0351675, "fusion_lat": 0.0}, {"is_reserved": 0, "bike_id": "2ea660c91381299b97e796b651207b07", "type": "electric_scooter", "name": "2ea660c91381299b97e796b651207b07", "is_disabled": 0, "fusion_lon": 0.0, "rental_uris": {"android": "https://dc.lft.to/lastmile_qr_scan", "ios": "https://dc.lft.to/lastmile_qr_scan"}, "lat": 38.901274666666666, "lon": -77.04341, "fusion_lat": 0.0}, {"is_reserved": 0, "bike_id": "91b0cebb2a78cfe37e51b480bd692683", "type": "electric_bike", "name": "91b0cebb2a78cfe37e51b480bd692683", "is_disabled": 0, "fusion_lon": 0.0, "rental_uris": {"android": "https://dc.lft.to/lastmile_qr_scan", "ios": "https://dc.lft.to/lastmile_qr_scan"}, "lat": 38.8313385, "lon": -77.11315083333334, "fusion_lat": 0.0}, {"is_reserved": 0, "bike_id": "aab06a42fbbae8e290b2f715f67c47ba", "type": "electric_scooter", "name": "aab06a42fbbae8e290b2f715f67c47ba", "is_disabled": 0, "fusion_lon": 0.0, "rental_uris": {"android": "https://dc.lft.to/lastmile_qr_scan", "ios": "https://dc.lft.to/lastmile_qr_scan"}, "lat": 38.920959833333335, "lon": -77.02247916666667, "fusion_lat": 0.0}, {"is_reserved": 0, "bike_id": "a3d966141060c0472cda9466f45a0033", "type": "electric_scooter", "name": "a3d966141060c0472cda9466f45a0033", "is_disabled": 0, "fusion_lon": 0.0, "rental_uris": {"android": "https://dc.lft.to/lastmile_qr_scan", "ios": "https://dc.lft.to/lastmile_qr_scan"}, "lat": 38.900408166666665, "lon": -77.02289116666667, "fusion_lat": 0.0}, {"is_reserved": 0, "bike_id": "0a6ee1d8b22e5e3a7e7cf49414ff1d12", "type": "electric_scooter", "name": "0a6ee1d8b22e5e3a7e7cf49414ff1d12", "is_disabled": 0, "fusion_lon": 0.0, "rental_uris": {"android": "https://dc.lft.to/lastmile_qr_scan", "ios": "https://dc.lft.to/lastmile_qr_scan"}, "lat": 38.91562366666667, "lon": -77.02728333333333, "fusion_lat": 0.0}, {"is_reserved": 0, "bike_id": "f4053c05c1b77c32e0448d5e49e66c10", "type": "electric_scooter", "name": "f4053c05c1b77c32e0448d5e49e66c10", "is_disabled": 0, "fusion_lon": 0.0, "rental_uris": {"android": "https://dc.lft.to/lastmile_qr_scan", "ios": "https://dc.lft.to/lastmile_qr_scan"}, "lat": 38.93533083333333, "lon": -77.02350433333334, "fusion_lat": 0.0}, {"is_reserved": 0, "bike_id": "bf6223333c1753f00fa6f7c7092967c7", "type": "electric_scooter", "name": "bf6223333c1753f00fa6f7c7092967c7", "is_disabled": 0, "fusion_lon": 0.0, "rental_uris": {"android": "https://dc.lft.to/lastmile_qr_scan", "ios": "https://dc.lft.to/lastmile_qr_scan"}, "lat": 38.9007345, "lon": -77.0198, "fusion_lat": 0.0}, {"is_reserved": 0, "bike_id": "6990121ceafb39a229630a85164f9da0", "type": "electric_bike", "name": "6990121ceafb39a229630a85164f9da0", "is_disabled": 0, "fusion_lon": 0.0, "rental_uris": {"android": "https://dc.lft.to/lastmile_qr_scan", "ios": "https://dc.lft.to/lastmile_qr_scan"}, "lat": 38.836882333333335, "lon": -77.10324866666667, "fusion_lat": 0.0}, {"is_reserved": 0, "bike_id": "57e2dfe6d7b74ddc37cb20e249165703", "type": "electric_scooter", "name": "57e2dfe6d7b74ddc37cb20e249165703", "is_disabled": 0, "fusion_lon": 0.0, "rental_uris": {"android": "https://dc.lft.to/lastmile_qr_scan", "ios": "https://dc.lft.to/lastmile_qr_scan"}, "lat": 38.94206583333333, "lon": -77.01656733333333, "fusion_lat": 0.0}, {"is_reserved": 0, "bike_id": "f7f7d32d38104b4acb6b905f425c0152", "type": "electric_scooter", "name": "f7f7d32d38104b4acb6b905f425c0152", "is_disabled": 0, "fusion_lon": 0.0, "rental_uris": {"android": "https://dc.lft.to/lastmile_qr_scan", "ios": "https://dc.lft.to/lastmile_qr_scan"}, "lat": 38.876361333333335, "lon": -76.992955, "fusion_lat": 0.0}, {"is_reserved": 0, "bike_id": "941c01b6d5c31974f96b718b6abcd4bc", "type": "electric_scooter", "name": "941c01b6d5c31974f96b718b6abcd4bc", "is_disabled": 0, "fusion_lon": 0.0, "rental_uris": {"android": "https://dc.lft.to/lastmile_qr_scan", "ios": "https://dc.lft.to/lastmile_qr_scan"}, "lat": 38.922291333333334, "lon": -77.02348866666667, "fusion_lat": 0.0}, {"is_reserved": 0, "bike_id": "6066c3f5ccd3efd3872dadeba17c4b4d", "type": "electric_scooter", "name": "6066c3f5ccd3efd3872dadeba17c4b4d", "is_disabled": 0, "fusion_lon": 0.0, "rental_uris": {"android": "https://dc.lft.to/lastmile_qr_scan", "ios": "https://dc.lft.to/lastmile_qr_scan"}, "lat": 38.90109783333333, "lon": -77.0409815, "fusion_lat": 0.0}, {"is_reserved": 0, "bike_id": "a189cb22971621a92e7031f1e019a5bf", "type": "electric_scooter", "name": "a189cb22971621a92e7031f1e019a5bf", "is_disabled": 0, "fusion_lon": 0.0, "rental_uris": {"android": "https://dc.lft.to/lastmile_qr_scan", "ios": "https://dc.lft.to/lastmile_qr_scan"}, "lat": 38.902879, "lon": -77.03655033333334, "fusion_lat": 0.0}, {"is_reserved": 0, "bike_id": "a447ffd1db3048aecdd9d9fe1222483a", "type": "electric_scooter", "name": "a447ffd1db3048aecdd9d9fe1222483a", "is_disabled": 0, "fusion_lon": 0.0, "rental_uris": {"android": "https://dc.lft.to/lastmile_qr_scan", "ios": "https://dc.lft.to/lastmile_qr_scan"}, "lat": 38.917012666666665, "lon": -77.0239615, "fusion_lat": 0.0}, {"is_reserved": 0, "bike_id": "5128c8071bcc7cae0c2c4c4510b64902", "type": "electric_scooter", "name": "5128c8071bcc7cae0c2c4c4510b64902", "is_disabled": 0, "fusion_lon": 0.0, "rental_uris": {"android": "https://dc.lft.to/lastmile_qr_scan", "ios": "https://dc.lft.to/lastmile_qr_scan"}, "lat": 38.89665083333333, "lon": -77.03215216666666, "fusion_lat": 0.0}, {"is_reserved": 0, "bike_id": "9c9fd41ce0bf9f617235c6caa53c6a28", "type": "electric_scooter", "name": "9c9fd41ce0bf9f617235c6caa53c6a28", "is_disabled": 0, "fusion_lon": 0.0, "rental_uris": {"android": "https://dc.lft.to/lastmile_qr_scan", "ios": "https://dc.lft.to/lastmile_qr_scan"}, "lat": 38.92879683333334, "lon": -77.03474683333333, "fusion_lat": 0.0}, {"is_reserved": 0, "bike_id": "61fe4ff7a3aa9dd2832b46b5c2fd3a6b", "type": "electric_scooter", "name": "61fe4ff7a3aa9dd2832b46b5c2fd3a6b", "is_disabled": 0, "fusion_lon": 0.0, "rental_uris": {"android": "https://dc.lft.to/lastmile_qr_scan", "ios": "https://dc.lft.to/lastmile_qr_scan"}, "lat": 38.92157616666667, "lon": -77.04234466666666, "fusion_lat": 0.0}, {"is_reserved": 0, "bike_id": "d00d6189b883b21f4c7164897e68e443", "type": "electric_scooter", "name": "d00d6189b883b21f4c7164897e68e443", "is_disabled": 0, "fusion_lon": 0.0, "rental_uris": {"android": "https://dc.lft.to/lastmile_qr_scan", "ios": "https://dc.lft.to/lastmile_qr_scan"}, "lat": 38.876738833333334, "lon": -77.0034185, "fusion_lat": 0.0}, {"is_reserved": 0, "bike_id": "3e2964cee711b8d759416dc6f01f7f98", "type": "electric_scooter", "name": "3e2964cee711b8d759416dc6f01f7f98", "is_disabled": 0, "fusion_lon": 0.0, "rental_uris": {"android": "https://dc.lft.to/lastmile_qr_scan", "ios": "https://dc.lft.to/lastmile_qr_scan"}, "lat": 38.9127405, "lon": -77.02389866666667, "fusion_lat": 0.0}, {"is_reserved": 0, "bike_id": "69e81ef87c0dcacc4ab326c920ff9329", "type": "electric_scooter", "name": "69e81ef87c0dcacc4ab326c920ff9329", "is_disabled": 0, "fusion_lon": 0.0, "rental_uris": {"android": "https://dc.lft.to/lastmile_qr_scan", "ios": "https://dc.lft.to/lastmile_qr_scan"}, "lat": 38.923337, "lon": -77.0361565, "fusion_lat": 0.0}, {"is_reserved": 0, "bike_id": "ef81d06b2c48e16c06a9125d062ca5f8", "type": "electric_scooter", "name": "ef81d06b2c48e16c06a9125d062ca5f8", "is_disabled": 0, "fusion_lon": 0.0, "rental_uris": {"android": "https://dc.lft.to/lastmile_qr_scan", "ios": "https://dc.lft.to/lastmile_qr_scan"}, "lat": 38.90414283333333, "lon": -77.06287883333333, "fusion_lat": 0.0}, {"is_reserved": 0, "bike_id": "38b189f20d317bb23271d7da1ccd40e8", "type": "electric_scooter", "name": "38b189f20d317bb23271d7da1ccd40e8", "is_disabled": 0, "fusion_lon": 0.0, "rental_uris": {"android": "https://dc.lft.to/lastmile_qr_scan", "ios": "https://dc.lft.to/lastmile_qr_scan"}, "lat": 38.8874825, "lon": -77.03151383333334, "fusion_lat": 0.0}, {"is_reserved": 0, "bike_id": "549719f058c9e50052f8fc765db652e0", "type": "electric_scooter", "name": "549719f058c9e50052f8fc765db652e0", "is_disabled": 0, "fusion_lon": 0.0, "rental_uris": {"android": "https://dc.lft.to/lastmile_qr_scan", "ios": "https://dc.lft.to/lastmile_qr_scan"}, "lat": 38.924624, "lon": -77.02996833333333, "fusion_lat": 0.0}, {"is_reserved": 0, "bike_id": "763d004c1ca62b775e118413484dce0e", "type": "electric_bike", "name": "763d004c1ca62b775e118413484dce0e", "is_disabled": 0, "fusion_lon": 0.0, "rental_uris": {"android": "https://dc.lft.to/lastmile_qr_scan", "ios": "https://dc.lft.to/lastmile_qr_scan"}, "lat": 38.950742, "lon": -76.996034, "fusion_lat": 0.0}, {"is_reserved": 0, "bike_id": "a4d6c163b0cf06e799f27d3a08943827", "type": "electric_scooter", "name": "a4d6c163b0cf06e799f27d3a08943827", "is_disabled": 0, "fusion_lon": 0.0, "rental_uris": {"android": "https://dc.lft.to/lastmile_qr_scan", "ios": "https://dc.lft.to/lastmile_qr_scan"}, "lat": 38.901494666666665, "lon": -77.041678, "fusion_lat": 0.0}, {"is_reserved": 0, "bike_id": "34062f2878c3cc1583ab80ea9745adf7", "type": "electric_scooter", "name": "34062f2878c3cc1583ab80ea9745adf7", "is_disabled": 0, "fusion_lon": 0.0, "rental_uris": {"android": "https://dc.lft.to/lastmile_qr_scan", "ios": "https://dc.lft.to/lastmile_qr_scan"}, "lat": 38.904005166666664, "lon": -77.06839566666666, "fusion_lat": 0.0}, {"is_reserved": 0, "bike_id": "6b1231d1c089cce0812052afff143f2e", "type": "electric_scooter", "name": "6b1231d1c089cce0812052afff143f2e", "is_disabled": 0, "fusion_lon": 0.0, "rental_uris": {"android": "https://dc.lft.to/lastmile_qr_scan", "ios": "https://dc.lft.to/lastmile_qr_scan"}, "lat": 38.9065175, "lon": -77.01104266666667, "fusion_lat": 0.0}, {"is_reserved": 0, "bike_id": "7cc93fbee0e20c189b622ea4e089ef47", "type": "electric_scooter", "name": "7cc93fbee0e20c189b622ea4e089ef47", "is_disabled": 0, "fusion_lon": 0.0, "rental_uris": {"android": "https://dc.lft.to/lastmile_qr_scan", "ios": "https://dc.lft.to/lastmile_qr_scan"}, "lat": 38.916486666666664, "lon": -77.0288215, "fusion_lat": 0.0}, {"is_reserved": 0, "bike_id": "6c6ea230c3f09d141c7405a1768841e3", "type": "electric_bike", "name": "6c6ea230c3f09d141c7405a1768841e3", "is_disabled": 0, "fusion_lon": 0.0, "rental_uris": {"android": "https://dc.lft.to/lastmile_qr_scan", "ios": "https://dc.lft.to/lastmile_qr_scan"}, "lat": 38.897793166666666, "lon": -76.99091366666667, "fusion_lat": 0.0}, {"is_reserved": 0, "bike_id": "e31c004151ce808c3aba2af8a2dcc4bd", "type": "electric_scooter", "name": "e31c004151ce808c3aba2af8a2dcc4bd", "is_disabled": 0, "fusion_lon": 0.0, "rental_uris": {"android": "https://dc.lft.to/lastmile_qr_scan", "ios": "https://dc.lft.to/lastmile_qr_scan"}, "lat": 38.92441866666667, "lon": -77.03314933333333, "fusion_lat": 0.0}, {"is_reserved": 0, "bike_id": "918a0d066ac6be743972cb72df5750db", "type": "electric_scooter", "name": "918a0d066ac6be743972cb72df5750db", "is_disabled": 0, "fusion_lon": 0.0, "rental_uris": {"android": "https://dc.lft.to/lastmile_qr_scan", "ios": "https://dc.lft.to/lastmile_qr_scan"}, "lat": 38.90633066666667, "lon": -77.005928, "fusion_lat": 0.0}, {"is_reserved": 0, "bike_id": "2b54f8a2b0500f3e73aec35ca6b03501", "type": "electric_scooter", "name": "2b54f8a2b0500f3e73aec35ca6b03501", "is_disabled": 0, "fusion_lon": 0.0, "rental_uris": {"android": "https://dc.lft.to/lastmile_qr_scan", "ios": "https://dc.lft.to/lastmile_qr_scan"}, "lat": 38.908254166666666, "lon": -76.99451616666667, "fusion_lat": 0.0}, {"is_reserved": 0, "bike_id": "17ff73326efaea0e4647906283b185aa", "type": "electric_scooter", "name": "17ff73326efaea0e4647906283b185aa", "is_disabled": 0, "fusion_lon": 0.0, "rental_uris": {"android": "https://dc.lft.to/lastmile_qr_scan", "ios": "https://dc.lft.to/lastmile_qr_scan"}, "lat": 38.90646566666667, "lon": -76.985789, "fusion_lat": 0.0}, {"is_reserved": 0, "bike_id": "28f64b9d879e918ca563a2d8bebc49a3", "type": "electric_scooter", "name": "28f64b9d879e918ca563a2d8bebc49a3", "is_disabled": 0, "fusion_lon": 0.0, "rental_uris": {"android": "https://dc.lft.to/lastmile_qr_scan", "ios": "https://dc.lft.to/lastmile_qr_scan"}, "lat": 38.925942666666664, "lon": -77.02499783333333, "fusion_lat": 0.0}, {"is_reserved": 0, "bike_id": "c24395c8f1b2ef5de6ffd17223ee6776", "type": "electric_bike", "name": "c24395c8f1b2ef5de6ffd17223ee6776", "is_disabled": 0, "fusion_lon": 0.0, "rental_uris": {"android": "https://dc.lft.to/lastmile_qr_scan", "ios": "https://dc.lft.to/lastmile_qr_scan"}, "lat": 38.992185166666665, "lon": -77.06526783333334, "fusion_lat": 0.0}, {"is_reserved": 0, "bike_id": "1f3b8a9d1e05dcd3ae08d9f9aeab46f5", "type": "electric_scooter", "name": "1f3b8a9d1e05dcd3ae08d9f9aeab46f5", "is_disabled": 0, "fusion_lon": 0.0, "rental_uris": {"android": "https://dc.lft.to/lastmile_qr_scan", "ios": "https://dc.lft.to/lastmile_qr_scan"}, "lat": 38.92919083333334, "lon": -77.02191433333333, "fusion_lat": 0.0}, {"is_reserved": 0, "bike_id": "e27243f6c0f4640b716fbdfcea232c11", "type": "electric_scooter", "name": "e27243f6c0f4640b716fbdfcea232c11", "is_disabled": 0, "fusion_lon": 0.0, "rental_uris": {"android": "https://dc.lft.to/lastmile_qr_scan", "ios": "https://dc.lft.to/lastmile_qr_scan"}, "lat": 38.878960666666664, "lon": -77.00788416666667, "fusion_lat": 0.0}, {"is_reserved": 0, "bike_id": "83b74c9f203d53d67a442a41e5f82419", "type": "electric_bike", "name": "83b74c9f203d53d67a442a41e5f82419", "is_disabled": 0, "fusion_lon": 0.0, "rental_uris": {"android": "https://dc.lft.to/lastmile_qr_scan", "ios": "https://dc.lft.to/lastmile_qr_scan"}, "lat": 38.98213, "lon": -77.09652583333333, "fusion_lat": 0.0}, {"is_reserved": 0, "bike_id": "f3f5c8321fe59cdc2144ea130bbf1070", "type": "electric_scooter", "name": "f3f5c8321fe59cdc2144ea130bbf1070", "is_disabled": 0, "fusion_lon": 0.0, "rental_uris": {"android": "https://dc.lft.to/lastmile_qr_scan", "ios": "https://dc.lft.to/lastmile_qr_scan"}, "lat": 38.8843465, "lon": -76.996789, "fusion_lat": 0.0}, {"is_reserved": 0, "bike_id": "df336303f9feba57ab90698cbe922dfa", "type": "electric_scooter", "name": "df336303f9feba57ab90698cbe922dfa", "is_disabled": 0, "fusion_lon": 0.0, "rental_uris": {"android": "https://dc.lft.to/lastmile_qr_scan", "ios": "https://dc.lft.to/lastmile_qr_scan"}, "lat": 38.90116366666667, "lon": -77.05000316666667, "fusion_lat": 0.0}, {"is_reserved": 0, "bike_id": "7a8aba967a59cd0dcca2142d180aa808", "type": "electric_scooter", "name": "7a8aba967a59cd0dcca2142d180aa808", "is_disabled": 0, "fusion_lon": 0.0, "rental_uris": {"android": "https://dc.lft.to/lastmile_qr_scan", "ios": "https://dc.lft.to/lastmile_qr_scan"}, "lat": 38.88429416666666, "lon": -77.03047383333333, "fusion_lat": 0.0}, {"is_reserved": 0, "bike_id": "ecd16c6025efd18bd76f2bf3908d888a", "type": "electric_scooter", "name": "ecd16c6025efd18bd76f2bf3908d888a", "is_disabled": 0, "fusion_lon": 0.0, "rental_uris": {"android": "https://dc.lft.to/lastmile_qr_scan", "ios": "https://dc.lft.to/lastmile_qr_scan"}, "lat": 38.896170833333336, "lon": -76.985585, "fusion_lat": 0.0}, {"is_reserved": 0, "bike_id": "007f82b816832eba34ae2e315f6893e8", "type": "electric_bike", "name": "007f82b816832eba34ae2e315f6893e8", "is_disabled": 0, "fusion_lon": 0.0, "rental_uris": {"android": "https://dc.lft.to/lastmile_qr_scan", "ios": "https://dc.lft.to/lastmile_qr_scan"}, "lat": 38.85283966666667, "lon": -77.04972133333334, "fusion_lat": 0.0}, {"is_reserved": 0, "bike_id": "7213f4ecd4d93bb9e8f739d1a89ea5ea", "type": "electric_scooter", "name": "7213f4ecd4d93bb9e8f739d1a89ea5ea", "is_disabled": 0, "fusion_lon": 0.0, "rental_uris": {"android": "https://dc.lft.to/lastmile_qr_scan", "ios": "https://dc.lft.to/lastmile_qr_scan"}, "lat": 38.90643566666667, "lon": -77.05340683333333, "fusion_lat": 0.0}, {"is_reserved": 0, "bike_id": "f5a5fd3c268f7180031f54d03528d9b1", "type": "electric_scooter", "name": "f5a5fd3c268f7180031f54d03528d9b1", "is_disabled": 0, "fusion_lon": 0.0, "rental_uris": {"android": "https://dc.lft.to/lastmile_qr_scan", "ios": "https://dc.lft.to/lastmile_qr_scan"}, "lat": 38.91397766666667, "lon": -77.0101575, "fusion_lat": 0.0}, {"is_reserved": 0, "bike_id": "437bee442f2452b06ca1d188d141b3f6", "type": "electric_scooter", "name": "437bee442f2452b06ca1d188d141b3f6", "is_disabled": 0, "fusion_lon": 0.0, "rental_uris": {"android": "https://dc.lft.to/lastmile_qr_scan", "ios": "https://dc.lft.to/lastmile_qr_scan"}, "lat": 38.923265, "lon": -77.05680883333333, "fusion_lat": 0.0}, {"is_reserved": 0, "bike_id": "9be1863df93247406acd660a7ba48812", "type": "electric_scooter", "name": "9be1863df93247406acd660a7ba48812", "is_disabled": 0, "fusion_lon": 0.0, "rental_uris": {"android": "https://dc.lft.to/lastmile_qr_scan", "ios": "https://dc.lft.to/lastmile_qr_scan"}, "lat": 38.954175166666666, "lon": -77.02763966666667, "fusion_lat": 0.0}, {"is_reserved": 0, "bike_id": "4c11cc50a3b2510f12f185a951a338b4", "type": "electric_scooter", "name": "4c11cc50a3b2510f12f185a951a338b4", "is_disabled": 0, "fusion_lon": 0.0, "rental_uris": {"android": "https://dc.lft.to/lastmile_qr_scan", "ios": "https://dc.lft.to/lastmile_qr_scan"}, "lat": 38.92265966666667, "lon": -77.02964333333334, "fusion_lat": 0.0}, {"is_reserved": 0, "bike_id": "ed6e9748a948878346a22f761f118e31", "type": "electric_scooter", "name": "ed6e9748a948878346a22f761f118e31", "is_disabled": 0, "fusion_lon": 0.0, "rental_uris": {"android": "https://dc.lft.to/lastmile_qr_scan", "ios": "https://dc.lft.to/lastmile_qr_scan"}, "lat": 38.931851, "lon": -77.03699016666667, "fusion_lat": 0.0}, {"is_reserved": 0, "bike_id": "25eeb4ecad365f7c289b9c39a259c324", "type": "electric_scooter", "name": "25eeb4ecad365f7c289b9c39a259c324", "is_disabled": 0, "fusion_lon": 0.0, "rental_uris": {"android": "https://dc.lft.to/lastmile_qr_scan", "ios": "https://dc.lft.to/lastmile_qr_scan"}, "lat": 38.912681, "lon": -77.02213133333333, "fusion_lat": 0.0}, {"is_reserved": 0, "bike_id": "5647b8cafd9c997743266b3a445f1b7d", "type": "electric_scooter", "name": "5647b8cafd9c997743266b3a445f1b7d", "is_disabled": 0, "fusion_lon": 0.0, "rental_uris": {"android": "https://dc.lft.to/lastmile_qr_scan", "ios": "https://dc.lft.to/lastmile_qr_scan"}, "lat": 38.934709166666664, "lon": -77.0727715, "fusion_lat": 0.0}, {"is_reserved": 0, "bike_id": "624ae91d51b4d4d47b34bc3bdffb422b", "type": "electric_scooter", "name": "624ae91d51b4d4d47b34bc3bdffb422b", "is_disabled": 0, "fusion_lon": 0.0, "rental_uris": {"android": "https://dc.lft.to/lastmile_qr_scan", "ios": "https://dc.lft.to/lastmile_qr_scan"}, "lat": 38.92052483333333, "lon": -77.03211266666666, "fusion_lat": 0.0}, {"is_reserved": 0, "bike_id": "0e960ac05ecf40b0fb50dfa0fa8b45d2", "type": "electric_scooter", "name": "0e960ac05ecf40b0fb50dfa0fa8b45d2", "is_disabled": 0, "fusion_lon": 0.0, "rental_uris": {"android": "https://dc.lft.to/lastmile_qr_scan", "ios": "https://dc.lft.to/lastmile_qr_scan"}, "lat": 38.891101666666664, "lon": -76.94383333333333, "fusion_lat": 0.0}, {"is_reserved": 0, "bike_id": "b91e6f1ec470e3107d9e8c6ebd79465f", "type": "electric_scooter", "name": "b91e6f1ec470e3107d9e8c6ebd79465f", "is_disabled": 0, "fusion_lon": 0.0, "rental_uris": {"android": "https://dc.lft.to/lastmile_qr_scan", "ios": "https://dc.lft.to/lastmile_qr_scan"}, "lat": 38.907155, "lon": -76.9300945, "fusion_lat": 0.0}, {"is_reserved": 0, "bike_id": "6e67d363c6a9baaa76509240c3453c0f", "type": "electric_scooter", "name": "6e67d363c6a9baaa76509240c3453c0f", "is_disabled": 0, "fusion_lon": 0.0, "rental_uris": {"android": "https://dc.lft.to/lastmile_qr_scan", "ios": "https://dc.lft.to/lastmile_qr_scan"}, "lat": 38.9140945, "lon": -77.01283483333333, "fusion_lat": 0.0}, {"is_reserved": 0, "bike_id": "1122c8663d23d6db31cb8aeba1a0e664", "type": "electric_scooter", "name": "1122c8663d23d6db31cb8aeba1a0e664", "is_disabled": 0, "fusion_lon": 0.0, "rental_uris": {"android": "https://dc.lft.to/lastmile_qr_scan", "ios": "https://dc.lft.to/lastmile_qr_scan"}, "lat": 38.899497833333335, "lon": -77.03911533333333, "fusion_lat": 0.0}, {"is_reserved": 0, "bike_id": "8aae49503ad78e9fedd1f8b25e044171", "type": "electric_scooter", "name": "8aae49503ad78e9fedd1f8b25e044171", "is_disabled": 0, "fusion_lon": 0.0, "rental_uris": {"android": "https://dc.lft.to/lastmile_qr_scan", "ios": "https://dc.lft.to/lastmile_qr_scan"}, "lat": 38.91403733333333, "lon": -77.01809683333333, "fusion_lat": 0.0}, {"is_reserved": 0, "bike_id": "c4aa3f475948fc74f6f61778c88cdbae", "type": "electric_bike", "name": "c4aa3f475948fc74f6f61778c88cdbae", "is_disabled": 0, "fusion_lon": 0.0, "rental_uris": {"android": "https://dc.lft.to/lastmile_qr_scan", "ios": "https://dc.lft.to/lastmile_qr_scan"}, "lat": 38.83806033333333, "lon": -77.09525016666667, "fusion_lat": 0.0}, {"is_reserved": 0, "bike_id": "3f98112e744728594c7c10269a83484e", "type": "electric_scooter", "name": "3f98112e744728594c7c10269a83484e", "is_disabled": 0, "fusion_lon": 0.0, "rental_uris": {"android": "https://dc.lft.to/lastmile_qr_scan", "ios": "https://dc.lft.to/lastmile_qr_scan"}, "lat": 38.885, "lon": -77.00569616666667, "fusion_lat": 0.0}, {"is_reserved": 0, "bike_id": "8c6732884ef264fc8bbe66fc4052f707", "type": "electric_scooter", "name": "8c6732884ef264fc8bbe66fc4052f707", "is_disabled": 0, "fusion_lon": 0.0, "rental_uris": {"android": "https://dc.lft.to/lastmile_qr_scan", "ios": "https://dc.lft.to/lastmile_qr_scan"}, "lat": 38.89270233333333, "lon": -77.0487675, "fusion_lat": 0.0}, {"is_reserved": 0, "bike_id": "aaf969c4dec8297f0c9d31d26625e908", "type": "electric_scooter", "name": "aaf969c4dec8297f0c9d31d26625e908", "is_disabled": 0, "fusion_lon": 0.0, "rental_uris": {"android": "https://dc.lft.to/lastmile_qr_scan", "ios": "https://dc.lft.to/lastmile_qr_scan"}, "lat": 38.8983775, "lon": -77.049864, "fusion_lat": 0.0}, {"is_reserved": 0, "bike_id": "56ac30a51531311a55178a2981eb89a3", "type": "electric_scooter", "name": "56ac30a51531311a55178a2981eb89a3", "is_disabled": 0, "fusion_lon": 0.0, "rental_uris": {"android": "https://dc.lft.to/lastmile_qr_scan", "ios": "https://dc.lft.to/lastmile_qr_scan"}, "lat": 38.905105, "lon": -77.060346, "fusion_lat": 0.0}, {"is_reserved": 0, "bike_id": "7644b9b72cff38150414d0ce375f4d4d", "type": "electric_scooter", "name": "7644b9b72cff38150414d0ce375f4d4d", "is_disabled": 0, "fusion_lon": 0.0, "rental_uris": {"android": "https://dc.lft.to/lastmile_qr_scan", "ios": "https://dc.lft.to/lastmile_qr_scan"}, "lat": 38.92380333333333, "lon": -77.020576, "fusion_lat": 0.0}, {"is_reserved": 0, "bike_id": "694e381ecf4ffe25b84104a16c85f7ec", "type": "electric_scooter", "name": "694e381ecf4ffe25b84104a16c85f7ec", "is_disabled": 0, "fusion_lon": 0.0, "rental_uris": {"android": "https://dc.lft.to/lastmile_qr_scan", "ios": "https://dc.lft.to/lastmile_qr_scan"}, "lat": 38.92155066666667, "lon": -77.03459316666667, "fusion_lat": 0.0}, {"is_reserved": 0, "bike_id": "b02cae245ed7a6b3306bc04bd5e3c6e9", "type": "electric_scooter", "name": "b02cae245ed7a6b3306bc04bd5e3c6e9", "is_disabled": 0, "fusion_lon": 0.0, "rental_uris": {"android": "https://dc.lft.to/lastmile_qr_scan", "ios": "https://dc.lft.to/lastmile_qr_scan"}, "lat": 38.91325666666667, "lon": -77.0198425, "fusion_lat": 0.0}, {"is_reserved": 0, "bike_id": "430e29d92803a6b1c0021f28904b092a", "type": "electric_scooter", "name": "430e29d92803a6b1c0021f28904b092a", "is_disabled": 0, "fusion_lon": 0.0, "rental_uris": {"android": "https://dc.lft.to/lastmile_qr_scan", "ios": "https://dc.lft.to/lastmile_qr_scan"}, "lat": 38.955409, "lon": -77.02780983333334, "fusion_lat": 0.0}, {"is_reserved": 0, "bike_id": "6759a601bc38bdcaebfdafb0b664fdaf", "type": "electric_scooter", "name": "6759a601bc38bdcaebfdafb0b664fdaf", "is_disabled": 0, "fusion_lon": 0.0, "rental_uris": {"android": "https://dc.lft.to/lastmile_qr_scan", "ios": "https://dc.lft.to/lastmile_qr_scan"}, "lat": 38.919260666666666, "lon": -77.02507683333333, "fusion_lat": 0.0}, {"is_reserved": 0, "bike_id": "3a7bae8b9be75ff94ecadbe3018707b1", "type": "electric_scooter", "name": "3a7bae8b9be75ff94ecadbe3018707b1", "is_disabled": 0, "fusion_lon": 0.0, "rental_uris": {"android": "https://dc.lft.to/lastmile_qr_scan", "ios": "https://dc.lft.to/lastmile_qr_scan"}, "lat": 38.91537966666667, "lon": -77.04459316666667, "fusion_lat": 0.0}, {"is_reserved": 0, "bike_id": "bbf664ed91abb3fe0934573740597dca", "type": "electric_bike", "name": "bbf664ed91abb3fe0934573740597dca", "is_disabled": 0, "fusion_lon": 0.0, "rental_uris": {"android": "https://dc.lft.to/lastmile_qr_scan", "ios": "https://dc.lft.to/lastmile_qr_scan"}, "lat": 38.9276285, "lon": -77.07014433333333, "fusion_lat": 0.0}, {"is_reserved": 0, "bike_id": "ec1829d39fc7166bd1cd9387b6fec40e", "type": "electric_scooter", "name": "ec1829d39fc7166bd1cd9387b6fec40e", "is_disabled": 0, "fusion_lon": 0.0, "rental_uris": {"android": "https://dc.lft.to/lastmile_qr_scan", "ios": "https://dc.lft.to/lastmile_qr_scan"}, "lat": 38.921119833333336, "lon": -77.04127833333334, "fusion_lat": 0.0}, {"is_reserved": 0, "bike_id": "dcba6357c65ed041c6295cf2aa1c0fdc", "type": "electric_bike", "name": "dcba6357c65ed041c6295cf2aa1c0fdc", "is_disabled": 0, "fusion_lon": 0.0, "rental_uris": {"android": "https://dc.lft.to/lastmile_qr_scan", "ios": "https://dc.lft.to/lastmile_qr_scan"}, "lat": 38.888771, "lon": -76.95699716666667, "fusion_lat": 0.0}, {"is_reserved": 0, "bike_id": "9fb483412260c78d4c3ebcced1d5fe28", "type": "electric_scooter", "name": "9fb483412260c78d4c3ebcced1d5fe28", "is_disabled": 0, "fusion_lon": 0.0, "rental_uris": {"android": "https://dc.lft.to/lastmile_qr_scan", "ios": "https://dc.lft.to/lastmile_qr_scan"}, "lat": 38.905244333333336, "lon": -77.06243166666667, "fusion_lat": 0.0}, {"is_reserved": 0, "bike_id": "53cb382ad606882225c9d8602d4831f7", "type": "electric_scooter", "name": "53cb382ad606882225c9d8602d4831f7", "is_disabled": 0, "fusion_lon": 0.0, "rental_uris": {"android": "https://dc.lft.to/lastmile_qr_scan", "ios": "https://dc.lft.to/lastmile_qr_scan"}, "lat": 38.92099316666667, "lon": -77.0220965, "fusion_lat": 0.0}, {"is_reserved": 0, "bike_id": "44a122ab6960509c67aa91a0bce7bd8d", "type": "electric_scooter", "name": "44a122ab6960509c67aa91a0bce7bd8d", "is_disabled": 0, "fusion_lon": 0.0, "rental_uris": {"android": "https://dc.lft.to/lastmile_qr_scan", "ios": "https://dc.lft.to/lastmile_qr_scan"}, "lat": 38.904818, "lon": -77.0486305, "fusion_lat": 0.0}, {"is_reserved": 0, "bike_id": "fee6d2d0266510f52e9586418db7d0b7", "type": "electric_scooter", "name": "fee6d2d0266510f52e9586418db7d0b7", "is_disabled": 0, "fusion_lon": 0.0, "rental_uris": {"android": "https://dc.lft.to/lastmile_qr_scan", "ios": "https://dc.lft.to/lastmile_qr_scan"}, "lat": 38.926694833333336, "lon": -77.01471833333333, "fusion_lat": 0.0}, {"is_reserved": 0, "bike_id": "0262a9838b0448cd4580032808cf151a", "type": "electric_scooter", "name": "0262a9838b0448cd4580032808cf151a", "is_disabled": 0, "fusion_lon": 0.0, "rental_uris": {"android": "https://dc.lft.to/lastmile_qr_scan", "ios": "https://dc.lft.to/lastmile_qr_scan"}, "lat": 38.905082, "lon": -77.060327, "fusion_lat": 0.0}, {"is_reserved": 0, "bike_id": "4a48a2abdcaf762a6600af5e91c4212b", "type": "electric_scooter", "name": "4a48a2abdcaf762a6600af5e91c4212b", "is_disabled": 0, "fusion_lon": 0.0, "rental_uris": {"android": "https://dc.lft.to/lastmile_qr_scan", "ios": "https://dc.lft.to/lastmile_qr_scan"}, "lat": 38.887301666666666, "lon": -76.98355266666667, "fusion_lat": 0.0}, {"is_reserved": 0, "bike_id": "4d0dbfe2176ad34f6cdf286c66f396ff", "type": "electric_scooter", "name": "4d0dbfe2176ad34f6cdf286c66f396ff", "is_disabled": 0, "fusion_lon": 0.0, "rental_uris": {"android": "https://dc.lft.to/lastmile_qr_scan", "ios": "https://dc.lft.to/lastmile_qr_scan"}, "lat": 38.880844833333335, "lon": -76.99513316666666, "fusion_lat": 0.0}, {"is_reserved": 0, "bike_id": "536ea57d767e19ac1b542612e8a70899", "type": "electric_scooter", "name": "536ea57d767e19ac1b542612e8a70899", "is_disabled": 0, "fusion_lon": 0.0, "rental_uris": {"android": "https://dc.lft.to/lastmile_qr_scan", "ios": "https://dc.lft.to/lastmile_qr_scan"}, "lat": 38.88602183333333, "lon": -76.92507283333333, "fusion_lat": 0.0}, {"is_reserved": 0, "bike_id": "d746f1818603b7fb4c524117bb3a7e16", "type": "electric_scooter", "name": "d746f1818603b7fb4c524117bb3a7e16", "is_disabled": 0, "fusion_lon": 0.0, "rental_uris": {"android": "https://dc.lft.to/lastmile_qr_scan", "ios": "https://dc.lft.to/lastmile_qr_scan"}, "lat": 38.91596783333333, "lon": -77.03667366666667, "fusion_lat": 0.0}, {"is_reserved": 0, "bike_id": "1a65ca41407ac8c3cc45f3867198bafc", "type": "electric_scooter", "name": "1a65ca41407ac8c3cc45f3867198bafc", "is_disabled": 0, "fusion_lon": 0.0, "rental_uris": {"android": "https://dc.lft.to/lastmile_qr_scan", "ios": "https://dc.lft.to/lastmile_qr_scan"}, "lat": 38.872848166666664, "lon": -77.017013, "fusion_lat": 0.0}, {"is_reserved": 0, "bike_id": "19f8756c5c059e2dade70909aa770b3e", "type": "electric_scooter", "name": "19f8756c5c059e2dade70909aa770b3e", "is_disabled": 0, "fusion_lon": 0.0, "rental_uris": {"android": "https://dc.lft.to/lastmile_qr_scan", "ios": "https://dc.lft.to/lastmile_qr_scan"}, "lat": 38.8768105, "lon": -77.0004285, "fusion_lat": 0.0}, {"is_reserved": 0, "bike_id": "01b5c25baf31e9a9880634cebc2db6f5", "type": "electric_scooter", "name": "01b5c25baf31e9a9880634cebc2db6f5", "is_disabled": 0, "fusion_lon": 0.0, "rental_uris": {"android": "https://dc.lft.to/lastmile_qr_scan", "ios": "https://dc.lft.to/lastmile_qr_scan"}, "lat": 38.95613266666667, "lon": -77.02762416666667, "fusion_lat": 0.0}, {"is_reserved": 0, "bike_id": "d865ddfbea9d7af03e0802028ff50071", "type": "electric_scooter", "name": "d865ddfbea9d7af03e0802028ff50071", "is_disabled": 0, "fusion_lon": 0.0, "rental_uris": {"android": "https://dc.lft.to/lastmile_qr_scan", "ios": "https://dc.lft.to/lastmile_qr_scan"}, "lat": 38.92421683333333, "lon": -77.035309, "fusion_lat": 0.0}, {"is_reserved": 0, "bike_id": "b210ddc2bc6ed818cb2c160ba26be56d", "type": "electric_scooter", "name": "b210ddc2bc6ed818cb2c160ba26be56d", "is_disabled": 0, "fusion_lon": 0.0, "rental_uris": {"android": "https://dc.lft.to/lastmile_qr_scan", "ios": "https://dc.lft.to/lastmile_qr_scan"}, "lat": 38.877121833333334, "lon": -77.00612966666667, "fusion_lat": 0.0}, {"is_reserved": 0, "bike_id": "f619a095f432a2c952df5c7daede8cc4", "type": "electric_scooter", "name": "f619a095f432a2c952df5c7daede8cc4", "is_disabled": 0, "fusion_lon": 0.0, "rental_uris": {"android": "https://dc.lft.to/lastmile_qr_scan", "ios": "https://dc.lft.to/lastmile_qr_scan"}, "lat": 38.9232785, "lon": -77.01963816666667, "fusion_lat": 0.0}, {"is_reserved": 0, "bike_id": "e8539cf5bfbf06b2fb9c331b89b7a13e", "type": "electric_scooter", "name": "e8539cf5bfbf06b2fb9c331b89b7a13e", "is_disabled": 0, "fusion_lon": 0.0, "rental_uris": {"android": "https://dc.lft.to/lastmile_qr_scan", "ios": "https://dc.lft.to/lastmile_qr_scan"}, "lat": 38.92982266666667, "lon": -77.03179866666666, "fusion_lat": 0.0}, {"is_reserved": 0, "bike_id": "5887ad275ae40aa4836ec7c3644f4093", "type": "electric_scooter", "name": "5887ad275ae40aa4836ec7c3644f4093", "is_disabled": 0, "fusion_lon": 0.0, "rental_uris": {"android": "https://dc.lft.to/lastmile_qr_scan", "ios": "https://dc.lft.to/lastmile_qr_scan"}, "lat": 38.92017533333333, "lon": -77.06362383333334, "fusion_lat": 0.0}, {"is_reserved": 0, "bike_id": "c28a83124128a809ba58d2cda6509dc9", "type": "electric_scooter", "name": "c28a83124128a809ba58d2cda6509dc9", "is_disabled": 0, "fusion_lon": 0.0, "rental_uris": {"android": "https://dc.lft.to/lastmile_qr_scan", "ios": "https://dc.lft.to/lastmile_qr_scan"}, "lat": 38.940771, "lon": -77.061275, "fusion_lat": 0.0}, {"is_reserved": 0, "bike_id": "9b87e3a06be2e611e7ff6f9c7246a8e6", "type": "electric_scooter", "name": "9b87e3a06be2e611e7ff6f9c7246a8e6", "is_disabled": 0, "fusion_lon": 0.0, "rental_uris": {"android": "https://dc.lft.to/lastmile_qr_scan", "ios": "https://dc.lft.to/lastmile_qr_scan"}, "lat": 38.8999405, "lon": -77.02736333333333, "fusion_lat": 0.0}, {"is_reserved": 0, "bike_id": "6811ffa930f432d20260ba849b45a055", "type": "electric_scooter", "name": "6811ffa930f432d20260ba849b45a055", "is_disabled": 0, "fusion_lon": 0.0, "rental_uris": {"android": "https://dc.lft.to/lastmile_qr_scan", "ios": "https://dc.lft.to/lastmile_qr_scan"}, "lat": 38.941984, "lon": -77.02349916666667, "fusion_lat": 0.0}, {"is_reserved": 0, "bike_id": "12974223d120d14e77a9cdb7b5bb4594", "type": "electric_scooter", "name": "12974223d120d14e77a9cdb7b5bb4594", "is_disabled": 0, "fusion_lon": 0.0, "rental_uris": {"android": "https://dc.lft.to/lastmile_qr_scan", "ios": "https://dc.lft.to/lastmile_qr_scan"}, "lat": 38.93103, "lon": -77.0348305, "fusion_lat": 0.0}, {"is_reserved": 0, "bike_id": "2bca5997b59ae50e2668e6b164f18841", "type": "electric_scooter", "name": "2bca5997b59ae50e2668e6b164f18841", "is_disabled": 0, "fusion_lon": 0.0, "rental_uris": {"android": "https://dc.lft.to/lastmile_qr_scan", "ios": "https://dc.lft.to/lastmile_qr_scan"}, "lat": 38.91413766666667, "lon": -77.025885, "fusion_lat": 0.0}, {"is_reserved": 0, "bike_id": "948e1879b7eea0b900b80bf5e4a95a93", "type": "electric_scooter", "name": "948e1879b7eea0b900b80bf5e4a95a93", "is_disabled": 0, "fusion_lon": 0.0, "rental_uris": {"android": "https://dc.lft.to/lastmile_qr_scan", "ios": "https://dc.lft.to/lastmile_qr_scan"}, "lat": 38.908342833333336, "lon": -77.035481, "fusion_lat": 0.0}, {"is_reserved": 0, "bike_id": "229945761b70a39e0e8475994b9d7608", "type": "electric_bike", "name": "229945761b70a39e0e8475994b9d7608", "is_disabled": 0, "fusion_lon": 0.0, "rental_uris": {"android": "https://dc.lft.to/lastmile_qr_scan", "ios": "https://dc.lft.to/lastmile_qr_scan"}, "lat": 38.94165683333333, "lon": -76.95349266666666, "fusion_lat": 0.0}, {"is_reserved": 0, "bike_id": "2d405670eaf5f205ed6fa36f0acbfae1", "type": "electric_scooter", "name": "2d405670eaf5f205ed6fa36f0acbfae1", "is_disabled": 0, "fusion_lon": 0.0, "rental_uris": {"android": "https://dc.lft.to/lastmile_qr_scan", "ios": "https://dc.lft.to/lastmile_qr_scan"}, "lat": 38.918776, "lon": -77.0092305, "fusion_lat": 0.0}, {"is_reserved": 0, "bike_id": "5b58a465ad7ead81642f56116435edff", "type": "electric_scooter", "name": "5b58a465ad7ead81642f56116435edff", "is_disabled": 0, "fusion_lon": 0.0, "rental_uris": {"android": "https://dc.lft.to/lastmile_qr_scan", "ios": "https://dc.lft.to/lastmile_qr_scan"}, "lat": 38.93035016666666, "lon": -77.0574185, "fusion_lat": 0.0}, {"is_reserved": 0, "bike_id": "0077d49e43fbf2d7707a789eaa06abf7", "type": "electric_scooter", "name": "0077d49e43fbf2d7707a789eaa06abf7", "is_disabled": 0, "fusion_lon": 0.0, "rental_uris": {"android": "https://dc.lft.to/lastmile_qr_scan", "ios": "https://dc.lft.to/lastmile_qr_scan"}, "lat": 38.926202333333336, "lon": -77.022701, "fusion_lat": 0.0}, {"is_reserved": 0, "bike_id": "17f1f2f6ce4c4b57177d6ebdbf367627", "type": "electric_scooter", "name": "17f1f2f6ce4c4b57177d6ebdbf367627", "is_disabled": 0, "fusion_lon": 0.0, "rental_uris": {"android": "https://dc.lft.to/lastmile_qr_scan", "ios": "https://dc.lft.to/lastmile_qr_scan"}, "lat": 38.929443666666664, "lon": -77.0328545, "fusion_lat": 0.0}, {"is_reserved": 0, "bike_id": "4081152a81454e4b8713d4b82202a9ff", "type": "electric_bike", "name": "4081152a81454e4b8713d4b82202a9ff", "is_disabled": 0, "fusion_lon": 0.0, "rental_uris": {"android": "https://dc.lft.to/lastmile_qr_scan", "ios": "https://dc.lft.to/lastmile_qr_scan"}, "lat": 38.97438616666667, "lon": -77.09620033333333, "fusion_lat": 0.0}, {"is_reserved": 0, "bike_id": "a7ba8db899e2df52a78b7097a9ab8e9b", "type": "electric_scooter", "name": "a7ba8db899e2df52a78b7097a9ab8e9b", "is_disabled": 0, "fusion_lon": 0.0, "rental_uris": {"android": "https://dc.lft.to/lastmile_qr_scan", "ios": "https://dc.lft.to/lastmile_qr_scan"}, "lat": 38.9155015, "lon": -77.03656833333334, "fusion_lat": 0.0}, {"is_reserved": 0, "bike_id": "de22a82b838964968e4e462099268e9f", "type": "electric_scooter", "name": "de22a82b838964968e4e462099268e9f", "is_disabled": 0, "fusion_lon": 0.0, "rental_uris": {"android": "https://dc.lft.to/lastmile_qr_scan", "ios": "https://dc.lft.to/lastmile_qr_scan"}, "lat": 38.917593333333336, "lon": -77.0270535, "fusion_lat": 0.0}, {"is_reserved": 0, "bike_id": "adc376bf0ca06c617fb82ab68694e643", "type": "electric_scooter", "name": "adc376bf0ca06c617fb82ab68694e643", "is_disabled": 0, "fusion_lon": 0.0, "rental_uris": {"android": "https://dc.lft.to/lastmile_qr_scan", "ios": "https://dc.lft.to/lastmile_qr_scan"}, "lat": 38.89857966666667, "lon": -76.93194733333333, "fusion_lat": 0.0}, {"is_reserved": 0, "bike_id": "89f13dbd3938a1d5f62066c73e240508", "type": "electric_scooter", "name": "89f13dbd3938a1d5f62066c73e240508", "is_disabled": 0, "fusion_lon": 0.0, "rental_uris": {"android": "https://dc.lft.to/lastmile_qr_scan", "ios": "https://dc.lft.to/lastmile_qr_scan"}, "lat": 38.917991666666666, "lon": -77.06824816666666, "fusion_lat": 0.0}, {"is_reserved": 0, "bike_id": "f71d994e9190ec04a30a8d37d68dc166", "type": "electric_scooter", "name": "f71d994e9190ec04a30a8d37d68dc166", "is_disabled": 0, "fusion_lon": 0.0, "rental_uris": {"android": "https://dc.lft.to/lastmile_qr_scan", "ios": "https://dc.lft.to/lastmile_qr_scan"}, "lat": 38.93219966666667, "lon": -77.041275, "fusion_lat": 0.0}, {"is_reserved": 0, "bike_id": "f02cec41cc33a311aad4a8b0fa831843", "type": "electric_scooter", "name": "f02cec41cc33a311aad4a8b0fa831843", "is_disabled": 0, "fusion_lon": 0.0, "rental_uris": {"android": "https://dc.lft.to/lastmile_qr_scan", "ios": "https://dc.lft.to/lastmile_qr_scan"}, "lat": 38.964981333333334, "lon": -77.062829, "fusion_lat": 0.0}, {"is_reserved": 0, "bike_id": "b4228bb82b41463faa993998573db551", "type": "electric_scooter", "name": "b4228bb82b41463faa993998573db551", "is_disabled": 0, "fusion_lon": 0.0, "rental_uris": {"android": "https://dc.lft.to/lastmile_qr_scan", "ios": "https://dc.lft.to/lastmile_qr_scan"}, "lat": 38.905813, "lon": -76.98626966666667, "fusion_lat": 0.0}, {"is_reserved": 0, "bike_id": "622aca4a0e4175833b4d945c64623dc5", "type": "electric_scooter", "name": "622aca4a0e4175833b4d945c64623dc5", "is_disabled": 0, "fusion_lon": 0.0, "rental_uris": {"android": "https://dc.lft.to/lastmile_qr_scan", "ios": "https://dc.lft.to/lastmile_qr_scan"}, "lat": 38.9062795, "lon": -77.02600316666667, "fusion_lat": 0.0}, {"is_reserved": 0, "bike_id": "3b466066d816b5c5a816a8f315fc64bb", "type": "electric_scooter", "name": "3b466066d816b5c5a816a8f315fc64bb", "is_disabled": 0, "fusion_lon": 0.0, "rental_uris": {"android": "https://dc.lft.to/lastmile_qr_scan", "ios": "https://dc.lft.to/lastmile_qr_scan"}, "lat": 38.91925783333333, "lon": -77.02510166666667, "fusion_lat": 0.0}, {"is_reserved": 0, "bike_id": "81583035911c8acd22006bb22a10db3a", "type": "electric_scooter", "name": "81583035911c8acd22006bb22a10db3a", "is_disabled": 0, "fusion_lon": 0.0, "rental_uris": {"android": "https://dc.lft.to/lastmile_qr_scan", "ios": "https://dc.lft.to/lastmile_qr_scan"}, "lat": 38.943015833333334, "lon": -77.059403, "fusion_lat": 0.0}, {"is_reserved": 0, "bike_id": "aadca578a80520d7c64e55e7beb44ab1", "type": "electric_scooter", "name": "aadca578a80520d7c64e55e7beb44ab1", "is_disabled": 0, "fusion_lon": 0.0, "rental_uris": {"android": "https://dc.lft.to/lastmile_qr_scan", "ios": "https://dc.lft.to/lastmile_qr_scan"}, "lat": 38.94455583333333, "lon": -77.06348616666666, "fusion_lat": 0.0}, {"is_reserved": 0, "bike_id": "af65ad4beaffd7c47409a066ecfb2686", "type": "electric_scooter", "name": "af65ad4beaffd7c47409a066ecfb2686", "is_disabled": 0, "fusion_lon": 0.0, "rental_uris": {"android": "https://dc.lft.to/lastmile_qr_scan", "ios": "https://dc.lft.to/lastmile_qr_scan"}, "lat": 38.900608, "lon": -77.04412616666667, "fusion_lat": 0.0}, {"is_reserved": 0, "bike_id": "ee69724f797bab77a3eb9dccaa764db4", "type": "electric_scooter", "name": "ee69724f797bab77a3eb9dccaa764db4", "is_disabled": 0, "fusion_lon": 0.0, "rental_uris": {"android": "https://dc.lft.to/lastmile_qr_scan", "ios": "https://dc.lft.to/lastmile_qr_scan"}, "lat": 38.91631233333333, "lon": -77.03503033333334, "fusion_lat": 0.0}, {"is_reserved": 0, "bike_id": "a74ae45e915117fc0358b498fdff37af", "type": "electric_scooter", "name": "a74ae45e915117fc0358b498fdff37af", "is_disabled": 0, "fusion_lon": 0.0, "rental_uris": {"android": "https://dc.lft.to/lastmile_qr_scan", "ios": "https://dc.lft.to/lastmile_qr_scan"}, "lat": 38.91848266666667, "lon": -77.031714, "fusion_lat": 0.0}, {"is_reserved": 0, "bike_id": "6e933d209a4d668fbae3fd4dbce66a12", "type": "electric_scooter", "name": "6e933d209a4d668fbae3fd4dbce66a12", "is_disabled": 0, "fusion_lon": 0.0, "rental_uris": {"android": "https://dc.lft.to/lastmile_qr_scan", "ios": "https://dc.lft.to/lastmile_qr_scan"}, "lat": 38.93577966666667, "lon": -77.02127766666666, "fusion_lat": 0.0}, {"is_reserved": 0, "bike_id": "79bfeabc990f0c7e8bf43b13916e5fcb", "type": "electric_scooter", "name": "79bfeabc990f0c7e8bf43b13916e5fcb", "is_disabled": 0, "fusion_lon": 0.0, "rental_uris": {"android": "https://dc.lft.to/lastmile_qr_scan", "ios": "https://dc.lft.to/lastmile_qr_scan"}, "lat": 38.9053735, "lon": -77.0500135, "fusion_lat": 0.0}, {"is_reserved": 0, "bike_id": "415db5b7caed442cb16967f65ba11398", "type": "electric_scooter", "name": "415db5b7caed442cb16967f65ba11398", "is_disabled": 0, "fusion_lon": 0.0, "rental_uris": {"android": "https://dc.lft.to/lastmile_qr_scan", "ios": "https://dc.lft.to/lastmile_qr_scan"}, "lat": 38.899314333333336, "lon": -77.04994683333334, "fusion_lat": 0.0}, {"is_reserved": 0, "bike_id": "24b4c6add180a88af3918c05bf0b3c0e", "type": "electric_scooter", "name": "24b4c6add180a88af3918c05bf0b3c0e", "is_disabled": 0, "fusion_lon": 0.0, "rental_uris": {"android": "https://dc.lft.to/lastmile_qr_scan", "ios": "https://dc.lft.to/lastmile_qr_scan"}, "lat": 38.9267385, "lon": -77.04064733333334, "fusion_lat": 0.0}, {"is_reserved": 0, "bike_id": "0403210f95528eec9daffb95ba2e4ef3", "type": "electric_scooter", "name": "0403210f95528eec9daffb95ba2e4ef3", "is_disabled": 0, "fusion_lon": 0.0, "rental_uris": {"android": "https://dc.lft.to/lastmile_qr_scan", "ios": "https://dc.lft.to/lastmile_qr_scan"}, "lat": 38.88868316666667, "lon": -77.04000283333333, "fusion_lat": 0.0}, {"is_reserved": 0, "bike_id": "91bbf31b84138be687ee3098b6208d1d", "type": "electric_scooter", "name": "91bbf31b84138be687ee3098b6208d1d", "is_disabled": 0, "fusion_lon": 0.0, "rental_uris": {"android": "https://dc.lft.to/lastmile_qr_scan", "ios": "https://dc.lft.to/lastmile_qr_scan"}, "lat": 38.89264933333333, "lon": -76.98373116666667, "fusion_lat": 0.0}, {"is_reserved": 0, "bike_id": "2151e6d9927816e3060d3e782bd760f1", "type": "electric_scooter", "name": "2151e6d9927816e3060d3e782bd760f1", "is_disabled": 0, "fusion_lon": 0.0, "rental_uris": {"android": "https://dc.lft.to/lastmile_qr_scan", "ios": "https://dc.lft.to/lastmile_qr_scan"}, "lat": 38.921553833333334, "lon": -77.03382716666667, "fusion_lat": 0.0}, {"is_reserved": 0, "bike_id": "62700f33f562a742920b5358073e8f57", "type": "electric_scooter", "name": "62700f33f562a742920b5358073e8f57", "is_disabled": 0, "fusion_lon": 0.0, "rental_uris": {"android": "https://dc.lft.to/lastmile_qr_scan", "ios": "https://dc.lft.to/lastmile_qr_scan"}, "lat": 38.899914, "lon": -77.02174316666667, "fusion_lat": 0.0}, {"is_reserved": 0, "bike_id": "15481a0b291170a9173e74724758889a", "type": "electric_scooter", "name": "15481a0b291170a9173e74724758889a", "is_disabled": 0, "fusion_lon": 0.0, "rental_uris": {"android": "https://dc.lft.to/lastmile_qr_scan", "ios": "https://dc.lft.to/lastmile_qr_scan"}, "lat": 38.920974666666666, "lon": -77.02522033333334, "fusion_lat": 0.0}, {"is_reserved": 0, "bike_id": "a8b848c32fd64cc3acda8152c8f3caec", "type": "electric_scooter", "name": "a8b848c32fd64cc3acda8152c8f3caec", "is_disabled": 0, "fusion_lon": 0.0, "rental_uris": {"android": "https://dc.lft.to/lastmile_qr_scan", "ios": "https://dc.lft.to/lastmile_qr_scan"}, "lat": 38.90204416666667, "lon": -77.03816633333334, "fusion_lat": 0.0}, {"is_reserved": 0, "bike_id": "6431ac11ceb4606ccd6b6aaae59574e5", "type": "electric_scooter", "name": "6431ac11ceb4606ccd6b6aaae59574e5", "is_disabled": 0, "fusion_lon": 0.0, "rental_uris": {"android": "https://dc.lft.to/lastmile_qr_scan", "ios": "https://dc.lft.to/lastmile_qr_scan"}, "lat": 38.93938516666667, "lon": -77.032698, "fusion_lat": 0.0}, {"is_reserved": 0, "bike_id": "85bcb96bf3f319c5348d5023fb42eb42", "type": "electric_scooter", "name": "85bcb96bf3f319c5348d5023fb42eb42", "is_disabled": 0, "fusion_lon": 0.0, "rental_uris": {"android": "https://dc.lft.to/lastmile_qr_scan", "ios": "https://dc.lft.to/lastmile_qr_scan"}, "lat": 38.921513, "lon": -77.03469366666667, "fusion_lat": 0.0}, {"is_reserved": 0, "bike_id": "8083f95c2debfa37f37a9bfd10bf0c0e", "type": "electric_scooter", "name": "8083f95c2debfa37f37a9bfd10bf0c0e", "is_disabled": 0, "fusion_lon": 0.0, "rental_uris": {"android": "https://dc.lft.to/lastmile_qr_scan", "ios": "https://dc.lft.to/lastmile_qr_scan"}, "lat": 38.9305945, "lon": -77.03945016666667, "fusion_lat": 0.0}, {"is_reserved": 0, "bike_id": "ffc3f944daa78671ccb0ef83c58b889d", "type": "electric_scooter", "name": "ffc3f944daa78671ccb0ef83c58b889d", "is_disabled": 0, "fusion_lon": 0.0, "rental_uris": {"android": "https://dc.lft.to/lastmile_qr_scan", "ios": "https://dc.lft.to/lastmile_qr_scan"}, "lat": 38.928430166666665, "lon": -77.02011233333333, "fusion_lat": 0.0}, {"is_reserved": 0, "bike_id": "e7211c5faf33abccf8aca4a154f89c28", "type": "electric_scooter", "name": "e7211c5faf33abccf8aca4a154f89c28", "is_disabled": 0, "fusion_lon": 0.0, "rental_uris": {"android": "https://dc.lft.to/lastmile_qr_scan", "ios": "https://dc.lft.to/lastmile_qr_scan"}, "lat": 38.897036, "lon": -77.02650566666667, "fusion_lat": 0.0}, {"is_reserved": 0, "bike_id": "1bd2e1f9b71e628c294ffe85eb3b6702", "type": "electric_scooter", "name": "1bd2e1f9b71e628c294ffe85eb3b6702", "is_disabled": 0, "fusion_lon": 0.0, "rental_uris": {"android": "https://dc.lft.to/lastmile_qr_scan", "ios": "https://dc.lft.to/lastmile_qr_scan"}, "lat": 38.9158715, "lon": -77.031795, "fusion_lat": 0.0}, {"is_reserved": 0, "bike_id": "70051050eae5740f203f0619a9dbb304", "type": "electric_scooter", "name": "70051050eae5740f203f0619a9dbb304", "is_disabled": 0, "fusion_lon": 0.0, "rental_uris": {"android": "https://dc.lft.to/lastmile_qr_scan", "ios": "https://dc.lft.to/lastmile_qr_scan"}, "lat": 38.90041183333334, "lon": -77.00207183333333, "fusion_lat": 0.0}, {"is_reserved": 0, "bike_id": "ddb9ac0c86166a36a71a710296d82173", "type": "electric_scooter", "name": "ddb9ac0c86166a36a71a710296d82173", "is_disabled": 0, "fusion_lon": 0.0, "rental_uris": {"android": "https://dc.lft.to/lastmile_qr_scan", "ios": "https://dc.lft.to/lastmile_qr_scan"}, "lat": 38.90351733333333, "lon": -77.04280333333334, "fusion_lat": 0.0}, {"is_reserved": 0, "bike_id": "160baa6bea755469a9c041e35b272def", "type": "electric_scooter", "name": "160baa6bea755469a9c041e35b272def", "is_disabled": 0, "fusion_lon": 0.0, "rental_uris": {"android": "https://dc.lft.to/lastmile_qr_scan", "ios": "https://dc.lft.to/lastmile_qr_scan"}, "lat": 38.87394616666667, "lon": -77.00131016666667, "fusion_lat": 0.0}, {"is_reserved": 0, "bike_id": "6cd2cbe65ca66af5a404fb1a6e34b072", "type": "electric_scooter", "name": "6cd2cbe65ca66af5a404fb1a6e34b072", "is_disabled": 0, "fusion_lon": 0.0, "rental_uris": {"android": "https://dc.lft.to/lastmile_qr_scan", "ios": "https://dc.lft.to/lastmile_qr_scan"}, "lat": 38.902497, "lon": -77.02846533333333, "fusion_lat": 0.0}, {"is_reserved": 0, "bike_id": "28aa8e12c7bde57fec78b06245f19a76", "type": "electric_bike", "name": "28aa8e12c7bde57fec78b06245f19a76", "is_disabled": 0, "fusion_lon": 0.0, "rental_uris": {"android": "https://dc.lft.to/lastmile_qr_scan", "ios": "https://dc.lft.to/lastmile_qr_scan"}, "lat": 39.034214666666664, "lon": -77.04303966666667, "fusion_lat": 0.0}, {"is_reserved": 0, "bike_id": "46e5faca4fa1d623d5219beafd2383a3", "type": "electric_scooter", "name": "46e5faca4fa1d623d5219beafd2383a3", "is_disabled": 0, "fusion_lon": 0.0, "rental_uris": {"android": "https://dc.lft.to/lastmile_qr_scan", "ios": "https://dc.lft.to/lastmile_qr_scan"}, "lat": 38.90480133333333, "lon": -77.05127783333333, "fusion_lat": 0.0}, {"is_reserved": 0, "bike_id": "002b3d6dd9d69000793dcd759c73fab9", "type": "electric_scooter", "name": "002b3d6dd9d69000793dcd759c73fab9", "is_disabled": 0, "fusion_lon": 0.0, "rental_uris": {"android": "https://dc.lft.to/lastmile_qr_scan", "ios": "https://dc.lft.to/lastmile_qr_scan"}, "lat": 38.9291315, "lon": -77.01866366666667, "fusion_lat": 0.0}, {"is_reserved": 0, "bike_id": "c98a73b228aba3cd2b5f380dcd31f4ae", "type": "electric_bike", "name": "c98a73b228aba3cd2b5f380dcd31f4ae", "is_disabled": 0, "fusion_lon": 0.0, "rental_uris": {"android": "https://dc.lft.to/lastmile_qr_scan", "ios": "https://dc.lft.to/lastmile_qr_scan"}, "lat": 38.9225235, "lon": -76.98319183333334, "fusion_lat": 0.0}, {"is_reserved": 0, "bike_id": "1ab5af7faefcce6012514e3076762364", "type": "electric_scooter", "name": "1ab5af7faefcce6012514e3076762364", "is_disabled": 0, "fusion_lon": 0.0, "rental_uris": {"android": "https://dc.lft.to/lastmile_qr_scan", "ios": "https://dc.lft.to/lastmile_qr_scan"}, "lat": 38.89953783333333, "lon": -77.0161915, "fusion_lat": 0.0}, {"is_reserved": 0, "bike_id": "f5e38a7e8de9170df8d127958a78c5c9", "type": "electric_scooter", "name": "f5e38a7e8de9170df8d127958a78c5c9", "is_disabled": 0, "fusion_lon": 0.0, "rental_uris": {"android": "https://dc.lft.to/lastmile_qr_scan", "ios": "https://dc.lft.to/lastmile_qr_scan"}, "lat": 38.914818, "lon": -77.02174116666667, "fusion_lat": 0.0}, {"is_reserved": 0, "bike_id": "944c150f92a76e9f720973944d42824d", "type": "electric_scooter", "name": "944c150f92a76e9f720973944d42824d", "is_disabled": 0, "fusion_lon": 0.0, "rental_uris": {"android": "https://dc.lft.to/lastmile_qr_scan", "ios": "https://dc.lft.to/lastmile_qr_scan"}, "lat": 38.900232333333335, "lon": -77.000025, "fusion_lat": 0.0}, {"is_reserved": 0, "bike_id": "12cfed9a1e28c225ae04d46ff108b3e7", "type": "electric_scooter", "name": "12cfed9a1e28c225ae04d46ff108b3e7", "is_disabled": 0, "fusion_lon": 0.0, "rental_uris": {"android": "https://dc.lft.to/lastmile_qr_scan", "ios": "https://dc.lft.to/lastmile_qr_scan"}, "lat": 38.888628833333335, "lon": -76.990337, "fusion_lat": 0.0}, {"is_reserved": 0, "bike_id": "4ff21b5d774b2a9ec266dac274634da7", "type": "electric_scooter", "name": "4ff21b5d774b2a9ec266dac274634da7", "is_disabled": 0, "fusion_lon": 0.0, "rental_uris": {"android": "https://dc.lft.to/lastmile_qr_scan", "ios": "https://dc.lft.to/lastmile_qr_scan"}, "lat": 38.911897833333335, "lon": -77.03179966666667, "fusion_lat": 0.0}, {"is_reserved": 0, "bike_id": "31ec3b35064392ce57fd647548854c6e", "type": "electric_scooter", "name": "31ec3b35064392ce57fd647548854c6e", "is_disabled": 0, "fusion_lon": 0.0, "rental_uris": {"android": "https://dc.lft.to/lastmile_qr_scan", "ios": "https://dc.lft.to/lastmile_qr_scan"}, "lat": 38.915444, "lon": -77.0220285, "fusion_lat": 0.0}, {"is_reserved": 0, "bike_id": "fd6cb12c7bfa44f3fc0ea6f6e11acdff", "type": "electric_scooter", "name": "fd6cb12c7bfa44f3fc0ea6f6e11acdff", "is_disabled": 0, "fusion_lon": 0.0, "rental_uris": {"android": "https://dc.lft.to/lastmile_qr_scan", "ios": "https://dc.lft.to/lastmile_qr_scan"}, "lat": 38.894725, "lon": -76.95837283333333, "fusion_lat": 0.0}, {"is_reserved": 0, "bike_id": "9e54e5ef958ebe1e15b51340cf5d4b4c", "type": "electric_bike", "name": "9e54e5ef958ebe1e15b51340cf5d4b4c", "is_disabled": 0, "fusion_lon": 0.0, "rental_uris": {"android": "https://dc.lft.to/lastmile_qr_scan", "ios": "https://dc.lft.to/lastmile_qr_scan"}, "lat": 38.87315983333333, "lon": -77.11406916666667, "fusion_lat": 0.0}, {"is_reserved": 0, "bike_id": "8a8e2433d409753a45d3dbe1ac7b919d", "type": "electric_scooter", "name": "8a8e2433d409753a45d3dbe1ac7b919d", "is_disabled": 0, "fusion_lon": 0.0, "rental_uris": {"android": "https://dc.lft.to/lastmile_qr_scan", "ios": "https://dc.lft.to/lastmile_qr_scan"}, "lat": 38.916007, "lon": -77.03211633333333, "fusion_lat": 0.0}, {"is_reserved": 0, "bike_id": "a57c9b88632f608421f435f5e39d9de4", "type": "electric_scooter", "name": "a57c9b88632f608421f435f5e39d9de4", "is_disabled": 0, "fusion_lon": 0.0, "rental_uris": {"android": "https://dc.lft.to/lastmile_qr_scan", "ios": "https://dc.lft.to/lastmile_qr_scan"}, "lat": 38.918469, "lon": -77.03886216666666, "fusion_lat": 0.0}, {"is_reserved": 0, "bike_id": "05e50cfd7fb9e222e104c38418e7c7d1", "type": "electric_scooter", "name": "05e50cfd7fb9e222e104c38418e7c7d1", "is_disabled": 0, "fusion_lon": 0.0, "rental_uris": {"android": "https://dc.lft.to/lastmile_qr_scan", "ios": "https://dc.lft.to/lastmile_qr_scan"}, "lat": 38.90089783333333, "lon": -77.04978166666666, "fusion_lat": 0.0}, {"is_reserved": 0, "bike_id": "dbdee674535c81bf58cbe5b373b2bf12", "type": "electric_scooter", "name": "dbdee674535c81bf58cbe5b373b2bf12", "is_disabled": 0, "fusion_lon": 0.0, "rental_uris": {"android": "https://dc.lft.to/lastmile_qr_scan", "ios": "https://dc.lft.to/lastmile_qr_scan"}, "lat": 38.894111, "lon": -77.02208, "fusion_lat": 0.0}, {"is_reserved": 0, "bike_id": "7b6299678860cd5bab223a711a40ea39", "type": "electric_scooter", "name": "7b6299678860cd5bab223a711a40ea39", "is_disabled": 0, "fusion_lon": 0.0, "rental_uris": {"android": "https://dc.lft.to/lastmile_qr_scan", "ios": "https://dc.lft.to/lastmile_qr_scan"}, "lat": 38.923230833333335, "lon": -77.0433545, "fusion_lat": 0.0}, {"is_reserved": 0, "bike_id": "1e4ea73e6e43157225dd099dfe57a2ba", "type": "electric_scooter", "name": "1e4ea73e6e43157225dd099dfe57a2ba", "is_disabled": 0, "fusion_lon": 0.0, "rental_uris": {"android": "https://dc.lft.to/lastmile_qr_scan", "ios": "https://dc.lft.to/lastmile_qr_scan"}, "lat": 38.92359916666667, "lon": -77.04321383333334, "fusion_lat": 0.0}, {"is_reserved": 0, "bike_id": "fa1e6755b684125be308bdb2fcd3a150", "type": "electric_scooter", "name": "fa1e6755b684125be308bdb2fcd3a150", "is_disabled": 0, "fusion_lon": 0.0, "rental_uris": {"android": "https://dc.lft.to/lastmile_qr_scan", "ios": "https://dc.lft.to/lastmile_qr_scan"}, "lat": 38.94977766666667, "lon": -77.02449266666666, "fusion_lat": 0.0}, {"is_reserved": 0, "bike_id": "26225ba56c0ae7944a9f04688d3c42ab", "type": "electric_scooter", "name": "26225ba56c0ae7944a9f04688d3c42ab", "is_disabled": 0, "fusion_lon": 0.0, "rental_uris": {"android": "https://dc.lft.to/lastmile_qr_scan", "ios": "https://dc.lft.to/lastmile_qr_scan"}, "lat": 38.9226255, "lon": -77.00353633333333, "fusion_lat": 0.0}, {"is_reserved": 0, "bike_id": "307a3bb1bff67999418a5f53b70a6db4", "type": "electric_scooter", "name": "307a3bb1bff67999418a5f53b70a6db4", "is_disabled": 0, "fusion_lon": 0.0, "rental_uris": {"android": "https://dc.lft.to/lastmile_qr_scan", "ios": "https://dc.lft.to/lastmile_qr_scan"}, "lat": 38.94951283333333, "lon": -77.0665535, "fusion_lat": 0.0}, {"is_reserved": 0, "bike_id": "34a8945f5194d91259d40294b804f0e5", "type": "electric_scooter", "name": "34a8945f5194d91259d40294b804f0e5", "is_disabled": 0, "fusion_lon": 0.0, "rental_uris": {"android": "https://dc.lft.to/lastmile_qr_scan", "ios": "https://dc.lft.to/lastmile_qr_scan"}, "lat": 38.89738783333333, "lon": -77.04169283333333, "fusion_lat": 0.0}, {"is_reserved": 0, "bike_id": "52848fac80e3e338ddbc7ed80e252c5f", "type": "electric_scooter", "name": "52848fac80e3e338ddbc7ed80e252c5f", "is_disabled": 0, "fusion_lon": 0.0, "rental_uris": {"android": "https://dc.lft.to/lastmile_qr_scan", "ios": "https://dc.lft.to/lastmile_qr_scan"}, "lat": 38.905014, "lon": -77.0513565, "fusion_lat": 0.0}, {"is_reserved": 0, "bike_id": "82931643577fd8db0c37d23b2b8c4ffe", "type": "electric_scooter", "name": "82931643577fd8db0c37d23b2b8c4ffe", "is_disabled": 0, "fusion_lon": 0.0, "rental_uris": {"android": "https://dc.lft.to/lastmile_qr_scan", "ios": "https://dc.lft.to/lastmile_qr_scan"}, "lat": 38.879181833333334, "lon": -77.02155333333333, "fusion_lat": 0.0}, {"is_reserved": 0, "bike_id": "6f8301218b41cf15bec8a92967101f07", "type": "electric_scooter", "name": "6f8301218b41cf15bec8a92967101f07", "is_disabled": 0, "fusion_lon": 0.0, "rental_uris": {"android": "https://dc.lft.to/lastmile_qr_scan", "ios": "https://dc.lft.to/lastmile_qr_scan"}, "lat": 38.90417333333333, "lon": -77.026409, "fusion_lat": 0.0}, {"is_reserved": 0, "bike_id": "6c12731929f3dba545b4a2c62c44c614", "type": "electric_scooter", "name": "6c12731929f3dba545b4a2c62c44c614", "is_disabled": 0, "fusion_lon": 0.0, "rental_uris": {"android": "https://dc.lft.to/lastmile_qr_scan", "ios": "https://dc.lft.to/lastmile_qr_scan"}, "lat": 38.895427833333336, "lon": -76.983374, "fusion_lat": 0.0}, {"is_reserved": 0, "bike_id": "ed32cea44a798cd571e2df092c6b6080", "type": "electric_bike", "name": "ed32cea44a798cd571e2df092c6b6080", "is_disabled": 0, "fusion_lon": 0.0, "rental_uris": {"android": "https://dc.lft.to/lastmile_qr_scan", "ios": "https://dc.lft.to/lastmile_qr_scan"}, "lat": 39.00188883333333, "lon": -76.90178633333333, "fusion_lat": 0.0}, {"is_reserved": 0, "bike_id": "2ad7fc72012600e11794c7610049cb2a", "type": "electric_scooter", "name": "2ad7fc72012600e11794c7610049cb2a", "is_disabled": 0, "fusion_lon": 0.0, "rental_uris": {"android": "https://dc.lft.to/lastmile_qr_scan", "ios": "https://dc.lft.to/lastmile_qr_scan"}, "lat": 38.92442033333333, "lon": -77.02033633333333, "fusion_lat": 0.0}, {"is_reserved": 0, "bike_id": "df818f87052b3905df2f0deac5ce23cd", "type": "electric_scooter", "name": "df818f87052b3905df2f0deac5ce23cd", "is_disabled": 0, "fusion_lon": 0.0, "rental_uris": {"android": "https://dc.lft.to/lastmile_qr_scan", "ios": "https://dc.lft.to/lastmile_qr_scan"}, "lat": 38.913447833333336, "lon": -77.009272, "fusion_lat": 0.0}, {"is_reserved": 0, "bike_id": "ad7f789d6e57351ded7dc306a3185099", "type": "electric_scooter", "name": "ad7f789d6e57351ded7dc306a3185099", "is_disabled": 0, "fusion_lon": 0.0, "rental_uris": {"android": "https://dc.lft.to/lastmile_qr_scan", "ios": "https://dc.lft.to/lastmile_qr_scan"}, "lat": 38.899127166666666, "lon": -77.00441883333333, "fusion_lat": 0.0}, {"is_reserved": 0, "bike_id": "a31196b7989aab19de842fb928531d09", "type": "electric_scooter", "name": "a31196b7989aab19de842fb928531d09", "is_disabled": 0, "fusion_lon": 0.0, "rental_uris": {"android": "https://dc.lft.to/lastmile_qr_scan", "ios": "https://dc.lft.to/lastmile_qr_scan"}, "lat": 38.89844566666667, "lon": -76.9903245, "fusion_lat": 0.0}, {"is_reserved": 0, "bike_id": "4d880804744141fc85c04c74088eb739", "type": "electric_scooter", "name": "4d880804744141fc85c04c74088eb739", "is_disabled": 0, "fusion_lon": 0.0, "rental_uris": {"android": "https://dc.lft.to/lastmile_qr_scan", "ios": "https://dc.lft.to/lastmile_qr_scan"}, "lat": 38.909800833333335, "lon": -77.00894516666666, "fusion_lat": 0.0}, {"is_reserved": 0, "bike_id": "85397949cd8398b12bc23ce2f8f43ca0", "type": "electric_scooter", "name": "85397949cd8398b12bc23ce2f8f43ca0", "is_disabled": 0, "fusion_lon": 0.0, "rental_uris": {"android": "https://dc.lft.to/lastmile_qr_scan", "ios": "https://dc.lft.to/lastmile_qr_scan"}, "lat": 38.878831, "lon": -77.0005695, "fusion_lat": 0.0}, {"is_reserved": 0, "bike_id": "619c8a60b7241802e8ff601347c4cfa6", "type": "electric_scooter", "name": "619c8a60b7241802e8ff601347c4cfa6", "is_disabled": 0, "fusion_lon": 0.0, "rental_uris": {"android": "https://dc.lft.to/lastmile_qr_scan", "ios": "https://dc.lft.to/lastmile_qr_scan"}, "lat": 38.888567333333334, "lon": -76.97906616666667, "fusion_lat": 0.0}, {"is_reserved": 0, "bike_id": "9923f448321a15a048d53f23bdb8e293", "type": "electric_bike", "name": "9923f448321a15a048d53f23bdb8e293", "is_disabled": 0, "fusion_lon": 0.0, "rental_uris": {"android": "https://dc.lft.to/lastmile_qr_scan", "ios": "https://dc.lft.to/lastmile_qr_scan"}, "lat": 38.87576966666666, "lon": -77.23412233333333, "fusion_lat": 0.0}, {"is_reserved": 0, "bike_id": "b26c794fc7eca3ffdb9a5ea45d050596", "type": "electric_scooter", "name": "b26c794fc7eca3ffdb9a5ea45d050596", "is_disabled": 0, "fusion_lon": 0.0, "rental_uris": {"android": "https://dc.lft.to/lastmile_qr_scan", "ios": "https://dc.lft.to/lastmile_qr_scan"}, "lat": 38.90048083333333, "lon": -76.988306, "fusion_lat": 0.0}, {"is_reserved": 0, "bike_id": "d2496522275f2981114bd155721ada1e", "type": "electric_scooter", "name": "d2496522275f2981114bd155721ada1e", "is_disabled": 0, "fusion_lon": 0.0, "rental_uris": {"android": "https://dc.lft.to/lastmile_qr_scan", "ios": "https://dc.lft.to/lastmile_qr_scan"}, "lat": 38.9097275, "lon": -77.0487355, "fusion_lat": 0.0}, {"is_reserved": 0, "bike_id": "8ebc16bb5e6d5da9e22d68258456f206", "type": "electric_scooter", "name": "8ebc16bb5e6d5da9e22d68258456f206", "is_disabled": 0, "fusion_lon": 0.0, "rental_uris": {"android": "https://dc.lft.to/lastmile_qr_scan", "ios": "https://dc.lft.to/lastmile_qr_scan"}, "lat": 38.91410183333333, "lon": -77.018042, "fusion_lat": 0.0}, {"is_reserved": 0, "bike_id": "5b68eb584a6d77b7cb33a9b4d86dd4ee", "type": "electric_scooter", "name": "5b68eb584a6d77b7cb33a9b4d86dd4ee", "is_disabled": 0, "fusion_lon": 0.0, "rental_uris": {"android": "https://dc.lft.to/lastmile_qr_scan", "ios": "https://dc.lft.to/lastmile_qr_scan"}, "lat": 38.89041433333333, "lon": -76.9897465, "fusion_lat": 0.0}, {"is_reserved": 0, "bike_id": "5ac5ba73ce93e1f07d0509c1ba6e8411", "type": "electric_scooter", "name": "5ac5ba73ce93e1f07d0509c1ba6e8411", "is_disabled": 0, "fusion_lon": 0.0, "rental_uris": {"android": "https://dc.lft.to/lastmile_qr_scan", "ios": "https://dc.lft.to/lastmile_qr_scan"}, "lat": 38.9010535, "lon": -77.0410015, "fusion_lat": 0.0}, {"is_reserved": 0, "bike_id": "ce9b4a977278d735005a49a41e4c4509", "type": "electric_scooter", "name": "ce9b4a977278d735005a49a41e4c4509", "is_disabled": 0, "fusion_lon": 0.0, "rental_uris": {"android": "https://dc.lft.to/lastmile_qr_scan", "ios": "https://dc.lft.to/lastmile_qr_scan"}, "lat": 38.9055405, "lon": -77.0011955, "fusion_lat": 0.0}, {"is_reserved": 0, "bike_id": "191c95a928a18e38b5769e16355fe6e7", "type": "electric_scooter", "name": "191c95a928a18e38b5769e16355fe6e7", "is_disabled": 0, "fusion_lon": 0.0, "rental_uris": {"android": "https://dc.lft.to/lastmile_qr_scan", "ios": "https://dc.lft.to/lastmile_qr_scan"}, "lat": 38.909837833333334, "lon": -77.064754, "fusion_lat": 0.0}, {"is_reserved": 0, "bike_id": "9b95d45ab0cddfff8e1d320b672ed65c", "type": "electric_scooter", "name": "9b95d45ab0cddfff8e1d320b672ed65c", "is_disabled": 0, "fusion_lon": 0.0, "rental_uris": {"android": "https://dc.lft.to/lastmile_qr_scan", "ios": "https://dc.lft.to/lastmile_qr_scan"}, "lat": 38.87628733333333, "lon": -77.00395316666666, "fusion_lat": 0.0}, {"is_reserved": 0, "bike_id": "ccae4350bda256afd931ed14e0a15851", "type": "electric_scooter", "name": "ccae4350bda256afd931ed14e0a15851", "is_disabled": 0, "fusion_lon": 0.0, "rental_uris": {"android": "https://dc.lft.to/lastmile_qr_scan", "ios": "https://dc.lft.to/lastmile_qr_scan"}, "lat": 38.86210466666667, "lon": -76.99478733333333, "fusion_lat": 0.0}, {"is_reserved": 0, "bike_id": "109038ed2e4a6679f57790dd141d25d3", "type": "electric_scooter", "name": "109038ed2e4a6679f57790dd141d25d3", "is_disabled": 0, "fusion_lon": 0.0, "rental_uris": {"android": "https://dc.lft.to/lastmile_qr_scan", "ios": "https://dc.lft.to/lastmile_qr_scan"}, "lat": 38.937666166666666, "lon": -77.03286566666667, "fusion_lat": 0.0}, {"is_reserved": 0, "bike_id": "23b1b2220a436c0f0e7273464f838a33", "type": "electric_scooter", "name": "23b1b2220a436c0f0e7273464f838a33", "is_disabled": 0, "fusion_lon": 0.0, "rental_uris": {"android": "https://dc.lft.to/lastmile_qr_scan", "ios": "https://dc.lft.to/lastmile_qr_scan"}, "lat": 38.908031333333334, "lon": -76.99694066666666, "fusion_lat": 0.0}, {"is_reserved": 0, "bike_id": "60a4367bdeff26014f4910723d58f173", "type": "electric_scooter", "name": "60a4367bdeff26014f4910723d58f173", "is_disabled": 0, "fusion_lon": 0.0, "rental_uris": {"android": "https://dc.lft.to/lastmile_qr_scan", "ios": "https://dc.lft.to/lastmile_qr_scan"}, "lat": 38.90098316666667, "lon": -76.976794, "fusion_lat": 0.0}, {"is_reserved": 0, "bike_id": "ed90240e0623e39ab2b2915f7358e32a", "type": "electric_scooter", "name": "ed90240e0623e39ab2b2915f7358e32a", "is_disabled": 0, "fusion_lon": 0.0, "rental_uris": {"android": "https://dc.lft.to/lastmile_qr_scan", "ios": "https://dc.lft.to/lastmile_qr_scan"}, "lat": 38.92981266666666, "lon": -77.03470333333334, "fusion_lat": 0.0}, {"is_reserved": 0, "bike_id": "5777d404cff682fdbc58312582f0f1c9", "type": "electric_scooter", "name": "5777d404cff682fdbc58312582f0f1c9", "is_disabled": 0, "fusion_lon": 0.0, "rental_uris": {"android": "https://dc.lft.to/lastmile_qr_scan", "ios": "https://dc.lft.to/lastmile_qr_scan"}, "lat": 38.91407383333333, "lon": -77.01793583333334, "fusion_lat": 0.0}, {"is_reserved": 0, "bike_id": "7dd67b5f7abeab6444077385ae209209", "type": "electric_scooter", "name": "7dd67b5f7abeab6444077385ae209209", "is_disabled": 0, "fusion_lon": 0.0, "rental_uris": {"android": "https://dc.lft.to/lastmile_qr_scan", "ios": "https://dc.lft.to/lastmile_qr_scan"}, "lat": 38.89884383333333, "lon": -77.00348666666666, "fusion_lat": 0.0}, {"is_reserved": 0, "bike_id": "9204a38fad112b99d99595a49c3ec1ad", "type": "electric_scooter", "name": "9204a38fad112b99d99595a49c3ec1ad", "is_disabled": 0, "fusion_lon": 0.0, "rental_uris": {"android": "https://dc.lft.to/lastmile_qr_scan", "ios": "https://dc.lft.to/lastmile_qr_scan"}, "lat": 38.93069416666667, "lon": -77.02332916666667, "fusion_lat": 0.0}, {"is_reserved": 0, "bike_id": "906759bc18fff0c51c26fe88223aae89", "type": "electric_scooter", "name": "906759bc18fff0c51c26fe88223aae89", "is_disabled": 0, "fusion_lon": 0.0, "rental_uris": {"android": "https://dc.lft.to/lastmile_qr_scan", "ios": "https://dc.lft.to/lastmile_qr_scan"}, "lat": 38.90964783333333, "lon": -76.98463233333334, "fusion_lat": 0.0}, {"is_reserved": 0, "bike_id": "a11565a75d8d8ebea763fa61c4afed26", "type": "electric_bike", "name": "a11565a75d8d8ebea763fa61c4afed26", "is_disabled": 0, "fusion_lon": 0.0, "rental_uris": {"android": "https://dc.lft.to/lastmile_qr_scan", "ios": "https://dc.lft.to/lastmile_qr_scan"}, "lat": 38.90606366666667, "lon": -77.1289455, "fusion_lat": 0.0}, {"is_reserved": 0, "bike_id": "4b897a9add389a780d88ba93be011bd7", "type": "electric_scooter", "name": "4b897a9add389a780d88ba93be011bd7", "is_disabled": 0, "fusion_lon": 0.0, "rental_uris": {"android": "https://dc.lft.to/lastmile_qr_scan", "ios": "https://dc.lft.to/lastmile_qr_scan"}, "lat": 38.91718483333333, "lon": -77.04153883333333, "fusion_lat": 0.0}, {"is_reserved": 0, "bike_id": "5707d1b84d6c7eea7ad33778b60a802b", "type": "electric_scooter", "name": "5707d1b84d6c7eea7ad33778b60a802b", "is_disabled": 0, "fusion_lon": 0.0, "rental_uris": {"android": "https://dc.lft.to/lastmile_qr_scan", "ios": "https://dc.lft.to/lastmile_qr_scan"}, "lat": 38.882624, "lon": -77.00364983333333, "fusion_lat": 0.0}, {"is_reserved": 0, "bike_id": "fe9e82e49434773f59e2f56eac5f28c0", "type": "electric_bike", "name": "fe9e82e49434773f59e2f56eac5f28c0", "is_disabled": 0, "fusion_lon": 0.0, "rental_uris": {"android": "https://dc.lft.to/lastmile_qr_scan", "ios": "https://dc.lft.to/lastmile_qr_scan"}, "lat": 38.90908066666667, "lon": -77.09002916666667, "fusion_lat": 0.0}, {"is_reserved": 0, "bike_id": "7755dc168cc40ffe2707d4f7f496848f", "type": "electric_scooter", "name": "7755dc168cc40ffe2707d4f7f496848f", "is_disabled": 0, "fusion_lon": 0.0, "rental_uris": {"android": "https://dc.lft.to/lastmile_qr_scan", "ios": "https://dc.lft.to/lastmile_qr_scan"}, "lat": 38.9101135, "lon": -76.99389666666667, "fusion_lat": 0.0}, {"is_reserved": 0, "bike_id": "af3cc8dd0d494f4a4f7c0556ccef1671", "type": "electric_scooter", "name": "af3cc8dd0d494f4a4f7c0556ccef1671", "is_disabled": 0, "fusion_lon": 0.0, "rental_uris": {"android": "https://dc.lft.to/lastmile_qr_scan", "ios": "https://dc.lft.to/lastmile_qr_scan"}, "lat": 38.919666166666666, "lon": -77.03854283333334, "fusion_lat": 0.0}, {"is_reserved": 0, "bike_id": "ae6343af4a1a228f24dde893d9c3240f", "type": "electric_scooter", "name": "ae6343af4a1a228f24dde893d9c3240f", "is_disabled": 0, "fusion_lon": 0.0, "rental_uris": {"android": "https://dc.lft.to/lastmile_qr_scan", "ios": "https://dc.lft.to/lastmile_qr_scan"}, "lat": 38.922254833333334, "lon": -77.04443816666667, "fusion_lat": 0.0}, {"is_reserved": 0, "bike_id": "4fc56c05fe3cc46f4213c2942b6c036c", "type": "electric_scooter", "name": "4fc56c05fe3cc46f4213c2942b6c036c", "is_disabled": 0, "fusion_lon": 0.0, "rental_uris": {"android": "https://dc.lft.to/lastmile_qr_scan", "ios": "https://dc.lft.to/lastmile_qr_scan"}, "lat": 38.9168605, "lon": -77.02954466666667, "fusion_lat": 0.0}, {"is_reserved": 0, "bike_id": "14bea4b1b751a09faa4ec3db3abc7e73", "type": "electric_scooter", "name": "14bea4b1b751a09faa4ec3db3abc7e73", "is_disabled": 0, "fusion_lon": 0.0, "rental_uris": {"android": "https://dc.lft.to/lastmile_qr_scan", "ios": "https://dc.lft.to/lastmile_qr_scan"}, "lat": 38.96219833333333, "lon": -77.02781866666666, "fusion_lat": 0.0}, {"is_reserved": 0, "bike_id": "d3a0cc69fe372c0a65261df91fe71222", "type": "electric_scooter", "name": "d3a0cc69fe372c0a65261df91fe71222", "is_disabled": 0, "fusion_lon": 0.0, "rental_uris": {"android": "https://dc.lft.to/lastmile_qr_scan", "ios": "https://dc.lft.to/lastmile_qr_scan"}, "lat": 38.903113, "lon": -77.03674333333333, "fusion_lat": 0.0}, {"is_reserved": 0, "bike_id": "9c67ab1b07a657291cf016d47a9c3279", "type": "electric_scooter", "name": "9c67ab1b07a657291cf016d47a9c3279", "is_disabled": 0, "fusion_lon": 0.0, "rental_uris": {"android": "https://dc.lft.to/lastmile_qr_scan", "ios": "https://dc.lft.to/lastmile_qr_scan"}, "lat": 38.92017533333333, "lon": -77.07137333333333, "fusion_lat": 0.0}, {"is_reserved": 0, "bike_id": "e38a087371235d0affb617447ecd64ce", "type": "electric_bike", "name": "e38a087371235d0affb617447ecd64ce", "is_disabled": 0, "fusion_lon": 0.0, "rental_uris": {"android": "https://dc.lft.to/lastmile_qr_scan", "ios": "https://dc.lft.to/lastmile_qr_scan"}, "lat": 38.89948033333334, "lon": -77.04964233333334, "fusion_lat": 0.0}, {"is_reserved": 0, "bike_id": "19341c5b3bebe259486c76e2b471406f", "type": "electric_scooter", "name": "19341c5b3bebe259486c76e2b471406f", "is_disabled": 0, "fusion_lon": 0.0, "rental_uris": {"android": "https://dc.lft.to/lastmile_qr_scan", "ios": "https://dc.lft.to/lastmile_qr_scan"}, "lat": 38.898698333333336, "lon": -76.946673, "fusion_lat": 0.0}, {"is_reserved": 0, "bike_id": "3441d036ec6c046522ef64d95bb0c049", "type": "electric_bike", "name": "3441d036ec6c046522ef64d95bb0c049", "is_disabled": 0, "fusion_lon": 0.0, "rental_uris": {"android": "https://dc.lft.to/lastmile_qr_scan", "ios": "https://dc.lft.to/lastmile_qr_scan"}, "lat": 38.87663033333333, "lon": -77.00017, "fusion_lat": 0.0}, {"is_reserved": 0, "bike_id": "6a23a2edec24da458efffdcde05ac600", "type": "electric_scooter", "name": "6a23a2edec24da458efffdcde05ac600", "is_disabled": 0, "fusion_lon": 0.0, "rental_uris": {"android": "https://dc.lft.to/lastmile_qr_scan", "ios": "https://dc.lft.to/lastmile_qr_scan"}, "lat": 38.9103225, "lon": -77.03262133333334, "fusion_lat": 0.0}, {"is_reserved": 0, "bike_id": "a80e2ac2eaf6cc3fc000a432442ca528", "type": "electric_scooter", "name": "a80e2ac2eaf6cc3fc000a432442ca528", "is_disabled": 0, "fusion_lon": 0.0, "rental_uris": {"android": "https://dc.lft.to/lastmile_qr_scan", "ios": "https://dc.lft.to/lastmile_qr_scan"}, "lat": 38.89667516666667, "lon": -76.93209916666666, "fusion_lat": 0.0}, {"is_reserved": 0, "bike_id": "21f61a21e251ef12217a8e4af01b95c8", "type": "electric_scooter", "name": "21f61a21e251ef12217a8e4af01b95c8", "is_disabled": 0, "fusion_lon": 0.0, "rental_uris": {"android": "https://dc.lft.to/lastmile_qr_scan", "ios": "https://dc.lft.to/lastmile_qr_scan"}, "lat": 38.92562083333333, "lon": -77.02897183333333, "fusion_lat": 0.0}, {"is_reserved": 0, "bike_id": "0783fa6f118a6fe90a707e5de10e5493", "type": "electric_scooter", "name": "0783fa6f118a6fe90a707e5de10e5493", "is_disabled": 0, "fusion_lon": 0.0, "rental_uris": {"android": "https://dc.lft.to/lastmile_qr_scan", "ios": "https://dc.lft.to/lastmile_qr_scan"}, "lat": 38.924591666666664, "lon": -77.03967633333333, "fusion_lat": 0.0}, {"is_reserved": 0, "bike_id": "93a7461c95ba8dce11aa7317007dbece", "type": "electric_scooter", "name": "93a7461c95ba8dce11aa7317007dbece", "is_disabled": 0, "fusion_lon": 0.0, "rental_uris": {"android": "https://dc.lft.to/lastmile_qr_scan", "ios": "https://dc.lft.to/lastmile_qr_scan"}, "lat": 38.9199965, "lon": -77.02385433333333, "fusion_lat": 0.0}, {"is_reserved": 0, "bike_id": "e84615453ad259df974bae5933bd5092", "type": "electric_scooter", "name": "e84615453ad259df974bae5933bd5092", "is_disabled": 0, "fusion_lon": 0.0, "rental_uris": {"android": "https://dc.lft.to/lastmile_qr_scan", "ios": "https://dc.lft.to/lastmile_qr_scan"}, "lat": 38.92173233333333, "lon": -77.0401425, "fusion_lat": 0.0}, {"is_reserved": 0, "bike_id": "7398f12d89bc901fdfe1bc02bc8bc975", "type": "electric_scooter", "name": "7398f12d89bc901fdfe1bc02bc8bc975", "is_disabled": 0, "fusion_lon": 0.0, "rental_uris": {"android": "https://dc.lft.to/lastmile_qr_scan", "ios": "https://dc.lft.to/lastmile_qr_scan"}, "lat": 38.896014, "lon": -77.02262183333333, "fusion_lat": 0.0}, {"is_reserved": 0, "bike_id": "11c021feed990498c3dcfbe9ec5b95ed", "type": "electric_bike", "name": "11c021feed990498c3dcfbe9ec5b95ed", "is_disabled": 0, "fusion_lon": 0.0, "rental_uris": {"android": "https://dc.lft.to/lastmile_qr_scan", "ios": "https://dc.lft.to/lastmile_qr_scan"}, "lat": 38.8047845, "lon": -76.99097966666666, "fusion_lat": 0.0}, {"is_reserved": 0, "bike_id": "b7505423ddfd478c3775aba5358fbc4f", "type": "electric_scooter", "name": "b7505423ddfd478c3775aba5358fbc4f", "is_disabled": 0, "fusion_lon": 0.0, "rental_uris": {"android": "https://dc.lft.to/lastmile_qr_scan", "ios": "https://dc.lft.to/lastmile_qr_scan"}, "lat": 38.92284383333333, "lon": -77.03661166666667, "fusion_lat": 0.0}, {"is_reserved": 0, "bike_id": "97b5906c108facf275685fbe287190f9", "type": "electric_scooter", "name": "97b5906c108facf275685fbe287190f9", "is_disabled": 0, "fusion_lon": 0.0, "rental_uris": {"android": "https://dc.lft.to/lastmile_qr_scan", "ios": "https://dc.lft.to/lastmile_qr_scan"}, "lat": 38.948871, "lon": -77.0185205, "fusion_lat": 0.0}, {"is_reserved": 0, "bike_id": "ac1fade96801510f35e59b7b1842ea3a", "type": "electric_bike", "name": "ac1fade96801510f35e59b7b1842ea3a", "is_disabled": 0, "fusion_lon": 0.0, "rental_uris": {"android": "https://dc.lft.to/lastmile_qr_scan", "ios": "https://dc.lft.to/lastmile_qr_scan"}, "lat": 38.9447335, "lon": -76.98690516666667, "fusion_lat": 0.0}, {"is_reserved": 0, "bike_id": "4328d10cbaa1d63f8287ca2e83dd9a02", "type": "electric_scooter", "name": "4328d10cbaa1d63f8287ca2e83dd9a02", "is_disabled": 0, "fusion_lon": 0.0, "rental_uris": {"android": "https://dc.lft.to/lastmile_qr_scan", "ios": "https://dc.lft.to/lastmile_qr_scan"}, "lat": 38.92280233333334, "lon": -77.036542, "fusion_lat": 0.0}, {"is_reserved": 0, "bike_id": "53bb6d8be7e1f25158f33290029f248e", "type": "electric_bike", "name": "53bb6d8be7e1f25158f33290029f248e", "is_disabled": 0, "fusion_lon": 0.0, "rental_uris": {"android": "https://dc.lft.to/lastmile_qr_scan", "ios": "https://dc.lft.to/lastmile_qr_scan"}, "lat": 38.9577235, "lon": -77.08022033333333, "fusion_lat": 0.0}, {"is_reserved": 0, "bike_id": "0fcc258bf35ca239af3e964d765ab879", "type": "electric_bike", "name": "0fcc258bf35ca239af3e964d765ab879", "is_disabled": 0, "fusion_lon": 0.0, "rental_uris": {"android": "https://dc.lft.to/lastmile_qr_scan", "ios": "https://dc.lft.to/lastmile_qr_scan"}, "lat": 38.8378675, "lon": -77.09351233333334, "fusion_lat": 0.0}, {"is_reserved": 0, "bike_id": "19aa719436ed10dd84c601f6c3a32cc3", "type": "electric_bike", "name": "19aa719436ed10dd84c601f6c3a32cc3", "is_disabled": 0, "fusion_lon": 0.0, "rental_uris": {"android": "https://dc.lft.to/lastmile_qr_scan", "ios": "https://dc.lft.to/lastmile_qr_scan"}, "lat": 38.8728215, "lon": -77.23321983333334, "fusion_lat": 0.0}, {"is_reserved": 0, "bike_id": "614d1391292029c8a73b3eb262657598", "type": "electric_bike", "name": "614d1391292029c8a73b3eb262657598", "is_disabled": 0, "fusion_lon": 0.0, "rental_uris": {"android": "https://dc.lft.to/lastmile_qr_scan", "ios": "https://dc.lft.to/lastmile_qr_scan"}, "lat": 38.86564883333333, "lon": -76.97327333333334, "fusion_lat": 0.0}, {"is_reserved": 0, "bike_id": "c9f43cbff79adb4f9d661d2e46326ab6", "type": "electric_scooter", "name": "c9f43cbff79adb4f9d661d2e46326ab6", "is_disabled": 0, "fusion_lon": 0.0, "rental_uris": {"android": "https://dc.lft.to/lastmile_qr_scan", "ios": "https://dc.lft.to/lastmile_qr_scan"}, "lat": 38.9166435, "lon": -77.03849566666666, "fusion_lat": 0.0}, {"is_reserved": 0, "bike_id": "6264cf54bcf9adaea4851b4df26a2d36", "type": "electric_bike", "name": "6264cf54bcf9adaea4851b4df26a2d36", "is_disabled": 0, "fusion_lon": 0.0, "rental_uris": {"android": "https://dc.lft.to/lastmile_qr_scan", "ios": "https://dc.lft.to/lastmile_qr_scan"}, "lat": 38.89072, "lon": -77.18307566666667, "fusion_lat": 0.0}, {"is_reserved": 0, "bike_id": "b24c7a19183beff5f89dc3fbec998197", "type": "electric_scooter", "name": "b24c7a19183beff5f89dc3fbec998197", "is_disabled": 0, "fusion_lon": 0.0, "rental_uris": {"android": "https://dc.lft.to/lastmile_qr_scan", "ios": "https://dc.lft.to/lastmile_qr_scan"}, "lat": 38.91559216666667, "lon": -77.03877433333334, "fusion_lat": 0.0}, {"is_reserved": 0, "bike_id": "a97446ad58711f2315c720d4310e4ee2", "type": "electric_scooter", "name": "a97446ad58711f2315c720d4310e4ee2", "is_disabled": 0, "fusion_lon": 0.0, "rental_uris": {"android": "https://dc.lft.to/lastmile_qr_scan", "ios": "https://dc.lft.to/lastmile_qr_scan"}, "lat": 38.923128166666665, "lon": -77.0290555, "fusion_lat": 0.0}, {"is_reserved": 0, "bike_id": "5f5be2f926c069e81799a0843afc33c0", "type": "electric_scooter", "name": "5f5be2f926c069e81799a0843afc33c0", "is_disabled": 0, "fusion_lon": 0.0, "rental_uris": {"android": "https://dc.lft.to/lastmile_qr_scan", "ios": "https://dc.lft.to/lastmile_qr_scan"}, "lat": 38.928776666666664, "lon": -77.01360216666667, "fusion_lat": 0.0}, {"is_reserved": 0, "bike_id": "b36f1d8465dc6960f7084bc74d49714a", "type": "electric_scooter", "name": "b36f1d8465dc6960f7084bc74d49714a", "is_disabled": 0, "fusion_lon": 0.0, "rental_uris": {"android": "https://dc.lft.to/lastmile_qr_scan", "ios": "https://dc.lft.to/lastmile_qr_scan"}, "lat": 38.887277833333336, "lon": -77.01527633333333, "fusion_lat": 0.0}, {"is_reserved": 0, "bike_id": "95fba10ab8237db7d513d1405133e0e0", "type": "electric_scooter", "name": "95fba10ab8237db7d513d1405133e0e0", "is_disabled": 0, "fusion_lon": 0.0, "rental_uris": {"android": "https://dc.lft.to/lastmile_qr_scan", "ios": "https://dc.lft.to/lastmile_qr_scan"}, "lat": 38.89236783333333, "lon": -77.02793433333333, "fusion_lat": 0.0}, {"is_reserved": 0, "bike_id": "8ff48ccbd57537f97c5544466653e03d", "type": "electric_scooter", "name": "8ff48ccbd57537f97c5544466653e03d", "is_disabled": 0, "fusion_lon": 0.0, "rental_uris": {"android": "https://dc.lft.to/lastmile_qr_scan", "ios": "https://dc.lft.to/lastmile_qr_scan"}, "lat": 38.92045816666667, "lon": -77.02431233333333, "fusion_lat": 0.0}, {"is_reserved": 0, "bike_id": "9475e08648f0b5600b2a3a47be4c050a", "type": "electric_scooter", "name": "9475e08648f0b5600b2a3a47be4c050a", "is_disabled": 0, "fusion_lon": 0.0, "rental_uris": {"android": "https://dc.lft.to/lastmile_qr_scan", "ios": "https://dc.lft.to/lastmile_qr_scan"}, "lat": 38.93579783333333, "lon": -77.02454633333333, "fusion_lat": 0.0}, {"is_reserved": 0, "bike_id": "37fbc058653852a5c4a169974bdd7613", "type": "electric_scooter", "name": "37fbc058653852a5c4a169974bdd7613", "is_disabled": 0, "fusion_lon": 0.0, "rental_uris": {"android": "https://dc.lft.to/lastmile_qr_scan", "ios": "https://dc.lft.to/lastmile_qr_scan"}, "lat": 38.91060483333333, "lon": -77.05386566666667, "fusion_lat": 0.0}, {"is_reserved": 0, "bike_id": "c71957e008d0a1400e28d337d222df88", "type": "electric_scooter", "name": "c71957e008d0a1400e28d337d222df88", "is_disabled": 0, "fusion_lon": 0.0, "rental_uris": {"android": "https://dc.lft.to/lastmile_qr_scan", "ios": "https://dc.lft.to/lastmile_qr_scan"}, "lat": 38.91708833333333, "lon": -77.03870816666667, "fusion_lat": 0.0}, {"is_reserved": 0, "bike_id": "e3e0c359657c08cdd252740ed57d6f7d", "type": "electric_scooter", "name": "e3e0c359657c08cdd252740ed57d6f7d", "is_disabled": 0, "fusion_lon": 0.0, "rental_uris": {"android": "https://dc.lft.to/lastmile_qr_scan", "ios": "https://dc.lft.to/lastmile_qr_scan"}, "lat": 38.905990333333335, "lon": -77.021104, "fusion_lat": 0.0}, {"is_reserved": 0, "bike_id": "5a9c096f5b15388be13541f5eebb1769", "type": "electric_scooter", "name": "5a9c096f5b15388be13541f5eebb1769", "is_disabled": 0, "fusion_lon": 0.0, "rental_uris": {"android": "https://dc.lft.to/lastmile_qr_scan", "ios": "https://dc.lft.to/lastmile_qr_scan"}, "lat": 38.89932016666667, "lon": -77.03915783333333, "fusion_lat": 0.0}, {"is_reserved": 0, "bike_id": "69b0505d11304828b383f59de641a03b", "type": "electric_scooter", "name": "69b0505d11304828b383f59de641a03b", "is_disabled": 0, "fusion_lon": 0.0, "rental_uris": {"android": "https://dc.lft.to/lastmile_qr_scan", "ios": "https://dc.lft.to/lastmile_qr_scan"}, "lat": 38.884802, "lon": -77.033514, "fusion_lat": 0.0}, {"is_reserved": 0, "bike_id": "06057303fe4b84ebf7d5326c4476dfdf", "type": "electric_scooter", "name": "06057303fe4b84ebf7d5326c4476dfdf", "is_disabled": 0, "fusion_lon": 0.0, "rental_uris": {"android": "https://dc.lft.to/lastmile_qr_scan", "ios": "https://dc.lft.to/lastmile_qr_scan"}, "lat": 38.936175166666665, "lon": -77.03285116666666, "fusion_lat": 0.0}, {"is_reserved": 0, "bike_id": "055d4e10625fd8a01ed532e9a05a6463", "type": "electric_scooter", "name": "055d4e10625fd8a01ed532e9a05a6463", "is_disabled": 0, "fusion_lon": 0.0, "rental_uris": {"android": "https://dc.lft.to/lastmile_qr_scan", "ios": "https://dc.lft.to/lastmile_qr_scan"}, "lat": 38.901261833333336, "lon": -77.04395516666666, "fusion_lat": 0.0}, {"is_reserved": 0, "bike_id": "cae0a2d896ce5e512beaee8cfd13cac7", "type": "electric_scooter", "name": "cae0a2d896ce5e512beaee8cfd13cac7", "is_disabled": 0, "fusion_lon": 0.0, "rental_uris": {"android": "https://dc.lft.to/lastmile_qr_scan", "ios": "https://dc.lft.to/lastmile_qr_scan"}, "lat": 38.93260466666667, "lon": -77.032696, "fusion_lat": 0.0}, {"is_reserved": 0, "bike_id": "436d1bbeed5816b270dd17531d99122b", "type": "electric_scooter", "name": "436d1bbeed5816b270dd17531d99122b", "is_disabled": 0, "fusion_lon": 0.0, "rental_uris": {"android": "https://dc.lft.to/lastmile_qr_scan", "ios": "https://dc.lft.to/lastmile_qr_scan"}, "lat": 38.88742883333333, "lon": -77.021321, "fusion_lat": 0.0}, {"is_reserved": 0, "bike_id": "8b47323d9a5f52df5e8b11cdfe4b2b1c", "type": "electric_scooter", "name": "8b47323d9a5f52df5e8b11cdfe4b2b1c", "is_disabled": 0, "fusion_lon": 0.0, "rental_uris": {"android": "https://dc.lft.to/lastmile_qr_scan", "ios": "https://dc.lft.to/lastmile_qr_scan"}, "lat": 38.899980666666664, "lon": -77.0111425, "fusion_lat": 0.0}, {"is_reserved": 0, "bike_id": "c94f58fb38565c5645b4a79b2433055c", "type": "electric_scooter", "name": "c94f58fb38565c5645b4a79b2433055c", "is_disabled": 0, "fusion_lon": 0.0, "rental_uris": {"android": "https://dc.lft.to/lastmile_qr_scan", "ios": "https://dc.lft.to/lastmile_qr_scan"}, "lat": 38.872248166666665, "lon": -76.96818683333333, "fusion_lat": 0.0}, {"is_reserved": 0, "bike_id": "7bd4935ae0f6458ed855b8ac3c2efdab", "type": "electric_scooter", "name": "7bd4935ae0f6458ed855b8ac3c2efdab", "is_disabled": 0, "fusion_lon": 0.0, "rental_uris": {"android": "https://dc.lft.to/lastmile_qr_scan", "ios": "https://dc.lft.to/lastmile_qr_scan"}, "lat": 38.90252266666667, "lon": -77.01755916666667, "fusion_lat": 0.0}, {"is_reserved": 0, "bike_id": "fe701b8d70ecdacbaf8b6c208cd40326", "type": "electric_scooter", "name": "fe701b8d70ecdacbaf8b6c208cd40326", "is_disabled": 0, "fusion_lon": 0.0, "rental_uris": {"android": "https://dc.lft.to/lastmile_qr_scan", "ios": "https://dc.lft.to/lastmile_qr_scan"}, "lat": 38.914423666666664, "lon": -77.02295166666667, "fusion_lat": 0.0}, {"is_reserved": 0, "bike_id": "6bb4b03dd7fbc3e472b99d00c72775f9", "type": "electric_scooter", "name": "6bb4b03dd7fbc3e472b99d00c72775f9", "is_disabled": 0, "fusion_lon": 0.0, "rental_uris": {"android": "https://dc.lft.to/lastmile_qr_scan", "ios": "https://dc.lft.to/lastmile_qr_scan"}, "lat": 38.938570666666664, "lon": -77.02468116666667, "fusion_lat": 0.0}, {"is_reserved": 0, "bike_id": "c94cc2ac5a5826085f3e253c65a0d2b3", "type": "electric_scooter", "name": "c94cc2ac5a5826085f3e253c65a0d2b3", "is_disabled": 0, "fusion_lon": 0.0, "rental_uris": {"android": "https://dc.lft.to/lastmile_qr_scan", "ios": "https://dc.lft.to/lastmile_qr_scan"}, "lat": 38.896169666666665, "lon": -76.997354, "fusion_lat": 0.0}, {"is_reserved": 0, "bike_id": "7061225573af884439c4296cdb68cee4", "type": "electric_scooter", "name": "7061225573af884439c4296cdb68cee4", "is_disabled": 0, "fusion_lon": 0.0, "rental_uris": {"android": "https://dc.lft.to/lastmile_qr_scan", "ios": "https://dc.lft.to/lastmile_qr_scan"}, "lat": 38.918184, "lon": -77.04174133333333, "fusion_lat": 0.0}, {"is_reserved": 0, "bike_id": "a98bda5f4b4db0a0a71370064b606d0a", "type": "electric_scooter", "name": "a98bda5f4b4db0a0a71370064b606d0a", "is_disabled": 0, "fusion_lon": 0.0, "rental_uris": {"android": "https://dc.lft.to/lastmile_qr_scan", "ios": "https://dc.lft.to/lastmile_qr_scan"}, "lat": 38.934742, "lon": -77.072785, "fusion_lat": 0.0}, {"is_reserved": 0, "bike_id": "ebf687589dd22c810a7ef7aa22007b20", "type": "electric_scooter", "name": "ebf687589dd22c810a7ef7aa22007b20", "is_disabled": 0, "fusion_lon": 0.0, "rental_uris": {"android": "https://dc.lft.to/lastmile_qr_scan", "ios": "https://dc.lft.to/lastmile_qr_scan"}, "lat": 38.9153725, "lon": -77.0444995, "fusion_lat": 0.0}, {"is_reserved": 0, "bike_id": "3a91e306930c4d7147ba4fcea28e0b4a", "type": "electric_scooter", "name": "3a91e306930c4d7147ba4fcea28e0b4a", "is_disabled": 0, "fusion_lon": 0.0, "rental_uris": {"android": "https://dc.lft.to/lastmile_qr_scan", "ios": "https://dc.lft.to/lastmile_qr_scan"}, "lat": 38.91540633333334, "lon": -77.044285, "fusion_lat": 0.0}, {"is_reserved": 0, "bike_id": "0f41cd3e8c5425e2c8b21114fe53e3d0", "type": "electric_scooter", "name": "0f41cd3e8c5425e2c8b21114fe53e3d0", "is_disabled": 0, "fusion_lon": 0.0, "rental_uris": {"android": "https://dc.lft.to/lastmile_qr_scan", "ios": "https://dc.lft.to/lastmile_qr_scan"}, "lat": 38.9274715, "lon": -77.02964966666667, "fusion_lat": 0.0}, {"is_reserved": 0, "bike_id": "92cca96fc38edf7bdfec32a29bee1a59", "type": "electric_scooter", "name": "92cca96fc38edf7bdfec32a29bee1a59", "is_disabled": 0, "fusion_lon": 0.0, "rental_uris": {"android": "https://dc.lft.to/lastmile_qr_scan", "ios": "https://dc.lft.to/lastmile_qr_scan"}, "lat": 38.876757, "lon": -77.00308416666667, "fusion_lat": 0.0}, {"is_reserved": 0, "bike_id": "5a4c4fcc3248cca4f02539abfe02e3c8", "type": "electric_bike", "name": "5a4c4fcc3248cca4f02539abfe02e3c8", "is_disabled": 0, "fusion_lon": 0.0, "rental_uris": {"android": "https://dc.lft.to/lastmile_qr_scan", "ios": "https://dc.lft.to/lastmile_qr_scan"}, "lat": 38.945073, "lon": -77.00675416666667, "fusion_lat": 0.0}, {"is_reserved": 0, "bike_id": "c1cd839677e077d22699a4d7cae8d75f", "type": "electric_scooter", "name": "c1cd839677e077d22699a4d7cae8d75f", "is_disabled": 0, "fusion_lon": 0.0, "rental_uris": {"android": "https://dc.lft.to/lastmile_qr_scan", "ios": "https://dc.lft.to/lastmile_qr_scan"}, "lat": 38.905075, "lon": -77.0513295, "fusion_lat": 0.0}, {"is_reserved": 0, "bike_id": "55e7814ae4e1b9357895ba59dff04679", "type": "electric_scooter", "name": "55e7814ae4e1b9357895ba59dff04679", "is_disabled": 0, "fusion_lon": 0.0, "rental_uris": {"android": "https://dc.lft.to/lastmile_qr_scan", "ios": "https://dc.lft.to/lastmile_qr_scan"}, "lat": 38.86034933333333, "lon": -76.98380116666667, "fusion_lat": 0.0}, {"is_reserved": 0, "bike_id": "cc98e2bdd3d9e5ee6201cdeb00172a09", "type": "electric_scooter", "name": "cc98e2bdd3d9e5ee6201cdeb00172a09", "is_disabled": 0, "fusion_lon": 0.0, "rental_uris": {"android": "https://dc.lft.to/lastmile_qr_scan", "ios": "https://dc.lft.to/lastmile_qr_scan"}, "lat": 38.91432566666667, "lon": -77.0170795, "fusion_lat": 0.0}, {"is_reserved": 0, "bike_id": "480e92e9ba7b56779dc051601b929c58", "type": "electric_scooter", "name": "480e92e9ba7b56779dc051601b929c58", "is_disabled": 0, "fusion_lon": 0.0, "rental_uris": {"android": "https://dc.lft.to/lastmile_qr_scan", "ios": "https://dc.lft.to/lastmile_qr_scan"}, "lat": 38.90653533333333, "lon": -77.02535416666667, "fusion_lat": 0.0}, {"is_reserved": 0, "bike_id": "05f361ee6092a1f898791d851b7852ac", "type": "electric_scooter", "name": "05f361ee6092a1f898791d851b7852ac", "is_disabled": 0, "fusion_lon": 0.0, "rental_uris": {"android": "https://dc.lft.to/lastmile_qr_scan", "ios": "https://dc.lft.to/lastmile_qr_scan"}, "lat": 38.900330333333336, "lon": -77.03359566666667, "fusion_lat": 0.0}, {"is_reserved": 0, "bike_id": "db70d6f709f5f746872090c8441ad263", "type": "electric_bike", "name": "db70d6f709f5f746872090c8441ad263", "is_disabled": 0, "fusion_lon": 0.0, "rental_uris": {"android": "https://dc.lft.to/lastmile_qr_scan", "ios": "https://dc.lft.to/lastmile_qr_scan"}, "lat": 38.985523, "lon": -77.003964, "fusion_lat": 0.0}, {"is_reserved": 0, "bike_id": "e219cc1ee9ab765395ec66162f69f9d6", "type": "electric_scooter", "name": "e219cc1ee9ab765395ec66162f69f9d6", "is_disabled": 0, "fusion_lon": 0.0, "rental_uris": {"android": "https://dc.lft.to/lastmile_qr_scan", "ios": "https://dc.lft.to/lastmile_qr_scan"}, "lat": 38.921157666666666, "lon": -77.039365, "fusion_lat": 0.0}, {"is_reserved": 0, "bike_id": "46c71abeb81d8c10926b9f7139ff67b6", "type": "electric_scooter", "name": "46c71abeb81d8c10926b9f7139ff67b6", "is_disabled": 0, "fusion_lon": 0.0, "rental_uris": {"android": "https://dc.lft.to/lastmile_qr_scan", "ios": "https://dc.lft.to/lastmile_qr_scan"}, "lat": 38.89946033333333, "lon": -77.047804, "fusion_lat": 0.0}, {"is_reserved": 0, "bike_id": "bfaf2342fd296fee0e36b75796d94f82", "type": "electric_scooter", "name": "bfaf2342fd296fee0e36b75796d94f82", "is_disabled": 0, "fusion_lon": 0.0, "rental_uris": {"android": "https://dc.lft.to/lastmile_qr_scan", "ios": "https://dc.lft.to/lastmile_qr_scan"}, "lat": 38.92060216666667, "lon": -77.0230215, "fusion_lat": 0.0}, {"is_reserved": 0, "bike_id": "517a51badff5e59fed8c1177e04fe487", "type": "electric_scooter", "name": "517a51badff5e59fed8c1177e04fe487", "is_disabled": 0, "fusion_lon": 0.0, "rental_uris": {"android": "https://dc.lft.to/lastmile_qr_scan", "ios": "https://dc.lft.to/lastmile_qr_scan"}, "lat": 38.92915383333333, "lon": -77.01866833333334, "fusion_lat": 0.0}, {"is_reserved": 0, "bike_id": "e837947fa8d2c0c2af0863594d95f0db", "type": "electric_scooter", "name": "e837947fa8d2c0c2af0863594d95f0db", "is_disabled": 0, "fusion_lon": 0.0, "rental_uris": {"android": "https://dc.lft.to/lastmile_qr_scan", "ios": "https://dc.lft.to/lastmile_qr_scan"}, "lat": 38.926862, "lon": -77.0157205, "fusion_lat": 0.0}, {"is_reserved": 0, "bike_id": "8ce88d8748cfca9be122731660352e7a", "type": "electric_scooter", "name": "8ce88d8748cfca9be122731660352e7a", "is_disabled": 0, "fusion_lon": 0.0, "rental_uris": {"android": "https://dc.lft.to/lastmile_qr_scan", "ios": "https://dc.lft.to/lastmile_qr_scan"}, "lat": 38.924318, "lon": -77.04245883333333, "fusion_lat": 0.0}, {"is_reserved": 0, "bike_id": "a286f6874731308f0a1cb80521ee75bd", "type": "electric_bike", "name": "a286f6874731308f0a1cb80521ee75bd", "is_disabled": 0, "fusion_lon": 0.0, "rental_uris": {"android": "https://dc.lft.to/lastmile_qr_scan", "ios": "https://dc.lft.to/lastmile_qr_scan"}, "lat": 38.85584466666667, "lon": -76.97437783333334, "fusion_lat": 0.0}, {"is_reserved": 0, "bike_id": "550fc964826f689ee776d1f64b30b826", "type": "electric_scooter", "name": "550fc964826f689ee776d1f64b30b826", "is_disabled": 0, "fusion_lon": 0.0, "rental_uris": {"android": "https://dc.lft.to/lastmile_qr_scan", "ios": "https://dc.lft.to/lastmile_qr_scan"}, "lat": 38.93635866666666, "lon": -77.0367695, "fusion_lat": 0.0}, {"is_reserved": 0, "bike_id": "61818a0e89ae6b57e2938d9a4dc05e5e", "type": "electric_scooter", "name": "61818a0e89ae6b57e2938d9a4dc05e5e", "is_disabled": 0, "fusion_lon": 0.0, "rental_uris": {"android": "https://dc.lft.to/lastmile_qr_scan", "ios": "https://dc.lft.to/lastmile_qr_scan"}, "lat": 38.9233335, "lon": -77.0089085, "fusion_lat": 0.0}, {"is_reserved": 0, "bike_id": "9d855076e76ec138f09646c8aa70c24a", "type": "electric_scooter", "name": "9d855076e76ec138f09646c8aa70c24a", "is_disabled": 0, "fusion_lon": 0.0, "rental_uris": {"android": "https://dc.lft.to/lastmile_qr_scan", "ios": "https://dc.lft.to/lastmile_qr_scan"}, "lat": 38.90626483333333, "lon": -77.0152915, "fusion_lat": 0.0}, {"is_reserved": 0, "bike_id": "0baa93e1ec2e1beee3f96a9abeedf617", "type": "electric_scooter", "name": "0baa93e1ec2e1beee3f96a9abeedf617", "is_disabled": 0, "fusion_lon": 0.0, "rental_uris": {"android": "https://dc.lft.to/lastmile_qr_scan", "ios": "https://dc.lft.to/lastmile_qr_scan"}, "lat": 38.9243705, "lon": -77.0194445, "fusion_lat": 0.0}, {"is_reserved": 0, "bike_id": "6fd301c4af550581ffbd3107adfcde80", "type": "electric_scooter", "name": "6fd301c4af550581ffbd3107adfcde80", "is_disabled": 0, "fusion_lon": 0.0, "rental_uris": {"android": "https://dc.lft.to/lastmile_qr_scan", "ios": "https://dc.lft.to/lastmile_qr_scan"}, "lat": 38.903240833333335, "lon": -76.9925945, "fusion_lat": 0.0}, {"is_reserved": 0, "bike_id": "eca6dae529f9e5fe63ea1e203669b5c8", "type": "electric_scooter", "name": "eca6dae529f9e5fe63ea1e203669b5c8", "is_disabled": 0, "fusion_lon": 0.0, "rental_uris": {"android": "https://dc.lft.to/lastmile_qr_scan", "ios": "https://dc.lft.to/lastmile_qr_scan"}, "lat": 38.91704933333333, "lon": -77.03869816666666, "fusion_lat": 0.0}, {"is_reserved": 0, "bike_id": "826eef07b64ca5ab33627f671eda9cf3", "type": "electric_scooter", "name": "826eef07b64ca5ab33627f671eda9cf3", "is_disabled": 0, "fusion_lon": 0.0, "rental_uris": {"android": "https://dc.lft.to/lastmile_qr_scan", "ios": "https://dc.lft.to/lastmile_qr_scan"}, "lat": 38.872734, "lon": -77.01515966666666, "fusion_lat": 0.0}, {"is_reserved": 0, "bike_id": "a3d7f1e1ddb3290216962746f435da41", "type": "electric_bike", "name": "a3d7f1e1ddb3290216962746f435da41", "is_disabled": 0, "fusion_lon": 0.0, "rental_uris": {"android": "https://dc.lft.to/lastmile_qr_scan", "ios": "https://dc.lft.to/lastmile_qr_scan"}, "lat": 38.871669833333335, "lon": -77.233945, "fusion_lat": 0.0}, {"is_reserved": 0, "bike_id": "212c602e53b887994ed573e5281d094a", "type": "electric_scooter", "name": "212c602e53b887994ed573e5281d094a", "is_disabled": 0, "fusion_lon": 0.0, "rental_uris": {"android": "https://dc.lft.to/lastmile_qr_scan", "ios": "https://dc.lft.to/lastmile_qr_scan"}, "lat": 38.92359833333333, "lon": -77.0340215, "fusion_lat": 0.0},