{"data": {"bikes": [{"lat": 38.94200816666667, "is_disabled": 0, "type": "electric_scooter", "lon": -77.018329, "bike_id": "0b88ea24f2b076d39a9187284deefde6", "fusion_lat": 0.0, "name": "0b88ea24f2b076d39a9187284deefde6", "is_reserved": 0, "rental_uris": {"android": "https://dc.lft.to/lastmile_qr_scan", "ios": "https://dc.lft.to/lastmile_qr_scan"}, "fusion_lon": 0.0}, {"lat": 38.92881633333333, "is_disabled": 0, "type": "electric_scooter", "lon": -77.03240183333334, "bike_id": "3cc1edd737242f71e656f7c7138a294a", "fusion_lat": 0.0, "name": "3cc1edd737242f71e656f7c7138a294a", "is_reserved": 0, "rental_uris": {"android": "https://dc.lft.to/lastmile_qr_scan", "ios": "https://dc.lft.to/lastmile_qr_scan"}, "fusion_lon": 0.0}, {"lat": 38.88729133333333, "is_disabled": 0, "type": "electric_scooter", "lon": -77.01386183333334, "bike_id": "0d719275cdaa42542c532647020b3391", "fusion_lat": 0.0, "name": "0d719275cdaa42542c532647020b3391", "is_reserved": 0, "rental_uris": {"android": "https://dc.lft.to/lastmile_qr_scan", "ios": "https://dc.lft.to/lastmile_qr_scan"}, "fusion_lon": 0.0}, {"lat": 38.92059116666667, "is_disabled": 0, "type": "electric_scooter", "lon": -77.03280833333334, "bike_id": "730f1ea8c3566f316d626e27fb34246d", "fusion_lat": 0.0, "name": "730f1ea8c3566f316d626e27fb34246d", "is_reserved": 0, "rental_uris": {"android": "https://dc.lft.to/lastmile_qr_scan", "ios": "https://dc.lft.to/lastmile_qr_scan"}, "fusion_lon": 0.0}, {"lat": 38.91484883333333, "is_disabled": 0, "type": "electric_scooter", "lon": -77.02591266666667, "bike_id": "3ba23bf2106da402dc2593e6f8bdd033", "fusion_lat": 0.0, "name": "3ba23bf2106da402dc2593e6f8bdd033", "is_reserved": 0, "rental_uris": {"android": "https://dc.lft.to/lastmile_qr_scan", "ios": "https://dc.lft.to/lastmile_qr_scan"}, "fusion_lon": 0.0}, {"lat": 38.9095805, "is_disabled": 0, "type": "electric_scooter", "lon": -77.03436283333333, "bike_id": "f5333c50775b0189bb2248460ba4c996", "fusion_lat": 0.0, "name": "f5333c50775b0189bb2248460ba4c996", "is_reserved": 0, "rental_uris": {"android": "https://dc.lft.to/lastmile_qr_scan", "ios": "https://dc.lft.to/lastmile_qr_scan"}, "fusion_lon": 0.0}, {"lat": 38.889260166666666, "is_disabled": 0, "type": "electric_scooter", "lon": -76.973778, "bike_id": "cc1170f8b6d956d6399c2f71c3788e0a", "fusion_lat": 0.0, "name": "cc1170f8b6d956d6399c2f71c3788e0a", "is_reserved": 0, "rental_uris": {"android": "https://dc.lft.to/lastmile_qr_scan", "ios": "https://dc.lft.to/lastmile_qr_scan"}, "fusion_lon": 0.0}, {"lat": 38.9670455, "is_disabled": 0, "type": "electric_bike", "lon": -77.10225633333333, "bike_id": "3225bf8af52e469ff3c71b9ec9301d8a", "fusion_lat": 0.0, "name": "3225bf8af52e469ff3c71b9ec9301d8a", "is_reserved": 0, "rental_uris": {"android": "https://dc.lft.to/lastmile_qr_scan", "ios": "https://dc.lft.to/lastmile_qr_scan"}, "fusion_lon": 0.0}, {"lat": 38.90629933333334, "is_disabled": 0, "type": "electric_scooter", "lon": -77.06276116666666, "bike_id": "4563d3efec7c826cecab17883a43eeda", "fusion_lat": 0.0, "name": "4563d3efec7c826cecab17883a43eeda", "is_reserved": 0, "rental_uris": {"android": "https://dc.lft.to/lastmile_qr_scan", "ios": "https://dc.lft.to/lastmile_qr_scan"}, "fusion_lon": 0.0}, {"lat": 38.86162616666667, "is_disabled": 0, "type": "electric_bike", "lon": -77.13094116666667, "bike_id": "8f48ed32f480ff08ede00400993f22e8", "fusion_lat": 0.0, "name": "8f48ed32f480ff08ede00400993f22e8", "is_reserved": 0, "rental_uris": {"android": "https://dc.lft.to/lastmile_qr_scan", "ios": "https://dc.lft.to/lastmile_qr_scan"}, "fusion_lon": 0.0}, {"lat": 38.9028245, "is_disabled": 0, "type": "electric_scooter", "lon": -77.01783033333334, "bike_id": "ddbba92953a4f4b5fadd1b86aa71f558", "fusion_lat": 0.0, "name": "ddbba92953a4f4b5fadd1b86aa71f558", "is_reserved": 0, "rental_uris": {"android": "https://dc.lft.to/lastmile_qr_scan", "ios": "https://dc.lft.to/lastmile_qr_scan"}, "fusion_lon": 0.0}, {"lat": 38.91058566666667, "is_disabled": 0, "type": "electric_scooter", "lon": -77.04235133333333, "bike_id": "baa49bfc29e575652565cfc5f8adc7ae", "fusion_lat": 0.0, "name": "baa49bfc29e575652565cfc5f8adc7ae", "is_reserved": 0, "rental_uris": {"android": "https://dc.lft.to/lastmile_qr_scan", "ios": "https://dc.lft.to/lastmile_qr_scan"}, "fusion_lon": 0.0}, {"lat": 38.91414666666667, "is_disabled": 0, "type": "electric_scooter", "lon": -77.022336, "bike_id": "a31cba86d117766e23172ae203ec3654", "fusion_lat": 0.0, "name": "a31cba86d117766e23172ae203ec3654", "is_reserved": 0, "rental_uris": {"android": "https://dc.lft.to/lastmile_qr_scan", "ios": "https://dc.lft.to/lastmile_qr_scan"}, "fusion_lon": 0.0}, {"lat": 38.91449216666667, "is_disabled": 0, "type": "electric_scooter", "lon": -77.04587016666666, "bike_id": "06de1ee70e79be0575b6e0caf0c604e7", "fusion_lat": 0.0, "name": "06de1ee70e79be0575b6e0caf0c604e7", "is_reserved": 0, "rental_uris": {"android": "https://dc.lft.to/lastmile_qr_scan", "ios": "https://dc.lft.to/lastmile_qr_scan"}, "fusion_lon": 0.0}, {"lat": 38.908758666666664, "is_disabled": 0, "type": "electric_scooter", "lon": -77.03675933333334, "bike_id": "8fc2d006ef0d2349f51e2e36df715b68", "fusion_lat": 0.0, "name": "8fc2d006ef0d2349f51e2e36df715b68", "is_reserved": 0, "rental_uris": {"android": "https://dc.lft.to/lastmile_qr_scan", "ios": "https://dc.lft.to/lastmile_qr_scan"}, "fusion_lon": 0.0}, {"lat": 38.920550166666665, "is_disabled": 0, "type": "electric_scooter", "lon": -77.0328725, "bike_id": "746600b6ca1b7de9ab77a53757f1f0c6", "fusion_lat": 0.0, "name": "746600b6ca1b7de9ab77a53757f1f0c6", "is_reserved": 0, "rental_uris": {"android": "https://dc.lft.to/lastmile_qr_scan", "ios": "https://dc.lft.to/lastmile_qr_scan"}, "fusion_lon": 0.0}, {"lat": 38.90571883333333, "is_disabled": 0, "type": "electric_scooter", "lon": -77.00906683333334, "bike_id": "2c5f5697bc9fa5a7415f39647c38ada0", "fusion_lat": 0.0, "name": "2c5f5697bc9fa5a7415f39647c38ada0", "is_reserved": 0, "rental_uris": {"android": "https://dc.lft.to/lastmile_qr_scan", "ios": "https://dc.lft.to/lastmile_qr_scan"}, "fusion_lon": 0.0}, {"lat": 38.952137, "is_disabled": 0, "type": "electric_scooter", "lon": -77.02015766666666, "bike_id": "881c5a7061ddbbadd4ae022fb9923ec4", "fusion_lat": 0.0, "name": "881c5a7061ddbbadd4ae022fb9923ec4", "is_reserved": 0, "rental_uris": {"android": "https://dc.lft.to/lastmile_qr_scan", "ios": "https://dc.lft.to/lastmile_qr_scan"}, "fusion_lon": 0.0}, {"lat": 38.939708333333336, "is_disabled": 0, "type": "electric_scooter", "lon": -77.03587366666666, "bike_id": "e4615c6b66cf91a2d8bfe7766ee53baa", "fusion_lat": 0.0, "name": "e4615c6b66cf91a2d8bfe7766ee53baa", "is_reserved": 0, "rental_uris": {"android": "https://dc.lft.to/lastmile_qr_scan", "ios": "https://dc.lft.to/lastmile_qr_scan"}, "fusion_lon": 0.0}, {"lat": 38.8635685, "is_disabled": 0, "type": "electric_scooter", "lon": -76.98271033333333, "bike_id": "8b99c8ee10d11acd20c3d9bd1ed5bbac", "fusion_lat": 0.0, "name": "8b99c8ee10d11acd20c3d9bd1ed5bbac", "is_reserved": 0, "rental_uris": {"android": "https://dc.lft.to/lastmile_qr_scan", "ios": "https://dc.lft.to/lastmile_qr_scan"}, "fusion_lon": 0.0}, {"lat": 38.88728416666667, "is_disabled": 0, "type": "electric_scooter", "lon": -77.028347, "bike_id": "c4a83ee002956a2c8cb03183d09ffd24", "fusion_lat": 0.0, "name": "c4a83ee002956a2c8cb03183d09ffd24", "is_reserved": 0, "rental_uris": {"android": "https://dc.lft.to/lastmile_qr_scan", "ios": "https://dc.lft.to/lastmile_qr_scan"}, "fusion_lon": 0.0}, {"lat": 38.881213333333335, "is_disabled": 0, "type": "electric_bike", "lon": -77.01675833333333, "bike_id": "909a10cb0fc773ef1949b5a3be7eb54f", "fusion_lat": 0.0, "name": "909a10cb0fc773ef1949b5a3be7eb54f", "is_reserved": 0, "rental_uris": {"android": "https://dc.lft.to/lastmile_qr_scan", "ios": "https://dc.lft.to/lastmile_qr_scan"}, "fusion_lon": 0.0}, {"lat": 38.8872105, "is_disabled": 0, "type": "electric_scooter", "lon": -77.0138045, "bike_id": "360ab761e64b3068a7b8e8a8cc77180b", "fusion_lat": 0.0, "name": "360ab761e64b3068a7b8e8a8cc77180b", "is_reserved": 0, "rental_uris": {"android": "https://dc.lft.to/lastmile_qr_scan", "ios": "https://dc.lft.to/lastmile_qr_scan"}, "fusion_lon": 0.0}, {"lat": 38.9192735, "is_disabled": 0, "type": "electric_scooter", "lon": -77.00094716666666, "bike_id": "a00b3178ae2f12ccd6d7c98ac9cd8f92", "fusion_lat": 0.0, "name": "a00b3178ae2f12ccd6d7c98ac9cd8f92", "is_reserved": 0, "rental_uris": {"android": "https://dc.lft.to/lastmile_qr_scan", "ios": "https://dc.lft.to/lastmile_qr_scan"}, "fusion_lon": 0.0}, {"lat": 38.90358033333333, "is_disabled": 0, "type": "electric_scooter", "lon": -77.02099116666666, "bike_id": "e23b07cc0fe26a6b386edc003b1f08f9", "fusion_lat": 0.0, "name": "e23b07cc0fe26a6b386edc003b1f08f9", "is_reserved": 0, "rental_uris": {"android": "https://dc.lft.to/lastmile_qr_scan", "ios": "https://dc.lft.to/lastmile_qr_scan"}, "fusion_lon": 0.0}, {"lat": 38.926238166666664, "is_disabled": 0, "type": "electric_scooter", "lon": -77.03705716666667, "bike_id": "63fe14e353d9b0650f5be04e242730c8", "fusion_lat": 0.0, "name": "63fe14e353d9b0650f5be04e242730c8", "is_reserved": 0, "rental_uris": {"android": "https://dc.lft.to/lastmile_qr_scan", "ios": "https://dc.lft.to/lastmile_qr_scan"}, "fusion_lon": 0.0}, {"lat": 38.90506766666667, "is_disabled": 0, "type": "electric_scooter", "lon": -77.0620215, "bike_id": "ef8d80e540cd4fa31b0e2b84797c4757", "fusion_lat": 0.0, "name": "ef8d80e540cd4fa31b0e2b84797c4757", "is_reserved": 0, "rental_uris": {"android": "https://dc.lft.to/lastmile_qr_scan", "ios": "https://dc.lft.to/lastmile_qr_scan"}, "fusion_lon": 0.0}, {"lat": 38.899697333333336, "is_disabled": 0, "type": "electric_scooter", "lon": -77.05700366666666, "bike_id": "673c932bf9609b8e1d27ae19eb9d3215", "fusion_lat": 0.0, "name": "673c932bf9609b8e1d27ae19eb9d3215", "is_reserved": 0, "rental_uris": {"android": "https://dc.lft.to/lastmile_qr_scan", "ios": "https://dc.lft.to/lastmile_qr_scan"}, "fusion_lon": 0.0}, {"lat": 38.897377666666664, "is_disabled": 0, "type": "electric_scooter", "lon": -77.04771, "bike_id": "ad2795a403f030de7db34868df20a8a9", "fusion_lat": 0.0, "name": "ad2795a403f030de7db34868df20a8a9", "is_reserved": 0, "rental_uris": {"android": "https://dc.lft.to/lastmile_qr_scan", "ios": "https://dc.lft.to/lastmile_qr_scan"}, "fusion_lon": 0.0}, {"lat": 38.91826183333333, "is_disabled": 0, "type": "electric_scooter", "lon": -77.034631, "bike_id": "a9709360be048a44b6ef6fb449ab6768", "fusion_lat": 0.0, "name": "a9709360be048a44b6ef6fb449ab6768", "is_reserved": 0, "rental_uris": {"android": "https://dc.lft.to/lastmile_qr_scan", "ios": "https://dc.lft.to/lastmile_qr_scan"}, "fusion_lon": 0.0}, {"lat": 38.900637333333336, "is_disabled": 0, "type": "electric_scooter", "lon": -77.0508285, "bike_id": "22402fdd584c6f1b53b5f44232c4ccd4", "fusion_lat": 0.0, "name": "22402fdd584c6f1b53b5f44232c4ccd4", "is_reserved": 0, "rental_uris": {"android": "https://dc.lft.to/lastmile_qr_scan", "ios": "https://dc.lft.to/lastmile_qr_scan"}, "fusion_lon": 0.0}, {"lat": 38.92239333333333, "is_disabled": 0, "type": "electric_scooter", "lon": -77.04574466666666, "bike_id": "b4858e332e716b085951fd45cea340a8", "fusion_lat": 0.0, "name": "b4858e332e716b085951fd45cea340a8", "is_reserved": 0, "rental_uris": {"android": "https://dc.lft.to/lastmile_qr_scan", "ios": "https://dc.lft.to/lastmile_qr_scan"}, "fusion_lon": 0.0}, {"lat": 38.914192666666665, "is_disabled": 0, "type": "electric_scooter", "lon": -77.03173216666667, "bike_id": "807d89da1818a76ec8dbb2f8b6e7a2e2", "fusion_lat": 0.0, "name": "807d89da1818a76ec8dbb2f8b6e7a2e2", "is_reserved": 0, "rental_uris": {"android": "https://dc.lft.to/lastmile_qr_scan", "ios": "https://dc.lft.to/lastmile_qr_scan"}, "fusion_lon": 0.0}, {"lat": 38.93986983333333, "is_disabled": 0, "type": "electric_scooter", "lon": -77.0717135, "bike_id": "e3d54017a613161ee1b1f1a29695ef50", "fusion_lat": 0.0, "name": "e3d54017a613161ee1b1f1a29695ef50", "is_reserved": 0, "rental_uris": {"android": "https://dc.lft.to/lastmile_qr_scan", "ios": "https://dc.lft.to/lastmile_qr_scan"}, "fusion_lon": 0.0}, {"lat": 38.8505295, "is_disabled": 0, "type": "electric_bike", "lon": -76.9731665, "bike_id": "73ae156d9a608dfe48c1e5878f2fc416", "fusion_lat": 0.0, "name": "73ae156d9a608dfe48c1e5878f2fc416", "is_reserved": 0, "rental_uris": {"android": "https://dc.lft.to/lastmile_qr_scan", "ios": "https://dc.lft.to/lastmile_qr_scan"}, "fusion_lon": 0.0}, {"lat": 38.897381, "is_disabled": 0, "type": "electric_scooter", "lon": -77.02949083333333, "bike_id": "57635b90e30f2cbbfb11a8962043ba8f", "fusion_lat": 0.0, "name": "57635b90e30f2cbbfb11a8962043ba8f", "is_reserved": 0, "rental_uris": {"android": "https://dc.lft.to/lastmile_qr_scan", "ios": "https://dc.lft.to/lastmile_qr_scan"}, "fusion_lon": 0.0}, {"lat": 38.89884833333333, "is_disabled": 0, "type": "electric_scooter", "lon": -76.93175733333334, "bike_id": "00717bf412ead2976e1dcebc03654765", "fusion_lat": 0.0, "name": "00717bf412ead2976e1dcebc03654765", "is_reserved": 0, "rental_uris": {"android": "https://dc.lft.to/lastmile_qr_scan", "ios": "https://dc.lft.to/lastmile_qr_scan"}, "fusion_lon": 0.0}, {"lat": 38.93237083333333, "is_disabled": 0, "type": "electric_bike", "lon": -76.974266, "bike_id": "e8af0545c6d7c9dd7c2a34905965af35", "fusion_lat": 0.0, "name": "e8af0545c6d7c9dd7c2a34905965af35", "is_reserved": 0, "rental_uris": {"android": "https://dc.lft.to/lastmile_qr_scan", "ios": "https://dc.lft.to/lastmile_qr_scan"}, "fusion_lon": 0.0}, {"lat": 38.8983695, "is_disabled": 0, "type": "electric_scooter", "lon": -77.031766, "bike_id": "21a3fec3c7423c5489c5efd76594ef79", "fusion_lat": 0.0, "name": "21a3fec3c7423c5489c5efd76594ef79", "is_reserved": 0, "rental_uris": {"android": "https://dc.lft.to/lastmile_qr_scan", "ios": "https://dc.lft.to/lastmile_qr_scan"}, "fusion_lon": 0.0}, {"lat": 38.9023185, "is_disabled": 0, "type": "electric_scooter", "lon": -77.0531825, "bike_id": "fb094084a5f6bee40ed182577fb6f590", "fusion_lat": 0.0, "name": "fb094084a5f6bee40ed182577fb6f590", "is_reserved": 0, "rental_uris": {"android": "https://dc.lft.to/lastmile_qr_scan", "ios": "https://dc.lft.to/lastmile_qr_scan"}, "fusion_lon": 0.0}, {"lat": 38.822654166666666, "is_disabled": 0, "type": "electric_bike", "lon": -77.05813933333333, "bike_id": "18ddaa9310989026bb1cee25127937bc", "fusion_lat": 0.0, "name": "18ddaa9310989026bb1cee25127937bc", "is_reserved": 0, "rental_uris": {"android": "https://dc.lft.to/lastmile_qr_scan", "ios": "https://dc.lft.to/lastmile_qr_scan"}, "fusion_lon": 0.0}, {"lat": 38.9079535, "is_disabled": 0, "type": "electric_scooter", "lon": -77.03674783333334, "bike_id": "c5f5f5b9e916fd9714919b386d178344", "fusion_lat": 0.0, "name": "c5f5f5b9e916fd9714919b386d178344", "is_reserved": 0, "rental_uris": {"android": "https://dc.lft.to/lastmile_qr_scan", "ios": "https://dc.lft.to/lastmile_qr_scan"}, "fusion_lon": 0.0}, {"lat": 38.984992, "is_disabled": 0, "type": "electric_bike", "lon": -76.98198366666666, "bike_id": "3effa2417e621288282d1749184295fa", "fusion_lat": 0.0, "name": "3effa2417e621288282d1749184295fa", "is_reserved": 0, "rental_uris": {"android": "https://dc.lft.to/lastmile_qr_scan", "ios": "https://dc.lft.to/lastmile_qr_scan"}, "fusion_lon": 0.0}, {"lat": 38.97312066666667, "is_disabled": 0, "type": "electric_scooter", "lon": -77.02705483333334, "bike_id": "9c9b19a3fa2980e9ece3918122511cb2", "fusion_lat": 0.0, "name": "9c9b19a3fa2980e9ece3918122511cb2", "is_reserved": 0, "rental_uris": {"android": "https://dc.lft.to/lastmile_qr_scan", "ios": "https://dc.lft.to/lastmile_qr_scan"}, "fusion_lon": 0.0}, {"lat": 38.92832, "is_disabled": 0, "type": "electric_scooter", "lon": -77.02188866666667, "bike_id": "68c3460bc5e64febc9fb5f5d45104ccb", "fusion_lat": 0.0, "name": "68c3460bc5e64febc9fb5f5d45104ccb", "is_reserved": 0, "rental_uris": {"android": "https://dc.lft.to/lastmile_qr_scan", "ios": "https://dc.lft.to/lastmile_qr_scan"}, "fusion_lon": 0.0}, {"lat": 38.88013816666667, "is_disabled": 0, "type": "electric_scooter", "lon": -77.0248465, "bike_id": "da11c57a6e81a735ab22a4939357d3bd", "fusion_lat": 0.0, "name": "da11c57a6e81a735ab22a4939357d3bd", "is_reserved": 0, "rental_uris": {"android": "https://dc.lft.to/lastmile_qr_scan", "ios": "https://dc.lft.to/lastmile_qr_scan"}, "fusion_lon": 0.0}, {"lat": 38.911043166666666, "is_disabled": 0, "type": "electric_scooter", "lon": -77.03183333333334, "bike_id": "fff5879c19aaa9de20f626ec08a6ada3", "fusion_lat": 0.0, "name": "fff5879c19aaa9de20f626ec08a6ada3", "is_reserved": 0, "rental_uris": {"android": "https://dc.lft.to/lastmile_qr_scan", "ios": "https://dc.lft.to/lastmile_qr_scan"}, "fusion_lon": 0.0}, {"lat": 38.87001, "is_disabled": 0, "type": "electric_bike", "lon": -76.95982433333333, "bike_id": "7557c0afaad8f2939b32d65fd36b9301", "fusion_lat": 0.0, "name": "7557c0afaad8f2939b32d65fd36b9301", "is_reserved": 0, "rental_uris": {"android": "https://dc.lft.to/lastmile_qr_scan", "ios": "https://dc.lft.to/lastmile_qr_scan"}, "fusion_lon": 0.0}, {"lat": 38.8589605, "is_disabled": 0, "type": "electric_scooter", "lon": -76.99433616666667, "bike_id": "11e109e10ad27e7b8f68ef916269c203", "fusion_lat": 0.0, "name": "11e109e10ad27e7b8f68ef916269c203", "is_reserved": 0, "rental_uris": {"android": "https://dc.lft.to/lastmile_qr_scan", "ios": "https://dc.lft.to/lastmile_qr_scan"}, "fusion_lon": 0.0}, {"lat": 38.899826166666664, "is_disabled": 0, "type": "electric_scooter", "lon": -77.02104583333333, "bike_id": "d4bdc90dd94bd39b0cc24ebacedb47ce", "fusion_lat": 0.0, "name": "d4bdc90dd94bd39b0cc24ebacedb47ce", "is_reserved": 0, "rental_uris": {"android": "https://dc.lft.to/lastmile_qr_scan", "ios": "https://dc.lft.to/lastmile_qr_scan"}, "fusion_lon": 0.0}, {"lat": 38.92296316666667, "is_disabled": 0, "type": "electric_scooter", "lon": -77.03661533333333, "bike_id": "bc81813ed28d916d0510bd4b9dcfcca8", "fusion_lat": 0.0, "name": "bc81813ed28d916d0510bd4b9dcfcca8", "is_reserved": 0, "rental_uris": {"android": "https://dc.lft.to/lastmile_qr_scan", "ios": "https://dc.lft.to/lastmile_qr_scan"}, "fusion_lon": 0.0}, {"lat": 38.925701333333336, "is_disabled": 0, "type": "electric_scooter", "lon": -76.97005133333333, "bike_id": "a8263bfe42ec3a02ff2ca8f659d116b5", "fusion_lat": 0.0, "name": "a8263bfe42ec3a02ff2ca8f659d116b5", "is_reserved": 0, "rental_uris": {"android": "https://dc.lft.to/lastmile_qr_scan", "ios": "https://dc.lft.to/lastmile_qr_scan"}, "fusion_lon": 0.0}, {"lat": 38.933554666666666, "is_disabled": 0, "type": "electric_scooter", "lon": -77.07379816666666, "bike_id": "a8051de99851e75c2c2cbed6b158f26b", "fusion_lat": 0.0, "name": "a8051de99851e75c2c2cbed6b158f26b", "is_reserved": 0, "rental_uris": {"android": "https://dc.lft.to/lastmile_qr_scan", "ios": "https://dc.lft.to/lastmile_qr_scan"}, "fusion_lon": 0.0}, {"lat": 38.892455, "is_disabled": 0, "type": "electric_scooter", "lon": -77.048945, "bike_id": "99322e8459e3e3675c1ec51c31cdf17b", "fusion_lat": 0.0, "name": "99322e8459e3e3675c1ec51c31cdf17b", "is_reserved": 0, "rental_uris": {"android": "https://dc.lft.to/lastmile_qr_scan", "ios": "https://dc.lft.to/lastmile_qr_scan"}, "fusion_lon": 0.0}, {"lat": 38.89979183333333, "is_disabled": 0, "type": "electric_bike", "lon": -76.98547883333333, "bike_id": "ddce005d6409fb7fc5fb77af00d260b7", "fusion_lat": 0.0, "name": "ddce005d6409fb7fc5fb77af00d260b7", "is_reserved": 0, "rental_uris": {"android": "https://dc.lft.to/lastmile_qr_scan", "ios": "https://dc.lft.to/lastmile_qr_scan"}, "fusion_lon": 0.0}, {"lat": 38.929414, "is_disabled": 0, "type": "electric_scooter", "lon": -77.03265366666666, "bike_id": "a7d3518d7a363e176c9b64d565043c7e", "fusion_lat": 0.0, "name": "a7d3518d7a363e176c9b64d565043c7e", "is_reserved": 0, "rental_uris": {"android": "https://dc.lft.to/lastmile_qr_scan", "ios": "https://dc.lft.to/lastmile_qr_scan"}, "fusion_lon": 0.0}, {"lat": 38.92324516666667, "is_disabled": 0, "type": "electric_scooter", "lon": -77.02975333333333, "bike_id": "b61d1394b361c982e3aa44afd230e66a", "fusion_lat": 0.0, "name": "b61d1394b361c982e3aa44afd230e66a", "is_reserved": 0, "rental_uris": {"android": "https://dc.lft.to/lastmile_qr_scan", "ios": "https://dc.lft.to/lastmile_qr_scan"}, "fusion_lon": 0.0}, {"lat": 38.93824333333333, "is_disabled": 0, "type": "electric_scooter", "lon": -77.06036966666667, "bike_id": "3894e2522aa8924cec10ce634c152183", "fusion_lat": 0.0, "name": "3894e2522aa8924cec10ce634c152183", "is_reserved": 0, "rental_uris": {"android": "https://dc.lft.to/lastmile_qr_scan", "ios": "https://dc.lft.to/lastmile_qr_scan"}, "fusion_lon": 0.0}, {"lat": 38.96605683333333, "is_disabled": 0, "type": "electric_bike", "lon": -76.98334866666667, "bike_id": "50a756e9ae8297c8d476b57d73053deb", "fusion_lat": 0.0, "name": "50a756e9ae8297c8d476b57d73053deb", "is_reserved": 0, "rental_uris": {"android": "https://dc.lft.to/lastmile_qr_scan", "ios": "https://dc.lft.to/lastmile_qr_scan"}, "fusion_lon": 0.0}, {"lat": 38.9333355, "is_disabled": 0, "type": "electric_scooter", "lon": -77.057059, "bike_id": "eb6b21a823476aabc9beff8adbae0fd9", "fusion_lat": 0.0, "name": "eb6b21a823476aabc9beff8adbae0fd9", "is_reserved": 0, "rental_uris": {"android": "https://dc.lft.to/lastmile_qr_scan", "ios": "https://dc.lft.to/lastmile_qr_scan"}, "fusion_lon": 0.0}, {"lat": 38.898391833333335, "is_disabled": 0, "type": "electric_scooter", "lon": -76.93105233333333, "bike_id": "45b45b95d46ccf9c20c6a7a535deb1aa", "fusion_lat": 0.0, "name": "45b45b95d46ccf9c20c6a7a535deb1aa", "is_reserved": 0, "rental_uris": {"android": "https://dc.lft.to/lastmile_qr_scan", "ios": "https://dc.lft.to/lastmile_qr_scan"}, "fusion_lon": 0.0}, {"lat": 38.9023605, "is_disabled": 0, "type": "electric_scooter", "lon": -77.05319766666666, "bike_id": "a325e22175ea92e611796a1358c5c249", "fusion_lat": 0.0, "name": "a325e22175ea92e611796a1358c5c249", "is_reserved": 0, "rental_uris": {"android": "https://dc.lft.to/lastmile_qr_scan", "ios": "https://dc.lft.to/lastmile_qr_scan"}, "fusion_lon": 0.0}, {"lat": 38.858094333333334, "is_disabled": 0, "type": "electric_scooter", "lon": -76.98652883333334, "bike_id": "be352730e65c91469ac85e7792c19ce4", "fusion_lat": 0.0, "name": "be352730e65c91469ac85e7792c19ce4", "is_reserved": 0, "rental_uris": {"android": "https://dc.lft.to/lastmile_qr_scan", "ios": "https://dc.lft.to/lastmile_qr_scan"}, "fusion_lon": 0.0}, {"lat": 38.9446235, "is_disabled": 0, "type": "electric_scooter", "lon": -77.06036, "bike_id": "16e8949b5838fc09b3aef68812f1e382", "fusion_lat": 0.0, "name": "16e8949b5838fc09b3aef68812f1e382", "is_reserved": 0, "rental_uris": {"android": "https://dc.lft.to/lastmile_qr_scan", "ios": "https://dc.lft.to/lastmile_qr_scan"}, "fusion_lon": 0.0}, {"lat": 38.91697683333334, "is_disabled": 0, "type": "electric_scooter", "lon": -77.04333033333333, "bike_id": "731976258ec8a94b8d3cdeba9c182e49", "fusion_lat": 0.0, "name": "731976258ec8a94b8d3cdeba9c182e49", "is_reserved": 0, "rental_uris": {"android": "https://dc.lft.to/lastmile_qr_scan", "ios": "https://dc.lft.to/lastmile_qr_scan"}, "fusion_lon": 0.0}, {"lat": 38.916002166666665, "is_disabled": 0, "type": "electric_scooter", "lon": -77.07561833333334, "bike_id": "bfdefefee0c787de2f387bf97c180370", "fusion_lat": 0.0, "name": "bfdefefee0c787de2f387bf97c180370", "is_reserved": 0, "rental_uris": {"android": "https://dc.lft.to/lastmile_qr_scan", "ios": "https://dc.lft.to/lastmile_qr_scan"}, "fusion_lon": 0.0}, {"lat": 38.92461266666667, "is_disabled": 0, "type": "electric_bike", "lon": -77.20839483333333, "bike_id": "edb12ec6cbcf4e0d69e7860d4d1b56a0", "fusion_lat": 0.0, "name": "edb12ec6cbcf4e0d69e7860d4d1b56a0", "is_reserved": 0, "rental_uris": {"android": "https://dc.lft.to/lastmile_qr_scan", "ios": "https://dc.lft.to/lastmile_qr_scan"}, "fusion_lon": 0.0}, {"lat": 38.8909655, "is_disabled": 0, "type": "electric_scooter", "lon": -76.9429835, "bike_id": "e25137a46ec1e99a4272f8ff729c38dc", "fusion_lat": 0.0, "name": "e25137a46ec1e99a4272f8ff729c38dc", "is_reserved": 0, "rental_uris": {"android": "https://dc.lft.to/lastmile_qr_scan", "ios": "https://dc.lft.to/lastmile_qr_scan"}, "fusion_lon": 0.0}, {"lat": 38.87748, "is_disabled": 0, "type": "electric_bike", "lon": -76.99516783333334, "bike_id": "273e75888f1b5db5b39ec85da7dcb97b", "fusion_lat": 0.0, "name": "273e75888f1b5db5b39ec85da7dcb97b", "is_reserved": 0, "rental_uris": {"android": "https://dc.lft.to/lastmile_qr_scan", "ios": "https://dc.lft.to/lastmile_qr_scan"}, "fusion_lon": 0.0}, {"lat": 38.963945833333334, "is_disabled": 0, "type": "electric_scooter", "lon": -77.02590166666667, "bike_id": "d9db3265e43600d27f711f0b6737e59b", "fusion_lat": 0.0, "name": "d9db3265e43600d27f711f0b6737e59b", "is_reserved": 0, "rental_uris": {"android": "https://dc.lft.to/lastmile_qr_scan", "ios": "https://dc.lft.to/lastmile_qr_scan"}, "fusion_lon": 0.0}, {"lat": 38.90792416666667, "is_disabled": 0, "type": "electric_scooter", "lon": -77.03476533333334, "bike_id": "cb3ef8f87af2ebfed2ccc06df4b364c3", "fusion_lat": 0.0, "name": "cb3ef8f87af2ebfed2ccc06df4b364c3", "is_reserved": 0, "rental_uris": {"android": "https://dc.lft.to/lastmile_qr_scan", "ios": "https://dc.lft.to/lastmile_qr_scan"}, "fusion_lon": 0.0}, {"lat": 38.9022135, "is_disabled": 0, "type": "electric_scooter", "lon": -77.00566283333333, "bike_id": "4f5e9e1b77449375553abe2b50feb85b", "fusion_lat": 0.0, "name": "4f5e9e1b77449375553abe2b50feb85b", "is_reserved": 0, "rental_uris": {"android": "https://dc.lft.to/lastmile_qr_scan", "ios": "https://dc.lft.to/lastmile_qr_scan"}, "fusion_lon": 0.0}, {"lat": 38.92715366666667, "is_disabled": 0, "type": "electric_scooter", "lon": -77.020892, "bike_id": "55d407eb71e24d06105e75732c501b5a", "fusion_lat": 0.0, "name": "55d407eb71e24d06105e75732c501b5a", "is_reserved": 0, "rental_uris": {"android": "https://dc.lft.to/lastmile_qr_scan", "ios": "https://dc.lft.to/lastmile_qr_scan"}, "fusion_lon": 0.0}, {"lat": 38.93622766666667, "is_disabled": 0, "type": "electric_scooter", "lon": -77.036416, "bike_id": "b73614a80e62384785deb8858ff6d131", "fusion_lat": 0.0, "name": "b73614a80e62384785deb8858ff6d131", "is_reserved": 0, "rental_uris": {"android": "https://dc.lft.to/lastmile_qr_scan", "ios": "https://dc.lft.to/lastmile_qr_scan"}, "fusion_lon": 0.0}, {"lat": 38.9527965, "is_disabled": 0, "type": "electric_scooter", "lon": -77.036532, "bike_id": "16f7f27710e3c62cf7db3b8e4f1f0754", "fusion_lat": 0.0, "name": "16f7f27710e3c62cf7db3b8e4f1f0754", "is_reserved": 0, "rental_uris": {"android": "https://dc.lft.to/lastmile_qr_scan", "ios": "https://dc.lft.to/lastmile_qr_scan"}, "fusion_lon": 0.0}, {"lat": 38.90035966666667, "is_disabled": 0, "type": "electric_scooter", "lon": -77.005825, "bike_id": "7262461f2ab819d95053ac56eee876f6", "fusion_lat": 0.0, "name": "7262461f2ab819d95053ac56eee876f6", "is_reserved": 0, "rental_uris": {"android": "https://dc.lft.to/lastmile_qr_scan", "ios": "https://dc.lft.to/lastmile_qr_scan"}, "fusion_lon": 0.0}, {"lat": 38.9189735, "is_disabled": 0, "type": "electric_scooter", "lon": -77.03450566666666, "bike_id": "7846c9e1b9dbd5682212a15a42278942", "fusion_lat": 0.0, "name": "7846c9e1b9dbd5682212a15a42278942", "is_reserved": 0, "rental_uris": {"android": "https://dc.lft.to/lastmile_qr_scan", "ios": "https://dc.lft.to/lastmile_qr_scan"}, "fusion_lon": 0.0}, {"lat": 38.944458, "is_disabled": 0, "type": "electric_scooter", "lon": -77.03280816666667, "bike_id": "1464ad0375b42e63cbe6d2259e318cc8", "fusion_lat": 0.0, "name": "1464ad0375b42e63cbe6d2259e318cc8", "is_reserved": 0, "rental_uris": {"android": "https://dc.lft.to/lastmile_qr_scan", "ios": "https://dc.lft.to/lastmile_qr_scan"}, "fusion_lon": 0.0}, {"lat": 38.900414, "is_disabled": 0, "type": "electric_scooter", "lon": -76.99021916666666, "bike_id": "a6f2956415cd9590f99d8edaef07609d", "fusion_lat": 0.0, "name": "a6f2956415cd9590f99d8edaef07609d", "is_reserved": 0, "rental_uris": {"android": "https://dc.lft.to/lastmile_qr_scan", "ios": "https://dc.lft.to/lastmile_qr_scan"}, "fusion_lon": 0.0}, {"lat": 38.9216465, "is_disabled": 0, "type": "electric_scooter", "lon": -77.07694766666667, "bike_id": "d98423774dbb165b3f648eda04d6fb62", "fusion_lat": 0.0, "name": "d98423774dbb165b3f648eda04d6fb62", "is_reserved": 0, "rental_uris": {"android": "https://dc.lft.to/lastmile_qr_scan", "ios": "https://dc.lft.to/lastmile_qr_scan"}, "fusion_lon": 0.0}, {"lat": 38.88569483333333, "is_disabled": 0, "type": "electric_scooter", "lon": -77.02005166666666, "bike_id": "70d549a98e436909dccf7b778aa4f413", "fusion_lat": 0.0, "name": "70d549a98e436909dccf7b778aa4f413", "is_reserved": 0, "rental_uris": {"android": "https://dc.lft.to/lastmile_qr_scan", "ios": "https://dc.lft.to/lastmile_qr_scan"}, "fusion_lon": 0.0}, {"lat": 38.9142095, "is_disabled": 0, "type": "electric_scooter", "lon": -77.03178216666667, "bike_id": "bf3ee6e7e2849491cf16cd9c767b214e", "fusion_lat": 0.0, "name": "bf3ee6e7e2849491cf16cd9c767b214e", "is_reserved": 0, "rental_uris": {"android": "https://dc.lft.to/lastmile_qr_scan", "ios": "https://dc.lft.to/lastmile_qr_scan"}, "fusion_lon": 0.0}, {"lat": 38.933500333333335, "is_disabled": 0, "type": "electric_scooter", "lon": -77.0570445, "bike_id": "9a61a585d3ab883d49d262a2b4a6fb51", "fusion_lat": 0.0, "name": "9a61a585d3ab883d49d262a2b4a6fb51", "is_reserved": 0, "rental_uris": {"android": "https://dc.lft.to/lastmile_qr_scan", "ios": "https://dc.lft.to/lastmile_qr_scan"}, "fusion_lon": 0.0}, {"lat": 38.92377233333333, "is_disabled": 0, "type": "electric_scooter", "lon": -77.03632066666667, "bike_id": "1b4df9a25c5d4ccd13ee1b5124d2f94a", "fusion_lat": 0.0, "name": "1b4df9a25c5d4ccd13ee1b5124d2f94a", "is_reserved": 0, "rental_uris": {"android": "https://dc.lft.to/lastmile_qr_scan", "ios": "https://dc.lft.to/lastmile_qr_scan"}, "fusion_lon": 0.0}, {"lat": 38.87009783333333, "is_disabled": 0, "type": "electric_bike", "lon": -76.9602385, "bike_id": "a1022f5418bba4ff9b2999d3db2ecf7d", "fusion_lat": 0.0, "name": "a1022f5418bba4ff9b2999d3db2ecf7d", "is_reserved": 0, "rental_uris": {"android": "https://dc.lft.to/lastmile_qr_scan", "ios": "https://dc.lft.to/lastmile_qr_scan"}, "fusion_lon": 0.0}, {"lat": 38.83674666666667, "is_disabled": 0, "type": "electric_scooter", "lon": -77.00572033333333, "bike_id": "3a06d6b4d104a7ee2bed833ce0b08cf8", "fusion_lat": 0.0, "name": "3a06d6b4d104a7ee2bed833ce0b08cf8", "is_reserved": 0, "rental_uris": {"android": "https://dc.lft.to/lastmile_qr_scan", "ios": "https://dc.lft.to/lastmile_qr_scan"}, "fusion_lon": 0.0}, {"lat": 38.904237333333334, "is_disabled": 0, "type": "electric_scooter", "lon": -77.01842366666666, "bike_id": "3e76af1b80e269c24b34dfc7a4c1a14a", "fusion_lat": 0.0, "name": "3e76af1b80e269c24b34dfc7a4c1a14a", "is_reserved": 0, "rental_uris": {"android": "https://dc.lft.to/lastmile_qr_scan", "ios": "https://dc.lft.to/lastmile_qr_scan"}, "fusion_lon": 0.0}, {"lat": 38.90856516666667, "is_disabled": 0, "type": "electric_scooter", "lon": -77.04591316666667, "bike_id": "cd88038d4311b69f9c80a7d5caf19c22", "fusion_lat": 0.0, "name": "cd88038d4311b69f9c80a7d5caf19c22", "is_reserved": 0, "rental_uris": {"android": "https://dc.lft.to/lastmile_qr_scan", "ios": "https://dc.lft.to/lastmile_qr_scan"}, "fusion_lon": 0.0}, {"lat": 38.919208166666664, "is_disabled": 0, "type": "electric_scooter", "lon": -77.01341416666666, "bike_id": "cb978bc502e83481c428530af30b8301", "fusion_lat": 0.0, "name": "cb978bc502e83481c428530af30b8301", "is_reserved": 0, "rental_uris": {"android": "https://dc.lft.to/lastmile_qr_scan", "ios": "https://dc.lft.to/lastmile_qr_scan"}, "fusion_lon": 0.0}, {"lat": 38.921713833333335, "is_disabled": 0, "type": "electric_scooter", "lon": -77.0401915, "bike_id": "b9839c8f24fac42b27fba08c026411a0", "fusion_lat": 0.0, "name": "b9839c8f24fac42b27fba08c026411a0", "is_reserved": 0, "rental_uris": {"android": "https://dc.lft.to/lastmile_qr_scan", "ios": "https://dc.lft.to/lastmile_qr_scan"}, "fusion_lon": 0.0}, {"lat": 38.892270333333336, "is_disabled": 0, "type": "electric_scooter", "lon": -77.050071, "bike_id": "b1979870839be7c8bf67818ef52b8c75", "fusion_lat": 0.0, "name": "b1979870839be7c8bf67818ef52b8c75", "is_reserved": 0, "rental_uris": {"android": "https://dc.lft.to/lastmile_qr_scan", "ios": "https://dc.lft.to/lastmile_qr_scan"}, "fusion_lon": 0.0}, {"lat": 38.935002, "is_disabled": 0, "type": "electric_scooter", "lon": -77.05805383333333, "bike_id": "e6b6d12fba902c69b6ed8605903d6ea7", "fusion_lat": 0.0, "name": "e6b6d12fba902c69b6ed8605903d6ea7", "is_reserved": 0, "rental_uris": {"android": "https://dc.lft.to/lastmile_qr_scan", "ios": "https://dc.lft.to/lastmile_qr_scan"}, "fusion_lon": 0.0}, {"lat": 38.90602716666667, "is_disabled": 0, "type": "electric_scooter", "lon": -77.0585315, "bike_id": "0e0f4c48c247e6061a6f849a792b5ca6", "fusion_lat": 0.0, "name": "0e0f4c48c247e6061a6f849a792b5ca6", "is_reserved": 0, "rental_uris": {"android": "https://dc.lft.to/lastmile_qr_scan", "ios": "https://dc.lft.to/lastmile_qr_scan"}, "fusion_lon": 0.0}, {"lat": 38.88423, "is_disabled": 0, "type": "electric_bike", "lon": -76.9808335, "bike_id": "fc092a2ac7fe86fe04bdc45a9c7f7863", "fusion_lat": 0.0, "name": "fc092a2ac7fe86fe04bdc45a9c7f7863", "is_reserved": 0, "rental_uris": {"android": "https://dc.lft.to/lastmile_qr_scan", "ios": "https://dc.lft.to/lastmile_qr_scan"}, "fusion_lon": 0.0}, {"lat": 38.895188833333336, "is_disabled": 0, "type": "electric_scooter", "lon": -77.01102616666667, "bike_id": "bde3fc99a7e508673f0f5823bbbbc12d", "fusion_lat": 0.0, "name": "bde3fc99a7e508673f0f5823bbbbc12d", "is_reserved": 0, "rental_uris": {"android": "https://dc.lft.to/lastmile_qr_scan", "ios": "https://dc.lft.to/lastmile_qr_scan"}, "fusion_lon": 0.0}, {"lat": 38.87929916666667, "is_disabled": 0, "type": "electric_scooter", "lon": -77.0074305, "bike_id": "aabbcf97216951e1908acfad2301992d", "fusion_lat": 0.0, "name": "aabbcf97216951e1908acfad2301992d", "is_reserved": 0, "rental_uris": {"android": "https://dc.lft.to/lastmile_qr_scan", "ios": "https://dc.lft.to/lastmile_qr_scan"}, "fusion_lon": 0.0}, {"lat": 38.91860783333333, "is_disabled": 0, "type": "electric_scooter", "lon": -77.0742215, "bike_id": "54ccd1a612747550fb35111c4a8d55d5", "fusion_lat": 0.0, "name": "54ccd1a612747550fb35111c4a8d55d5", "is_reserved": 0, "rental_uris": {"android": "https://dc.lft.to/lastmile_qr_scan", "ios": "https://dc.lft.to/lastmile_qr_scan"}, "fusion_lon": 0.0}, {"lat": 38.923632833333336, "is_disabled": 0, "type": "electric_scooter", "lon": -77.07676333333333, "bike_id": "2afc754cab03781e61f6e07ca3e4fe6b", "fusion_lat": 0.0, "name": "2afc754cab03781e61f6e07ca3e4fe6b", "is_reserved": 0, "rental_uris": {"android": "https://dc.lft.to/lastmile_qr_scan", "ios": "https://dc.lft.to/lastmile_qr_scan"}, "fusion_lon": 0.0}, {"lat": 38.892015, "is_disabled": 0, "type": "electric_bike", "lon": -76.97053666666666, "bike_id": "ed0dd29c193fdc5401cf6e50b73cf323", "fusion_lat": 0.0, "name": "ed0dd29c193fdc5401cf6e50b73cf323", "is_reserved": 0, "rental_uris": {"android": "https://dc.lft.to/lastmile_qr_scan", "ios": "https://dc.lft.to/lastmile_qr_scan"}, "fusion_lon": 0.0}, {"lat": 38.907167333333334, "is_disabled": 0, "type": "electric_scooter", "lon": -77.04404333333333, "bike_id": "8189d0c66e542d573407d4258d08f7e7", "fusion_lat": 0.0, "name": "8189d0c66e542d573407d4258d08f7e7", "is_reserved": 0, "rental_uris": {"android": "https://dc.lft.to/lastmile_qr_scan", "ios": "https://dc.lft.to/lastmile_qr_scan"}, "fusion_lon": 0.0}, {"lat": 38.93480816666667, "is_disabled": 0, "type": "electric_scooter", "lon": -77.03660366666666, "bike_id": "5cab5743803028b721007aa7b3b80d08", "fusion_lat": 0.0, "name": "5cab5743803028b721007aa7b3b80d08", "is_reserved": 0, "rental_uris": {"android": "https://dc.lft.to/lastmile_qr_scan", "ios": "https://dc.lft.to/lastmile_qr_scan"}, "fusion_lon": 0.0}, {"lat": 38.8928885, "is_disabled": 0, "type": "electric_bike", "lon": -77.00142683333333, "bike_id": "6a6a41e12c8684cea56471a648ae1190", "fusion_lat": 0.0, "name": "6a6a41e12c8684cea56471a648ae1190", "is_reserved": 0, "rental_uris": {"android": "https://dc.lft.to/lastmile_qr_scan", "ios": "https://dc.lft.to/lastmile_qr_scan"}, "fusion_lon": 0.0}, {"lat": 38.9146485, "is_disabled": 0, "type": "electric_scooter", "lon": -77.01891, "bike_id": "3a95a61ce1994d998b9a8fd0ff9843ea", "fusion_lat": 0.0, "name": "3a95a61ce1994d998b9a8fd0ff9843ea", "is_reserved": 0, "rental_uris": {"android": "https://dc.lft.to/lastmile_qr_scan", "ios": "https://dc.lft.to/lastmile_qr_scan"}, "fusion_lon": 0.0}, {"lat": 38.92994183333333, "is_disabled": 0, "type": "electric_bike", "lon": -77.0231695, "bike_id": "fe5839b606d684f4c92cb44f3a928f73", "fusion_lat": 0.0, "name": "fe5839b606d684f4c92cb44f3a928f73", "is_reserved": 0, "rental_uris": {"android": "https://dc.lft.to/lastmile_qr_scan", "ios": "https://dc.lft.to/lastmile_qr_scan"}, "fusion_lon": 0.0}, {"lat": 38.909678666666665, "is_disabled": 0, "type": "electric_scooter", "lon": -77.03855933333334, "bike_id": "ee43bf983977e83de38005ea3bc39917", "fusion_lat": 0.0, "name": "ee43bf983977e83de38005ea3bc39917", "is_reserved": 0, "rental_uris": {"android": "https://dc.lft.to/lastmile_qr_scan", "ios": "https://dc.lft.to/lastmile_qr_scan"}, "fusion_lon": 0.0}, {"lat": 38.887433333333334, "is_disabled": 0, "type": "electric_scooter", "lon": -77.0207305, "bike_id": "347b6f72b11a46fc56c76c96436dc33f", "fusion_lat": 0.0, "name": "347b6f72b11a46fc56c76c96436dc33f", "is_reserved": 0, "rental_uris": {"android": "https://dc.lft.to/lastmile_qr_scan", "ios": "https://dc.lft.to/lastmile_qr_scan"}, "fusion_lon": 0.0}, {"lat": 38.934768166666665, "is_disabled": 0, "type": "electric_scooter", "lon": -77.034017, "bike_id": "c927a293876ea1d3e0e658de209ae746", "fusion_lat": 0.0, "name": "c927a293876ea1d3e0e658de209ae746", "is_reserved": 0, "rental_uris": {"android": "https://dc.lft.to/lastmile_qr_scan", "ios": "https://dc.lft.to/lastmile_qr_scan"}, "fusion_lon": 0.0}, {"lat": 38.853208333333335, "is_disabled": 0, "type": "electric_scooter", "lon": -76.98022566666667, "bike_id": "b17d28c81a53a6a05010421bcfca402a", "fusion_lat": 0.0, "name": "b17d28c81a53a6a05010421bcfca402a", "is_reserved": 0, "rental_uris": {"android": "https://dc.lft.to/lastmile_qr_scan", "ios": "https://dc.lft.to/lastmile_qr_scan"}, "fusion_lon": 0.0}, {"lat": 38.901425833333334, "is_disabled": 0, "type": "electric_scooter", "lon": -77.0034875, "bike_id": "c255d53d8d2fa6a05263fceff80e1790", "fusion_lat": 0.0, "name": "c255d53d8d2fa6a05263fceff80e1790", "is_reserved": 0, "rental_uris": {"android": "https://dc.lft.to/lastmile_qr_scan", "ios": "https://dc.lft.to/lastmile_qr_scan"}, "fusion_lon": 0.0}, {"lat": 38.874038166666665, "is_disabled": 0, "type": "electric_scooter", "lon": -77.01457366666666, "bike_id": "3b48dd2cafb06f16aa5e67b7f3b3067f", "fusion_lat": 0.0, "name": "3b48dd2cafb06f16aa5e67b7f3b3067f", "is_reserved": 0, "rental_uris": {"android": "https://dc.lft.to/lastmile_qr_scan", "ios": "https://dc.lft.to/lastmile_qr_scan"}, "fusion_lon": 0.0}, {"lat": 38.93737333333333, "is_disabled": 0, "type": "electric_scooter", "lon": -77.03495283333334, "bike_id": "9726175b75edf80b58a1e9c61abc759a", "fusion_lat": 0.0, "name": "9726175b75edf80b58a1e9c61abc759a", "is_reserved": 0, "rental_uris": {"android": "https://dc.lft.to/lastmile_qr_scan", "ios": "https://dc.lft.to/lastmile_qr_scan"}, "fusion_lon": 0.0}, {"lat": 38.872395833333336, "is_disabled": 0, "type": "electric_scooter", "lon": -77.01192816666666, "bike_id": "6245daa8c5f50704298776f54ad7fa13", "fusion_lat": 0.0, "name": "6245daa8c5f50704298776f54ad7fa13", "is_reserved": 0, "rental_uris": {"android": "https://dc.lft.to/lastmile_qr_scan", "ios": "https://dc.lft.to/lastmile_qr_scan"}, "fusion_lon": 0.0}, {"lat": 38.907347666666666, "is_disabled": 0, "type": "electric_scooter", "lon": -77.02991483333334, "bike_id": "ab1b377268b59057346c392886f61d8b", "fusion_lat": 0.0, "name": "ab1b377268b59057346c392886f61d8b", "is_reserved": 0, "rental_uris": {"android": "https://dc.lft.to/lastmile_qr_scan", "ios": "https://dc.lft.to/lastmile_qr_scan"}, "fusion_lon": 0.0}, {"lat": 38.88119583333334, "is_disabled": 0, "type": "electric_scooter", "lon": -77.01977, "bike_id": "ecc111eab24b124ea4c63d9eb932d362", "fusion_lat": 0.0, "name": "ecc111eab24b124ea4c63d9eb932d362", "is_reserved": 0, "rental_uris": {"android": "https://dc.lft.to/lastmile_qr_scan", "ios": "https://dc.lft.to/lastmile_qr_scan"}, "fusion_lon": 0.0}, {"lat": 38.89612483333333, "is_disabled": 0, "type": "electric_scooter", "lon": -76.95660766666667, "bike_id": "692ab345dd9e30847e12b4b6f1ead862", "fusion_lat": 0.0, "name": "692ab345dd9e30847e12b4b6f1ead862", "is_reserved": 0, "rental_uris": {"android": "https://dc.lft.to/lastmile_qr_scan", "ios": "https://dc.lft.to/lastmile_qr_scan"}, "fusion_lon": 0.0}, {"lat": 38.909727833333335, "is_disabled": 0, "type": "electric_scooter", "lon": -77.03214666666666, "bike_id": "8d56ff04377172123a97e1de109c2cd0", "fusion_lat": 0.0, "name": "8d56ff04377172123a97e1de109c2cd0", "is_reserved": 0, "rental_uris": {"android": "https://dc.lft.to/lastmile_qr_scan", "ios": "https://dc.lft.to/lastmile_qr_scan"}, "fusion_lon": 0.0}, {"lat": 38.926181666666665, "is_disabled": 0, "type": "electric_scooter", "lon": -77.04411333333333, "bike_id": "048a4224ff825c59f616e01cd5841731", "fusion_lat": 0.0, "name": "048a4224ff825c59f616e01cd5841731", "is_reserved": 0, "rental_uris": {"android": "https://dc.lft.to/lastmile_qr_scan", "ios": "https://dc.lft.to/lastmile_qr_scan"}, "fusion_lon": 0.0}, {"lat": 38.89839933333333, "is_disabled": 0, "type": "electric_scooter", "lon": -77.030244, "bike_id": "62ba9919707f76c6dc9a5482c71540a5", "fusion_lat": 0.0, "name": "62ba9919707f76c6dc9a5482c71540a5", "is_reserved": 0, "rental_uris": {"android": "https://dc.lft.to/lastmile_qr_scan", "ios": "https://dc.lft.to/lastmile_qr_scan"}, "fusion_lon": 0.0}, {"lat": 38.93066916666667, "is_disabled": 0, "type": "electric_scooter", "lon": -77.03128483333333, "bike_id": "aa5272f029f0ffe398059dced1cfb291", "fusion_lat": 0.0, "name": "aa5272f029f0ffe398059dced1cfb291", "is_reserved": 0, "rental_uris": {"android": "https://dc.lft.to/lastmile_qr_scan", "ios": "https://dc.lft.to/lastmile_qr_scan"}, "fusion_lon": 0.0}, {"lat": 38.940831333333335, "is_disabled": 0, "type": "electric_scooter", "lon": -77.06135533333334, "bike_id": "299b2fcc13a90bc86043a0522cf37616", "fusion_lat": 0.0, "name": "299b2fcc13a90bc86043a0522cf37616", "is_reserved": 0, "rental_uris": {"android": "https://dc.lft.to/lastmile_qr_scan", "ios": "https://dc.lft.to/lastmile_qr_scan"}, "fusion_lon": 0.0}, {"lat": 38.916328, "is_disabled": 0, "type": "electric_scooter", "lon": -77.03133016666666, "bike_id": "ac6a9939f5b68b56e750a17848043aaa", "fusion_lat": 0.0, "name": "ac6a9939f5b68b56e750a17848043aaa", "is_reserved": 0, "rental_uris": {"android": "https://dc.lft.to/lastmile_qr_scan", "ios": "https://dc.lft.to/lastmile_qr_scan"}, "fusion_lon": 0.0}, {"lat": 38.89820866666667, "is_disabled": 0, "type": "electric_scooter", "lon": -77.02372516666667, "bike_id": "65893a0859f412a1b2d2b365511be350", "fusion_lat": 0.0, "name": "65893a0859f412a1b2d2b365511be350", "is_reserved": 0, "rental_uris": {"android": "https://dc.lft.to/lastmile_qr_scan", "ios": "https://dc.lft.to/lastmile_qr_scan"}, "fusion_lon": 0.0}, {"lat": 38.9397325, "is_disabled": 0, "type": "electric_scooter", "lon": -77.028895, "bike_id": "bce98fd540ddfe016fc603091a9ed7de", "fusion_lat": 0.0, "name": "bce98fd540ddfe016fc603091a9ed7de", "is_reserved": 0, "rental_uris": {"android": "https://dc.lft.to/lastmile_qr_scan", "ios": "https://dc.lft.to/lastmile_qr_scan"}, "fusion_lon": 0.0}, {"lat": 38.923972666666664, "is_disabled": 0, "type": "electric_scooter", "lon": -77.02697266666667, "bike_id": "884d2b5ac9035d01ee17c353c529a106", "fusion_lat": 0.0, "name": "884d2b5ac9035d01ee17c353c529a106", "is_reserved": 0, "rental_uris": {"android": "https://dc.lft.to/lastmile_qr_scan", "ios": "https://dc.lft.to/lastmile_qr_scan"}, "fusion_lon": 0.0}, {"lat": 38.9052795, "is_disabled": 0, "type": "electric_bike", "lon": -77.05935016666666, "bike_id": "5bbf49a75f6a1ab9e92420fff3c1cf2a", "fusion_lat": 0.0, "name": "5bbf49a75f6a1ab9e92420fff3c1cf2a", "is_reserved": 0, "rental_uris": {"android": "https://dc.lft.to/lastmile_qr_scan", "ios": "https://dc.lft.to/lastmile_qr_scan"}, "fusion_lon": 0.0}, {"lat": 38.949035333333335, "is_disabled": 0, "type": "electric_bike", "lon": -76.97240916666667, "bike_id": "bff7f79a1bb97fff7fbdef3905f76952", "fusion_lat": 0.0, "name": "bff7f79a1bb97fff7fbdef3905f76952", "is_reserved": 0, "rental_uris": {"android": "https://dc.lft.to/lastmile_qr_scan", "ios": "https://dc.lft.to/lastmile_qr_scan"}, "fusion_lon": 0.0}, {"lat": 38.925365666666664, "is_disabled": 0, "type": "electric_scooter", "lon": -77.03451133333333, "bike_id": "3429c63d162e3f017190dd5ca7fda2d7", "fusion_lat": 0.0, "name": "3429c63d162e3f017190dd5ca7fda2d7", "is_reserved": 0, "rental_uris": {"android": "https://dc.lft.to/lastmile_qr_scan", "ios": "https://dc.lft.to/lastmile_qr_scan"}, "fusion_lon": 0.0}, {"lat": 38.966112333333335, "is_disabled": 0, "type": "electric_scooter", "lon": -77.0205695, "bike_id": "bcb5215ba74f48bd66064288443f7d6c", "fusion_lat": 0.0, "name": "bcb5215ba74f48bd66064288443f7d6c", "is_reserved": 0, "rental_uris": {"android": "https://dc.lft.to/lastmile_qr_scan", "ios": "https://dc.lft.to/lastmile_qr_scan"}, "fusion_lon": 0.0}, {"lat": 38.924929, "is_disabled": 0, "type": "electric_scooter", "lon": -77.031874, "bike_id": "e6fb6a0674ec54a463e9bf4c4e6e0ce9", "fusion_lat": 0.0, "name": "e6fb6a0674ec54a463e9bf4c4e6e0ce9", "is_reserved": 0, "rental_uris": {"android": "https://dc.lft.to/lastmile_qr_scan", "ios": "https://dc.lft.to/lastmile_qr_scan"}, "fusion_lon": 0.0}, {"lat": 38.8580655, "is_disabled": 0, "type": "electric_scooter", "lon": -76.98652566666667, "bike_id": "a863676d91a99ff8308e51db334d1dfd", "fusion_lat": 0.0, "name": "a863676d91a99ff8308e51db334d1dfd", "is_reserved": 0, "rental_uris": {"android": "https://dc.lft.to/lastmile_qr_scan", "ios": "https://dc.lft.to/lastmile_qr_scan"}, "fusion_lon": 0.0}, {"lat": 38.93476666666667, "is_disabled": 0, "type": "electric_scooter", "lon": -77.05793666666666, "bike_id": "887561488bf689aa1220284c9a199708", "fusion_lat": 0.0, "name": "887561488bf689aa1220284c9a199708", "is_reserved": 0, "rental_uris": {"android": "https://dc.lft.to/lastmile_qr_scan", "ios": "https://dc.lft.to/lastmile_qr_scan"}, "fusion_lon": 0.0}, {"lat": 38.887488833333336, "is_disabled": 0, "type": "electric_scooter", "lon": -77.031481, "bike_id": "94a77047ca389e7a693793b941346e4e", "fusion_lat": 0.0, "name": "94a77047ca389e7a693793b941346e4e", "is_reserved": 0, "rental_uris": {"android": "https://dc.lft.to/lastmile_qr_scan", "ios": "https://dc.lft.to/lastmile_qr_scan"}, "fusion_lon": 0.0}, {"lat": 38.900145, "is_disabled": 0, "type": "electric_scooter", "lon": -77.00206566666667, "bike_id": "32c45954ce61986a1b7ff711c16ef665", "fusion_lat": 0.0, "name": "32c45954ce61986a1b7ff711c16ef665", "is_reserved": 0, "rental_uris": {"android": "https://dc.lft.to/lastmile_qr_scan", "ios": "https://dc.lft.to/lastmile_qr_scan"}, "fusion_lon": 0.0}, {"lat": 38.91035183333334, "is_disabled": 0, "type": "electric_scooter", "lon": -76.99807383333334, "bike_id": "3995aeb586f6e3138cde99cc8584f79f", "fusion_lat": 0.0, "name": "3995aeb586f6e3138cde99cc8584f79f", "is_reserved": 0, "rental_uris": {"android": "https://dc.lft.to/lastmile_qr_scan", "ios": "https://dc.lft.to/lastmile_qr_scan"}, "fusion_lon": 0.0}, {"lat": 38.916222166666664, "is_disabled": 0, "type": "electric_scooter", "lon": -77.02953733333334, "bike_id": "9c69b7ebb09cd8a5ef6144d8766a94e3", "fusion_lat": 0.0, "name": "9c69b7ebb09cd8a5ef6144d8766a94e3", "is_reserved": 0, "rental_uris": {"android": "https://dc.lft.to/lastmile_qr_scan", "ios": "https://dc.lft.to/lastmile_qr_scan"}, "fusion_lon": 0.0}, {"lat": 38.958089, "is_disabled": 0, "type": "electric_scooter", "lon": -77.03159066666667, "bike_id": "9a2b6b8cd5bb192e4fc7c2b658fa3fb5", "fusion_lat": 0.0, "name": "9a2b6b8cd5bb192e4fc7c2b658fa3fb5", "is_reserved": 0, "rental_uris": {"android": "https://dc.lft.to/lastmile_qr_scan", "ios": "https://dc.lft.to/lastmile_qr_scan"}, "fusion_lon": 0.0}, {"lat": 38.8645215, "is_disabled": 0, "type": "electric_bike", "lon": -76.94561833333333, "bike_id": "2cbc81dd085396b567fa0c3fcb830afb", "fusion_lat": 0.0, "name": "2cbc81dd085396b567fa0c3fcb830afb", "is_reserved": 0, "rental_uris": {"android": "https://dc.lft.to/lastmile_qr_scan", "ios": "https://dc.lft.to/lastmile_qr_scan"}, "fusion_lon": 0.0}, {"lat": 38.90272683333333, "is_disabled": 0, "type": "electric_scooter", "lon": -77.03379183333334, "bike_id": "b3b545379167e9c3a04a12547b5c786a", "fusion_lat": 0.0, "name": "b3b545379167e9c3a04a12547b5c786a", "is_reserved": 0, "rental_uris": {"android": "https://dc.lft.to/lastmile_qr_scan", "ios": "https://dc.lft.to/lastmile_qr_scan"}, "fusion_lon": 0.0}, {"lat": 38.854479833333336, "is_disabled": 0, "type": "electric_scooter", "lon": -76.98578016666667, "bike_id": "dc369b8fdd207c1ed3e0fec011657e2e", "fusion_lat": 0.0, "name": "dc369b8fdd207c1ed3e0fec011657e2e", "is_reserved": 0, "rental_uris": {"android": "https://dc.lft.to/lastmile_qr_scan", "ios": "https://dc.lft.to/lastmile_qr_scan"}, "fusion_lon": 0.0}, {"lat": 38.8714135, "is_disabled": 0, "type": "electric_bike", "lon": -76.9369745, "bike_id": "4235a7a4b528851ace7bf02d480fe30d", "fusion_lat": 0.0, "name": "4235a7a4b528851ace7bf02d480fe30d", "is_reserved": 0, "rental_uris": {"android": "https://dc.lft.to/lastmile_qr_scan", "ios": "https://dc.lft.to/lastmile_qr_scan"}, "fusion_lon": 0.0}, {"lat": 38.9182245, "is_disabled": 0, "type": "electric_scooter", "lon": -77.03200633333333, "bike_id": "549b5e0892852f58468d3bb2f623fca9", "fusion_lat": 0.0, "name": "549b5e0892852f58468d3bb2f623fca9", "is_reserved": 0, "rental_uris": {"android": "https://dc.lft.to/lastmile_qr_scan", "ios": "https://dc.lft.to/lastmile_qr_scan"}, "fusion_lon": 0.0}, {"lat": 38.902093, "is_disabled": 0, "type": "electric_scooter", "lon": -77.02375666666667, "bike_id": "19b47df4cf7b2b12300468f07ba5597c", "fusion_lat": 0.0, "name": "19b47df4cf7b2b12300468f07ba5597c", "is_reserved": 0, "rental_uris": {"android": "https://dc.lft.to/lastmile_qr_scan", "ios": "https://dc.lft.to/lastmile_qr_scan"}, "fusion_lon": 0.0}, {"lat": 38.8896975, "is_disabled": 0, "type": "electric_scooter", "lon": -76.97938716666667, "bike_id": "fcb86cd472977110fded95390c1fdefb", "fusion_lat": 0.0, "name": "fcb86cd472977110fded95390c1fdefb", "is_reserved": 0, "rental_uris": {"android": "https://dc.lft.to/lastmile_qr_scan", "ios": "https://dc.lft.to/lastmile_qr_scan"}, "fusion_lon": 0.0}, {"lat": 38.90780816666667, "is_disabled": 0, "type": "electric_scooter", "lon": -77.02285333333333, "bike_id": "391e06f58cba4b565e52d2231174ac61", "fusion_lat": 0.0, "name": "391e06f58cba4b565e52d2231174ac61", "is_reserved": 0, "rental_uris": {"android": "https://dc.lft.to/lastmile_qr_scan", "ios": "https://dc.lft.to/lastmile_qr_scan"}, "fusion_lon": 0.0}, {"lat": 38.897375833333335, "is_disabled": 0, "type": "electric_scooter", "lon": -77.03199883333333, "bike_id": "01880057386895f27ffc06fd906d704d", "fusion_lat": 0.0, "name": "01880057386895f27ffc06fd906d704d", "is_reserved": 0, "rental_uris": {"android": "https://dc.lft.to/lastmile_qr_scan", "ios": "https://dc.lft.to/lastmile_qr_scan"}, "fusion_lon": 0.0}, {"lat": 38.89045866666667, "is_disabled": 0, "type": "electric_scooter", "lon": -76.9407655, "bike_id": "4aa006de0f8d7dd2afd64e22c9f9d92c", "fusion_lat": 0.0, "name": "4aa006de0f8d7dd2afd64e22c9f9d92c", "is_reserved": 0, "rental_uris": {"android": "https://dc.lft.to/lastmile_qr_scan", "ios": "https://dc.lft.to/lastmile_qr_scan"}, "fusion_lon": 0.0}, {"lat": 38.914217, "is_disabled": 0, "type": "electric_scooter", "lon": -77.03175566666667, "bike_id": "b0e65c6d777b55210b8777f8d8e999bc", "fusion_lat": 0.0, "name": "b0e65c6d777b55210b8777f8d8e999bc", "is_reserved": 0, "rental_uris": {"android": "https://dc.lft.to/lastmile_qr_scan", "ios": "https://dc.lft.to/lastmile_qr_scan"}, "fusion_lon": 0.0}, {"lat": 38.930942333333334, "is_disabled": 0, "type": "electric_scooter", "lon": -77.03758816666667, "bike_id": "0b906ef8a790b31bc7b888aca4deadba", "fusion_lat": 0.0, "name": "0b906ef8a790b31bc7b888aca4deadba", "is_reserved": 0, "rental_uris": {"android": "https://dc.lft.to/lastmile_qr_scan", "ios": "https://dc.lft.to/lastmile_qr_scan"}, "fusion_lon": 0.0}, {"lat": 38.89279033333333, "is_disabled": 0, "type": "electric_scooter", "lon": -77.05033533333334, "bike_id": "c61025f1a9c8e0858811ac96d4b1b8e4", "fusion_lat": 0.0, "name": "c61025f1a9c8e0858811ac96d4b1b8e4", "is_reserved": 0, "rental_uris": {"android": "https://dc.lft.to/lastmile_qr_scan", "ios": "https://dc.lft.to/lastmile_qr_scan"}, "fusion_lon": 0.0}, {"lat": 38.92916966666667, "is_disabled": 0, "type": "electric_scooter", "lon": -77.03173683333333, "bike_id": "44d74c13d612b29bbedb0f573a185223", "fusion_lat": 0.0, "name": "44d74c13d612b29bbedb0f573a185223", "is_reserved": 0, "rental_uris": {"android": "https://dc.lft.to/lastmile_qr_scan", "ios": "https://dc.lft.to/lastmile_qr_scan"}, "fusion_lon": 0.0}, {"lat": 38.900013333333334, "is_disabled": 0, "type": "electric_scooter", "lon": -77.052356, "bike_id": "e0cb7a7ab11a136533d5f154bb51774c", "fusion_lat": 0.0, "name": "e0cb7a7ab11a136533d5f154bb51774c", "is_reserved": 0, "rental_uris": {"android": "https://dc.lft.to/lastmile_qr_scan", "ios": "https://dc.lft.to/lastmile_qr_scan"}, "fusion_lon": 0.0}, {"lat": 38.8585235, "is_disabled": 0, "type": "electric_bike", "lon": -77.09757183333333, "bike_id": "bb1a9ef1b668c52b79f7c14bdbaa6c1e", "fusion_lat": 0.0, "name": "bb1a9ef1b668c52b79f7c14bdbaa6c1e", "is_reserved": 0, "rental_uris": {"android": "https://dc.lft.to/lastmile_qr_scan", "ios": "https://dc.lft.to/lastmile_qr_scan"}, "fusion_lon": 0.0}, {"lat": 38.95882816666666, "is_disabled": 0, "type": "electric_bike", "lon": -76.92486166666667, "bike_id": "16742d1360942a09bb44fcfec7c3ae34", "fusion_lat": 0.0, "name": "16742d1360942a09bb44fcfec7c3ae34", "is_reserved": 0, "rental_uris": {"android": "https://dc.lft.to/lastmile_qr_scan", "ios": "https://dc.lft.to/lastmile_qr_scan"}, "fusion_lon": 0.0}, {"lat": 38.914145, "is_disabled": 0, "type": "electric_scooter", "lon": -77.02231116666667, "bike_id": "3def1b1240cd76b1ac0b07d6f777b5c8", "fusion_lat": 0.0, "name": "3def1b1240cd76b1ac0b07d6f777b5c8", "is_reserved": 0, "rental_uris": {"android": "https://dc.lft.to/lastmile_qr_scan", "ios": "https://dc.lft.to/lastmile_qr_scan"}, "fusion_lon": 0.0}, {"lat": 38.81051033333333, "is_disabled": 0, "type": "electric_bike", "lon": -77.08512966666666, "bike_id": "41d9ff6be99759f244abd78d3590fe66", "fusion_lat": 0.0, "name": "41d9ff6be99759f244abd78d3590fe66", "is_reserved": 0, "rental_uris": {"android": "https://dc.lft.to/lastmile_qr_scan", "ios": "https://dc.lft.to/lastmile_qr_scan"}, "fusion_lon": 0.0}, {"lat": 38.92611616666667, "is_disabled": 0, "type": "electric_scooter", "lon": -77.05697733333334, "bike_id": "678ea5cee13fde699d6e81fe42a6a5a4", "fusion_lat": 0.0, "name": "678ea5cee13fde699d6e81fe42a6a5a4", "is_reserved": 0, "rental_uris": {"android": "https://dc.lft.to/lastmile_qr_scan", "ios": "https://dc.lft.to/lastmile_qr_scan"}, "fusion_lon": 0.0}, {"lat": 38.945993333333334, "is_disabled": 0, "type": "electric_scooter", "lon": -77.0703805, "bike_id": "b91df15092daf28d3fa4bb7c663c96d8", "fusion_lat": 0.0, "name": "b91df15092daf28d3fa4bb7c663c96d8", "is_reserved": 0, "rental_uris": {"android": "https://dc.lft.to/lastmile_qr_scan", "ios": "https://dc.lft.to/lastmile_qr_scan"}, "fusion_lon": 0.0}, {"lat": 38.893669833333334, "is_disabled": 0, "type": "electric_scooter", "lon": -76.99111416666666, "bike_id": "0c00d7e5312c7758dc49bbc15f6b0729", "fusion_lat": 0.0, "name": "0c00d7e5312c7758dc49bbc15f6b0729", "is_reserved": 0, "rental_uris": {"android": "https://dc.lft.to/lastmile_qr_scan", "ios": "https://dc.lft.to/lastmile_qr_scan"}, "fusion_lon": 0.0}, {"lat": 38.92101016666667, "is_disabled": 0, "type": "electric_scooter", "lon": -77.04200183333333, "bike_id": "1da5ed68345dd61a77519b8b8cac49b0", "fusion_lat": 0.0, "name": "1da5ed68345dd61a77519b8b8cac49b0", "is_reserved": 0, "rental_uris": {"android": "https://dc.lft.to/lastmile_qr_scan", "ios": "https://dc.lft.to/lastmile_qr_scan"}, "fusion_lon": 0.0}, {"lat": 38.854276666666664, "is_disabled": 0, "type": "electric_bike", "lon": -76.90963983333333, "bike_id": "9bc014261853238c83bf94c69d01628a", "fusion_lat": 0.0, "name": "9bc014261853238c83bf94c69d01628a", "is_reserved": 0, "rental_uris": {"android": "https://dc.lft.to/lastmile_qr_scan", "ios": "https://dc.lft.to/lastmile_qr_scan"}, "fusion_lon": 0.0}, {"lat": 38.915567833333334, "is_disabled": 0, "type": "electric_scooter", "lon": -77.00975216666667, "bike_id": "bb72ffe38ea57fb9a17d807b79a7968a", "fusion_lat": 0.0, "name": "bb72ffe38ea57fb9a17d807b79a7968a", "is_reserved": 0, "rental_uris": {"android": "https://dc.lft.to/lastmile_qr_scan", "ios": "https://dc.lft.to/lastmile_qr_scan"}, "fusion_lon": 0.0}, {"lat": 38.903657833333334, "is_disabled": 0, "type": "electric_scooter", "lon": -77.040133, "bike_id": "31235558b50242c597d690b9b65f5e0d", "fusion_lat": 0.0, "name": "31235558b50242c597d690b9b65f5e0d", "is_reserved": 0, "rental_uris": {"android": "https://dc.lft.to/lastmile_qr_scan", "ios": "https://dc.lft.to/lastmile_qr_scan"}, "fusion_lon": 0.0}, {"lat": 38.91872, "is_disabled": 0, "type": "electric_scooter", "lon": -77.03503266666667, "bike_id": "c3bb21e220afdc4fa4e1452f73fbb89b", "fusion_lat": 0.0, "name": "c3bb21e220afdc4fa4e1452f73fbb89b", "is_reserved": 0, "rental_uris": {"android": "https://dc.lft.to/lastmile_qr_scan", "ios": "https://dc.lft.to/lastmile_qr_scan"}, "fusion_lon": 0.0}, {"lat": 38.923820666666664, "is_disabled": 0, "type": "electric_scooter", "lon": -77.02765833333333, "bike_id": "3eb870533b55d37ce07799d5aebf459b", "fusion_lat": 0.0, "name": "3eb870533b55d37ce07799d5aebf459b", "is_reserved": 0, "rental_uris": {"android": "https://dc.lft.to/lastmile_qr_scan", "ios": "https://dc.lft.to/lastmile_qr_scan"}, "fusion_lon": 0.0}, {"lat": 38.905032, "is_disabled": 0, "type": "electric_scooter", "lon": -76.9953725, "bike_id": "2548e064058f44b4b3ddccf98d977c52", "fusion_lat": 0.0, "name": "2548e064058f44b4b3ddccf98d977c52", "is_reserved": 0, "rental_uris": {"android": "https://dc.lft.to/lastmile_qr_scan", "ios": "https://dc.lft.to/lastmile_qr_scan"}, "fusion_lon": 0.0}, {"lat": 38.844230333333336, "is_disabled": 0, "type": "electric_scooter", "lon": -76.99777283333333, "bike_id": "5f218d7f22b434c742cde3045ae91cbf", "fusion_lat": 0.0, "name": "5f218d7f22b434c742cde3045ae91cbf", "is_reserved": 0, "rental_uris": {"android": "https://dc.lft.to/lastmile_qr_scan", "ios": "https://dc.lft.to/lastmile_qr_scan"}, "fusion_lon": 0.0}, {"lat": 38.882929, "is_disabled": 0, "type": "electric_bike", "lon": -76.98792466666667, "bike_id": "cf2f7070df2cfc0ff4822c7359ba30c0", "fusion_lat": 0.0, "name": "cf2f7070df2cfc0ff4822c7359ba30c0", "is_reserved": 0, "rental_uris": {"android": "https://dc.lft.to/lastmile_qr_scan", "ios": "https://dc.lft.to/lastmile_qr_scan"}, "fusion_lon": 0.0}, {"lat": 38.921653666666664, "is_disabled": 0, "type": "electric_scooter", "lon": -77.04238233333334, "bike_id": "14df3b52e877e479cf8648ef60adc147", "fusion_lat": 0.0, "name": "14df3b52e877e479cf8648ef60adc147", "is_reserved": 0, "rental_uris": {"android": "https://dc.lft.to/lastmile_qr_scan", "ios": "https://dc.lft.to/lastmile_qr_scan"}, "fusion_lon": 0.0}, {"lat": 38.919604666666665, "is_disabled": 0, "type": "electric_scooter", "lon": -77.0320245, "bike_id": "5bbb85b27fdb77b3c3f4a8809f537542", "fusion_lat": 0.0, "name": "5bbb85b27fdb77b3c3f4a8809f537542", "is_reserved": 0, "rental_uris": {"android": "https://dc.lft.to/lastmile_qr_scan", "ios": "https://dc.lft.to/lastmile_qr_scan"}, "fusion_lon": 0.0}, {"lat": 38.91709383333333, "is_disabled": 0, "type": "electric_scooter", "lon": -77.032227, "bike_id": "d6994d1a79da071d0a50067b23422d13", "fusion_lat": 0.0, "name": "d6994d1a79da071d0a50067b23422d13", "is_reserved": 0, "rental_uris": {"android": "https://dc.lft.to/lastmile_qr_scan", "ios": "https://dc.lft.to/lastmile_qr_scan"}, "fusion_lon": 0.0}, {"lat": 38.8964725, "is_disabled": 0, "type": "electric_scooter", "lon": -77.00786033333333, "bike_id": "1f7070ba460d016252fcd3531cb4c46d", "fusion_lat": 0.0, "name": "1f7070ba460d016252fcd3531cb4c46d", "is_reserved": 0, "rental_uris": {"android": "https://dc.lft.to/lastmile_qr_scan", "ios": "https://dc.lft.to/lastmile_qr_scan"}, "fusion_lon": 0.0}, {"lat": 38.935724, "is_disabled": 0, "type": "electric_scooter", "lon": -77.0326505, "bike_id": "483856c6aa103fb87e489b9d52893e7a", "fusion_lat": 0.0, "name": "483856c6aa103fb87e489b9d52893e7a", "is_reserved": 0, "rental_uris": {"android": "https://dc.lft.to/lastmile_qr_scan", "ios": "https://dc.lft.to/lastmile_qr_scan"}, "fusion_lon": 0.0}, {"lat": 38.9056875, "is_disabled": 0, "type": "electric_scooter", "lon": -77.00562366666666, "bike_id": "769b109b5c08b862204d5fe2960d7cfb", "fusion_lat": 0.0, "name": "769b109b5c08b862204d5fe2960d7cfb", "is_reserved": 0, "rental_uris": {"android": "https://dc.lft.to/lastmile_qr_scan", "ios": "https://dc.lft.to/lastmile_qr_scan"}, "fusion_lon": 0.0}, {"lat": 38.862748, "is_disabled": 0, "type": "electric_scooter", "lon": -76.99248083333333, "bike_id": "b8d153d596ba2be11263aee9c62c5d66", "fusion_lat": 0.0, "name": "b8d153d596ba2be11263aee9c62c5d66", "is_reserved": 0, "rental_uris": {"android": "https://dc.lft.to/lastmile_qr_scan", "ios": "https://dc.lft.to/lastmile_qr_scan"}, "fusion_lon": 0.0}, {"lat": 38.904914, "is_disabled": 0, "type": "electric_scooter", "lon": -77.05734366666667, "bike_id": "16c038e9ebe3e71bbe9b9372f1a4011a", "fusion_lat": 0.0, "name": "16c038e9ebe3e71bbe9b9372f1a4011a", "is_reserved": 0, "rental_uris": {"android": "https://dc.lft.to/lastmile_qr_scan", "ios": "https://dc.lft.to/lastmile_qr_scan"}, "fusion_lon": 0.0}, {"lat": 38.949419666666664, "is_disabled": 0, "type": "electric_scooter", "lon": -77.0201855, "bike_id": "fd479621e38795a1632000344bb4068b", "fusion_lat": 0.0, "name": "fd479621e38795a1632000344bb4068b", "is_reserved": 0, "rental_uris": {"android": "https://dc.lft.to/lastmile_qr_scan", "ios": "https://dc.lft.to/lastmile_qr_scan"}, "fusion_lon": 0.0}, {"lat": 38.87209566666667, "is_disabled": 0, "type": "electric_bike", "lon": -77.01521183333334, "bike_id": "27568a012ae8ca110b77431c511bb02b", "fusion_lat": 0.0, "name": "27568a012ae8ca110b77431c511bb02b", "is_reserved": 0, "rental_uris": {"android": "https://dc.lft.to/lastmile_qr_scan", "ios": "https://dc.lft.to/lastmile_qr_scan"}, "fusion_lon": 0.0}, {"lat": 38.93144616666667, "is_disabled": 0, "type": "electric_scooter", "lon": -77.028234, "bike_id": "956c12230ea80e8437536978022b547b", "fusion_lat": 0.0, "name": "956c12230ea80e8437536978022b547b", "is_reserved": 0, "rental_uris": {"android": "https://dc.lft.to/lastmile_qr_scan", "ios": "https://dc.lft.to/lastmile_qr_scan"}, "fusion_lon": 0.0}, {"lat": 38.92067216666667, "is_disabled": 0, "type": "electric_scooter", "lon": -77.0241725, "bike_id": "9fb1afa499b3f42a3b93e0bdba94fa15", "fusion_lat": 0.0, "name": "9fb1afa499b3f42a3b93e0bdba94fa15", "is_reserved": 0, "rental_uris": {"android": "https://dc.lft.to/lastmile_qr_scan", "ios": "https://dc.lft.to/lastmile_qr_scan"}, "fusion_lon": 0.0}, {"lat": 38.909581333333335, "is_disabled": 0, "type": "electric_scooter", "lon": -77.02685616666666, "bike_id": "aa04bf92b5cf502a795852e01a745562", "fusion_lat": 0.0, "name": "aa04bf92b5cf502a795852e01a745562", "is_reserved": 0, "rental_uris": {"android": "https://dc.lft.to/lastmile_qr_scan", "ios": "https://dc.lft.to/lastmile_qr_scan"}, "fusion_lon": 0.0}, {"lat": 38.944967166666665, "is_disabled": 0, "type": "electric_scooter", "lon": -77.01548516666666, "bike_id": "903b3ad618126c5a64fd529251e5fba2", "fusion_lat": 0.0, "name": "903b3ad618126c5a64fd529251e5fba2", "is_reserved": 0, "rental_uris": {"android": "https://dc.lft.to/lastmile_qr_scan", "ios": "https://dc.lft.to/lastmile_qr_scan"}, "fusion_lon": 0.0}, {"lat": 38.898641, "is_disabled": 0, "type": "electric_scooter", "lon": -77.01893866666667, "bike_id": "528c32a62820819d4dcec978923bc138", "fusion_lat": 0.0, "name": "528c32a62820819d4dcec978923bc138", "is_reserved": 0, "rental_uris": {"android": "https://dc.lft.to/lastmile_qr_scan", "ios": "https://dc.lft.to/lastmile_qr_scan"}, "fusion_lon": 0.0}, {"lat": 38.9007225, "is_disabled": 0, "type": "electric_scooter", "lon": -77.05044216666667, "bike_id": "928f1e3da3f6e92cdc689959bbc9f5f9", "fusion_lat": 0.0, "name": "928f1e3da3f6e92cdc689959bbc9f5f9", "is_reserved": 0, "rental_uris": {"android": "https://dc.lft.to/lastmile_qr_scan", "ios": "https://dc.lft.to/lastmile_qr_scan"}, "fusion_lon": 0.0}, {"lat": 38.89744783333333, "is_disabled": 0, "type": "electric_scooter", "lon": -77.008653, "bike_id": "b7d9531821ca95c24b5796e365d1dc3d", "fusion_lat": 0.0, "name": "b7d9531821ca95c24b5796e365d1dc3d", "is_reserved": 0, "rental_uris": {"android": "https://dc.lft.to/lastmile_qr_scan", "ios": "https://dc.lft.to/lastmile_qr_scan"}, "fusion_lon": 0.0}, {"lat": 38.92184183333333, "is_disabled": 0, "type": "electric_scooter", "lon": -77.02978916666666, "bike_id": "262bd757e237a0918c264854b7755178", "fusion_lat": 0.0, "name": "262bd757e237a0918c264854b7755178", "is_reserved": 0, "rental_uris": {"android": "https://dc.lft.to/lastmile_qr_scan", "ios": "https://dc.lft.to/lastmile_qr_scan"}, "fusion_lon": 0.0}, {"lat": 38.92325183333333, "is_disabled": 0, "type": "electric_scooter", "lon": -77.03891283333333, "bike_id": "89c560051a0da00d01d558295812aae8", "fusion_lat": 0.0, "name": "89c560051a0da00d01d558295812aae8", "is_reserved": 0, "rental_uris": {"android": "https://dc.lft.to/lastmile_qr_scan", "ios": "https://dc.lft.to/lastmile_qr_scan"}, "fusion_lon": 0.0}, {"lat": 38.90878166666667, "is_disabled": 0, "type": "electric_scooter", "lon": -77.04354083333334, "bike_id": "4d2bf41cd83338ce57c88d60ca641f8a", "fusion_lat": 0.0, "name": "4d2bf41cd83338ce57c88d60ca641f8a", "is_reserved": 0, "rental_uris": {"android": "https://dc.lft.to/lastmile_qr_scan", "ios": "https://dc.lft.to/lastmile_qr_scan"}, "fusion_lon": 0.0}, {"lat": 38.924834833333335, "is_disabled": 0, "type": "electric_scooter", "lon": -77.05215516666667, "bike_id": "7fce7a09acb6b5be657868ee0180289f", "fusion_lat": 0.0, "name": "7fce7a09acb6b5be657868ee0180289f", "is_reserved": 0, "rental_uris": {"android": "https://dc.lft.to/lastmile_qr_scan", "ios": "https://dc.lft.to/lastmile_qr_scan"}, "fusion_lon": 0.0}, {"lat": 38.913470833333335, "is_disabled": 0, "type": "electric_scooter", "lon": -77.03189566666667, "bike_id": "fde5a532a2781674a34d9c66131a8108", "fusion_lat": 0.0, "name": "fde5a532a2781674a34d9c66131a8108", "is_reserved": 0, "rental_uris": {"android": "https://dc.lft.to/lastmile_qr_scan", "ios": "https://dc.lft.to/lastmile_qr_scan"}, "fusion_lon": 0.0}, {"lat": 38.91615133333333, "is_disabled": 0, "type": "electric_scooter", "lon": -77.03221433333333, "bike_id": "b6ff6e4473b279fde7714fa3d486a251", "fusion_lat": 0.0, "name": "b6ff6e4473b279fde7714fa3d486a251", "is_reserved": 0, "rental_uris": {"android": "https://dc.lft.to/lastmile_qr_scan", "ios": "https://dc.lft.to/lastmile_qr_scan"}, "fusion_lon": 0.0}, {"lat": 38.88718133333333, "is_disabled": 0, "type": "electric_scooter", "lon": -76.95479133333333, "bike_id": "2d2f6f87a121fba1fbb1937dc8831c6b", "fusion_lat": 0.0, "name": "2d2f6f87a121fba1fbb1937dc8831c6b", "is_reserved": 0, "rental_uris": {"android": "https://dc.lft.to/lastmile_qr_scan", "ios": "https://dc.lft.to/lastmile_qr_scan"}, "fusion_lon": 0.0}, {"lat": 38.907262, "is_disabled": 0, "type": "electric_scooter", "lon": -77.02540783333333, "bike_id": "2b20a28ca32a43b6562260f989d0dd14", "fusion_lat": 0.0, "name": "2b20a28ca32a43b6562260f989d0dd14", "is_reserved": 0, "rental_uris": {"android": "https://dc.lft.to/lastmile_qr_scan", "ios": "https://dc.lft.to/lastmile_qr_scan"}, "fusion_lon": 0.0}, {"lat": 38.9182415, "is_disabled": 0, "type": "electric_scooter", "lon": -77.03466366666666, "bike_id": "21af80306891b7aa6e00f7c03cd17f2d", "fusion_lat": 0.0, "name": "21af80306891b7aa6e00f7c03cd17f2d", "is_reserved": 0, "rental_uris": {"android": "https://dc.lft.to/lastmile_qr_scan", "ios": "https://dc.lft.to/lastmile_qr_scan"}, "fusion_lon": 0.0}, {"lat": 38.912612333333335, "is_disabled": 0, "type": "electric_scooter", "lon": -77.03864416666667, "bike_id": "fa1f382b895fbef190d0058124b1d91a", "fusion_lat": 0.0, "name": "fa1f382b895fbef190d0058124b1d91a", "is_reserved": 0, "rental_uris": {"android": "https://dc.lft.to/lastmile_qr_scan", "ios": "https://dc.lft.to/lastmile_qr_scan"}, "fusion_lon": 0.0}, {"lat": 38.89495466666666, "is_disabled": 0, "type": "electric_scooter", "lon": -77.02295983333333, "bike_id": "39bfec73b4dcdb8931f0418e51605df0", "fusion_lat": 0.0, "name": "39bfec73b4dcdb8931f0418e51605df0", "is_reserved": 0, "rental_uris": {"android": "https://dc.lft.to/lastmile_qr_scan", "ios": "https://dc.lft.to/lastmile_qr_scan"}, "fusion_lon": 0.0}, {"lat": 38.92579583333333, "is_disabled": 0, "type": "electric_scooter", "lon": -77.02759783333333, "bike_id": "8e9d63964b06cf043d233bd6614ba2ee", "fusion_lat": 0.0, "name": "8e9d63964b06cf043d233bd6614ba2ee", "is_reserved": 0, "rental_uris": {"android": "https://dc.lft.to/lastmile_qr_scan", "ios": "https://dc.lft.to/lastmile_qr_scan"}, "fusion_lon": 0.0}, {"lat": 38.93077516666666, "is_disabled": 0, "type": "electric_scooter", "lon": -77.016659, "bike_id": "f7984a18d47fbbdb47aec651e27cecf4", "fusion_lat": 0.0, "name": "f7984a18d47fbbdb47aec651e27cecf4", "is_reserved": 0, "rental_uris": {"android": "https://dc.lft.to/lastmile_qr_scan", "ios": "https://dc.lft.to/lastmile_qr_scan"}, "fusion_lon": 0.0}, {"lat": 38.89682916666667, "is_disabled": 0, "type": "electric_scooter", "lon": -76.93609833333333, "bike_id": "cb32057af3d43254dc12dd1318a143ed", "fusion_lat": 0.0, "name": "cb32057af3d43254dc12dd1318a143ed", "is_reserved": 0, "rental_uris": {"android": "https://dc.lft.to/lastmile_qr_scan", "ios": "https://dc.lft.to/lastmile_qr_scan"}, "fusion_lon": 0.0}, {"lat": 38.90705783333333, "is_disabled": 0, "type": "electric_bike", "lon": -77.000953, "bike_id": "dc0c43be08ad1973ba215e260ce266aa", "fusion_lat": 0.0, "name": "dc0c43be08ad1973ba215e260ce266aa", "is_reserved": 0, "rental_uris": {"android": "https://dc.lft.to/lastmile_qr_scan", "ios": "https://dc.lft.to/lastmile_qr_scan"}, "fusion_lon": 0.0}, {"lat": 38.92152216666667, "is_disabled": 0, "type": "electric_scooter", "lon": -77.03361616666666, "bike_id": "4f6aa696e6ca866494a1eb24ba9b7dbe", "fusion_lat": 0.0, "name": "4f6aa696e6ca866494a1eb24ba9b7dbe", "is_reserved": 0, "rental_uris": {"android": "https://dc.lft.to/lastmile_qr_scan", "ios": "https://dc.lft.to/lastmile_qr_scan"}, "fusion_lon": 0.0}, {"lat": 38.908615833333336, "is_disabled": 0, "type": "electric_bike", "lon": -76.9400985, "bike_id": "f06cec5e6a4b958712c75622359903c1", "fusion_lat": 0.0, "name": "f06cec5e6a4b958712c75622359903c1", "is_reserved": 0, "rental_uris": {"android": "https://dc.lft.to/lastmile_qr_scan", "ios": "https://dc.lft.to/lastmile_qr_scan"}, "fusion_lon": 0.0}, {"lat": 38.91666766666667, "is_disabled": 0, "type": "electric_bike", "lon": -77.04728683333333, "bike_id": "dc9e2ebf5cb08a8c359c4b81c6b65854", "fusion_lat": 0.0, "name": "dc9e2ebf5cb08a8c359c4b81c6b65854", "is_reserved": 0, "rental_uris": {"android": "https://dc.lft.to/lastmile_qr_scan", "ios": "https://dc.lft.to/lastmile_qr_scan"}, "fusion_lon": 0.0}, {"lat": 38.867118, "is_disabled": 0, "type": "electric_scooter", "lon": -76.98725366666666, "bike_id": "ed3143e9a79b9f26a00c30c817e22a08", "fusion_lat": 0.0, "name": "ed3143e9a79b9f26a00c30c817e22a08", "is_reserved": 0, "rental_uris": {"android": "https://dc.lft.to/lastmile_qr_scan", "ios": "https://dc.lft.to/lastmile_qr_scan"}, "fusion_lon": 0.0}, {"lat": 38.922041166666666, "is_disabled": 0, "type": "electric_scooter", "lon": -77.04003716666666, "bike_id": "9ca8cb894274c72df057d7ceda50086e", "fusion_lat": 0.0, "name": "9ca8cb894274c72df057d7ceda50086e", "is_reserved": 0, "rental_uris": {"android": "https://dc.lft.to/lastmile_qr_scan", "ios": "https://dc.lft.to/lastmile_qr_scan"}, "fusion_lon": 0.0}, {"lat": 38.8959955, "is_disabled": 0, "type": "electric_scooter", "lon": -77.01227183333333, "bike_id": "10721b25f5191ce04349e6c7fc266f13", "fusion_lat": 0.0, "name": "10721b25f5191ce04349e6c7fc266f13", "is_reserved": 0, "rental_uris": {"android": "https://dc.lft.to/lastmile_qr_scan", "ios": "https://dc.lft.to/lastmile_qr_scan"}, "fusion_lon": 0.0}, {"lat": 38.915198833333335, "is_disabled": 0, "type": "electric_scooter", "lon": -77.038358, "bike_id": "c4b1ab245d31b1c6d02f88f5898e2590", "fusion_lat": 0.0, "name": "c4b1ab245d31b1c6d02f88f5898e2590", "is_reserved": 0, "rental_uris": {"android": "https://dc.lft.to/lastmile_qr_scan", "ios": "https://dc.lft.to/lastmile_qr_scan"}, "fusion_lon": 0.0}, {"lat": 38.9004165, "is_disabled": 0, "type": "electric_scooter", "lon": -76.996678, "bike_id": "9b0682d5f009eff9a390380c3a1617a7", "fusion_lat": 0.0, "name": "9b0682d5f009eff9a390380c3a1617a7", "is_reserved": 0, "rental_uris": {"android": "https://dc.lft.to/lastmile_qr_scan", "ios": "https://dc.lft.to/lastmile_qr_scan"}, "fusion_lon": 0.0}, {"lat": 38.9240575, "is_disabled": 0, "type": "electric_scooter", "lon": -77.02538066666666, "bike_id": "d0a9b8eb22de9bb9d55a5bfbb3f8f1a6", "fusion_lat": 0.0, "name": "d0a9b8eb22de9bb9d55a5bfbb3f8f1a6", "is_reserved": 0, "rental_uris": {"android": "https://dc.lft.to/lastmile_qr_scan", "ios": "https://dc.lft.to/lastmile_qr_scan"}, "fusion_lon": 0.0}, {"lat": 38.908672, "is_disabled": 0, "type": "electric_scooter", "lon": -77.04665016666667, "bike_id": "d3dcd978e3a8aa21a22ffda24c28939a", "fusion_lat": 0.0, "name": "d3dcd978e3a8aa21a22ffda24c28939a", "is_reserved": 0, "rental_uris": {"android": "https://dc.lft.to/lastmile_qr_scan", "ios": "https://dc.lft.to/lastmile_qr_scan"}, "fusion_lon": 0.0}, {"lat": 38.935574, "is_disabled": 0, "type": "electric_scooter", "lon": -77.05877566666666, "bike_id": "a7fabb5aec9404a4b4ac63e3aedb3088", "fusion_lat": 0.0, "name": "a7fabb5aec9404a4b4ac63e3aedb3088", "is_reserved": 0, "rental_uris": {"android": "https://dc.lft.to/lastmile_qr_scan", "ios": "https://dc.lft.to/lastmile_qr_scan"}, "fusion_lon": 0.0}, {"lat": 38.9104965, "is_disabled": 0, "type": "electric_scooter", "lon": -77.01530116666666, "bike_id": "fe7b6892f8c0f864f5ce40a857fc17ac", "fusion_lat": 0.0, "name": "fe7b6892f8c0f864f5ce40a857fc17ac", "is_reserved": 0, "rental_uris": {"android": "https://dc.lft.to/lastmile_qr_scan", "ios": "https://dc.lft.to/lastmile_qr_scan"}, "fusion_lon": 0.0}, {"lat": 38.86507983333333, "is_disabled": 0, "type": "electric_scooter", "lon": -76.97448616666667, "bike_id": "23a86bf9297f5cbd88e06f1444a8d1b9", "fusion_lat": 0.0, "name": "23a86bf9297f5cbd88e06f1444a8d1b9", "is_reserved": 0, "rental_uris": {"android": "https://dc.lft.to/lastmile_qr_scan", "ios": "https://dc.lft.to/lastmile_qr_scan"}, "fusion_lon": 0.0}, {"lat": 38.8995005, "is_disabled": 0, "type": "electric_scooter", "lon": -77.051717, "bike_id": "ad1fc65c2a9364f3137f62b7110cd015", "fusion_lat": 0.0, "name": "ad1fc65c2a9364f3137f62b7110cd015", "is_reserved": 0, "rental_uris": {"android": "https://dc.lft.to/lastmile_qr_scan", "ios": "https://dc.lft.to/lastmile_qr_scan"}, "fusion_lon": 0.0}, {"lat": 38.92417016666667, "is_disabled": 0, "type": "electric_scooter", "lon": -77.04442516666667, "bike_id": "4b7866f0f70418306cd193729015a93f", "fusion_lat": 0.0, "name": "4b7866f0f70418306cd193729015a93f", "is_reserved": 0, "rental_uris": {"android": "https://dc.lft.to/lastmile_qr_scan", "ios": "https://dc.lft.to/lastmile_qr_scan"}, "fusion_lon": 0.0}, {"lat": 38.874737, "is_disabled": 0, "type": "electric_scooter", "lon": -77.0106955, "bike_id": "b5037b11e320416b87ad1a05b9da24f2", "fusion_lat": 0.0, "name": "b5037b11e320416b87ad1a05b9da24f2", "is_reserved": 0, "rental_uris": {"android": "https://dc.lft.to/lastmile_qr_scan", "ios": "https://dc.lft.to/lastmile_qr_scan"}, "fusion_lon": 0.0}, {"lat": 38.9024375, "is_disabled": 0, "type": "electric_scooter", "lon": -77.028391, "bike_id": "9bf561ca84ce65fdeafea8b4e4844f6c", "fusion_lat": 0.0, "name": "9bf561ca84ce65fdeafea8b4e4844f6c", "is_reserved": 0, "rental_uris": {"android": "https://dc.lft.to/lastmile_qr_scan", "ios": "https://dc.lft.to/lastmile_qr_scan"}, "fusion_lon": 0.0}, {"lat": 38.8996535, "is_disabled": 0, "type": "electric_scooter", "lon": -77.05084116666667, "bike_id": "35cf98c1c251fbceff84120d17e00add", "fusion_lat": 0.0, "name": "35cf98c1c251fbceff84120d17e00add", "is_reserved": 0, "rental_uris": {"android": "https://dc.lft.to/lastmile_qr_scan", "ios": "https://dc.lft.to/lastmile_qr_scan"}, "fusion_lon": 0.0}, {"lat": 38.897392333333336, "is_disabled": 0, "type": "electric_scooter", "lon": -77.04680016666667, "bike_id": "8a9a64f0e737360ed4155f06835f3cf4", "fusion_lat": 0.0, "name": "8a9a64f0e737360ed4155f06835f3cf4", "is_reserved": 0, "rental_uris": {"android": "https://dc.lft.to/lastmile_qr_scan", "ios": "https://dc.lft.to/lastmile_qr_scan"}, "fusion_lon": 0.0}, {"lat": 38.8922835, "is_disabled": 0, "type": "electric_scooter", "lon": -77.02655233333333, "bike_id": "5258f4f481f749bec4ca607a3260aba5", "fusion_lat": 0.0, "name": "5258f4f481f749bec4ca607a3260aba5", "is_reserved": 0, "rental_uris": {"android": "https://dc.lft.to/lastmile_qr_scan", "ios": "https://dc.lft.to/lastmile_qr_scan"}, "fusion_lon": 0.0}, {"lat": 38.912562333333334, "is_disabled": 0, "type": "electric_scooter", "lon": -77.038604, "bike_id": "6ddc00d2d6c4c014764aded4f47cc5db", "fusion_lat": 0.0, "name": "6ddc00d2d6c4c014764aded4f47cc5db", "is_reserved": 0, "rental_uris": {"android": "https://dc.lft.to/lastmile_qr_scan", "ios": "https://dc.lft.to/lastmile_qr_scan"}, "fusion_lon": 0.0}, {"lat": 38.876797833333335, "is_disabled": 0, "type": "electric_scooter", "lon": -77.01790533333333, "bike_id": "4d35ff5a10e88091c9f219024588c681", "fusion_lat": 0.0, "name": "4d35ff5a10e88091c9f219024588c681", "is_reserved": 0, "rental_uris": {"android": "https://dc.lft.to/lastmile_qr_scan", "ios": "https://dc.lft.to/lastmile_qr_scan"}, "fusion_lon": 0.0}, {"lat": 38.90693866666667, "is_disabled": 0, "type": "electric_scooter", "lon": -76.9995455, "bike_id": "3a59f99c2a59640ef346372902cfab8c", "fusion_lat": 0.0, "name": "3a59f99c2a59640ef346372902cfab8c", "is_reserved": 0, "rental_uris": {"android": "https://dc.lft.to/lastmile_qr_scan", "ios": "https://dc.lft.to/lastmile_qr_scan"}, "fusion_lon": 0.0}, {"lat": 38.91925483333333, "is_disabled": 0, "type": "electric_scooter", "lon": -77.0340335, "bike_id": "91816c4f9608c70884df853284157a58", "fusion_lat": 0.0, "name": "91816c4f9608c70884df853284157a58", "is_reserved": 0, "rental_uris": {"android": "https://dc.lft.to/lastmile_qr_scan", "ios": "https://dc.lft.to/lastmile_qr_scan"}, "fusion_lon": 0.0}, {"lat": 38.9262105, "is_disabled": 0, "type": "electric_scooter", "lon": -77.03782583333333, "bike_id": "befe88aa54454c07176f28e1f4901a80", "fusion_lat": 0.0, "name": "befe88aa54454c07176f28e1f4901a80", "is_reserved": 0, "rental_uris": {"android": "https://dc.lft.to/lastmile_qr_scan", "ios": "https://dc.lft.to/lastmile_qr_scan"}, "fusion_lon": 0.0}, {"lat": 38.9028245, "is_disabled": 0, "type": "electric_scooter", "lon": -77.053239, "bike_id": "4191f4e6b057890376324b6fdb210a44", "fusion_lat": 0.0, "name": "4191f4e6b057890376324b6fdb210a44", "is_reserved": 0, "rental_uris": {"android": "https://dc.lft.to/lastmile_qr_scan", "ios": "https://dc.lft.to/lastmile_qr_scan"}, "fusion_lon": 0.0}, {"lat": 38.94601733333333, "is_disabled": 0, "type": "electric_scooter", "lon": -77.02980216666667, "bike_id": "12ec9ea45f8e129015bdb498e6c002b0", "fusion_lat": 0.0, "name": "12ec9ea45f8e129015bdb498e6c002b0", "is_reserved": 0, "rental_uris": {"android": "https://dc.lft.to/lastmile_qr_scan", "ios": "https://dc.lft.to/lastmile_qr_scan"}, "fusion_lon": 0.0}, {"lat": 38.91748066666667, "is_disabled": 0, "type": "electric_scooter", "lon": -77.03656016666666, "bike_id": "528bf39f71ac6548fefdb915526683d2", "fusion_lat": 0.0, "name": "528bf39f71ac6548fefdb915526683d2", "is_reserved": 0, "rental_uris": {"android": "https://dc.lft.to/lastmile_qr_scan", "ios": "https://dc.lft.to/lastmile_qr_scan"}, "fusion_lon": 0.0}, {"lat": 38.89221516666667, "is_disabled": 0, "type": "electric_scooter", "lon": -77.04366783333333, "bike_id": "d4183e6566187341ffb3c66f05e04e12", "fusion_lat": 0.0, "name": "d4183e6566187341ffb3c66f05e04e12", "is_reserved": 0, "rental_uris": {"android": "https://dc.lft.to/lastmile_qr_scan", "ios": "https://dc.lft.to/lastmile_qr_scan"}, "fusion_lon": 0.0}, {"lat": 38.92948416666667, "is_disabled": 0, "type": "electric_scooter", "lon": -77.018964, "bike_id": "d67837dc9a37802d721f6ad21e6c2e24", "fusion_lat": 0.0, "name": "d67837dc9a37802d721f6ad21e6c2e24", "is_reserved": 0, "rental_uris": {"android": "https://dc.lft.to/lastmile_qr_scan", "ios": "https://dc.lft.to/lastmile_qr_scan"}, "fusion_lon": 0.0}, {"lat": 38.9072085, "is_disabled": 0, "type": "electric_scooter", "lon": -77.03435216666666, "bike_id": "68292e89372efc1e99e09ca7b957a9f0", "fusion_lat": 0.0, "name": "68292e89372efc1e99e09ca7b957a9f0", "is_reserved": 0, "rental_uris": {"android": "https://dc.lft.to/lastmile_qr_scan", "ios": "https://dc.lft.to/lastmile_qr_scan"}, "fusion_lon": 0.0}, {"lat": 38.9095405, "is_disabled": 0, "type": "electric_scooter", "lon": -77.04800816666666, "bike_id": "9b20939836f4bc04c4df5aad5beb6995", "fusion_lat": 0.0, "name": "9b20939836f4bc04c4df5aad5beb6995", "is_reserved": 0, "rental_uris": {"android": "https://dc.lft.to/lastmile_qr_scan", "ios": "https://dc.lft.to/lastmile_qr_scan"}, "fusion_lon": 0.0}, {"lat": 38.903882333333335, "is_disabled": 0, "type": "electric_scooter", "lon": -77.0539275, "bike_id": "7e39b7f44c7668b3fd813307666bdabb", "fusion_lat": 0.0, "name": "7e39b7f44c7668b3fd813307666bdabb", "is_reserved": 0, "rental_uris": {"android": "https://dc.lft.to/lastmile_qr_scan", "ios": "https://dc.lft.to/lastmile_qr_scan"}, "fusion_lon": 0.0}, {"lat": 38.900262, "is_disabled": 0, "type": "electric_scooter", "lon": -77.04502416666666, "bike_id": "9526c2cec0cefdac5a0925ffb402f92b", "fusion_lat": 0.0, "name": "9526c2cec0cefdac5a0925ffb402f92b", "is_reserved": 0, "rental_uris": {"android": "https://dc.lft.to/lastmile_qr_scan", "ios": "https://dc.lft.to/lastmile_qr_scan"}, "fusion_lon": 0.0}, {"lat": 38.90896033333333, "is_disabled": 0, "type": "electric_scooter", "lon": -77.0364065, "bike_id": "e8b5f9c89fb6534b99c622c0f02b6c8d", "fusion_lat": 0.0, "name": "e8b5f9c89fb6534b99c622c0f02b6c8d", "is_reserved": 0, "rental_uris": {"android": "https://dc.lft.to/lastmile_qr_scan", "ios": "https://dc.lft.to/lastmile_qr_scan"}, "fusion_lon": 0.0}, {"lat": 38.915537666666665, "is_disabled": 0, "type": "electric_scooter", "lon": -77.03238716666667, "bike_id": "1a6a538e3f470afc67e3e5dbfb4349f0", "fusion_lat": 0.0, "name": "1a6a538e3f470afc67e3e5dbfb4349f0", "is_reserved": 0, "rental_uris": {"android": "https://dc.lft.to/lastmile_qr_scan", "ios": "https://dc.lft.to/lastmile_qr_scan"}, "fusion_lon": 0.0}, {"lat": 39.0520195, "is_disabled": 0, "type": "electric_bike", "lon": -77.10917266666667, "bike_id": "4d6c350adaf14bb1f0b2988873e0b024", "fusion_lat": 0.0, "name": "4d6c350adaf14bb1f0b2988873e0b024", "is_reserved": 0, "rental_uris": {"android": "https://dc.lft.to/lastmile_qr_scan", "ios": "https://dc.lft.to/lastmile_qr_scan"}, "fusion_lon": 0.0}, {"lat": 38.900680666666666, "is_disabled": 0, "type": "electric_scooter", "lon": -77.02584316666666, "bike_id": "6aa6cb19f6e54d2fc9379ff7e6ec4f0d", "fusion_lat": 0.0, "name": "6aa6cb19f6e54d2fc9379ff7e6ec4f0d", "is_reserved": 0, "rental_uris": {"android": "https://dc.lft.to/lastmile_qr_scan", "ios": "https://dc.lft.to/lastmile_qr_scan"}, "fusion_lon": 0.0}, {"lat": 38.917790833333335, "is_disabled": 0, "type": "electric_scooter", "lon": -77.02308683333334, "bike_id": "1043eaf5a696950b41d530a601f046d6", "fusion_lat": 0.0, "name": "1043eaf5a696950b41d530a601f046d6", "is_reserved": 0, "rental_uris": {"android": "https://dc.lft.to/lastmile_qr_scan", "ios": "https://dc.lft.to/lastmile_qr_scan"}, "fusion_lon": 0.0}, {"lat": 38.919677666666665, "is_disabled": 0, "type": "electric_scooter", "lon": -77.013515, "bike_id": "ed07ea005d653f2d1f5b47fb1af07914", "fusion_lat": 0.0, "name": "ed07ea005d653f2d1f5b47fb1af07914", "is_reserved": 0, "rental_uris": {"android": "https://dc.lft.to/lastmile_qr_scan", "ios": "https://dc.lft.to/lastmile_qr_scan"}, "fusion_lon": 0.0}, {"lat": 38.938647833333334, "is_disabled": 0, "type": "electric_scooter", "lon": -77.0259425, "bike_id": "feda5643c1f27d0207cb53b8081f2ae0", "fusion_lat": 0.0, "name": "feda5643c1f27d0207cb53b8081f2ae0", "is_reserved": 0, "rental_uris": {"android": "https://dc.lft.to/lastmile_qr_scan", "ios": "https://dc.lft.to/lastmile_qr_scan"}, "fusion_lon": 0.0}, {"lat": 38.9311715, "is_disabled": 0, "type": "electric_scooter", "lon": -77.03804183333334, "bike_id": "4f0df7fea9dc96dc68ddfaf2dac7dee6", "fusion_lat": 0.0, "name": "4f0df7fea9dc96dc68ddfaf2dac7dee6", "is_reserved": 0, "rental_uris": {"android": "https://dc.lft.to/lastmile_qr_scan", "ios": "https://dc.lft.to/lastmile_qr_scan"}, "fusion_lon": 0.0}, {"lat": 38.923754833333334, "is_disabled": 0, "type": "electric_scooter", "lon": -77.03125, "bike_id": "7a126da6386b55e7b46574ce20967f94", "fusion_lat": 0.0, "name": "7a126da6386b55e7b46574ce20967f94", "is_reserved": 0, "rental_uris": {"android": "https://dc.lft.to/lastmile_qr_scan", "ios": "https://dc.lft.to/lastmile_qr_scan"}, "fusion_lon": 0.0}, {"lat": 38.9036595, "is_disabled": 0, "type": "electric_scooter", "lon": -77.03844533333333, "bike_id": "d11362fa1dad8d20917295efd86925db", "fusion_lat": 0.0, "name": "d11362fa1dad8d20917295efd86925db", "is_reserved": 0, "rental_uris": {"android": "https://dc.lft.to/lastmile_qr_scan", "ios": "https://dc.lft.to/lastmile_qr_scan"}, "fusion_lon": 0.0}, {"lat": 38.90206116666667, "is_disabled": 0, "type": "electric_scooter", "lon": -77.02372666666666, "bike_id": "87a59acc0769226b2896477e1f70f344", "fusion_lat": 0.0, "name": "87a59acc0769226b2896477e1f70f344", "is_reserved": 0, "rental_uris": {"android": "https://dc.lft.to/lastmile_qr_scan", "ios": "https://dc.lft.to/lastmile_qr_scan"}, "fusion_lon": 0.0}, {"lat": 38.930322833333335, "is_disabled": 0, "type": "electric_bike", "lon": -77.0828405, "bike_id": "73a123e952a7fba738ecdfa694eb4ce4", "fusion_lat": 0.0, "name": "73a123e952a7fba738ecdfa694eb4ce4", "is_reserved": 0, "rental_uris": {"android": "https://dc.lft.to/lastmile_qr_scan", "ios": "https://dc.lft.to/lastmile_qr_scan"}, "fusion_lon": 0.0}, {"lat": 38.90721083333333, "is_disabled": 0, "type": "electric_scooter", "lon": -77.029804, "bike_id": "556fa3c31c3e2dd87723ef70b56b0da9", "fusion_lat": 0.0, "name": "556fa3c31c3e2dd87723ef70b56b0da9", "is_reserved": 0, "rental_uris": {"android": "https://dc.lft.to/lastmile_qr_scan", "ios": "https://dc.lft.to/lastmile_qr_scan"}, "fusion_lon": 0.0}, {"lat": 38.944493666666666, "is_disabled": 0, "type": "electric_scooter", "lon": -77.0234415, "bike_id": "37be54dafa1d7352d8111a78282ad42e", "fusion_lat": 0.0, "name": "37be54dafa1d7352d8111a78282ad42e", "is_reserved": 0, "rental_uris": {"android": "https://dc.lft.to/lastmile_qr_scan", "ios": "https://dc.lft.to/lastmile_qr_scan"}, "fusion_lon": 0.0}, {"lat": 38.92128683333333, "is_disabled": 0, "type": "electric_scooter", "lon": -77.04006983333333, "bike_id": "83865fb0a08468a5c31e2d10e497f2aa", "fusion_lat": 0.0, "name": "83865fb0a08468a5c31e2d10e497f2aa", "is_reserved": 0, "rental_uris": {"android": "https://dc.lft.to/lastmile_qr_scan", "ios": "https://dc.lft.to/lastmile_qr_scan"}, "fusion_lon": 0.0}, {"lat": 38.95737033333333, "is_disabled": 0, "type": "electric_bike", "lon": -77.02326216666667, "bike_id": "44f4781c8d810294d1ba27a7b5fbac94", "fusion_lat": 0.0, "name": "44f4781c8d810294d1ba27a7b5fbac94", "is_reserved": 0, "rental_uris": {"android": "https://dc.lft.to/lastmile_qr_scan", "ios": "https://dc.lft.to/lastmile_qr_scan"}, "fusion_lon": 0.0}, {"lat": 38.85732266666667, "is_disabled": 0, "type": "electric_scooter", "lon": -76.994368, "bike_id": "f7abe9df84810cefb4e8bbae37c248ff", "fusion_lat": 0.0, "name": "f7abe9df84810cefb4e8bbae37c248ff", "is_reserved": 0, "rental_uris": {"android": "https://dc.lft.to/lastmile_qr_scan", "ios": "https://dc.lft.to/lastmile_qr_scan"}, "fusion_lon": 0.0}, {"lat": 38.909483, "is_disabled": 0, "type": "electric_scooter", "lon": -77.04810233333333, "bike_id": "fe3181a8f82611edcdfb3cc50423b8a2", "fusion_lat": 0.0, "name": "fe3181a8f82611edcdfb3cc50423b8a2", "is_reserved": 0, "rental_uris": {"android": "https://dc.lft.to/lastmile_qr_scan", "ios": "https://dc.lft.to/lastmile_qr_scan"}, "fusion_lon": 0.0}, {"lat": 38.901376, "is_disabled": 0, "type": "electric_scooter", "lon": -77.04125933333333, "bike_id": "11d2e48b2ab24491f1b26e9523dc7f27", "fusion_lat": 0.0, "name": "11d2e48b2ab24491f1b26e9523dc7f27", "is_reserved": 0, "rental_uris": {"android": "https://dc.lft.to/lastmile_qr_scan", "ios": "https://dc.lft.to/lastmile_qr_scan"}, "fusion_lon": 0.0}, {"lat": 38.909461, "is_disabled": 0, "type": "electric_scooter", "lon": -77.0365865, "bike_id": "43f513c6c2ff069f104a628c22dc6d98", "fusion_lat": 0.0, "name": "43f513c6c2ff069f104a628c22dc6d98", "is_reserved": 0, "rental_uris": {"android": "https://dc.lft.to/lastmile_qr_scan", "ios": "https://dc.lft.to/lastmile_qr_scan"}, "fusion_lon": 0.0}, {"lat": 38.905601, "is_disabled": 0, "type": "electric_scooter", "lon": -76.98379133333333, "bike_id": "4b426e5b0ec6cd6f8e5181c0aa196384", "fusion_lat": 0.0, "name": "4b426e5b0ec6cd6f8e5181c0aa196384", "is_reserved": 0, "rental_uris": {"android": "https://dc.lft.to/lastmile_qr_scan", "ios": "https://dc.lft.to/lastmile_qr_scan"}, "fusion_lon": 0.0}, {"lat": 38.923582, "is_disabled": 0, "type": "electric_scooter", "lon": -77.04147616666667, "bike_id": "f49e19279c4d3e281b1d97a0260894df", "fusion_lat": 0.0, "name": "f49e19279c4d3e281b1d97a0260894df", "is_reserved": 0, "rental_uris": {"android": "https://dc.lft.to/lastmile_qr_scan", "ios": "https://dc.lft.to/lastmile_qr_scan"}, "fusion_lon": 0.0}, {"lat": 38.888865, "is_disabled": 0, "type": "electric_scooter", "lon": -76.93153983333333, "bike_id": "d64b1e49eb55da26afa50a0ece4bdc9b", "fusion_lat": 0.0, "name": "d64b1e49eb55da26afa50a0ece4bdc9b", "is_reserved": 0, "rental_uris": {"android": "https://dc.lft.to/lastmile_qr_scan", "ios": "https://dc.lft.to/lastmile_qr_scan"}, "fusion_lon": 0.0}, {"lat": 38.944311666666664, "is_disabled": 0, "type": "electric_scooter", "lon": -77.06304066666667, "bike_id": "b2d6baa119a6e6243afe8a613c00e0f3", "fusion_lat": 0.0, "name": "b2d6baa119a6e6243afe8a613c00e0f3", "is_reserved": 0, "rental_uris": {"android": "https://dc.lft.to/lastmile_qr_scan", "ios": "https://dc.lft.to/lastmile_qr_scan"}, "fusion_lon": 0.0}, {"lat": 38.9159205, "is_disabled": 0, "type": "electric_scooter", "lon": -77.0465185, "bike_id": "357e278ae6ef8b2d155d51a4d632a7d7", "fusion_lat": 0.0, "name": "357e278ae6ef8b2d155d51a4d632a7d7", "is_reserved": 0, "rental_uris": {"android": "https://dc.lft.to/lastmile_qr_scan", "ios": "https://dc.lft.to/lastmile_qr_scan"}, "fusion_lon": 0.0}, {"lat": 38.93580933333333, "is_disabled": 0, "type": "electric_bike", "lon": -77.106846, "bike_id": "c4a8d66cbf5621b74ea740fd0b46e87e", "fusion_lat": 0.0, "name": "c4a8d66cbf5621b74ea740fd0b46e87e", "is_reserved": 0, "rental_uris": {"android": "https://dc.lft.to/lastmile_qr_scan", "ios": "https://dc.lft.to/lastmile_qr_scan"}, "fusion_lon": 0.0}, {"lat": 38.871479666666666, "is_disabled": 0, "type": "electric_bike", "lon": -76.93667316666667, "bike_id": "72d7c1895a671d2a9a9871ca8aafb8ab", "fusion_lat": 0.0, "name": "72d7c1895a671d2a9a9871ca8aafb8ab", "is_reserved": 0, "rental_uris": {"android": "https://dc.lft.to/lastmile_qr_scan", "ios": "https://dc.lft.to/lastmile_qr_scan"}, "fusion_lon": 0.0}, {"lat": 38.906907, "is_disabled": 0, "type": "electric_scooter", "lon": -77.04369, "bike_id": "b688ce5e7232e90cb671ce670815786e", "fusion_lat": 0.0, "name": "b688ce5e7232e90cb671ce670815786e", "is_reserved": 0, "rental_uris": {"android": "https://dc.lft.to/lastmile_qr_scan", "ios": "https://dc.lft.to/lastmile_qr_scan"}, "fusion_lon": 0.0}, {"lat": 38.96623783333333, "is_disabled": 0, "type": "electric_bike", "lon": -76.976709, "bike_id": "671177d3b50fe11455a0868fcc7ac0c2", "fusion_lat": 0.0, "name": "671177d3b50fe11455a0868fcc7ac0c2", "is_reserved": 0, "rental_uris": {"android": "https://dc.lft.to/lastmile_qr_scan", "ios": "https://dc.lft.to/lastmile_qr_scan"}, "fusion_lon": 0.0}, {"lat": 38.902648166666665, "is_disabled": 0, "type": "electric_scooter", "lon": -77.02083083333333, "bike_id": "48763c3c0258fa5eb13d9c4b6de5a130", "fusion_lat": 0.0, "name": "48763c3c0258fa5eb13d9c4b6de5a130", "is_reserved": 0, "rental_uris": {"android": "https://dc.lft.to/lastmile_qr_scan", "ios": "https://dc.lft.to/lastmile_qr_scan"}, "fusion_lon": 0.0}, {"lat": 38.95075933333333, "is_disabled": 0, "type": "electric_bike", "lon": -77.01194183333334, "bike_id": "877721122ab53da5364aed992f83f634", "fusion_lat": 0.0, "name": "877721122ab53da5364aed992f83f634", "is_reserved": 0, "rental_uris": {"android": "https://dc.lft.to/lastmile_qr_scan", "ios": "https://dc.lft.to/lastmile_qr_scan"}, "fusion_lon": 0.0}, {"lat": 38.9413695, "is_disabled": 0, "type": "electric_scooter", "lon": -77.07615366666667, "bike_id": "f8f4bb1684fc2b4a5546d1567c368a0b", "fusion_lat": 0.0, "name": "f8f4bb1684fc2b4a5546d1567c368a0b", "is_reserved": 0, "rental_uris": {"android": "https://dc.lft.to/lastmile_qr_scan", "ios": "https://dc.lft.to/lastmile_qr_scan"}, "fusion_lon": 0.0}, {"lat": 38.92358633333333, "is_disabled": 0, "type": "electric_scooter", "lon": -77.05094833333334, "bike_id": "dad753d37c30b151563b9a4bd4b48fde", "fusion_lat": 0.0, "name": "dad753d37c30b151563b9a4bd4b48fde", "is_reserved": 0, "rental_uris": {"android": "https://dc.lft.to/lastmile_qr_scan", "ios": "https://dc.lft.to/lastmile_qr_scan"}, "fusion_lon": 0.0}, {"lat": 38.9317335, "is_disabled": 0, "type": "electric_scooter", "lon": -77.0281525, "bike_id": "9def6a3bddb3f94e7bb35f6cd4a3f2c2", "fusion_lat": 0.0, "name": "9def6a3bddb3f94e7bb35f6cd4a3f2c2", "is_reserved": 0, "rental_uris": {"android": "https://dc.lft.to/lastmile_qr_scan", "ios": "https://dc.lft.to/lastmile_qr_scan"}, "fusion_lon": 0.0}, {"lat": 38.90816566666667, "is_disabled": 0, "type": "electric_scooter", "lon": -76.997108, "bike_id": "58c7c327b2f59e52dd460e750c529774", "fusion_lat": 0.0, "name": "58c7c327b2f59e52dd460e750c529774", "is_reserved": 0, "rental_uris": {"android": "https://dc.lft.to/lastmile_qr_scan", "ios": "https://dc.lft.to/lastmile_qr_scan"}, "fusion_lon": 0.0}, {"lat": 38.9341465, "is_disabled": 0, "type": "electric_scooter", "lon": -77.02040316666667, "bike_id": "846dd8b2833327d868f82b36fffcd0ae", "fusion_lat": 0.0, "name": "846dd8b2833327d868f82b36fffcd0ae", "is_reserved": 0, "rental_uris": {"android": "https://dc.lft.to/lastmile_qr_scan", "ios": "https://dc.lft.to/lastmile_qr_scan"}, "fusion_lon": 0.0}, {"lat": 38.91990066666666, "is_disabled": 0, "type": "electric_scooter", "lon": -77.01209266666666, "bike_id": "bbd80a66aba9cacda32611e7bff46b29", "fusion_lat": 0.0, "name": "bbd80a66aba9cacda32611e7bff46b29", "is_reserved": 0, "rental_uris": {"android": "https://dc.lft.to/lastmile_qr_scan", "ios": "https://dc.lft.to/lastmile_qr_scan"}, "fusion_lon": 0.0}, {"lat": 38.92249116666667, "is_disabled": 0, "type": "electric_scooter", "lon": -77.01970166666666, "bike_id": "9bce5482533fe58f2543bb9300c3fb51", "fusion_lat": 0.0, "name": "9bce5482533fe58f2543bb9300c3fb51", "is_reserved": 0, "rental_uris": {"android": "https://dc.lft.to/lastmile_qr_scan", "ios": "https://dc.lft.to/lastmile_qr_scan"}, "fusion_lon": 0.0}, {"lat": 38.90523566666667, "is_disabled": 0, "type": "electric_scooter", "lon": -77.06455466666667, "bike_id": "ffb2a5d7d79d964c1841f133f88907b7", "fusion_lat": 0.0, "name": "ffb2a5d7d79d964c1841f133f88907b7", "is_reserved": 0, "rental_uris": {"android": "https://dc.lft.to/lastmile_qr_scan", "ios": "https://dc.lft.to/lastmile_qr_scan"}, "fusion_lon": 0.0}, {"lat": 38.906818333333334, "is_disabled": 0, "type": "electric_scooter", "lon": -77.06270066666667, "bike_id": "aa97ef7ea9f5b604a6d6493d40695afb", "fusion_lat": 0.0, "name": "aa97ef7ea9f5b604a6d6493d40695afb", "is_reserved": 0, "rental_uris": {"android": "https://dc.lft.to/lastmile_qr_scan", "ios": "https://dc.lft.to/lastmile_qr_scan"}, "fusion_lon": 0.0}, {"lat": 38.866488, "is_disabled": 0, "type": "electric_scooter", "lon": -76.98897266666667, "bike_id": "c8dbe4daf508ee3a3c288b3838029bee", "fusion_lat": 0.0, "name": "c8dbe4daf508ee3a3c288b3838029bee", "is_reserved": 0, "rental_uris": {"android": "https://dc.lft.to/lastmile_qr_scan", "ios": "https://dc.lft.to/lastmile_qr_scan"}, "fusion_lon": 0.0}, {"lat": 38.9229795, "is_disabled": 0, "type": "electric_scooter", "lon": -77.04147183333333, "bike_id": "e404738465f4f917598361341a23515a", "fusion_lat": 0.0, "name": "e404738465f4f917598361341a23515a", "is_reserved": 0, "rental_uris": {"android": "https://dc.lft.to/lastmile_qr_scan", "ios": "https://dc.lft.to/lastmile_qr_scan"}, "fusion_lon": 0.0}, {"lat": 38.921883, "is_disabled": 0, "type": "electric_scooter", "lon": -77.047204, "bike_id": "9f77198e7fc0cf3d6b487a7b53816e00", "fusion_lat": 0.0, "name": "9f77198e7fc0cf3d6b487a7b53816e00", "is_reserved": 0, "rental_uris": {"android": "https://dc.lft.to/lastmile_qr_scan", "ios": "https://dc.lft.to/lastmile_qr_scan"}, "fusion_lon": 0.0}, {"lat": 38.964961833333334, "is_disabled": 0, "type": "electric_scooter", "lon": -77.02788616666666, "bike_id": "86f9abe4218d75c8fc752e8f8061ef08", "fusion_lat": 0.0, "name": "86f9abe4218d75c8fc752e8f8061ef08", "is_reserved": 0, "rental_uris": {"android": "https://dc.lft.to/lastmile_qr_scan", "ios": "https://dc.lft.to/lastmile_qr_scan"}, "fusion_lon": 0.0}, {"lat": 38.93239966666667, "is_disabled": 0, "type": "electric_scooter", "lon": -77.03272716666666, "bike_id": "cecc9af1b3e9070f7f87ecd7ecab84a2", "fusion_lat": 0.0, "name": "cecc9af1b3e9070f7f87ecd7ecab84a2", "is_reserved": 0, "rental_uris": {"android": "https://dc.lft.to/lastmile_qr_scan", "ios": "https://dc.lft.to/lastmile_qr_scan"}, "fusion_lon": 0.0}, {"lat": 38.9202875, "is_disabled": 0, "type": "electric_scooter", "lon": -77.03861066666667, "bike_id": "f5013bbed0bd35e6b32d802909b88acc", "fusion_lat": 0.0, "name": "f5013bbed0bd35e6b32d802909b88acc", "is_reserved": 0, "rental_uris": {"android": "https://dc.lft.to/lastmile_qr_scan", "ios": "https://dc.lft.to/lastmile_qr_scan"}, "fusion_lon": 0.0}, {"lat": 38.86795266666667, "is_disabled": 0, "type": "electric_scooter", "lon": -76.9657485, "bike_id": "14bbbfd2c4a3add3ff4e8f56a4295797", "fusion_lat": 0.0, "name": "14bbbfd2c4a3add3ff4e8f56a4295797", "is_reserved": 0, "rental_uris": {"android": "https://dc.lft.to/lastmile_qr_scan", "ios": "https://dc.lft.to/lastmile_qr_scan"}, "fusion_lon": 0.0}, {"lat": 38.919216, "is_disabled": 0, "type": "electric_scooter", "lon": -77.03396566666666, "bike_id": "a4d6ee16e55be8b11a5a814276ba08a0", "fusion_lat": 0.0, "name": "a4d6ee16e55be8b11a5a814276ba08a0", "is_reserved": 0, "rental_uris": {"android": "https://dc.lft.to/lastmile_qr_scan", "ios": "https://dc.lft.to/lastmile_qr_scan"}, "fusion_lon": 0.0}, {"lat": 38.903745, "is_disabled": 0, "type": "electric_scooter", "lon": -77.00266416666666, "bike_id": "be365f0398892a9c146b420e8d56082c", "fusion_lat": 0.0, "name": "be365f0398892a9c146b420e8d56082c", "is_reserved": 0, "rental_uris": {"android": "https://dc.lft.to/lastmile_qr_scan", "ios": "https://dc.lft.to/lastmile_qr_scan"}, "fusion_lon": 0.0},