{"data": {"bikes": [{"bike_id": "bb3007ea328848b19e3fcb5d996dcde1", "type": "electric_scooter", "is_disabled": 0, "lat": 38.94114033333334, "rental_uris": {"ios": "https://dc.lft.to/lastmile_qr_scan", "android": "https://dc.lft.to/lastmile_qr_scan"}, "is_reserved": 0, "fusion_lon": 0.0, "fusion_lat": 0.0, "lon": -77.07731983333333, "name": "bb3007ea328848b19e3fcb5d996dcde1"}, {"bike_id": "cd4be71eff71721144795ec212e6ccd2", "type": "electric_scooter", "is_disabled": 0, "lat": 38.90415683333333, "rental_uris": {"ios": "https://dc.lft.to/lastmile_qr_scan", "android": "https://dc.lft.to/lastmile_qr_scan"}, "is_reserved": 0, "fusion_lon": 0.0, "fusion_lat": 0.0, "lon": -76.973346, "name": "cd4be71eff71721144795ec212e6ccd2"}, {"bike_id": "56f7653fe45262b937984069d9f3a774", "type": "electric_bike", "is_disabled": 0, "lat": 38.8729455, "rental_uris": {"ios": "https://dc.lft.to/lastmile_qr_scan", "android": "https://dc.lft.to/lastmile_qr_scan"}, "is_reserved": 0, "fusion_lon": 0.0, "fusion_lat": 0.0, "lon": -76.96981833333334, "name": "56f7653fe45262b937984069d9f3a774"}, {"bike_id": "de02c942e3745da34650c757681dddc0", "type": "electric_scooter", "is_disabled": 0, "lat": 38.91703116666667, "rental_uris": {"ios": "https://dc.lft.to/lastmile_qr_scan", "android": "https://dc.lft.to/lastmile_qr_scan"}, "is_reserved": 0, "fusion_lon": 0.0, "fusion_lat": 0.0, "lon": -77.04192616666667, "name": "de02c942e3745da34650c757681dddc0"}, {"bike_id": "bdffa4b58f292b2b222650d96b4052e4", "type": "electric_scooter", "is_disabled": 0, "lat": 38.949857333333334, "rental_uris": {"ios": "https://dc.lft.to/lastmile_qr_scan", "android": "https://dc.lft.to/lastmile_qr_scan"}, "is_reserved": 0, "fusion_lon": 0.0, "fusion_lat": 0.0, "lon": -77.0270725, "name": "bdffa4b58f292b2b222650d96b4052e4"}, {"bike_id": "ebe2bf5257415ffa96c529c7859857a8", "type": "electric_scooter", "is_disabled": 0, "lat": 38.91118483333333, "rental_uris": {"ios": "https://dc.lft.to/lastmile_qr_scan", "android": "https://dc.lft.to/lastmile_qr_scan"}, "is_reserved": 0, "fusion_lon": 0.0, "fusion_lat": 0.0, "lon": -77.044773, "name": "ebe2bf5257415ffa96c529c7859857a8"}, {"bike_id": "9bed88006665416877bb1bcb0f8e99e7", "type": "electric_scooter", "is_disabled": 0, "lat": 38.91548933333333, "rental_uris": {"ios": "https://dc.lft.to/lastmile_qr_scan", "android": "https://dc.lft.to/lastmile_qr_scan"}, "is_reserved": 0, "fusion_lon": 0.0, "fusion_lat": 0.0, "lon": -77.038477, "name": "9bed88006665416877bb1bcb0f8e99e7"}, {"bike_id": "581455e57f11147ac3509c297364b67a", "type": "electric_scooter", "is_disabled": 0, "lat": 38.919869166666665, "rental_uris": {"ios": "https://dc.lft.to/lastmile_qr_scan", "android": "https://dc.lft.to/lastmile_qr_scan"}, "is_reserved": 0, "fusion_lon": 0.0, "fusion_lat": 0.0, "lon": -76.9730505, "name": "581455e57f11147ac3509c297364b67a"}, {"bike_id": "e72392c676b4c62cda0e3429754177c4", "type": "electric_scooter", "is_disabled": 0, "lat": 38.90733316666667, "rental_uris": {"ios": "https://dc.lft.to/lastmile_qr_scan", "android": "https://dc.lft.to/lastmile_qr_scan"}, "is_reserved": 0, "fusion_lon": 0.0, "fusion_lat": 0.0, "lon": -77.03868633333333, "name": "e72392c676b4c62cda0e3429754177c4"}, {"bike_id": "2d47649c1d9b3f4d7a0c91ee7c6c6710", "type": "electric_scooter", "is_disabled": 0, "lat": 38.92336916666667, "rental_uris": {"ios": "https://dc.lft.to/lastmile_qr_scan", "android": "https://dc.lft.to/lastmile_qr_scan"}, "is_reserved": 0, "fusion_lon": 0.0, "fusion_lat": 0.0, "lon": -77.03535933333333, "name": "2d47649c1d9b3f4d7a0c91ee7c6c6710"}, {"bike_id": "a1b88bc81671334f495f9739bbcb9404", "type": "electric_scooter", "is_disabled": 0, "lat": 38.8876725, "rental_uris": {"ios": "https://dc.lft.to/lastmile_qr_scan", "android": "https://dc.lft.to/lastmile_qr_scan"}, "is_reserved": 0, "fusion_lon": 0.0, "fusion_lat": 0.0, "lon": -76.956013, "name": "a1b88bc81671334f495f9739bbcb9404"}, {"bike_id": "ecfef8395fc09dcf60c6a539d0c4cfa9", "type": "electric_scooter", "is_disabled": 0, "lat": 38.905395666666664, "rental_uris": {"ios": "https://dc.lft.to/lastmile_qr_scan", "android": "https://dc.lft.to/lastmile_qr_scan"}, "is_reserved": 0, "fusion_lon": 0.0, "fusion_lat": 0.0, "lon": -77.05699766666666, "name": "ecfef8395fc09dcf60c6a539d0c4cfa9"}, {"bike_id": "4fb36939800fa6d6b4164eec7f1ce7a7", "type": "electric_scooter", "is_disabled": 0, "lat": 38.92393233333333, "rental_uris": {"ios": "https://dc.lft.to/lastmile_qr_scan", "android": "https://dc.lft.to/lastmile_qr_scan"}, "is_reserved": 0, "fusion_lon": 0.0, "fusion_lat": 0.0, "lon": -77.0408635, "name": "4fb36939800fa6d6b4164eec7f1ce7a7"}, {"bike_id": "1a5fef01c313f851f774fb6123046d9b", "type": "electric_scooter", "is_disabled": 0, "lat": 38.950219, "rental_uris": {"ios": "https://dc.lft.to/lastmile_qr_scan", "android": "https://dc.lft.to/lastmile_qr_scan"}, "is_reserved": 0, "fusion_lon": 0.0, "fusion_lat": 0.0, "lon": -77.00876483333333, "name": "1a5fef01c313f851f774fb6123046d9b"}, {"bike_id": "a6811dbb233de45dc1c99eba25f4ab37", "type": "electric_bike", "is_disabled": 0, "lat": 38.84529116666667, "rental_uris": {"ios": "https://dc.lft.to/lastmile_qr_scan", "android": "https://dc.lft.to/lastmile_qr_scan"}, "is_reserved": 0, "fusion_lon": 0.0, "fusion_lat": 0.0, "lon": -76.97398866666667, "name": "a6811dbb233de45dc1c99eba25f4ab37"}, {"bike_id": "93801a0c03e7fd4e17c1174974c7dba7", "type": "electric_scooter", "is_disabled": 0, "lat": 38.923194333333335, "rental_uris": {"ios": "https://dc.lft.to/lastmile_qr_scan", "android": "https://dc.lft.to/lastmile_qr_scan"}, "is_reserved": 0, "fusion_lon": 0.0, "fusion_lat": 0.0, "lon": -77.021364, "name": "93801a0c03e7fd4e17c1174974c7dba7"}, {"bike_id": "de68eebc19d34239eb29bdfacd08f676", "type": "electric_scooter", "is_disabled": 0, "lat": 38.93209083333333, "rental_uris": {"ios": "https://dc.lft.to/lastmile_qr_scan", "android": "https://dc.lft.to/lastmile_qr_scan"}, "is_reserved": 0, "fusion_lon": 0.0, "fusion_lat": 0.0, "lon": -77.0351145, "name": "de68eebc19d34239eb29bdfacd08f676"}, {"bike_id": "f2e497908fd363c5c25fd884e06a1e70", "type": "electric_scooter", "is_disabled": 0, "lat": 38.928765, "rental_uris": {"ios": "https://dc.lft.to/lastmile_qr_scan", "android": "https://dc.lft.to/lastmile_qr_scan"}, "is_reserved": 0, "fusion_lon": 0.0, "fusion_lat": 0.0, "lon": -77.032603, "name": "f2e497908fd363c5c25fd884e06a1e70"}, {"bike_id": "63075ab431d8a3f0c9a0ac8847b5d53f", "type": "electric_scooter", "is_disabled": 0, "lat": 38.89855683333333, "rental_uris": {"ios": "https://dc.lft.to/lastmile_qr_scan", "android": "https://dc.lft.to/lastmile_qr_scan"}, "is_reserved": 0, "fusion_lon": 0.0, "fusion_lat": 0.0, "lon": -77.04076833333333, "name": "63075ab431d8a3f0c9a0ac8847b5d53f"}, {"bike_id": "9af9d5b02018259964afd00e81594657", "type": "electric_scooter", "is_disabled": 0, "lat": 38.923642666666666, "rental_uris": {"ios": "https://dc.lft.to/lastmile_qr_scan", "android": "https://dc.lft.to/lastmile_qr_scan"}, "is_reserved": 0, "fusion_lon": 0.0, "fusion_lat": 0.0, "lon": -77.05128433333333, "name": "9af9d5b02018259964afd00e81594657"}, {"bike_id": "8a349fd8cbfde89c73752011ade67575", "type": "electric_scooter", "is_disabled": 0, "lat": 38.874637666666665, "rental_uris": {"ios": "https://dc.lft.to/lastmile_qr_scan", "android": "https://dc.lft.to/lastmile_qr_scan"}, "is_reserved": 0, "fusion_lon": 0.0, "fusion_lat": 0.0, "lon": -77.01900083333334, "name": "8a349fd8cbfde89c73752011ade67575"}, {"bike_id": "7b971c91cec9b6ab8eef58487025f80b", "type": "electric_scooter", "is_disabled": 0, "lat": 38.93380533333333, "rental_uris": {"ios": "https://dc.lft.to/lastmile_qr_scan", "android": "https://dc.lft.to/lastmile_qr_scan"}, "is_reserved": 0, "fusion_lon": 0.0, "fusion_lat": 0.0, "lon": -77.02381316666667, "name": "7b971c91cec9b6ab8eef58487025f80b"}, {"bike_id": "598c3369d02d9efb21ddec2bda708b42", "type": "electric_scooter", "is_disabled": 0, "lat": 38.91832, "rental_uris": {"ios": "https://dc.lft.to/lastmile_qr_scan", "android": "https://dc.lft.to/lastmile_qr_scan"}, "is_reserved": 0, "fusion_lon": 0.0, "fusion_lat": 0.0, "lon": -77.03171633333334, "name": "598c3369d02d9efb21ddec2bda708b42"}, {"bike_id": "646dd6e5b796302bca4f5b3b19f9b0c2", "type": "electric_scooter", "is_disabled": 0, "lat": 38.90185983333333, "rental_uris": {"ios": "https://dc.lft.to/lastmile_qr_scan", "android": "https://dc.lft.to/lastmile_qr_scan"}, "is_reserved": 0, "fusion_lon": 0.0, "fusion_lat": 0.0, "lon": -77.03954166666666, "name": "646dd6e5b796302bca4f5b3b19f9b0c2"}, {"bike_id": "53cc7d65d684503a4922384708f9e9f7", "type": "electric_scooter", "is_disabled": 0, "lat": 38.895441, "rental_uris": {"ios": "https://dc.lft.to/lastmile_qr_scan", "android": "https://dc.lft.to/lastmile_qr_scan"}, "is_reserved": 0, "fusion_lon": 0.0, "fusion_lat": 0.0, "lon": -77.02161433333333, "name": "53cc7d65d684503a4922384708f9e9f7"}, {"bike_id": "dd7e05d4b3c24fa6a2ba723348ab3ed1", "type": "electric_scooter", "is_disabled": 0, "lat": 38.919447166666664, "rental_uris": {"ios": "https://dc.lft.to/lastmile_qr_scan", "android": "https://dc.lft.to/lastmile_qr_scan"}, "is_reserved": 0, "fusion_lon": 0.0, "fusion_lat": 0.0, "lon": -77.048759, "name": "dd7e05d4b3c24fa6a2ba723348ab3ed1"}, {"bike_id": "47ecbf6173ba29d072761c488678f5e2", "type": "electric_scooter", "is_disabled": 0, "lat": 38.928621666666665, "rental_uris": {"ios": "https://dc.lft.to/lastmile_qr_scan", "android": "https://dc.lft.to/lastmile_qr_scan"}, "is_reserved": 0, "fusion_lon": 0.0, "fusion_lat": 0.0, "lon": -77.021739, "name": "47ecbf6173ba29d072761c488678f5e2"}, {"bike_id": "5d5d99085f2c0ea993e6581f781cd66e", "type": "electric_bike", "is_disabled": 0, "lat": 38.85438466666667, "rental_uris": {"ios": "https://dc.lft.to/lastmile_qr_scan", "android": "https://dc.lft.to/lastmile_qr_scan"}, "is_reserved": 0, "fusion_lon": 0.0, "fusion_lat": 0.0, "lon": -77.08307516666666, "name": "5d5d99085f2c0ea993e6581f781cd66e"}, {"bike_id": "5c97f312143043976a404299d10fe379", "type": "electric_scooter", "is_disabled": 0, "lat": 38.905014333333334, "rental_uris": {"ios": "https://dc.lft.to/lastmile_qr_scan", "android": "https://dc.lft.to/lastmile_qr_scan"}, "is_reserved": 0, "fusion_lon": 0.0, "fusion_lat": 0.0, "lon": -77.06012166666666, "name": "5c97f312143043976a404299d10fe379"}, {"bike_id": "8475f2a64f3a7ef5651febf7388f892b", "type": "electric_scooter", "is_disabled": 0, "lat": 38.921173833333334, "rental_uris": {"ios": "https://dc.lft.to/lastmile_qr_scan", "android": "https://dc.lft.to/lastmile_qr_scan"}, "is_reserved": 0, "fusion_lon": 0.0, "fusion_lat": 0.0, "lon": -77.01206983333333, "name": "8475f2a64f3a7ef5651febf7388f892b"}, {"bike_id": "ff8c1e21c991fc162e0a29c50f61e5a2", "type": "electric_scooter", "is_disabled": 0, "lat": 38.917182333333336, "rental_uris": {"ios": "https://dc.lft.to/lastmile_qr_scan", "android": "https://dc.lft.to/lastmile_qr_scan"}, "is_reserved": 0, "fusion_lon": 0.0, "fusion_lat": 0.0, "lon": -77.0317765, "name": "ff8c1e21c991fc162e0a29c50f61e5a2"}, {"bike_id": "0ac95f196cb6595e68838ed7342fa2b4", "type": "electric_scooter", "is_disabled": 0, "lat": 38.9522095, "rental_uris": {"ios": "https://dc.lft.to/lastmile_qr_scan", "android": "https://dc.lft.to/lastmile_qr_scan"}, "is_reserved": 0, "fusion_lon": 0.0, "fusion_lat": 0.0, "lon": -77.07067616666667, "name": "0ac95f196cb6595e68838ed7342fa2b4"}, {"bike_id": "b9490b4c6f6befa2c5cc80f1e84ecdab", "type": "electric_scooter", "is_disabled": 0, "lat": 38.89006783333333, "rental_uris": {"ios": "https://dc.lft.to/lastmile_qr_scan", "android": "https://dc.lft.to/lastmile_qr_scan"}, "is_reserved": 0, "fusion_lon": 0.0, "fusion_lat": 0.0, "lon": -76.937473, "name": "b9490b4c6f6befa2c5cc80f1e84ecdab"}, {"bike_id": "0b8a95d619fd2b88437c546f27844091", "type": "electric_scooter", "is_disabled": 0, "lat": 38.8770335, "rental_uris": {"ios": "https://dc.lft.to/lastmile_qr_scan", "android": "https://dc.lft.to/lastmile_qr_scan"}, "is_reserved": 0, "fusion_lon": 0.0, "fusion_lat": 0.0, "lon": -77.01757766666667, "name": "0b8a95d619fd2b88437c546f27844091"}, {"bike_id": "61ec6e665ce812cf30e338edf09ae610", "type": "electric_scooter", "is_disabled": 0, "lat": 38.898974333333335, "rental_uris": {"ios": "https://dc.lft.to/lastmile_qr_scan", "android": "https://dc.lft.to/lastmile_qr_scan"}, "is_reserved": 0, "fusion_lon": 0.0, "fusion_lat": 0.0, "lon": -77.01503666666666, "name": "61ec6e665ce812cf30e338edf09ae610"}, {"bike_id": "31cc08ed770227edbebd3f1631f9c884", "type": "electric_scooter", "is_disabled": 0, "lat": 38.893226166666665, "rental_uris": {"ios": "https://dc.lft.to/lastmile_qr_scan", "android": "https://dc.lft.to/lastmile_qr_scan"}, "is_reserved": 0, "fusion_lon": 0.0, "fusion_lat": 0.0, "lon": -77.04875533333333, "name": "31cc08ed770227edbebd3f1631f9c884"}, {"bike_id": "b618fdca6b68f5e14b9c86f7f133914a", "type": "electric_scooter", "is_disabled": 0, "lat": 38.95151333333333, "rental_uris": {"ios": "https://dc.lft.to/lastmile_qr_scan", "android": "https://dc.lft.to/lastmile_qr_scan"}, "is_reserved": 0, "fusion_lon": 0.0, "fusion_lat": 0.0, "lon": -77.018673, "name": "b618fdca6b68f5e14b9c86f7f133914a"}, {"bike_id": "833729c32e6d20eb6d6fdefbb9f66ca1", "type": "electric_scooter", "is_disabled": 0, "lat": 38.886100666666664, "rental_uris": {"ios": "https://dc.lft.to/lastmile_qr_scan", "android": "https://dc.lft.to/lastmile_qr_scan"}, "is_reserved": 0, "fusion_lon": 0.0, "fusion_lat": 0.0, "lon": -77.012531, "name": "833729c32e6d20eb6d6fdefbb9f66ca1"}, {"bike_id": "ff5683e8b4e05b05e0e9f5a7f086cc83", "type": "electric_scooter", "is_disabled": 0, "lat": 38.895353, "rental_uris": {"ios": "https://dc.lft.to/lastmile_qr_scan", "android": "https://dc.lft.to/lastmile_qr_scan"}, "is_reserved": 0, "fusion_lon": 0.0, "fusion_lat": 0.0, "lon": -76.94892383333334, "name": "ff5683e8b4e05b05e0e9f5a7f086cc83"}, {"bike_id": "a0af5e6a341066d77db84a06796f8793", "type": "electric_scooter", "is_disabled": 0, "lat": 38.893006666666665, "rental_uris": {"ios": "https://dc.lft.to/lastmile_qr_scan", "android": "https://dc.lft.to/lastmile_qr_scan"}, "is_reserved": 0, "fusion_lon": 0.0, "fusion_lat": 0.0, "lon": -77.01230916666667, "name": "a0af5e6a341066d77db84a06796f8793"}, {"bike_id": "6b21999a6212c8d5730f34f8189c88a4", "type": "electric_bike", "is_disabled": 0, "lat": 38.9235905, "rental_uris": {"ios": "https://dc.lft.to/lastmile_qr_scan", "android": "https://dc.lft.to/lastmile_qr_scan"}, "is_reserved": 0, "fusion_lon": 0.0, "fusion_lat": 0.0, "lon": -76.97138216666667, "name": "6b21999a6212c8d5730f34f8189c88a4"}, {"bike_id": "29d362f1919599a5a196d1e163312d62", "type": "electric_scooter", "is_disabled": 0, "lat": 38.85020183333334, "rental_uris": {"ios": "https://dc.lft.to/lastmile_qr_scan", "android": "https://dc.lft.to/lastmile_qr_scan"}, "is_reserved": 0, "fusion_lon": 0.0, "fusion_lat": 0.0, "lon": -76.9753385, "name": "29d362f1919599a5a196d1e163312d62"}, {"bike_id": "a152e6500d7b97515141876b55882e41", "type": "electric_scooter", "is_disabled": 0, "lat": 38.936712666666665, "rental_uris": {"ios": "https://dc.lft.to/lastmile_qr_scan", "android": "https://dc.lft.to/lastmile_qr_scan"}, "is_reserved": 0, "fusion_lon": 0.0, "fusion_lat": 0.0, "lon": -77.03564766666666, "name": "a152e6500d7b97515141876b55882e41"}, {"bike_id": "a6e1127636ef57767d1e82ad028b1797", "type": "electric_bike", "is_disabled": 0, "lat": 38.925753, "rental_uris": {"ios": "https://dc.lft.to/lastmile_qr_scan", "android": "https://dc.lft.to/lastmile_qr_scan"}, "is_reserved": 0, "fusion_lon": 0.0, "fusion_lat": 0.0, "lon": -77.0792635, "name": "a6e1127636ef57767d1e82ad028b1797"}, {"bike_id": "0bc16f56102d8ce49c8d207b0d80374e", "type": "electric_scooter", "is_disabled": 0, "lat": 38.9052545, "rental_uris": {"ios": "https://dc.lft.to/lastmile_qr_scan", "android": "https://dc.lft.to/lastmile_qr_scan"}, "is_reserved": 0, "fusion_lon": 0.0, "fusion_lat": 0.0, "lon": -77.06299033333333, "name": "0bc16f56102d8ce49c8d207b0d80374e"}, {"bike_id": "6e5802d6990c4fbd0675d252d31bf6f8", "type": "electric_scooter", "is_disabled": 0, "lat": 38.8624825, "rental_uris": {"ios": "https://dc.lft.to/lastmile_qr_scan", "android": "https://dc.lft.to/lastmile_qr_scan"}, "is_reserved": 0, "fusion_lon": 0.0, "fusion_lat": 0.0, "lon": -76.99502566666666, "name": "6e5802d6990c4fbd0675d252d31bf6f8"}, {"bike_id": "693df3ecc4d6bfa8a8b58030bbaccae8", "type": "electric_scooter", "is_disabled": 0, "lat": 38.96199166666667, "rental_uris": {"ios": "https://dc.lft.to/lastmile_qr_scan", "android": "https://dc.lft.to/lastmile_qr_scan"}, "is_reserved": 0, "fusion_lon": 0.0, "fusion_lat": 0.0, "lon": -77.022385, "name": "693df3ecc4d6bfa8a8b58030bbaccae8"}, {"bike_id": "5b7e1e8b698249682d4ce594ea301745", "type": "electric_bike", "is_disabled": 0, "lat": 38.931202166666665, "rental_uris": {"ios": "https://dc.lft.to/lastmile_qr_scan", "android": "https://dc.lft.to/lastmile_qr_scan"}, "is_reserved": 0, "fusion_lon": 0.0, "fusion_lat": 0.0, "lon": -76.99093966666666, "name": "5b7e1e8b698249682d4ce594ea301745"}, {"bike_id": "4cb1afe9a3a6026589345f399a6bdc20", "type": "electric_scooter", "is_disabled": 0, "lat": 38.904232, "rental_uris": {"ios": "https://dc.lft.to/lastmile_qr_scan", "android": "https://dc.lft.to/lastmile_qr_scan"}, "is_reserved": 0, "fusion_lon": 0.0, "fusion_lat": 0.0, "lon": -77.05459216666667, "name": "4cb1afe9a3a6026589345f399a6bdc20"}, {"bike_id": "4d88dc99ed6955cac6939708cb92216b", "type": "electric_scooter", "is_disabled": 0, "lat": 38.92748266666667, "rental_uris": {"ios": "https://dc.lft.to/lastmile_qr_scan", "android": "https://dc.lft.to/lastmile_qr_scan"}, "is_reserved": 0, "fusion_lon": 0.0, "fusion_lat": 0.0, "lon": -77.02534816666666, "name": "4d88dc99ed6955cac6939708cb92216b"}, {"bike_id": "4bb3f291c1f763d71506dc2ef9edcbae", "type": "electric_bike", "is_disabled": 0, "lat": 38.98368383333333, "rental_uris": {"ios": "https://dc.lft.to/lastmile_qr_scan", "android": "https://dc.lft.to/lastmile_qr_scan"}, "is_reserved": 0, "fusion_lon": 0.0, "fusion_lat": 0.0, "lon": -76.9720905, "name": "4bb3f291c1f763d71506dc2ef9edcbae"}, {"bike_id": "556c4eb9ac714ac930955577b6fcda54", "type": "electric_bike", "is_disabled": 0, "lat": 38.943679833333334, "rental_uris": {"ios": "https://dc.lft.to/lastmile_qr_scan", "android": "https://dc.lft.to/lastmile_qr_scan"}, "is_reserved": 0, "fusion_lon": 0.0, "fusion_lat": 0.0, "lon": -76.9677925, "name": "556c4eb9ac714ac930955577b6fcda54"}, {"bike_id": "de27e5ecd296d18340e9f61831f37cca", "type": "electric_scooter", "is_disabled": 0, "lat": 38.870928666666664, "rental_uris": {"ios": "https://dc.lft.to/lastmile_qr_scan", "android": "https://dc.lft.to/lastmile_qr_scan"}, "is_reserved": 0, "fusion_lon": 0.0, "fusion_lat": 0.0, "lon": -76.96585066666667, "name": "de27e5ecd296d18340e9f61831f37cca"}, {"bike_id": "506e97ff20ed88e3a11a0174c91b476c", "type": "electric_scooter", "is_disabled": 0, "lat": 38.917026, "rental_uris": {"ios": "https://dc.lft.to/lastmile_qr_scan", "android": "https://dc.lft.to/lastmile_qr_scan"}, "is_reserved": 0, "fusion_lon": 0.0, "fusion_lat": 0.0, "lon": -77.00656983333333, "name": "506e97ff20ed88e3a11a0174c91b476c"}, {"bike_id": "9e7f4811e6bffa287028362fa072ceb2", "type": "electric_scooter", "is_disabled": 0, "lat": 38.90012766666667, "rental_uris": {"ios": "https://dc.lft.to/lastmile_qr_scan", "android": "https://dc.lft.to/lastmile_qr_scan"}, "is_reserved": 0, "fusion_lon": 0.0, "fusion_lat": 0.0, "lon": -77.04173066666667, "name": "9e7f4811e6bffa287028362fa072ceb2"}, {"bike_id": "a2286841dda610d4637f8b19e8d34469", "type": "electric_scooter", "is_disabled": 0, "lat": 38.8669655, "rental_uris": {"ios": "https://dc.lft.to/lastmile_qr_scan", "android": "https://dc.lft.to/lastmile_qr_scan"}, "is_reserved": 0, "fusion_lon": 0.0, "fusion_lat": 0.0, "lon": -76.9871395, "name": "a2286841dda610d4637f8b19e8d34469"}, {"bike_id": "6c94ced22f1f453ab247c8464521ccba", "type": "electric_scooter", "is_disabled": 0, "lat": 38.904015666666666, "rental_uris": {"ios": "https://dc.lft.to/lastmile_qr_scan", "android": "https://dc.lft.to/lastmile_qr_scan"}, "is_reserved": 0, "fusion_lon": 0.0, "fusion_lat": 0.0, "lon": -77.06358966666667, "name": "6c94ced22f1f453ab247c8464521ccba"}, {"bike_id": "5764773a89365e7e86f2b982c7051c11", "type": "electric_scooter", "is_disabled": 0, "lat": 38.87830733333333, "rental_uris": {"ios": "https://dc.lft.to/lastmile_qr_scan", "android": "https://dc.lft.to/lastmile_qr_scan"}, "is_reserved": 0, "fusion_lon": 0.0, "fusion_lat": 0.0, "lon": -76.96310733333334, "name": "5764773a89365e7e86f2b982c7051c11"}, {"bike_id": "a216b5da983b5472f52c24eb23c930c2", "type": "electric_scooter", "is_disabled": 0, "lat": 38.91230483333333, "rental_uris": {"ios": "https://dc.lft.to/lastmile_qr_scan", "android": "https://dc.lft.to/lastmile_qr_scan"}, "is_reserved": 0, "fusion_lon": 0.0, "fusion_lat": 0.0, "lon": -77.01210466666667, "name": "a216b5da983b5472f52c24eb23c930c2"}, {"bike_id": "496f1a47caf723bcea158501057f2a5f", "type": "electric_bike", "is_disabled": 0, "lat": 39.0527835, "rental_uris": {"ios": "https://dc.lft.to/lastmile_qr_scan", "android": "https://dc.lft.to/lastmile_qr_scan"}, "is_reserved": 0, "fusion_lon": 0.0, "fusion_lat": 0.0, "lon": -77.080715, "name": "496f1a47caf723bcea158501057f2a5f"}, {"bike_id": "2a9a55fb9dc76620b38eecfa72183642", "type": "electric_scooter", "is_disabled": 0, "lat": 38.91047483333333, "rental_uris": {"ios": "https://dc.lft.to/lastmile_qr_scan", "android": "https://dc.lft.to/lastmile_qr_scan"}, "is_reserved": 0, "fusion_lon": 0.0, "fusion_lat": 0.0, "lon": -77.02683266666666, "name": "2a9a55fb9dc76620b38eecfa72183642"}, {"bike_id": "6202572b2774aba0cc6b04730ce5efac", "type": "electric_scooter", "is_disabled": 0, "lat": 38.9408705, "rental_uris": {"ios": "https://dc.lft.to/lastmile_qr_scan", "android": "https://dc.lft.to/lastmile_qr_scan"}, "is_reserved": 0, "fusion_lon": 0.0, "fusion_lat": 0.0, "lon": -77.02724516666666, "name": "6202572b2774aba0cc6b04730ce5efac"}, {"bike_id": "087529eb66091b00a65cec3100b6e848", "type": "electric_scooter", "is_disabled": 0, "lat": 38.918222166666666, "rental_uris": {"ios": "https://dc.lft.to/lastmile_qr_scan", "android": "https://dc.lft.to/lastmile_qr_scan"}, "is_reserved": 0, "fusion_lon": 0.0, "fusion_lat": 0.0, "lon": -77.04941316666667, "name": "087529eb66091b00a65cec3100b6e848"}, {"bike_id": "681c4b610a08a14fddfa33e662b90124", "type": "electric_scooter", "is_disabled": 0, "lat": 38.905337, "rental_uris": {"ios": "https://dc.lft.to/lastmile_qr_scan", "android": "https://dc.lft.to/lastmile_qr_scan"}, "is_reserved": 0, "fusion_lon": 0.0, "fusion_lat": 0.0, "lon": -77.056748, "name": "681c4b610a08a14fddfa33e662b90124"}, {"bike_id": "446dc52db588e5f3c28d07e20d93e77c", "type": "electric_scooter", "is_disabled": 0, "lat": 38.901480166666666, "rental_uris": {"ios": "https://dc.lft.to/lastmile_qr_scan", "android": "https://dc.lft.to/lastmile_qr_scan"}, "is_reserved": 0, "fusion_lon": 0.0, "fusion_lat": 0.0, "lon": -77.0407375, "name": "446dc52db588e5f3c28d07e20d93e77c"}, {"bike_id": "b853ee4e10a8519f56d87d5d13be3470", "type": "electric_bike", "is_disabled": 0, "lat": 38.929787, "rental_uris": {"ios": "https://dc.lft.to/lastmile_qr_scan", "android": "https://dc.lft.to/lastmile_qr_scan"}, "is_reserved": 0, "fusion_lon": 0.0, "fusion_lat": 0.0, "lon": -77.03250783333333, "name": "b853ee4e10a8519f56d87d5d13be3470"}, {"bike_id": "5fe8cda60c1d24cefce4a70c1756168b", "type": "electric_scooter", "is_disabled": 0, "lat": 38.92890166666667, "rental_uris": {"ios": "https://dc.lft.to/lastmile_qr_scan", "android": "https://dc.lft.to/lastmile_qr_scan"}, "is_reserved": 0, "fusion_lon": 0.0, "fusion_lat": 0.0, "lon": -77.03227516666666, "name": "5fe8cda60c1d24cefce4a70c1756168b"}, {"bike_id": "1cb412d95120fed3cdd2e334ec270500", "type": "electric_scooter", "is_disabled": 0, "lat": 38.90682416666667, "rental_uris": {"ios": "https://dc.lft.to/lastmile_qr_scan", "android": "https://dc.lft.to/lastmile_qr_scan"}, "is_reserved": 0, "fusion_lon": 0.0, "fusion_lat": 0.0, "lon": -77.0415745, "name": "1cb412d95120fed3cdd2e334ec270500"}, {"bike_id": "02f2071e6f841cec7d48d6d8f28520c6", "type": "electric_scooter", "is_disabled": 0, "lat": 38.905816, "rental_uris": {"ios": "https://dc.lft.to/lastmile_qr_scan", "android": "https://dc.lft.to/lastmile_qr_scan"}, "is_reserved": 0, "fusion_lon": 0.0, "fusion_lat": 0.0, "lon": -77.03037216666667, "name": "02f2071e6f841cec7d48d6d8f28520c6"}, {"bike_id": "62f5ccbc084a1a5527c4dddfddfda8b0", "type": "electric_scooter", "is_disabled": 0, "lat": 38.9026635, "rental_uris": {"ios": "https://dc.lft.to/lastmile_qr_scan", "android": "https://dc.lft.to/lastmile_qr_scan"}, "is_reserved": 0, "fusion_lon": 0.0, "fusion_lat": 0.0, "lon": -77.0384945, "name": "62f5ccbc084a1a5527c4dddfddfda8b0"}, {"bike_id": "9ebf76b99c1205de4ed06d4ff865135f", "type": "electric_scooter", "is_disabled": 0, "lat": 38.89253683333333, "rental_uris": {"ios": "https://dc.lft.to/lastmile_qr_scan", "android": "https://dc.lft.to/lastmile_qr_scan"}, "is_reserved": 0, "fusion_lon": 0.0, "fusion_lat": 0.0, "lon": -77.04677083333333, "name": "9ebf76b99c1205de4ed06d4ff865135f"}, {"bike_id": "e580e8a0c9b14413b63074582904a9db", "type": "electric_scooter", "is_disabled": 0, "lat": 38.92260983333333, "rental_uris": {"ios": "https://dc.lft.to/lastmile_qr_scan", "android": "https://dc.lft.to/lastmile_qr_scan"}, "is_reserved": 0, "fusion_lon": 0.0, "fusion_lat": 0.0, "lon": -77.03400233333333, "name": "e580e8a0c9b14413b63074582904a9db"}, {"bike_id": "86f1a14b9661a9c67d7dee0250360dec", "type": "electric_scooter", "is_disabled": 0, "lat": 38.9004625, "rental_uris": {"ios": "https://dc.lft.to/lastmile_qr_scan", "android": "https://dc.lft.to/lastmile_qr_scan"}, "is_reserved": 0, "fusion_lon": 0.0, "fusion_lat": 0.0, "lon": -77.03532783333333, "name": "86f1a14b9661a9c67d7dee0250360dec"}, {"bike_id": "3c2e09aa8e6f216b169b76893a16756b", "type": "electric_scooter", "is_disabled": 0, "lat": 38.88934033333334, "rental_uris": {"ios": "https://dc.lft.to/lastmile_qr_scan", "android": "https://dc.lft.to/lastmile_qr_scan"}, "is_reserved": 0, "fusion_lon": 0.0, "fusion_lat": 0.0, "lon": -77.0150465, "name": "3c2e09aa8e6f216b169b76893a16756b"}, {"bike_id": "84efce5aa5f5c4199ad78aa50a73e448", "type": "electric_scooter", "is_disabled": 0, "lat": 38.905529333333334, "rental_uris": {"ios": "https://dc.lft.to/lastmile_qr_scan", "android": "https://dc.lft.to/lastmile_qr_scan"}, "is_reserved": 0, "fusion_lon": 0.0, "fusion_lat": 0.0, "lon": -76.99619083333333, "name": "84efce5aa5f5c4199ad78aa50a73e448"}, {"bike_id": "70b3a6e8daa5ae14f22350f53c1ffb41", "type": "electric_scooter", "is_disabled": 0, "lat": 38.91679116666667, "rental_uris": {"ios": "https://dc.lft.to/lastmile_qr_scan", "android": "https://dc.lft.to/lastmile_qr_scan"}, "is_reserved": 0, "fusion_lon": 0.0, "fusion_lat": 0.0, "lon": -77.02352533333334, "name": "70b3a6e8daa5ae14f22350f53c1ffb41"}, {"bike_id": "f8909e22ef044267731043fa568d4efc", "type": "electric_bike", "is_disabled": 0, "lat": 38.9522125, "rental_uris": {"ios": "https://dc.lft.to/lastmile_qr_scan", "android": "https://dc.lft.to/lastmile_qr_scan"}, "is_reserved": 0, "fusion_lon": 0.0, "fusion_lat": 0.0, "lon": -77.00232183333334, "name": "f8909e22ef044267731043fa568d4efc"}, {"bike_id": "ea15049cef074738e7903845c142a3e6", "type": "electric_bike", "is_disabled": 0, "lat": 38.8070975, "rental_uris": {"ios": "https://dc.lft.to/lastmile_qr_scan", "android": "https://dc.lft.to/lastmile_qr_scan"}, "is_reserved": 0, "fusion_lon": 0.0, "fusion_lat": 0.0, "lon": -77.06171983333333, "name": "ea15049cef074738e7903845c142a3e6"}, {"bike_id": "561eedde11475403aaca60cfb2ec9fe9", "type": "electric_bike", "is_disabled": 0, "lat": 38.804149, "rental_uris": {"ios": "https://dc.lft.to/lastmile_qr_scan", "android": "https://dc.lft.to/lastmile_qr_scan"}, "is_reserved": 0, "fusion_lon": 0.0, "fusion_lat": 0.0, "lon": -77.0555545, "name": "561eedde11475403aaca60cfb2ec9fe9"}, {"bike_id": "5d1c043011bee98178dc794439bb5462", "type": "electric_scooter", "is_disabled": 0, "lat": 38.904951, "rental_uris": {"ios": "https://dc.lft.to/lastmile_qr_scan", "android": "https://dc.lft.to/lastmile_qr_scan"}, "is_reserved": 0, "fusion_lon": 0.0, "fusion_lat": 0.0, "lon": -77.01993683333333, "name": "5d1c043011bee98178dc794439bb5462"}, {"bike_id": "04fe976b8c7d701279044bc3352ddcb6", "type": "electric_scooter", "is_disabled": 0, "lat": 38.92252766666667, "rental_uris": {"ios": "https://dc.lft.to/lastmile_qr_scan", "android": "https://dc.lft.to/lastmile_qr_scan"}, "is_reserved": 0, "fusion_lon": 0.0, "fusion_lat": 0.0, "lon": -77.03911616666667, "name": "04fe976b8c7d701279044bc3352ddcb6"}, {"bike_id": "b537f9189f7021ebb9bb079a5676e6df", "type": "electric_scooter", "is_disabled": 0, "lat": 38.884311333333336, "rental_uris": {"ios": "https://dc.lft.to/lastmile_qr_scan", "android": "https://dc.lft.to/lastmile_qr_scan"}, "is_reserved": 0, "fusion_lon": 0.0, "fusion_lat": 0.0, "lon": -76.95756583333333, "name": "b537f9189f7021ebb9bb079a5676e6df"}, {"bike_id": "b0bea02c2f7dae83c1f0b8d3f766c54f", "type": "electric_scooter", "is_disabled": 0, "lat": 38.8952295, "rental_uris": {"ios": "https://dc.lft.to/lastmile_qr_scan", "android": "https://dc.lft.to/lastmile_qr_scan"}, "is_reserved": 0, "fusion_lon": 0.0, "fusion_lat": 0.0, "lon": -77.0108825, "name": "b0bea02c2f7dae83c1f0b8d3f766c54f"}, {"bike_id": "66c90e2ff46f6ac7c3d4fc3e9c07666f", "type": "electric_scooter", "is_disabled": 0, "lat": 38.922903, "rental_uris": {"ios": "https://dc.lft.to/lastmile_qr_scan", "android": "https://dc.lft.to/lastmile_qr_scan"}, "is_reserved": 0, "fusion_lon": 0.0, "fusion_lat": 0.0, "lon": -76.994527, "name": "66c90e2ff46f6ac7c3d4fc3e9c07666f"}, {"bike_id": "da1e9d4e2c9d2223ee027deb82d6b492", "type": "electric_scooter", "is_disabled": 0, "lat": 38.91483783333334, "rental_uris": {"ios": "https://dc.lft.to/lastmile_qr_scan", "android": "https://dc.lft.to/lastmile_qr_scan"}, "is_reserved": 0, "fusion_lon": 0.0, "fusion_lat": 0.0, "lon": -77.02206483333333, "name": "da1e9d4e2c9d2223ee027deb82d6b492"}, {"bike_id": "3835296edac2e8f4ff6bf4b6bbf9f13e", "type": "electric_scooter", "is_disabled": 0, "lat": 38.9283905, "rental_uris": {"ios": "https://dc.lft.to/lastmile_qr_scan", "android": "https://dc.lft.to/lastmile_qr_scan"}, "is_reserved": 0, "fusion_lon": 0.0, "fusion_lat": 0.0, "lon": -77.02754466666667, "name": "3835296edac2e8f4ff6bf4b6bbf9f13e"}, {"bike_id": "42aa10f92b617e779eefa907adee315b", "type": "electric_scooter", "is_disabled": 0, "lat": 38.92340266666667, "rental_uris": {"ios": "https://dc.lft.to/lastmile_qr_scan", "android": "https://dc.lft.to/lastmile_qr_scan"}, "is_reserved": 0, "fusion_lon": 0.0, "fusion_lat": 0.0, "lon": -77.00190466666666, "name": "42aa10f92b617e779eefa907adee315b"}, {"bike_id": "46473d22579d40763e68fe2cfc0d576f", "type": "electric_bike", "is_disabled": 0, "lat": 38.949001833333334, "rental_uris": {"ios": "https://dc.lft.to/lastmile_qr_scan", "android": "https://dc.lft.to/lastmile_qr_scan"}, "is_reserved": 0, "fusion_lon": 0.0, "fusion_lat": 0.0, "lon": -76.96372683333334, "name": "46473d22579d40763e68fe2cfc0d576f"}, {"bike_id": "53b0c63f9448ff7a5037959518c16351", "type": "electric_scooter", "is_disabled": 0, "lat": 38.91338583333334, "rental_uris": {"ios": "https://dc.lft.to/lastmile_qr_scan", "android": "https://dc.lft.to/lastmile_qr_scan"}, "is_reserved": 0, "fusion_lon": 0.0, "fusion_lat": 0.0, "lon": -77.03178733333333, "name": "53b0c63f9448ff7a5037959518c16351"}, {"bike_id": "05ca7b6d8ad758b4525debc4d1fe8164", "type": "electric_scooter", "is_disabled": 0, "lat": 38.924585666666665, "rental_uris": {"ios": "https://dc.lft.to/lastmile_qr_scan", "android": "https://dc.lft.to/lastmile_qr_scan"}, "is_reserved": 0, "fusion_lon": 0.0, "fusion_lat": 0.0, "lon": -77.05229283333334, "name": "05ca7b6d8ad758b4525debc4d1fe8164"}, {"bike_id": "b481865c260b1eeca0c32af5e3bdd4fb", "type": "electric_scooter", "is_disabled": 0, "lat": 38.87796566666667, "rental_uris": {"ios": "https://dc.lft.to/lastmile_qr_scan", "android": "https://dc.lft.to/lastmile_qr_scan"}, "is_reserved": 0, "fusion_lon": 0.0, "fusion_lat": 0.0, "lon": -76.93088266666666, "name": "b481865c260b1eeca0c32af5e3bdd4fb"}, {"bike_id": "9eb752f3ce6fd4c7d9808a59b29b5392", "type": "electric_scooter", "is_disabled": 0, "lat": 38.930275, "rental_uris": {"ios": "https://dc.lft.to/lastmile_qr_scan", "android": "https://dc.lft.to/lastmile_qr_scan"}, "is_reserved": 0, "fusion_lon": 0.0, "fusion_lat": 0.0, "lon": -77.03267166666667, "name": "9eb752f3ce6fd4c7d9808a59b29b5392"}, {"bike_id": "3fedc4645a0e6e3082f336b94f0b614c", "type": "electric_scooter", "is_disabled": 0, "lat": 38.901432, "rental_uris": {"ios": "https://dc.lft.to/lastmile_qr_scan", "android": "https://dc.lft.to/lastmile_qr_scan"}, "is_reserved": 0, "fusion_lon": 0.0, "fusion_lat": 0.0, "lon": -77.03491633333333, "name": "3fedc4645a0e6e3082f336b94f0b614c"}, {"bike_id": "c093cd259299774c4dfe71adb9e7fd1c", "type": "electric_bike", "is_disabled": 0, "lat": 38.875593, "rental_uris": {"ios": "https://dc.lft.to/lastmile_qr_scan", "android": "https://dc.lft.to/lastmile_qr_scan"}, "is_reserved": 0, "fusion_lon": 0.0, "fusion_lat": 0.0, "lon": -76.9650465, "name": "c093cd259299774c4dfe71adb9e7fd1c"}, {"bike_id": "899e5ec9e97275b9d8bcf17f43b16667", "type": "electric_scooter", "is_disabled": 0, "lat": 38.956912833333334, "rental_uris": {"ios": "https://dc.lft.to/lastmile_qr_scan", "android": "https://dc.lft.to/lastmile_qr_scan"}, "is_reserved": 0, "fusion_lon": 0.0, "fusion_lat": 0.0, "lon": -77.01157633333334, "name": "899e5ec9e97275b9d8bcf17f43b16667"}, {"bike_id": "17c479b0b807b3add7681a8ea3a83d8a", "type": "electric_scooter", "is_disabled": 0, "lat": 38.917831, "rental_uris": {"ios": "https://dc.lft.to/lastmile_qr_scan", "android": "https://dc.lft.to/lastmile_qr_scan"}, "is_reserved": 0, "fusion_lon": 0.0, "fusion_lat": 0.0, "lon": -77.034645, "name": "17c479b0b807b3add7681a8ea3a83d8a"}, {"bike_id": "6c284b319928e1803618b547c20d2cd2", "type": "electric_scooter", "is_disabled": 0, "lat": 38.90525, "rental_uris": {"ios": "https://dc.lft.to/lastmile_qr_scan", "android": "https://dc.lft.to/lastmile_qr_scan"}, "is_reserved": 0, "fusion_lon": 0.0, "fusion_lat": 0.0, "lon": -77.06382333333333, "name": "6c284b319928e1803618b547c20d2cd2"}, {"bike_id": "dcad8ba063f7cb89dc1be1091df4d74d", "type": "electric_scooter", "is_disabled": 0, "lat": 38.919365, "rental_uris": {"ios": "https://dc.lft.to/lastmile_qr_scan", "android": "https://dc.lft.to/lastmile_qr_scan"}, "is_reserved": 0, "fusion_lon": 0.0, "fusion_lat": 0.0, "lon": -77.045581, "name": "dcad8ba063f7cb89dc1be1091df4d74d"}, {"bike_id": "c6afa3755403242b67ff5f46d98c85e0", "type": "electric_scooter", "is_disabled": 0, "lat": 38.90640716666667, "rental_uris": {"ios": "https://dc.lft.to/lastmile_qr_scan", "android": "https://dc.lft.to/lastmile_qr_scan"}, "is_reserved": 0, "fusion_lon": 0.0, "fusion_lat": 0.0, "lon": -77.05322816666667, "name": "c6afa3755403242b67ff5f46d98c85e0"}, {"bike_id": "793f898c876a693d6e945b1aae96aa58", "type": "electric_scooter", "is_disabled": 0, "lat": 38.89220866666667, "rental_uris": {"ios": "https://dc.lft.to/lastmile_qr_scan", "android": "https://dc.lft.to/lastmile_qr_scan"}, "is_reserved": 0, "fusion_lon": 0.0, "fusion_lat": 0.0, "lon": -77.0263145, "name": "793f898c876a693d6e945b1aae96aa58"}, {"bike_id": "21d45cfcbcdd383de16c70507330014a", "type": "electric_scooter", "is_disabled": 0, "lat": 38.91696816666666, "rental_uris": {"ios": "https://dc.lft.to/lastmile_qr_scan", "android": "https://dc.lft.to/lastmile_qr_scan"}, "is_reserved": 0, "fusion_lon": 0.0, "fusion_lat": 0.0, "lon": -77.0421995, "name": "21d45cfcbcdd383de16c70507330014a"}, {"bike_id": "f86cae8c0a455a957c53af86e8b531c7", "type": "electric_scooter", "is_disabled": 0, "lat": 38.90886616666667, "rental_uris": {"ios": "https://dc.lft.to/lastmile_qr_scan", "android": "https://dc.lft.to/lastmile_qr_scan"}, "is_reserved": 0, "fusion_lon": 0.0, "fusion_lat": 0.0, "lon": -77.023122, "name": "f86cae8c0a455a957c53af86e8b531c7"}, {"bike_id": "6caddcbc48286ec0294b9f2314bf86f2", "type": "electric_scooter", "is_disabled": 0, "lat": 38.89421316666667, "rental_uris": {"ios": "https://dc.lft.to/lastmile_qr_scan", "android": "https://dc.lft.to/lastmile_qr_scan"}, "is_reserved": 0, "fusion_lon": 0.0, "fusion_lat": 0.0, "lon": -77.02566583333333, "name": "6caddcbc48286ec0294b9f2314bf86f2"}, {"bike_id": "96b2aa24928681accf5ec84319326aeb", "type": "electric_scooter", "is_disabled": 0, "lat": 38.92329316666667, "rental_uris": {"ios": "https://dc.lft.to/lastmile_qr_scan", "android": "https://dc.lft.to/lastmile_qr_scan"}, "is_reserved": 0, "fusion_lon": 0.0, "fusion_lat": 0.0, "lon": -77.0377585, "name": "96b2aa24928681accf5ec84319326aeb"}, {"bike_id": "262a6f31a56621edbc1288c9ed53a2b4", "type": "electric_scooter", "is_disabled": 0, "lat": 38.9029585, "rental_uris": {"ios": "https://dc.lft.to/lastmile_qr_scan", "android": "https://dc.lft.to/lastmile_qr_scan"}, "is_reserved": 0, "fusion_lon": 0.0, "fusion_lat": 0.0, "lon": -77.00330233333334, "name": "262a6f31a56621edbc1288c9ed53a2b4"}, {"bike_id": "0e03e76334f8d41b2e9a46daea8b74b5", "type": "electric_scooter", "is_disabled": 0, "lat": 38.9012145, "rental_uris": {"ios": "https://dc.lft.to/lastmile_qr_scan", "android": "https://dc.lft.to/lastmile_qr_scan"}, "is_reserved": 0, "fusion_lon": 0.0, "fusion_lat": 0.0, "lon": -76.92954616666667, "name": "0e03e76334f8d41b2e9a46daea8b74b5"}, {"bike_id": "5470bd5300622660b5c6c17f9a0f06fa", "type": "electric_scooter", "is_disabled": 0, "lat": 38.87338366666667, "rental_uris": {"ios": "https://dc.lft.to/lastmile_qr_scan", "android": "https://dc.lft.to/lastmile_qr_scan"}, "is_reserved": 0, "fusion_lon": 0.0, "fusion_lat": 0.0, "lon": -76.96788783333334, "name": "5470bd5300622660b5c6c17f9a0f06fa"}, {"bike_id": "e3a0004415c0abc77dcaeb81a0f571bb", "type": "electric_scooter", "is_disabled": 0, "lat": 38.9142445, "rental_uris": {"ios": "https://dc.lft.to/lastmile_qr_scan", "android": "https://dc.lft.to/lastmile_qr_scan"}, "is_reserved": 0, "fusion_lon": 0.0, "fusion_lat": 0.0, "lon": -77.01733, "name": "e3a0004415c0abc77dcaeb81a0f571bb"}, {"bike_id": "2f036116c0f964abb6cd4b6b6266ec4b", "type": "electric_bike", "is_disabled": 0, "lat": 38.97397316666667, "rental_uris": {"ios": "https://dc.lft.to/lastmile_qr_scan", "android": "https://dc.lft.to/lastmile_qr_scan"}, "is_reserved": 0, "fusion_lon": 0.0, "fusion_lat": 0.0, "lon": -77.06450366666667, "name": "2f036116c0f964abb6cd4b6b6266ec4b"}, {"bike_id": "785d5f3a38462f01fa802d313b25f988", "type": "electric_scooter", "is_disabled": 0, "lat": 38.898999833333335, "rental_uris": {"ios": "https://dc.lft.to/lastmile_qr_scan", "android": "https://dc.lft.to/lastmile_qr_scan"}, "is_reserved": 0, "fusion_lon": 0.0, "fusion_lat": 0.0, "lon": -77.039216, "name": "785d5f3a38462f01fa802d313b25f988"}, {"bike_id": "8bb86e961b8fbeeb391d8c4ebb98f472", "type": "electric_scooter", "is_disabled": 0, "lat": 38.95629683333333, "rental_uris": {"ios": "https://dc.lft.to/lastmile_qr_scan", "android": "https://dc.lft.to/lastmile_qr_scan"}, "is_reserved": 0, "fusion_lon": 0.0, "fusion_lat": 0.0, "lon": -77.0361745, "name": "8bb86e961b8fbeeb391d8c4ebb98f472"}, {"bike_id": "3dcfe0c790d39b9907ed7c6c18f4fa5b", "type": "electric_scooter", "is_disabled": 0, "lat": 38.910554, "rental_uris": {"ios": "https://dc.lft.to/lastmile_qr_scan", "android": "https://dc.lft.to/lastmile_qr_scan"}, "is_reserved": 0, "fusion_lon": 0.0, "fusion_lat": 0.0, "lon": -77.04351883333334, "name": "3dcfe0c790d39b9907ed7c6c18f4fa5b"}, {"bike_id": "9bf40ba9365b992da6184c2a2447b171", "type": "electric_scooter", "is_disabled": 0, "lat": 38.871779833333335, "rental_uris": {"ios": "https://dc.lft.to/lastmile_qr_scan", "android": "https://dc.lft.to/lastmile_qr_scan"}, "is_reserved": 0, "fusion_lon": 0.0, "fusion_lat": 0.0, "lon": -77.00611366666666, "name": "9bf40ba9365b992da6184c2a2447b171"}, {"bike_id": "08cd0efa833310da8cca109b382ae82f", "type": "electric_scooter", "is_disabled": 0, "lat": 38.937679, "rental_uris": {"ios": "https://dc.lft.to/lastmile_qr_scan", "android": "https://dc.lft.to/lastmile_qr_scan"}, "is_reserved": 0, "fusion_lon": 0.0, "fusion_lat": 0.0, "lon": -77.024776, "name": "08cd0efa833310da8cca109b382ae82f"}, {"bike_id": "b330f0c735b1ec0cee63e25c2bb6758b", "type": "electric_scooter", "is_disabled": 0, "lat": 38.879171666666664, "rental_uris": {"ios": "https://dc.lft.to/lastmile_qr_scan", "android": "https://dc.lft.to/lastmile_qr_scan"}, "is_reserved": 0, "fusion_lon": 0.0, "fusion_lat": 0.0, "lon": -77.00886283333334, "name": "b330f0c735b1ec0cee63e25c2bb6758b"}, {"bike_id": "b4dde338d052fc56cf5e71ec4f8bb352", "type": "electric_scooter", "is_disabled": 0, "lat": 38.92127583333333, "rental_uris": {"ios": "https://dc.lft.to/lastmile_qr_scan", "android": "https://dc.lft.to/lastmile_qr_scan"}, "is_reserved": 0, "fusion_lon": 0.0, "fusion_lat": 0.0, "lon": -77.042118, "name": "b4dde338d052fc56cf5e71ec4f8bb352"}, {"bike_id": "3c07aa4523803f17315ec174f77b5998", "type": "electric_scooter", "is_disabled": 0, "lat": 38.91556116666667, "rental_uris": {"ios": "https://dc.lft.to/lastmile_qr_scan", "android": "https://dc.lft.to/lastmile_qr_scan"}, "is_reserved": 0, "fusion_lon": 0.0, "fusion_lat": 0.0, "lon": -77.03252833333333, "name": "3c07aa4523803f17315ec174f77b5998"}, {"bike_id": "989e95ad7af2966e9c144c06c1333cba", "type": "electric_scooter", "is_disabled": 0, "lat": 38.928330833333334, "rental_uris": {"ios": "https://dc.lft.to/lastmile_qr_scan", "android": "https://dc.lft.to/lastmile_qr_scan"}, "is_reserved": 0, "fusion_lon": 0.0, "fusion_lat": 0.0, "lon": -77.03290083333333, "name": "989e95ad7af2966e9c144c06c1333cba"}, {"bike_id": "443d89498944df25512f7d527ae0130c", "type": "electric_scooter", "is_disabled": 0, "lat": 38.9096965, "rental_uris": {"ios": "https://dc.lft.to/lastmile_qr_scan", "android": "https://dc.lft.to/lastmile_qr_scan"}, "is_reserved": 0, "fusion_lon": 0.0, "fusion_lat": 0.0, "lon": -77.04520133333334, "name": "443d89498944df25512f7d527ae0130c"}, {"bike_id": "831e065ef3132b532f3e457938c973d7", "type": "electric_scooter", "is_disabled": 0, "lat": 38.923627833333335, "rental_uris": {"ios": "https://dc.lft.to/lastmile_qr_scan", "android": "https://dc.lft.to/lastmile_qr_scan"}, "is_reserved": 0, "fusion_lon": 0.0, "fusion_lat": 0.0, "lon": -77.05128383333333, "name": "831e065ef3132b532f3e457938c973d7"}, {"bike_id": "c863d9feed8f5a43d4f2a1b734a973b0", "type": "electric_scooter", "is_disabled": 0, "lat": 38.91259633333333, "rental_uris": {"ios": "https://dc.lft.to/lastmile_qr_scan", "android": "https://dc.lft.to/lastmile_qr_scan"}, "is_reserved": 0, "fusion_lon": 0.0, "fusion_lat": 0.0, "lon": -77.03866916666666, "name": "c863d9feed8f5a43d4f2a1b734a973b0"}, {"bike_id": "cb1f23e884b16097fd5f0549a877b3db", "type": "electric_scooter", "is_disabled": 0, "lat": 38.90237316666666, "rental_uris": {"ios": "https://dc.lft.to/lastmile_qr_scan", "android": "https://dc.lft.to/lastmile_qr_scan"}, "is_reserved": 0, "fusion_lon": 0.0, "fusion_lat": 0.0, "lon": -77.051091, "name": "cb1f23e884b16097fd5f0549a877b3db"}, {"bike_id": "1dc336eef42cba4cddb5839ff95dd7dd", "type": "electric_scooter", "is_disabled": 0, "lat": 38.922235, "rental_uris": {"ios": "https://dc.lft.to/lastmile_qr_scan", "android": "https://dc.lft.to/lastmile_qr_scan"}, "is_reserved": 0, "fusion_lon": 0.0, "fusion_lat": 0.0, "lon": -77.02663916666667, "name": "1dc336eef42cba4cddb5839ff95dd7dd"}, {"bike_id": "5c881190dd11b444c8ea01b11c0b0813", "type": "electric_scooter", "is_disabled": 0, "lat": 38.91423116666667, "rental_uris": {"ios": "https://dc.lft.to/lastmile_qr_scan", "android": "https://dc.lft.to/lastmile_qr_scan"}, "is_reserved": 0, "fusion_lon": 0.0, "fusion_lat": 0.0, "lon": -77.03260316666666, "name": "5c881190dd11b444c8ea01b11c0b0813"}, {"bike_id": "b551e85dc62261bc003f1139545b148a", "type": "electric_scooter", "is_disabled": 0, "lat": 38.9188585, "rental_uris": {"ios": "https://dc.lft.to/lastmile_qr_scan", "android": "https://dc.lft.to/lastmile_qr_scan"}, "is_reserved": 0, "fusion_lon": 0.0, "fusion_lat": 0.0, "lon": -77.03489183333333, "name": "b551e85dc62261bc003f1139545b148a"}, {"bike_id": "bc909c9036bb3e36cf070d69645389b8", "type": "electric_scooter", "is_disabled": 0, "lat": 38.916969, "rental_uris": {"ios": "https://dc.lft.to/lastmile_qr_scan", "android": "https://dc.lft.to/lastmile_qr_scan"}, "is_reserved": 0, "fusion_lon": 0.0, "fusion_lat": 0.0, "lon": -77.01054733333334, "name": "bc909c9036bb3e36cf070d69645389b8"}, {"bike_id": "84fcc4d2ea9616a51ebf229e74f83a5c", "type": "electric_scooter", "is_disabled": 0, "lat": 38.908242333333334, "rental_uris": {"ios": "https://dc.lft.to/lastmile_qr_scan", "android": "https://dc.lft.to/lastmile_qr_scan"}, "is_reserved": 0, "fusion_lon": 0.0, "fusion_lat": 0.0, "lon": -77.02385516666666, "name": "84fcc4d2ea9616a51ebf229e74f83a5c"}, {"bike_id": "9f883464a8826ad42063374fa55b3db6", "type": "electric_scooter", "is_disabled": 0, "lat": 38.9059995, "rental_uris": {"ios": "https://dc.lft.to/lastmile_qr_scan", "android": "https://dc.lft.to/lastmile_qr_scan"}, "is_reserved": 0, "fusion_lon": 0.0, "fusion_lat": 0.0, "lon": -77.0348955, "name": "9f883464a8826ad42063374fa55b3db6"}, {"bike_id": "6f07a87e8c9cac68421f9257ae07bd9d", "type": "electric_scooter", "is_disabled": 0, "lat": 38.94335266666667, "rental_uris": {"ios": "https://dc.lft.to/lastmile_qr_scan", "android": "https://dc.lft.to/lastmile_qr_scan"}, "is_reserved": 0, "fusion_lon": 0.0, "fusion_lat": 0.0, "lon": -77.01483166666667, "name": "6f07a87e8c9cac68421f9257ae07bd9d"}, {"bike_id": "1e1c19623cbd93c6a2f21706883e7d88", "type": "electric_scooter", "is_disabled": 0, "lat": 38.92394183333333, "rental_uris": {"ios": "https://dc.lft.to/lastmile_qr_scan", "android": "https://dc.lft.to/lastmile_qr_scan"}, "is_reserved": 0, "fusion_lon": 0.0, "fusion_lat": 0.0, "lon": -77.040894, "name": "1e1c19623cbd93c6a2f21706883e7d88"}, {"bike_id": "5a31718c79b9a0ff5c9e212083621e11", "type": "electric_scooter", "is_disabled": 0, "lat": 38.904109, "rental_uris": {"ios": "https://dc.lft.to/lastmile_qr_scan", "android": "https://dc.lft.to/lastmile_qr_scan"}, "is_reserved": 0, "fusion_lon": 0.0, "fusion_lat": 0.0, "lon": -77.06770833333333, "name": "5a31718c79b9a0ff5c9e212083621e11"}, {"bike_id": "a02deda6e0cb0c20a222ca78772a0285", "type": "electric_scooter", "is_disabled": 0, "lat": 38.919147333333335, "rental_uris": {"ios": "https://dc.lft.to/lastmile_qr_scan", "android": "https://dc.lft.to/lastmile_qr_scan"}, "is_reserved": 0, "fusion_lon": 0.0, "fusion_lat": 0.0, "lon": -77.03426433333334, "name": "a02deda6e0cb0c20a222ca78772a0285"}, {"bike_id": "db80ec5e60bf23bfa70ab1186e9d94b1", "type": "electric_scooter", "is_disabled": 0, "lat": 38.9141005, "rental_uris": {"ios": "https://dc.lft.to/lastmile_qr_scan", "android": "https://dc.lft.to/lastmile_qr_scan"}, "is_reserved": 0, "fusion_lon": 0.0, "fusion_lat": 0.0, "lon": -77.02096333333333, "name": "db80ec5e60bf23bfa70ab1186e9d94b1"}, {"bike_id": "a281d26915abb5f4d137e4d8695c6fc8", "type": "electric_scooter", "is_disabled": 0, "lat": 38.92402233333333, "rental_uris": {"ios": "https://dc.lft.to/lastmile_qr_scan", "android": "https://dc.lft.to/lastmile_qr_scan"}, "is_reserved": 0, "fusion_lon": 0.0, "fusion_lat": 0.0, "lon": -77.020231, "name": "a281d26915abb5f4d137e4d8695c6fc8"}, {"bike_id": "1127fe3846676cef691ccd0b65ffbaac", "type": "electric_scooter", "is_disabled": 0, "lat": 38.90377, "rental_uris": {"ios": "https://dc.lft.to/lastmile_qr_scan", "android": "https://dc.lft.to/lastmile_qr_scan"}, "is_reserved": 0, "fusion_lon": 0.0, "fusion_lat": 0.0, "lon": -77.0076775, "name": "1127fe3846676cef691ccd0b65ffbaac"}, {"bike_id": "7657b2ac16da2fcadcb93733df3c3b58", "type": "electric_scooter", "is_disabled": 0, "lat": 38.90507233333334, "rental_uris": {"ios": "https://dc.lft.to/lastmile_qr_scan", "android": "https://dc.lft.to/lastmile_qr_scan"}, "is_reserved": 0, "fusion_lon": 0.0, "fusion_lat": 0.0, "lon": -77.06378366666667, "name": "7657b2ac16da2fcadcb93733df3c3b58"}, {"bike_id": "36de74793d94ec88373d34bc3d8b6d1e", "type": "electric_scooter", "is_disabled": 0, "lat": 38.882670833333336, "rental_uris": {"ios": "https://dc.lft.to/lastmile_qr_scan", "android": "https://dc.lft.to/lastmile_qr_scan"}, "is_reserved": 0, "fusion_lon": 0.0, "fusion_lat": 0.0, "lon": -76.99248633333333, "name": "36de74793d94ec88373d34bc3d8b6d1e"}, {"bike_id": "be1ab2bbadf40fee5678b9943db7fab1", "type": "electric_scooter", "is_disabled": 0, "lat": 38.92160583333333, "rental_uris": {"ios": "https://dc.lft.to/lastmile_qr_scan", "android": "https://dc.lft.to/lastmile_qr_scan"}, "is_reserved": 0, "fusion_lon": 0.0, "fusion_lat": 0.0, "lon": -77.04366633333333, "name": "be1ab2bbadf40fee5678b9943db7fab1"}, {"bike_id": "a80e035c135764ac978b79f125da5250", "type": "electric_scooter", "is_disabled": 0, "lat": 38.906857333333335, "rental_uris": {"ios": "https://dc.lft.to/lastmile_qr_scan", "android": "https://dc.lft.to/lastmile_qr_scan"}, "is_reserved": 0, "fusion_lon": 0.0, "fusion_lat": 0.0, "lon": -77.06340716666666, "name": "a80e035c135764ac978b79f125da5250"}, {"bike_id": "cbdc9c86b17f44f584f82613d6dd9208", "type": "electric_scooter", "is_disabled": 0, "lat": 38.908530666666664, "rental_uris": {"ios": "https://dc.lft.to/lastmile_qr_scan", "android": "https://dc.lft.to/lastmile_qr_scan"}, "is_reserved": 0, "fusion_lon": 0.0, "fusion_lat": 0.0, "lon": -77.05570216666666, "name": "cbdc9c86b17f44f584f82613d6dd9208"}, {"bike_id": "b82802d5008e900d5db81375d69294ed", "type": "electric_scooter", "is_disabled": 0, "lat": 38.9268735, "rental_uris": {"ios": "https://dc.lft.to/lastmile_qr_scan", "android": "https://dc.lft.to/lastmile_qr_scan"}, "is_reserved": 0, "fusion_lon": 0.0, "fusion_lat": 0.0, "lon": -77.02159633333333, "name": "b82802d5008e900d5db81375d69294ed"}, {"bike_id": "f26079b8b196c085f0aef2f2d4140591", "type": "electric_scooter", "is_disabled": 0, "lat": 38.92065616666667, "rental_uris": {"ios": "https://dc.lft.to/lastmile_qr_scan", "android": "https://dc.lft.to/lastmile_qr_scan"}, "is_reserved": 0, "fusion_lon": 0.0, "fusion_lat": 0.0, "lon": -77.03470033333333, "name": "f26079b8b196c085f0aef2f2d4140591"}, {"bike_id": "fcefe3ca23acecec695744cb4c227bb1", "type": "electric_scooter", "is_disabled": 0, "lat": 38.91104433333334, "rental_uris": {"ios": "https://dc.lft.to/lastmile_qr_scan", "android": "https://dc.lft.to/lastmile_qr_scan"}, "is_reserved": 0, "fusion_lon": 0.0, "fusion_lat": 0.0, "lon": -77.044787, "name": "fcefe3ca23acecec695744cb4c227bb1"}, {"bike_id": "221944164392e9e16e8a4e3e85856b5a", "type": "electric_scooter", "is_disabled": 0, "lat": 38.91572, "rental_uris": {"ios": "https://dc.lft.to/lastmile_qr_scan", "android": "https://dc.lft.to/lastmile_qr_scan"}, "is_reserved": 0, "fusion_lon": 0.0, "fusion_lat": 0.0, "lon": -77.03191666666666, "name": "221944164392e9e16e8a4e3e85856b5a"}, {"bike_id": "d1afb5f120adf8eef236372d3854ccb0", "type": "electric_scooter", "is_disabled": 0, "lat": 38.916352333333336, "rental_uris": {"ios": "https://dc.lft.to/lastmile_qr_scan", "android": "https://dc.lft.to/lastmile_qr_scan"}, "is_reserved": 0, "fusion_lon": 0.0, "fusion_lat": 0.0, "lon": -77.03171766666667, "name": "d1afb5f120adf8eef236372d3854ccb0"}, {"bike_id": "8744ba7acffa62d2a94131d6d78f09e3", "type": "electric_scooter", "is_disabled": 0, "lat": 38.884751, "rental_uris": {"ios": "https://dc.lft.to/lastmile_qr_scan", "android": "https://dc.lft.to/lastmile_qr_scan"}, "is_reserved": 0, "fusion_lon": 0.0, "fusion_lat": 0.0, "lon": -77.01490633333333, "name": "8744ba7acffa62d2a94131d6d78f09e3"}, {"bike_id": "b25cd6246cae8fb847593d3a2ff8ab95", "type": "electric_scooter", "is_disabled": 0, "lat": 38.9170765, "rental_uris": {"ios": "https://dc.lft.to/lastmile_qr_scan", "android": "https://dc.lft.to/lastmile_qr_scan"}, "is_reserved": 0, "fusion_lon": 0.0, "fusion_lat": 0.0, "lon": -77.0412495, "name": "b25cd6246cae8fb847593d3a2ff8ab95"}, {"bike_id": "22360a413782a632fe80fa394181f087", "type": "electric_scooter", "is_disabled": 0, "lat": 38.91666516666667, "rental_uris": {"ios": "https://dc.lft.to/lastmile_qr_scan", "android": "https://dc.lft.to/lastmile_qr_scan"}, "is_reserved": 0, "fusion_lon": 0.0, "fusion_lat": 0.0, "lon": -77.03854216666667, "name": "22360a413782a632fe80fa394181f087"}, {"bike_id": "536ceaa12b69dae6c85225f1449ae3cf", "type": "electric_scooter", "is_disabled": 0, "lat": 38.956813, "rental_uris": {"ios": "https://dc.lft.to/lastmile_qr_scan", "android": "https://dc.lft.to/lastmile_qr_scan"}, "is_reserved": 0, "fusion_lon": 0.0, "fusion_lat": 0.0, "lon": -77.0240645, "name": "536ceaa12b69dae6c85225f1449ae3cf"}, {"bike_id": "dfb22eaa9538afcc413aa3eaba3ff2ab", "type": "electric_scooter", "is_disabled": 0, "lat": 38.907282, "rental_uris": {"ios": "https://dc.lft.to/lastmile_qr_scan", "android": "https://dc.lft.to/lastmile_qr_scan"}, "is_reserved": 0, "fusion_lon": 0.0, "fusion_lat": 0.0, "lon": -77.0532735, "name": "dfb22eaa9538afcc413aa3eaba3ff2ab"}, {"bike_id": "3166368a3c70a8787a49e10c14573586", "type": "electric_scooter", "is_disabled": 0, "lat": 38.9420105, "rental_uris": {"ios": "https://dc.lft.to/lastmile_qr_scan", "android": "https://dc.lft.to/lastmile_qr_scan"}, "is_reserved": 0, "fusion_lon": 0.0, "fusion_lat": 0.0, "lon": -77.0235315, "name": "3166368a3c70a8787a49e10c14573586"}, {"bike_id": "bfdf84b8c60a1967c86a945eb2da4006", "type": "electric_scooter", "is_disabled": 0, "lat": 38.93534533333333, "rental_uris": {"ios": "https://dc.lft.to/lastmile_qr_scan", "android": "https://dc.lft.to/lastmile_qr_scan"}, "is_reserved": 0, "fusion_lon": 0.0, "fusion_lat": 0.0, "lon": -77.0235445, "name": "bfdf84b8c60a1967c86a945eb2da4006"}, {"bike_id": "d1018853892a5000a3f90077f1a0ac90", "type": "electric_scooter", "is_disabled": 0, "lat": 38.92668716666667, "rental_uris": {"ios": "https://dc.lft.to/lastmile_qr_scan", "android": "https://dc.lft.to/lastmile_qr_scan"}, "is_reserved": 0, "fusion_lon": 0.0, "fusion_lat": 0.0, "lon": -77.01472, "name": "d1018853892a5000a3f90077f1a0ac90"}, {"bike_id": "c31e1a61201449f06179fee15226cac5", "type": "electric_scooter", "is_disabled": 0, "lat": 38.934628000000004, "rental_uris": {"ios": "https://dc.lft.to/lastmile_qr_scan", "android": "https://dc.lft.to/lastmile_qr_scan"}, "is_reserved": 0, "fusion_lon": 0.0, "fusion_lat": 0.0, "lon": -77.02931116666667, "name": "c31e1a61201449f06179fee15226cac5"}, {"bike_id": "cc2253aab51cffcbbb085d60242e5438", "type": "electric_scooter", "is_disabled": 0, "lat": 38.916604166666666, "rental_uris": {"ios": "https://dc.lft.to/lastmile_qr_scan", "android": "https://dc.lft.to/lastmile_qr_scan"}, "is_reserved": 0, "fusion_lon": 0.0, "fusion_lat": 0.0, "lon": -77.02699066666666, "name": "cc2253aab51cffcbbb085d60242e5438"}, {"bike_id": "1a8d5cea6ca0330974edc37689caa005", "type": "electric_scooter", "is_disabled": 0, "lat": 38.907215, "rental_uris": {"ios": "https://dc.lft.to/lastmile_qr_scan", "android": "https://dc.lft.to/lastmile_qr_scan"}, "is_reserved": 0, "fusion_lon": 0.0, "fusion_lat": 0.0, "lon": -77.01469933333334, "name": "1a8d5cea6ca0330974edc37689caa005"}, {"bike_id": "eb16c5e5d20f0b0ff0fa4c39130e019d", "type": "electric_scooter", "is_disabled": 0, "lat": 38.91420016666667, "rental_uris": {"ios": "https://dc.lft.to/lastmile_qr_scan", "android": "https://dc.lft.to/lastmile_qr_scan"}, "is_reserved": 0, "fusion_lon": 0.0, "fusion_lat": 0.0, "lon": -77.0228945, "name": "eb16c5e5d20f0b0ff0fa4c39130e019d"}, {"bike_id": "736fcefc5760712c45302787b14d9e09", "type": "electric_scooter", "is_disabled": 0, "lat": 38.8843205, "rental_uris": {"ios": "https://dc.lft.to/lastmile_qr_scan", "android": "https://dc.lft.to/lastmile_qr_scan"}, "is_reserved": 0, "fusion_lon": 0.0, "fusion_lat": 0.0, "lon": -76.9575925, "name": "736fcefc5760712c45302787b14d9e09"}, {"bike_id": "86b322329def4a18cba48436eb9b7e20", "type": "electric_scooter", "is_disabled": 0, "lat": 38.903242666666664, "rental_uris": {"ios": "https://dc.lft.to/lastmile_qr_scan", "android": "https://dc.lft.to/lastmile_qr_scan"}, "is_reserved": 0, "fusion_lon": 0.0, "fusion_lat": 0.0, "lon": -77.02899616666667, "name": "86b322329def4a18cba48436eb9b7e20"}, {"bike_id": "fd5eaca114cb3d9188f3f1a97b0b3c0b", "type": "electric_scooter", "is_disabled": 0, "lat": 38.92885183333333, "rental_uris": {"ios": "https://dc.lft.to/lastmile_qr_scan", "android": "https://dc.lft.to/lastmile_qr_scan"}, "is_reserved": 0, "fusion_lon": 0.0, "fusion_lat": 0.0, "lon": -77.03243683333334, "name": "fd5eaca114cb3d9188f3f1a97b0b3c0b"}, {"bike_id": "edb5da44ea2e7dbd35fbeb4944334fe6", "type": "electric_scooter", "is_disabled": 0, "lat": 38.87643816666667, "rental_uris": {"ios": "https://dc.lft.to/lastmile_qr_scan", "android": "https://dc.lft.to/lastmile_qr_scan"}, "is_reserved": 0, "fusion_lon": 0.0, "fusion_lat": 0.0, "lon": -77.00408766666666, "name": "edb5da44ea2e7dbd35fbeb4944334fe6"}, {"bike_id": "81cab9c47cc37d09feb1b0c094c2c06f", "type": "electric_scooter", "is_disabled": 0, "lat": 38.90519283333333, "rental_uris": {"ios": "https://dc.lft.to/lastmile_qr_scan", "android": "https://dc.lft.to/lastmile_qr_scan"}, "is_reserved": 0, "fusion_lon": 0.0, "fusion_lat": 0.0, "lon": -77.0687635, "name": "81cab9c47cc37d09feb1b0c094c2c06f"}, {"bike_id": "b981d4743ad5ada03a7bf487a677f566", "type": "electric_scooter", "is_disabled": 0, "lat": 38.882691, "rental_uris": {"ios": "https://dc.lft.to/lastmile_qr_scan", "android": "https://dc.lft.to/lastmile_qr_scan"}, "is_reserved": 0, "fusion_lon": 0.0, "fusion_lat": 0.0, "lon": -76.99359183333334, "name": "b981d4743ad5ada03a7bf487a677f566"}, {"bike_id": "d1b821c368149ad515c40689068b4762", "type": "electric_scooter", "is_disabled": 0, "lat": 38.9112535, "rental_uris": {"ios": "https://dc.lft.to/lastmile_qr_scan", "android": "https://dc.lft.to/lastmile_qr_scan"}, "is_reserved": 0, "fusion_lon": 0.0, "fusion_lat": 0.0, "lon": -77.04361016666667, "name": "d1b821c368149ad515c40689068b4762"}, {"bike_id": "e804bc760a7818edeb46035b48daca12", "type": "electric_scooter", "is_disabled": 0, "lat": 38.94209983333333, "rental_uris": {"ios": "https://dc.lft.to/lastmile_qr_scan", "android": "https://dc.lft.to/lastmile_qr_scan"}, "is_reserved": 0, "fusion_lon": 0.0, "fusion_lat": 0.0, "lon": -77.02579866666666, "name": "e804bc760a7818edeb46035b48daca12"}, {"bike_id": "8b5c336ea5400e564be85c74451032c0", "type": "electric_scooter", "is_disabled": 0, "lat": 38.8908835, "rental_uris": {"ios": "https://dc.lft.to/lastmile_qr_scan", "android": "https://dc.lft.to/lastmile_qr_scan"}, "is_reserved": 0, "fusion_lon": 0.0, "fusion_lat": 0.0, "lon": -77.002591, "name": "8b5c336ea5400e564be85c74451032c0"}, {"bike_id": "a944e3202f937a2df52fae63a5f2d802", "type": "electric_scooter", "is_disabled": 0, "lat": 38.90584033333333, "rental_uris": {"ios": "https://dc.lft.to/lastmile_qr_scan", "android": "https://dc.lft.to/lastmile_qr_scan"}, "is_reserved": 0, "fusion_lon": 0.0, "fusion_lat": 0.0, "lon": -77.02609316666667, "name": "a944e3202f937a2df52fae63a5f2d802"}, {"bike_id": "7ba517097e5376411ea2165b14b53489", "type": "electric_scooter", "is_disabled": 0, "lat": 38.921594166666665, "rental_uris": {"ios": "https://dc.lft.to/lastmile_qr_scan", "android": "https://dc.lft.to/lastmile_qr_scan"}, "is_reserved": 0, "fusion_lon": 0.0, "fusion_lat": 0.0, "lon": -77.03384016666666, "name": "7ba517097e5376411ea2165b14b53489"}, {"bike_id": "3d3c67653cedcb278c3f322eb96c908d", "type": "electric_scooter", "is_disabled": 0, "lat": 38.912748666666666, "rental_uris": {"ios": "https://dc.lft.to/lastmile_qr_scan", "android": "https://dc.lft.to/lastmile_qr_scan"}, "is_reserved": 0, "fusion_lon": 0.0, "fusion_lat": 0.0, "lon": -77.022349, "name": "3d3c67653cedcb278c3f322eb96c908d"}, {"bike_id": "e4387bec0439fb47411b7b62c079ae36", "type": "electric_scooter", "is_disabled": 0, "lat": 38.89191733333333, "rental_uris": {"ios": "https://dc.lft.to/lastmile_qr_scan", "android": "https://dc.lft.to/lastmile_qr_scan"}, "is_reserved": 0, "fusion_lon": 0.0, "fusion_lat": 0.0, "lon": -77.02978, "name": "e4387bec0439fb47411b7b62c079ae36"}, {"bike_id": "afa2a7ee9773a237272ae17c89f6ff80", "type": "electric_scooter", "is_disabled": 0, "lat": 38.91931433333333, "rental_uris": {"ios": "https://dc.lft.to/lastmile_qr_scan", "android": "https://dc.lft.to/lastmile_qr_scan"}, "is_reserved": 0, "fusion_lon": 0.0, "fusion_lat": 0.0, "lon": -77.0461975, "name": "afa2a7ee9773a237272ae17c89f6ff80"}, {"bike_id": "c4a2d6bd060842a898a66965fe19c6e2", "type": "electric_scooter", "is_disabled": 0, "lat": 38.905919833333336, "rental_uris": {"ios": "https://dc.lft.to/lastmile_qr_scan", "android": "https://dc.lft.to/lastmile_qr_scan"}, "is_reserved": 0, "fusion_lon": 0.0, "fusion_lat": 0.0, "lon": -77.070136, "name": "c4a2d6bd060842a898a66965fe19c6e2"}, {"bike_id": "c996e50672692506642980f0b09ba8b9", "type": "electric_scooter", "is_disabled": 0, "lat": 38.964199666666666, "rental_uris": {"ios": "https://dc.lft.to/lastmile_qr_scan", "android": "https://dc.lft.to/lastmile_qr_scan"}, "is_reserved": 0, "fusion_lon": 0.0, "fusion_lat": 0.0, "lon": -77.02426966666667, "name": "c996e50672692506642980f0b09ba8b9"}, {"bike_id": "51171811d6f7bbb0a3cc2da1b4df15b4", "type": "electric_scooter", "is_disabled": 0, "lat": 38.918198833333335, "rental_uris": {"ios": "https://dc.lft.to/lastmile_qr_scan", "android": "https://dc.lft.to/lastmile_qr_scan"}, "is_reserved": 0, "fusion_lon": 0.0, "fusion_lat": 0.0, "lon": -77.04944533333334, "name": "51171811d6f7bbb0a3cc2da1b4df15b4"}, {"bike_id": "930732527c5c7e66bfc3795a10e87bcd", "type": "electric_scooter", "is_disabled": 0, "lat": 38.91710966666667, "rental_uris": {"ios": "https://dc.lft.to/lastmile_qr_scan", "android": "https://dc.lft.to/lastmile_qr_scan"}, "is_reserved": 0, "fusion_lon": 0.0, "fusion_lat": 0.0, "lon": -77.03473083333333, "name": "930732527c5c7e66bfc3795a10e87bcd"}, {"bike_id": "8fa2c41073f1188b453f195874e76c3c", "type": "electric_scooter", "is_disabled": 0, "lat": 38.9221185, "rental_uris": {"ios": "https://dc.lft.to/lastmile_qr_scan", "android": "https://dc.lft.to/lastmile_qr_scan"}, "is_reserved": 0, "fusion_lon": 0.0, "fusion_lat": 0.0, "lon": -77.03293466666666, "name": "8fa2c41073f1188b453f195874e76c3c"}, {"bike_id": "0712dcec9a63d1cf64601f33c370c832", "type": "electric_scooter", "is_disabled": 0, "lat": 38.90568783333333, "rental_uris": {"ios": "https://dc.lft.to/lastmile_qr_scan", "android": "https://dc.lft.to/lastmile_qr_scan"}, "is_reserved": 0, "fusion_lon": 0.0, "fusion_lat": 0.0, "lon": -77.03830583333334, "name": "0712dcec9a63d1cf64601f33c370c832"}, {"bike_id": "90817cdcade990879e138469c76fe941", "type": "electric_scooter", "is_disabled": 0, "lat": 38.91936716666667, "rental_uris": {"ios": "https://dc.lft.to/lastmile_qr_scan", "android": "https://dc.lft.to/lastmile_qr_scan"}, "is_reserved": 0, "fusion_lon": 0.0, "fusion_lat": 0.0, "lon": -77.0336855, "name": "90817cdcade990879e138469c76fe941"}, {"bike_id": "4b4bea18e43c839f79c158d8e5e6c55b", "type": "electric_scooter", "is_disabled": 0, "lat": 38.9177895, "rental_uris": {"ios": "https://dc.lft.to/lastmile_qr_scan", "android": "https://dc.lft.to/lastmile_qr_scan"}, "is_reserved": 0, "fusion_lon": 0.0, "fusion_lat": 0.0, "lon": -77.04408566666666, "name": "4b4bea18e43c839f79c158d8e5e6c55b"}, {"bike_id": "596349a6238c64697b978d7f33790c6b", "type": "electric_scooter", "is_disabled": 0, "lat": 38.91406716666667, "rental_uris": {"ios": "https://dc.lft.to/lastmile_qr_scan", "android": "https://dc.lft.to/lastmile_qr_scan"}, "is_reserved": 0, "fusion_lon": 0.0, "fusion_lat": 0.0, "lon": -77.03176483333333, "name": "596349a6238c64697b978d7f33790c6b"}, {"bike_id": "809d115a6a047de99c2963bd8146cedb", "type": "electric_scooter", "is_disabled": 0, "lat": 38.9020225, "rental_uris": {"ios": "https://dc.lft.to/lastmile_qr_scan", "android": "https://dc.lft.to/lastmile_qr_scan"}, "is_reserved": 0, "fusion_lon": 0.0, "fusion_lat": 0.0, "lon": -76.9926345, "name": "809d115a6a047de99c2963bd8146cedb"}, {"bike_id": "29f2474d7cfcf40da967b4dc8170b525", "type": "electric_scooter", "is_disabled": 0, "lat": 38.922742666666664, "rental_uris": {"ios": "https://dc.lft.to/lastmile_qr_scan", "android": "https://dc.lft.to/lastmile_qr_scan"}, "is_reserved": 0, "fusion_lon": 0.0, "fusion_lat": 0.0, "lon": -77.0428745, "name": "29f2474d7cfcf40da967b4dc8170b525"}, {"bike_id": "95b1cd1eb902f512361f4e0d1969efeb", "type": "electric_scooter", "is_disabled": 0, "lat": 38.8621025, "rental_uris": {"ios": "https://dc.lft.to/lastmile_qr_scan", "android": "https://dc.lft.to/lastmile_qr_scan"}, "is_reserved": 0, "fusion_lon": 0.0, "fusion_lat": 0.0, "lon": -76.99501766666667, "name": "95b1cd1eb902f512361f4e0d1969efeb"}, {"bike_id": "0a1ec273d943c1575747fb9f567ab8f8", "type": "electric_scooter", "is_disabled": 0, "lat": 38.915153, "rental_uris": {"ios": "https://dc.lft.to/lastmile_qr_scan", "android": "https://dc.lft.to/lastmile_qr_scan"}, "is_reserved": 0, "fusion_lon": 0.0, "fusion_lat": 0.0, "lon": -77.0122525, "name": "0a1ec273d943c1575747fb9f567ab8f8"}, {"bike_id": "047f44484ef823a863cda23cd15ad4dc", "type": "electric_bike", "is_disabled": 0, "lat": 38.89741083333333, "rental_uris": {"ios": "https://dc.lft.to/lastmile_qr_scan", "android": "https://dc.lft.to/lastmile_qr_scan"}, "is_reserved": 0, "fusion_lon": 0.0, "fusion_lat": 0.0, "lon": -76.92044733333333, "name": "047f44484ef823a863cda23cd15ad4dc"}, {"bike_id": "9033db23c3fc85b74a00d56e3d2f2648", "type": "electric_scooter", "is_disabled": 0, "lat": 38.89227616666667, "rental_uris": {"ios": "https://dc.lft.to/lastmile_qr_scan", "android": "https://dc.lft.to/lastmile_qr_scan"}, "is_reserved": 0, "fusion_lon": 0.0, "fusion_lat": 0.0, "lon": -77.01562566666666, "name": "9033db23c3fc85b74a00d56e3d2f2648"}, {"bike_id": "c4c5222f5f790d7980b8ee26603f31e2", "type": "electric_scooter", "is_disabled": 0, "lat": 38.933892166666666, "rental_uris": {"ios": "https://dc.lft.to/lastmile_qr_scan", "android": "https://dc.lft.to/lastmile_qr_scan"}, "is_reserved": 0, "fusion_lon": 0.0, "fusion_lat": 0.0, "lon": -77.04553433333334, "name": "c4c5222f5f790d7980b8ee26603f31e2"}, {"bike_id": "a801be5bb4715b0c7eb14bb7bf33f692", "type": "electric_scooter", "is_disabled": 0, "lat": 38.905259, "rental_uris": {"ios": "https://dc.lft.to/lastmile_qr_scan", "android": "https://dc.lft.to/lastmile_qr_scan"}, "is_reserved": 0, "fusion_lon": 0.0, "fusion_lat": 0.0, "lon": -77.06010783333333, "name": "a801be5bb4715b0c7eb14bb7bf33f692"}, {"bike_id": "f2b49957028148031805c640ecfb2f1b", "type": "electric_scooter", "is_disabled": 0, "lat": 38.879267, "rental_uris": {"ios": "https://dc.lft.to/lastmile_qr_scan", "android": "https://dc.lft.to/lastmile_qr_scan"}, "is_reserved": 0, "fusion_lon": 0.0, "fusion_lat": 0.0, "lon": -77.02360166666666, "name": "f2b49957028148031805c640ecfb2f1b"}, {"bike_id": "903c5282dd54edcd16acfb945b23cce2", "type": "electric_scooter", "is_disabled": 0, "lat": 38.892230166666664, "rental_uris": {"ios": "https://dc.lft.to/lastmile_qr_scan", "android": "https://dc.lft.to/lastmile_qr_scan"}, "is_reserved": 0, "fusion_lon": 0.0, "fusion_lat": 0.0, "lon": -77.03166233333333, "name": "903c5282dd54edcd16acfb945b23cce2"}, {"bike_id": "b6359ef43cf2c03fa15eed3becf85b1d", "type": "electric_bike", "is_disabled": 0, "lat": 38.87477666666667, "rental_uris": {"ios": "https://dc.lft.to/lastmile_qr_scan", "android": "https://dc.lft.to/lastmile_qr_scan"}, "is_reserved": 0, "fusion_lon": 0.0, "fusion_lat": 0.0, "lon": -76.96522883333333, "name": "b6359ef43cf2c03fa15eed3becf85b1d"}, {"bike_id": "5e51f6cd2e25e7c140ab05cec28160c5", "type": "electric_scooter", "is_disabled": 0, "lat": 38.924151, "rental_uris": {"ios": "https://dc.lft.to/lastmile_qr_scan", "android": "https://dc.lft.to/lastmile_qr_scan"}, "is_reserved": 0, "fusion_lon": 0.0, "fusion_lat": 0.0, "lon": -77.05061883333333, "name": "5e51f6cd2e25e7c140ab05cec28160c5"}, {"bike_id": "96ad7e5926a5d92b837f34f35ad74969", "type": "electric_scooter", "is_disabled": 0, "lat": 38.88739066666667, "rental_uris": {"ios": "https://dc.lft.to/lastmile_qr_scan", "android": "https://dc.lft.to/lastmile_qr_scan"}, "is_reserved": 0, "fusion_lon": 0.0, "fusion_lat": 0.0, "lon": -77.01531666666666, "name": "96ad7e5926a5d92b837f34f35ad74969"}, {"bike_id": "b78d64e75c2f43563e26bdb022521a87", "type": "electric_scooter", "is_disabled": 0, "lat": 38.90252866666667, "rental_uris": {"ios": "https://dc.lft.to/lastmile_qr_scan", "android": "https://dc.lft.to/lastmile_qr_scan"}, "is_reserved": 0, "fusion_lon": 0.0, "fusion_lat": 0.0, "lon": -77.02119333333333, "name": "b78d64e75c2f43563e26bdb022521a87"}, {"bike_id": "958d26cfb597243682e0707a888e0a60", "type": "electric_scooter", "is_disabled": 0, "lat": 38.956244, "rental_uris": {"ios": "https://dc.lft.to/lastmile_qr_scan", "android": "https://dc.lft.to/lastmile_qr_scan"}, "is_reserved": 0, "fusion_lon": 0.0, "fusion_lat": 0.0, "lon": -77.01158483333333, "name": "958d26cfb597243682e0707a888e0a60"}, {"bike_id": "07d20015ede1f992349319a2545babc4", "type": "electric_scooter", "is_disabled": 0, "lat": 38.9016865, "rental_uris": {"ios": "https://dc.lft.to/lastmile_qr_scan", "android": "https://dc.lft.to/lastmile_qr_scan"}, "is_reserved": 0, "fusion_lon": 0.0, "fusion_lat": 0.0, "lon": -76.93026966666666, "name": "07d20015ede1f992349319a2545babc4"}, {"bike_id": "a6d23e4dff906bb1ccdb3f1a8d055485", "type": "electric_scooter", "is_disabled": 0, "lat": 38.886946333333334, "rental_uris": {"ios": "https://dc.lft.to/lastmile_qr_scan", "android": "https://dc.lft.to/lastmile_qr_scan"}, "is_reserved": 0, "fusion_lon": 0.0, "fusion_lat": 0.0, "lon": -76.99606733333333, "name": "a6d23e4dff906bb1ccdb3f1a8d055485"}, {"bike_id": "5a7af60c25afc61d24917d7b6f6461df", "type": "electric_scooter", "is_disabled": 0, "lat": 38.90402366666667, "rental_uris": {"ios": "https://dc.lft.to/lastmile_qr_scan", "android": "https://dc.lft.to/lastmile_qr_scan"}, "is_reserved": 0, "fusion_lon": 0.0, "fusion_lat": 0.0, "lon": -77.0055495, "name": "5a7af60c25afc61d24917d7b6f6461df"}, {"bike_id": "c4f5f5621f22a1ddf276f2c0304594e5", "type": "electric_scooter", "is_disabled": 0, "lat": 38.897495166666666, "rental_uris": {"ios": "https://dc.lft.to/lastmile_qr_scan", "android": "https://dc.lft.to/lastmile_qr_scan"}, "is_reserved": 0, "fusion_lon": 0.0, "fusion_lat": 0.0, "lon": -77.04852066666666, "name": "c4f5f5621f22a1ddf276f2c0304594e5"}, {"bike_id": "569dcd820765177af0a28bdb94e642f9", "type": "electric_scooter", "is_disabled": 0, "lat": 38.956482666666666, "rental_uris": {"ios": "https://dc.lft.to/lastmile_qr_scan", "android": "https://dc.lft.to/lastmile_qr_scan"}, "is_reserved": 0, "fusion_lon": 0.0, "fusion_lat": 0.0, "lon": -77.01003433333334, "name": "569dcd820765177af0a28bdb94e642f9"}, {"bike_id": "1d1f22258f37f60529688770194f0dcb", "type": "electric_scooter", "is_disabled": 0, "lat": 38.9211085, "rental_uris": {"ios": "https://dc.lft.to/lastmile_qr_scan", "android": "https://dc.lft.to/lastmile_qr_scan"}, "is_reserved": 0, "fusion_lon": 0.0, "fusion_lat": 0.0, "lon": -77.03170833333333, "name": "1d1f22258f37f60529688770194f0dcb"}, {"bike_id": "e964687610954033bf032a07dce8e93d", "type": "electric_bike", "is_disabled": 0, "lat": 38.813089833333336, "rental_uris": {"ios": "https://dc.lft.to/lastmile_qr_scan", "android": "https://dc.lft.to/lastmile_qr_scan"}, "is_reserved": 0, "fusion_lon": 0.0, "fusion_lat": 0.0, "lon": -77.10967366666667, "name": "e964687610954033bf032a07dce8e93d"}, {"bike_id": "77f94fe69434ff97f35db94224fd7466", "type": "electric_scooter", "is_disabled": 0, "lat": 38.920577, "rental_uris": {"ios": "https://dc.lft.to/lastmile_qr_scan", "android": "https://dc.lft.to/lastmile_qr_scan"}, "is_reserved": 0, "fusion_lon": 0.0, "fusion_lat": 0.0, "lon": -76.99883266666667, "name": "77f94fe69434ff97f35db94224fd7466"}, {"bike_id": "f43145c6dd8a699b7df7ee2b68b62a15", "type": "electric_scooter", "is_disabled": 0, "lat": 38.916089, "rental_uris": {"ios": "https://dc.lft.to/lastmile_qr_scan", "android": "https://dc.lft.to/lastmile_qr_scan"}, "is_reserved": 0, "fusion_lon": 0.0, "fusion_lat": 0.0, "lon": -77.02316433333333, "name": "f43145c6dd8a699b7df7ee2b68b62a15"}, {"bike_id": "06f1ffeb96ccc619ac9f22de9bb63616", "type": "electric_scooter", "is_disabled": 0, "lat": 38.90735983333333, "rental_uris": {"ios": "https://dc.lft.to/lastmile_qr_scan", "android": "https://dc.lft.to/lastmile_qr_scan"}, "is_reserved": 0, "fusion_lon": 0.0, "fusion_lat": 0.0, "lon": -77.01318633333334, "name": "06f1ffeb96ccc619ac9f22de9bb63616"}, {"bike_id": "20dcc85b19f6d17c30b8963e8b168b0f", "type": "electric_scooter", "is_disabled": 0, "lat": 38.89705766666667, "rental_uris": {"ios": "https://dc.lft.to/lastmile_qr_scan", "android": "https://dc.lft.to/lastmile_qr_scan"}, "is_reserved": 0, "fusion_lon": 0.0, "fusion_lat": 0.0, "lon": -76.92998666666666, "name": "20dcc85b19f6d17c30b8963e8b168b0f"}, {"bike_id": "d5fec2d188f70892d10a706196f9a55f", "type": "electric_scooter", "is_disabled": 0, "lat": 38.917476666666666, "rental_uris": {"ios": "https://dc.lft.to/lastmile_qr_scan", "android": "https://dc.lft.to/lastmile_qr_scan"}, "is_reserved": 0, "fusion_lon": 0.0, "fusion_lat": 0.0, "lon": -77.0366755, "name": "d5fec2d188f70892d10a706196f9a55f"}, {"bike_id": "58f68fca51ee25022473177b60d71310", "type": "electric_scooter", "is_disabled": 0, "lat": 38.8973095, "rental_uris": {"ios": "https://dc.lft.to/lastmile_qr_scan", "android": "https://dc.lft.to/lastmile_qr_scan"}, "is_reserved": 0, "fusion_lon": 0.0, "fusion_lat": 0.0, "lon": -77.023234, "name": "58f68fca51ee25022473177b60d71310"}, {"bike_id": "8dff50360198ec1f69139972479eb73f", "type": "electric_scooter", "is_disabled": 0, "lat": 38.89854916666667, "rental_uris": {"ios": "https://dc.lft.to/lastmile_qr_scan", "android": "https://dc.lft.to/lastmile_qr_scan"}, "is_reserved": 0, "fusion_lon": 0.0, "fusion_lat": 0.0, "lon": -77.02531333333333, "name": "8dff50360198ec1f69139972479eb73f"}, {"bike_id": "df4e042c1f51320f79b20bbbf4be4818", "type": "electric_scooter", "is_disabled": 0, "lat": 38.882173333333334, "rental_uris": {"ios": "https://dc.lft.to/lastmile_qr_scan", "android": "https://dc.lft.to/lastmile_qr_scan"}, "is_reserved": 0, "fusion_lon": 0.0, "fusion_lat": 0.0, "lon": -77.0290685, "name": "df4e042c1f51320f79b20bbbf4be4818"}, {"bike_id": "1dbb7b5eaa927c0abb41793ffbe6240e", "type": "electric_scooter", "is_disabled": 0, "lat": 38.911972, "rental_uris": {"ios": "https://dc.lft.to/lastmile_qr_scan", "android": "https://dc.lft.to/lastmile_qr_scan"}, "is_reserved": 0, "fusion_lon": 0.0, "fusion_lat": 0.0, "lon": -77.05944166666667, "name": "1dbb7b5eaa927c0abb41793ffbe6240e"}, {"bike_id": "64b343dd30a156998592f545cef2ef44", "type": "electric_scooter", "is_disabled": 0, "lat": 38.8843375, "rental_uris": {"ios": "https://dc.lft.to/lastmile_qr_scan", "android": "https://dc.lft.to/lastmile_qr_scan"}, "is_reserved": 0, "fusion_lon": 0.0, "fusion_lat": 0.0, "lon": -76.95756933333334, "name": "64b343dd30a156998592f545cef2ef44"}, {"bike_id": "93d5b89f6ea20dcfa57d04d8be4cce42", "type": "electric_scooter", "is_disabled": 0, "lat": 38.902424833333335, "rental_uris": {"ios": "https://dc.lft.to/lastmile_qr_scan", "android": "https://dc.lft.to/lastmile_qr_scan"}, "is_reserved": 0, "fusion_lon": 0.0, "fusion_lat": 0.0, "lon": -76.99626733333334, "name": "93d5b89f6ea20dcfa57d04d8be4cce42"}, {"bike_id": "ce92f8ab08aee1868647cb25e722773c", "type": "electric_scooter", "is_disabled": 0, "lat": 38.9072645, "rental_uris": {"ios": "https://dc.lft.to/lastmile_qr_scan", "android": "https://dc.lft.to/lastmile_qr_scan"}, "is_reserved": 0, "fusion_lon": 0.0, "fusion_lat": 0.0, "lon": -77.0402775, "name": "ce92f8ab08aee1868647cb25e722773c"}, {"bike_id": "1301d1a0ab60d88156e6ec5c0b8b1fec", "type": "electric_scooter", "is_disabled": 0, "lat": 38.90150533333333, "rental_uris": {"ios": "https://dc.lft.to/lastmile_qr_scan", "android": "https://dc.lft.to/lastmile_qr_scan"}, "is_reserved": 0, "fusion_lon": 0.0, "fusion_lat": 0.0, "lon": -76.990196, "name": "1301d1a0ab60d88156e6ec5c0b8b1fec"}, {"bike_id": "c9dc11dc43225677650cdc364c0d7af7", "type": "electric_scooter", "is_disabled": 0, "lat": 38.899912, "rental_uris": {"ios": "https://dc.lft.to/lastmile_qr_scan", "android": "https://dc.lft.to/lastmile_qr_scan"}, "is_reserved": 0, "fusion_lon": 0.0, "fusion_lat": 0.0, "lon": -77.021472, "name": "c9dc11dc43225677650cdc364c0d7af7"}, {"bike_id": "c407c44748c108c7465c4d3fc770b322", "type": "electric_scooter", "is_disabled": 0, "lat": 38.924857333333335, "rental_uris": {"ios": "https://dc.lft.to/lastmile_qr_scan", "android": "https://dc.lft.to/lastmile_qr_scan"}, "is_reserved": 0, "fusion_lon": 0.0, "fusion_lat": 0.0, "lon": -77.028442, "name": "c407c44748c108c7465c4d3fc770b322"}, {"bike_id": "4d96108c4948fc96e6c724e5e8af3318", "type": "electric_scooter", "is_disabled": 0, "lat": 38.866865833333335, "rental_uris": {"ios": "https://dc.lft.to/lastmile_qr_scan", "android": "https://dc.lft.to/lastmile_qr_scan"}, "is_reserved": 0, "fusion_lon": 0.0, "fusion_lat": 0.0, "lon": -76.98576166666666, "name": "4d96108c4948fc96e6c724e5e8af3318"}, {"bike_id": "1cd587ce005667072a106f1c4de8f645", "type": "electric_scooter", "is_disabled": 0, "lat": 38.918004333333336, "rental_uris": {"ios": "https://dc.lft.to/lastmile_qr_scan", "android": "https://dc.lft.to/lastmile_qr_scan"}, "is_reserved": 0, "fusion_lon": 0.0, "fusion_lat": 0.0, "lon": -77.04014766666667, "name": "1cd587ce005667072a106f1c4de8f645"}, {"bike_id": "69782263b7f1e62073d38b085d1f392b", "type": "electric_scooter", "is_disabled": 0, "lat": 38.93095983333333, "rental_uris": {"ios": "https://dc.lft.to/lastmile_qr_scan", "android": "https://dc.lft.to/lastmile_qr_scan"}, "is_reserved": 0, "fusion_lon": 0.0, "fusion_lat": 0.0, "lon": -77.02565933333334, "name": "69782263b7f1e62073d38b085d1f392b"}, {"bike_id": "5bfb2cb123550ae5b96092940d65f2f5", "type": "electric_scooter", "is_disabled": 0, "lat": 38.866812833333334, "rental_uris": {"ios": "https://dc.lft.to/lastmile_qr_scan", "android": "https://dc.lft.to/lastmile_qr_scan"}, "is_reserved": 0, "fusion_lon": 0.0, "fusion_lat": 0.0, "lon": -76.98573366666666, "name": "5bfb2cb123550ae5b96092940d65f2f5"}, {"bike_id": "2255d64bfee3b88b53a103dca12432a2", "type": "electric_scooter", "is_disabled": 0, "lat": 38.91765, "rental_uris": {"ios": "https://dc.lft.to/lastmile_qr_scan", "android": "https://dc.lft.to/lastmile_qr_scan"}, "is_reserved": 0, "fusion_lon": 0.0, "fusion_lat": 0.0, "lon": -77.045539, "name": "2255d64bfee3b88b53a103dca12432a2"}, {"bike_id": "28cd77d496ad32993d8bd69f8c36eb77", "type": "electric_scooter", "is_disabled": 0, "lat": 38.9084265, "rental_uris": {"ios": "https://dc.lft.to/lastmile_qr_scan", "android": "https://dc.lft.to/lastmile_qr_scan"}, "is_reserved": 0, "fusion_lon": 0.0, "fusion_lat": 0.0, "lon": -77.01287733333334, "name": "28cd77d496ad32993d8bd69f8c36eb77"}, {"bike_id": "79d700e1607d10fa8d310a8168836989", "type": "electric_scooter", "is_disabled": 0, "lat": 38.926045, "rental_uris": {"ios": "https://dc.lft.to/lastmile_qr_scan", "android": "https://dc.lft.to/lastmile_qr_scan"}, "is_reserved": 0, "fusion_lon": 0.0, "fusion_lat": 0.0, "lon": -77.02154816666666, "name": "79d700e1607d10fa8d310a8168836989"}, {"bike_id": "219bf8208c2abd5eaa60bb4eb2bc7919", "type": "electric_scooter", "is_disabled": 0, "lat": 38.9134385, "rental_uris": {"ios": "https://dc.lft.to/lastmile_qr_scan", "android": "https://dc.lft.to/lastmile_qr_scan"}, "is_reserved": 0, "fusion_lon": 0.0, "fusion_lat": 0.0, "lon": -77.02760466666666, "name": "219bf8208c2abd5eaa60bb4eb2bc7919"}, {"bike_id": "5cb6e0f73775e240860969eb707d2ac4", "type": "electric_scooter", "is_disabled": 0, "lat": 38.900201333333335, "rental_uris": {"ios": "https://dc.lft.to/lastmile_qr_scan", "android": "https://dc.lft.to/lastmile_qr_scan"}, "is_reserved": 0, "fusion_lon": 0.0, "fusion_lat": 0.0, "lon": -76.99840316666666, "name": "5cb6e0f73775e240860969eb707d2ac4"}, {"bike_id": "1669b4e42ea7246efda41b412af7abe5", "type": "electric_bike", "is_disabled": 0, "lat": 38.809052666666666, "rental_uris": {"ios": "https://dc.lft.to/lastmile_qr_scan", "android": "https://dc.lft.to/lastmile_qr_scan"}, "is_reserved": 0, "fusion_lon": 0.0, "fusion_lat": 0.0, "lon": -77.08664166666667, "name": "1669b4e42ea7246efda41b412af7abe5"}, {"bike_id": "780cb59880e44827d55072f700096853", "type": "electric_scooter", "is_disabled": 0, "lat": 38.90298383333333, "rental_uris": {"ios": "https://dc.lft.to/lastmile_qr_scan", "android": "https://dc.lft.to/lastmile_qr_scan"}, "is_reserved": 0, "fusion_lon": 0.0, "fusion_lat": 0.0, "lon": -77.00324116666667, "name": "780cb59880e44827d55072f700096853"}, {"bike_id": "6a30089f051e77a538ce777276a4360d", "type": "electric_scooter", "is_disabled": 0, "lat": 38.92268383333333, "rental_uris": {"ios": "https://dc.lft.to/lastmile_qr_scan", "android": "https://dc.lft.to/lastmile_qr_scan"}, "is_reserved": 0, "fusion_lon": 0.0, "fusion_lat": 0.0, "lon": -77.018773, "name": "6a30089f051e77a538ce777276a4360d"}, {"bike_id": "f3222983260c5157e8b81c64d8976fe8", "type": "electric_scooter", "is_disabled": 0, "lat": 38.92090866666667, "rental_uris": {"ios": "https://dc.lft.to/lastmile_qr_scan", "android": "https://dc.lft.to/lastmile_qr_scan"}, "is_reserved": 0, "fusion_lon": 0.0, "fusion_lat": 0.0, "lon": -77.02535216666666, "name": "f3222983260c5157e8b81c64d8976fe8"}, {"bike_id": "938761645881140afd6444ffc7faeceb", "type": "electric_scooter", "is_disabled": 0, "lat": 38.95657666666666, "rental_uris": {"ios": "https://dc.lft.to/lastmile_qr_scan", "android": "https://dc.lft.to/lastmile_qr_scan"}, "is_reserved": 0, "fusion_lon": 0.0, "fusion_lat": 0.0, "lon": -77.01039533333334, "name": "938761645881140afd6444ffc7faeceb"}, {"bike_id": "943ccc6376c98656e4a7e806ca9bfc99", "type": "electric_scooter", "is_disabled": 0, "lat": 38.9285205, "rental_uris": {"ios": "https://dc.lft.to/lastmile_qr_scan", "android": "https://dc.lft.to/lastmile_qr_scan"}, "is_reserved": 0, "fusion_lon": 0.0, "fusion_lat": 0.0, "lon": -77.01948216666666, "name": "943ccc6376c98656e4a7e806ca9bfc99"}, {"bike_id": "a215df796d708da89b9a8080f5475f83", "type": "electric_scooter", "is_disabled": 0, "lat": 38.90156566666667, "rental_uris": {"ios": "https://dc.lft.to/lastmile_qr_scan", "android": "https://dc.lft.to/lastmile_qr_scan"}, "is_reserved": 0, "fusion_lon": 0.0, "fusion_lat": 0.0, "lon": -77.01516116666667, "name": "a215df796d708da89b9a8080f5475f83"}, {"bike_id": "65af2989a3acf861df6242aa7d2effa2", "type": "electric_scooter", "is_disabled": 0, "lat": 38.9068145, "rental_uris": {"ios": "https://dc.lft.to/lastmile_qr_scan", "android": "https://dc.lft.to/lastmile_qr_scan"}, "is_reserved": 0, "fusion_lon": 0.0, "fusion_lat": 0.0, "lon": -77.0532825, "name": "65af2989a3acf861df6242aa7d2effa2"}, {"bike_id": "5f6c8c9ee21a6d852db3aa6a48f7fc3f", "type": "electric_scooter", "is_disabled": 0, "lat": 38.91115583333333, "rental_uris": {"ios": "https://dc.lft.to/lastmile_qr_scan", "android": "https://dc.lft.to/lastmile_qr_scan"}, "is_reserved": 0, "fusion_lon": 0.0, "fusion_lat": 0.0, "lon": -77.02235933333333, "name": "5f6c8c9ee21a6d852db3aa6a48f7fc3f"}, {"bike_id": "2eb92b54075a907bdae641e2ac34c3fe", "type": "electric_scooter", "is_disabled": 0, "lat": 38.9215385, "rental_uris": {"ios": "https://dc.lft.to/lastmile_qr_scan", "android": "https://dc.lft.to/lastmile_qr_scan"}, "is_reserved": 0, "fusion_lon": 0.0, "fusion_lat": 0.0, "lon": -77.0353045, "name": "2eb92b54075a907bdae641e2ac34c3fe"}, {"bike_id": "3012c7a734959f8245d4e2e6c79d8ef8", "type": "electric_scooter", "is_disabled": 0, "lat": 38.90810783333333, "rental_uris": {"ios": "https://dc.lft.to/lastmile_qr_scan", "android": "https://dc.lft.to/lastmile_qr_scan"}, "is_reserved": 0, "fusion_lon": 0.0, "fusion_lat": 0.0, "lon": -77.063764, "name": "3012c7a734959f8245d4e2e6c79d8ef8"}, {"bike_id": "931ea2fad279337eeb4f3f963ba7ae6d", "type": "electric_scooter", "is_disabled": 0, "lat": 38.935220666666666, "rental_uris": {"ios": "https://dc.lft.to/lastmile_qr_scan", "android": "https://dc.lft.to/lastmile_qr_scan"}, "is_reserved": 0, "fusion_lon": 0.0, "fusion_lat": 0.0, "lon": -77.0308215, "name": "931ea2fad279337eeb4f3f963ba7ae6d"}, {"bike_id": "de119db8168f8bf3e5eeb3fd215ed744", "type": "electric_scooter", "is_disabled": 0, "lat": 38.921230666666666, "rental_uris": {"ios": "https://dc.lft.to/lastmile_qr_scan", "android": "https://dc.lft.to/lastmile_qr_scan"}, "is_reserved": 0, "fusion_lon": 0.0, "fusion_lat": 0.0, "lon": -77.0365775, "name": "de119db8168f8bf3e5eeb3fd215ed744"}, {"bike_id": "57fd629b533d72e318f60e6b0e60c872", "type": "electric_scooter", "is_disabled": 0, "lat": 38.902723333333334, "rental_uris": {"ios": "https://dc.lft.to/lastmile_qr_scan", "android": "https://dc.lft.to/lastmile_qr_scan"}, "is_reserved": 0, "fusion_lon": 0.0, "fusion_lat": 0.0, "lon": -77.05813883333333, "name": "57fd629b533d72e318f60e6b0e60c872"}, {"bike_id": "211537f140a818966f8bf0673f68bb7c", "type": "electric_scooter", "is_disabled": 0, "lat": 38.936333166666664, "rental_uris": {"ios": "https://dc.lft.to/lastmile_qr_scan", "android": "https://dc.lft.to/lastmile_qr_scan"}, "is_reserved": 0, "fusion_lon": 0.0, "fusion_lat": 0.0, "lon": -77.058844, "name": "211537f140a818966f8bf0673f68bb7c"}, {"bike_id": "faad73285a9eaf1844b8dfb5f38066c1", "type": "electric_scooter", "is_disabled": 0, "lat": 38.87075033333333, "rental_uris": {"ios": "https://dc.lft.to/lastmile_qr_scan", "android": "https://dc.lft.to/lastmile_qr_scan"}, "is_reserved": 0, "fusion_lon": 0.0, "fusion_lat": 0.0, "lon": -76.98132766666667, "name": "faad73285a9eaf1844b8dfb5f38066c1"}, {"bike_id": "03ec7417e8232a8d7f0603e55fc10383", "type": "electric_scooter", "is_disabled": 0, "lat": 38.926126333333336, "rental_uris": {"ios": "https://dc.lft.to/lastmile_qr_scan", "android": "https://dc.lft.to/lastmile_qr_scan"}, "is_reserved": 0, "fusion_lon": 0.0, "fusion_lat": 0.0, "lon": -77.02162116666666, "name": "03ec7417e8232a8d7f0603e55fc10383"}, {"bike_id": "4536e84069a342ca2dcdf54160464c4c", "type": "electric_scooter", "is_disabled": 0, "lat": 38.933159, "rental_uris": {"ios": "https://dc.lft.to/lastmile_qr_scan", "android": "https://dc.lft.to/lastmile_qr_scan"}, "is_reserved": 0, "fusion_lon": 0.0, "fusion_lat": 0.0, "lon": -77.072363, "name": "4536e84069a342ca2dcdf54160464c4c"}, {"bike_id": "65f109b8921d30923181200082fc7a19", "type": "electric_scooter", "is_disabled": 0, "lat": 38.932506833333335, "rental_uris": {"ios": "https://dc.lft.to/lastmile_qr_scan", "android": "https://dc.lft.to/lastmile_qr_scan"}, "is_reserved": 0, "fusion_lon": 0.0, "fusion_lat": 0.0, "lon": -77.02004283333333, "name": "65f109b8921d30923181200082fc7a19"}, {"bike_id": "5e978bc9bed0948cec53a8756eb89466", "type": "electric_scooter", "is_disabled": 0, "lat": 38.906104, "rental_uris": {"ios": "https://dc.lft.to/lastmile_qr_scan", "android": "https://dc.lft.to/lastmile_qr_scan"}, "is_reserved": 0, "fusion_lon": 0.0, "fusion_lat": 0.0, "lon": -77.04019516666666, "name": "5e978bc9bed0948cec53a8756eb89466"}, {"bike_id": "6bca78e114ab86023723cd37ab3ad385", "type": "electric_bike", "is_disabled": 0, "lat": 39.05504633333334, "rental_uris": {"ios": "https://dc.lft.to/lastmile_qr_scan", "android": "https://dc.lft.to/lastmile_qr_scan"}, "is_reserved": 0, "fusion_lon": 0.0, "fusion_lat": 0.0, "lon": -77.0464885, "name": "6bca78e114ab86023723cd37ab3ad385"}, {"bike_id": "94f0cbb84620d8f6fccdd1e5ea5575c5", "type": "electric_bike", "is_disabled": 0, "lat": 38.92966233333333, "rental_uris": {"ios": "https://dc.lft.to/lastmile_qr_scan", "android": "https://dc.lft.to/lastmile_qr_scan"}, "is_reserved": 0, "fusion_lon": 0.0, "fusion_lat": 0.0, "lon": -77.18563916666666, "name": "94f0cbb84620d8f6fccdd1e5ea5575c5"}, {"bike_id": "52dda3b718e946401174e54353a83344", "type": "electric_scooter", "is_disabled": 0, "lat": 38.92870283333333, "rental_uris": {"ios": "https://dc.lft.to/lastmile_qr_scan", "android": "https://dc.lft.to/lastmile_qr_scan"}, "is_reserved": 0, "fusion_lon": 0.0, "fusion_lat": 0.0, "lon": -77.03437466666666, "name": "52dda3b718e946401174e54353a83344"}, {"bike_id": "e7cddf063ef0a0fc789a5e474809c21d", "type": "electric_scooter", "is_disabled": 0, "lat": 38.922532333333336, "rental_uris": {"ios": "https://dc.lft.to/lastmile_qr_scan", "android": "https://dc.lft.to/lastmile_qr_scan"}, "is_reserved": 0, "fusion_lon": 0.0, "fusion_lat": 0.0, "lon": -77.0329785, "name": "e7cddf063ef0a0fc789a5e474809c21d"}, {"bike_id": "18d10258b882242648174aa6914e0254", "type": "electric_scooter", "is_disabled": 0, "lat": 38.92805883333333, "rental_uris": {"ios": "https://dc.lft.to/lastmile_qr_scan", "android": "https://dc.lft.to/lastmile_qr_scan"}, "is_reserved": 0, "fusion_lon": 0.0, "fusion_lat": 0.0, "lon": -77.02692516666667, "name": "18d10258b882242648174aa6914e0254"}, {"bike_id": "b916b932bbbe2665a329afe0080ed277", "type": "electric_scooter", "is_disabled": 0, "lat": 38.91411383333333, "rental_uris": {"ios": "https://dc.lft.to/lastmile_qr_scan", "android": "https://dc.lft.to/lastmile_qr_scan"}, "is_reserved": 0, "fusion_lon": 0.0, "fusion_lat": 0.0, "lon": -77.02248966666667, "name": "b916b932bbbe2665a329afe0080ed277"}, {"bike_id": "dc3db6d5b1aeb2dfab8a9b54eb02718b", "type": "electric_scooter", "is_disabled": 0, "lat": 38.91194316666667, "rental_uris": {"ios": "https://dc.lft.to/lastmile_qr_scan", "android": "https://dc.lft.to/lastmile_qr_scan"}, "is_reserved": 0, "fusion_lon": 0.0, "fusion_lat": 0.0, "lon": -77.02989066666666, "name": "dc3db6d5b1aeb2dfab8a9b54eb02718b"}, {"bike_id": "a14f3e54c99df271cc0834e7332c24f3", "type": "electric_scooter", "is_disabled": 0, "lat": 38.90603616666667, "rental_uris": {"ios": "https://dc.lft.to/lastmile_qr_scan", "android": "https://dc.lft.to/lastmile_qr_scan"}, "is_reserved": 0, "fusion_lon": 0.0, "fusion_lat": 0.0, "lon": -77.06300283333333, "name": "a14f3e54c99df271cc0834e7332c24f3"}, {"bike_id": "74b63a5b8831697a6f658a8f7687ddeb", "type": "electric_scooter", "is_disabled": 0, "lat": 38.889889333333336, "rental_uris": {"ios": "https://dc.lft.to/lastmile_qr_scan", "android": "https://dc.lft.to/lastmile_qr_scan"}, "is_reserved": 0, "fusion_lon": 0.0, "fusion_lat": 0.0, "lon": -77.0003935, "name": "74b63a5b8831697a6f658a8f7687ddeb"}, {"bike_id": "fe12df60009f29d79c36d31c92acc1fa", "type": "electric_bike", "is_disabled": 0, "lat": 38.853570500000004, "rental_uris": {"ios": "https://dc.lft.to/lastmile_qr_scan", "android": "https://dc.lft.to/lastmile_qr_scan"}, "is_reserved": 0, "fusion_lon": 0.0, "fusion_lat": 0.0, "lon": -77.08686783333333, "name": "fe12df60009f29d79c36d31c92acc1fa"}, {"bike_id": "efbcfb7da35647a454649f6385f69d87", "type": "electric_scooter", "is_disabled": 0, "lat": 38.89799766666667, "rental_uris": {"ios": "https://dc.lft.to/lastmile_qr_scan", "android": "https://dc.lft.to/lastmile_qr_scan"}, "is_reserved": 0, "fusion_lon": 0.0, "fusion_lat": 0.0, "lon": -77.019017, "name": "efbcfb7da35647a454649f6385f69d87"}, {"bike_id": "9702d0e194f6ee0f614286746f970c82", "type": "electric_scooter", "is_disabled": 0, "lat": 38.8986755, "rental_uris": {"ios": "https://dc.lft.to/lastmile_qr_scan", "android": "https://dc.lft.to/lastmile_qr_scan"}, "is_reserved": 0, "fusion_lon": 0.0, "fusion_lat": 0.0, "lon": -76.94661783333333, "name": "9702d0e194f6ee0f614286746f970c82"}, {"bike_id": "cad55df88d77f6e9cb8681db4b69497e", "type": "electric_scooter", "is_disabled": 0, "lat": 38.86504733333334, "rental_uris": {"ios": "https://dc.lft.to/lastmile_qr_scan", "android": "https://dc.lft.to/lastmile_qr_scan"}, "is_reserved": 0, "fusion_lon": 0.0, "fusion_lat": 0.0, "lon": -76.99004383333333, "name": "cad55df88d77f6e9cb8681db4b69497e"}, {"bike_id": "6a72079faf1b569d53b36588f0f5278e", "type": "electric_scooter", "is_disabled": 0, "lat": 38.917736166666664, "rental_uris": {"ios": "https://dc.lft.to/lastmile_qr_scan", "android": "https://dc.lft.to/lastmile_qr_scan"}, "is_reserved": 0, "fusion_lon": 0.0, "fusion_lat": 0.0, "lon": -77.03654216666666, "name": "6a72079faf1b569d53b36588f0f5278e"}, {"bike_id": "064860e9f6116fc8409a8af5a1a1daac", "type": "electric_scooter", "is_disabled": 0, "lat": 38.919185166666665, "rental_uris": {"ios": "https://dc.lft.to/lastmile_qr_scan", "android": "https://dc.lft.to/lastmile_qr_scan"}, "is_reserved": 0, "fusion_lon": 0.0, "fusion_lat": 0.0, "lon": -77.03423783333334, "name": "064860e9f6116fc8409a8af5a1a1daac"}, {"bike_id": "5e7eb14d9d824b63b6006f1da0f42ed3", "type": "electric_scooter", "is_disabled": 0, "lat": 38.91555816666666, "rental_uris": {"ios": "https://dc.lft.to/lastmile_qr_scan", "android": "https://dc.lft.to/lastmile_qr_scan"}, "is_reserved": 0, "fusion_lon": 0.0, "fusion_lat": 0.0, "lon": -77.03440133333334, "name": "5e7eb14d9d824b63b6006f1da0f42ed3"}, {"bike_id": "b4351a708f04ed44838ce9adabc712d0", "type": "electric_scooter", "is_disabled": 0, "lat": 38.9024635, "rental_uris": {"ios": "https://dc.lft.to/lastmile_qr_scan", "android": "https://dc.lft.to/lastmile_qr_scan"}, "is_reserved": 0, "fusion_lon": 0.0, "fusion_lat": 0.0, "lon": -77.04159466666667, "name": "b4351a708f04ed44838ce9adabc712d0"}, {"bike_id": "4a1013099ce9f920b15ffd4297bfea17", "type": "electric_scooter", "is_disabled": 0, "lat": 38.90025, "rental_uris": {"ios": "https://dc.lft.to/lastmile_qr_scan", "android": "https://dc.lft.to/lastmile_qr_scan"}, "is_reserved": 0, "fusion_lon": 0.0, "fusion_lat": 0.0, "lon": -76.99810283333333, "name": "4a1013099ce9f920b15ffd4297bfea17"}, {"bike_id": "143c2a56aeef155ffabb63dd620c3f1b", "type": "electric_scooter", "is_disabled": 0, "lat": 38.95008116666666, "rental_uris": {"ios": "https://dc.lft.to/lastmile_qr_scan", "android": "https://dc.lft.to/lastmile_qr_scan"}, "is_reserved": 0, "fusion_lon": 0.0, "fusion_lat": 0.0, "lon": -77.01558366666667, "name": "143c2a56aeef155ffabb63dd620c3f1b"}, {"bike_id": "dc53d1013af46795651f736d8ad19898", "type": "electric_scooter", "is_disabled": 0, "lat": 38.956634, "rental_uris": {"ios": "https://dc.lft.to/lastmile_qr_scan", "android": "https://dc.lft.to/lastmile_qr_scan"}, "is_reserved": 0, "fusion_lon": 0.0, "fusion_lat": 0.0, "lon": -77.02401116666667, "name": "dc53d1013af46795651f736d8ad19898"}, {"bike_id": "df379b80d358dde269b6064073e989bb", "type": "electric_scooter", "is_disabled": 0, "lat": 38.90462683333333, "rental_uris": {"ios": "https://dc.lft.to/lastmile_qr_scan", "android": "https://dc.lft.to/lastmile_qr_scan"}, "is_reserved": 0, "fusion_lon": 0.0, "fusion_lat": 0.0, "lon": -77.06615483333333, "name": "df379b80d358dde269b6064073e989bb"}, {"bike_id": "c220830b20977a0ff8118637355f14ba", "type": "electric_scooter", "is_disabled": 0, "lat": 38.901299333333334, "rental_uris": {"ios": "https://dc.lft.to/lastmile_qr_scan", "android": "https://dc.lft.to/lastmile_qr_scan"}, "is_reserved": 0, "fusion_lon": 0.0, "fusion_lat": 0.0, "lon": -77.01836816666666, "name": "c220830b20977a0ff8118637355f14ba"}, {"bike_id": "2910a9ff96633444a2cbf4bc1b77fdf3", "type": "electric_scooter", "is_disabled": 0, "lat": 38.89007633333333, "rental_uris": {"ios": "https://dc.lft.to/lastmile_qr_scan", "android": "https://dc.lft.to/lastmile_qr_scan"}, "is_reserved": 0, "fusion_lon": 0.0, "fusion_lat": 0.0, "lon": -76.9374475, "name": "2910a9ff96633444a2cbf4bc1b77fdf3"}, {"bike_id": "e3945f2b2c56bfd65a2b1921977c0cd5", "type": "electric_scooter", "is_disabled": 0, "lat": 38.923234, "rental_uris": {"ios": "https://dc.lft.to/lastmile_qr_scan", "android": "https://dc.lft.to/lastmile_qr_scan"}, "is_reserved": 0, "fusion_lon": 0.0, "fusion_lat": 0.0, "lon": -77.03884266666667, "name": "e3945f2b2c56bfd65a2b1921977c0cd5"}, {"bike_id": "780c94b27db416de3c8d236583be5d65", "type": "electric_scooter", "is_disabled": 0, "lat": 38.92316183333333, "rental_uris": {"ios": "https://dc.lft.to/lastmile_qr_scan", "android": "https://dc.lft.to/lastmile_qr_scan"}, "is_reserved": 0, "fusion_lon": 0.0, "fusion_lat": 0.0, "lon": -77.03914616666667, "name": "780c94b27db416de3c8d236583be5d65"}, {"bike_id": "aeaf0cdf32b4269407d7339053936103", "type": "electric_scooter", "is_disabled": 0, "lat": 38.86246633333333, "rental_uris": {"ios": "https://dc.lft.to/lastmile_qr_scan", "android": "https://dc.lft.to/lastmile_qr_scan"}, "is_reserved": 0, "fusion_lon": 0.0, "fusion_lat": 0.0, "lon": -76.994996, "name": "aeaf0cdf32b4269407d7339053936103"}, {"bike_id": "d7cc1f55137e66e8a98b8273c1199fef", "type": "electric_scooter", "is_disabled": 0, "lat": 38.8862115, "rental_uris": {"ios": "https://dc.lft.to/lastmile_qr_scan", "android": "https://dc.lft.to/lastmile_qr_scan"}, "is_reserved": 0, "fusion_lon": 0.0, "fusion_lat": 0.0, "lon": -76.9960785, "name": "d7cc1f55137e66e8a98b8273c1199fef"}, {"bike_id": "2061586047e446f3acb9117e27dba6e3", "type": "electric_bike", "is_disabled": 0, "lat": 38.892210166666665, "rental_uris": {"ios": "https://dc.lft.to/lastmile_qr_scan", "android": "https://dc.lft.to/lastmile_qr_scan"}, "is_reserved": 0, "fusion_lon": 0.0, "fusion_lat": 0.0, "lon": -76.970839, "name": "2061586047e446f3acb9117e27dba6e3"}, {"bike_id": "d534d120a6a588814bb207e5b461aaff", "type": "electric_scooter", "is_disabled": 0, "lat": 38.9124705, "rental_uris": {"ios": "https://dc.lft.to/lastmile_qr_scan", "android": "https://dc.lft.to/lastmile_qr_scan"}, "is_reserved": 0, "fusion_lon": 0.0, "fusion_lat": 0.0, "lon": -77.03211516666667, "name": "d534d120a6a588814bb207e5b461aaff"}, {"bike_id": "bf249bef7caba74626533828e16e4512", "type": "electric_scooter", "is_disabled": 0, "lat": 38.8928015, "rental_uris": {"ios": "https://dc.lft.to/lastmile_qr_scan", "android": "https://dc.lft.to/lastmile_qr_scan"}, "is_reserved": 0, "fusion_lon": 0.0, "fusion_lat": 0.0, "lon": -77.02415633333334, "name": "bf249bef7caba74626533828e16e4512"}, {"bike_id": "26905cb54d68c999f7818cd5d2cf2435", "type": "electric_scooter", "is_disabled": 0, "lat": 38.91113633333333, "rental_uris": {"ios": "https://dc.lft.to/lastmile_qr_scan", "android": "https://dc.lft.to/lastmile_qr_scan"}, "is_reserved": 0, "fusion_lon": 0.0, "fusion_lat": 0.0, "lon": -77.03920033333333, "name": "26905cb54d68c999f7818cd5d2cf2435"}, {"bike_id": "620ca64fb2b2c6d61553a82664d49a61", "type": "electric_scooter", "is_disabled": 0, "lat": 38.92370366666667, "rental_uris": {"ios": "https://dc.lft.to/lastmile_qr_scan", "android": "https://dc.lft.to/lastmile_qr_scan"}, "is_reserved": 0, "fusion_lon": 0.0, "fusion_lat": 0.0, "lon": -77.05250016666666, "name": "620ca64fb2b2c6d61553a82664d49a61"}, {"bike_id": "9a9ed365b19bf61b981835e7201d7c29", "type": "electric_scooter", "is_disabled": 0, "lat": 38.9062895, "rental_uris": {"ios": "https://dc.lft.to/lastmile_qr_scan", "android": "https://dc.lft.to/lastmile_qr_scan"}, "is_reserved": 0, "fusion_lon": 0.0, "fusion_lat": 0.0, "lon": -77.01014816666667, "name": "9a9ed365b19bf61b981835e7201d7c29"}, {"bike_id": "1a6c1b88e6ffee704a3f98c817486edb", "type": "electric_scooter", "is_disabled": 0, "lat": 38.92315833333333, "rental_uris": {"ios": "https://dc.lft.to/lastmile_qr_scan", "android": "https://dc.lft.to/lastmile_qr_scan"}, "is_reserved": 0, "fusion_lon": 0.0, "fusion_lat": 0.0, "lon": -77.042051, "name": "1a6c1b88e6ffee704a3f98c817486edb"}, {"bike_id": "95cfd2589e76e6256b859aea449d14be", "type": "electric_scooter", "is_disabled": 0, "lat": 38.9352805, "rental_uris": {"ios": "https://dc.lft.to/lastmile_qr_scan", "android": "https://dc.lft.to/lastmile_qr_scan"}, "is_reserved": 0, "fusion_lon": 0.0, "fusion_lat": 0.0, "lon": -77.02967233333334, "name": "95cfd2589e76e6256b859aea449d14be"}, {"bike_id": "17fa834d0a175cc697497e2c450d4590", "type": "electric_bike", "is_disabled": 0, "lat": 38.952470166666664, "rental_uris": {"ios": "https://dc.lft.to/lastmile_qr_scan", "android": "https://dc.lft.to/lastmile_qr_scan"}, "is_reserved": 0, "fusion_lon": 0.0, "fusion_lat": 0.0, "lon": -76.97674283333333, "name": "17fa834d0a175cc697497e2c450d4590"},