{"data": {"bikes": [{"lat": 38.90572016666667, "fusion_lat": 0.0, "type": "electric_scooter", "bike_id": "98cade4cd3324878cd50ba7f4f354bfa", "is_reserved": 0, "rental_uris": {"ios": "https://dc.lft.to/lastmile_qr_scan", "android": "https://dc.lft.to/lastmile_qr_scan"}, "is_disabled": 0, "lon": -77.0240975, "name": "98cade4cd3324878cd50ba7f4f354bfa", "fusion_lon": 0.0}, {"lat": 38.92659166666667, "fusion_lat": 0.0, "type": "electric_scooter", "bike_id": "700738389cabfc196ce70b33e00491e3", "is_reserved": 0, "rental_uris": {"ios": "https://dc.lft.to/lastmile_qr_scan", "android": "https://dc.lft.to/lastmile_qr_scan"}, "is_disabled": 0, "lon": -77.00871183333334, "name": "700738389cabfc196ce70b33e00491e3", "fusion_lon": 0.0}, {"lat": 38.92331133333333, "fusion_lat": 0.0, "type": "electric_scooter", "bike_id": "31db52b91ab503ca066c3bf15235f09c", "is_reserved": 0, "rental_uris": {"ios": "https://dc.lft.to/lastmile_qr_scan", "android": "https://dc.lft.to/lastmile_qr_scan"}, "is_disabled": 0, "lon": -77.02266033333333, "name": "31db52b91ab503ca066c3bf15235f09c", "fusion_lon": 0.0}, {"lat": 38.90677133333333, "fusion_lat": 0.0, "type": "electric_scooter", "bike_id": "c541e76c62038692cb4e35a0625ea725", "is_reserved": 0, "rental_uris": {"ios": "https://dc.lft.to/lastmile_qr_scan", "android": "https://dc.lft.to/lastmile_qr_scan"}, "is_disabled": 0, "lon": -77.00893083333334, "name": "c541e76c62038692cb4e35a0625ea725", "fusion_lon": 0.0}, {"lat": 39.03875333333333, "fusion_lat": 0.0, "type": "electric_bike", "bike_id": "67966371ed041623d9d6f510875b7d39", "is_reserved": 0, "rental_uris": {"ios": "https://dc.lft.to/lastmile_qr_scan", "android": "https://dc.lft.to/lastmile_qr_scan"}, "is_disabled": 0, "lon": -77.05070166666667, "name": "67966371ed041623d9d6f510875b7d39", "fusion_lon": 0.0}, {"lat": 38.88461183333333, "fusion_lat": 0.0, "type": "electric_scooter", "bike_id": "f651d11356053465ee10d33cd5efcda7", "is_reserved": 0, "rental_uris": {"ios": "https://dc.lft.to/lastmile_qr_scan", "android": "https://dc.lft.to/lastmile_qr_scan"}, "is_disabled": 0, "lon": -76.9574905, "name": "f651d11356053465ee10d33cd5efcda7", "fusion_lon": 0.0}, {"lat": 39.0549465, "fusion_lat": 0.0, "type": "electric_bike", "bike_id": "1d3b02299a8e98f66dd9dffea5a0e63d", "is_reserved": 0, "rental_uris": {"ios": "https://dc.lft.to/lastmile_qr_scan", "android": "https://dc.lft.to/lastmile_qr_scan"}, "is_disabled": 0, "lon": -77.11788916666667, "name": "1d3b02299a8e98f66dd9dffea5a0e63d", "fusion_lon": 0.0}, {"lat": 38.912280333333335, "fusion_lat": 0.0, "type": "electric_scooter", "bike_id": "2e4029739e8419bc3124dd9084d54ed0", "is_reserved": 0, "rental_uris": {"ios": "https://dc.lft.to/lastmile_qr_scan", "android": "https://dc.lft.to/lastmile_qr_scan"}, "is_disabled": 0, "lon": -77.04480016666666, "name": "2e4029739e8419bc3124dd9084d54ed0", "fusion_lon": 0.0}, {"lat": 38.89862433333333, "fusion_lat": 0.0, "type": "electric_scooter", "bike_id": "0a6d305f8c2519a912d9cbe778b4abae", "is_reserved": 0, "rental_uris": {"ios": "https://dc.lft.to/lastmile_qr_scan", "android": "https://dc.lft.to/lastmile_qr_scan"}, "is_disabled": 0, "lon": -77.03956666666667, "name": "0a6d305f8c2519a912d9cbe778b4abae", "fusion_lon": 0.0}, {"lat": 38.89618316666667, "fusion_lat": 0.0, "type": "electric_scooter", "bike_id": "48bfb4eae2e8d928c3f34bc0d9fa8367", "is_reserved": 0, "rental_uris": {"ios": "https://dc.lft.to/lastmile_qr_scan", "android": "https://dc.lft.to/lastmile_qr_scan"}, "is_disabled": 0, "lon": -77.000259, "name": "48bfb4eae2e8d928c3f34bc0d9fa8367", "fusion_lon": 0.0}, {"lat": 38.836104666666664, "fusion_lat": 0.0, "type": "electric_bike", "bike_id": "958d281174b29bd28abb359d7467bc8b", "is_reserved": 0, "rental_uris": {"ios": "https://dc.lft.to/lastmile_qr_scan", "android": "https://dc.lft.to/lastmile_qr_scan"}, "is_disabled": 0, "lon": -77.0038135, "name": "958d281174b29bd28abb359d7467bc8b", "fusion_lon": 0.0}, {"lat": 38.897193, "fusion_lat": 0.0, "type": "electric_scooter", "bike_id": "ea1f3f42832ae7ea988d47c564e430e0", "is_reserved": 0, "rental_uris": {"ios": "https://dc.lft.to/lastmile_qr_scan", "android": "https://dc.lft.to/lastmile_qr_scan"}, "is_disabled": 0, "lon": -77.0248855, "name": "ea1f3f42832ae7ea988d47c564e430e0", "fusion_lon": 0.0}, {"lat": 38.91083833333333, "fusion_lat": 0.0, "type": "electric_scooter", "bike_id": "9516b2552f002323219e7b71eb685d8d", "is_reserved": 0, "rental_uris": {"ios": "https://dc.lft.to/lastmile_qr_scan", "android": "https://dc.lft.to/lastmile_qr_scan"}, "is_disabled": 0, "lon": -77.0738535, "name": "9516b2552f002323219e7b71eb685d8d", "fusion_lon": 0.0}, {"lat": 38.90420833333334, "fusion_lat": 0.0, "type": "electric_scooter", "bike_id": "178ccbc8b96328cc6e89e9febc089333", "is_reserved": 0, "rental_uris": {"ios": "https://dc.lft.to/lastmile_qr_scan", "android": "https://dc.lft.to/lastmile_qr_scan"}, "is_disabled": 0, "lon": -77.0251415, "name": "178ccbc8b96328cc6e89e9febc089333", "fusion_lon": 0.0}, {"lat": 38.909899333333335, "fusion_lat": 0.0, "type": "electric_scooter", "bike_id": "f4cc34c0ed5196d11b867b3715d196d5", "is_reserved": 0, "rental_uris": {"ios": "https://dc.lft.to/lastmile_qr_scan", "android": "https://dc.lft.to/lastmile_qr_scan"}, "is_disabled": 0, "lon": -77.031832, "name": "f4cc34c0ed5196d11b867b3715d196d5", "fusion_lon": 0.0}, {"lat": 38.9027305, "fusion_lat": 0.0, "type": "electric_scooter", "bike_id": "6ffa9e78e85c9a81d3e968f4c086d6e5", "is_reserved": 0, "rental_uris": {"ios": "https://dc.lft.to/lastmile_qr_scan", "android": "https://dc.lft.to/lastmile_qr_scan"}, "is_disabled": 0, "lon": -77.03199666666667, "name": "6ffa9e78e85c9a81d3e968f4c086d6e5", "fusion_lon": 0.0}, {"lat": 38.9085775, "fusion_lat": 0.0, "type": "electric_bike", "bike_id": "2ee4b429a43833130bfdfff5c0b79fe9", "is_reserved": 0, "rental_uris": {"ios": "https://dc.lft.to/lastmile_qr_scan", "android": "https://dc.lft.to/lastmile_qr_scan"}, "is_disabled": 0, "lon": -76.99138283333333, "name": "2ee4b429a43833130bfdfff5c0b79fe9", "fusion_lon": 0.0}, {"lat": 38.900174, "fusion_lat": 0.0, "type": "electric_scooter", "bike_id": "06b3e9242bf3ef6847e5bd03e87e6212", "is_reserved": 0, "rental_uris": {"ios": "https://dc.lft.to/lastmile_qr_scan", "android": "https://dc.lft.to/lastmile_qr_scan"}, "is_disabled": 0, "lon": -77.02380733333334, "name": "06b3e9242bf3ef6847e5bd03e87e6212", "fusion_lon": 0.0}, {"lat": 38.909348333333334, "fusion_lat": 0.0, "type": "electric_scooter", "bike_id": "b62be55d3e15d29fe6e8986bbb9a0d4c", "is_reserved": 0, "rental_uris": {"ios": "https://dc.lft.to/lastmile_qr_scan", "android": "https://dc.lft.to/lastmile_qr_scan"}, "is_disabled": 0, "lon": -77.04480983333333, "name": "b62be55d3e15d29fe6e8986bbb9a0d4c", "fusion_lon": 0.0}, {"lat": 38.9214555, "fusion_lat": 0.0, "type": "electric_scooter", "bike_id": "95066fb560a08095a1a53effaec00427", "is_reserved": 0, "rental_uris": {"ios": "https://dc.lft.to/lastmile_qr_scan", "android": "https://dc.lft.to/lastmile_qr_scan"}, "is_disabled": 0, "lon": -77.018179, "name": "95066fb560a08095a1a53effaec00427", "fusion_lon": 0.0}, {"lat": 38.890465166666665, "fusion_lat": 0.0, "type": "electric_scooter", "bike_id": "61aa57df1b8e72ba9651f9977d3dfe76", "is_reserved": 0, "rental_uris": {"ios": "https://dc.lft.to/lastmile_qr_scan", "android": "https://dc.lft.to/lastmile_qr_scan"}, "is_disabled": 0, "lon": -76.95137166666666, "name": "61aa57df1b8e72ba9651f9977d3dfe76", "fusion_lon": 0.0}, {"lat": 38.872996666666666, "fusion_lat": 0.0, "type": "electric_bike", "bike_id": "6deb9827738b1c76e8c7305888ae5ac5", "is_reserved": 0, "rental_uris": {"ios": "https://dc.lft.to/lastmile_qr_scan", "android": "https://dc.lft.to/lastmile_qr_scan"}, "is_disabled": 0, "lon": -76.96980066666667, "name": "6deb9827738b1c76e8c7305888ae5ac5", "fusion_lon": 0.0}, {"lat": 38.916925, "fusion_lat": 0.0, "type": "electric_scooter", "bike_id": "efc68ed6b3dda878999a699198ba8a1a", "is_reserved": 0, "rental_uris": {"ios": "https://dc.lft.to/lastmile_qr_scan", "android": "https://dc.lft.to/lastmile_qr_scan"}, "is_disabled": 0, "lon": -77.03496916666667, "name": "efc68ed6b3dda878999a699198ba8a1a", "fusion_lon": 0.0}, {"lat": 38.911634166666666, "fusion_lat": 0.0, "type": "electric_scooter", "bike_id": "0d1c96a9fe87caa52db1da395086d733", "is_reserved": 0, "rental_uris": {"ios": "https://dc.lft.to/lastmile_qr_scan", "android": "https://dc.lft.to/lastmile_qr_scan"}, "is_disabled": 0, "lon": -77.0018665, "name": "0d1c96a9fe87caa52db1da395086d733", "fusion_lon": 0.0}, {"lat": 38.91566183333333, "fusion_lat": 0.0, "type": "electric_scooter", "bike_id": "99749bf9d83ddaec2d4b7bae82897d30", "is_reserved": 0, "rental_uris": {"ios": "https://dc.lft.to/lastmile_qr_scan", "android": "https://dc.lft.to/lastmile_qr_scan"}, "is_disabled": 0, "lon": -77.03171583333334, "name": "99749bf9d83ddaec2d4b7bae82897d30", "fusion_lon": 0.0}, {"lat": 38.8782215, "fusion_lat": 0.0, "type": "electric_scooter", "bike_id": "29f8615d3a92cc635c757a46a81c4757", "is_reserved": 0, "rental_uris": {"ios": "https://dc.lft.to/lastmile_qr_scan", "android": "https://dc.lft.to/lastmile_qr_scan"}, "is_disabled": 0, "lon": -76.93104483333333, "name": "29f8615d3a92cc635c757a46a81c4757", "fusion_lon": 0.0}, {"lat": 38.90410833333333, "fusion_lat": 0.0, "type": "electric_scooter", "bike_id": "0e4f8a0b313ce45be17869ef526aa7e9", "is_reserved": 0, "rental_uris": {"ios": "https://dc.lft.to/lastmile_qr_scan", "android": "https://dc.lft.to/lastmile_qr_scan"}, "is_disabled": 0, "lon": -76.973294, "name": "0e4f8a0b313ce45be17869ef526aa7e9", "fusion_lon": 0.0}, {"lat": 38.871794333333334, "fusion_lat": 0.0, "type": "electric_scooter", "bike_id": "535f97f338c6b6f9ee7a6d2c7ccafe83", "is_reserved": 0, "rental_uris": {"ios": "https://dc.lft.to/lastmile_qr_scan", "android": "https://dc.lft.to/lastmile_qr_scan"}, "is_disabled": 0, "lon": -77.00614716666666, "name": "535f97f338c6b6f9ee7a6d2c7ccafe83", "fusion_lon": 0.0}, {"lat": 38.887453, "fusion_lat": 0.0, "type": "electric_scooter", "bike_id": "e6709492daab75305193284059391942", "is_reserved": 0, "rental_uris": {"ios": "https://dc.lft.to/lastmile_qr_scan", "android": "https://dc.lft.to/lastmile_qr_scan"}, "is_disabled": 0, "lon": -77.02844033333334, "name": "e6709492daab75305193284059391942", "fusion_lon": 0.0}, {"lat": 38.8884865, "fusion_lat": 0.0, "type": "electric_scooter", "bike_id": "d304b68faf3c1dae5ad9bb73703db4b5", "is_reserved": 0, "rental_uris": {"ios": "https://dc.lft.to/lastmile_qr_scan", "android": "https://dc.lft.to/lastmile_qr_scan"}, "is_disabled": 0, "lon": -76.92684866666667, "name": "d304b68faf3c1dae5ad9bb73703db4b5", "fusion_lon": 0.0}, {"lat": 38.90739116666666, "fusion_lat": 0.0, "type": "electric_scooter", "bike_id": "7bd1cec5c593ff7df7e43a2b5ff4a215", "is_reserved": 0, "rental_uris": {"ios": "https://dc.lft.to/lastmile_qr_scan", "android": "https://dc.lft.to/lastmile_qr_scan"}, "is_disabled": 0, "lon": -77.00928516666667, "name": "7bd1cec5c593ff7df7e43a2b5ff4a215", "fusion_lon": 0.0}, {"lat": 38.9183755, "fusion_lat": 0.0, "type": "electric_scooter", "bike_id": "0070d9291b74690b7cf9a7d1faa25fe3", "is_reserved": 0, "rental_uris": {"ios": "https://dc.lft.to/lastmile_qr_scan", "android": "https://dc.lft.to/lastmile_qr_scan"}, "is_disabled": 0, "lon": -77.040138, "name": "0070d9291b74690b7cf9a7d1faa25fe3", "fusion_lon": 0.0}, {"lat": 38.93652, "fusion_lat": 0.0, "type": "electric_scooter", "bike_id": "35ec46dfcda79d747abfddfef360e61a", "is_reserved": 0, "rental_uris": {"ios": "https://dc.lft.to/lastmile_qr_scan", "android": "https://dc.lft.to/lastmile_qr_scan"}, "is_disabled": 0, "lon": -77.02638866666666, "name": "35ec46dfcda79d747abfddfef360e61a", "fusion_lon": 0.0}, {"lat": 38.91695833333333, "fusion_lat": 0.0, "type": "electric_scooter", "bike_id": "b26bc1c06974f8d564289af7dd38b98b", "is_reserved": 0, "rental_uris": {"ios": "https://dc.lft.to/lastmile_qr_scan", "android": "https://dc.lft.to/lastmile_qr_scan"}, "is_disabled": 0, "lon": -77.03395133333333, "name": "b26bc1c06974f8d564289af7dd38b98b", "fusion_lon": 0.0}, {"lat": 38.884312333333334, "fusion_lat": 0.0, "type": "electric_scooter", "bike_id": "e16ea0bed25396fa3a0dda79a075124b", "is_reserved": 0, "rental_uris": {"ios": "https://dc.lft.to/lastmile_qr_scan", "android": "https://dc.lft.to/lastmile_qr_scan"}, "is_disabled": 0, "lon": -76.95743316666666, "name": "e16ea0bed25396fa3a0dda79a075124b", "fusion_lon": 0.0}, {"lat": 38.86939066666667, "fusion_lat": 0.0, "type": "electric_bike", "bike_id": "9ae32c99c063638d0516c1388d647a9b", "is_reserved": 0, "rental_uris": {"ios": "https://dc.lft.to/lastmile_qr_scan", "android": "https://dc.lft.to/lastmile_qr_scan"}, "is_disabled": 0, "lon": -77.0946595, "name": "9ae32c99c063638d0516c1388d647a9b", "fusion_lon": 0.0}, {"lat": 38.905124, "fusion_lat": 0.0, "type": "electric_scooter", "bike_id": "de75f171cc6ac9698c11e0dbbfa98ebd", "is_reserved": 0, "rental_uris": {"ios": "https://dc.lft.to/lastmile_qr_scan", "android": "https://dc.lft.to/lastmile_qr_scan"}, "is_disabled": 0, "lon": -77.050933, "name": "de75f171cc6ac9698c11e0dbbfa98ebd", "fusion_lon": 0.0}, {"lat": 38.928686666666664, "fusion_lat": 0.0, "type": "electric_scooter", "bike_id": "07f6300b478692eaa19e2089d789dac3", "is_reserved": 0, "rental_uris": {"ios": "https://dc.lft.to/lastmile_qr_scan", "android": "https://dc.lft.to/lastmile_qr_scan"}, "is_disabled": 0, "lon": -77.028494, "name": "07f6300b478692eaa19e2089d789dac3", "fusion_lon": 0.0}, {"lat": 38.919779, "fusion_lat": 0.0, "type": "electric_scooter", "bike_id": "f63fae81375acefadce75f98b0c3ac66", "is_reserved": 0, "rental_uris": {"ios": "https://dc.lft.to/lastmile_qr_scan", "android": "https://dc.lft.to/lastmile_qr_scan"}, "is_disabled": 0, "lon": -77.01906166666667, "name": "f63fae81375acefadce75f98b0c3ac66", "fusion_lon": 0.0}, {"lat": 38.90706383333333, "fusion_lat": 0.0, "type": "electric_scooter", "bike_id": "a3ae1875c4d194af112d39613830d9c6", "is_reserved": 0, "rental_uris": {"ios": "https://dc.lft.to/lastmile_qr_scan", "android": "https://dc.lft.to/lastmile_qr_scan"}, "is_disabled": 0, "lon": -77.0296495, "name": "a3ae1875c4d194af112d39613830d9c6", "fusion_lon": 0.0}, {"lat": 38.893202, "fusion_lat": 0.0, "type": "electric_scooter", "bike_id": "d786f427feaba2ddf332d3a8a79b810a", "is_reserved": 0, "rental_uris": {"ios": "https://dc.lft.to/lastmile_qr_scan", "android": "https://dc.lft.to/lastmile_qr_scan"}, "is_disabled": 0, "lon": -77.05004616666666, "name": "d786f427feaba2ddf332d3a8a79b810a", "fusion_lon": 0.0}, {"lat": 38.959131, "fusion_lat": 0.0, "type": "electric_bike", "bike_id": "14246a1738153df33aaba3948d5b2e75", "is_reserved": 0, "rental_uris": {"ios": "https://dc.lft.to/lastmile_qr_scan", "android": "https://dc.lft.to/lastmile_qr_scan"}, "is_disabled": 0, "lon": -77.08481916666666, "name": "14246a1738153df33aaba3948d5b2e75", "fusion_lon": 0.0}, {"lat": 38.91861733333333, "fusion_lat": 0.0, "type": "electric_scooter", "bike_id": "bd2850cf1b096021e531e24ef9d758ce", "is_reserved": 0, "rental_uris": {"ios": "https://dc.lft.to/lastmile_qr_scan", "android": "https://dc.lft.to/lastmile_qr_scan"}, "is_disabled": 0, "lon": -77.040418, "name": "bd2850cf1b096021e531e24ef9d758ce", "fusion_lon": 0.0}, {"lat": 38.883709833333334, "fusion_lat": 0.0, "type": "electric_scooter", "bike_id": "1155070f5212b4afecb623bcb8f2b39e", "is_reserved": 0, "rental_uris": {"ios": "https://dc.lft.to/lastmile_qr_scan", "android": "https://dc.lft.to/lastmile_qr_scan"}, "is_disabled": 0, "lon": -76.99519683333334, "name": "1155070f5212b4afecb623bcb8f2b39e", "fusion_lon": 0.0}, {"lat": 38.885997833333334, "fusion_lat": 0.0, "type": "electric_scooter", "bike_id": "e0ce13e9daf051d4815b3c6ba6b2025c", "is_reserved": 0, "rental_uris": {"ios": "https://dc.lft.to/lastmile_qr_scan", "android": "https://dc.lft.to/lastmile_qr_scan"}, "is_disabled": 0, "lon": -77.01915716666667, "name": "e0ce13e9daf051d4815b3c6ba6b2025c", "fusion_lon": 0.0}, {"lat": 38.928709833333336, "fusion_lat": 0.0, "type": "electric_scooter", "bike_id": "7b4660c8ea09b2b0d9d1f1256901bc77", "is_reserved": 0, "rental_uris": {"ios": "https://dc.lft.to/lastmile_qr_scan", "android": "https://dc.lft.to/lastmile_qr_scan"}, "is_disabled": 0, "lon": -77.0215625, "name": "7b4660c8ea09b2b0d9d1f1256901bc77", "fusion_lon": 0.0}, {"lat": 38.9194915, "fusion_lat": 0.0, "type": "electric_scooter", "bike_id": "9d9e5d4a5df83c2acfabdeae52d18c03", "is_reserved": 0, "rental_uris": {"ios": "https://dc.lft.to/lastmile_qr_scan", "android": "https://dc.lft.to/lastmile_qr_scan"}, "is_disabled": 0, "lon": -77.04161783333333, "name": "9d9e5d4a5df83c2acfabdeae52d18c03", "fusion_lon": 0.0}, {"lat": 38.900157666666665, "fusion_lat": 0.0, "type": "electric_scooter", "bike_id": "9ec959ae7ccebec0cdbc285a7caa1f14", "is_reserved": 0, "rental_uris": {"ios": "https://dc.lft.to/lastmile_qr_scan", "android": "https://dc.lft.to/lastmile_qr_scan"}, "is_disabled": 0, "lon": -77.00683483333333, "name": "9ec959ae7ccebec0cdbc285a7caa1f14", "fusion_lon": 0.0}, {"lat": 38.918643, "fusion_lat": 0.0, "type": "electric_scooter", "bike_id": "5469492ecc8ac1f59f7bf31303055614", "is_reserved": 0, "rental_uris": {"ios": "https://dc.lft.to/lastmile_qr_scan", "android": "https://dc.lft.to/lastmile_qr_scan"}, "is_disabled": 0, "lon": -77.040387, "name": "5469492ecc8ac1f59f7bf31303055614", "fusion_lon": 0.0}, {"lat": 38.916970666666664, "fusion_lat": 0.0, "type": "electric_scooter", "bike_id": "93960207205119396ba001347c5a5404", "is_reserved": 0, "rental_uris": {"ios": "https://dc.lft.to/lastmile_qr_scan", "android": "https://dc.lft.to/lastmile_qr_scan"}, "is_disabled": 0, "lon": -77.0116145, "name": "93960207205119396ba001347c5a5404", "fusion_lon": 0.0}, {"lat": 38.90500766666667, "fusion_lat": 0.0, "type": "electric_scooter", "bike_id": "efc50c61b61d4b0241594461457fb92e", "is_reserved": 0, "rental_uris": {"ios": "https://dc.lft.to/lastmile_qr_scan", "android": "https://dc.lft.to/lastmile_qr_scan"}, "is_disabled": 0, "lon": -77.06014333333333, "name": "efc50c61b61d4b0241594461457fb92e", "fusion_lon": 0.0}, {"lat": 38.85436466666667, "fusion_lat": 0.0, "type": "electric_bike", "bike_id": "22382669514c5117c051b26745fd593c", "is_reserved": 0, "rental_uris": {"ios": "https://dc.lft.to/lastmile_qr_scan", "android": "https://dc.lft.to/lastmile_qr_scan"}, "is_disabled": 0, "lon": -77.08305733333333, "name": "22382669514c5117c051b26745fd593c", "fusion_lon": 0.0}, {"lat": 38.918402, "fusion_lat": 0.0, "type": "electric_scooter", "bike_id": "edd33b19c30c6bb3fd672c6b4c1b16b3", "is_reserved": 0, "rental_uris": {"ios": "https://dc.lft.to/lastmile_qr_scan", "android": "https://dc.lft.to/lastmile_qr_scan"}, "is_disabled": 0, "lon": -77.0318705, "name": "edd33b19c30c6bb3fd672c6b4c1b16b3", "fusion_lon": 0.0}, {"lat": 38.908258333333336, "fusion_lat": 0.0, "type": "electric_scooter", "bike_id": "afa560cd12d0eb8762dc32d553c617de", "is_reserved": 0, "rental_uris": {"ios": "https://dc.lft.to/lastmile_qr_scan", "android": "https://dc.lft.to/lastmile_qr_scan"}, "is_disabled": 0, "lon": -76.9415915, "name": "afa560cd12d0eb8762dc32d553c617de", "fusion_lon": 0.0}, {"lat": 38.90164816666667, "fusion_lat": 0.0, "type": "electric_scooter", "bike_id": "17072db8e69131bcbe2ffecb6c892f9f", "is_reserved": 0, "rental_uris": {"ios": "https://dc.lft.to/lastmile_qr_scan", "android": "https://dc.lft.to/lastmile_qr_scan"}, "is_disabled": 0, "lon": -77.059908, "name": "17072db8e69131bcbe2ffecb6c892f9f", "fusion_lon": 0.0}, {"lat": 38.964741333333336, "fusion_lat": 0.0, "type": "electric_bike", "bike_id": "1ecf6d2c9bd90d4709b992f172fb9ab4", "is_reserved": 0, "rental_uris": {"ios": "https://dc.lft.to/lastmile_qr_scan", "android": "https://dc.lft.to/lastmile_qr_scan"}, "is_disabled": 0, "lon": -77.03557933333333, "name": "1ecf6d2c9bd90d4709b992f172fb9ab4", "fusion_lon": 0.0}, {"lat": 38.907537, "fusion_lat": 0.0, "type": "electric_scooter", "bike_id": "be169c898c1291eb64a063084a18ced0", "is_reserved": 0, "rental_uris": {"ios": "https://dc.lft.to/lastmile_qr_scan", "android": "https://dc.lft.to/lastmile_qr_scan"}, "is_disabled": 0, "lon": -77.03463733333334, "name": "be169c898c1291eb64a063084a18ced0", "fusion_lon": 0.0}, {"lat": 38.928930666666666, "fusion_lat": 0.0, "type": "electric_scooter", "bike_id": "b42dfd4639b87f2cf6578d37dd202cf4", "is_reserved": 0, "rental_uris": {"ios": "https://dc.lft.to/lastmile_qr_scan", "android": "https://dc.lft.to/lastmile_qr_scan"}, "is_disabled": 0, "lon": -77.0165575, "name": "b42dfd4639b87f2cf6578d37dd202cf4", "fusion_lon": 0.0}, {"lat": 38.872780166666665, "fusion_lat": 0.0, "type": "electric_bike", "bike_id": "a7de6a7b3633a6f315233674294e59a0", "is_reserved": 0, "rental_uris": {"ios": "https://dc.lft.to/lastmile_qr_scan", "android": "https://dc.lft.to/lastmile_qr_scan"}, "is_disabled": 0, "lon": -77.23331583333334, "name": "a7de6a7b3633a6f315233674294e59a0", "fusion_lon": 0.0}, {"lat": 38.90001633333333, "fusion_lat": 0.0, "type": "electric_scooter", "bike_id": "07027c1d123a103396687916a3783823", "is_reserved": 0, "rental_uris": {"ios": "https://dc.lft.to/lastmile_qr_scan", "android": "https://dc.lft.to/lastmile_qr_scan"}, "is_disabled": 0, "lon": -77.00676683333333, "name": "07027c1d123a103396687916a3783823", "fusion_lon": 0.0}, {"lat": 38.90755633333333, "fusion_lat": 0.0, "type": "electric_scooter", "bike_id": "5d5cf59e5fdc450c3198d03f167e804a", "is_reserved": 0, "rental_uris": {"ios": "https://dc.lft.to/lastmile_qr_scan", "android": "https://dc.lft.to/lastmile_qr_scan"}, "is_disabled": 0, "lon": -77.03193483333334, "name": "5d5cf59e5fdc450c3198d03f167e804a", "fusion_lon": 0.0}, {"lat": 38.927184833333335, "fusion_lat": 0.0, "type": "electric_scooter", "bike_id": "558ba5cdf1ae99b25c0da777376ed215", "is_reserved": 0, "rental_uris": {"ios": "https://dc.lft.to/lastmile_qr_scan", "android": "https://dc.lft.to/lastmile_qr_scan"}, "is_disabled": 0, "lon": -77.03990166666667, "name": "558ba5cdf1ae99b25c0da777376ed215", "fusion_lon": 0.0}, {"lat": 38.9109475, "fusion_lat": 0.0, "type": "electric_scooter", "bike_id": "cc44341950554d8aeba16236da17393f", "is_reserved": 0, "rental_uris": {"ios": "https://dc.lft.to/lastmile_qr_scan", "android": "https://dc.lft.to/lastmile_qr_scan"}, "is_disabled": 0, "lon": -77.03837316666667, "name": "cc44341950554d8aeba16236da17393f", "fusion_lon": 0.0}, {"lat": 38.89770433333333, "fusion_lat": 0.0, "type": "electric_scooter", "bike_id": "42fc3b29e3581f1db85c58237a6a0b8c", "is_reserved": 0, "rental_uris": {"ios": "https://dc.lft.to/lastmile_qr_scan", "android": "https://dc.lft.to/lastmile_qr_scan"}, "is_disabled": 0, "lon": -77.0120205, "name": "42fc3b29e3581f1db85c58237a6a0b8c", "fusion_lon": 0.0}, {"lat": 38.913777833333334, "fusion_lat": 0.0, "type": "electric_scooter", "bike_id": "144f40e7e1b3f5f3e2f4a7ca8e6a246d", "is_reserved": 0, "rental_uris": {"ios": "https://dc.lft.to/lastmile_qr_scan", "android": "https://dc.lft.to/lastmile_qr_scan"}, "is_disabled": 0, "lon": -77.04136816666667, "name": "144f40e7e1b3f5f3e2f4a7ca8e6a246d", "fusion_lon": 0.0}, {"lat": 38.88062266666667, "fusion_lat": 0.0, "type": "electric_bike", "bike_id": "78899896721246f42dbace9257a16a18", "is_reserved": 0, "rental_uris": {"ios": "https://dc.lft.to/lastmile_qr_scan", "android": "https://dc.lft.to/lastmile_qr_scan"}, "is_disabled": 0, "lon": -76.9623635, "name": "78899896721246f42dbace9257a16a18", "fusion_lon": 0.0}, {"lat": 38.9049335, "fusion_lat": 0.0, "type": "electric_scooter", "bike_id": "ea9cd946bdb4bc5ce0f9dc56749214c5", "is_reserved": 0, "rental_uris": {"ios": "https://dc.lft.to/lastmile_qr_scan", "android": "https://dc.lft.to/lastmile_qr_scan"}, "is_disabled": 0, "lon": -77.0383655, "name": "ea9cd946bdb4bc5ce0f9dc56749214c5", "fusion_lon": 0.0}, {"lat": 38.923199833333335, "fusion_lat": 0.0, "type": "electric_scooter", "bike_id": "78c3043e9a145878a082d8c07d2c998b", "is_reserved": 0, "rental_uris": {"ios": "https://dc.lft.to/lastmile_qr_scan", "android": "https://dc.lft.to/lastmile_qr_scan"}, "is_disabled": 0, "lon": -77.02755916666666, "name": "78c3043e9a145878a082d8c07d2c998b", "fusion_lon": 0.0}, {"lat": 38.914158666666665, "fusion_lat": 0.0, "type": "electric_scooter", "bike_id": "435f43355eb2b0863cdce591a8fbecda", "is_reserved": 0, "rental_uris": {"ios": "https://dc.lft.to/lastmile_qr_scan", "android": "https://dc.lft.to/lastmile_qr_scan"}, "is_disabled": 0, "lon": -77.02104266666667, "name": "435f43355eb2b0863cdce591a8fbecda", "fusion_lon": 0.0}, {"lat": 38.86346283333334, "fusion_lat": 0.0, "type": "electric_scooter", "bike_id": "9a4d567d38b85ba7d459ed93894f9dbb", "is_reserved": 0, "rental_uris": {"ios": "https://dc.lft.to/lastmile_qr_scan", "android": "https://dc.lft.to/lastmile_qr_scan"}, "is_disabled": 0, "lon": -76.9870495, "name": "9a4d567d38b85ba7d459ed93894f9dbb", "fusion_lon": 0.0}, {"lat": 38.91518683333334, "fusion_lat": 0.0, "type": "electric_scooter", "bike_id": "8c8b961de3d9616d9aef9d03da7c887d", "is_reserved": 0, "rental_uris": {"ios": "https://dc.lft.to/lastmile_qr_scan", "android": "https://dc.lft.to/lastmile_qr_scan"}, "is_disabled": 0, "lon": -77.03189466666667, "name": "8c8b961de3d9616d9aef9d03da7c887d", "fusion_lon": 0.0}, {"lat": 38.915630166666666, "fusion_lat": 0.0, "type": "electric_scooter", "bike_id": "defe37b568a4dc7ce10d12adde917007", "is_reserved": 0, "rental_uris": {"ios": "https://dc.lft.to/lastmile_qr_scan", "android": "https://dc.lft.to/lastmile_qr_scan"}, "is_disabled": 0, "lon": -77.0394665, "name": "defe37b568a4dc7ce10d12adde917007", "fusion_lon": 0.0}, {"lat": 38.8695225, "fusion_lat": 0.0, "type": "electric_scooter", "bike_id": "dc2d36c93f63cc433d16dd1ffc9baba3", "is_reserved": 0, "rental_uris": {"ios": "https://dc.lft.to/lastmile_qr_scan", "android": "https://dc.lft.to/lastmile_qr_scan"}, "is_disabled": 0, "lon": -76.98176416666666, "name": "dc2d36c93f63cc433d16dd1ffc9baba3", "fusion_lon": 0.0}, {"lat": 38.910228000000004, "fusion_lat": 0.0, "type": "electric_scooter", "bike_id": "dd55b8365a1a6bcaa912abae62fe5781", "is_reserved": 0, "rental_uris": {"ios": "https://dc.lft.to/lastmile_qr_scan", "android": "https://dc.lft.to/lastmile_qr_scan"}, "is_disabled": 0, "lon": -76.98616633333333, "name": "dd55b8365a1a6bcaa912abae62fe5781", "fusion_lon": 0.0}, {"lat": 38.9397195, "fusion_lat": 0.0, "type": "electric_bike", "bike_id": "8d4dacc250187e418c979e0cab49aef8", "is_reserved": 0, "rental_uris": {"ios": "https://dc.lft.to/lastmile_qr_scan", "android": "https://dc.lft.to/lastmile_qr_scan"}, "is_disabled": 0, "lon": -77.03759866666667, "name": "8d4dacc250187e418c979e0cab49aef8", "fusion_lon": 0.0}, {"lat": 38.908201166666665, "fusion_lat": 0.0, "type": "electric_scooter", "bike_id": "225957abe198842e22823819b1abf723", "is_reserved": 0, "rental_uris": {"ios": "https://dc.lft.to/lastmile_qr_scan", "android": "https://dc.lft.to/lastmile_qr_scan"}, "is_disabled": 0, "lon": -77.0394595, "name": "225957abe198842e22823819b1abf723", "fusion_lon": 0.0}, {"lat": 38.9161765, "fusion_lat": 0.0, "type": "electric_scooter", "bike_id": "495426b06ea9fdac142a460649acf449", "is_reserved": 0, "rental_uris": {"ios": "https://dc.lft.to/lastmile_qr_scan", "android": "https://dc.lft.to/lastmile_qr_scan"}, "is_disabled": 0, "lon": -77.04853216666666, "name": "495426b06ea9fdac142a460649acf449", "fusion_lon": 0.0}, {"lat": 38.9101625, "fusion_lat": 0.0, "type": "electric_bike", "bike_id": "fd9b8ce88f4dc093bd68655c0cbd710c", "is_reserved": 0, "rental_uris": {"ios": "https://dc.lft.to/lastmile_qr_scan", "android": "https://dc.lft.to/lastmile_qr_scan"}, "is_disabled": 0, "lon": -77.22801416666667, "name": "fd9b8ce88f4dc093bd68655c0cbd710c", "fusion_lon": 0.0}, {"lat": 38.92402833333333, "fusion_lat": 0.0, "type": "electric_scooter", "bike_id": "5449c05ac749db75286b9b06ffb10de9", "is_reserved": 0, "rental_uris": {"ios": "https://dc.lft.to/lastmile_qr_scan", "android": "https://dc.lft.to/lastmile_qr_scan"}, "is_disabled": 0, "lon": -77.02143933333333, "name": "5449c05ac749db75286b9b06ffb10de9", "fusion_lon": 0.0}, {"lat": 38.872888833333334, "fusion_lat": 0.0, "type": "electric_scooter", "bike_id": "8f07ce7656c55c750ca0d4da7c40325b", "is_reserved": 0, "rental_uris": {"ios": "https://dc.lft.to/lastmile_qr_scan", "android": "https://dc.lft.to/lastmile_qr_scan"}, "is_disabled": 0, "lon": -77.0098345, "name": "8f07ce7656c55c750ca0d4da7c40325b", "fusion_lon": 0.0}, {"lat": 38.898371166666664, "fusion_lat": 0.0, "type": "electric_scooter", "bike_id": "606ec56be2d8c4550ea80f27c5f0ea8a", "is_reserved": 0, "rental_uris": {"ios": "https://dc.lft.to/lastmile_qr_scan", "android": "https://dc.lft.to/lastmile_qr_scan"}, "is_disabled": 0, "lon": -77.0333825, "name": "606ec56be2d8c4550ea80f27c5f0ea8a", "fusion_lon": 0.0}, {"lat": 38.8727765, "fusion_lat": 0.0, "type": "electric_bike", "bike_id": "f360268191d909da972149229544b0be", "is_reserved": 0, "rental_uris": {"ios": "https://dc.lft.to/lastmile_qr_scan", "android": "https://dc.lft.to/lastmile_qr_scan"}, "is_disabled": 0, "lon": -77.23315833333334, "name": "f360268191d909da972149229544b0be", "fusion_lon": 0.0}, {"lat": 38.90853466666667, "fusion_lat": 0.0, "type": "electric_scooter", "bike_id": "9c0c55c01901e4dc43b234ff7a6b0f6d", "is_reserved": 0, "rental_uris": {"ios": "https://dc.lft.to/lastmile_qr_scan", "android": "https://dc.lft.to/lastmile_qr_scan"}, "is_disabled": 0, "lon": -77.04920866666667, "name": "9c0c55c01901e4dc43b234ff7a6b0f6d", "fusion_lon": 0.0}, {"lat": 38.90579733333333, "fusion_lat": 0.0, "type": "electric_scooter", "bike_id": "c6332f83f38952a6cd220909bda7c5a7", "is_reserved": 0, "rental_uris": {"ios": "https://dc.lft.to/lastmile_qr_scan", "android": "https://dc.lft.to/lastmile_qr_scan"}, "is_disabled": 0, "lon": -77.03444566666667, "name": "c6332f83f38952a6cd220909bda7c5a7", "fusion_lon": 0.0}, {"lat": 38.91916633333334, "fusion_lat": 0.0, "type": "electric_bike", "bike_id": "157ac00913354964617ff4a6aae14ef5", "is_reserved": 0, "rental_uris": {"ios": "https://dc.lft.to/lastmile_qr_scan", "android": "https://dc.lft.to/lastmile_qr_scan"}, "is_disabled": 0, "lon": -77.020054, "name": "157ac00913354964617ff4a6aae14ef5", "fusion_lon": 0.0}, {"lat": 38.902370833333336, "fusion_lat": 0.0, "type": "electric_scooter", "bike_id": "16a519412ca1579f031751df5f093f67", "is_reserved": 0, "rental_uris": {"ios": "https://dc.lft.to/lastmile_qr_scan", "android": "https://dc.lft.to/lastmile_qr_scan"}, "is_disabled": 0, "lon": -77.04331233333333, "name": "16a519412ca1579f031751df5f093f67", "fusion_lon": 0.0}, {"lat": 38.92236666666667, "fusion_lat": 0.0, "type": "electric_scooter", "bike_id": "55c846cb2ada10e87ee3c7689bdc0356", "is_reserved": 0, "rental_uris": {"ios": "https://dc.lft.to/lastmile_qr_scan", "android": "https://dc.lft.to/lastmile_qr_scan"}, "is_disabled": 0, "lon": -77.033519, "name": "55c846cb2ada10e87ee3c7689bdc0356", "fusion_lon": 0.0}, {"lat": 38.8821335, "fusion_lat": 0.0, "type": "electric_bike", "bike_id": "f8f36b6f23800c3801e5d7dc2293ba0a", "is_reserved": 0, "rental_uris": {"ios": "https://dc.lft.to/lastmile_qr_scan", "android": "https://dc.lft.to/lastmile_qr_scan"}, "is_disabled": 0, "lon": -77.11752683333333, "name": "f8f36b6f23800c3801e5d7dc2293ba0a", "fusion_lon": 0.0}, {"lat": 38.866739833333334, "fusion_lat": 0.0, "type": "electric_scooter", "bike_id": "311b7461922fa4d9ac7023e41c39245f", "is_reserved": 0, "rental_uris": {"ios": "https://dc.lft.to/lastmile_qr_scan", "android": "https://dc.lft.to/lastmile_qr_scan"}, "is_disabled": 0, "lon": -76.9857235, "name": "311b7461922fa4d9ac7023e41c39245f", "fusion_lon": 0.0}, {"lat": 38.98849633333333, "fusion_lat": 0.0, "type": "electric_bike", "bike_id": "a8311247330511212cfdfc31048985cc", "is_reserved": 0, "rental_uris": {"ios": "https://dc.lft.to/lastmile_qr_scan", "android": "https://dc.lft.to/lastmile_qr_scan"}, "is_disabled": 0, "lon": -77.095547, "name": "a8311247330511212cfdfc31048985cc", "fusion_lon": 0.0}, {"lat": 38.905273333333334, "fusion_lat": 0.0, "type": "electric_scooter", "bike_id": "9213bd8b22c9c14f7aa97f65dbe25302", "is_reserved": 0, "rental_uris": {"ios": "https://dc.lft.to/lastmile_qr_scan", "android": "https://dc.lft.to/lastmile_qr_scan"}, "is_disabled": 0, "lon": -77.06528566666667, "name": "9213bd8b22c9c14f7aa97f65dbe25302", "fusion_lon": 0.0}, {"lat": 38.895050166666664, "fusion_lat": 0.0, "type": "electric_scooter", "bike_id": "bb563bb2977104058358ad8003bed17d", "is_reserved": 0, "rental_uris": {"ios": "https://dc.lft.to/lastmile_qr_scan", "android": "https://dc.lft.to/lastmile_qr_scan"}, "is_disabled": 0, "lon": -76.93475383333333, "name": "bb563bb2977104058358ad8003bed17d", "fusion_lon": 0.0}, {"lat": 38.9262265, "fusion_lat": 0.0, "type": "electric_scooter", "bike_id": "9d89bf506c97120e691ade85eaa24ad5", "is_reserved": 0, "rental_uris": {"ios": "https://dc.lft.to/lastmile_qr_scan", "android": "https://dc.lft.to/lastmile_qr_scan"}, "is_disabled": 0, "lon": -77.04313883333333, "name": "9d89bf506c97120e691ade85eaa24ad5", "fusion_lon": 0.0}, {"lat": 38.923286166666664, "fusion_lat": 0.0, "type": "electric_scooter", "bike_id": "2495e7351f26e3c008dd9d7e9bb24274", "is_reserved": 0, "rental_uris": {"ios": "https://dc.lft.to/lastmile_qr_scan", "android": "https://dc.lft.to/lastmile_qr_scan"}, "is_disabled": 0, "lon": -77.0297455, "name": "2495e7351f26e3c008dd9d7e9bb24274", "fusion_lon": 0.0}, {"lat": 38.96961616666667, "fusion_lat": 0.0, "type": "electric_bike", "bike_id": "32fc829857399d2e61a14af739b009cc", "is_reserved": 0, "rental_uris": {"ios": "https://dc.lft.to/lastmile_qr_scan", "android": "https://dc.lft.to/lastmile_qr_scan"}, "is_disabled": 0, "lon": -76.9575015, "name": "32fc829857399d2e61a14af739b009cc", "fusion_lon": 0.0}, {"lat": 38.86475983333333, "fusion_lat": 0.0, "type": "electric_scooter", "bike_id": "6221b195ee31a6b6bdfdb516e4c86e86", "is_reserved": 0, "rental_uris": {"ios": "https://dc.lft.to/lastmile_qr_scan", "android": "https://dc.lft.to/lastmile_qr_scan"}, "is_disabled": 0, "lon": -76.97743516666667, "name": "6221b195ee31a6b6bdfdb516e4c86e86", "fusion_lon": 0.0}, {"lat": 38.897965, "fusion_lat": 0.0, "type": "electric_scooter", "bike_id": "f89478e863c496cd2229e096ca89a4ea", "is_reserved": 0, "rental_uris": {"ios": "https://dc.lft.to/lastmile_qr_scan", "android": "https://dc.lft.to/lastmile_qr_scan"}, "is_disabled": 0, "lon": -77.044966, "name": "f89478e863c496cd2229e096ca89a4ea", "fusion_lon": 0.0}, {"lat": 38.89359133333333, "fusion_lat": 0.0, "type": "electric_scooter", "bike_id": "39de4b7527751aeb8f2ac6c95a8639f0", "is_reserved": 0, "rental_uris": {"ios": "https://dc.lft.to/lastmile_qr_scan", "android": "https://dc.lft.to/lastmile_qr_scan"}, "is_disabled": 0, "lon": -76.94935716666667, "name": "39de4b7527751aeb8f2ac6c95a8639f0", "fusion_lon": 0.0}, {"lat": 38.90840166666667, "fusion_lat": 0.0, "type": "electric_scooter", "bike_id": "c69304167f51c7f9415975d3facb9548", "is_reserved": 0, "rental_uris": {"ios": "https://dc.lft.to/lastmile_qr_scan", "android": "https://dc.lft.to/lastmile_qr_scan"}, "is_disabled": 0, "lon": -77.01271783333334, "name": "c69304167f51c7f9415975d3facb9548", "fusion_lon": 0.0}, {"lat": 38.924161, "fusion_lat": 0.0, "type": "electric_scooter", "bike_id": "719c0aab7f188dccc8e580822c783f56", "is_reserved": 0, "rental_uris": {"ios": "https://dc.lft.to/lastmile_qr_scan", "android": "https://dc.lft.to/lastmile_qr_scan"}, "is_disabled": 0, "lon": -77.02017216666667, "name": "719c0aab7f188dccc8e580822c783f56", "fusion_lon": 0.0}, {"lat": 38.9168445, "fusion_lat": 0.0, "type": "electric_scooter", "bike_id": "0c41ce92f2c430e4fd1160e8f280f145", "is_reserved": 0, "rental_uris": {"ios": "https://dc.lft.to/lastmile_qr_scan", "android": "https://dc.lft.to/lastmile_qr_scan"}, "is_disabled": 0, "lon": -77.027015, "name": "0c41ce92f2c430e4fd1160e8f280f145", "fusion_lon": 0.0}, {"lat": 38.915712, "fusion_lat": 0.0, "type": "electric_scooter", "bike_id": "297a42540be3d94ebfdfa17712123b43", "is_reserved": 0, "rental_uris": {"ios": "https://dc.lft.to/lastmile_qr_scan", "android": "https://dc.lft.to/lastmile_qr_scan"}, "is_disabled": 0, "lon": -77.0448435, "name": "297a42540be3d94ebfdfa17712123b43", "fusion_lon": 0.0}, {"lat": 38.89983566666667, "fusion_lat": 0.0, "type": "electric_scooter", "bike_id": "e4223bbb2857ada54e965d57c42064f4", "is_reserved": 0, "rental_uris": {"ios": "https://dc.lft.to/lastmile_qr_scan", "android": "https://dc.lft.to/lastmile_qr_scan"}, "is_disabled": 0, "lon": -77.0264055, "name": "e4223bbb2857ada54e965d57c42064f4", "fusion_lon": 0.0}, {"lat": 38.935467, "fusion_lat": 0.0, "type": "electric_scooter", "bike_id": "597dd527de373d6886822c8ab9897eef", "is_reserved": 0, "rental_uris": {"ios": "https://dc.lft.to/lastmile_qr_scan", "android": "https://dc.lft.to/lastmile_qr_scan"}, "is_disabled": 0, "lon": -77.058561, "name": "597dd527de373d6886822c8ab9897eef", "fusion_lon": 0.0}, {"lat": 38.932361, "fusion_lat": 0.0, "type": "electric_scooter", "bike_id": "fe8847f0ab16d036d76f94ab1751c187", "is_reserved": 0, "rental_uris": {"ios": "https://dc.lft.to/lastmile_qr_scan", "android": "https://dc.lft.to/lastmile_qr_scan"}, "is_disabled": 0, "lon": -76.99535333333333, "name": "fe8847f0ab16d036d76f94ab1751c187", "fusion_lon": 0.0}, {"lat": 38.91692666666667, "fusion_lat": 0.0, "type": "electric_scooter", "bike_id": "22535b93b7c0b15a2e3362f8a1d3ff49", "is_reserved": 0, "rental_uris": {"ios": "https://dc.lft.to/lastmile_qr_scan", "android": "https://dc.lft.to/lastmile_qr_scan"}, "is_disabled": 0, "lon": -77.03152683333333, "name": "22535b93b7c0b15a2e3362f8a1d3ff49", "fusion_lon": 0.0}, {"lat": 38.907611333333335, "fusion_lat": 0.0, "type": "electric_scooter", "bike_id": "0dcb3fff42a05ea8689b16ccb084a21f", "is_reserved": 0, "rental_uris": {"ios": "https://dc.lft.to/lastmile_qr_scan", "android": "https://dc.lft.to/lastmile_qr_scan"}, "is_disabled": 0, "lon": -77.025963, "name": "0dcb3fff42a05ea8689b16ccb084a21f", "fusion_lon": 0.0}, {"lat": 38.9401975, "fusion_lat": 0.0, "type": "electric_bike", "bike_id": "38c221c85037317b2d1e6deba14eb080", "is_reserved": 0, "rental_uris": {"ios": "https://dc.lft.to/lastmile_qr_scan", "android": "https://dc.lft.to/lastmile_qr_scan"}, "is_disabled": 0, "lon": -76.97609583333333, "name": "38c221c85037317b2d1e6deba14eb080", "fusion_lon": 0.0}, {"lat": 38.902575666666664, "fusion_lat": 0.0, "type": "electric_scooter", "bike_id": "f98b8840d2259b1435bc55bd5dec1b7c", "is_reserved": 0, "rental_uris": {"ios": "https://dc.lft.to/lastmile_qr_scan", "android": "https://dc.lft.to/lastmile_qr_scan"}, "is_disabled": 0, "lon": -77.04859583333334, "name": "f98b8840d2259b1435bc55bd5dec1b7c", "fusion_lon": 0.0}, {"lat": 38.872286, "fusion_lat": 0.0, "type": "electric_scooter", "bike_id": "1c4c2d927659c233830d92aaed4aa13a", "is_reserved": 0, "rental_uris": {"ios": "https://dc.lft.to/lastmile_qr_scan", "android": "https://dc.lft.to/lastmile_qr_scan"}, "is_disabled": 0, "lon": -77.011664, "name": "1c4c2d927659c233830d92aaed4aa13a", "fusion_lon": 0.0}, {"lat": 38.892986, "fusion_lat": 0.0, "type": "electric_scooter", "bike_id": "d975f5c23c5e19bea281e20ea5c20d37", "is_reserved": 0, "rental_uris": {"ios": "https://dc.lft.to/lastmile_qr_scan", "android": "https://dc.lft.to/lastmile_qr_scan"}, "is_disabled": 0, "lon": -76.93928316666667, "name": "d975f5c23c5e19bea281e20ea5c20d37", "fusion_lon": 0.0}, {"lat": 38.95633866666667, "fusion_lat": 0.0, "type": "electric_bike", "bike_id": "44a7affeebd150c30dfacdd7f7413bab", "is_reserved": 0, "rental_uris": {"ios": "https://dc.lft.to/lastmile_qr_scan", "android": "https://dc.lft.to/lastmile_qr_scan"}, "is_disabled": 0, "lon": -76.93871183333333, "name": "44a7affeebd150c30dfacdd7f7413bab", "fusion_lon": 0.0}, {"lat": 38.8988695, "fusion_lat": 0.0, "type": "electric_scooter", "bike_id": "e836a78a1236fa749ecd8c92d2cbb50f", "is_reserved": 0, "rental_uris": {"ios": "https://dc.lft.to/lastmile_qr_scan", "android": "https://dc.lft.to/lastmile_qr_scan"}, "is_disabled": 0, "lon": -77.03281433333333, "name": "e836a78a1236fa749ecd8c92d2cbb50f", "fusion_lon": 0.0}, {"lat": 38.92035666666666, "fusion_lat": 0.0, "type": "electric_scooter", "bike_id": "3f280d66bd3c29d89dc5b1e289575ee6", "is_reserved": 0, "rental_uris": {"ios": "https://dc.lft.to/lastmile_qr_scan", "android": "https://dc.lft.to/lastmile_qr_scan"}, "is_disabled": 0, "lon": -77.02577233333334, "name": "3f280d66bd3c29d89dc5b1e289575ee6", "fusion_lon": 0.0}, {"lat": 38.905621833333335, "fusion_lat": 0.0, "type": "electric_scooter", "bike_id": "f62b7d6a003ff191da9d6529d821f05b", "is_reserved": 0, "rental_uris": {"ios": "https://dc.lft.to/lastmile_qr_scan", "android": "https://dc.lft.to/lastmile_qr_scan"}, "is_disabled": 0, "lon": -77.02583866666667, "name": "f62b7d6a003ff191da9d6529d821f05b", "fusion_lon": 0.0}, {"lat": 38.93604, "fusion_lat": 0.0, "type": "electric_scooter", "bike_id": "7b7215792b60f654a5ac2b14262df421", "is_reserved": 0, "rental_uris": {"ios": "https://dc.lft.to/lastmile_qr_scan", "android": "https://dc.lft.to/lastmile_qr_scan"}, "is_disabled": 0, "lon": -77.03651816666667, "name": "7b7215792b60f654a5ac2b14262df421", "fusion_lon": 0.0}, {"lat": 38.984322166666665, "fusion_lat": 0.0, "type": "electric_scooter", "bike_id": "1d7d97918f43645917b7c87249c15fb4", "is_reserved": 0, "rental_uris": {"ios": "https://dc.lft.to/lastmile_qr_scan", "android": "https://dc.lft.to/lastmile_qr_scan"}, "is_disabled": 0, "lon": -77.0267425, "name": "1d7d97918f43645917b7c87249c15fb4", "fusion_lon": 0.0}, {"lat": 38.8923635, "fusion_lat": 0.0, "type": "electric_scooter", "bike_id": "90aa83c74ac560d6e050ad38d0e0e771", "is_reserved": 0, "rental_uris": {"ios": "https://dc.lft.to/lastmile_qr_scan", "android": "https://dc.lft.to/lastmile_qr_scan"}, "is_disabled": 0, "lon": -77.0241255, "name": "90aa83c74ac560d6e050ad38d0e0e771", "fusion_lon": 0.0}, {"lat": 38.894786, "fusion_lat": 0.0, "type": "electric_scooter", "bike_id": "649c5260e0fe58c98f9d6fb150c08eac", "is_reserved": 0, "rental_uris": {"ios": "https://dc.lft.to/lastmile_qr_scan", "android": "https://dc.lft.to/lastmile_qr_scan"}, "is_disabled": 0, "lon": -77.04656933333334, "name": "649c5260e0fe58c98f9d6fb150c08eac", "fusion_lon": 0.0}, {"lat": 38.90107066666667, "fusion_lat": 0.0, "type": "electric_scooter", "bike_id": "ccac520e21d4e3d322240878f0191603", "is_reserved": 0, "rental_uris": {"ios": "https://dc.lft.to/lastmile_qr_scan", "android": "https://dc.lft.to/lastmile_qr_scan"}, "is_disabled": 0, "lon": -77.00648766666667, "name": "ccac520e21d4e3d322240878f0191603", "fusion_lon": 0.0}, {"lat": 38.91768116666667, "fusion_lat": 0.0, "type": "electric_scooter", "bike_id": "59803a53c7d054d76161c9a5b1461086", "is_reserved": 0, "rental_uris": {"ios": "https://dc.lft.to/lastmile_qr_scan", "android": "https://dc.lft.to/lastmile_qr_scan"}, "is_disabled": 0, "lon": -77.04765233333333, "name": "59803a53c7d054d76161c9a5b1461086", "fusion_lon": 0.0}, {"lat": 38.90151933333333, "fusion_lat": 0.0, "type": "electric_scooter", "bike_id": "97ffe1fed1b00e2abb77ef43f980d7b7", "is_reserved": 0, "rental_uris": {"ios": "https://dc.lft.to/lastmile_qr_scan", "android": "https://dc.lft.to/lastmile_qr_scan"}, "is_disabled": 0, "lon": -76.93062566666667, "name": "97ffe1fed1b00e2abb77ef43f980d7b7", "fusion_lon": 0.0}, {"lat": 38.9088545, "fusion_lat": 0.0, "type": "electric_scooter", "bike_id": "133bc6692e39078e8eb8c6986411872c", "is_reserved": 0, "rental_uris": {"ios": "https://dc.lft.to/lastmile_qr_scan", "android": "https://dc.lft.to/lastmile_qr_scan"}, "is_disabled": 0, "lon": -77.03754716666667, "name": "133bc6692e39078e8eb8c6986411872c", "fusion_lon": 0.0}, {"lat": 38.90370466666667, "fusion_lat": 0.0, "type": "electric_scooter", "bike_id": "2951f99663b4cb5b5e3daedc2d3ed811", "is_reserved": 0, "rental_uris": {"ios": "https://dc.lft.to/lastmile_qr_scan", "android": "https://dc.lft.to/lastmile_qr_scan"}, "is_disabled": 0, "lon": -76.93759, "name": "2951f99663b4cb5b5e3daedc2d3ed811", "fusion_lon": 0.0}, {"lat": 38.91361033333333, "fusion_lat": 0.0, "type": "electric_scooter", "bike_id": "398fd238f9071ba0b32b29913690be4a", "is_reserved": 0, "rental_uris": {"ios": "https://dc.lft.to/lastmile_qr_scan", "android": "https://dc.lft.to/lastmile_qr_scan"}, "is_disabled": 0, "lon": -77.04487666666667, "name": "398fd238f9071ba0b32b29913690be4a", "fusion_lon": 0.0}, {"lat": 38.920147166666666, "fusion_lat": 0.0, "type": "electric_scooter", "bike_id": "41789db26609bc56477d2d205e9249cd", "is_reserved": 0, "rental_uris": {"ios": "https://dc.lft.to/lastmile_qr_scan", "android": "https://dc.lft.to/lastmile_qr_scan"}, "is_disabled": 0, "lon": -77.01947816666667, "name": "41789db26609bc56477d2d205e9249cd", "fusion_lon": 0.0}, {"lat": 38.87678233333333, "fusion_lat": 0.0, "type": "electric_scooter", "bike_id": "aee6980cb6b048fa360f38e3dc880905", "is_reserved": 0, "rental_uris": {"ios": "https://dc.lft.to/lastmile_qr_scan", "android": "https://dc.lft.to/lastmile_qr_scan"}, "is_disabled": 0, "lon": -77.005789, "name": "aee6980cb6b048fa360f38e3dc880905", "fusion_lon": 0.0}, {"lat": 39.06293633333333, "fusion_lat": 0.0, "type": "electric_bike", "bike_id": "54e69c045a364e18ebdaac74c2d47880", "is_reserved": 0, "rental_uris": {"ios": "https://dc.lft.to/lastmile_qr_scan", "android": "https://dc.lft.to/lastmile_qr_scan"}, "is_disabled": 0, "lon": -77.049766, "name": "54e69c045a364e18ebdaac74c2d47880", "fusion_lon": 0.0}, {"lat": 38.92407016666667, "fusion_lat": 0.0, "type": "electric_scooter", "bike_id": "ab721a8fba1cb37a6a33da38b58da106", "is_reserved": 0, "rental_uris": {"ios": "https://dc.lft.to/lastmile_qr_scan", "android": "https://dc.lft.to/lastmile_qr_scan"}, "is_disabled": 0, "lon": -77.04459466666667, "name": "ab721a8fba1cb37a6a33da38b58da106", "fusion_lon": 0.0}, {"lat": 38.9266525, "fusion_lat": 0.0, "type": "electric_scooter", "bike_id": "bdd43b6f8a146ae3779fa787edacd20c", "is_reserved": 0, "rental_uris": {"ios": "https://dc.lft.to/lastmile_qr_scan", "android": "https://dc.lft.to/lastmile_qr_scan"}, "is_disabled": 0, "lon": -76.995439, "name": "bdd43b6f8a146ae3779fa787edacd20c", "fusion_lon": 0.0}, {"lat": 38.905403166666666, "fusion_lat": 0.0, "type": "electric_scooter", "bike_id": "cd8bec37068af2d984aa47f294acfd66", "is_reserved": 0, "rental_uris": {"ios": "https://dc.lft.to/lastmile_qr_scan", "android": "https://dc.lft.to/lastmile_qr_scan"}, "is_disabled": 0, "lon": -77.03087566666666, "name": "cd8bec37068af2d984aa47f294acfd66", "fusion_lon": 0.0}, {"lat": 38.898713666666666, "fusion_lat": 0.0, "type": "electric_scooter", "bike_id": "25a189dd5c3f8b8446d5f594f809890e", "is_reserved": 0, "rental_uris": {"ios": "https://dc.lft.to/lastmile_qr_scan", "android": "https://dc.lft.to/lastmile_qr_scan"}, "is_disabled": 0, "lon": -76.9275785, "name": "25a189dd5c3f8b8446d5f594f809890e", "fusion_lon": 0.0}, {"lat": 38.9594045, "fusion_lat": 0.0, "type": "electric_scooter", "bike_id": "24374d3cdf360a0937b85884b7b45f90", "is_reserved": 0, "rental_uris": {"ios": "https://dc.lft.to/lastmile_qr_scan", "android": "https://dc.lft.to/lastmile_qr_scan"}, "is_disabled": 0, "lon": -77.03047183333334, "name": "24374d3cdf360a0937b85884b7b45f90", "fusion_lon": 0.0}, {"lat": 38.9296885, "fusion_lat": 0.0, "type": "electric_scooter", "bike_id": "5a6e0323a11d4d4b0ff85c0ca33341c7", "is_reserved": 0, "rental_uris": {"ios": "https://dc.lft.to/lastmile_qr_scan", "android": "https://dc.lft.to/lastmile_qr_scan"}, "is_disabled": 0, "lon": -77.01686283333333, "name": "5a6e0323a11d4d4b0ff85c0ca33341c7", "fusion_lon": 0.0}, {"lat": 38.855374833333336, "fusion_lat": 0.0, "type": "electric_scooter", "bike_id": "9442f6f7e8aa49c0829fe61c02f9933f", "is_reserved": 0, "rental_uris": {"ios": "https://dc.lft.to/lastmile_qr_scan", "android": "https://dc.lft.to/lastmile_qr_scan"}, "is_disabled": 0, "lon": -76.98416816666666, "name": "9442f6f7e8aa49c0829fe61c02f9933f", "fusion_lon": 0.0}, {"lat": 38.9869605, "fusion_lat": 0.0, "type": "electric_scooter", "bike_id": "d8e50af118f66cdfab185c78b99201f2", "is_reserved": 0, "rental_uris": {"ios": "https://dc.lft.to/lastmile_qr_scan", "android": "https://dc.lft.to/lastmile_qr_scan"}, "is_disabled": 0, "lon": -77.02979283333333, "name": "d8e50af118f66cdfab185c78b99201f2", "fusion_lon": 0.0}, {"lat": 38.900872, "fusion_lat": 0.0, "type": "electric_scooter", "bike_id": "7dca464a00d09b9dc0203e37c25b2ed1", "is_reserved": 0, "rental_uris": {"ios": "https://dc.lft.to/lastmile_qr_scan", "android": "https://dc.lft.to/lastmile_qr_scan"}, "is_disabled": 0, "lon": -76.93020766666666, "name": "7dca464a00d09b9dc0203e37c25b2ed1", "fusion_lon": 0.0}, {"lat": 38.9002645, "fusion_lat": 0.0, "type": "electric_scooter", "bike_id": "cc690cf5b864fb5a30e58163355703c2", "is_reserved": 0, "rental_uris": {"ios": "https://dc.lft.to/lastmile_qr_scan", "android": "https://dc.lft.to/lastmile_qr_scan"}, "is_disabled": 0, "lon": -76.9993435, "name": "cc690cf5b864fb5a30e58163355703c2", "fusion_lon": 0.0}, {"lat": 38.92146266666666, "fusion_lat": 0.0, "type": "electric_scooter", "bike_id": "d2fd509aed4bfbe2ca4e82db8356b3aa", "is_reserved": 0, "rental_uris": {"ios": "https://dc.lft.to/lastmile_qr_scan", "android": "https://dc.lft.to/lastmile_qr_scan"}, "is_disabled": 0, "lon": -77.03503866666667, "name": "d2fd509aed4bfbe2ca4e82db8356b3aa", "fusion_lon": 0.0}, {"lat": 38.90266533333333, "fusion_lat": 0.0, "type": "electric_scooter", "bike_id": "6aa1e350afc1ddbb3407cf57686a6728", "is_reserved": 0, "rental_uris": {"ios": "https://dc.lft.to/lastmile_qr_scan", "android": "https://dc.lft.to/lastmile_qr_scan"}, "is_disabled": 0, "lon": -77.03857583333334, "name": "6aa1e350afc1ddbb3407cf57686a6728", "fusion_lon": 0.0}, {"lat": 38.90869466666667, "fusion_lat": 0.0, "type": "electric_scooter", "bike_id": "779fc77c6193d9772266c3ae4882b900", "is_reserved": 0, "rental_uris": {"ios": "https://dc.lft.to/lastmile_qr_scan", "android": "https://dc.lft.to/lastmile_qr_scan"}, "is_disabled": 0, "lon": -77.03220666666667, "name": "779fc77c6193d9772266c3ae4882b900", "fusion_lon": 0.0}, {"lat": 38.91630416666667, "fusion_lat": 0.0, "type": "electric_scooter", "bike_id": "5307f9721c009d4dec71a828ad60a2c2", "is_reserved": 0, "rental_uris": {"ios": "https://dc.lft.to/lastmile_qr_scan", "android": "https://dc.lft.to/lastmile_qr_scan"}, "is_disabled": 0, "lon": -77.0256055, "name": "5307f9721c009d4dec71a828ad60a2c2", "fusion_lon": 0.0}, {"lat": 38.91022533333334, "fusion_lat": 0.0, "type": "electric_scooter", "bike_id": "fbfc591b484a6345fa92963c5cb1b9f8", "is_reserved": 0, "rental_uris": {"ios": "https://dc.lft.to/lastmile_qr_scan", "android": "https://dc.lft.to/lastmile_qr_scan"}, "is_disabled": 0, "lon": -77.03658366666667, "name": "fbfc591b484a6345fa92963c5cb1b9f8", "fusion_lon": 0.0}, {"lat": 38.8860005, "fusion_lat": 0.0, "type": "electric_scooter", "bike_id": "73429e3ce00c5b94355e2d4af107b374", "is_reserved": 0, "rental_uris": {"ios": "https://dc.lft.to/lastmile_qr_scan", "android": "https://dc.lft.to/lastmile_qr_scan"}, "is_disabled": 0, "lon": -77.0218765, "name": "73429e3ce00c5b94355e2d4af107b374", "fusion_lon": 0.0}, {"lat": 38.909723666666665, "fusion_lat": 0.0, "type": "electric_scooter", "bike_id": "f2c5abe114584bb14c5465a63ec9d2fc", "is_reserved": 0, "rental_uris": {"ios": "https://dc.lft.to/lastmile_qr_scan", "android": "https://dc.lft.to/lastmile_qr_scan"}, "is_disabled": 0, "lon": -77.03951566666667, "name": "f2c5abe114584bb14c5465a63ec9d2fc", "fusion_lon": 0.0}, {"lat": 38.919673, "fusion_lat": 0.0, "type": "electric_scooter", "bike_id": "161ac3298acb4249c6a62a5d7a291322", "is_reserved": 0, "rental_uris": {"ios": "https://dc.lft.to/lastmile_qr_scan", "android": "https://dc.lft.to/lastmile_qr_scan"}, "is_disabled": 0, "lon": -77.0121235, "name": "161ac3298acb4249c6a62a5d7a291322", "fusion_lon": 0.0}, {"lat": 38.863871, "fusion_lat": 0.0, "type": "electric_scooter", "bike_id": "0c35e07d6f5ecd59fd5fd50961e1e618", "is_reserved": 0, "rental_uris": {"ios": "https://dc.lft.to/lastmile_qr_scan", "android": "https://dc.lft.to/lastmile_qr_scan"}, "is_disabled": 0, "lon": -76.9904425, "name": "0c35e07d6f5ecd59fd5fd50961e1e618", "fusion_lon": 0.0}, {"lat": 38.93274616666667, "fusion_lat": 0.0, "type": "electric_scooter", "bike_id": "4eeb1b8f605cd1cd9841b54acc78e6b0", "is_reserved": 0, "rental_uris": {"ios": "https://dc.lft.to/lastmile_qr_scan", "android": "https://dc.lft.to/lastmile_qr_scan"}, "is_disabled": 0, "lon": -77.0453295, "name": "4eeb1b8f605cd1cd9841b54acc78e6b0", "fusion_lon": 0.0}, {"lat": 38.916515833333335, "fusion_lat": 0.0, "type": "electric_scooter", "bike_id": "0ebda88862cf662d539445b78b1151dd", "is_reserved": 0, "rental_uris": {"ios": "https://dc.lft.to/lastmile_qr_scan", "android": "https://dc.lft.to/lastmile_qr_scan"}, "is_disabled": 0, "lon": -77.02007166666667, "name": "0ebda88862cf662d539445b78b1151dd", "fusion_lon": 0.0}, {"lat": 38.9063985, "fusion_lat": 0.0, "type": "electric_scooter", "bike_id": "3c4878d1260740416cfce4866c5d0613", "is_reserved": 0, "rental_uris": {"ios": "https://dc.lft.to/lastmile_qr_scan", "android": "https://dc.lft.to/lastmile_qr_scan"}, "is_disabled": 0, "lon": -77.00183433333333, "name": "3c4878d1260740416cfce4866c5d0613", "fusion_lon": 0.0}, {"lat": 38.98145933333333, "fusion_lat": 0.0, "type": "electric_bike", "bike_id": "c5438cfcded5edd7c793f5cfb7f0e939", "is_reserved": 0, "rental_uris": {"ios": "https://dc.lft.to/lastmile_qr_scan", "android": "https://dc.lft.to/lastmile_qr_scan"}, "is_disabled": 0, "lon": -77.0925495, "name": "c5438cfcded5edd7c793f5cfb7f0e939", "fusion_lon": 0.0}, {"lat": 38.90826366666667, "fusion_lat": 0.0, "type": "electric_scooter", "bike_id": "5a1c3e494c4d5b43c2706bdc193d3380", "is_reserved": 0, "rental_uris": {"ios": "https://dc.lft.to/lastmile_qr_scan", "android": "https://dc.lft.to/lastmile_qr_scan"}, "is_disabled": 0, "lon": -77.043466, "name": "5a1c3e494c4d5b43c2706bdc193d3380", "fusion_lon": 0.0}, {"lat": 38.9249225, "fusion_lat": 0.0, "type": "electric_scooter", "bike_id": "d2dcb70ac82ee82b9337f45d2565f218", "is_reserved": 0, "rental_uris": {"ios": "https://dc.lft.to/lastmile_qr_scan", "android": "https://dc.lft.to/lastmile_qr_scan"}, "is_disabled": 0, "lon": -77.05248983333334, "name": "d2dcb70ac82ee82b9337f45d2565f218", "fusion_lon": 0.0}, {"lat": 38.90043416666666, "fusion_lat": 0.0, "type": "electric_scooter", "bike_id": "7bd9a144ec581f5ba561f8308d680624", "is_reserved": 0, "rental_uris": {"ios": "https://dc.lft.to/lastmile_qr_scan", "android": "https://dc.lft.to/lastmile_qr_scan"}, "is_disabled": 0, "lon": -76.98827733333333, "name": "7bd9a144ec581f5ba561f8308d680624", "fusion_lon": 0.0}, {"lat": 38.8996255, "fusion_lat": 0.0, "type": "electric_scooter", "bike_id": "be4154f38d348bb16fe7b97da8c3d924", "is_reserved": 0, "rental_uris": {"ios": "https://dc.lft.to/lastmile_qr_scan", "android": "https://dc.lft.to/lastmile_qr_scan"}, "is_disabled": 0, "lon": -77.01508466666667, "name": "be4154f38d348bb16fe7b97da8c3d924", "fusion_lon": 0.0}, {"lat": 38.907346, "fusion_lat": 0.0, "type": "electric_scooter", "bike_id": "eaf042c884f150fb186c4947769adf02", "is_reserved": 0, "rental_uris": {"ios": "https://dc.lft.to/lastmile_qr_scan", "android": "https://dc.lft.to/lastmile_qr_scan"}, "is_disabled": 0, "lon": -77.03214783333334, "name": "eaf042c884f150fb186c4947769adf02", "fusion_lon": 0.0}, {"lat": 38.898952666666666, "fusion_lat": 0.0, "type": "electric_scooter", "bike_id": "1b9b34604d0fcf20c39664a7b0b7e733", "is_reserved": 0, "rental_uris": {"ios": "https://dc.lft.to/lastmile_qr_scan", "android": "https://dc.lft.to/lastmile_qr_scan"}, "is_disabled": 0, "lon": -76.97614166666666, "name": "1b9b34604d0fcf20c39664a7b0b7e733", "fusion_lon": 0.0}, {"lat": 38.92515866666667, "fusion_lat": 0.0, "type": "electric_scooter", "bike_id": "c71947ea9668bdc089889d906bd653ae", "is_reserved": 0, "rental_uris": {"ios": "https://dc.lft.to/lastmile_qr_scan", "android": "https://dc.lft.to/lastmile_qr_scan"}, "is_disabled": 0, "lon": -77.0525405, "name": "c71947ea9668bdc089889d906bd653ae", "fusion_lon": 0.0}, {"lat": 38.921178166666664, "fusion_lat": 0.0, "type": "electric_scooter", "bike_id": "6f21506f788c90a2d2f9c1c431b6e158", "is_reserved": 0, "rental_uris": {"ios": "https://dc.lft.to/lastmile_qr_scan", "android": "https://dc.lft.to/lastmile_qr_scan"}, "is_disabled": 0, "lon": -77.04579416666667, "name": "6f21506f788c90a2d2f9c1c431b6e158", "fusion_lon": 0.0}, {"lat": 38.90051033333334, "fusion_lat": 0.0, "type": "electric_scooter", "bike_id": "d93c16af4047772c35fac7db59f30847", "is_reserved": 0, "rental_uris": {"ios": "https://dc.lft.to/lastmile_qr_scan", "android": "https://dc.lft.to/lastmile_qr_scan"}, "is_disabled": 0, "lon": -77.02912583333334, "name": "d93c16af4047772c35fac7db59f30847", "fusion_lon": 0.0}, {"lat": 38.90667233333333, "fusion_lat": 0.0, "type": "electric_scooter", "bike_id": "9166639ec9b2ce9952d92440769d8900", "is_reserved": 0, "rental_uris": {"ios": "https://dc.lft.to/lastmile_qr_scan", "android": "https://dc.lft.to/lastmile_qr_scan"}, "is_disabled": 0, "lon": -77.04483383333333, "name": "9166639ec9b2ce9952d92440769d8900", "fusion_lon": 0.0}, {"lat": 38.922945166666665, "fusion_lat": 0.0, "type": "electric_scooter", "bike_id": "0883fcb62cb16fe347bdf18a777487cb", "is_reserved": 0, "rental_uris": {"ios": "https://dc.lft.to/lastmile_qr_scan", "android": "https://dc.lft.to/lastmile_qr_scan"}, "is_disabled": 0, "lon": -77.04220283333333, "name": "0883fcb62cb16fe347bdf18a777487cb", "fusion_lon": 0.0}, {"lat": 38.910129, "fusion_lat": 0.0, "type": "electric_scooter", "bike_id": "5104e09b8721911a69b9777135ad924c", "is_reserved": 0, "rental_uris": {"ios": "https://dc.lft.to/lastmile_qr_scan", "android": "https://dc.lft.to/lastmile_qr_scan"}, "is_disabled": 0, "lon": -77.03443883333334, "name": "5104e09b8721911a69b9777135ad924c", "fusion_lon": 0.0}, {"lat": 38.907136, "fusion_lat": 0.0, "type": "electric_scooter", "bike_id": "aa0302ea3c7e01deb8129eeadbe3c54b", "is_reserved": 0, "rental_uris": {"ios": "https://dc.lft.to/lastmile_qr_scan", "android": "https://dc.lft.to/lastmile_qr_scan"}, "is_disabled": 0, "lon": -77.01014516666666, "name": "aa0302ea3c7e01deb8129eeadbe3c54b", "fusion_lon": 0.0}, {"lat": 38.907525666666665, "fusion_lat": 0.0, "type": "electric_scooter", "bike_id": "3ef4d49744339197d2ab3f2d33c6de8e", "is_reserved": 0, "rental_uris": {"ios": "https://dc.lft.to/lastmile_qr_scan", "android": "https://dc.lft.to/lastmile_qr_scan"}, "is_disabled": 0, "lon": -77.03461683333333, "name": "3ef4d49744339197d2ab3f2d33c6de8e", "fusion_lon": 0.0}, {"lat": 38.8962115, "fusion_lat": 0.0, "type": "electric_scooter", "bike_id": "41aeb40767f6dfb5376e3664aa8d75b0", "is_reserved": 0, "rental_uris": {"ios": "https://dc.lft.to/lastmile_qr_scan", "android": "https://dc.lft.to/lastmile_qr_scan"}, "is_disabled": 0, "lon": -77.021719, "name": "41aeb40767f6dfb5376e3664aa8d75b0", "fusion_lon": 0.0}, {"lat": 38.91544066666667, "fusion_lat": 0.0, "type": "electric_scooter", "bike_id": "ddfee0e06813747173432336d7afe7ce", "is_reserved": 0, "rental_uris": {"ios": "https://dc.lft.to/lastmile_qr_scan", "android": "https://dc.lft.to/lastmile_qr_scan"}, "is_disabled": 0, "lon": -77.023709, "name": "ddfee0e06813747173432336d7afe7ce", "fusion_lon": 0.0}, {"lat": 38.90931783333333, "fusion_lat": 0.0, "type": "electric_scooter", "bike_id": "2f2803bcf684a8813d6f3ac9f3fdad53", "is_reserved": 0, "rental_uris": {"ios": "https://dc.lft.to/lastmile_qr_scan", "android": "https://dc.lft.to/lastmile_qr_scan"}, "is_disabled": 0, "lon": -77.05539166666667, "name": "2f2803bcf684a8813d6f3ac9f3fdad53", "fusion_lon": 0.0}, {"lat": 38.8837605, "fusion_lat": 0.0, "type": "electric_scooter", "bike_id": "87633181e34e9132ec3931ecaa7bd9a2", "is_reserved": 0, "rental_uris": {"ios": "https://dc.lft.to/lastmile_qr_scan", "android": "https://dc.lft.to/lastmile_qr_scan"}, "is_disabled": 0, "lon": -76.99518316666666, "name": "87633181e34e9132ec3931ecaa7bd9a2", "fusion_lon": 0.0}, {"lat": 38.85065183333333, "fusion_lat": 0.0, "type": "electric_scooter", "bike_id": "533367a206ad7b7fe05b022b7eed017c", "is_reserved": 0, "rental_uris": {"ios": "https://dc.lft.to/lastmile_qr_scan", "android": "https://dc.lft.to/lastmile_qr_scan"}, "is_disabled": 0, "lon": -76.970122, "name": "533367a206ad7b7fe05b022b7eed017c", "fusion_lon": 0.0}, {"lat": 38.91554633333333, "fusion_lat": 0.0, "type": "electric_scooter", "bike_id": "f16b1c7cd096c8d50414d3ed10efa40a", "is_reserved": 0, "rental_uris": {"ios": "https://dc.lft.to/lastmile_qr_scan", "android": "https://dc.lft.to/lastmile_qr_scan"}, "is_disabled": 0, "lon": -77.03956816666667, "name": "f16b1c7cd096c8d50414d3ed10efa40a", "fusion_lon": 0.0}, {"lat": 38.90987633333334, "fusion_lat": 0.0, "type": "electric_scooter", "bike_id": "9bae60fe1a5b3e1447d0e1ae98fdf5d6", "is_reserved": 0, "rental_uris": {"ios": "https://dc.lft.to/lastmile_qr_scan", "android": "https://dc.lft.to/lastmile_qr_scan"}, "is_disabled": 0, "lon": -77.03179833333333, "name": "9bae60fe1a5b3e1447d0e1ae98fdf5d6", "fusion_lon": 0.0}, {"lat": 38.91695966666666, "fusion_lat": 0.0, "type": "electric_scooter", "bike_id": "595775bac39c1a2862f37ea7ed7e7804", "is_reserved": 0, "rental_uris": {"ios": "https://dc.lft.to/lastmile_qr_scan", "android": "https://dc.lft.to/lastmile_qr_scan"}, "is_disabled": 0, "lon": -77.01052316666667, "name": "595775bac39c1a2862f37ea7ed7e7804", "fusion_lon": 0.0}, {"lat": 38.893131333333336, "fusion_lat": 0.0, "type": "electric_scooter", "bike_id": "9477f6be7c097746cda66f3fbadd0640", "is_reserved": 0, "rental_uris": {"ios": "https://dc.lft.to/lastmile_qr_scan", "android": "https://dc.lft.to/lastmile_qr_scan"}, "is_disabled": 0, "lon": -76.93972533333333, "name": "9477f6be7c097746cda66f3fbadd0640", "fusion_lon": 0.0}, {"lat": 38.91119533333333, "fusion_lat": 0.0, "type": "electric_scooter", "bike_id": "014a567f8e588e8a4610d95d3c5a4b67", "is_reserved": 0, "rental_uris": {"ios": "https://dc.lft.to/lastmile_qr_scan", "android": "https://dc.lft.to/lastmile_qr_scan"}, "is_disabled": 0, "lon": -77.04472166666666, "name": "014a567f8e588e8a4610d95d3c5a4b67", "fusion_lon": 0.0}, {"lat": 38.934424166666666, "fusion_lat": 0.0, "type": "electric_scooter", "bike_id": "316d680cb68d0c1ca9b8b88a5a8a1553", "is_reserved": 0, "rental_uris": {"ios": "https://dc.lft.to/lastmile_qr_scan", "android": "https://dc.lft.to/lastmile_qr_scan"}, "is_disabled": 0, "lon": -77.03285833333334, "name": "316d680cb68d0c1ca9b8b88a5a8a1553", "fusion_lon": 0.0}, {"lat": 38.84617716666666, "fusion_lat": 0.0, "type": "electric_scooter", "bike_id": "cf335ffdb47d4a76c83c79f7ae96ca87", "is_reserved": 0, "rental_uris": {"ios": "https://dc.lft.to/lastmile_qr_scan", "android": "https://dc.lft.to/lastmile_qr_scan"}, "is_disabled": 0, "lon": -76.98156883333333, "name": "cf335ffdb47d4a76c83c79f7ae96ca87", "fusion_lon": 0.0}, {"lat": 38.85696033333333, "fusion_lat": 0.0, "type": "electric_scooter", "bike_id": "442b25e7726a2b79ec3313cf99ee7296", "is_reserved": 0, "rental_uris": {"ios": "https://dc.lft.to/lastmile_qr_scan", "android": "https://dc.lft.to/lastmile_qr_scan"}, "is_disabled": 0, "lon": -76.98984483333334, "name": "442b25e7726a2b79ec3313cf99ee7296", "fusion_lon": 0.0}, {"lat": 38.93008416666667, "fusion_lat": 0.0, "type": "electric_scooter", "bike_id": "ef44c1246318f028e49de482ea4698ca", "is_reserved": 0, "rental_uris": {"ios": "https://dc.lft.to/lastmile_qr_scan", "android": "https://dc.lft.to/lastmile_qr_scan"}, "is_disabled": 0, "lon": -77.014299, "name": "ef44c1246318f028e49de482ea4698ca", "fusion_lon": 0.0}, {"lat": 38.90060733333333, "fusion_lat": 0.0, "type": "electric_scooter", "bike_id": "8c194bd38c195d849774e28134226f63", "is_reserved": 0, "rental_uris": {"ios": "https://dc.lft.to/lastmile_qr_scan", "android": "https://dc.lft.to/lastmile_qr_scan"}, "is_disabled": 0, "lon": -76.93475416666666, "name": "8c194bd38c195d849774e28134226f63", "fusion_lon": 0.0}, {"lat": 39.05788616666667, "fusion_lat": 0.0, "type": "electric_bike", "bike_id": "814586500c6ca905d72b253913e67763", "is_reserved": 0, "rental_uris": {"ios": "https://dc.lft.to/lastmile_qr_scan", "android": "https://dc.lft.to/lastmile_qr_scan"}, "is_disabled": 0, "lon": -77.15019983333333, "name": "814586500c6ca905d72b253913e67763", "fusion_lon": 0.0}, {"lat": 38.90583566666667, "fusion_lat": 0.0, "type": "electric_scooter", "bike_id": "34174a157f83cc788db975cf3ae7edaa", "is_reserved": 0, "rental_uris": {"ios": "https://dc.lft.to/lastmile_qr_scan", "android": "https://dc.lft.to/lastmile_qr_scan"}, "is_disabled": 0, "lon": -77.07021333333333, "name": "34174a157f83cc788db975cf3ae7edaa", "fusion_lon": 0.0}, {"lat": 38.924054, "fusion_lat": 0.0, "type": "electric_scooter", "bike_id": "592d5e88e0866ed4cf7378ccb26ef7b7", "is_reserved": 0, "rental_uris": {"ios": "https://dc.lft.to/lastmile_qr_scan", "android": "https://dc.lft.to/lastmile_qr_scan"}, "is_disabled": 0, "lon": -77.02093166666667, "name": "592d5e88e0866ed4cf7378ccb26ef7b7", "fusion_lon": 0.0}, {"lat": 38.91077516666667, "fusion_lat": 0.0, "type": "electric_scooter", "bike_id": "99303b0cbea558473494b5bb6ce3a555", "is_reserved": 0, "rental_uris": {"ios": "https://dc.lft.to/lastmile_qr_scan", "android": "https://dc.lft.to/lastmile_qr_scan"}, "is_disabled": 0, "lon": -77.0374275, "name": "99303b0cbea558473494b5bb6ce3a555", "fusion_lon": 0.0}, {"lat": 38.867149166666664, "fusion_lat": 0.0, "type": "electric_scooter", "bike_id": "7432951c4304cbf783a4e9f97628e371", "is_reserved": 0, "rental_uris": {"ios": "https://dc.lft.to/lastmile_qr_scan", "android": "https://dc.lft.to/lastmile_qr_scan"}, "is_disabled": 0, "lon": -76.9872485, "name": "7432951c4304cbf783a4e9f97628e371", "fusion_lon": 0.0}, {"lat": 38.93070066666667, "fusion_lat": 0.0, "type": "electric_scooter", "bike_id": "8df9a97da1859f0c05ba289f366bf25f", "is_reserved": 0, "rental_uris": {"ios": "https://dc.lft.to/lastmile_qr_scan", "android": "https://dc.lft.to/lastmile_qr_scan"}, "is_disabled": 0, "lon": -77.02164516666667, "name": "8df9a97da1859f0c05ba289f366bf25f", "fusion_lon": 0.0}, {"lat": 38.90224966666667, "fusion_lat": 0.0, "type": "electric_scooter", "bike_id": "749fe2598dddec16ffb181b14393b7a4", "is_reserved": 0, "rental_uris": {"ios": "https://dc.lft.to/lastmile_qr_scan", "android": "https://dc.lft.to/lastmile_qr_scan"}, "is_disabled": 0, "lon": -77.03323916666666, "name": "749fe2598dddec16ffb181b14393b7a4", "fusion_lon": 0.0}, {"lat": 38.92061783333333, "fusion_lat": 0.0, "type": "electric_scooter", "bike_id": "30f1e06c5da2cec4aed0c4f0529a7213", "is_reserved": 0, "rental_uris": {"ios": "https://dc.lft.to/lastmile_qr_scan", "android": "https://dc.lft.to/lastmile_qr_scan"}, "is_disabled": 0, "lon": -77.02208166666667, "name": "30f1e06c5da2cec4aed0c4f0529a7213", "fusion_lon": 0.0}, {"lat": 38.956784999999996, "fusion_lat": 0.0, "type": "electric_scooter", "bike_id": "f574e0cbb43ec6c06c1feb12b308719c", "is_reserved": 0, "rental_uris": {"ios": "https://dc.lft.to/lastmile_qr_scan", "android": "https://dc.lft.to/lastmile_qr_scan"}, "is_disabled": 0, "lon": -77.02406083333334, "name": "f574e0cbb43ec6c06c1feb12b308719c", "fusion_lon": 0.0}, {"lat": 38.91560833333333, "fusion_lat": 0.0, "type": "electric_scooter", "bike_id": "dedf1f6445f5e603cf5ea42ed8cb9721", "is_reserved": 0, "rental_uris": {"ios": "https://dc.lft.to/lastmile_qr_scan", "android": "https://dc.lft.to/lastmile_qr_scan"}, "is_disabled": 0, "lon": -77.03959916666666, "name": "dedf1f6445f5e603cf5ea42ed8cb9721", "fusion_lon": 0.0}, {"lat": 38.885046833333334, "fusion_lat": 0.0, "type": "electric_scooter", "bike_id": "d04ce48d60dbffabd79a3c59d97ebbc7", "is_reserved": 0, "rental_uris": {"ios": "https://dc.lft.to/lastmile_qr_scan", "android": "https://dc.lft.to/lastmile_qr_scan"}, "is_disabled": 0, "lon": -77.0151285, "name": "d04ce48d60dbffabd79a3c59d97ebbc7", "fusion_lon": 0.0}, {"lat": 38.908369, "fusion_lat": 0.0, "type": "electric_scooter", "bike_id": "da385148a4f6e71ed26fbb30aaab9e16", "is_reserved": 0, "rental_uris": {"ios": "https://dc.lft.to/lastmile_qr_scan", "android": "https://dc.lft.to/lastmile_qr_scan"}, "is_disabled": 0, "lon": -77.00929383333333, "name": "da385148a4f6e71ed26fbb30aaab9e16", "fusion_lon": 0.0}, {"lat": 38.90212366666667, "fusion_lat": 0.0, "type": "electric_scooter", "bike_id": "380688b0a622de2f93bd797484bdc2a0", "is_reserved": 0, "rental_uris": {"ios": "https://dc.lft.to/lastmile_qr_scan", "android": "https://dc.lft.to/lastmile_qr_scan"}, "is_disabled": 0, "lon": -77.02435933333334, "name": "380688b0a622de2f93bd797484bdc2a0", "fusion_lon": 0.0}, {"lat": 38.90645033333333, "fusion_lat": 0.0, "type": "electric_scooter", "bike_id": "f62156185ff7fd2dda1ee8255c2790e2", "is_reserved": 0, "rental_uris": {"ios": "https://dc.lft.to/lastmile_qr_scan", "android": "https://dc.lft.to/lastmile_qr_scan"}, "is_disabled": 0, "lon": -77.05123183333333, "name": "f62156185ff7fd2dda1ee8255c2790e2", "fusion_lon": 0.0}, {"lat": 38.87466666666667, "fusion_lat": 0.0, "type": "electric_scooter", "bike_id": "4408e97c298c1650ed3eb3fdba18fcf5", "is_reserved": 0, "rental_uris": {"ios": "https://dc.lft.to/lastmile_qr_scan", "android": "https://dc.lft.to/lastmile_qr_scan"}, "is_disabled": 0, "lon": -77.01893066666666, "name": "4408e97c298c1650ed3eb3fdba18fcf5", "fusion_lon": 0.0}, {"lat": 38.917083833333336, "fusion_lat": 0.0, "type": "electric_scooter", "bike_id": "d6432e65f93284785528ecd1d30117ed", "is_reserved": 0, "rental_uris": {"ios": "https://dc.lft.to/lastmile_qr_scan", "android": "https://dc.lft.to/lastmile_qr_scan"}, "is_disabled": 0, "lon": -77.028875, "name": "d6432e65f93284785528ecd1d30117ed", "fusion_lon": 0.0}, {"lat": 38.898278166666664, "fusion_lat": 0.0, "type": "electric_scooter", "bike_id": "c4ce2fc3bdc0d28927e91d885db82132", "is_reserved": 0, "rental_uris": {"ios": "https://dc.lft.to/lastmile_qr_scan", "android": "https://dc.lft.to/lastmile_qr_scan"}, "is_disabled": 0, "lon": -77.03333183333334, "name": "c4ce2fc3bdc0d28927e91d885db82132", "fusion_lon": 0.0}, {"lat": 38.920184666666664, "fusion_lat": 0.0, "type": "electric_scooter", "bike_id": "4d1fe029e06e4730610a3330322e7c80", "is_reserved": 0, "rental_uris": {"ios": "https://dc.lft.to/lastmile_qr_scan", "android": "https://dc.lft.to/lastmile_qr_scan"}, "is_disabled": 0, "lon": -77.020468, "name": "4d1fe029e06e4730610a3330322e7c80", "fusion_lon": 0.0}, {"lat": 38.9347565, "fusion_lat": 0.0, "type": "electric_scooter", "bike_id": "ea0ffc44ecec7031236ede57fed02db9", "is_reserved": 0, "rental_uris": {"ios": "https://dc.lft.to/lastmile_qr_scan", "android": "https://dc.lft.to/lastmile_qr_scan"}, "is_disabled": 0, "lon": -77.03578933333333, "name": "ea0ffc44ecec7031236ede57fed02db9", "fusion_lon": 0.0}, {"lat": 38.79982, "fusion_lat": 0.0, "type": "electric_bike", "bike_id": "4df3e0dfd8bb66a5c270068f82164255", "is_reserved": 0, "rental_uris": {"ios": "https://dc.lft.to/lastmile_qr_scan", "android": "https://dc.lft.to/lastmile_qr_scan"}, "is_disabled": 0, "lon": -77.12983483333333, "name": "4df3e0dfd8bb66a5c270068f82164255", "fusion_lon": 0.0}, {"lat": 38.91675716666666, "fusion_lat": 0.0, "type": "electric_scooter", "bike_id": "bb1281af5fb67e15cf4b280fc48bcffd", "is_reserved": 0, "rental_uris": {"ios": "https://dc.lft.to/lastmile_qr_scan", "android": "https://dc.lft.to/lastmile_qr_scan"}, "is_disabled": 0, "lon": -77.036881, "name": "bb1281af5fb67e15cf4b280fc48bcffd", "fusion_lon": 0.0}, {"lat": 38.92021666666667, "fusion_lat": 0.0, "type": "electric_scooter", "bike_id": "d8851c386873c1fd2d2505d878a7044c", "is_reserved": 0, "rental_uris": {"ios": "https://dc.lft.to/lastmile_qr_scan", "android": "https://dc.lft.to/lastmile_qr_scan"}, "is_disabled": 0, "lon": -77.0206595, "name": "d8851c386873c1fd2d2505d878a7044c", "fusion_lon": 0.0}, {"lat": 38.90897483333333, "fusion_lat": 0.0, "type": "electric_scooter", "bike_id": "2d2b8c33a845a1b04600ebfcf06e5d9b", "is_reserved": 0, "rental_uris": {"ios": "https://dc.lft.to/lastmile_qr_scan", "android": "https://dc.lft.to/lastmile_qr_scan"}, "is_disabled": 0, "lon": -77.04477633333333, "name": "2d2b8c33a845a1b04600ebfcf06e5d9b", "fusion_lon": 0.0}, {"lat": 38.8984585, "fusion_lat": 0.0, "type": "electric_scooter", "bike_id": "d5f3ba565e1bce8b68604b226fd6057b", "is_reserved": 0, "rental_uris": {"ios": "https://dc.lft.to/lastmile_qr_scan", "android": "https://dc.lft.to/lastmile_qr_scan"}, "is_disabled": 0, "lon": -77.021908, "name": "d5f3ba565e1bce8b68604b226fd6057b", "fusion_lon": 0.0}, {"lat": 38.910335, "fusion_lat": 0.0, "type": "electric_scooter", "bike_id": "27453dcfe593bdeba38473e4def18232", "is_reserved": 0, "rental_uris": {"ios": "https://dc.lft.to/lastmile_qr_scan", "android": "https://dc.lft.to/lastmile_qr_scan"}, "is_disabled": 0, "lon": -77.04880166666666, "name": "27453dcfe593bdeba38473e4def18232", "fusion_lon": 0.0}, {"lat": 38.90031833333333, "fusion_lat": 0.0, "type": "electric_scooter", "bike_id": "5c57da34be8f9c37b99fbcc4d0428f0c", "is_reserved": 0, "rental_uris": {"ios": "https://dc.lft.to/lastmile_qr_scan", "android": "https://dc.lft.to/lastmile_qr_scan"}, "is_disabled": 0, "lon": -76.99856816666667, "name": "5c57da34be8f9c37b99fbcc4d0428f0c", "fusion_lon": 0.0}, {"lat": 38.8623675, "fusion_lat": 0.0, "type": "electric_scooter", "bike_id": "934b18d219ecb0932f48392b1820174b", "is_reserved": 0, "rental_uris": {"ios": "https://dc.lft.to/lastmile_qr_scan", "android": "https://dc.lft.to/lastmile_qr_scan"}, "is_disabled": 0, "lon": -76.995163, "name": "934b18d219ecb0932f48392b1820174b", "fusion_lon": 0.0}, {"lat": 38.89219883333333, "fusion_lat": 0.0, "type": "electric_scooter", "bike_id": "644fbed1a1af7b6f139dbfe4998fc6ca", "is_reserved": 0, "rental_uris": {"ios": "https://dc.lft.to/lastmile_qr_scan", "android": "https://dc.lft.to/lastmile_qr_scan"}, "is_disabled": 0, "lon": -77.023119, "name": "644fbed1a1af7b6f139dbfe4998fc6ca", "fusion_lon": 0.0}, {"lat": 38.904771, "fusion_lat": 0.0, "type": "electric_scooter", "bike_id": "2243097e7850b22c6c3e6af0f71e0f60", "is_reserved": 0, "rental_uris": {"ios": "https://dc.lft.to/lastmile_qr_scan", "android": "https://dc.lft.to/lastmile_qr_scan"}, "is_disabled": 0, "lon": -77.0355945, "name": "2243097e7850b22c6c3e6af0f71e0f60", "fusion_lon": 0.0}, {"lat": 38.90552383333333, "fusion_lat": 0.0, "type": "electric_scooter", "bike_id": "f81d8ad48881f09ed265cdadb8f0cbcb", "is_reserved": 0, "rental_uris": {"ios": "https://dc.lft.to/lastmile_qr_scan", "android": "https://dc.lft.to/lastmile_qr_scan"}, "is_disabled": 0, "lon": -77.04651033333333, "name": "f81d8ad48881f09ed265cdadb8f0cbcb", "fusion_lon": 0.0}, {"lat": 38.94783866666667, "fusion_lat": 0.0, "type": "electric_bike", "bike_id": "a9a777c565d13af2f41a3598b9f666dc", "is_reserved": 0, "rental_uris": {"ios": "https://dc.lft.to/lastmile_qr_scan", "android": "https://dc.lft.to/lastmile_qr_scan"}, "is_disabled": 0, "lon": -76.972096, "name": "a9a777c565d13af2f41a3598b9f666dc", "fusion_lon": 0.0}, {"lat": 38.90475816666667, "fusion_lat": 0.0, "type": "electric_scooter", "bike_id": "dd78da49dccea78ae55a996a0a492291", "is_reserved": 0, "rental_uris": {"ios": "https://dc.lft.to/lastmile_qr_scan", "android": "https://dc.lft.to/lastmile_qr_scan"}, "is_disabled": 0, "lon": -77.05347016666667, "name": "dd78da49dccea78ae55a996a0a492291", "fusion_lon": 0.0}, {"lat": 38.905909666666666, "fusion_lat": 0.0, "type": "electric_scooter", "bike_id": "b0472adc91fe790ac7fe829e66bc654a", "is_reserved": 0, "rental_uris": {"ios": "https://dc.lft.to/lastmile_qr_scan", "android": "https://dc.lft.to/lastmile_qr_scan"}, "is_disabled": 0, "lon": -77.04497383333333, "name": "b0472adc91fe790ac7fe829e66bc654a", "fusion_lon": 0.0}, {"lat": 38.91000233333333, "fusion_lat": 0.0, "type": "electric_scooter", "bike_id": "869f681097fe0055f9345361758ddc58", "is_reserved": 0, "rental_uris": {"ios": "https://dc.lft.to/lastmile_qr_scan", "android": "https://dc.lft.to/lastmile_qr_scan"}, "is_disabled": 0, "lon": -77.040079, "name": "869f681097fe0055f9345361758ddc58", "fusion_lon": 0.0}, {"lat": 39.024386, "fusion_lat": 0.0, "type": "electric_bike", "bike_id": "4211d087a99ed59926864008eada35d4", "is_reserved": 0, "rental_uris": {"ios": "https://dc.lft.to/lastmile_qr_scan", "android": "https://dc.lft.to/lastmile_qr_scan"}, "is_disabled": 0, "lon": -77.13102233333333, "name": "4211d087a99ed59926864008eada35d4", "fusion_lon": 0.0}, {"lat": 38.91429466666666, "fusion_lat": 0.0, "type": "electric_scooter", "bike_id": "32fe4d254b8d5a9638891dc832130940", "is_reserved": 0, "rental_uris": {"ios": "https://dc.lft.to/lastmile_qr_scan", "android": "https://dc.lft.to/lastmile_qr_scan"}, "is_disabled": 0, "lon": -77.04509516666667, "name": "32fe4d254b8d5a9638891dc832130940", "fusion_lon": 0.0}, {"lat": 38.88760933333333, "fusion_lat": 0.0, "type": "electric_scooter", "bike_id": "57cdc1970d893117f114ad0b1dd0f36a", "is_reserved": 0, "rental_uris": {"ios": "https://dc.lft.to/lastmile_qr_scan", "android": "https://dc.lft.to/lastmile_qr_scan"}, "is_disabled": 0, "lon": -76.9559165, "name": "57cdc1970d893117f114ad0b1dd0f36a", "fusion_lon": 0.0}, {"lat": 38.9290995, "fusion_lat": 0.0, "type": "electric_scooter", "bike_id": "7e35cd0f239a3c8ea25b1d55cb6d5d62", "is_reserved": 0, "rental_uris": {"ios": "https://dc.lft.to/lastmile_qr_scan", "android": "https://dc.lft.to/lastmile_qr_scan"}, "is_disabled": 0, "lon": -77.0361635, "name": "7e35cd0f239a3c8ea25b1d55cb6d5d62", "fusion_lon": 0.0}, {"lat": 38.978821333333336, "fusion_lat": 0.0, "type": "electric_bike", "bike_id": "3689e11591ddfcdedbc9b6727efe2e95", "is_reserved": 0, "rental_uris": {"ios": "https://dc.lft.to/lastmile_qr_scan", "android": "https://dc.lft.to/lastmile_qr_scan"}, "is_disabled": 0, "lon": -77.06025466666667, "name": "3689e11591ddfcdedbc9b6727efe2e95", "fusion_lon": 0.0}, {"lat": 38.914955666666664, "fusion_lat": 0.0, "type": "electric_scooter", "bike_id": "88d0853bd1757c012d751e3cb71e1df7", "is_reserved": 0, "rental_uris": {"ios": "https://dc.lft.to/lastmile_qr_scan", "android": "https://dc.lft.to/lastmile_qr_scan"}, "is_disabled": 0, "lon": -77.01865166666667, "name": "88d0853bd1757c012d751e3cb71e1df7", "fusion_lon": 0.0}, {"lat": 38.91243983333333, "fusion_lat": 0.0, "type": "electric_scooter", "bike_id": "b2f86a44cbe69deacca9099aae350c24", "is_reserved": 0, "rental_uris": {"ios": "https://dc.lft.to/lastmile_qr_scan", "android": "https://dc.lft.to/lastmile_qr_scan"}, "is_disabled": 0, "lon": -77.03415066666666, "name": "b2f86a44cbe69deacca9099aae350c24", "fusion_lon": 0.0}, {"lat": 38.906863, "fusion_lat": 0.0, "type": "electric_scooter", "bike_id": "0de48d11ef5a27cdd92ce1283fad5882", "is_reserved": 0, "rental_uris": {"ios": "https://dc.lft.to/lastmile_qr_scan", "android": "https://dc.lft.to/lastmile_qr_scan"}, "is_disabled": 0, "lon": -77.02610633333333, "name": "0de48d11ef5a27cdd92ce1283fad5882", "fusion_lon": 0.0}, {"lat": 38.91659466666667, "fusion_lat": 0.0, "type": "electric_scooter", "bike_id": "7f464ee4d4d85a7a52660990d9c32f09", "is_reserved": 0, "rental_uris": {"ios": "https://dc.lft.to/lastmile_qr_scan", "android": "https://dc.lft.to/lastmile_qr_scan"}, "is_disabled": 0, "lon": -77.03444116666667, "name": "7f464ee4d4d85a7a52660990d9c32f09", "fusion_lon": 0.0}, {"lat": 38.9188425, "fusion_lat": 0.0, "type": "electric_scooter", "bike_id": "fa844e0b198afca3491ee5344026fe25", "is_reserved": 0, "rental_uris": {"ios": "https://dc.lft.to/lastmile_qr_scan", "android": "https://dc.lft.to/lastmile_qr_scan"}, "is_disabled": 0, "lon": -77.02469083333334, "name": "fa844e0b198afca3491ee5344026fe25", "fusion_lon": 0.0}, {"lat": 38.905015, "fusion_lat": 0.0, "type": "electric_scooter", "bike_id": "cf9b48a1b08f2643133f8fd719ebeed8", "is_reserved": 0, "rental_uris": {"ios": "https://dc.lft.to/lastmile_qr_scan", "android": "https://dc.lft.to/lastmile_qr_scan"}, "is_disabled": 0, "lon": -77.061218, "name": "cf9b48a1b08f2643133f8fd719ebeed8", "fusion_lon": 0.0}, {"lat": 38.900131, "fusion_lat": 0.0, "type": "electric_scooter", "bike_id": "d647f109094af3cf63f37c8e1f2ba34f", "is_reserved": 0, "rental_uris": {"ios": "https://dc.lft.to/lastmile_qr_scan", "android": "https://dc.lft.to/lastmile_qr_scan"}, "is_disabled": 0, "lon": -77.04276833333333, "name": "d647f109094af3cf63f37c8e1f2ba34f", "fusion_lon": 0.0}, {"lat": 38.855128666666666, "fusion_lat": 0.0, "type": "electric_bike", "bike_id": "31b5bbca21e02c80c6089e8ff7ac4e71", "is_reserved": 0, "rental_uris": {"ios": "https://dc.lft.to/lastmile_qr_scan", "android": "https://dc.lft.to/lastmile_qr_scan"}, "is_disabled": 0, "lon": -76.9843545, "name": "31b5bbca21e02c80c6089e8ff7ac4e71", "fusion_lon": 0.0}, {"lat": 38.87472666666667, "fusion_lat": 0.0, "type": "electric_scooter", "bike_id": "c6ddc7b19733f9f3b18d01aeeaafd742", "is_reserved": 0, "rental_uris": {"ios": "https://dc.lft.to/lastmile_qr_scan", "android": "https://dc.lft.to/lastmile_qr_scan"}, "is_disabled": 0, "lon": -77.00948533333333, "name": "c6ddc7b19733f9f3b18d01aeeaafd742", "fusion_lon": 0.0}, {"lat": 38.9000825, "fusion_lat": 0.0, "type": "electric_scooter", "bike_id": "1433576196dcdcac822d5c3d8679393c", "is_reserved": 0, "rental_uris": {"ios": "https://dc.lft.to/lastmile_qr_scan", "android": "https://dc.lft.to/lastmile_qr_scan"}, "is_disabled": 0, "lon": -77.01022033333334, "name": "1433576196dcdcac822d5c3d8679393c", "fusion_lon": 0.0}, {"lat": 38.883137, "fusion_lat": 0.0, "type": "electric_scooter", "bike_id": "80db9cb2e3773d79f5559d858f0505a9", "is_reserved": 0, "rental_uris": {"ios": "https://dc.lft.to/lastmile_qr_scan", "android": "https://dc.lft.to/lastmile_qr_scan"}, "is_disabled": 0, "lon": -77.0005035, "name": "80db9cb2e3773d79f5559d858f0505a9", "fusion_lon": 0.0}, {"lat": 38.9204175, "fusion_lat": 0.0, "type": "electric_scooter", "bike_id": "33d105a60c949bc1036c3673bcbcf817", "is_reserved": 0, "rental_uris": {"ios": "https://dc.lft.to/lastmile_qr_scan", "android": "https://dc.lft.to/lastmile_qr_scan"}, "is_disabled": 0, "lon": -77.0259465, "name": "33d105a60c949bc1036c3673bcbcf817", "fusion_lon": 0.0}, {"lat": 38.843141833333334, "fusion_lat": 0.0, "type": "electric_scooter", "bike_id": "d7bf710dcb2a5f4149ac1404940a45b4", "is_reserved": 0, "rental_uris": {"ios": "https://dc.lft.to/lastmile_qr_scan", "android": "https://dc.lft.to/lastmile_qr_scan"}, "is_disabled": 0, "lon": -76.99926433333333, "name": "d7bf710dcb2a5f4149ac1404940a45b4", "fusion_lon": 0.0}, {"lat": 38.905056333333334, "fusion_lat": 0.0, "type": "electric_scooter", "bike_id": "512f9864fd66b5d1b6fe5e0bed3365ba", "is_reserved": 0, "rental_uris": {"ios": "https://dc.lft.to/lastmile_qr_scan", "android": "https://dc.lft.to/lastmile_qr_scan"}, "is_disabled": 0, "lon": -77.0601625, "name": "512f9864fd66b5d1b6fe5e0bed3365ba", "fusion_lon": 0.0}, {"lat": 38.89313466666667, "fusion_lat": 0.0, "type": "electric_scooter", "bike_id": "8652aea03557e3dcc691c7705b410d9f", "is_reserved": 0, "rental_uris": {"ios": "https://dc.lft.to/lastmile_qr_scan", "android": "https://dc.lft.to/lastmile_qr_scan"}, "is_disabled": 0, "lon": -77.01222966666667, "name": "8652aea03557e3dcc691c7705b410d9f", "fusion_lon": 0.0}, {"lat": 38.934836, "fusion_lat": 0.0, "type": "electric_scooter", "bike_id": "c7e229fba0bf656ebcd9319b612a1d5e", "is_reserved": 0, "rental_uris": {"ios": "https://dc.lft.to/lastmile_qr_scan", "android": "https://dc.lft.to/lastmile_qr_scan"}, "is_disabled": 0, "lon": -77.072628, "name": "c7e229fba0bf656ebcd9319b612a1d5e", "fusion_lon": 0.0}, {"lat": 38.91917733333333, "fusion_lat": 0.0, "type": "electric_scooter", "bike_id": "afed891b12d55236bece83dc297bfd06", "is_reserved": 0, "rental_uris": {"ios": "https://dc.lft.to/lastmile_qr_scan", "android": "https://dc.lft.to/lastmile_qr_scan"}, "is_disabled": 0, "lon": -77.031812, "name": "afed891b12d55236bece83dc297bfd06", "fusion_lon": 0.0}, {"lat": 38.90985083333333, "fusion_lat": 0.0, "type": "electric_scooter", "bike_id": "95be63c37cb39d2307d42c0b697b6d7b", "is_reserved": 0, "rental_uris": {"ios": "https://dc.lft.to/lastmile_qr_scan", "android": "https://dc.lft.to/lastmile_qr_scan"}, "is_disabled": 0, "lon": -77.03384366666667, "name": "95be63c37cb39d2307d42c0b697b6d7b", "fusion_lon": 0.0}, {"lat": 38.80710666666667, "fusion_lat": 0.0, "type": "electric_bike", "bike_id": "f01295ee2c0835932503b0d6f058f594", "is_reserved": 0, "rental_uris": {"ios": "https://dc.lft.to/lastmile_qr_scan", "android": "https://dc.lft.to/lastmile_qr_scan"}, "is_disabled": 0, "lon": -77.06172983333333, "name": "f01295ee2c0835932503b0d6f058f594", "fusion_lon": 0.0}, {"lat": 38.865171333333336, "fusion_lat": 0.0, "type": "electric_scooter", "bike_id": "6eedaf7174f2af9cce931091576de0c6", "is_reserved": 0, "rental_uris": {"ios": "https://dc.lft.to/lastmile_qr_scan", "android": "https://dc.lft.to/lastmile_qr_scan"}, "is_disabled": 0, "lon": -76.99017316666666, "name": "6eedaf7174f2af9cce931091576de0c6", "fusion_lon": 0.0}, {"lat": 38.887509666666666, "fusion_lat": 0.0, "type": "electric_scooter", "bike_id": "2e2bab5b29d2e35d592a2cbece722551", "is_reserved": 0, "rental_uris": {"ios": "https://dc.lft.to/lastmile_qr_scan", "android": "https://dc.lft.to/lastmile_qr_scan"}, "is_disabled": 0, "lon": -77.0272855, "name": "2e2bab5b29d2e35d592a2cbece722551", "fusion_lon": 0.0}, {"lat": 38.900222666666664, "fusion_lat": 0.0, "type": "electric_scooter", "bike_id": "544166e4f58ad74084f159826961a600", "is_reserved": 0, "rental_uris": {"ios": "https://dc.lft.to/lastmile_qr_scan", "android": "https://dc.lft.to/lastmile_qr_scan"}, "is_disabled": 0, "lon": -77.04486866666667, "name": "544166e4f58ad74084f159826961a600", "fusion_lon": 0.0}, {"lat": 38.9005515, "fusion_lat": 0.0, "type": "electric_scooter", "bike_id": "bfab53b9d788f263a9a4a2f5afa8d06b", "is_reserved": 0, "rental_uris": {"ios": "https://dc.lft.to/lastmile_qr_scan", "android": "https://dc.lft.to/lastmile_qr_scan"}, "is_disabled": 0, "lon": -77.0449125, "name": "bfab53b9d788f263a9a4a2f5afa8d06b", "fusion_lon": 0.0}, {"lat": 38.8985285, "fusion_lat": 0.0, "type": "electric_scooter", "bike_id": "69deadb1bf4be93f10ee678cbd99b782", "is_reserved": 0, "rental_uris": {"ios": "https://dc.lft.to/lastmile_qr_scan", "android": "https://dc.lft.to/lastmile_qr_scan"}, "is_disabled": 0, "lon": -76.98169583333333, "name": "69deadb1bf4be93f10ee678cbd99b782", "fusion_lon": 0.0}, {"lat": 38.893807, "fusion_lat": 0.0, "type": "electric_bike", "bike_id": "e99cb004352e4c08c5d150aac6ae893e", "is_reserved": 0, "rental_uris": {"ios": "https://dc.lft.to/lastmile_qr_scan", "android": "https://dc.lft.to/lastmile_qr_scan"}, "is_disabled": 0, "lon": -77.02844916666666, "name": "e99cb004352e4c08c5d150aac6ae893e", "fusion_lon": 0.0}, {"lat": 38.809037000000004, "fusion_lat": 0.0, "type": "electric_bike", "bike_id": "cfbe760b79cc03ac2b5776a1233e26d7", "is_reserved": 0, "rental_uris": {"ios": "https://dc.lft.to/lastmile_qr_scan", "android": "https://dc.lft.to/lastmile_qr_scan"}, "is_disabled": 0, "lon": -77.08665816666667, "name": "cfbe760b79cc03ac2b5776a1233e26d7", "fusion_lon": 0.0}, {"lat": 38.972397, "fusion_lat": 0.0, "type": "electric_bike", "bike_id": "fa4e15008576a8b03410064c94b27bf8", "is_reserved": 0, "rental_uris": {"ios": "https://dc.lft.to/lastmile_qr_scan", "android": "https://dc.lft.to/lastmile_qr_scan"}, "is_disabled": 0, "lon": -77.02714316666666, "name": "fa4e15008576a8b03410064c94b27bf8", "fusion_lon": 0.0}, {"lat": 38.92344383333333, "fusion_lat": 0.0, "type": "electric_scooter", "bike_id": "34f52f8dc8f9776f01eaf349fd562e73", "is_reserved": 0, "rental_uris": {"ios": "https://dc.lft.to/lastmile_qr_scan", "android": "https://dc.lft.to/lastmile_qr_scan"}, "is_disabled": 0, "lon": -77.05082883333333, "name": "34f52f8dc8f9776f01eaf349fd562e73", "fusion_lon": 0.0}, {"lat": 38.93482083333333, "fusion_lat": 0.0, "type": "electric_scooter", "bike_id": "06f55f7ee3ffc3e67d4f3e798dd82684", "is_reserved": 0, "rental_uris": {"ios": "https://dc.lft.to/lastmile_qr_scan", "android": "https://dc.lft.to/lastmile_qr_scan"}, "is_disabled": 0, "lon": -77.07269616666666, "name": "06f55f7ee3ffc3e67d4f3e798dd82684", "fusion_lon": 0.0}, {"lat": 38.9054035, "fusion_lat": 0.0, "type": "electric_scooter", "bike_id": "7df18a9d049e5ea4dd419bac3670d25a", "is_reserved": 0, "rental_uris": {"ios": "https://dc.lft.to/lastmile_qr_scan", "android": "https://dc.lft.to/lastmile_qr_scan"}, "is_disabled": 0, "lon": -77.04929983333334, "name": "7df18a9d049e5ea4dd419bac3670d25a", "fusion_lon": 0.0}, {"lat": 38.911978166666664, "fusion_lat": 0.0, "type": "electric_scooter", "bike_id": "63a352866aa4ebdcbe96ca01ff85aed2", "is_reserved": 0, "rental_uris": {"ios": "https://dc.lft.to/lastmile_qr_scan", "android": "https://dc.lft.to/lastmile_qr_scan"}, "is_disabled": 0, "lon": -77.038505, "name": "63a352866aa4ebdcbe96ca01ff85aed2", "fusion_lon": 0.0}, {"lat": 38.86387166666667, "fusion_lat": 0.0, "type": "electric_scooter", "bike_id": "1f2b020d40f3ff1ba479f5d0bd6e6deb", "is_reserved": 0, "rental_uris": {"ios": "https://dc.lft.to/lastmile_qr_scan", "android": "https://dc.lft.to/lastmile_qr_scan"}, "is_disabled": 0, "lon": -76.9903935, "name": "1f2b020d40f3ff1ba479f5d0bd6e6deb", "fusion_lon": 0.0}, {"lat": 38.8862235, "fusion_lat": 0.0, "type": "electric_scooter", "bike_id": "54080f05ab94a5889a12a9a6a9f626bd", "is_reserved": 0, "rental_uris": {"ios": "https://dc.lft.to/lastmile_qr_scan", "android": "https://dc.lft.to/lastmile_qr_scan"}, "is_disabled": 0, "lon": -76.95583783333333, "name": "54080f05ab94a5889a12a9a6a9f626bd", "fusion_lon": 0.0}, {"lat": 38.93427716666667, "fusion_lat": 0.0, "type": "electric_scooter", "bike_id": "2582b11cec6a729b3787c80cfcd52c20", "is_reserved": 0, "rental_uris": {"ios": "https://dc.lft.to/lastmile_qr_scan", "android": "https://dc.lft.to/lastmile_qr_scan"}, "is_disabled": 0, "lon": -77.04001716666667, "name": "2582b11cec6a729b3787c80cfcd52c20", "fusion_lon": 0.0}, {"lat": 38.92223, "fusion_lat": 0.0, "type": "electric_scooter", "bike_id": "068bd7304c9aeba3e479c6d08b1bdefc", "is_reserved": 0, "rental_uris": {"ios": "https://dc.lft.to/lastmile_qr_scan", "android": "https://dc.lft.to/lastmile_qr_scan"}, "is_disabled": 0, "lon": -77.03451766666667, "name": "068bd7304c9aeba3e479c6d08b1bdefc", "fusion_lon": 0.0}, {"lat": 38.92857583333333, "fusion_lat": 0.0, "type": "electric_scooter", "bike_id": "fc06b7f25ea612926f8d784eb1f99e71", "is_reserved": 0, "rental_uris": {"ios": "https://dc.lft.to/lastmile_qr_scan", "android": "https://dc.lft.to/lastmile_qr_scan"}, "is_disabled": 0, "lon": -77.01413916666667, "name": "fc06b7f25ea612926f8d784eb1f99e71", "fusion_lon": 0.0}, {"lat": 38.903195, "fusion_lat": 0.0, "type": "electric_scooter", "bike_id": "d9118b88deb8a9f16239ebad58a25a2d", "is_reserved": 0, "rental_uris": {"ios": "https://dc.lft.to/lastmile_qr_scan", "android": "https://dc.lft.to/lastmile_qr_scan"}, "is_disabled": 0, "lon": -76.97553416666666, "name": "d9118b88deb8a9f16239ebad58a25a2d", "fusion_lon": 0.0}, {"lat": 38.8847075, "fusion_lat": 0.0, "type": "electric_scooter", "bike_id": "0cc2c7a525397a939b103d3d9ba1b8f1", "is_reserved": 0, "rental_uris": {"ios": "https://dc.lft.to/lastmile_qr_scan", "android": "https://dc.lft.to/lastmile_qr_scan"}, "is_disabled": 0, "lon": -77.03175516666667, "name": "0cc2c7a525397a939b103d3d9ba1b8f1", "fusion_lon": 0.0}, {"lat": 38.894646333333334, "fusion_lat": 0.0, "type": "electric_scooter", "bike_id": "314adefb4100d3768b1f1f1ccc90557a", "is_reserved": 0, "rental_uris": {"ios": "https://dc.lft.to/lastmile_qr_scan", "android": "https://dc.lft.to/lastmile_qr_scan"}, "is_disabled": 0, "lon": -77.02241066666667, "name": "314adefb4100d3768b1f1f1ccc90557a", "fusion_lon": 0.0}, {"lat": 38.929711, "fusion_lat": 0.0, "type": "electric_scooter", "bike_id": "0e9215755c8f7206a4952e784a954ac6", "is_reserved": 0, "rental_uris": {"ios": "https://dc.lft.to/lastmile_qr_scan", "android": "https://dc.lft.to/lastmile_qr_scan"}, "is_disabled": 0, "lon": -77.028234, "name": "0e9215755c8f7206a4952e784a954ac6", "fusion_lon": 0.0}, {"lat": 38.924373333333335, "fusion_lat": 0.0, "type": "electric_scooter", "bike_id": "5ca682e43a9e3d3cf2474d95dbd2666d", "is_reserved": 0, "rental_uris": {"ios": "https://dc.lft.to/lastmile_qr_scan", "android": "https://dc.lft.to/lastmile_qr_scan"}, "is_disabled": 0, "lon": -77.052103, "name": "5ca682e43a9e3d3cf2474d95dbd2666d", "fusion_lon": 0.0}, {"lat": 38.90013733333333, "fusion_lat": 0.0, "type": "electric_scooter", "bike_id": "1af02bdee054563c95bd2145ff2dbd83", "is_reserved": 0, "rental_uris": {"ios": "https://dc.lft.to/lastmile_qr_scan", "android": "https://dc.lft.to/lastmile_qr_scan"}, "is_disabled": 0, "lon": -77.0120225, "name": "1af02bdee054563c95bd2145ff2dbd83", "fusion_lon": 0.0}, {"lat": 38.89113833333333, "fusion_lat": 0.0, "type": "electric_scooter", "bike_id": "c9a828adbe4aebc5fb523a441e48006a", "is_reserved": 0, "rental_uris": {"ios": "https://dc.lft.to/lastmile_qr_scan", "android": "https://dc.lft.to/lastmile_qr_scan"}, "is_disabled": 0, "lon": -76.99152883333333, "name": "c9a828adbe4aebc5fb523a441e48006a", "fusion_lon": 0.0}, {"lat": 38.8442715, "fusion_lat": 0.0, "type": "electric_scooter", "bike_id": "31da480dc7b604b6fd34bb199a675d09", "is_reserved": 0, "rental_uris": {"ios": "https://dc.lft.to/lastmile_qr_scan", "android": "https://dc.lft.to/lastmile_qr_scan"}, "is_disabled": 0, "lon": -76.997785, "name": "31da480dc7b604b6fd34bb199a675d09", "fusion_lon": 0.0}, {"lat": 38.92282466666666, "fusion_lat": 0.0, "type": "electric_scooter", "bike_id": "39904f7f9866aa747182884d54c3df7f", "is_reserved": 0, "rental_uris": {"ios": "https://dc.lft.to/lastmile_qr_scan", "android": "https://dc.lft.to/lastmile_qr_scan"}, "is_disabled": 0, "lon": -77.04465483333334, "name": "39904f7f9866aa747182884d54c3df7f", "fusion_lon": 0.0}, {"lat": 38.9189555, "fusion_lat": 0.0, "type": "electric_scooter", "bike_id": "507a10b2298a300f7243aade5be31f1c", "is_reserved": 0, "rental_uris": {"ios": "https://dc.lft.to/lastmile_qr_scan", "android": "https://dc.lft.to/lastmile_qr_scan"}, "is_disabled": 0, "lon": -77.046216, "name": "507a10b2298a300f7243aade5be31f1c", "fusion_lon": 0.0}, {"lat": 38.91604516666666, "fusion_lat": 0.0, "type": "electric_scooter", "bike_id": "68d8969dc620223c9b93e6e442166ca6", "is_reserved": 0, "rental_uris": {"ios": "https://dc.lft.to/lastmile_qr_scan", "android": "https://dc.lft.to/lastmile_qr_scan"}, "is_disabled": 0, "lon": -77.0317905, "name": "68d8969dc620223c9b93e6e442166ca6", "fusion_lon": 0.0}, {"lat": 38.922567666666666, "fusion_lat": 0.0, "type": "electric_bike", "bike_id": "9a76e159b2d485cfdf1a24b7c9e7cfa3", "is_reserved": 0, "rental_uris": {"ios": "https://dc.lft.to/lastmile_qr_scan", "android": "https://dc.lft.to/lastmile_qr_scan"}, "is_disabled": 0, "lon": -77.01948916666667, "name": "9a76e159b2d485cfdf1a24b7c9e7cfa3", "fusion_lon": 0.0}, {"lat": 38.92908216666667, "fusion_lat": 0.0, "type": "electric_scooter", "bike_id": "fb79e2d75c32b98a9eb151cfb28e36d4", "is_reserved": 0, "rental_uris": {"ios": "https://dc.lft.to/lastmile_qr_scan", "android": "https://dc.lft.to/lastmile_qr_scan"}, "is_disabled": 0, "lon": -77.06265216666667, "name": "fb79e2d75c32b98a9eb151cfb28e36d4", "fusion_lon": 0.0}, {"lat": 38.8923, "fusion_lat": 0.0, "type": "electric_scooter", "bike_id": "776c4d9e0e362a5465d5bbbb072ff06b", "is_reserved": 0, "rental_uris": {"ios": "https://dc.lft.to/lastmile_qr_scan", "android": "https://dc.lft.to/lastmile_qr_scan"}, "is_disabled": 0, "lon": -77.05000683333333, "name": "776c4d9e0e362a5465d5bbbb072ff06b", "fusion_lon": 0.0}, {"lat": 38.9147725, "fusion_lat": 0.0, "type": "electric_scooter", "bike_id": "61a23c7004a3d6f416fed18daa7b5db7", "is_reserved": 0, "rental_uris": {"ios": "https://dc.lft.to/lastmile_qr_scan", "android": "https://dc.lft.to/lastmile_qr_scan"}, "is_disabled": 0, "lon": -76.98381583333334, "name": "61a23c7004a3d6f416fed18daa7b5db7", "fusion_lon": 0.0}, {"lat": 38.90104, "fusion_lat": 0.0, "type": "electric_scooter", "bike_id": "eb8ab36e766801ddc0ea517af224de77", "is_reserved": 0, "rental_uris": {"ios": "https://dc.lft.to/lastmile_qr_scan", "android": "https://dc.lft.to/lastmile_qr_scan"}, "is_disabled": 0, "lon": -77.03837316666667, "name": "eb8ab36e766801ddc0ea517af224de77", "fusion_lon": 0.0}, {"lat": 38.89715116666667, "fusion_lat": 0.0, "type": "electric_scooter", "bike_id": "12af07e85bce325d6041faae137b6adb", "is_reserved": 0, "rental_uris": {"ios": "https://dc.lft.to/lastmile_qr_scan", "android": "https://dc.lft.to/lastmile_qr_scan"}, "is_disabled": 0, "lon": -77.02381433333333, "name": "12af07e85bce325d6041faae137b6adb", "fusion_lon": 0.0}, {"lat": 38.92171466666667, "fusion_lat": 0.0, "type": "electric_scooter", "bike_id": "a15382f9033d514ed6d9d21271a216a5", "is_reserved": 0, "rental_uris": {"ios": "https://dc.lft.to/lastmile_qr_scan", "android": "https://dc.lft.to/lastmile_qr_scan"}, "is_disabled": 0, "lon": -77.03252516666667, "name": "a15382f9033d514ed6d9d21271a216a5", "fusion_lon": 0.0}, {"lat": 38.91535833333333, "fusion_lat": 0.0, "type": "electric_scooter", "bike_id": "2167174376045424ab865c76849ead10", "is_reserved": 0, "rental_uris": {"ios": "https://dc.lft.to/lastmile_qr_scan", "android": "https://dc.lft.to/lastmile_qr_scan"}, "is_disabled": 0, "lon": -76.97012616666666, "name": "2167174376045424ab865c76849ead10", "fusion_lon": 0.0}, {"lat": 38.89361016666667, "fusion_lat": 0.0, "type": "electric_scooter", "bike_id": "1979dd09bf965663da6ebe5843e2a22e", "is_reserved": 0, "rental_uris": {"ios": "https://dc.lft.to/lastmile_qr_scan", "android": "https://dc.lft.to/lastmile_qr_scan"}, "is_disabled": 0, "lon": -76.9493615, "name": "1979dd09bf965663da6ebe5843e2a22e", "fusion_lon": 0.0}, {"lat": 38.90673533333333, "fusion_lat": 0.0, "type": "electric_scooter", "bike_id": "8909d1f872b26c0ef58ee38e38858a87", "is_reserved": 0, "rental_uris": {"ios": "https://dc.lft.to/lastmile_qr_scan", "android": "https://dc.lft.to/lastmile_qr_scan"}, "is_disabled": 0, "lon": -77.0711955, "name": "8909d1f872b26c0ef58ee38e38858a87", "fusion_lon": 0.0}, {"lat": 38.8972705, "fusion_lat": 0.0, "type": "electric_scooter", "bike_id": "1145b141ebe0b4b2e927943b4d835719", "is_reserved": 0, "rental_uris": {"ios": "https://dc.lft.to/lastmile_qr_scan", "android": "https://dc.lft.to/lastmile_qr_scan"}, "is_disabled": 0, "lon": -77.002206, "name": "1145b141ebe0b4b2e927943b4d835719", "fusion_lon": 0.0}, {"lat": 38.901038666666665, "fusion_lat": 0.0, "type": "electric_scooter", "bike_id": "eae67eb50e6f18042f206053014f6ce0", "is_reserved": 0, "rental_uris": {"ios": "https://dc.lft.to/lastmile_qr_scan", "android": "https://dc.lft.to/lastmile_qr_scan"}, "is_disabled": 0, "lon": -77.02413616666666, "name": "eae67eb50e6f18042f206053014f6ce0", "fusion_lon": 0.0}, {"lat": 38.882387333333334, "fusion_lat": 0.0, "type": "electric_bike", "bike_id": "73a952ddf25f34328cceb1069ec8d49b", "is_reserved": 0, "rental_uris": {"ios": "https://dc.lft.to/lastmile_qr_scan", "android": "https://dc.lft.to/lastmile_qr_scan"}, "is_disabled": 0, "lon": -76.96252433333333, "name": "73a952ddf25f34328cceb1069ec8d49b", "fusion_lon": 0.0}, {"lat": 38.82377783333333, "fusion_lat": 0.0, "type": "electric_bike", "bike_id": "47a599159ae0387f598bd51120574d9f", "is_reserved": 0, "rental_uris": {"ios": "https://dc.lft.to/lastmile_qr_scan", "android": "https://dc.lft.to/lastmile_qr_scan"}, "is_disabled": 0, "lon": -77.00229116666667, "name": "47a599159ae0387f598bd51120574d9f", "fusion_lon": 0.0}, {"lat": 39.043077833333335, "fusion_lat": 0.0, "type": "electric_bike", "bike_id": "9af28a48bcb9f5f6e0e59a7107130bd8", "is_reserved": 0, "rental_uris": {"ios": "https://dc.lft.to/lastmile_qr_scan", "android": "https://dc.lft.to/lastmile_qr_scan"}, "is_disabled": 0, "lon": -77.0515775, "name": "9af28a48bcb9f5f6e0e59a7107130bd8", "fusion_lon": 0.0}, {"lat": 38.906607666666666, "fusion_lat": 0.0, "type": "electric_scooter", "bike_id": "4d37288deb766d41eba977c12aedaf77", "is_reserved": 0, "rental_uris": {"ios": "https://dc.lft.to/lastmile_qr_scan", "android": "https://dc.lft.to/lastmile_qr_scan"}, "is_disabled": 0, "lon": -77.04147516666667, "name": "4d37288deb766d41eba977c12aedaf77", "fusion_lon": 0.0},