{"data": {"bikes": [{"lon": -76.99033783333333, "lat": 38.85870583333333, "name": "61c6b71a76c5c0b6bbd210cc4a323ff9", "fusion_lat": 0.0, "fusion_lon": 0.0, "rental_uris": {"android": "https://dc.lft.to/lastmile_qr_scan", "ios": "https://dc.lft.to/lastmile_qr_scan"}, "is_reserved": 0, "is_disabled": 0, "type": "electric_scooter", "bike_id": "61c6b71a76c5c0b6bbd210cc4a323ff9"}, {"lon": -77.02402716666667, "lat": 38.887379833333334, "name": "ed9bfe0deeca22d2f7a34e0ce004e7ad", "fusion_lat": 0.0, "fusion_lon": 0.0, "rental_uris": {"android": "https://dc.lft.to/lastmile_qr_scan", "ios": "https://dc.lft.to/lastmile_qr_scan"}, "is_reserved": 0, "is_disabled": 0, "type": "electric_scooter", "bike_id": "ed9bfe0deeca22d2f7a34e0ce004e7ad"}, {"lon": -77.04393133333333, "lat": 38.922758, "name": "34e3a37eacc362812a0771279e4b5c8b", "fusion_lat": 0.0, "fusion_lon": 0.0, "rental_uris": {"android": "https://dc.lft.to/lastmile_qr_scan", "ios": "https://dc.lft.to/lastmile_qr_scan"}, "is_reserved": 0, "is_disabled": 0, "type": "electric_scooter", "bike_id": "34e3a37eacc362812a0771279e4b5c8b"}, {"lon": -77.01821016666666, "lat": 38.9081135, "name": "7bef873fa49351c9819496307f849c39", "fusion_lat": 0.0, "fusion_lon": 0.0, "rental_uris": {"android": "https://dc.lft.to/lastmile_qr_scan", "ios": "https://dc.lft.to/lastmile_qr_scan"}, "is_reserved": 0, "is_disabled": 0, "type": "electric_scooter", "bike_id": "7bef873fa49351c9819496307f849c39"}, {"lon": -77.03219016666667, "lat": 38.914828, "name": "301bfee0684617fe8dfefeb2f77cdcb1", "fusion_lat": 0.0, "fusion_lon": 0.0, "rental_uris": {"android": "https://dc.lft.to/lastmile_qr_scan", "ios": "https://dc.lft.to/lastmile_qr_scan"}, "is_reserved": 0, "is_disabled": 0, "type": "electric_scooter", "bike_id": "301bfee0684617fe8dfefeb2f77cdcb1"}, {"lon": -76.96508383333334, "lat": 38.87649066666667, "name": "231879a40de4dfa54e6ae880dd8f458d", "fusion_lat": 0.0, "fusion_lon": 0.0, "rental_uris": {"android": "https://dc.lft.to/lastmile_qr_scan", "ios": "https://dc.lft.to/lastmile_qr_scan"}, "is_reserved": 0, "is_disabled": 0, "type": "electric_scooter", "bike_id": "231879a40de4dfa54e6ae880dd8f458d"}, {"lon": -77.01073733333334, "lat": 38.8710475, "name": "c30e13a716b3b98bc495a3deb2b78855", "fusion_lat": 0.0, "fusion_lon": 0.0, "rental_uris": {"android": "https://dc.lft.to/lastmile_qr_scan", "ios": "https://dc.lft.to/lastmile_qr_scan"}, "is_reserved": 0, "is_disabled": 0, "type": "electric_scooter", "bike_id": "c30e13a716b3b98bc495a3deb2b78855"}, {"lon": -77.1091415, "lat": 39.05206183333333, "name": "3353b63b04915528f0ddc14fc0d2e942", "fusion_lat": 0.0, "fusion_lon": 0.0, "rental_uris": {"android": "https://dc.lft.to/lastmile_qr_scan", "ios": "https://dc.lft.to/lastmile_qr_scan"}, "is_reserved": 0, "is_disabled": 0, "type": "electric_bike", "bike_id": "3353b63b04915528f0ddc14fc0d2e942"}, {"lon": -76.965596, "lat": 38.918415, "name": "d7c2b4f398d4ee08082272c558398a89", "fusion_lat": 0.0, "fusion_lon": 0.0, "rental_uris": {"android": "https://dc.lft.to/lastmile_qr_scan", "ios": "https://dc.lft.to/lastmile_qr_scan"}, "is_reserved": 0, "is_disabled": 0, "type": "electric_scooter", "bike_id": "d7c2b4f398d4ee08082272c558398a89"}, {"lon": -77.02359483333333, "lat": 38.908721166666666, "name": "dc54ffd230f64831d1eb80a8c29200ed", "fusion_lat": 0.0, "fusion_lon": 0.0, "rental_uris": {"android": "https://dc.lft.to/lastmile_qr_scan", "ios": "https://dc.lft.to/lastmile_qr_scan"}, "is_reserved": 0, "is_disabled": 0, "type": "electric_scooter", "bike_id": "dc54ffd230f64831d1eb80a8c29200ed"}, {"lon": -77.032063, "lat": 38.90016116666666, "name": "e880d6fd15d4ac95cfe579fa13d6e80e", "fusion_lat": 0.0, "fusion_lon": 0.0, "rental_uris": {"android": "https://dc.lft.to/lastmile_qr_scan", "ios": "https://dc.lft.to/lastmile_qr_scan"}, "is_reserved": 0, "is_disabled": 0, "type": "electric_scooter", "bike_id": "e880d6fd15d4ac95cfe579fa13d6e80e"}, {"lon": -77.00559066666666, "lat": 38.90570533333333, "name": "25603734f789c45daf206211db989bfe", "fusion_lat": 0.0, "fusion_lon": 0.0, "rental_uris": {"android": "https://dc.lft.to/lastmile_qr_scan", "ios": "https://dc.lft.to/lastmile_qr_scan"}, "is_reserved": 0, "is_disabled": 0, "type": "electric_scooter", "bike_id": "25603734f789c45daf206211db989bfe"}, {"lon": -77.02022433333333, "lat": 38.899398166666664, "name": "8702e5effe4aec9aff23cedd21fc4384", "fusion_lat": 0.0, "fusion_lon": 0.0, "rental_uris": {"android": "https://dc.lft.to/lastmile_qr_scan", "ios": "https://dc.lft.to/lastmile_qr_scan"}, "is_reserved": 0, "is_disabled": 0, "type": "electric_scooter", "bike_id": "8702e5effe4aec9aff23cedd21fc4384"}, {"lon": -77.03791316666667, "lat": 38.926323833333335, "name": "02ba0875c26dee936f88408be6b4f0b8", "fusion_lat": 0.0, "fusion_lon": 0.0, "rental_uris": {"android": "https://dc.lft.to/lastmile_qr_scan", "ios": "https://dc.lft.to/lastmile_qr_scan"}, "is_reserved": 0, "is_disabled": 0, "type": "electric_scooter", "bike_id": "02ba0875c26dee936f88408be6b4f0b8"}, {"lon": -77.05519533333333, "lat": 38.89930566666666, "name": "cf6dade81331e3eacbf84f19ee6a05b8", "fusion_lat": 0.0, "fusion_lon": 0.0, "rental_uris": {"android": "https://dc.lft.to/lastmile_qr_scan", "ios": "https://dc.lft.to/lastmile_qr_scan"}, "is_reserved": 0, "is_disabled": 0, "type": "electric_scooter", "bike_id": "cf6dade81331e3eacbf84f19ee6a05b8"}, {"lon": -76.87822716666666, "lat": 38.992294, "name": "2776a0c2a166a8692c8e4247bdeeb393", "fusion_lat": 0.0, "fusion_lon": 0.0, "rental_uris": {"android": "https://dc.lft.to/lastmile_qr_scan", "ios": "https://dc.lft.to/lastmile_qr_scan"}, "is_reserved": 0, "is_disabled": 0, "type": "electric_bike", "bike_id": "2776a0c2a166a8692c8e4247bdeeb393"}, {"lon": -77.10768933333334, "lat": 38.855528666666665, "name": "8f2e1abe6d8bf4cd4ed7cc97d43171c1", "fusion_lat": 0.0, "fusion_lon": 0.0, "rental_uris": {"android": "https://dc.lft.to/lastmile_qr_scan", "ios": "https://dc.lft.to/lastmile_qr_scan"}, "is_reserved": 0, "is_disabled": 0, "type": "electric_bike", "bike_id": "8f2e1abe6d8bf4cd4ed7cc97d43171c1"}, {"lon": -76.98175016666667, "lat": 38.90038633333333, "name": "8833087bd012f25ae176f5b11a2ab41a", "fusion_lat": 0.0, "fusion_lon": 0.0, "rental_uris": {"android": "https://dc.lft.to/lastmile_qr_scan", "ios": "https://dc.lft.to/lastmile_qr_scan"}, "is_reserved": 0, "is_disabled": 0, "type": "electric_scooter", "bike_id": "8833087bd012f25ae176f5b11a2ab41a"}, {"lon": -76.98227783333333, "lat": 38.92506916666667, "name": "f39fd098c4ff499f7596ca70b59b2ba6", "fusion_lat": 0.0, "fusion_lon": 0.0, "rental_uris": {"android": "https://dc.lft.to/lastmile_qr_scan", "ios": "https://dc.lft.to/lastmile_qr_scan"}, "is_reserved": 0, "is_disabled": 0, "type": "electric_bike", "bike_id": "f39fd098c4ff499f7596ca70b59b2ba6"}, {"lon": -76.98777366666667, "lat": 38.900283333333334, "name": "9589271dd804377a8ed16d61cb5d497a", "fusion_lat": 0.0, "fusion_lon": 0.0, "rental_uris": {"android": "https://dc.lft.to/lastmile_qr_scan", "ios": "https://dc.lft.to/lastmile_qr_scan"}, "is_reserved": 0, "is_disabled": 0, "type": "electric_scooter", "bike_id": "9589271dd804377a8ed16d61cb5d497a"}, {"lon": -76.97747066666666, "lat": 38.90007166666667, "name": "b97fefab48e1157530bad809a607082e", "fusion_lat": 0.0, "fusion_lon": 0.0, "rental_uris": {"android": "https://dc.lft.to/lastmile_qr_scan", "ios": "https://dc.lft.to/lastmile_qr_scan"}, "is_reserved": 0, "is_disabled": 0, "type": "electric_scooter", "bike_id": "b97fefab48e1157530bad809a607082e"}, {"lon": -76.9487405, "lat": 38.889670833333334, "name": "6eae087f4fa77fd07d9e47be7b116eb9", "fusion_lat": 0.0, "fusion_lon": 0.0, "rental_uris": {"android": "https://dc.lft.to/lastmile_qr_scan", "ios": "https://dc.lft.to/lastmile_qr_scan"}, "is_reserved": 0, "is_disabled": 0, "type": "electric_bike", "bike_id": "6eae087f4fa77fd07d9e47be7b116eb9"}, {"lon": -77.02290583333334, "lat": 38.90979516666667, "name": "64bc91a88e210eaba2137b8debdc25e0", "fusion_lat": 0.0, "fusion_lon": 0.0, "rental_uris": {"android": "https://dc.lft.to/lastmile_qr_scan", "ios": "https://dc.lft.to/lastmile_qr_scan"}, "is_reserved": 0, "is_disabled": 0, "type": "electric_scooter", "bike_id": "64bc91a88e210eaba2137b8debdc25e0"}, {"lon": -76.994533, "lat": 38.9002425, "name": "c4fb58c9fb6ff7e888118edfdb09b711", "fusion_lat": 0.0, "fusion_lon": 0.0, "rental_uris": {"android": "https://dc.lft.to/lastmile_qr_scan", "ios": "https://dc.lft.to/lastmile_qr_scan"}, "is_reserved": 0, "is_disabled": 0, "type": "electric_scooter", "bike_id": "c4fb58c9fb6ff7e888118edfdb09b711"}, {"lon": -76.98472383333333, "lat": 38.911504, "name": "220827bd6658d7c35fe5c357d2848425", "fusion_lat": 0.0, "fusion_lon": 0.0, "rental_uris": {"android": "https://dc.lft.to/lastmile_qr_scan", "ios": "https://dc.lft.to/lastmile_qr_scan"}, "is_reserved": 0, "is_disabled": 0, "type": "electric_scooter", "bike_id": "220827bd6658d7c35fe5c357d2848425"}, {"lon": -77.0405845, "lat": 38.91769333333333, "name": "2ef974b92d2ad767096fd4a7cb58d069", "fusion_lat": 0.0, "fusion_lon": 0.0, "rental_uris": {"android": "https://dc.lft.to/lastmile_qr_scan", "ios": "https://dc.lft.to/lastmile_qr_scan"}, "is_reserved": 0, "is_disabled": 0, "type": "electric_scooter", "bike_id": "2ef974b92d2ad767096fd4a7cb58d069"}, {"lon": -77.03840816666667, "lat": 38.915665, "name": "49f0e6783cc5bca5f3c3bac690edd848", "fusion_lat": 0.0, "fusion_lon": 0.0, "rental_uris": {"android": "https://dc.lft.to/lastmile_qr_scan", "ios": "https://dc.lft.to/lastmile_qr_scan"}, "is_reserved": 0, "is_disabled": 0, "type": "electric_scooter", "bike_id": "49f0e6783cc5bca5f3c3bac690edd848"}, {"lon": -77.04984183333333, "lat": 38.90512966666667, "name": "1ce1db7c41cd0886391f940e3a4699a5", "fusion_lat": 0.0, "fusion_lon": 0.0, "rental_uris": {"android": "https://dc.lft.to/lastmile_qr_scan", "ios": "https://dc.lft.to/lastmile_qr_scan"}, "is_reserved": 0, "is_disabled": 0, "type": "electric_scooter", "bike_id": "1ce1db7c41cd0886391f940e3a4699a5"}, {"lon": -76.98724566666667, "lat": 38.867135833333336, "name": "9e1d8d194e492643f4ec90d85e111c6e", "fusion_lat": 0.0, "fusion_lon": 0.0, "rental_uris": {"android": "https://dc.lft.to/lastmile_qr_scan", "ios": "https://dc.lft.to/lastmile_qr_scan"}, "is_reserved": 0, "is_disabled": 0, "type": "electric_scooter", "bike_id": "9e1d8d194e492643f4ec90d85e111c6e"}, {"lon": -77.034917, "lat": 38.9247915, "name": "52f2ec2ac0d948a678b01fc482f0323b", "fusion_lat": 0.0, "fusion_lon": 0.0, "rental_uris": {"android": "https://dc.lft.to/lastmile_qr_scan", "ios": "https://dc.lft.to/lastmile_qr_scan"}, "is_reserved": 0, "is_disabled": 0, "type": "electric_scooter", "bike_id": "52f2ec2ac0d948a678b01fc482f0323b"}, {"lon": -76.98097633333333, "lat": 38.857181, "name": "3c7255bd364a05af535c740dda38ba51", "fusion_lat": 0.0, "fusion_lon": 0.0, "rental_uris": {"android": "https://dc.lft.to/lastmile_qr_scan", "ios": "https://dc.lft.to/lastmile_qr_scan"}, "is_reserved": 0, "is_disabled": 0, "type": "electric_scooter", "bike_id": "3c7255bd364a05af535c740dda38ba51"}, {"lon": -77.0572635, "lat": 38.93371333333333, "name": "0ba3c5afe8fade43f5b73a0176a1b57e", "fusion_lat": 0.0, "fusion_lon": 0.0, "rental_uris": {"android": "https://dc.lft.to/lastmile_qr_scan", "ios": "https://dc.lft.to/lastmile_qr_scan"}, "is_reserved": 0, "is_disabled": 0, "type": "electric_scooter", "bike_id": "0ba3c5afe8fade43f5b73a0176a1b57e"}, {"lon": -77.11610266666666, "lat": 38.85486983333333, "name": "ce71b677e965ba6c4b14f38c6624a05a", "fusion_lat": 0.0, "fusion_lon": 0.0, "rental_uris": {"android": "https://dc.lft.to/lastmile_qr_scan", "ios": "https://dc.lft.to/lastmile_qr_scan"}, "is_reserved": 0, "is_disabled": 0, "type": "electric_bike", "bike_id": "ce71b677e965ba6c4b14f38c6624a05a"}, {"lon": -77.03265283333333, "lat": 38.93824016666667, "name": "abe95669d2f26f019ed882997fd1f6a7", "fusion_lat": 0.0, "fusion_lon": 0.0, "rental_uris": {"android": "https://dc.lft.to/lastmile_qr_scan", "ios": "https://dc.lft.to/lastmile_qr_scan"}, "is_reserved": 0, "is_disabled": 0, "type": "electric_scooter", "bike_id": "abe95669d2f26f019ed882997fd1f6a7"}, {"lon": -77.03013066666666, "lat": 38.914141666666666, "name": "6f2328bd39e16524aca9f19360942006", "fusion_lat": 0.0, "fusion_lon": 0.0, "rental_uris": {"android": "https://dc.lft.to/lastmile_qr_scan", "ios": "https://dc.lft.to/lastmile_qr_scan"}, "is_reserved": 0, "is_disabled": 0, "type": "electric_scooter", "bike_id": "6f2328bd39e16524aca9f19360942006"}, {"lon": -77.03244516666666, "lat": 38.915625166666665, "name": "d27c8aab77c7cf760a9af1222a5e0d15", "fusion_lat": 0.0, "fusion_lon": 0.0, "rental_uris": {"android": "https://dc.lft.to/lastmile_qr_scan", "ios": "https://dc.lft.to/lastmile_qr_scan"}, "is_reserved": 0, "is_disabled": 0, "type": "electric_scooter", "bike_id": "d27c8aab77c7cf760a9af1222a5e0d15"}, {"lon": -77.01837066666667, "lat": 38.908772666666664, "name": "354abf4700b55aed6dd983cc363b4e3a", "fusion_lat": 0.0, "fusion_lon": 0.0, "rental_uris": {"android": "https://dc.lft.to/lastmile_qr_scan", "ios": "https://dc.lft.to/lastmile_qr_scan"}, "is_reserved": 0, "is_disabled": 0, "type": "electric_scooter", "bike_id": "354abf4700b55aed6dd983cc363b4e3a"}, {"lon": -76.99763783333333, "lat": 38.922907, "name": "a0420e6e480049c9ecce179f866426d2", "fusion_lat": 0.0, "fusion_lon": 0.0, "rental_uris": {"android": "https://dc.lft.to/lastmile_qr_scan", "ios": "https://dc.lft.to/lastmile_qr_scan"}, "is_reserved": 0, "is_disabled": 0, "type": "electric_scooter", "bike_id": "a0420e6e480049c9ecce179f866426d2"}, {"lon": -77.02197066666666, "lat": 38.931288333333335, "name": "3a5cc8b8602e13cb231913400de35694", "fusion_lat": 0.0, "fusion_lon": 0.0, "rental_uris": {"android": "https://dc.lft.to/lastmile_qr_scan", "ios": "https://dc.lft.to/lastmile_qr_scan"}, "is_reserved": 0, "is_disabled": 0, "type": "electric_scooter", "bike_id": "3a5cc8b8602e13cb231913400de35694"}, {"lon": -76.99033916666667, "lat": 38.898524333333334, "name": "cfc8ec20f39f6d2665dcaf3b31db3d77", "fusion_lat": 0.0, "fusion_lon": 0.0, "rental_uris": {"android": "https://dc.lft.to/lastmile_qr_scan", "ios": "https://dc.lft.to/lastmile_qr_scan"}, "is_reserved": 0, "is_disabled": 0, "type": "electric_scooter", "bike_id": "cfc8ec20f39f6d2665dcaf3b31db3d77"}, {"lon": -76.97559316666667, "lat": 38.924585, "name": "2665763b7f9db4754cae92039be31383", "fusion_lat": 0.0, "fusion_lon": 0.0, "rental_uris": {"android": "https://dc.lft.to/lastmile_qr_scan", "ios": "https://dc.lft.to/lastmile_qr_scan"}, "is_reserved": 0, "is_disabled": 0, "type": "electric_bike", "bike_id": "2665763b7f9db4754cae92039be31383"}, {"lon": -77.01649683333333, "lat": 38.95333216666667, "name": "a67fbc202de42509d329205fc78cc8c3", "fusion_lat": 0.0, "fusion_lon": 0.0, "rental_uris": {"android": "https://dc.lft.to/lastmile_qr_scan", "ios": "https://dc.lft.to/lastmile_qr_scan"}, "is_reserved": 0, "is_disabled": 0, "type": "electric_scooter", "bike_id": "a67fbc202de42509d329205fc78cc8c3"}, {"lon": -77.04239983333333, "lat": 38.938637166666666, "name": "6e896d4079069c544c3843f6c41bac48", "fusion_lat": 0.0, "fusion_lon": 0.0, "rental_uris": {"android": "https://dc.lft.to/lastmile_qr_scan", "ios": "https://dc.lft.to/lastmile_qr_scan"}, "is_reserved": 0, "is_disabled": 0, "type": "electric_bike", "bike_id": "6e896d4079069c544c3843f6c41bac48"}, {"lon": -76.98259983333334, "lat": 38.86351533333333, "name": "0f123cdf092d696d7549ea767d63a1e5", "fusion_lat": 0.0, "fusion_lon": 0.0, "rental_uris": {"android": "https://dc.lft.to/lastmile_qr_scan", "ios": "https://dc.lft.to/lastmile_qr_scan"}, "is_reserved": 0, "is_disabled": 0, "type": "electric_scooter", "bike_id": "0f123cdf092d696d7549ea767d63a1e5"}, {"lon": -77.03854533333333, "lat": 38.904784166666666, "name": "8dc652ae8071bcb1e087af0de5b695f1", "fusion_lat": 0.0, "fusion_lon": 0.0, "rental_uris": {"android": "https://dc.lft.to/lastmile_qr_scan", "ios": "https://dc.lft.to/lastmile_qr_scan"}, "is_reserved": 0, "is_disabled": 0, "type": "electric_scooter", "bike_id": "8dc652ae8071bcb1e087af0de5b695f1"}, {"lon": -77.03697583333333, "lat": 38.91696016666667, "name": "ab8f2db62702e7b13baf569d26a85189", "fusion_lat": 0.0, "fusion_lon": 0.0, "rental_uris": {"android": "https://dc.lft.to/lastmile_qr_scan", "ios": "https://dc.lft.to/lastmile_qr_scan"}, "is_reserved": 0, "is_disabled": 0, "type": "electric_scooter", "bike_id": "ab8f2db62702e7b13baf569d26a85189"}, {"lon": -76.952369, "lat": 38.88674816666666, "name": "035029eec2664775ce7bc974132ab888", "fusion_lat": 0.0, "fusion_lon": 0.0, "rental_uris": {"android": "https://dc.lft.to/lastmile_qr_scan", "ios": "https://dc.lft.to/lastmile_qr_scan"}, "is_reserved": 0, "is_disabled": 0, "type": "electric_scooter", "bike_id": "035029eec2664775ce7bc974132ab888"}, {"lon": -77.02251783333334, "lat": 38.9250155, "name": "461471dab848d00a8deedeaebb07ab98", "fusion_lat": 0.0, "fusion_lon": 0.0, "rental_uris": {"android": "https://dc.lft.to/lastmile_qr_scan", "ios": "https://dc.lft.to/lastmile_qr_scan"}, "is_reserved": 0, "is_disabled": 0, "type": "electric_scooter", "bike_id": "461471dab848d00a8deedeaebb07ab98"}, {"lon": -77.02987783333333, "lat": 38.956283166666665, "name": "d00eaa55721f100a975b6c24ffbd0090", "fusion_lat": 0.0, "fusion_lon": 0.0, "rental_uris": {"android": "https://dc.lft.to/lastmile_qr_scan", "ios": "https://dc.lft.to/lastmile_qr_scan"}, "is_reserved": 0, "is_disabled": 0, "type": "electric_scooter", "bike_id": "d00eaa55721f100a975b6c24ffbd0090"}, {"lon": -77.0894775, "lat": 38.841133, "name": "5af136cca213b9dc4d237bbd6a1beb80", "fusion_lat": 0.0, "fusion_lon": 0.0, "rental_uris": {"android": "https://dc.lft.to/lastmile_qr_scan", "ios": "https://dc.lft.to/lastmile_qr_scan"}, "is_reserved": 0, "is_disabled": 0, "type": "electric_bike", "bike_id": "5af136cca213b9dc4d237bbd6a1beb80"}, {"lon": -77.01966283333333, "lat": 38.902716166666664, "name": "083db27d9e62bdc373e45ba24dacf71e", "fusion_lat": 0.0, "fusion_lon": 0.0, "rental_uris": {"android": "https://dc.lft.to/lastmile_qr_scan", "ios": "https://dc.lft.to/lastmile_qr_scan"}, "is_reserved": 0, "is_disabled": 0, "type": "electric_scooter", "bike_id": "083db27d9e62bdc373e45ba24dacf71e"}, {"lon": -77.04072766666667, "lat": 38.812430166666665, "name": "d90f4dd2ea2db1d6514f06d7203cd5dc", "fusion_lat": 0.0, "fusion_lon": 0.0, "rental_uris": {"android": "https://dc.lft.to/lastmile_qr_scan", "ios": "https://dc.lft.to/lastmile_qr_scan"}, "is_reserved": 0, "is_disabled": 0, "type": "electric_bike", "bike_id": "d90f4dd2ea2db1d6514f06d7203cd5dc"}, {"lon": -77.0505055, "lat": 38.9241785, "name": "f64dc04bc141bee068e55932d342fc07", "fusion_lat": 0.0, "fusion_lon": 0.0, "rental_uris": {"android": "https://dc.lft.to/lastmile_qr_scan", "ios": "https://dc.lft.to/lastmile_qr_scan"}, "is_reserved": 0, "is_disabled": 0, "type": "electric_bike", "bike_id": "f64dc04bc141bee068e55932d342fc07"}, {"lon": -77.0270755, "lat": 38.94998566666666, "name": "6dd41a1c9232cbe02df3ab5e07229807", "fusion_lat": 0.0, "fusion_lon": 0.0, "rental_uris": {"android": "https://dc.lft.to/lastmile_qr_scan", "ios": "https://dc.lft.to/lastmile_qr_scan"}, "is_reserved": 0, "is_disabled": 0, "type": "electric_scooter", "bike_id": "6dd41a1c9232cbe02df3ab5e07229807"}, {"lon": -77.03291416666667, "lat": 38.95650466666667, "name": "c7472b878f9f223623406dca32f351a8", "fusion_lat": 0.0, "fusion_lon": 0.0, "rental_uris": {"android": "https://dc.lft.to/lastmile_qr_scan", "ios": "https://dc.lft.to/lastmile_qr_scan"}, "is_reserved": 0, "is_disabled": 0, "type": "electric_scooter", "bike_id": "c7472b878f9f223623406dca32f351a8"}, {"lon": -77.0279705, "lat": 38.9056495, "name": "72d6e7635d74d47dbe2d7e32284ab5aa", "fusion_lat": 0.0, "fusion_lon": 0.0, "rental_uris": {"android": "https://dc.lft.to/lastmile_qr_scan", "ios": "https://dc.lft.to/lastmile_qr_scan"}, "is_reserved": 0, "is_disabled": 0, "type": "electric_scooter", "bike_id": "72d6e7635d74d47dbe2d7e32284ab5aa"}, {"lon": -77.0190795, "lat": 38.917262666666666, "name": "e7d60fc71434c25d3840faabbd1fa853", "fusion_lat": 0.0, "fusion_lon": 0.0, "rental_uris": {"android": "https://dc.lft.to/lastmile_qr_scan", "ios": "https://dc.lft.to/lastmile_qr_scan"}, "is_reserved": 0, "is_disabled": 0, "type": "electric_scooter", "bike_id": "e7d60fc71434c25d3840faabbd1fa853"}, {"lon": -76.93198933333333, "lat": 38.87235016666666, "name": "a2378f7ca38b0e8ed57670a499d115fe", "fusion_lat": 0.0, "fusion_lon": 0.0, "rental_uris": {"android": "https://dc.lft.to/lastmile_qr_scan", "ios": "https://dc.lft.to/lastmile_qr_scan"}, "is_reserved": 0, "is_disabled": 0, "type": "electric_bike", "bike_id": "a2378f7ca38b0e8ed57670a499d115fe"}, {"lon": -77.03262533333333, "lat": 38.9198785, "name": "5dab2d65c189c40139665ab137200a61", "fusion_lat": 0.0, "fusion_lon": 0.0, "rental_uris": {"android": "https://dc.lft.to/lastmile_qr_scan", "ios": "https://dc.lft.to/lastmile_qr_scan"}, "is_reserved": 0, "is_disabled": 0, "type": "electric_scooter", "bike_id": "5dab2d65c189c40139665ab137200a61"}, {"lon": -77.0020305, "lat": 38.90239566666666, "name": "e2cf085d31b60c55fb43df00cbbb9dfb", "fusion_lat": 0.0, "fusion_lon": 0.0, "rental_uris": {"android": "https://dc.lft.to/lastmile_qr_scan", "ios": "https://dc.lft.to/lastmile_qr_scan"}, "is_reserved": 0, "is_disabled": 0, "type": "electric_scooter", "bike_id": "e2cf085d31b60c55fb43df00cbbb9dfb"}, {"lon": -77.02230616666667, "lat": 38.912695, "name": "c519d34f0bd7434e51435c3e41f7b2a9", "fusion_lat": 0.0, "fusion_lon": 0.0, "rental_uris": {"android": "https://dc.lft.to/lastmile_qr_scan", "ios": "https://dc.lft.to/lastmile_qr_scan"}, "is_reserved": 0, "is_disabled": 0, "type": "electric_scooter", "bike_id": "c519d34f0bd7434e51435c3e41f7b2a9"}, {"lon": -77.03894416666667, "lat": 38.923299666666665, "name": "cc2616883f7c31d151fdfaaa9e8b68a8", "fusion_lat": 0.0, "fusion_lon": 0.0, "rental_uris": {"android": "https://dc.lft.to/lastmile_qr_scan", "ios": "https://dc.lft.to/lastmile_qr_scan"}, "is_reserved": 0, "is_disabled": 0, "type": "electric_scooter", "bike_id": "cc2616883f7c31d151fdfaaa9e8b68a8"}, {"lon": -77.02801816666667, "lat": 38.94284866666667, "name": "145899b626873df8b4ce1dd5de279498", "fusion_lat": 0.0, "fusion_lon": 0.0, "rental_uris": {"android": "https://dc.lft.to/lastmile_qr_scan", "ios": "https://dc.lft.to/lastmile_qr_scan"}, "is_reserved": 0, "is_disabled": 0, "type": "electric_bike", "bike_id": "145899b626873df8b4ce1dd5de279498"}, {"lon": -77.02693833333333, "lat": 38.90942716666667, "name": "253c8cb8b7b29f3aabc62b0ef9a9aae2", "fusion_lat": 0.0, "fusion_lon": 0.0, "rental_uris": {"android": "https://dc.lft.to/lastmile_qr_scan", "ios": "https://dc.lft.to/lastmile_qr_scan"}, "is_reserved": 0, "is_disabled": 0, "type": "electric_scooter", "bike_id": "253c8cb8b7b29f3aabc62b0ef9a9aae2"}, {"lon": -76.9652435, "lat": 38.87627833333333, "name": "0479df7837183bb1ea4bedefa5184641", "fusion_lat": 0.0, "fusion_lon": 0.0, "rental_uris": {"android": "https://dc.lft.to/lastmile_qr_scan", "ios": "https://dc.lft.to/lastmile_qr_scan"}, "is_reserved": 0, "is_disabled": 0, "type": "electric_scooter", "bike_id": "0479df7837183bb1ea4bedefa5184641"}, {"lon": -77.02716883333333, "lat": 38.892222833333335, "name": "2448660031800b60e8a8f28e47cbda8c", "fusion_lat": 0.0, "fusion_lon": 0.0, "rental_uris": {"android": "https://dc.lft.to/lastmile_qr_scan", "ios": "https://dc.lft.to/lastmile_qr_scan"}, "is_reserved": 0, "is_disabled": 0, "type": "electric_scooter", "bike_id": "2448660031800b60e8a8f28e47cbda8c"}, {"lon": -77.069906, "lat": 38.952693333333336, "name": "93aa4ddfabe33f535c787ef546b8335a", "fusion_lat": 0.0, "fusion_lon": 0.0, "rental_uris": {"android": "https://dc.lft.to/lastmile_qr_scan", "ios": "https://dc.lft.to/lastmile_qr_scan"}, "is_reserved": 0, "is_disabled": 0, "type": "electric_bike", "bike_id": "93aa4ddfabe33f535c787ef546b8335a"}, {"lon": -77.011244, "lat": 38.90356516666667, "name": "543bb903676e51d396c6377d91afee94", "fusion_lat": 0.0, "fusion_lon": 0.0, "rental_uris": {"android": "https://dc.lft.to/lastmile_qr_scan", "ios": "https://dc.lft.to/lastmile_qr_scan"}, "is_reserved": 0, "is_disabled": 0, "type": "electric_scooter", "bike_id": "543bb903676e51d396c6377d91afee94"}, {"lon": -77.02821566666667, "lat": 38.915992333333335, "name": "c4033fefd4a9bc4952a5a6a728a40497", "fusion_lat": 0.0, "fusion_lon": 0.0, "rental_uris": {"android": "https://dc.lft.to/lastmile_qr_scan", "ios": "https://dc.lft.to/lastmile_qr_scan"}, "is_reserved": 0, "is_disabled": 0, "type": "electric_scooter", "bike_id": "c4033fefd4a9bc4952a5a6a728a40497"}, {"lon": -76.992742, "lat": 38.89983016666667, "name": "873b0c5f72fbfa31539cd898e6d94290", "fusion_lat": 0.0, "fusion_lon": 0.0, "rental_uris": {"android": "https://dc.lft.to/lastmile_qr_scan", "ios": "https://dc.lft.to/lastmile_qr_scan"}, "is_reserved": 0, "is_disabled": 0, "type": "electric_scooter", "bike_id": "873b0c5f72fbfa31539cd898e6d94290"}, {"lon": -77.0373665, "lat": 38.928940833333336, "name": "8a96af01871daf7ed4bfccd48d60880b", "fusion_lat": 0.0, "fusion_lon": 0.0, "rental_uris": {"android": "https://dc.lft.to/lastmile_qr_scan", "ios": "https://dc.lft.to/lastmile_qr_scan"}, "is_reserved": 0, "is_disabled": 0, "type": "electric_scooter", "bike_id": "8a96af01871daf7ed4bfccd48d60880b"}, {"lon": -76.988032, "lat": 38.892352, "name": "3ee532430424d9630248eb2e04b462d5", "fusion_lat": 0.0, "fusion_lon": 0.0, "rental_uris": {"android": "https://dc.lft.to/lastmile_qr_scan", "ios": "https://dc.lft.to/lastmile_qr_scan"}, "is_reserved": 0, "is_disabled": 0, "type": "electric_scooter", "bike_id": "3ee532430424d9630248eb2e04b462d5"}, {"lon": -77.04582566666667, "lat": 38.9000255, "name": "d84af39ebb619945443ccd2536da98c4", "fusion_lat": 0.0, "fusion_lon": 0.0, "rental_uris": {"android": "https://dc.lft.to/lastmile_qr_scan", "ios": "https://dc.lft.to/lastmile_qr_scan"}, "is_reserved": 0, "is_disabled": 0, "type": "electric_scooter", "bike_id": "d84af39ebb619945443ccd2536da98c4"}, {"lon": -77.04030916666666, "lat": 38.91707233333333, "name": "f59f025f39b59b4d03e37e4d0ca678cf", "fusion_lat": 0.0, "fusion_lon": 0.0, "rental_uris": {"android": "https://dc.lft.to/lastmile_qr_scan", "ios": "https://dc.lft.to/lastmile_qr_scan"}, "is_reserved": 0, "is_disabled": 0, "type": "electric_scooter", "bike_id": "f59f025f39b59b4d03e37e4d0ca678cf"}, {"lon": -76.96551216666667, "lat": 38.950993, "name": "28070a4633c640225600b5d57da3abb9", "fusion_lat": 0.0, "fusion_lon": 0.0, "rental_uris": {"android": "https://dc.lft.to/lastmile_qr_scan", "ios": "https://dc.lft.to/lastmile_qr_scan"}, "is_reserved": 0, "is_disabled": 0, "type": "electric_bike", "bike_id": "28070a4633c640225600b5d57da3abb9"}, {"lon": -77.07845533333334, "lat": 38.931559666666665, "name": "78ec441ed7b89e4edfc371275ec9e0e5", "fusion_lat": 0.0, "fusion_lon": 0.0, "rental_uris": {"android": "https://dc.lft.to/lastmile_qr_scan", "ios": "https://dc.lft.to/lastmile_qr_scan"}, "is_reserved": 0, "is_disabled": 0, "type": "electric_scooter", "bike_id": "78ec441ed7b89e4edfc371275ec9e0e5"}, {"lon": -77.050057, "lat": 38.89228516666667, "name": "a1d31e896635a568226bde17780aebe9", "fusion_lat": 0.0, "fusion_lon": 0.0, "rental_uris": {"android": "https://dc.lft.to/lastmile_qr_scan", "ios": "https://dc.lft.to/lastmile_qr_scan"}, "is_reserved": 0, "is_disabled": 0, "type": "electric_scooter", "bike_id": "a1d31e896635a568226bde17780aebe9"}, {"lon": -77.00135416666667, "lat": 38.90025266666667, "name": "fdd806faad3c2c91b8fdafaea1d3f2a9", "fusion_lat": 0.0, "fusion_lon": 0.0, "rental_uris": {"android": "https://dc.lft.to/lastmile_qr_scan", "ios": "https://dc.lft.to/lastmile_qr_scan"}, "is_reserved": 0, "is_disabled": 0, "type": "electric_scooter", "bike_id": "fdd806faad3c2c91b8fdafaea1d3f2a9"}, {"lon": -77.0365725, "lat": 38.917277, "name": "6c120a0561da22cbcd29e979537bbcf0", "fusion_lat": 0.0, "fusion_lon": 0.0, "rental_uris": {"android": "https://dc.lft.to/lastmile_qr_scan", "ios": "https://dc.lft.to/lastmile_qr_scan"}, "is_reserved": 0, "is_disabled": 0, "type": "electric_scooter", "bike_id": "6c120a0561da22cbcd29e979537bbcf0"}, {"lon": -77.03908983333334, "lat": 38.921768166666666, "name": "ff65f928c0142a6a9395526bc52abf5b", "fusion_lat": 0.0, "fusion_lon": 0.0, "rental_uris": {"android": "https://dc.lft.to/lastmile_qr_scan", "ios": "https://dc.lft.to/lastmile_qr_scan"}, "is_reserved": 0, "is_disabled": 0, "type": "electric_scooter", "bike_id": "ff65f928c0142a6a9395526bc52abf5b"}, {"lon": -77.084422, "lat": 38.9117095, "name": "cffc94f83fc666d856de460edc28cb70", "fusion_lat": 0.0, "fusion_lon": 0.0, "rental_uris": {"android": "https://dc.lft.to/lastmile_qr_scan", "ios": "https://dc.lft.to/lastmile_qr_scan"}, "is_reserved": 0, "is_disabled": 0, "type": "electric_scooter", "bike_id": "cffc94f83fc666d856de460edc28cb70"}, {"lon": -77.012968, "lat": 38.930322, "name": "841aa100953cb494899934a8b3d87d08", "fusion_lat": 0.0, "fusion_lon": 0.0, "rental_uris": {"android": "https://dc.lft.to/lastmile_qr_scan", "ios": "https://dc.lft.to/lastmile_qr_scan"}, "is_reserved": 0, "is_disabled": 0, "type": "electric_scooter", "bike_id": "841aa100953cb494899934a8b3d87d08"}, {"lon": -77.026924, "lat": 38.91272133333333, "name": "c618e152089eb3a2d1795b75f4e94d66", "fusion_lat": 0.0, "fusion_lon": 0.0, "rental_uris": {"android": "https://dc.lft.to/lastmile_qr_scan", "ios": "https://dc.lft.to/lastmile_qr_scan"}, "is_reserved": 0, "is_disabled": 0, "type": "electric_scooter", "bike_id": "c618e152089eb3a2d1795b75f4e94d66"}, {"lon": -77.036416, "lat": 38.9178955, "name": "027fbac5c92a41fa39742a0a835da0eb", "fusion_lat": 0.0, "fusion_lon": 0.0, "rental_uris": {"android": "https://dc.lft.to/lastmile_qr_scan", "ios": "https://dc.lft.to/lastmile_qr_scan"}, "is_reserved": 0, "is_disabled": 0, "type": "electric_scooter", "bike_id": "027fbac5c92a41fa39742a0a835da0eb"}, {"lon": -77.02406083333334, "lat": 38.91103016666667, "name": "b9762a7e1c14194afa38f63c2426a052", "fusion_lat": 0.0, "fusion_lon": 0.0, "rental_uris": {"android": "https://dc.lft.to/lastmile_qr_scan", "ios": "https://dc.lft.to/lastmile_qr_scan"}, "is_reserved": 0, "is_disabled": 0, "type": "electric_scooter", "bike_id": "b9762a7e1c14194afa38f63c2426a052"}, {"lon": -77.01372433333333, "lat": 38.9282725, "name": "30cf6b5084a60ffcb54659d6cc68ecaa", "fusion_lat": 0.0, "fusion_lon": 0.0, "rental_uris": {"android": "https://dc.lft.to/lastmile_qr_scan", "ios": "https://dc.lft.to/lastmile_qr_scan"}, "is_reserved": 0, "is_disabled": 0, "type": "electric_scooter", "bike_id": "30cf6b5084a60ffcb54659d6cc68ecaa"}, {"lon": -77.01700383333333, "lat": 38.92027483333333, "name": "c8aae282ba1c032d19ba12deddf3e351", "fusion_lat": 0.0, "fusion_lon": 0.0, "rental_uris": {"android": "https://dc.lft.to/lastmile_qr_scan", "ios": "https://dc.lft.to/lastmile_qr_scan"}, "is_reserved": 0, "is_disabled": 0, "type": "electric_scooter", "bike_id": "c8aae282ba1c032d19ba12deddf3e351"}, {"lon": -77.02404366666667, "lat": 38.934835166666666, "name": "c1e2d985eeb67263c3d80f043329c987", "fusion_lat": 0.0, "fusion_lon": 0.0, "rental_uris": {"android": "https://dc.lft.to/lastmile_qr_scan", "ios": "https://dc.lft.to/lastmile_qr_scan"}, "is_reserved": 0, "is_disabled": 0, "type": "electric_scooter", "bike_id": "c1e2d985eeb67263c3d80f043329c987"}, {"lon": -76.93432616666666, "lat": 38.89964466666667, "name": "c4bc3f21c520d324c720070c68c2c4d9", "fusion_lat": 0.0, "fusion_lon": 0.0, "rental_uris": {"android": "https://dc.lft.to/lastmile_qr_scan", "ios": "https://dc.lft.to/lastmile_qr_scan"}, "is_reserved": 0, "is_disabled": 0, "type": "electric_scooter", "bike_id": "c4bc3f21c520d324c720070c68c2c4d9"}, {"lon": -77.05147316666667, "lat": 38.9079895, "name": "db75fd336a54dde97ff6a2cc1eb4087c", "fusion_lat": 0.0, "fusion_lon": 0.0, "rental_uris": {"android": "https://dc.lft.to/lastmile_qr_scan", "ios": "https://dc.lft.to/lastmile_qr_scan"}, "is_reserved": 0, "is_disabled": 0, "type": "electric_scooter", "bike_id": "db75fd336a54dde97ff6a2cc1eb4087c"}, {"lon": -77.01455816666666, "lat": 38.914766, "name": "5deb11616c7fcf6bb3c809482f986d18", "fusion_lat": 0.0, "fusion_lon": 0.0, "rental_uris": {"android": "https://dc.lft.to/lastmile_qr_scan", "ios": "https://dc.lft.to/lastmile_qr_scan"}, "is_reserved": 0, "is_disabled": 0, "type": "electric_scooter", "bike_id": "5deb11616c7fcf6bb3c809482f986d18"}, {"lon": -77.02315966666667, "lat": 38.917848, "name": "e048381602cb3f3fb4e48eb2f6faad2d", "fusion_lat": 0.0, "fusion_lon": 0.0, "rental_uris": {"android": "https://dc.lft.to/lastmile_qr_scan", "ios": "https://dc.lft.to/lastmile_qr_scan"}, "is_reserved": 0, "is_disabled": 0, "type": "electric_scooter", "bike_id": "e048381602cb3f3fb4e48eb2f6faad2d"}, {"lon": -77.0198805, "lat": 38.904792, "name": "d3eb061a2a9976b5cea106e6f72b5de8", "fusion_lat": 0.0, "fusion_lon": 0.0, "rental_uris": {"android": "https://dc.lft.to/lastmile_qr_scan", "ios": "https://dc.lft.to/lastmile_qr_scan"}, "is_reserved": 0, "is_disabled": 0, "type": "electric_scooter", "bike_id": "d3eb061a2a9976b5cea106e6f72b5de8"}, {"lon": -76.99871083333333, "lat": 38.900226833333335, "name": "72f75eca6a0c0efb092b79ca207b68fa", "fusion_lat": 0.0, "fusion_lon": 0.0, "rental_uris": {"android": "https://dc.lft.to/lastmile_qr_scan", "ios": "https://dc.lft.to/lastmile_qr_scan"}, "is_reserved": 0, "is_disabled": 0, "type": "electric_scooter", "bike_id": "72f75eca6a0c0efb092b79ca207b68fa"}, {"lon": -76.98999933333333, "lat": 38.865056833333334, "name": "2e4661a68bb510751727209fb92778f9", "fusion_lat": 0.0, "fusion_lon": 0.0, "rental_uris": {"android": "https://dc.lft.to/lastmile_qr_scan", "ios": "https://dc.lft.to/lastmile_qr_scan"}, "is_reserved": 0, "is_disabled": 0, "type": "electric_scooter", "bike_id": "2e4661a68bb510751727209fb92778f9"}, {"lon": -76.99414566666667, "lat": 38.90134366666667, "name": "1cee2e20411322bd010b004d7158f04b", "fusion_lat": 0.0, "fusion_lon": 0.0, "rental_uris": {"android": "https://dc.lft.to/lastmile_qr_scan", "ios": "https://dc.lft.to/lastmile_qr_scan"}, "is_reserved": 0, "is_disabled": 0, "type": "electric_scooter", "bike_id": "1cee2e20411322bd010b004d7158f04b"}, {"lon": -76.97672366666667, "lat": 38.89853466666667, "name": "7e46232fb17a6af640f9382d63c3ae00", "fusion_lat": 0.0, "fusion_lon": 0.0, "rental_uris": {"android": "https://dc.lft.to/lastmile_qr_scan", "ios": "https://dc.lft.to/lastmile_qr_scan"}, "is_reserved": 0, "is_disabled": 0, "type": "electric_scooter", "bike_id": "7e46232fb17a6af640f9382d63c3ae00"}, {"lon": -77.03163833333333, "lat": 38.91416133333333, "name": "baa97d2071b2dc7a7613cd290e44ea36", "fusion_lat": 0.0, "fusion_lon": 0.0, "rental_uris": {"android": "https://dc.lft.to/lastmile_qr_scan", "ios": "https://dc.lft.to/lastmile_qr_scan"}, "is_reserved": 0, "is_disabled": 0, "type": "electric_scooter", "bike_id": "baa97d2071b2dc7a7613cd290e44ea36"}, {"lon": -77.033846, "lat": 38.921547833333335, "name": "ae2914a73b9e0934d6f9ce345c516f90", "fusion_lat": 0.0, "fusion_lon": 0.0, "rental_uris": {"android": "https://dc.lft.to/lastmile_qr_scan", "ios": "https://dc.lft.to/lastmile_qr_scan"}, "is_reserved": 0, "is_disabled": 0, "type": "electric_scooter", "bike_id": "ae2914a73b9e0934d6f9ce345c516f90"}, {"lon": -77.01508533333333, "lat": 38.913472, "name": "0b654bd1d67c599a61f6657c6634c1c8", "fusion_lat": 0.0, "fusion_lon": 0.0, "rental_uris": {"android": "https://dc.lft.to/lastmile_qr_scan", "ios": "https://dc.lft.to/lastmile_qr_scan"}, "is_reserved": 0, "is_disabled": 0, "type": "electric_scooter", "bike_id": "0b654bd1d67c599a61f6657c6634c1c8"}, {"lon": -77.04284433333333, "lat": 38.908922, "name": "883db9c2a808246298af9a7adc79975d", "fusion_lat": 0.0, "fusion_lon": 0.0, "rental_uris": {"android": "https://dc.lft.to/lastmile_qr_scan", "ios": "https://dc.lft.to/lastmile_qr_scan"}, "is_reserved": 0, "is_disabled": 0, "type": "electric_scooter", "bike_id": "883db9c2a808246298af9a7adc79975d"}, {"lon": -77.0283845, "lat": 38.89246883333333, "name": "27a141410f7a374b1385dbc4a0cc06b5", "fusion_lat": 0.0, "fusion_lon": 0.0, "rental_uris": {"android": "https://dc.lft.to/lastmile_qr_scan", "ios": "https://dc.lft.to/lastmile_qr_scan"}, "is_reserved": 0, "is_disabled": 0, "type": "electric_scooter", "bike_id": "27a141410f7a374b1385dbc4a0cc06b5"}, {"lon": -77.02654783333334, "lat": 38.9023985, "name": "741759aab5c03c5eec35161880bfad4e", "fusion_lat": 0.0, "fusion_lon": 0.0, "rental_uris": {"android": "https://dc.lft.to/lastmile_qr_scan", "ios": "https://dc.lft.to/lastmile_qr_scan"}, "is_reserved": 0, "is_disabled": 0, "type": "electric_scooter", "bike_id": "741759aab5c03c5eec35161880bfad4e"}, {"lon": -77.064748, "lat": 38.97384, "name": "bb847067381a74588a95df7e95937048", "fusion_lat": 0.0, "fusion_lon": 0.0, "rental_uris": {"android": "https://dc.lft.to/lastmile_qr_scan", "ios": "https://dc.lft.to/lastmile_qr_scan"}, "is_reserved": 0, "is_disabled": 0, "type": "electric_bike", "bike_id": "bb847067381a74588a95df7e95937048"}, {"lon": -76.99172516666667, "lat": 38.879211166666664, "name": "f538c9820901e09a32e164f0630d4166", "fusion_lat": 0.0, "fusion_lon": 0.0, "rental_uris": {"android": "https://dc.lft.to/lastmile_qr_scan", "ios": "https://dc.lft.to/lastmile_qr_scan"}, "is_reserved": 0, "is_disabled": 0, "type": "electric_scooter", "bike_id": "f538c9820901e09a32e164f0630d4166"}, {"lon": -76.99881283333333, "lat": 38.907517, "name": "39d2a9de1a04a879115732dd775c476a", "fusion_lat": 0.0, "fusion_lon": 0.0, "rental_uris": {"android": "https://dc.lft.to/lastmile_qr_scan", "ios": "https://dc.lft.to/lastmile_qr_scan"}, "is_reserved": 0, "is_disabled": 0, "type": "electric_scooter", "bike_id": "39d2a9de1a04a879115732dd775c476a"}, {"lon": -77.02926483333333, "lat": 38.9102935, "name": "3d27543d4997c877522a87d6c898b8c1", "fusion_lat": 0.0, "fusion_lon": 0.0, "rental_uris": {"android": "https://dc.lft.to/lastmile_qr_scan", "ios": "https://dc.lft.to/lastmile_qr_scan"}, "is_reserved": 0, "is_disabled": 0, "type": "electric_scooter", "bike_id": "3d27543d4997c877522a87d6c898b8c1"}, {"lon": -76.99869116666666, "lat": 38.90028933333333, "name": "bc92e4b14c2f0bbdf104391795308e0a", "fusion_lat": 0.0, "fusion_lon": 0.0, "rental_uris": {"android": "https://dc.lft.to/lastmile_qr_scan", "ios": "https://dc.lft.to/lastmile_qr_scan"}, "is_reserved": 0, "is_disabled": 0, "type": "electric_scooter", "bike_id": "bc92e4b14c2f0bbdf104391795308e0a"}, {"lon": -77.0347835, "lat": 38.90471983333333, "name": "df31df278e80f88b2e83d846c9826555", "fusion_lat": 0.0, "fusion_lon": 0.0, "rental_uris": {"android": "https://dc.lft.to/lastmile_qr_scan", "ios": "https://dc.lft.to/lastmile_qr_scan"}, "is_reserved": 0, "is_disabled": 0, "type": "electric_scooter", "bike_id": "df31df278e80f88b2e83d846c9826555"}, {"lon": -76.96556016666666, "lat": 38.91842783333333, "name": "7b86a90b18200bc5118244c34900eb0a", "fusion_lat": 0.0, "fusion_lon": 0.0, "rental_uris": {"android": "https://dc.lft.to/lastmile_qr_scan", "ios": "https://dc.lft.to/lastmile_qr_scan"}, "is_reserved": 0, "is_disabled": 0, "type": "electric_scooter", "bike_id": "7b86a90b18200bc5118244c34900eb0a"}, {"lon": -77.03218933333333, "lat": 38.91407133333333, "name": "da929ca40698a3c529ffd8bed24cb8cb", "fusion_lat": 0.0, "fusion_lon": 0.0, "rental_uris": {"android": "https://dc.lft.to/lastmile_qr_scan", "ios": "https://dc.lft.to/lastmile_qr_scan"}, "is_reserved": 0, "is_disabled": 0, "type": "electric_scooter", "bike_id": "da929ca40698a3c529ffd8bed24cb8cb"}, {"lon": -77.03185866666666, "lat": 38.919199666666664, "name": "e09fed09e52d2cf549294abccc954f63", "fusion_lat": 0.0, "fusion_lon": 0.0, "rental_uris": {"android": "https://dc.lft.to/lastmile_qr_scan", "ios": "https://dc.lft.to/lastmile_qr_scan"}, "is_reserved": 0, "is_disabled": 0, "type": "electric_scooter", "bike_id": "e09fed09e52d2cf549294abccc954f63"}, {"lon": -77.0106625, "lat": 38.87116316666667, "name": "0bee4b0a0f8d88894748a921fcbf1772", "fusion_lat": 0.0, "fusion_lon": 0.0, "rental_uris": {"android": "https://dc.lft.to/lastmile_qr_scan", "ios": "https://dc.lft.to/lastmile_qr_scan"}, "is_reserved": 0, "is_disabled": 0, "type": "electric_scooter", "bike_id": "0bee4b0a0f8d88894748a921fcbf1772"}, {"lon": -76.987785, "lat": 38.900302, "name": "a81aad69bcbbe47b853c8859f0fe6a73", "fusion_lat": 0.0, "fusion_lon": 0.0, "rental_uris": {"android": "https://dc.lft.to/lastmile_qr_scan", "ios": "https://dc.lft.to/lastmile_qr_scan"}, "is_reserved": 0, "is_disabled": 0, "type": "electric_scooter", "bike_id": "a81aad69bcbbe47b853c8859f0fe6a73"}, {"lon": -76.98601133333334, "lat": 38.86099266666667, "name": "26dd4aea20f676d2d699a354ff9bf70c", "fusion_lat": 0.0, "fusion_lon": 0.0, "rental_uris": {"android": "https://dc.lft.to/lastmile_qr_scan", "ios": "https://dc.lft.to/lastmile_qr_scan"}, "is_reserved": 0, "is_disabled": 0, "type": "electric_scooter", "bike_id": "26dd4aea20f676d2d699a354ff9bf70c"}, {"lon": -77.00144183333333, "lat": 38.90026983333333, "name": "2de527830926e58bf69f85f59574dbec", "fusion_lat": 0.0, "fusion_lon": 0.0, "rental_uris": {"android": "https://dc.lft.to/lastmile_qr_scan", "ios": "https://dc.lft.to/lastmile_qr_scan"}, "is_reserved": 0, "is_disabled": 0, "type": "electric_scooter", "bike_id": "2de527830926e58bf69f85f59574dbec"}, {"lon": -76.97561233333333, "lat": 38.904437333333334, "name": "7ec352baac4d3c633ddbbb33009d13d2", "fusion_lat": 0.0, "fusion_lon": 0.0, "rental_uris": {"android": "https://dc.lft.to/lastmile_qr_scan", "ios": "https://dc.lft.to/lastmile_qr_scan"}, "is_reserved": 0, "is_disabled": 0, "type": "electric_scooter", "bike_id": "7ec352baac4d3c633ddbbb33009d13d2"}, {"lon": -77.045938, "lat": 38.91931683333333, "name": "e5313f296c0a64380d7ad68362ecc076", "fusion_lat": 0.0, "fusion_lon": 0.0, "rental_uris": {"android": "https://dc.lft.to/lastmile_qr_scan", "ios": "https://dc.lft.to/lastmile_qr_scan"}, "is_reserved": 0, "is_disabled": 0, "type": "electric_scooter", "bike_id": "e5313f296c0a64380d7ad68362ecc076"}, {"lon": -76.98374583333333, "lat": 38.86034683333333, "name": "d9b992466a5ec4af7a51139614173fb7", "fusion_lat": 0.0, "fusion_lon": 0.0, "rental_uris": {"android": "https://dc.lft.to/lastmile_qr_scan", "ios": "https://dc.lft.to/lastmile_qr_scan"}, "is_reserved": 0, "is_disabled": 0, "type": "electric_scooter", "bike_id": "d9b992466a5ec4af7a51139614173fb7"}, {"lon": -77.03836783333334, "lat": 38.91562583333334, "name": "39b642a15f2a86b3bbf1b6dfb98f3bb3", "fusion_lat": 0.0, "fusion_lon": 0.0, "rental_uris": {"android": "https://dc.lft.to/lastmile_qr_scan", "ios": "https://dc.lft.to/lastmile_qr_scan"}, "is_reserved": 0, "is_disabled": 0, "type": "electric_scooter", "bike_id": "39b642a15f2a86b3bbf1b6dfb98f3bb3"}, {"lon": -77.08368366666667, "lat": 38.808511333333335, "name": "00964663c6b2c12fc04f4a0db680bee3", "fusion_lat": 0.0, "fusion_lon": 0.0, "rental_uris": {"android": "https://dc.lft.to/lastmile_qr_scan", "ios": "https://dc.lft.to/lastmile_qr_scan"}, "is_reserved": 0, "is_disabled": 0, "type": "electric_bike", "bike_id": "00964663c6b2c12fc04f4a0db680bee3"}, {"lon": -76.97500716666667, "lat": 38.91937183333334, "name": "ceb43b76cdcc6c8062fbeec9a08574c8", "fusion_lat": 0.0, "fusion_lon": 0.0, "rental_uris": {"android": "https://dc.lft.to/lastmile_qr_scan", "ios": "https://dc.lft.to/lastmile_qr_scan"}, "is_reserved": 0, "is_disabled": 0, "type": "electric_bike", "bike_id": "ceb43b76cdcc6c8062fbeec9a08574c8"}, {"lon": -76.982308, "lat": 38.916544333333334, "name": "5382bff683c196ae2996e6c153f6dfe0", "fusion_lat": 0.0, "fusion_lon": 0.0, "rental_uris": {"android": "https://dc.lft.to/lastmile_qr_scan", "ios": "https://dc.lft.to/lastmile_qr_scan"}, "is_reserved": 0, "is_disabled": 0, "type": "electric_scooter", "bike_id": "5382bff683c196ae2996e6c153f6dfe0"}, {"lon": -77.01744383333333, "lat": 38.90236133333333, "name": "9fdeed113c7f6f69febe8438f5e76be9", "fusion_lat": 0.0, "fusion_lon": 0.0, "rental_uris": {"android": "https://dc.lft.to/lastmile_qr_scan", "ios": "https://dc.lft.to/lastmile_qr_scan"}, "is_reserved": 0, "is_disabled": 0, "type": "electric_scooter", "bike_id": "9fdeed113c7f6f69febe8438f5e76be9"}, {"lon": -77.03213783333334, "lat": 38.91727, "name": "7f1a661746f25ee29715c262db322db5", "fusion_lat": 0.0, "fusion_lon": 0.0, "rental_uris": {"android": "https://dc.lft.to/lastmile_qr_scan", "ios": "https://dc.lft.to/lastmile_qr_scan"}, "is_reserved": 0, "is_disabled": 0, "type": "electric_scooter", "bike_id": "7f1a661746f25ee29715c262db322db5"}, {"lon": -76.96490383333334, "lat": 38.87550983333333, "name": "c6ad3c551f743090f4c6511e19e9f630", "fusion_lat": 0.0, "fusion_lon": 0.0, "rental_uris": {"android": "https://dc.lft.to/lastmile_qr_scan", "ios": "https://dc.lft.to/lastmile_qr_scan"}, "is_reserved": 0, "is_disabled": 0, "type": "electric_bike", "bike_id": "c6ad3c551f743090f4c6511e19e9f630"}, {"lon": -77.02780416666667, "lat": 38.92782616666667, "name": "cb952688f77a74f1cdbfe39ee821f095", "fusion_lat": 0.0, "fusion_lon": 0.0, "rental_uris": {"android": "https://dc.lft.to/lastmile_qr_scan", "ios": "https://dc.lft.to/lastmile_qr_scan"}, "is_reserved": 0, "is_disabled": 0, "type": "electric_scooter", "bike_id": "cb952688f77a74f1cdbfe39ee821f095"}, {"lon": -76.93184816666667, "lat": 38.89876866666667, "name": "73feb71f4f93d8ca4ccdcbe0e91823f2", "fusion_lat": 0.0, "fusion_lon": 0.0, "rental_uris": {"android": "https://dc.lft.to/lastmile_qr_scan", "ios": "https://dc.lft.to/lastmile_qr_scan"}, "is_reserved": 0, "is_disabled": 0, "type": "electric_scooter", "bike_id": "73feb71f4f93d8ca4ccdcbe0e91823f2"}, {"lon": -77.03535583333333, "lat": 38.9238125, "name": "003f5dad41d24ad1155841ae28b9933b", "fusion_lat": 0.0, "fusion_lon": 0.0, "rental_uris": {"android": "https://dc.lft.to/lastmile_qr_scan", "ios": "https://dc.lft.to/lastmile_qr_scan"}, "is_reserved": 0, "is_disabled": 0, "type": "electric_scooter", "bike_id": "003f5dad41d24ad1155841ae28b9933b"}, {"lon": -77.01609566666667, "lat": 38.876888, "name": "365bf908987613ab166b71e3c212bb33", "fusion_lat": 0.0, "fusion_lon": 0.0, "rental_uris": {"android": "https://dc.lft.to/lastmile_qr_scan", "ios": "https://dc.lft.to/lastmile_qr_scan"}, "is_reserved": 0, "is_disabled": 0, "type": "electric_scooter", "bike_id": "365bf908987613ab166b71e3c212bb33"}, {"lon": -76.98831816666667, "lat": 38.90044616666667, "name": "58af7d9c4ea1565f505b45b32a55b3d8", "fusion_lat": 0.0, "fusion_lon": 0.0, "rental_uris": {"android": "https://dc.lft.to/lastmile_qr_scan", "ios": "https://dc.lft.to/lastmile_qr_scan"}, "is_reserved": 0, "is_disabled": 0, "type": "electric_scooter", "bike_id": "58af7d9c4ea1565f505b45b32a55b3d8"}, {"lon": -77.0013285, "lat": 38.9041035, "name": "85dbdc5c36b12a3d9cc5854f3a9d197a", "fusion_lat": 0.0, "fusion_lon": 0.0, "rental_uris": {"android": "https://dc.lft.to/lastmile_qr_scan", "ios": "https://dc.lft.to/lastmile_qr_scan"}, "is_reserved": 0, "is_disabled": 0, "type": "electric_scooter", "bike_id": "85dbdc5c36b12a3d9cc5854f3a9d197a"}, {"lon": -77.05439233333334, "lat": 38.902689333333335, "name": "af52f1abaffec3b150263955800fa986", "fusion_lat": 0.0, "fusion_lon": 0.0, "rental_uris": {"android": "https://dc.lft.to/lastmile_qr_scan", "ios": "https://dc.lft.to/lastmile_qr_scan"}, "is_reserved": 0, "is_disabled": 0, "type": "electric_scooter", "bike_id": "af52f1abaffec3b150263955800fa986"}, {"lon": -77.01378316666667, "lat": 38.928628833333335, "name": "d92b201ccf31e75836affab45b55b130", "fusion_lat": 0.0, "fusion_lon": 0.0, "rental_uris": {"android": "https://dc.lft.to/lastmile_qr_scan", "ios": "https://dc.lft.to/lastmile_qr_scan"}, "is_reserved": 0, "is_disabled": 0, "type": "electric_scooter", "bike_id": "d92b201ccf31e75836affab45b55b130"}, {"lon": -76.999338, "lat": 38.896159833333336, "name": "03e69af5c2b27efb07d40d4b5866867c", "fusion_lat": 0.0, "fusion_lon": 0.0, "rental_uris": {"android": "https://dc.lft.to/lastmile_qr_scan", "ios": "https://dc.lft.to/lastmile_qr_scan"}, "is_reserved": 0, "is_disabled": 0, "type": "electric_scooter", "bike_id": "03e69af5c2b27efb07d40d4b5866867c"}, {"lon": -76.95212, "lat": 38.9367115, "name": "1b4dc872462f097c2e7dead1cd38ee18", "fusion_lat": 0.0, "fusion_lon": 0.0, "rental_uris": {"android": "https://dc.lft.to/lastmile_qr_scan", "ios": "https://dc.lft.to/lastmile_qr_scan"}, "is_reserved": 0, "is_disabled": 0, "type": "electric_bike", "bike_id": "1b4dc872462f097c2e7dead1cd38ee18"}, {"lon": -77.01715266666666, "lat": 38.91601416666666, "name": "48d3a1c630946ec0ae954cdb9228d1a4", "fusion_lat": 0.0, "fusion_lon": 0.0, "rental_uris": {"android": "https://dc.lft.to/lastmile_qr_scan", "ios": "https://dc.lft.to/lastmile_qr_scan"}, "is_reserved": 0, "is_disabled": 0, "type": "electric_scooter", "bike_id": "48d3a1c630946ec0ae954cdb9228d1a4"}, {"lon": -77.02347933333333, "lat": 38.9298425, "name": "e6a037bcdf32cd98372c44de9b070b7f", "fusion_lat": 0.0, "fusion_lon": 0.0, "rental_uris": {"android": "https://dc.lft.to/lastmile_qr_scan", "ios": "https://dc.lft.to/lastmile_qr_scan"}, "is_reserved": 0, "is_disabled": 0, "type": "electric_scooter", "bike_id": "e6a037bcdf32cd98372c44de9b070b7f"}, {"lon": -77.03408216666666, "lat": 38.919229, "name": "73fae493e18f84771c87bd8fef8682de", "fusion_lat": 0.0, "fusion_lon": 0.0, "rental_uris": {"android": "https://dc.lft.to/lastmile_qr_scan", "ios": "https://dc.lft.to/lastmile_qr_scan"}, "is_reserved": 0, "is_disabled": 0, "type": "electric_scooter", "bike_id": "73fae493e18f84771c87bd8fef8682de"}, {"lon": -77.02393683333334, "lat": 38.9271025, "name": "05953db1ec064ede66cb17dc89a939f8", "fusion_lat": 0.0, "fusion_lon": 0.0, "rental_uris": {"android": "https://dc.lft.to/lastmile_qr_scan", "ios": "https://dc.lft.to/lastmile_qr_scan"}, "is_reserved": 0, "is_disabled": 0, "type": "electric_scooter", "bike_id": "05953db1ec064ede66cb17dc89a939f8"}, {"lon": -77.001915, "lat": 38.900403833333336, "name": "757d82178d3af6d0c3225408f5bd2212", "fusion_lat": 0.0, "fusion_lon": 0.0, "rental_uris": {"android": "https://dc.lft.to/lastmile_qr_scan", "ios": "https://dc.lft.to/lastmile_qr_scan"}, "is_reserved": 0, "is_disabled": 0, "type": "electric_scooter", "bike_id": "757d82178d3af6d0c3225408f5bd2212"}, {"lon": -77.0205035, "lat": 38.9155625, "name": "b39915d0aa7ebb1d0e8ee0805285d478", "fusion_lat": 0.0, "fusion_lon": 0.0, "rental_uris": {"android": "https://dc.lft.to/lastmile_qr_scan", "ios": "https://dc.lft.to/lastmile_qr_scan"}, "is_reserved": 0, "is_disabled": 0, "type": "electric_scooter", "bike_id": "b39915d0aa7ebb1d0e8ee0805285d478"}, {"lon": -77.0237225, "lat": 38.9071905, "name": "6f29bd7458d6f74ceadf4783135c41f8", "fusion_lat": 0.0, "fusion_lon": 0.0, "rental_uris": {"android": "https://dc.lft.to/lastmile_qr_scan", "ios": "https://dc.lft.to/lastmile_qr_scan"}, "is_reserved": 0, "is_disabled": 0, "type": "electric_scooter", "bike_id": "6f29bd7458d6f74ceadf4783135c41f8"}, {"lon": -77.01592633333334, "lat": 38.957617, "name": "9d7f600af29cc3dfa320dd93561f8db3", "fusion_lat": 0.0, "fusion_lon": 0.0, "rental_uris": {"android": "https://dc.lft.to/lastmile_qr_scan", "ios": "https://dc.lft.to/lastmile_qr_scan"}, "is_reserved": 0, "is_disabled": 0, "type": "electric_scooter", "bike_id": "9d7f600af29cc3dfa320dd93561f8db3"}, {"lon": -77.01254583333333, "lat": 38.87626, "name": "2baa60adf3b35c1ef1cdd70b658d8e12", "fusion_lat": 0.0, "fusion_lon": 0.0, "rental_uris": {"android": "https://dc.lft.to/lastmile_qr_scan", "ios": "https://dc.lft.to/lastmile_qr_scan"}, "is_reserved": 0, "is_disabled": 0, "type": "electric_scooter", "bike_id": "2baa60adf3b35c1ef1cdd70b658d8e12"}, {"lon": -77.03284783333334, "lat": 38.930007833333335, "name": "b16ef3c723b7cf27271389c1b4a479ee", "fusion_lat": 0.0, "fusion_lon": 0.0, "rental_uris": {"android": "https://dc.lft.to/lastmile_qr_scan", "ios": "https://dc.lft.to/lastmile_qr_scan"}, "is_reserved": 0, "is_disabled": 0, "type": "electric_scooter", "bike_id": "b16ef3c723b7cf27271389c1b4a479ee"}, {"lon": -76.93736466666667, "lat": 38.8901565, "name": "b040236aa8af0ca2f2ba6fe3918142ad", "fusion_lat": 0.0, "fusion_lon": 0.0, "rental_uris": {"android": "https://dc.lft.to/lastmile_qr_scan", "ios": "https://dc.lft.to/lastmile_qr_scan"}, "is_reserved": 0, "is_disabled": 0, "type": "electric_scooter", "bike_id": "b040236aa8af0ca2f2ba6fe3918142ad"}, {"lon": -76.95183516666667, "lat": 38.8913235, "name": "b0ed2ad96c8ad8b63b185f10ab697844", "fusion_lat": 0.0, "fusion_lon": 0.0, "rental_uris": {"android": "https://dc.lft.to/lastmile_qr_scan", "ios": "https://dc.lft.to/lastmile_qr_scan"}, "is_reserved": 0, "is_disabled": 0, "type": "electric_scooter", "bike_id": "b0ed2ad96c8ad8b63b185f10ab697844"}, {"lon": -77.0059055, "lat": 38.90551, "name": "9f2d0e86a530775381ec0e7e74de279c", "fusion_lat": 0.0, "fusion_lon": 0.0, "rental_uris": {"android": "https://dc.lft.to/lastmile_qr_scan", "ios": "https://dc.lft.to/lastmile_qr_scan"}, "is_reserved": 0, "is_disabled": 0, "type": "electric_scooter", "bike_id": "9f2d0e86a530775381ec0e7e74de279c"}, {"lon": -77.02420316666667, "lat": 38.92600733333333, "name": "71ce89ad73ec138068e3cdcff9b9180a", "fusion_lat": 0.0, "fusion_lon": 0.0, "rental_uris": {"android": "https://dc.lft.to/lastmile_qr_scan", "ios": "https://dc.lft.to/lastmile_qr_scan"}, "is_reserved": 0, "is_disabled": 0, "type": "electric_scooter", "bike_id": "71ce89ad73ec138068e3cdcff9b9180a"}, {"lon": -77.00164383333333, "lat": 38.91730833333333, "name": "2c717e8cd74046d7b6780feda8955c79", "fusion_lat": 0.0, "fusion_lon": 0.0, "rental_uris": {"android": "https://dc.lft.to/lastmile_qr_scan", "ios": "https://dc.lft.to/lastmile_qr_scan"}, "is_reserved": 0, "is_disabled": 0, "type": "electric_bike", "bike_id": "2c717e8cd74046d7b6780feda8955c79"}, {"lon": -77.04999566666666, "lat": 38.9012265, "name": "5b02d9bbc1b36a34601d61b16d1257c5", "fusion_lat": 0.0, "fusion_lon": 0.0, "rental_uris": {"android": "https://dc.lft.to/lastmile_qr_scan", "ios": "https://dc.lft.to/lastmile_qr_scan"}, "is_reserved": 0, "is_disabled": 0, "type": "electric_scooter", "bike_id": "5b02d9bbc1b36a34601d61b16d1257c5"}, {"lon": -76.93174316666666, "lat": 38.8988425, "name": "0165cbf3b7bdc92af62b627112deead0", "fusion_lat": 0.0, "fusion_lon": 0.0, "rental_uris": {"android": "https://dc.lft.to/lastmile_qr_scan", "ios": "https://dc.lft.to/lastmile_qr_scan"}, "is_reserved": 0, "is_disabled": 0, "type": "electric_scooter", "bike_id": "0165cbf3b7bdc92af62b627112deead0"}, {"lon": -77.02206183333334, "lat": 38.902007166666664, "name": "012a0f1a1d8d1e076bc62feeb07b324f", "fusion_lat": 0.0, "fusion_lon": 0.0, "rental_uris": {"android": "https://dc.lft.to/lastmile_qr_scan", "ios": "https://dc.lft.to/lastmile_qr_scan"}, "is_reserved": 0, "is_disabled": 0, "type": "electric_scooter", "bike_id": "012a0f1a1d8d1e076bc62feeb07b324f"}, {"lon": -76.9950355, "lat": 38.8797425, "name": "faf491024b8c33b244effb3649ab78bb", "fusion_lat": 0.0, "fusion_lon": 0.0, "rental_uris": {"android": "https://dc.lft.to/lastmile_qr_scan", "ios": "https://dc.lft.to/lastmile_qr_scan"}, "is_reserved": 0, "is_disabled": 0, "type": "electric_scooter", "bike_id": "faf491024b8c33b244effb3649ab78bb"}, {"lon": -77.0318995, "lat": 38.8862345, "name": "a9bf4c78c9b591b274cf02b9713475e1", "fusion_lat": 0.0, "fusion_lon": 0.0, "rental_uris": {"android": "https://dc.lft.to/lastmile_qr_scan", "ios": "https://dc.lft.to/lastmile_qr_scan"}, "is_reserved": 0, "is_disabled": 0, "type": "electric_scooter", "bike_id": "a9bf4c78c9b591b274cf02b9713475e1"}, {"lon": -77.03265566666667, "lat": 38.903991, "name": "0e7dc5369a5d36f765155f14f5cd66bc", "fusion_lat": 0.0, "fusion_lon": 0.0, "rental_uris": {"android": "https://dc.lft.to/lastmile_qr_scan", "ios": "https://dc.lft.to/lastmile_qr_scan"}, "is_reserved": 0, "is_disabled": 0, "type": "electric_scooter", "bike_id": "0e7dc5369a5d36f765155f14f5cd66bc"}, {"lon": -77.0465725, "lat": 38.8933475, "name": "8a6e1d0c9d2bafc5d124bc913b221df3", "fusion_lat": 0.0, "fusion_lon": 0.0, "rental_uris": {"android": "https://dc.lft.to/lastmile_qr_scan", "ios": "https://dc.lft.to/lastmile_qr_scan"}, "is_reserved": 0, "is_disabled": 0, "type": "electric_scooter", "bike_id": "8a6e1d0c9d2bafc5d124bc913b221df3"}, {"lon": -77.00211533333334, "lat": 38.902203166666666, "name": "210cd9f63a59c280fdb558140debe944", "fusion_lat": 0.0, "fusion_lon": 0.0, "rental_uris": {"android": "https://dc.lft.to/lastmile_qr_scan", "ios": "https://dc.lft.to/lastmile_qr_scan"}, "is_reserved": 0, "is_disabled": 0, "type": "electric_scooter", "bike_id": "210cd9f63a59c280fdb558140debe944"}, {"lon": -77.03866216666667, "lat": 38.90771016666667, "name": "1c8e820068ad2088748170ca6e271d1b", "fusion_lat": 0.0, "fusion_lon": 0.0, "rental_uris": {"android": "https://dc.lft.to/lastmile_qr_scan", "ios": "https://dc.lft.to/lastmile_qr_scan"}, "is_reserved": 0, "is_disabled": 0, "type": "electric_scooter", "bike_id": "1c8e820068ad2088748170ca6e271d1b"}, {"lon": -77.02202166666666, "lat": 38.90280383333333, "name": "cb7c59ded72409998ef0b641b641f4fe", "fusion_lat": 0.0, "fusion_lon": 0.0, "rental_uris": {"android": "https://dc.lft.to/lastmile_qr_scan", "ios": "https://dc.lft.to/lastmile_qr_scan"}, "is_reserved": 0, "is_disabled": 0, "type": "electric_scooter", "bike_id": "cb7c59ded72409998ef0b641b641f4fe"}, {"lon": -77.0475315, "lat": 38.9024395, "name": "3a9106cab0fb2e47f8c64308a0d09c9d", "fusion_lat": 0.0, "fusion_lon": 0.0, "rental_uris": {"android": "https://dc.lft.to/lastmile_qr_scan", "ios": "https://dc.lft.to/lastmile_qr_scan"}, "is_reserved": 0, "is_disabled": 0, "type": "electric_scooter", "bike_id": "3a9106cab0fb2e47f8c64308a0d09c9d"}, {"lon": -77.050183, "lat": 38.9010285, "name": "fc6f5bef0fd61112b210c2f4ee545c3a", "fusion_lat": 0.0, "fusion_lon": 0.0, "rental_uris": {"android": "https://dc.lft.to/lastmile_qr_scan", "ios": "https://dc.lft.to/lastmile_qr_scan"}, "is_reserved": 0, "is_disabled": 0, "type": "electric_scooter", "bike_id": "fc6f5bef0fd61112b210c2f4ee545c3a"}, {"lon": -77.012114, "lat": 38.919789333333334, "name": "a82563fca63a252ab734e6e8061d9b58", "fusion_lat": 0.0, "fusion_lon": 0.0, "rental_uris": {"android": "https://dc.lft.to/lastmile_qr_scan", "ios": "https://dc.lft.to/lastmile_qr_scan"}, "is_reserved": 0, "is_disabled": 0, "type": "electric_scooter", "bike_id": "a82563fca63a252ab734e6e8061d9b58"}, {"lon": -77.05618683333333, "lat": 38.9241175, "name": "2be4f65b4b4d1277fdae09fe597dc3b2", "fusion_lat": 0.0, "fusion_lon": 0.0, "rental_uris": {"android": "https://dc.lft.to/lastmile_qr_scan", "ios": "https://dc.lft.to/lastmile_qr_scan"}, "is_reserved": 0, "is_disabled": 0, "type": "electric_scooter", "bike_id": "2be4f65b4b4d1277fdae09fe597dc3b2"}, {"lon": -77.00134733333333, "lat": 38.900107, "name": "f2acf6a05dc59843d433eeb8caa56044", "fusion_lat": 0.0, "fusion_lon": 0.0, "rental_uris": {"android": "https://dc.lft.to/lastmile_qr_scan", "ios": "https://dc.lft.to/lastmile_qr_scan"}, "is_reserved": 0, "is_disabled": 0, "type": "electric_scooter", "bike_id": "f2acf6a05dc59843d433eeb8caa56044"}, {"lon": -76.93540933333334, "lat": 38.955549500000004, "name": "4c74e7d6b833b405c5d74601a277b934", "fusion_lat": 0.0, "fusion_lon": 0.0, "rental_uris": {"android": "https://dc.lft.to/lastmile_qr_scan", "ios": "https://dc.lft.to/lastmile_qr_scan"}, "is_reserved": 0, "is_disabled": 0, "type": "electric_bike", "bike_id": "4c74e7d6b833b405c5d74601a277b934"}, {"lon": -77.05287333333334, "lat": 38.910549, "name": "7841f27285c7bc76e6f19f3f49305de5", "fusion_lat": 0.0, "fusion_lon": 0.0, "rental_uris": {"android": "https://dc.lft.to/lastmile_qr_scan", "ios": "https://dc.lft.to/lastmile_qr_scan"}, "is_reserved": 0, "is_disabled": 0, "type": "electric_scooter", "bike_id": "7841f27285c7bc76e6f19f3f49305de5"}, {"lon": -76.98734616666667, "lat": 38.944334166666664, "name": "0c28ee4da86725ae17b570daac440589", "fusion_lat": 0.0, "fusion_lon": 0.0, "rental_uris": {"android": "https://dc.lft.to/lastmile_qr_scan", "ios": "https://dc.lft.to/lastmile_qr_scan"}, "is_reserved": 0, "is_disabled": 0, "type": "electric_bike", "bike_id": "0c28ee4da86725ae17b570daac440589"}, {"lon": -77.03570883333333, "lat": 38.957245, "name": "6b45d3bead37c72f7705ba91daaf452b", "fusion_lat": 0.0, "fusion_lon": 0.0, "rental_uris": {"android": "https://dc.lft.to/lastmile_qr_scan", "ios": "https://dc.lft.to/lastmile_qr_scan"}, "is_reserved": 0, "is_disabled": 0, "type": "electric_scooter", "bike_id": "6b45d3bead37c72f7705ba91daaf452b"}, {"lon": -77.01582016666667, "lat": 38.876643666666666, "name": "ddedfcf4357ca438241b18dd74f90e26", "fusion_lat": 0.0, "fusion_lon": 0.0, "rental_uris": {"android": "https://dc.lft.to/lastmile_qr_scan", "ios": "https://dc.lft.to/lastmile_qr_scan"}, "is_reserved": 0, "is_disabled": 0, "type": "electric_scooter", "bike_id": "ddedfcf4357ca438241b18dd74f90e26"}, {"lon": -77.0736435, "lat": 38.93356383333333, "name": "34b12916578fbdfb57bbd147ef655c0d", "fusion_lat": 0.0, "fusion_lon": 0.0, "rental_uris": {"android": "https://dc.lft.to/lastmile_qr_scan", "ios": "https://dc.lft.to/lastmile_qr_scan"}, "is_reserved": 0, "is_disabled": 0, "type": "electric_scooter", "bike_id": "34b12916578fbdfb57bbd147ef655c0d"}, {"lon": -77.028158, "lat": 38.95612033333333, "name": "223dca3100d1308b1b8d18300097fb56", "fusion_lat": 0.0, "fusion_lon": 0.0, "rental_uris": {"android": "https://dc.lft.to/lastmile_qr_scan", "ios": "https://dc.lft.to/lastmile_qr_scan"}, "is_reserved": 0, "is_disabled": 0, "type": "electric_scooter", "bike_id": "223dca3100d1308b1b8d18300097fb56"}, {"lon": -77.03474216666666, "lat": 38.902909666666666, "name": "21a987e29b7218861f003dc2981e84bb", "fusion_lat": 0.0, "fusion_lon": 0.0, "rental_uris": {"android": "https://dc.lft.to/lastmile_qr_scan", "ios": "https://dc.lft.to/lastmile_qr_scan"}, "is_reserved": 0, "is_disabled": 0, "type": "electric_scooter", "bike_id": "21a987e29b7218861f003dc2981e84bb"}, {"lon": -77.0108995, "lat": 38.905563666666666, "name": "0c201cf35ff170bef6b7194129255725", "fusion_lat": 0.0, "fusion_lon": 0.0, "rental_uris": {"android": "https://dc.lft.to/lastmile_qr_scan", "ios": "https://dc.lft.to/lastmile_qr_scan"}, "is_reserved": 0, "is_disabled": 0, "type": "electric_scooter", "bike_id": "0c201cf35ff170bef6b7194129255725"}, {"lon": -77.024112, "lat": 38.90179233333333, "name": "f2753c0c9274d44fa35a218eadd7cc0f", "fusion_lat": 0.0, "fusion_lon": 0.0, "rental_uris": {"android": "https://dc.lft.to/lastmile_qr_scan", "ios": "https://dc.lft.to/lastmile_qr_scan"}, "is_reserved": 0, "is_disabled": 0, "type": "electric_scooter", "bike_id": "f2753c0c9274d44fa35a218eadd7cc0f"}, {"lon": -77.04780916666667, "lat": 38.902467, "name": "a96afb0845a81715c28cc2e261befc56", "fusion_lat": 0.0, "fusion_lon": 0.0, "rental_uris": {"android": "https://dc.lft.to/lastmile_qr_scan", "ios": "https://dc.lft.to/lastmile_qr_scan"}, "is_reserved": 0, "is_disabled": 0, "type": "electric_scooter", "bike_id": "a96afb0845a81715c28cc2e261befc56"}, {"lon": -77.04873316666666, "lat": 38.901089166666665, "name": "80c77f18775d80a714bb744e7ff5af35", "fusion_lat": 0.0, "fusion_lon": 0.0, "rental_uris": {"android": "https://dc.lft.to/lastmile_qr_scan", "ios": "https://dc.lft.to/lastmile_qr_scan"}, "is_reserved": 0, "is_disabled": 0, "type": "electric_scooter", "bike_id": "80c77f18775d80a714bb744e7ff5af35"}, {"lon": -77.1226195, "lat": 38.891911, "name": "e6991dcf87efba1f1352ef1a5ca17003", "fusion_lat": 0.0, "fusion_lon": 0.0, "rental_uris": {"android": "https://dc.lft.to/lastmile_qr_scan", "ios": "https://dc.lft.to/lastmile_qr_scan"}, "is_reserved": 0, "is_disabled": 0, "type": "electric_bike", "bike_id": "e6991dcf87efba1f1352ef1a5ca17003"}, {"lon": -77.07686233333334, "lat": 38.831941, "name": "66fbe41bb94d7249f5ec534d610f4627", "fusion_lat": 0.0, "fusion_lon": 0.0, "rental_uris": {"android": "https://dc.lft.to/lastmile_qr_scan", "ios": "https://dc.lft.to/lastmile_qr_scan"}, "is_reserved": 0, "is_disabled": 0, "type": "electric_bike", "bike_id": "66fbe41bb94d7249f5ec534d610f4627"}, {"lon": -77.11221766666667, "lat": 38.828782333333336, "name": "b5d10e06e667e72ab29a66f466c16098", "fusion_lat": 0.0, "fusion_lon": 0.0, "rental_uris": {"android": "https://dc.lft.to/lastmile_qr_scan", "ios": "https://dc.lft.to/lastmile_qr_scan"}, "is_reserved": 0, "is_disabled": 0, "type": "electric_bike", "bike_id": "b5d10e06e667e72ab29a66f466c16098"}, {"lon": -77.03133166666667, "lat": 38.90447733333333, "name": "0528106a335721873e671260f979aad6", "fusion_lat": 0.0, "fusion_lon": 0.0, "rental_uris": {"android": "https://dc.lft.to/lastmile_qr_scan", "ios": "https://dc.lft.to/lastmile_qr_scan"}, "is_reserved": 0, "is_disabled": 0, "type": "electric_scooter", "bike_id": "0528106a335721873e671260f979aad6"}, {"lon": -77.01833183333333, "lat": 38.91333, "name": "225ea057bc02128bc616c6c07e0ef9a5", "fusion_lat": 0.0, "fusion_lon": 0.0, "rental_uris": {"android": "https://dc.lft.to/lastmile_qr_scan", "ios": "https://dc.lft.to/lastmile_qr_scan"}, "is_reserved": 0, "is_disabled": 0, "type": "electric_scooter", "bike_id": "225ea057bc02128bc616c6c07e0ef9a5"}, {"lon": -77.0386535, "lat": 38.909731, "name": "97b0f7be83317aa084d97ba14e7e5826", "fusion_lat": 0.0, "fusion_lon": 0.0, "rental_uris": {"android": "https://dc.lft.to/lastmile_qr_scan", "ios": "https://dc.lft.to/lastmile_qr_scan"}, "is_reserved": 0, "is_disabled": 0, "type": "electric_scooter", "bike_id": "97b0f7be83317aa084d97ba14e7e5826"}, {"lon": -76.93617566666667, "lat": 38.970563166666665, "name": "92fa27fa406c517b205d9fbe0bf87b7c", "fusion_lat": 0.0, "fusion_lon": 0.0, "rental_uris": {"android": "https://dc.lft.to/lastmile_qr_scan", "ios": "https://dc.lft.to/lastmile_qr_scan"}, "is_reserved": 0, "is_disabled": 0, "type": "electric_bike", "bike_id": "92fa27fa406c517b205d9fbe0bf87b7c"}, {"lon": -77.03448283333333, "lat": 38.90738483333333, "name": "370df20c53f4cb8f5ccb82fca8cce691", "fusion_lat": 0.0, "fusion_lon": 0.0, "rental_uris": {"android": "https://dc.lft.to/lastmile_qr_scan", "ios": "https://dc.lft.to/lastmile_qr_scan"}, "is_reserved": 0, "is_disabled": 0, "type": "electric_scooter", "bike_id": "370df20c53f4cb8f5ccb82fca8cce691"}, {"lon": -77.07663433333333, "lat": 38.90624733333333, "name": "ee0f4472a1b6472947e65767e32cc769", "fusion_lat": 0.0, "fusion_lon": 0.0, "rental_uris": {"android": "https://dc.lft.to/lastmile_qr_scan", "ios": "https://dc.lft.to/lastmile_qr_scan"}, "is_reserved": 0, "is_disabled": 0, "type": "electric_scooter", "bike_id": "ee0f4472a1b6472947e65767e32cc769"}, {"lon": -76.9855785, "lat": 38.868865166666666, "name": "bc012f3c4bdc44a15a758ec2445c58d6", "fusion_lat": 0.0, "fusion_lon": 0.0, "rental_uris": {"android": "https://dc.lft.to/lastmile_qr_scan", "ios": "https://dc.lft.to/lastmile_qr_scan"}, "is_reserved": 0, "is_disabled": 0, "type": "electric_bike", "bike_id": "bc012f3c4bdc44a15a758ec2445c58d6"}, {"lon": -77.04231066666667, "lat": 38.91109133333333, "name": "7c0a1cf432476ac27f4370f6122732fb", "fusion_lat": 0.0, "fusion_lon": 0.0, "rental_uris": {"android": "https://dc.lft.to/lastmile_qr_scan", "ios": "https://dc.lft.to/lastmile_qr_scan"}, "is_reserved": 0, "is_disabled": 0, "type": "electric_scooter", "bike_id": "7c0a1cf432476ac27f4370f6122732fb"}, {"lon": -77.02198883333334, "lat": 38.91128783333333, "name": "cec9cb2df5678dbc43cb1149cec2bf72", "fusion_lat": 0.0, "fusion_lon": 0.0, "rental_uris": {"android": "https://dc.lft.to/lastmile_qr_scan", "ios": "https://dc.lft.to/lastmile_qr_scan"}, "is_reserved": 0, "is_disabled": 0, "type": "electric_scooter", "bike_id": "cec9cb2df5678dbc43cb1149cec2bf72"}, {"lon": -77.031733, "lat": 38.89392183333333, "name": "22cbf92a1c73aaf40c058556a7f67fb2", "fusion_lat": 0.0, "fusion_lon": 0.0, "rental_uris": {"android": "https://dc.lft.to/lastmile_qr_scan", "ios": "https://dc.lft.to/lastmile_qr_scan"}, "is_reserved": 0, "is_disabled": 0, "type": "electric_scooter", "bike_id": "22cbf92a1c73aaf40c058556a7f67fb2"}, {"lon": -76.99066966666666, "lat": 38.904006333333335, "name": "283a00993856d03750de544f0e84002d", "fusion_lat": 0.0, "fusion_lon": 0.0, "rental_uris": {"android": "https://dc.lft.to/lastmile_qr_scan", "ios": "https://dc.lft.to/lastmile_qr_scan"}, "is_reserved": 0, "is_disabled": 0, "type": "electric_scooter", "bike_id": "283a00993856d03750de544f0e84002d"}, {"lon": -77.021948, "lat": 38.9169455, "name": "86c67afd1ca359da7d9dabed7d9e4791", "fusion_lat": 0.0, "fusion_lon": 0.0, "rental_uris": {"android": "https://dc.lft.to/lastmile_qr_scan", "ios": "https://dc.lft.to/lastmile_qr_scan"}, "is_reserved": 0, "is_disabled": 0, "type": "electric_scooter", "bike_id": "86c67afd1ca359da7d9dabed7d9e4791"}, {"lon": -77.03363116666667, "lat": 38.92148916666667, "name": "c1fb8a140bbe06bd0df25dd6229609f6", "fusion_lat": 0.0, "fusion_lon": 0.0, "rental_uris": {"android": "https://dc.lft.to/lastmile_qr_scan", "ios": "https://dc.lft.to/lastmile_qr_scan"}, "is_reserved": 0, "is_disabled": 0, "type": "electric_scooter", "bike_id": "c1fb8a140bbe06bd0df25dd6229609f6"}, {"lon": -76.98127583333333, "lat": 38.891950333333334, "name": "1369ba6e24eba46e08eb2a171769ab4f", "fusion_lat": 0.0, "fusion_lon": 0.0, "rental_uris": {"android": "https://dc.lft.to/lastmile_qr_scan", "ios": "https://dc.lft.to/lastmile_qr_scan"}, "is_reserved": 0, "is_disabled": 0, "type": "electric_scooter", "bike_id": "1369ba6e24eba46e08eb2a171769ab4f"}, {"lon": -77.032712, "lat": 38.93080533333333, "name": "202b9c2394c5e033e10dec9d6e425d94", "fusion_lat": 0.0, "fusion_lon": 0.0, "rental_uris": {"android": "https://dc.lft.to/lastmile_qr_scan", "ios": "https://dc.lft.to/lastmile_qr_scan"}, "is_reserved": 0, "is_disabled": 0, "type": "electric_scooter", "bike_id": "202b9c2394c5e033e10dec9d6e425d94"}, {"lon": -76.95516716666667, "lat": 38.8905245, "name": "c2c0e1a4766abaa8ae88681ab558f5ba", "fusion_lat": 0.0, "fusion_lon": 0.0, "rental_uris": {"android": "https://dc.lft.to/lastmile_qr_scan", "ios": "https://dc.lft.to/lastmile_qr_scan"}, "is_reserved": 0, "is_disabled": 0, "type": "electric_scooter", "bike_id": "c2c0e1a4766abaa8ae88681ab558f5ba"}, {"lon": -77.03284666666667, "lat": 38.937966833333334, "name": "0742a4c7b7a91ec71f6d9e2f7dc084be", "fusion_lat": 0.0, "fusion_lon": 0.0, "rental_uris": {"android": "https://dc.lft.to/lastmile_qr_scan", "ios": "https://dc.lft.to/lastmile_qr_scan"}, "is_reserved": 0, "is_disabled": 0, "type": "electric_scooter", "bike_id": "0742a4c7b7a91ec71f6d9e2f7dc084be"}, {"lon": -77.003819, "lat": 38.894762666666665, "name": "b57c66ead011d98b2390f4477ddde599", "fusion_lat": 0.0, "fusion_lon": 0.0, "rental_uris": {"android": "https://dc.lft.to/lastmile_qr_scan", "ios": "https://dc.lft.to/lastmile_qr_scan"}, "is_reserved": 0, "is_disabled": 0, "type": "electric_bike", "bike_id": "b57c66ead011d98b2390f4477ddde599"}, {"lon": -76.91602266666666, "lat": 38.87974583333333, "name": "42382d4d993ba58ca0e7a22d28d998e2", "fusion_lat": 0.0, "fusion_lon": 0.0, "rental_uris": {"android": "https://dc.lft.to/lastmile_qr_scan", "ios": "https://dc.lft.to/lastmile_qr_scan"}, "is_reserved": 0, "is_disabled": 0, "type": "electric_bike", "bike_id": "42382d4d993ba58ca0e7a22d28d998e2"}, {"lon": -77.039899, "lat": 38.90562516666667, "name": "933b5698ec4398cbaa0384a6e2b9fbf1", "fusion_lat": 0.0, "fusion_lon": 0.0, "rental_uris": {"android": "https://dc.lft.to/lastmile_qr_scan", "ios": "https://dc.lft.to/lastmile_qr_scan"}, "is_reserved": 0, "is_disabled": 0, "type": "electric_scooter", "bike_id": "933b5698ec4398cbaa0384a6e2b9fbf1"}, {"lon": -77.12812266666667, "lat": 38.865303, "name": "a671c96df40227df4744376715511a0b", "fusion_lat": 0.0, "fusion_lon": 0.0, "rental_uris": {"android": "https://dc.lft.to/lastmile_qr_scan", "ios": "https://dc.lft.to/lastmile_qr_scan"}, "is_reserved": 0, "is_disabled": 0, "type": "electric_bike", "bike_id": "a671c96df40227df4744376715511a0b"}, {"lon": -77.06392083333333, "lat": 38.929083, "name": "240185344c2c94cfb77ef216a0127f49", "fusion_lat": 0.0, "fusion_lon": 0.0, "rental_uris": {"android": "https://dc.lft.to/lastmile_qr_scan", "ios": "https://dc.lft.to/lastmile_qr_scan"}, "is_reserved": 0, "is_disabled": 0, "type": "electric_scooter", "bike_id": "240185344c2c94cfb77ef216a0127f49"}, {"lon": -77.06888166666667, "lat": 38.94025633333333, "name": "ed854b6d428132d8efc9c907bfdaf847", "fusion_lat": 0.0, "fusion_lon": 0.0, "rental_uris": {"android": "https://dc.lft.to/lastmile_qr_scan", "ios": "https://dc.lft.to/lastmile_qr_scan"}, "is_reserved": 0, "is_disabled": 0, "type": "electric_scooter", "bike_id": "ed854b6d428132d8efc9c907bfdaf847"}, {"lon": -77.0205805, "lat": 38.92841683333333, "name": "d5f2ac95ce1a3890eed79eb081a3c197", "fusion_lat": 0.0, "fusion_lon": 0.0, "rental_uris": {"android": "https://dc.lft.to/lastmile_qr_scan", "ios": "https://dc.lft.to/lastmile_qr_scan"}, "is_reserved": 0, "is_disabled": 0, "type": "electric_bike", "bike_id": "d5f2ac95ce1a3890eed79eb081a3c197"}, {"lon": -77.0339225, "lat": 38.92052833333333, "name": "c318313c9b97000395677f8597c924b9", "fusion_lat": 0.0, "fusion_lon": 0.0, "rental_uris": {"android": "https://dc.lft.to/lastmile_qr_scan", "ios": "https://dc.lft.to/lastmile_qr_scan"}, "is_reserved": 0, "is_disabled": 0, "type": "electric_scooter", "bike_id": "c318313c9b97000395677f8597c924b9"}, {"lon": -77.07043633333333, "lat": 38.824445, "name": "bb25f722d01fcc9df7bf2275a8053012", "fusion_lat": 0.0, "fusion_lon": 0.0, "rental_uris": {"android": "https://dc.lft.to/lastmile_qr_scan", "ios": "https://dc.lft.to/lastmile_qr_scan"}, "is_reserved": 0, "is_disabled": 0, "type": "electric_bike", "bike_id": "bb25f722d01fcc9df7bf2275a8053012"}, {"lon": -77.003459, "lat": 38.90609883333333, "name": "ab52ee84a6bd98021a0d184c8da2d6a5", "fusion_lat": 0.0, "fusion_lon": 0.0, "rental_uris": {"android": "https://dc.lft.to/lastmile_qr_scan", "ios": "https://dc.lft.to/lastmile_qr_scan"}, "is_reserved": 0, "is_disabled": 0, "type": "electric_scooter", "bike_id": "ab52ee84a6bd98021a0d184c8da2d6a5"}, {"lon": -76.94724216666667, "lat": 38.89666066666667, "name": "77a5a049dbf9500c4e67b96c186b2230", "fusion_lat": 0.0, "fusion_lon": 0.0, "rental_uris": {"android": "https://dc.lft.to/lastmile_qr_scan", "ios": "https://dc.lft.to/lastmile_qr_scan"}, "is_reserved": 0, "is_disabled": 0, "type": "electric_scooter", "bike_id": "77a5a049dbf9500c4e67b96c186b2230"}, {"lon": -77.12978733333334, "lat": 38.7998775, "name": "31104463f49a8bda51d4d59f7d109120", "fusion_lat": 0.0, "fusion_lon": 0.0, "rental_uris": {"android": "https://dc.lft.to/lastmile_qr_scan", "ios": "https://dc.lft.to/lastmile_qr_scan"}, "is_reserved": 0, "is_disabled": 0, "type": "electric_bike", "bike_id": "31104463f49a8bda51d4d59f7d109120"}, {"lon": -77.016857, "lat": 38.90518933333333, "name": "f7f3b3b12319221d8290c815fc814dd6", "fusion_lat": 0.0, "fusion_lon": 0.0, "rental_uris": {"android": "https://dc.lft.to/lastmile_qr_scan", "ios": "https://dc.lft.to/lastmile_qr_scan"}, "is_reserved": 0, "is_disabled": 0, "type": "electric_scooter", "bike_id": "f7f3b3b12319221d8290c815fc814dd6"}, {"lon": -76.90952466666667, "lat": 38.854274333333336, "name": "6b80b1931e9c97b2625871cac1544ac1", "fusion_lat": 0.0, "fusion_lon": 0.0, "rental_uris": {"android": "https://dc.lft.to/lastmile_qr_scan", "ios": "https://dc.lft.to/lastmile_qr_scan"}, "is_reserved": 0, "is_disabled": 0, "type": "electric_bike", "bike_id": "6b80b1931e9c97b2625871cac1544ac1"}, {"lon": -77.03349683333333, "lat": 38.89535, "name": "8b527d6a1ea634ae520ad9f9cb8a5037", "fusion_lat": 0.0, "fusion_lon": 0.0, "rental_uris": {"android": "https://dc.lft.to/lastmile_qr_scan", "ios": "https://dc.lft.to/lastmile_qr_scan"}, "is_reserved": 0, "is_disabled": 0, "type": "electric_scooter", "bike_id": "8b527d6a1ea634ae520ad9f9cb8a5037"}, {"lon": -77.0187145, "lat": 38.887450333333334, "name": "9259a58edb1033a34c7f54becac21b2c", "fusion_lat": 0.0, "fusion_lon": 0.0, "rental_uris": {"android": "https://dc.lft.to/lastmile_qr_scan", "ios": "https://dc.lft.to/lastmile_qr_scan"}, "is_reserved": 0, "is_disabled": 0, "type": "electric_scooter", "bike_id": "9259a58edb1033a34c7f54becac21b2c"}, {"lon": -77.0237735, "lat": 38.909533333333336, "name": "3c723866164ff61e57040e6f48cf9947", "fusion_lat": 0.0, "fusion_lon": 0.0, "rental_uris": {"android": "https://dc.lft.to/lastmile_qr_scan", "ios": "https://dc.lft.to/lastmile_qr_scan"}, "is_reserved": 0, "is_disabled": 0, "type": "electric_scooter", "bike_id": "3c723866164ff61e57040e6f48cf9947"}, {"lon": -77.02694816666667, "lat": 38.909425666666664, "name": "4a22ca0cb3d987373cc4715cb1b68dce", "fusion_lat": 0.0, "fusion_lon": 0.0, "rental_uris": {"android": "https://dc.lft.to/lastmile_qr_scan", "ios": "https://dc.lft.to/lastmile_qr_scan"}, "is_reserved": 0, "is_disabled": 0, "type": "electric_scooter", "bike_id": "4a22ca0cb3d987373cc4715cb1b68dce"}, {"lon": -77.04178116666667, "lat": 38.93059083333333, "name": "ec69b2ce199d21ce169c55cc388ac466", "fusion_lat": 0.0, "fusion_lon": 0.0, "rental_uris": {"android": "https://dc.lft.to/lastmile_qr_scan", "ios": "https://dc.lft.to/lastmile_qr_scan"}, "is_reserved": 0, "is_disabled": 0, "type": "electric_scooter", "bike_id": "ec69b2ce199d21ce169c55cc388ac466"}, {"lon": -77.02665733333333, "lat": 38.93857783333333, "name": "0474dbead7d69284191e4e53c14488cf", "fusion_lat": 0.0, "fusion_lon": 0.0, "rental_uris": {"android": "https://dc.lft.to/lastmile_qr_scan", "ios": "https://dc.lft.to/lastmile_qr_scan"}, "is_reserved": 0, "is_disabled": 0, "type": "electric_scooter", "bike_id": "0474dbead7d69284191e4e53c14488cf"}, {"lon": -77.009149, "lat": 38.902718, "name": "6660df8e3dc7268f9bd8f15f2e649c2f", "fusion_lat": 0.0, "fusion_lon": 0.0, "rental_uris": {"android": "https://dc.lft.to/lastmile_qr_scan", "ios": "https://dc.lft.to/lastmile_qr_scan"}, "is_reserved": 0, "is_disabled": 0, "type": "electric_scooter", "bike_id": "6660df8e3dc7268f9bd8f15f2e649c2f"}, {"lon": -77.02709283333333, "lat": 38.94997083333333, "name": "aa4b4291a0c146a7fe38b38c95347cb0", "fusion_lat": 0.0, "fusion_lon": 0.0, "rental_uris": {"android": "https://dc.lft.to/lastmile_qr_scan", "ios": "https://dc.lft.to/lastmile_qr_scan"}, "is_reserved": 0, "is_disabled": 0, "type": "electric_scooter", "bike_id": "aa4b4291a0c146a7fe38b38c95347cb0"}, {"lon": -77.03867366666667, "lat": 38.917096666666666, "name": "0a9b6593d50397982db5cc0c695f97d6", "fusion_lat": 0.0, "fusion_lon": 0.0, "rental_uris": {"android": "https://dc.lft.to/lastmile_qr_scan", "ios": "https://dc.lft.to/lastmile_qr_scan"}, "is_reserved": 0, "is_disabled": 0, "type": "electric_scooter", "bike_id": "0a9b6593d50397982db5cc0c695f97d6"}, {"lon": -77.032628, "lat": 38.93340283333333, "name": "ce81f5636bc9ba5ead6d11da90ed7198", "fusion_lat": 0.0, "fusion_lon": 0.0, "rental_uris": {"android": "https://dc.lft.to/lastmile_qr_scan", "ios": "https://dc.lft.to/lastmile_qr_scan"}, "is_reserved": 0, "is_disabled": 0, "type": "electric_scooter", "bike_id": "ce81f5636bc9ba5ead6d11da90ed7198"}, {"lon": -77.014489, "lat": 38.91199433333333, "name": "062f553bab731689732e938906bc3135", "fusion_lat": 0.0, "fusion_lon": 0.0, "rental_uris": {"android": "https://dc.lft.to/lastmile_qr_scan", "ios": "https://dc.lft.to/lastmile_qr_scan"}, "is_reserved": 0, "is_disabled": 0, "type": "electric_scooter", "bike_id": "062f553bab731689732e938906bc3135"}, {"lon": -77.018106, "lat": 38.914310666666665, "name": "b57c1675743bd7b32fdf11ce80951c54", "fusion_lat": 0.0, "fusion_lon": 0.0, "rental_uris": {"android": "https://dc.lft.to/lastmile_qr_scan", "ios": "https://dc.lft.to/lastmile_qr_scan"}, "is_reserved": 0, "is_disabled": 0, "type": "electric_scooter", "bike_id": "b57c1675743bd7b32fdf11ce80951c54"}, {"lon": -77.01349116666667, "lat": 38.919363833333335, "name": "844f4600ffce824fcaa6178259d9d226", "fusion_lat": 0.0, "fusion_lon": 0.0, "rental_uris": {"android": "https://dc.lft.to/lastmile_qr_scan", "ios": "https://dc.lft.to/lastmile_qr_scan"}, "is_reserved": 0, "is_disabled": 0, "type": "electric_scooter", "bike_id": "844f4600ffce824fcaa6178259d9d226"}, {"lon": -77.01244033333333, "lat": 38.908678333333334, "name": "e840f53c8a22846f0b90454ee6127b7f", "fusion_lat": 0.0, "fusion_lon": 0.0, "rental_uris": {"android": "https://dc.lft.to/lastmile_qr_scan", "ios": "https://dc.lft.to/lastmile_qr_scan"}, "is_reserved": 0, "is_disabled": 0, "type": "electric_scooter", "bike_id": "e840f53c8a22846f0b90454ee6127b7f"}, {"lon": -76.994271, "lat": 38.922676333333335, "name": "1ff58ab8aa3e394e1d63032e995269a4", "fusion_lat": 0.0, "fusion_lon": 0.0, "rental_uris": {"android": "https://dc.lft.to/lastmile_qr_scan", "ios": "https://dc.lft.to/lastmile_qr_scan"}, "is_reserved": 0, "is_disabled": 0, "type": "electric_scooter", "bike_id": "1ff58ab8aa3e394e1d63032e995269a4"}, {"lon": -76.98852733333334, "lat": 38.900101666666664, "name": "64d9677dcc80a8c742e8105d0c861775", "fusion_lat": 0.0, "fusion_lon": 0.0, "rental_uris": {"android": "https://dc.lft.to/lastmile_qr_scan", "ios": "https://dc.lft.to/lastmile_qr_scan"}, "is_reserved": 0, "is_disabled": 0, "type": "electric_scooter", "bike_id": "64d9677dcc80a8c742e8105d0c861775"}, {"lon": -76.96521833333334, "lat": 38.874781666666664, "name": "e096e94837ce77b4fa5fee4bb664f60c", "fusion_lat": 0.0, "fusion_lon": 0.0, "rental_uris": {"android": "https://dc.lft.to/lastmile_qr_scan", "ios": "https://dc.lft.to/lastmile_qr_scan"}, "is_reserved": 0, "is_disabled": 0, "type": "electric_scooter", "bike_id": "e096e94837ce77b4fa5fee4bb664f60c"}, {"lon": -77.03849633333333, "lat": 38.912208166666666, "name": "53732bc496a7c22869b8a133cb19bf7d", "fusion_lat": 0.0, "fusion_lon": 0.0, "rental_uris": {"android": "https://dc.lft.to/lastmile_qr_scan", "ios": "https://dc.lft.to/lastmile_qr_scan"}, "is_reserved": 0, "is_disabled": 0, "type": "electric_scooter", "bike_id": "53732bc496a7c22869b8a133cb19bf7d"}, {"lon": -77.038476, "lat": 38.915414, "name": "5517398318c5642628760a58ee792c1d", "fusion_lat": 0.0, "fusion_lon": 0.0, "rental_uris": {"android": "https://dc.lft.to/lastmile_qr_scan", "ios": "https://dc.lft.to/lastmile_qr_scan"}, "is_reserved": 0, "is_disabled": 0, "type": "electric_scooter", "bike_id": "5517398318c5642628760a58ee792c1d"}, {"lon": -77.03348966666667, "lat": 38.88509716666667, "name": "ce0daf18ee40fa31691995820dc41887", "fusion_lat": 0.0, "fusion_lon": 0.0, "rental_uris": {"android": "https://dc.lft.to/lastmile_qr_scan", "ios": "https://dc.lft.to/lastmile_qr_scan"}, "is_reserved": 0, "is_disabled": 0, "type": "electric_scooter", "bike_id": "ce0daf18ee40fa31691995820dc41887"}, {"lon": -77.09525033333334, "lat": 38.838103333333336, "name": "3d6b845745a4a881db6158567067a6f5", "fusion_lat": 0.0, "fusion_lon": 0.0, "rental_uris": {"android": "https://dc.lft.to/lastmile_qr_scan", "ios": "https://dc.lft.to/lastmile_qr_scan"}, "is_reserved": 0, "is_disabled": 0, "type": "electric_bike", "bike_id": "3d6b845745a4a881db6158567067a6f5"}, {"lon": -77.03651133333334, "lat": 38.93605433333333, "name": "aade2949bf4b757d3f21a7401a4eb713", "fusion_lat": 0.0, "fusion_lon": 0.0, "rental_uris": {"android": "https://dc.lft.to/lastmile_qr_scan", "ios": "https://dc.lft.to/lastmile_qr_scan"}, "is_reserved": 0, "is_disabled": 0, "type": "electric_scooter", "bike_id": "aade2949bf4b757d3f21a7401a4eb713"}, {"lon": -77.028396, "lat": 38.89372433333333, "name": "421f05801bc138ec50dad9c7d80a82ea", "fusion_lat": 0.0, "fusion_lon": 0.0, "rental_uris": {"android": "https://dc.lft.to/lastmile_qr_scan", "ios": "https://dc.lft.to/lastmile_qr_scan"}, "is_reserved": 0, "is_disabled": 0, "type": "electric_scooter", "bike_id": "421f05801bc138ec50dad9c7d80a82ea"}, {"lon": -77.0281885, "lat": 38.92376766666667, "name": "c51a656e1f32395519f80b014d3b8919", "fusion_lat": 0.0, "fusion_lon": 0.0, "rental_uris": {"android": "https://dc.lft.to/lastmile_qr_scan", "ios": "https://dc.lft.to/lastmile_qr_scan"}, "is_reserved": 0, "is_disabled": 0, "type": "electric_scooter", "bike_id": "c51a656e1f32395519f80b014d3b8919"}, {"lon": -77.05591283333334, "lat": 38.92779483333333, "name": "cf9e7967e96594ab9d492167ddee0936", "fusion_lat": 0.0, "fusion_lon": 0.0, "rental_uris": {"android": "https://dc.lft.to/lastmile_qr_scan", "ios": "https://dc.lft.to/lastmile_qr_scan"}, "is_reserved": 0, "is_disabled": 0, "type": "electric_scooter", "bike_id": "cf9e7967e96594ab9d492167ddee0936"}, {"lon": -77.04693966666666, "lat": 38.92107933333333, "name": "02d4e29c1e9dc7f271a52801fc10aaac", "fusion_lat": 0.0, "fusion_lon": 0.0, "rental_uris": {"android": "https://dc.lft.to/lastmile_qr_scan", "ios": "https://dc.lft.to/lastmile_qr_scan"}, "is_reserved": 0, "is_disabled": 0, "type": "electric_scooter", "bike_id": "02d4e29c1e9dc7f271a52801fc10aaac"}, {"lon": -77.0433125, "lat": 38.90452116666667, "name": "f599772eb674a1b1f89d0a1a895b59bb", "fusion_lat": 0.0, "fusion_lon": 0.0, "rental_uris": {"android": "https://dc.lft.to/lastmile_qr_scan", "ios": "https://dc.lft.to/lastmile_qr_scan"}, "is_reserved": 0, "is_disabled": 0, "type": "electric_scooter", "bike_id": "f599772eb674a1b1f89d0a1a895b59bb"}, {"lon": -76.94965016666667, "lat": 38.8937045, "name": "154aae6e691e8927730ab28e2bdfbb5f", "fusion_lat": 0.0, "fusion_lon": 0.0, "rental_uris": {"android": "https://dc.lft.to/lastmile_qr_scan", "ios": "https://dc.lft.to/lastmile_qr_scan"}, "is_reserved": 0, "is_disabled": 0, "type": "electric_scooter", "bike_id": "154aae6e691e8927730ab28e2bdfbb5f"}, {"lon": -77.0109855, "lat": 38.90573066666666, "name": "e7e73ddc2fb96a96a94aeddb5b509b04", "fusion_lat": 0.0, "fusion_lon": 0.0, "rental_uris": {"android": "https://dc.lft.to/lastmile_qr_scan", "ios": "https://dc.lft.to/lastmile_qr_scan"}, "is_reserved": 0, "is_disabled": 0, "type": "electric_scooter", "bike_id": "e7e73ddc2fb96a96a94aeddb5b509b04"}, {"lon": -77.01869066666667, "lat": 38.94894683333333, "name": "f0080438f2a28c5608278a8b8505cb9f", "fusion_lat": 0.0, "fusion_lon": 0.0, "rental_uris": {"android": "https://dc.lft.to/lastmile_qr_scan", "ios": "https://dc.lft.to/lastmile_qr_scan"}, "is_reserved": 0, "is_disabled": 0, "type": "electric_scooter", "bike_id": "f0080438f2a28c5608278a8b8505cb9f"}, {"lon": -77.0556625, "lat": 38.899821, "name": "83c87e0fa1facfde8ada4184cacd6f37", "fusion_lat": 0.0, "fusion_lon": 0.0, "rental_uris": {"android": "https://dc.lft.to/lastmile_qr_scan", "ios": "https://dc.lft.to/lastmile_qr_scan"}, "is_reserved": 0, "is_disabled": 0, "type": "electric_scooter", "bike_id": "83c87e0fa1facfde8ada4184cacd6f37"}, {"lon": -76.96529366666667, "lat": 38.876243833333334, "name": "db2177c50d9a2513916f43c8a0793988", "fusion_lat": 0.0, "fusion_lon": 0.0, "rental_uris": {"android": "https://dc.lft.to/lastmile_qr_scan", "ios": "https://dc.lft.to/lastmile_qr_scan"}, "is_reserved": 0, "is_disabled": 0, "type": "electric_scooter", "bike_id": "db2177c50d9a2513916f43c8a0793988"}, {"lon": -76.98172666666666, "lat": 38.959557, "name": "9e4814528211de349f0fb9e5f5aaee9d", "fusion_lat": 0.0, "fusion_lon": 0.0, "rental_uris": {"android": "https://dc.lft.to/lastmile_qr_scan", "ios": "https://dc.lft.to/lastmile_qr_scan"}, "is_reserved": 0, "is_disabled": 0, "type": "electric_bike", "bike_id": "9e4814528211de349f0fb9e5f5aaee9d"}, {"lon": -77.02459883333333, "lat": 38.91899933333333, "name": "2dbcc7348a9219ae3ca8846497585b91", "fusion_lat": 0.0, "fusion_lon": 0.0, "rental_uris": {"android": "https://dc.lft.to/lastmile_qr_scan", "ios": "https://dc.lft.to/lastmile_qr_scan"}, "is_reserved": 0, "is_disabled": 0, "type": "electric_scooter", "bike_id": "2dbcc7348a9219ae3ca8846497585b91"}, {"lon": -77.02928583333333, "lat": 38.882191, "name": "44ba6c2603717644f11a9901c327e213", "fusion_lat": 0.0, "fusion_lon": 0.0, "rental_uris": {"android": "https://dc.lft.to/lastmile_qr_scan", "ios": "https://dc.lft.to/lastmile_qr_scan"}, "is_reserved": 0, "is_disabled": 0, "type": "electric_scooter", "bike_id": "44ba6c2603717644f11a9901c327e213"}, {"lon": -77.036375, "lat": 38.91886566666667, "name": "08efa2b26c7cb1c109dba5236fd801c0", "fusion_lat": 0.0, "fusion_lon": 0.0, "rental_uris": {"android": "https://dc.lft.to/lastmile_qr_scan", "ios": "https://dc.lft.to/lastmile_qr_scan"}, "is_reserved": 0, "is_disabled": 0, "type": "electric_scooter", "bike_id": "08efa2b26c7cb1c109dba5236fd801c0"}, {"lon": -77.0321705, "lat": 38.93043766666667, "name": "ca42317e0368bc8d958501af54582273", "fusion_lat": 0.0, "fusion_lon": 0.0, "rental_uris": {"android": "https://dc.lft.to/lastmile_qr_scan", "ios": "https://dc.lft.to/lastmile_qr_scan"}, "is_reserved": 0, "is_disabled": 0, "type": "electric_scooter", "bike_id": "ca42317e0368bc8d958501af54582273"}, {"lon": -77.01023266666667, "lat": 38.921212833333335, "name": "976439558afb2f7335d7acfa43d3e244", "fusion_lat": 0.0, "fusion_lon": 0.0, "rental_uris": {"android": "https://dc.lft.to/lastmile_qr_scan", "ios": "https://dc.lft.to/lastmile_qr_scan"}, "is_reserved": 0, "is_disabled": 0, "type": "electric_scooter", "bike_id": "976439558afb2f7335d7acfa43d3e244"}, {"lon": -77.10683533333334, "lat": 38.935790833333336, "name": "7ff0930521baf2324b1eba2656800da5", "fusion_lat": 0.0, "fusion_lon": 0.0, "rental_uris": {"android": "https://dc.lft.to/lastmile_qr_scan", "ios": "https://dc.lft.to/lastmile_qr_scan"}, "is_reserved": 0, "is_disabled": 0, "type": "electric_bike", "bike_id": "7ff0930521baf2324b1eba2656800da5"}, {"lon": -77.038798, "lat": 38.9140525, "name": "e71f3b5db23a8b719b0c398eedcd41d7", "fusion_lat": 0.0, "fusion_lon": 0.0, "rental_uris": {"android": "https://dc.lft.to/lastmile_qr_scan", "ios": "https://dc.lft.to/lastmile_qr_scan"}, "is_reserved": 0, "is_disabled": 0, "type": "electric_scooter", "bike_id": "e71f3b5db23a8b719b0c398eedcd41d7"}, {"lon": -76.99114533333334, "lat": 38.9002155, "name": "70fd9584fdf9060b4a40edb37f416d6a", "fusion_lat": 0.0, "fusion_lon": 0.0, "rental_uris": {"android": "https://dc.lft.to/lastmile_qr_scan", "ios": "https://dc.lft.to/lastmile_qr_scan"}, "is_reserved": 0, "is_disabled": 0, "type": "electric_scooter", "bike_id": "70fd9584fdf9060b4a40edb37f416d6a"}, {"lon": -77.04657216666666, "lat": 38.893385, "name": "26978724db8f17e221b26202c07cb0ec", "fusion_lat": 0.0, "fusion_lon": 0.0, "rental_uris": {"android": "https://dc.lft.to/lastmile_qr_scan", "ios": "https://dc.lft.to/lastmile_qr_scan"}, "is_reserved": 0, "is_disabled": 0, "type": "electric_scooter", "bike_id": "26978724db8f17e221b26202c07cb0ec"}, {"lon": -76.97911233333333, "lat": 38.89436233333333, "name": "7e667b91291ef307ba4093bfb63cbfc4", "fusion_lat": 0.0, "fusion_lon": 0.0, "rental_uris": {"android": "https://dc.lft.to/lastmile_qr_scan", "ios": "https://dc.lft.to/lastmile_qr_scan"}, "is_reserved": 0, "is_disabled": 0, "type": "electric_scooter", "bike_id": "7e667b91291ef307ba4093bfb63cbfc4"}, {"lon": -77.04487116666667, "lat": 38.90265266666667, "name": "c3cc9eb3de3a2d3e024b95f434dcfdc4", "fusion_lat": 0.0, "fusion_lon": 0.0, "rental_uris": {"android": "https://dc.lft.to/lastmile_qr_scan", "ios": "https://dc.lft.to/lastmile_qr_scan"}, "is_reserved": 0, "is_disabled": 0, "type": "electric_scooter", "bike_id": "c3cc9eb3de3a2d3e024b95f434dcfdc4"}, {"lon": -77.03921183333334, "lat": 38.918386166666664, "name": "4afa1e8830edbe3db73ec434ec06337c", "fusion_lat": 0.0, "fusion_lon": 0.0, "rental_uris": {"android": "https://dc.lft.to/lastmile_qr_scan", "ios": "https://dc.lft.to/lastmile_qr_scan"}, "is_reserved": 0, "is_disabled": 0, "type": "electric_scooter", "bike_id": "4afa1e8830edbe3db73ec434ec06337c"}, {"lon": -77.02401733333333, "lat": 38.904155, "name": "8beaeac2c77f75d4859c8b5ff260c3f2", "fusion_lat": 0.0, "fusion_lon": 0.0, "rental_uris": {"android": "https://dc.lft.to/lastmile_qr_scan", "ios": "https://dc.lft.to/lastmile_qr_scan"}, "is_reserved": 0, "is_disabled": 0, "type": "electric_scooter", "bike_id": "8beaeac2c77f75d4859c8b5ff260c3f2"}, {"lon": -77.0381275, "lat": 38.93119083333333, "name": "2c7d6a74646779e8aad74313fd2cb05a", "fusion_lat": 0.0, "fusion_lon": 0.0, "rental_uris": {"android": "https://dc.lft.to/lastmile_qr_scan", "ios": "https://dc.lft.to/lastmile_qr_scan"}, "is_reserved": 0, "is_disabled": 0, "type": "electric_scooter", "bike_id": "2c7d6a74646779e8aad74313fd2cb05a"}, {"lon": -76.9565505, "lat": 38.896142166666664, "name": "9c31f9d7667ac2fb4e1e860898641c06", "fusion_lat": 0.0, "fusion_lon": 0.0, "rental_uris": {"android": "https://dc.lft.to/lastmile_qr_scan", "ios": "https://dc.lft.to/lastmile_qr_scan"}, "is_reserved": 0, "is_disabled": 0, "type": "electric_scooter", "bike_id": "9c31f9d7667ac2fb4e1e860898641c06"}, {"lon": -76.946514, "lat": 38.898254333333334, "name": "aedc782630fe126cb8d7b892c912af84", "fusion_lat": 0.0, "fusion_lon": 0.0, "rental_uris": {"android": "https://dc.lft.to/lastmile_qr_scan", "ios": "https://dc.lft.to/lastmile_qr_scan"}, "is_reserved": 0, "is_disabled": 0, "type": "electric_scooter", "bike_id": "aedc782630fe126cb8d7b892c912af84"}, {"lon": -77.03874733333333, "lat": 38.9126695, "name": "2c43e63c59c9dedd595fe059447bfa8b", "fusion_lat": 0.0, "fusion_lon": 0.0, "rental_uris": {"android": "https://dc.lft.to/lastmile_qr_scan", "ios": "https://dc.lft.to/lastmile_qr_scan"}, "is_reserved": 0, "is_disabled": 0, "type": "electric_scooter", "bike_id": "2c43e63c59c9dedd595fe059447bfa8b"}, {"lon": -77.07820883333333, "lat": 38.924629833333334, "name": "949206343f0d6602e4144875340bf8b1", "fusion_lat": 0.0, "fusion_lon": 0.0, "rental_uris": {"android": "https://dc.lft.to/lastmile_qr_scan", "ios": "https://dc.lft.to/lastmile_qr_scan"}, "is_reserved": 0, "is_disabled": 0, "type": "electric_scooter", "bike_id": "949206343f0d6602e4144875340bf8b1"}, {"lon": -77.04276333333334, "lat": 38.923151, "name": "84fd414a8420fcb0660a3026e195512a", "fusion_lat": 0.0, "fusion_lon": 0.0, "rental_uris": {"android": "https://dc.lft.to/lastmile_qr_scan", "ios": "https://dc.lft.to/lastmile_qr_scan"}, "is_reserved": 0, "is_disabled": 0, "type": "electric_scooter", "bike_id": "84fd414a8420fcb0660a3026e195512a"}, {"lon": -76.97252683333333, "lat": 38.9574225, "name": "d75e103d8ade78ca60fe51683375b491", "fusion_lat": 0.0, "fusion_lon": 0.0, "rental_uris": {"android": "https://dc.lft.to/lastmile_qr_scan", "ios": "https://dc.lft.to/lastmile_qr_scan"}, "is_reserved": 0, "is_disabled": 0, "type": "electric_bike", "bike_id": "d75e103d8ade78ca60fe51683375b491"}, {"lon": -77.0334225, "lat": 38.897501166666665, "name": "bfe6bcc3d7051f0fb882e7d35f7be825", "fusion_lat": 0.0, "fusion_lon": 0.0, "rental_uris": {"android": "https://dc.lft.to/lastmile_qr_scan", "ios": "https://dc.lft.to/lastmile_qr_scan"}, "is_reserved": 0, "is_disabled": 0, "type": "electric_scooter", "bike_id": "bfe6bcc3d7051f0fb882e7d35f7be825"}, {"lon": -77.002545, "lat": 38.91179016666667, "name": "6f5b91ce97e074de0fe60077c2056d3a", "fusion_lat": 0.0, "fusion_lon": 0.0, "rental_uris": {"android": "https://dc.lft.to/lastmile_qr_scan", "ios": "https://dc.lft.to/lastmile_qr_scan"}, "is_reserved": 0, "is_disabled": 0, "type": "electric_scooter", "bike_id": "6f5b91ce97e074de0fe60077c2056d3a"}, {"lon": -76.97106016666666, "lat": 38.85723816666667, "name": "103dc99d3f0f91bf9c57e52994543b4d", "fusion_lat": 0.0, "fusion_lon": 0.0, "rental_uris": {"android": "https://dc.lft.to/lastmile_qr_scan", "ios": "https://dc.lft.to/lastmile_qr_scan"}, "is_reserved": 0, "is_disabled": 0, "type": "electric_scooter", "bike_id": "103dc99d3f0f91bf9c57e52994543b4d"}, {"lon": -77.029796, "lat": 38.907197833333335, "name": "27aff0e87b1b3a449203d5b04ac5bb71", "fusion_lat": 0.0, "fusion_lon": 0.0, "rental_uris": {"android": "https://dc.lft.to/lastmile_qr_scan", "ios": "https://dc.lft.to/lastmile_qr_scan"}, "is_reserved": 0, "is_disabled": 0, "type": "electric_scooter", "bike_id": "27aff0e87b1b3a449203d5b04ac5bb71"}, {"lon": -77.107211, "lat": 38.855506166666665, "name": "51fcfff96b48adc65d7119e7c1568054", "fusion_lat": 0.0, "fusion_lon": 0.0, "rental_uris": {"android": "https://dc.lft.to/lastmile_qr_scan", "ios": "https://dc.lft.to/lastmile_qr_scan"}, "is_reserved": 0, "is_disabled": 0, "type": "electric_bike", "bike_id": "51fcfff96b48adc65d7119e7c1568054"}, {"lon": -77.04060583333333, "lat": 38.917687, "name": "856f0cd5107050043aea7ab85bac452b", "fusion_lat": 0.0, "fusion_lon": 0.0, "rental_uris": {"android": "https://dc.lft.to/lastmile_qr_scan", "ios": "https://dc.lft.to/lastmile_qr_scan"}, "is_reserved": 0, "is_disabled": 0, "type": "electric_scooter", "bike_id": "856f0cd5107050043aea7ab85bac452b"}, {"lon": -77.03266, "lat": 38.93208416666667, "name": "23722ff7eb9f758bba72aa1cf6d843a6", "fusion_lat": 0.0, "fusion_lon": 0.0, "rental_uris": {"android": "https://dc.lft.to/lastmile_qr_scan", "ios": "https://dc.lft.to/lastmile_qr_scan"}, "is_reserved": 0, "is_disabled": 0, "type": "electric_scooter", "bike_id": "23722ff7eb9f758bba72aa1cf6d843a6"}, {"lon": -77.00512266666667, "lat": 38.88331383333333, "name": "0e67d9e336b2aeb84cdb5fd8a3f27f15", "fusion_lat": 0.0, "fusion_lon": 0.0, "rental_uris": {"android": "https://dc.lft.to/lastmile_qr_scan", "ios": "https://dc.lft.to/lastmile_qr_scan"}, "is_reserved": 0, "is_disabled": 0, "type": "electric_scooter", "bike_id": "0e67d9e336b2aeb84cdb5fd8a3f27f15"}, {"lon": -77.0631605, "lat": 38.841332666666666, "name": "56e5a0666e4b993f521d25739e2f52b0", "fusion_lat": 0.0, "fusion_lon": 0.0, "rental_uris": {"android": "https://dc.lft.to/lastmile_qr_scan", "ios": "https://dc.lft.to/lastmile_qr_scan"}, "is_reserved": 0, "is_disabled": 0, "type": "electric_bike", "bike_id": "56e5a0666e4b993f521d25739e2f52b0"}, {"lon": -77.01111266666666, "lat": 38.90330316666667, "name": "246f8c7dc1b32a13cb6c38b53aaba227", "fusion_lat": 0.0, "fusion_lon": 0.0, "rental_uris": {"android": "https://dc.lft.to/lastmile_qr_scan", "ios": "https://dc.lft.to/lastmile_qr_scan"}, "is_reserved": 0, "is_disabled": 0, "type": "electric_scooter", "bike_id": "246f8c7dc1b32a13cb6c38b53aaba227"}, {"lon": -77.02552666666666, "lat": 38.892261, "name": "92b2e878de7bbca3fa3d2f6d155b0c2c", "fusion_lat": 0.0, "fusion_lon": 0.0, "rental_uris": {"android": "https://dc.lft.to/lastmile_qr_scan", "ios": "https://dc.lft.to/lastmile_qr_scan"}, "is_reserved": 0, "is_disabled": 0, "type": "electric_scooter", "bike_id": "92b2e878de7bbca3fa3d2f6d155b0c2c"}, {"lon": -77.04832766666667, "lat": 38.91328933333333, "name": "9da73c8602d9be4ccf8e7a54b76493ed", "fusion_lat": 0.0, "fusion_lon": 0.0, "rental_uris": {"android": "https://dc.lft.to/lastmile_qr_scan", "ios": "https://dc.lft.to/lastmile_qr_scan"}, "is_reserved": 0, "is_disabled": 0, "type": "electric_scooter", "bike_id": "9da73c8602d9be4ccf8e7a54b76493ed"}, {"lon": -77.01290583333333, "lat": 39.003749666666664, "name": "1819b5a411e4781faed2468e5996c6f3", "fusion_lat": 0.0, "fusion_lon": 0.0, "rental_uris": {"android": "https://dc.lft.to/lastmile_qr_scan", "ios": "https://dc.lft.to/lastmile_qr_scan"}, "is_reserved": 0, "is_disabled": 0, "type": "electric_bike", "bike_id": "1819b5a411e4781faed2468e5996c6f3"}, {"lon": -77.09754716666667, "lat": 38.85854716666667, "name": "79226a232d031b6b17f139e79d402c2a", "fusion_lat": 0.0, "fusion_lon": 0.0, "rental_uris": {"android": "https://dc.lft.to/lastmile_qr_scan", "ios": "https://dc.lft.to/lastmile_qr_scan"}, "is_reserved": 0, "is_disabled": 0, "type": "electric_bike", "bike_id": "79226a232d031b6b17f139e79d402c2a"}, {"lon": -77.03193033333334, "lat": 38.91523383333333, "name": "82e0247504f760359dd8b1c6dfbe276c", "fusion_lat": 0.0, "fusion_lon": 0.0, "rental_uris": {"android": "https://dc.lft.to/lastmile_qr_scan", "ios": "https://dc.lft.to/lastmile_qr_scan"}, "is_reserved": 0, "is_disabled": 0, "type": "electric_scooter", "bike_id": "82e0247504f760359dd8b1c6dfbe276c"}, {"lon": -76.996296, "lat": 38.9002805, "name": "3fdc2db663722594b028ebdf53bb283d", "fusion_lat": 0.0, "fusion_lon": 0.0, "rental_uris": {"android": "https://dc.lft.to/lastmile_qr_scan", "ios": "https://dc.lft.to/lastmile_qr_scan"}, "is_reserved": 0, "is_disabled": 0, "type": "electric_scooter", "bike_id": "3fdc2db663722594b028ebdf53bb283d"}, {"lon": -76.948431, "lat": 38.8948605, "name": "2dd3a2a4a1487076217ff990dca799fd", "fusion_lat": 0.0, "fusion_lon": 0.0, "rental_uris": {"android": "https://dc.lft.to/lastmile_qr_scan", "ios": "https://dc.lft.to/lastmile_qr_scan"}, "is_reserved": 0, "is_disabled": 0, "type": "electric_scooter", "bike_id": "2dd3a2a4a1487076217ff990dca799fd"},