{"data": {"bikes": [{"lon": -77.01315766666667, "bike_id": "ba6da5c392b221ed5688f945c9b30a0d", "lat": 38.900291, "fusion_lon": 0.0, "fusion_lat": 0.0, "type": "electric_scooter", "name": "ba6da5c392b221ed5688f945c9b30a0d", "is_disabled": 0, "rental_uris": {"ios": "https://dc.lft.to/lastmile_qr_scan", "android": "https://dc.lft.to/lastmile_qr_scan"}, "is_reserved": 0}, {"lon": -77.034314, "bike_id": "31ee418452bc109a80db8936e484f2a2", "lat": 38.96539, "fusion_lon": 0.0, "fusion_lat": 0.0, "type": "electric_bike", "name": "31ee418452bc109a80db8936e484f2a2", "is_disabled": 0, "rental_uris": {"ios": "https://dc.lft.to/lastmile_qr_scan", "android": "https://dc.lft.to/lastmile_qr_scan"}, "is_reserved": 0}, {"lon": -77.03960166666667, "bike_id": "b553097aaef288378e0073d5ea55b361", "lat": 38.90619616666667, "fusion_lon": 0.0, "fusion_lat": 0.0, "type": "electric_scooter", "name": "b553097aaef288378e0073d5ea55b361", "is_disabled": 0, "rental_uris": {"ios": "https://dc.lft.to/lastmile_qr_scan", "android": "https://dc.lft.to/lastmile_qr_scan"}, "is_reserved": 0}, {"lon": -76.99147266666667, "bike_id": "aad3fd0714ecd6afc6ce1215e3e8cacf", "lat": 38.88973466666667, "fusion_lon": 0.0, "fusion_lat": 0.0, "type": "electric_scooter", "name": "aad3fd0714ecd6afc6ce1215e3e8cacf", "is_disabled": 0, "rental_uris": {"ios": "https://dc.lft.to/lastmile_qr_scan", "android": "https://dc.lft.to/lastmile_qr_scan"}, "is_reserved": 0}, {"lon": -77.03854833333334, "bike_id": "7a219e704699d653e48434842a4343b0", "lat": 38.917146, "fusion_lon": 0.0, "fusion_lat": 0.0, "type": "electric_scooter", "name": "7a219e704699d653e48434842a4343b0", "is_disabled": 0, "rental_uris": {"ios": "https://dc.lft.to/lastmile_qr_scan", "android": "https://dc.lft.to/lastmile_qr_scan"}, "is_reserved": 0}, {"lon": -77.0274975, "bike_id": "f206773a02184af8f935dab8132cbae3", "lat": 38.894945, "fusion_lon": 0.0, "fusion_lat": 0.0, "type": "electric_scooter", "name": "f206773a02184af8f935dab8132cbae3", "is_disabled": 0, "rental_uris": {"ios": "https://dc.lft.to/lastmile_qr_scan", "android": "https://dc.lft.to/lastmile_qr_scan"}, "is_reserved": 0}, {"lon": -76.99946083333333, "bike_id": "229fbdd44c38a3fd2197c8250ea5a2dc", "lat": 38.906239, "fusion_lon": 0.0, "fusion_lat": 0.0, "type": "electric_scooter", "name": "229fbdd44c38a3fd2197c8250ea5a2dc", "is_disabled": 0, "rental_uris": {"ios": "https://dc.lft.to/lastmile_qr_scan", "android": "https://dc.lft.to/lastmile_qr_scan"}, "is_reserved": 0}, {"lon": -77.04662883333333, "bike_id": "9e88f86b33f170469713d1dab3550268", "lat": 38.89783516666667, "fusion_lon": 0.0, "fusion_lat": 0.0, "type": "electric_scooter", "name": "9e88f86b33f170469713d1dab3550268", "is_disabled": 0, "rental_uris": {"ios": "https://dc.lft.to/lastmile_qr_scan", "android": "https://dc.lft.to/lastmile_qr_scan"}, "is_reserved": 0}, {"lon": -77.0449935, "bike_id": "81e05727839a82f8806d809a70d1e7aa", "lat": 38.914119166666666, "fusion_lon": 0.0, "fusion_lat": 0.0, "type": "electric_bike", "name": "81e05727839a82f8806d809a70d1e7aa", "is_disabled": 0, "rental_uris": {"ios": "https://dc.lft.to/lastmile_qr_scan", "android": "https://dc.lft.to/lastmile_qr_scan"}, "is_reserved": 0}, {"lon": -77.03116316666667, "bike_id": "a35055656202ceb0b2a6ec915c177b62", "lat": 38.887448666666664, "fusion_lon": 0.0, "fusion_lat": 0.0, "type": "electric_scooter", "name": "a35055656202ceb0b2a6ec915c177b62", "is_disabled": 0, "rental_uris": {"ios": "https://dc.lft.to/lastmile_qr_scan", "android": "https://dc.lft.to/lastmile_qr_scan"}, "is_reserved": 0}, {"lon": -77.01230633333333, "bike_id": "28f6c5503751fb65417375263d084737", "lat": 38.8929015, "fusion_lon": 0.0, "fusion_lat": 0.0, "type": "electric_scooter", "name": "28f6c5503751fb65417375263d084737", "is_disabled": 0, "rental_uris": {"ios": "https://dc.lft.to/lastmile_qr_scan", "android": "https://dc.lft.to/lastmile_qr_scan"}, "is_reserved": 0}, {"lon": -76.948793, "bike_id": "2c94b30513a24be4087f9ee3f6adc9af", "lat": 38.895036166666664, "fusion_lon": 0.0, "fusion_lat": 0.0, "type": "electric_scooter", "name": "2c94b30513a24be4087f9ee3f6adc9af", "is_disabled": 0, "rental_uris": {"ios": "https://dc.lft.to/lastmile_qr_scan", "android": "https://dc.lft.to/lastmile_qr_scan"}, "is_reserved": 0}, {"lon": -77.02585533333334, "bike_id": "57ea7e443ac71bb4727387ebc41234e8", "lat": 38.90662483333333, "fusion_lon": 0.0, "fusion_lat": 0.0, "type": "electric_scooter", "name": "57ea7e443ac71bb4727387ebc41234e8", "is_disabled": 0, "rental_uris": {"ios": "https://dc.lft.to/lastmile_qr_scan", "android": "https://dc.lft.to/lastmile_qr_scan"}, "is_reserved": 0}, {"lon": -77.00904883333334, "bike_id": "8b97f9d4c6142f13b672a26bfe2f6ee1", "lat": 38.96127966666667, "fusion_lon": 0.0, "fusion_lat": 0.0, "type": "electric_scooter", "name": "8b97f9d4c6142f13b672a26bfe2f6ee1", "is_disabled": 0, "rental_uris": {"ios": "https://dc.lft.to/lastmile_qr_scan", "android": "https://dc.lft.to/lastmile_qr_scan"}, "is_reserved": 0}, {"lon": -77.0219705, "bike_id": "646f3daaea9042c114d32ec55a631caa", "lat": 38.915336333333336, "fusion_lon": 0.0, "fusion_lat": 0.0, "type": "electric_scooter", "name": "646f3daaea9042c114d32ec55a631caa", "is_disabled": 0, "rental_uris": {"ios": "https://dc.lft.to/lastmile_qr_scan", "android": "https://dc.lft.to/lastmile_qr_scan"}, "is_reserved": 0}, {"lon": -77.04721583333334, "bike_id": "b60f9283d3d7c905ea691971720280ca", "lat": 38.903270666666664, "fusion_lon": 0.0, "fusion_lat": 0.0, "type": "electric_scooter", "name": "b60f9283d3d7c905ea691971720280ca", "is_disabled": 0, "rental_uris": {"ios": "https://dc.lft.to/lastmile_qr_scan", "android": "https://dc.lft.to/lastmile_qr_scan"}, "is_reserved": 0}, {"lon": -77.044731, "bike_id": "e549e8efbc195cf2219ac2776372a917", "lat": 38.924299833333336, "fusion_lon": 0.0, "fusion_lat": 0.0, "type": "electric_scooter", "name": "e549e8efbc195cf2219ac2776372a917", "is_disabled": 0, "rental_uris": {"ios": "https://dc.lft.to/lastmile_qr_scan", "android": "https://dc.lft.to/lastmile_qr_scan"}, "is_reserved": 0}, {"lon": -77.03214316666667, "bike_id": "889b9e52300ae65f2c71d2b2d1f5cf62", "lat": 38.9149305, "fusion_lon": 0.0, "fusion_lat": 0.0, "type": "electric_scooter", "name": "889b9e52300ae65f2c71d2b2d1f5cf62", "is_disabled": 0, "rental_uris": {"ios": "https://dc.lft.to/lastmile_qr_scan", "android": "https://dc.lft.to/lastmile_qr_scan"}, "is_reserved": 0}, {"lon": -76.93303083333333, "bike_id": "47de9691b30dd806ca00961ccd39e459", "lat": 38.90094216666667, "fusion_lon": 0.0, "fusion_lat": 0.0, "type": "electric_scooter", "name": "47de9691b30dd806ca00961ccd39e459", "is_disabled": 0, "rental_uris": {"ios": "https://dc.lft.to/lastmile_qr_scan", "android": "https://dc.lft.to/lastmile_qr_scan"}, "is_reserved": 0}, {"lon": -76.99030966666666, "bike_id": "d14b3d319bc5c27f370e68302998e903", "lat": 38.88871833333333, "fusion_lon": 0.0, "fusion_lat": 0.0, "type": "electric_scooter", "name": "d14b3d319bc5c27f370e68302998e903", "is_disabled": 0, "rental_uris": {"ios": "https://dc.lft.to/lastmile_qr_scan", "android": "https://dc.lft.to/lastmile_qr_scan"}, "is_reserved": 0}, {"lon": -77.02591133333334, "bike_id": "4f7e0542c545161e9c81f91bad5338d3", "lat": 38.94199716666667, "fusion_lon": 0.0, "fusion_lat": 0.0, "type": "electric_scooter", "name": "4f7e0542c545161e9c81f91bad5338d3", "is_disabled": 0, "rental_uris": {"ios": "https://dc.lft.to/lastmile_qr_scan", "android": "https://dc.lft.to/lastmile_qr_scan"}, "is_reserved": 0}, {"lon": -77.02834933333334, "bike_id": "29058e52559e7a56007d4ba6769d6cdf", "lat": 38.88730983333333, "fusion_lon": 0.0, "fusion_lat": 0.0, "type": "electric_scooter", "name": "29058e52559e7a56007d4ba6769d6cdf", "is_disabled": 0, "rental_uris": {"ios": "https://dc.lft.to/lastmile_qr_scan", "android": "https://dc.lft.to/lastmile_qr_scan"}, "is_reserved": 0}, {"lon": -76.98914216666667, "bike_id": "64459946f3928ef54a1b4cf4d078091d", "lat": 38.86492766666667, "fusion_lon": 0.0, "fusion_lat": 0.0, "type": "electric_scooter", "name": "64459946f3928ef54a1b4cf4d078091d", "is_disabled": 0, "rental_uris": {"ios": "https://dc.lft.to/lastmile_qr_scan", "android": "https://dc.lft.to/lastmile_qr_scan"}, "is_reserved": 0}, {"lon": -77.0377365, "bike_id": "b7ed7783c52d34818f4b3eb3ac1792a2", "lat": 38.906945, "fusion_lon": 0.0, "fusion_lat": 0.0, "type": "electric_scooter", "name": "b7ed7783c52d34818f4b3eb3ac1792a2", "is_disabled": 0, "rental_uris": {"ios": "https://dc.lft.to/lastmile_qr_scan", "android": "https://dc.lft.to/lastmile_qr_scan"}, "is_reserved": 0}, {"lon": -77.01072066666667, "bike_id": "31fc3657d9384583369a4e331b348c12", "lat": 38.90726516666667, "fusion_lon": 0.0, "fusion_lat": 0.0, "type": "electric_bike", "name": "31fc3657d9384583369a4e331b348c12", "is_disabled": 0, "rental_uris": {"ios": "https://dc.lft.to/lastmile_qr_scan", "android": "https://dc.lft.to/lastmile_qr_scan"}, "is_reserved": 0}, {"lon": -77.032733, "bike_id": "99bae48925fa931f406b9e9dd6f704b5", "lat": 38.90151133333333, "fusion_lon": 0.0, "fusion_lat": 0.0, "type": "electric_scooter", "name": "99bae48925fa931f406b9e9dd6f704b5", "is_disabled": 0, "rental_uris": {"ios": "https://dc.lft.to/lastmile_qr_scan", "android": "https://dc.lft.to/lastmile_qr_scan"}, "is_reserved": 0}, {"lon": -77.03407066666666, "bike_id": "743519808211e82b0318cfea55fc4cc3", "lat": 38.934278666666664, "fusion_lon": 0.0, "fusion_lat": 0.0, "type": "electric_scooter", "name": "743519808211e82b0318cfea55fc4cc3", "is_disabled": 0, "rental_uris": {"ios": "https://dc.lft.to/lastmile_qr_scan", "android": "https://dc.lft.to/lastmile_qr_scan"}, "is_reserved": 0}, {"lon": -76.9739395, "bike_id": "4828dfcbf0847f0cf031fb7ca8cf1b92", "lat": 38.90298033333333, "fusion_lon": 0.0, "fusion_lat": 0.0, "type": "electric_scooter", "name": "4828dfcbf0847f0cf031fb7ca8cf1b92", "is_disabled": 0, "rental_uris": {"ios": "https://dc.lft.to/lastmile_qr_scan", "android": "https://dc.lft.to/lastmile_qr_scan"}, "is_reserved": 0}, {"lon": -77.03214183333333, "bike_id": "b16e482389a3fea9276cdd9d95314ed0", "lat": 38.92879083333333, "fusion_lon": 0.0, "fusion_lat": 0.0, "type": "electric_scooter", "name": "b16e482389a3fea9276cdd9d95314ed0", "is_disabled": 0, "rental_uris": {"ios": "https://dc.lft.to/lastmile_qr_scan", "android": "https://dc.lft.to/lastmile_qr_scan"}, "is_reserved": 0}, {"lon": -77.02967416666667, "bike_id": "d46a4f5b2756ec0c9d02c786e9ff346c", "lat": 38.922933, "fusion_lon": 0.0, "fusion_lat": 0.0, "type": "electric_scooter", "name": "d46a4f5b2756ec0c9d02c786e9ff346c", "is_disabled": 0, "rental_uris": {"ios": "https://dc.lft.to/lastmile_qr_scan", "android": "https://dc.lft.to/lastmile_qr_scan"}, "is_reserved": 0}, {"lon": -76.94596283333334, "bike_id": "f619e9bf488af33801b7b7bdf7318f53", "lat": 38.90153433333333, "fusion_lon": 0.0, "fusion_lat": 0.0, "type": "electric_scooter", "name": "f619e9bf488af33801b7b7bdf7318f53", "is_disabled": 0, "rental_uris": {"ios": "https://dc.lft.to/lastmile_qr_scan", "android": "https://dc.lft.to/lastmile_qr_scan"}, "is_reserved": 0}, {"lon": -77.03536083333333, "bike_id": "396b524113f135b3ae80e7b1f5069c3d", "lat": 38.924831, "fusion_lon": 0.0, "fusion_lat": 0.0, "type": "electric_scooter", "name": "396b524113f135b3ae80e7b1f5069c3d", "is_disabled": 0, "rental_uris": {"ios": "https://dc.lft.to/lastmile_qr_scan", "android": "https://dc.lft.to/lastmile_qr_scan"}, "is_reserved": 0}, {"lon": -77.03211766666666, "bike_id": "caf6bcf6e24c9369fdb2fb497918ffef", "lat": 38.914677, "fusion_lon": 0.0, "fusion_lat": 0.0, "type": "electric_scooter", "name": "caf6bcf6e24c9369fdb2fb497918ffef", "is_disabled": 0, "rental_uris": {"ios": "https://dc.lft.to/lastmile_qr_scan", "android": "https://dc.lft.to/lastmile_qr_scan"}, "is_reserved": 0}, {"lon": -77.04188716666667, "bike_id": "ff40a6f5d081cdf3de0dc3a274d75537", "lat": 38.919843, "fusion_lon": 0.0, "fusion_lat": 0.0, "type": "electric_scooter", "name": "ff40a6f5d081cdf3de0dc3a274d75537", "is_disabled": 0, "rental_uris": {"ios": "https://dc.lft.to/lastmile_qr_scan", "android": "https://dc.lft.to/lastmile_qr_scan"}, "is_reserved": 0}, {"lon": -76.99843383333334, "bike_id": "003bc3fb9eb8514b5e8d5deb4a212704", "lat": 38.900019666666665, "fusion_lon": 0.0, "fusion_lat": 0.0, "type": "electric_bike", "name": "003bc3fb9eb8514b5e8d5deb4a212704", "is_disabled": 0, "rental_uris": {"ios": "https://dc.lft.to/lastmile_qr_scan", "android": "https://dc.lft.to/lastmile_qr_scan"}, "is_reserved": 0}, {"lon": -77.04145666666666, "bike_id": "0ebb48baac10503343e7e1787d9baf0b", "lat": 38.9197595, "fusion_lon": 0.0, "fusion_lat": 0.0, "type": "electric_scooter", "name": "0ebb48baac10503343e7e1787d9baf0b", "is_disabled": 0, "rental_uris": {"ios": "https://dc.lft.to/lastmile_qr_scan", "android": "https://dc.lft.to/lastmile_qr_scan"}, "is_reserved": 0}, {"lon": -76.99520033333333, "bike_id": "e7d080d2a4dde11ae5bc5f9d64fa9bc0", "lat": 38.8625855, "fusion_lon": 0.0, "fusion_lat": 0.0, "type": "electric_scooter", "name": "e7d080d2a4dde11ae5bc5f9d64fa9bc0", "is_disabled": 0, "rental_uris": {"ios": "https://dc.lft.to/lastmile_qr_scan", "android": "https://dc.lft.to/lastmile_qr_scan"}, "is_reserved": 0}, {"lon": -76.94884116666667, "bike_id": "9351857354481a7ca572c1cbedf89ebc", "lat": 38.895104, "fusion_lon": 0.0, "fusion_lat": 0.0, "type": "electric_scooter", "name": "9351857354481a7ca572c1cbedf89ebc", "is_disabled": 0, "rental_uris": {"ios": "https://dc.lft.to/lastmile_qr_scan", "android": "https://dc.lft.to/lastmile_qr_scan"}, "is_reserved": 0}, {"lon": -77.03272266666667, "bike_id": "6923e3a82cfd93e82727b8475e9b0fbe", "lat": 38.901532833333334, "fusion_lon": 0.0, "fusion_lat": 0.0, "type": "electric_scooter", "name": "6923e3a82cfd93e82727b8475e9b0fbe", "is_disabled": 0, "rental_uris": {"ios": "https://dc.lft.to/lastmile_qr_scan", "android": "https://dc.lft.to/lastmile_qr_scan"}, "is_reserved": 0}, {"lon": -77.020112, "bike_id": "3e839d66380731791c7529bfa14dc8e5", "lat": 38.9241725, "fusion_lon": 0.0, "fusion_lat": 0.0, "type": "electric_scooter", "name": "3e839d66380731791c7529bfa14dc8e5", "is_disabled": 0, "rental_uris": {"ios": "https://dc.lft.to/lastmile_qr_scan", "android": "https://dc.lft.to/lastmile_qr_scan"}, "is_reserved": 0}, {"lon": -76.9898975, "bike_id": "1a6a84197a1d9bda91c34acfffa2f554", "lat": 38.933643833333335, "fusion_lon": 0.0, "fusion_lat": 0.0, "type": "electric_scooter", "name": "1a6a84197a1d9bda91c34acfffa2f554", "is_disabled": 0, "rental_uris": {"ios": "https://dc.lft.to/lastmile_qr_scan", "android": "https://dc.lft.to/lastmile_qr_scan"}, "is_reserved": 0}, {"lon": -77.05748916666667, "bike_id": "86c4e61a059403144a8732067a56ab1e", "lat": 38.933451166666664, "fusion_lon": 0.0, "fusion_lat": 0.0, "type": "electric_scooter", "name": "86c4e61a059403144a8732067a56ab1e", "is_disabled": 0, "rental_uris": {"ios": "https://dc.lft.to/lastmile_qr_scan", "android": "https://dc.lft.to/lastmile_qr_scan"}, "is_reserved": 0}, {"lon": -76.980153, "bike_id": "b2338b7d2530eb21f5c6d617f9d65eb4", "lat": 38.8532045, "fusion_lon": 0.0, "fusion_lat": 0.0, "type": "electric_bike", "name": "b2338b7d2530eb21f5c6d617f9d65eb4", "is_disabled": 0, "rental_uris": {"ios": "https://dc.lft.to/lastmile_qr_scan", "android": "https://dc.lft.to/lastmile_qr_scan"}, "is_reserved": 0}, {"lon": -76.99034066666667, "bike_id": "a14f41a3cc0b7ae0f973729a381749af", "lat": 38.888719, "fusion_lon": 0.0, "fusion_lat": 0.0, "type": "electric_scooter", "name": "a14f41a3cc0b7ae0f973729a381749af", "is_disabled": 0, "rental_uris": {"ios": "https://dc.lft.to/lastmile_qr_scan", "android": "https://dc.lft.to/lastmile_qr_scan"}, "is_reserved": 0}, {"lon": -77.02431216666666, "bike_id": "495087ba06fcf7d6f98da0e924efb12b", "lat": 38.9204865, "fusion_lon": 0.0, "fusion_lat": 0.0, "type": "electric_scooter", "name": "495087ba06fcf7d6f98da0e924efb12b", "is_disabled": 0, "rental_uris": {"ios": "https://dc.lft.to/lastmile_qr_scan", "android": "https://dc.lft.to/lastmile_qr_scan"}, "is_reserved": 0}, {"lon": -77.04495, "bike_id": "e08fd7cd24f8723200fec15b4e62458e", "lat": 38.89746616666667, "fusion_lon": 0.0, "fusion_lat": 0.0, "type": "electric_scooter", "name": "e08fd7cd24f8723200fec15b4e62458e", "is_disabled": 0, "rental_uris": {"ios": "https://dc.lft.to/lastmile_qr_scan", "android": "https://dc.lft.to/lastmile_qr_scan"}, "is_reserved": 0}, {"lon": -77.04659766666667, "bike_id": "7dccd8645e232a52fa938eff422be58e", "lat": 38.898302, "fusion_lon": 0.0, "fusion_lat": 0.0, "type": "electric_scooter", "name": "7dccd8645e232a52fa938eff422be58e", "is_disabled": 0, "rental_uris": {"ios": "https://dc.lft.to/lastmile_qr_scan", "android": "https://dc.lft.to/lastmile_qr_scan"}, "is_reserved": 0}, {"lon": -77.01851416666666, "bike_id": "25431a37e2ee3ff0f1d7ad10eba2f5da", "lat": 38.939976333333334, "fusion_lon": 0.0, "fusion_lat": 0.0, "type": "electric_scooter", "name": "25431a37e2ee3ff0f1d7ad10eba2f5da", "is_disabled": 0, "rental_uris": {"ios": "https://dc.lft.to/lastmile_qr_scan", "android": "https://dc.lft.to/lastmile_qr_scan"}, "is_reserved": 0}, {"lon": -77.0734055, "bike_id": "c8387b874fb0d9610c627c80c4aed3f7", "lat": 38.90988866666667, "fusion_lon": 0.0, "fusion_lat": 0.0, "type": "electric_scooter", "name": "c8387b874fb0d9610c627c80c4aed3f7", "is_disabled": 0, "rental_uris": {"ios": "https://dc.lft.to/lastmile_qr_scan", "android": "https://dc.lft.to/lastmile_qr_scan"}, "is_reserved": 0}, {"lon": -77.00248733333333, "bike_id": "63479ef7072f05239f162f9b460f6072", "lat": 38.911075333333336, "fusion_lon": 0.0, "fusion_lat": 0.0, "type": "electric_scooter", "name": "63479ef7072f05239f162f9b460f6072", "is_disabled": 0, "rental_uris": {"ios": "https://dc.lft.to/lastmile_qr_scan", "android": "https://dc.lft.to/lastmile_qr_scan"}, "is_reserved": 0}, {"lon": -77.00118083333334, "bike_id": "25b22d1e1fa8f3313e026160cbcb2fa7", "lat": 38.874836, "fusion_lon": 0.0, "fusion_lat": 0.0, "type": "electric_scooter", "name": "25b22d1e1fa8f3313e026160cbcb2fa7", "is_disabled": 0, "rental_uris": {"ios": "https://dc.lft.to/lastmile_qr_scan", "android": "https://dc.lft.to/lastmile_qr_scan"}, "is_reserved": 0}, {"lon": -76.955715, "bike_id": "9b770a586ba2c485890a207eefba99ba", "lat": 38.8876575, "fusion_lon": 0.0, "fusion_lat": 0.0, "type": "electric_scooter", "name": "9b770a586ba2c485890a207eefba99ba", "is_disabled": 0, "rental_uris": {"ios": "https://dc.lft.to/lastmile_qr_scan", "android": "https://dc.lft.to/lastmile_qr_scan"}, "is_reserved": 0}, {"lon": -77.0284375, "bike_id": "ebeb61a660a478c4caf83844d321cc6e", "lat": 38.92571133333333, "fusion_lon": 0.0, "fusion_lat": 0.0, "type": "electric_scooter", "name": "ebeb61a660a478c4caf83844d321cc6e", "is_disabled": 0, "rental_uris": {"ios": "https://dc.lft.to/lastmile_qr_scan", "android": "https://dc.lft.to/lastmile_qr_scan"}, "is_reserved": 0}, {"lon": -77.022369, "bike_id": "61dd8f42dcd67caab613d5133331652a", "lat": 38.962134, "fusion_lon": 0.0, "fusion_lat": 0.0, "type": "electric_bike", "name": "61dd8f42dcd67caab613d5133331652a", "is_disabled": 0, "rental_uris": {"ios": "https://dc.lft.to/lastmile_qr_scan", "android": "https://dc.lft.to/lastmile_qr_scan"}, "is_reserved": 0}, {"lon": -77.022324, "bike_id": "f733a22b7fbc9f605217b04c83ec8f87", "lat": 38.926191833333334, "fusion_lon": 0.0, "fusion_lat": 0.0, "type": "electric_scooter", "name": "f733a22b7fbc9f605217b04c83ec8f87", "is_disabled": 0, "rental_uris": {"ios": "https://dc.lft.to/lastmile_qr_scan", "android": "https://dc.lft.to/lastmile_qr_scan"}, "is_reserved": 0}, {"lon": -77.025262, "bike_id": "56d6bbdb0224191381a1a9ab2969fe1e", "lat": 38.920664333333335, "fusion_lon": 0.0, "fusion_lat": 0.0, "type": "electric_scooter", "name": "56d6bbdb0224191381a1a9ab2969fe1e", "is_disabled": 0, "rental_uris": {"ios": "https://dc.lft.to/lastmile_qr_scan", "android": "https://dc.lft.to/lastmile_qr_scan"}, "is_reserved": 0}, {"lon": -76.989216, "bike_id": "2262258a6b2cde161d231da6c77671b8", "lat": 38.858099, "fusion_lon": 0.0, "fusion_lat": 0.0, "type": "electric_scooter", "name": "2262258a6b2cde161d231da6c77671b8", "is_disabled": 0, "rental_uris": {"ios": "https://dc.lft.to/lastmile_qr_scan", "android": "https://dc.lft.to/lastmile_qr_scan"}, "is_reserved": 0}, {"lon": -77.043892, "bike_id": "ce50b9dc24d0d533945bb9a4c21c5522", "lat": 39.0471545, "fusion_lon": 0.0, "fusion_lat": 0.0, "type": "electric_bike", "name": "ce50b9dc24d0d533945bb9a4c21c5522", "is_disabled": 0, "rental_uris": {"ios": "https://dc.lft.to/lastmile_qr_scan", "android": "https://dc.lft.to/lastmile_qr_scan"}, "is_reserved": 0}, {"lon": -77.02141233333333, "bike_id": "bcc78d13584af31ad2a8b463f9acc421", "lat": 38.900699833333334, "fusion_lon": 0.0, "fusion_lat": 0.0, "type": "electric_scooter", "name": "bcc78d13584af31ad2a8b463f9acc421", "is_disabled": 0, "rental_uris": {"ios": "https://dc.lft.to/lastmile_qr_scan", "android": "https://dc.lft.to/lastmile_qr_scan"}, "is_reserved": 0}, {"lon": -76.93549383333334, "bike_id": "efcdc75a25ef0ca07d8656034ffb3016", "lat": 38.890184166666664, "fusion_lon": 0.0, "fusion_lat": 0.0, "type": "electric_scooter", "name": "efcdc75a25ef0ca07d8656034ffb3016", "is_disabled": 0, "rental_uris": {"ios": "https://dc.lft.to/lastmile_qr_scan", "android": "https://dc.lft.to/lastmile_qr_scan"}, "is_reserved": 0}, {"lon": -77.06353833333333, "bike_id": "e1bf97f7de3366275799d021bdeb01d6", "lat": 38.94397816666667, "fusion_lon": 0.0, "fusion_lat": 0.0, "type": "electric_bike", "name": "e1bf97f7de3366275799d021bdeb01d6", "is_disabled": 0, "rental_uris": {"ios": "https://dc.lft.to/lastmile_qr_scan", "android": "https://dc.lft.to/lastmile_qr_scan"}, "is_reserved": 0}, {"lon": -77.03660116666667, "bike_id": "645bdc0ff4ffb8f6596598af565988e5", "lat": 38.922835, "fusion_lon": 0.0, "fusion_lat": 0.0, "type": "electric_scooter", "name": "645bdc0ff4ffb8f6596598af565988e5", "is_disabled": 0, "rental_uris": {"ios": "https://dc.lft.to/lastmile_qr_scan", "android": "https://dc.lft.to/lastmile_qr_scan"}, "is_reserved": 0}, {"lon": -77.06871433333333, "bike_id": "61f315d78f0bc5d9c5a13d5af965835f", "lat": 38.903975, "fusion_lon": 0.0, "fusion_lat": 0.0, "type": "electric_bike", "name": "61f315d78f0bc5d9c5a13d5af965835f", "is_disabled": 0, "rental_uris": {"ios": "https://dc.lft.to/lastmile_qr_scan", "android": "https://dc.lft.to/lastmile_qr_scan"}, "is_reserved": 0}, {"lon": -77.03053016666667, "bike_id": "a35c1dde4eb3169ca3e8cef5539fce70", "lat": 38.88424216666667, "fusion_lon": 0.0, "fusion_lat": 0.0, "type": "electric_scooter", "name": "a35c1dde4eb3169ca3e8cef5539fce70", "is_disabled": 0, "rental_uris": {"ios": "https://dc.lft.to/lastmile_qr_scan", "android": "https://dc.lft.to/lastmile_qr_scan"}, "is_reserved": 0}, {"lon": -76.95744133333334, "bike_id": "afaee233b1d44a9ca9b11dc0f186c679", "lat": 38.88423316666667, "fusion_lon": 0.0, "fusion_lat": 0.0, "type": "electric_scooter", "name": "afaee233b1d44a9ca9b11dc0f186c679", "is_disabled": 0, "rental_uris": {"ios": "https://dc.lft.to/lastmile_qr_scan", "android": "https://dc.lft.to/lastmile_qr_scan"}, "is_reserved": 0}, {"lon": -77.02389383333333, "bike_id": "b6f31ccf11d3fe3969ffccb739831fbf", "lat": 38.90014766666667, "fusion_lon": 0.0, "fusion_lat": 0.0, "type": "electric_scooter", "name": "b6f31ccf11d3fe3969ffccb739831fbf", "is_disabled": 0, "rental_uris": {"ios": "https://dc.lft.to/lastmile_qr_scan", "android": "https://dc.lft.to/lastmile_qr_scan"}, "is_reserved": 0}, {"lon": -77.06102116666666, "bike_id": "d653867a0b307f12e6420c0083ee007d", "lat": 38.9052505, "fusion_lon": 0.0, "fusion_lat": 0.0, "type": "electric_scooter", "name": "d653867a0b307f12e6420c0083ee007d", "is_disabled": 0, "rental_uris": {"ios": "https://dc.lft.to/lastmile_qr_scan", "android": "https://dc.lft.to/lastmile_qr_scan"}, "is_reserved": 0}, {"lon": -76.98932233333333, "bike_id": "3cc882d7f3dd8293051fa72ac82882e8", "lat": 38.90183366666667, "fusion_lon": 0.0, "fusion_lat": 0.0, "type": "electric_scooter", "name": "3cc882d7f3dd8293051fa72ac82882e8", "is_disabled": 0, "rental_uris": {"ios": "https://dc.lft.to/lastmile_qr_scan", "android": "https://dc.lft.to/lastmile_qr_scan"}, "is_reserved": 0}, {"lon": -77.02970433333333, "bike_id": "ae3dcf8c9b0331777c3a07e3ae807924", "lat": 38.91248066666667, "fusion_lon": 0.0, "fusion_lat": 0.0, "type": "electric_scooter", "name": "ae3dcf8c9b0331777c3a07e3ae807924", "is_disabled": 0, "rental_uris": {"ios": "https://dc.lft.to/lastmile_qr_scan", "android": "https://dc.lft.to/lastmile_qr_scan"}, "is_reserved": 0}, {"lon": -77.04108016666666, "bike_id": "393a071366f4f141301a49062915abbd", "lat": 38.923103, "fusion_lon": 0.0, "fusion_lat": 0.0, "type": "electric_scooter", "name": "393a071366f4f141301a49062915abbd", "is_disabled": 0, "rental_uris": {"ios": "https://dc.lft.to/lastmile_qr_scan", "android": "https://dc.lft.to/lastmile_qr_scan"}, "is_reserved": 0}, {"lon": -76.97423133333334, "bike_id": "9793e2ec52e8acce23d0ef0410245dbc", "lat": 38.864142666666666, "fusion_lon": 0.0, "fusion_lat": 0.0, "type": "electric_scooter", "name": "9793e2ec52e8acce23d0ef0410245dbc", "is_disabled": 0, "rental_uris": {"ios": "https://dc.lft.to/lastmile_qr_scan", "android": "https://dc.lft.to/lastmile_qr_scan"}, "is_reserved": 0}, {"lon": -77.05031833333334, "bike_id": "de677b0c2f3b6a2461b94ef6714986f3", "lat": 38.90160016666667, "fusion_lon": 0.0, "fusion_lat": 0.0, "type": "electric_scooter", "name": "de677b0c2f3b6a2461b94ef6714986f3", "is_disabled": 0, "rental_uris": {"ios": "https://dc.lft.to/lastmile_qr_scan", "android": "https://dc.lft.to/lastmile_qr_scan"}, "is_reserved": 0}, {"lon": -77.041618, "bike_id": "e61fddd95b073844c21cbc407ab6e268", "lat": 38.912541833333336, "fusion_lon": 0.0, "fusion_lat": 0.0, "type": "electric_scooter", "name": "e61fddd95b073844c21cbc407ab6e268", "is_disabled": 0, "rental_uris": {"ios": "https://dc.lft.to/lastmile_qr_scan", "android": "https://dc.lft.to/lastmile_qr_scan"}, "is_reserved": 0}, {"lon": -77.02971133333334, "bike_id": "916a21cefdd24c9c860bd20726b03fdb", "lat": 38.92290283333333, "fusion_lon": 0.0, "fusion_lat": 0.0, "type": "electric_scooter", "name": "916a21cefdd24c9c860bd20726b03fdb", "is_disabled": 0, "rental_uris": {"ios": "https://dc.lft.to/lastmile_qr_scan", "android": "https://dc.lft.to/lastmile_qr_scan"}, "is_reserved": 0}, {"lon": -77.03079283333334, "bike_id": "35943514dbca5606f74d6bc6449aca50", "lat": 38.9100235, "fusion_lon": 0.0, "fusion_lat": 0.0, "type": "electric_scooter", "name": "35943514dbca5606f74d6bc6449aca50", "is_disabled": 0, "rental_uris": {"ios": "https://dc.lft.to/lastmile_qr_scan", "android": "https://dc.lft.to/lastmile_qr_scan"}, "is_reserved": 0}, {"lon": -77.10840466666667, "bike_id": "b1cfb5ada2c12e1ff272257a6a33ac23", "lat": 38.812033, "fusion_lon": 0.0, "fusion_lat": 0.0, "type": "electric_bike", "name": "b1cfb5ada2c12e1ff272257a6a33ac23", "is_disabled": 0, "rental_uris": {"ios": "https://dc.lft.to/lastmile_qr_scan", "android": "https://dc.lft.to/lastmile_qr_scan"}, "is_reserved": 0}, {"lon": -77.04341566666666, "bike_id": "76a8ad57b8b06881591bd275fc5f0c32", "lat": 38.911120333333336, "fusion_lon": 0.0, "fusion_lat": 0.0, "type": "electric_scooter", "name": "76a8ad57b8b06881591bd275fc5f0c32", "is_disabled": 0, "rental_uris": {"ios": "https://dc.lft.to/lastmile_qr_scan", "android": "https://dc.lft.to/lastmile_qr_scan"}, "is_reserved": 0}, {"lon": -77.02546883333333, "bike_id": "010453c8ca0f6381f99846d4de48a9b3", "lat": 38.930912166666666, "fusion_lon": 0.0, "fusion_lat": 0.0, "type": "electric_scooter", "name": "010453c8ca0f6381f99846d4de48a9b3", "is_disabled": 0, "rental_uris": {"ios": "https://dc.lft.to/lastmile_qr_scan", "android": "https://dc.lft.to/lastmile_qr_scan"}, "is_reserved": 0}, {"lon": -77.00524583333333, "bike_id": "e96f0bdf15525986aa193ae2c7e0c03f", "lat": 38.875452333333335, "fusion_lon": 0.0, "fusion_lat": 0.0, "type": "electric_scooter", "name": "e96f0bdf15525986aa193ae2c7e0c03f", "is_disabled": 0, "rental_uris": {"ios": "https://dc.lft.to/lastmile_qr_scan", "android": "https://dc.lft.to/lastmile_qr_scan"}, "is_reserved": 0}, {"lon": -76.9808625, "bike_id": "5471a242e8d887ed835c2626cc1c3ea4", "lat": 38.90707666666667, "fusion_lon": 0.0, "fusion_lat": 0.0, "type": "electric_scooter", "name": "5471a242e8d887ed835c2626cc1c3ea4", "is_disabled": 0, "rental_uris": {"ios": "https://dc.lft.to/lastmile_qr_scan", "android": "https://dc.lft.to/lastmile_qr_scan"}, "is_reserved": 0}, {"lon": -77.03576216666667, "bike_id": "7d6321ec7e4f40671fb724d39cbd7c68", "lat": 38.91773366666666, "fusion_lon": 0.0, "fusion_lat": 0.0, "type": "electric_scooter", "name": "7d6321ec7e4f40671fb724d39cbd7c68", "is_disabled": 0, "rental_uris": {"ios": "https://dc.lft.to/lastmile_qr_scan", "android": "https://dc.lft.to/lastmile_qr_scan"}, "is_reserved": 0}, {"lon": -76.9900535, "bike_id": "4c9e2474ab80d9e79cccc245dd8eb0f3", "lat": 38.86505916666667, "fusion_lon": 0.0, "fusion_lat": 0.0, "type": "electric_scooter", "name": "4c9e2474ab80d9e79cccc245dd8eb0f3", "is_disabled": 0, "rental_uris": {"ios": "https://dc.lft.to/lastmile_qr_scan", "android": "https://dc.lft.to/lastmile_qr_scan"}, "is_reserved": 0}, {"lon": -77.027919, "bike_id": "c8fc5963426289859b43d0b79fca38c4", "lat": 38.893774, "fusion_lon": 0.0, "fusion_lat": 0.0, "type": "electric_scooter", "name": "c8fc5963426289859b43d0b79fca38c4", "is_disabled": 0, "rental_uris": {"ios": "https://dc.lft.to/lastmile_qr_scan", "android": "https://dc.lft.to/lastmile_qr_scan"}, "is_reserved": 0}, {"lon": -77.027723, "bike_id": "a628a60bdcf2de136af583f998955b2a", "lat": 38.9301265, "fusion_lon": 0.0, "fusion_lat": 0.0, "type": "electric_scooter", "name": "a628a60bdcf2de136af583f998955b2a", "is_disabled": 0, "rental_uris": {"ios": "https://dc.lft.to/lastmile_qr_scan", "android": "https://dc.lft.to/lastmile_qr_scan"}, "is_reserved": 0}, {"lon": -77.0394755, "bike_id": "8338097b2917e3b2f83f29130d4358b0", "lat": 38.8987815, "fusion_lon": 0.0, "fusion_lat": 0.0, "type": "electric_scooter", "name": "8338097b2917e3b2f83f29130d4358b0", "is_disabled": 0, "rental_uris": {"ios": "https://dc.lft.to/lastmile_qr_scan", "android": "https://dc.lft.to/lastmile_qr_scan"}, "is_reserved": 0}, {"lon": -76.9890595, "bike_id": "2ab255db342968f6d2cb83668b00e295", "lat": 38.866697333333335, "fusion_lon": 0.0, "fusion_lat": 0.0, "type": "electric_scooter", "name": "2ab255db342968f6d2cb83668b00e295", "is_disabled": 0, "rental_uris": {"ios": "https://dc.lft.to/lastmile_qr_scan", "android": "https://dc.lft.to/lastmile_qr_scan"}, "is_reserved": 0}, {"lon": -76.99473916666666, "bike_id": "33b71226702bda6dd1d750a9e26fd476", "lat": 38.862283833333336, "fusion_lon": 0.0, "fusion_lat": 0.0, "type": "electric_scooter", "name": "33b71226702bda6dd1d750a9e26fd476", "is_disabled": 0, "rental_uris": {"ios": "https://dc.lft.to/lastmile_qr_scan", "android": "https://dc.lft.to/lastmile_qr_scan"}, "is_reserved": 0}, {"lon": -77.01811066666667, "bike_id": "39efcb3c7876f0cd29ada7197c1360da", "lat": 38.914748833333334, "fusion_lon": 0.0, "fusion_lat": 0.0, "type": "electric_scooter", "name": "39efcb3c7876f0cd29ada7197c1360da", "is_disabled": 0, "rental_uris": {"ios": "https://dc.lft.to/lastmile_qr_scan", "android": "https://dc.lft.to/lastmile_qr_scan"}, "is_reserved": 0}, {"lon": -77.03401916666667, "bike_id": "f7301d912b789902e980c8484d94474c", "lat": 38.9056635, "fusion_lon": 0.0, "fusion_lat": 0.0, "type": "electric_scooter", "name": "f7301d912b789902e980c8484d94474c", "is_disabled": 0, "rental_uris": {"ios": "https://dc.lft.to/lastmile_qr_scan", "android": "https://dc.lft.to/lastmile_qr_scan"}, "is_reserved": 0}, {"lon": -77.03515016666667, "bike_id": "bff43a1f0db999bdd9ba5cf36afbd7ff", "lat": 38.9159545, "fusion_lon": 0.0, "fusion_lat": 0.0, "type": "electric_scooter", "name": "bff43a1f0db999bdd9ba5cf36afbd7ff", "is_disabled": 0, "rental_uris": {"ios": "https://dc.lft.to/lastmile_qr_scan", "android": "https://dc.lft.to/lastmile_qr_scan"}, "is_reserved": 0}, {"lon": -77.03337583333334, "bike_id": "988c4c6563cc0a81b4f38aa9443458fa", "lat": 38.938965833333334, "fusion_lon": 0.0, "fusion_lat": 0.0, "type": "electric_scooter", "name": "988c4c6563cc0a81b4f38aa9443458fa", "is_disabled": 0, "rental_uris": {"ios": "https://dc.lft.to/lastmile_qr_scan", "android": "https://dc.lft.to/lastmile_qr_scan"}, "is_reserved": 0}, {"lon": -76.99390916666667, "bike_id": "b1267d0767f9a386ea8d3a5e528ef801", "lat": 38.923968333333335, "fusion_lon": 0.0, "fusion_lat": 0.0, "type": "electric_scooter", "name": "b1267d0767f9a386ea8d3a5e528ef801", "is_disabled": 0, "rental_uris": {"ios": "https://dc.lft.to/lastmile_qr_scan", "android": "https://dc.lft.to/lastmile_qr_scan"}, "is_reserved": 0}, {"lon": -77.04218666666667, "bike_id": "9c4c08d2fd13b757b8197b92b85ebfa6", "lat": 38.92123466666666, "fusion_lon": 0.0, "fusion_lat": 0.0, "type": "electric_scooter", "name": "9c4c08d2fd13b757b8197b92b85ebfa6", "is_disabled": 0, "rental_uris": {"ios": "https://dc.lft.to/lastmile_qr_scan", "android": "https://dc.lft.to/lastmile_qr_scan"}, "is_reserved": 0}, {"lon": -77.03258533333333, "bike_id": "61d5d72bc8e3dc1fea36aaa7b7ff5d7d", "lat": 38.94273883333334, "fusion_lon": 0.0, "fusion_lat": 0.0, "type": "electric_scooter", "name": "61d5d72bc8e3dc1fea36aaa7b7ff5d7d", "is_disabled": 0, "rental_uris": {"ios": "https://dc.lft.to/lastmile_qr_scan", "android": "https://dc.lft.to/lastmile_qr_scan"}, "is_reserved": 0}, {"lon": -77.04135583333333, "bike_id": "8f2752452b8f193c2427475d13d56e50", "lat": 38.92142966666667, "fusion_lon": 0.0, "fusion_lat": 0.0, "type": "electric_scooter", "name": "8f2752452b8f193c2427475d13d56e50", "is_disabled": 0, "rental_uris": {"ios": "https://dc.lft.to/lastmile_qr_scan", "android": "https://dc.lft.to/lastmile_qr_scan"}, "is_reserved": 0}, {"lon": -77.0175365, "bike_id": "75a40bc5ff223f17e7f8c8a54d22222c", "lat": 38.902478333333335, "fusion_lon": 0.0, "fusion_lat": 0.0, "type": "electric_scooter", "name": "75a40bc5ff223f17e7f8c8a54d22222c", "is_disabled": 0, "rental_uris": {"ios": "https://dc.lft.to/lastmile_qr_scan", "android": "https://dc.lft.to/lastmile_qr_scan"}, "is_reserved": 0}, {"lon": -77.01764616666667, "bike_id": "6140469d3bc260d8c79e425561712d31", "lat": 38.887312, "fusion_lon": 0.0, "fusion_lat": 0.0, "type": "electric_scooter", "name": "6140469d3bc260d8c79e425561712d31", "is_disabled": 0, "rental_uris": {"ios": "https://dc.lft.to/lastmile_qr_scan", "android": "https://dc.lft.to/lastmile_qr_scan"}, "is_reserved": 0}, {"lon": -77.072304, "bike_id": "9bd68e03bd138f86f3057f8988f2aa46", "lat": 38.9681295, "fusion_lon": 0.0, "fusion_lat": 0.0, "type": "electric_bike", "name": "9bd68e03bd138f86f3057f8988f2aa46", "is_disabled": 0, "rental_uris": {"ios": "https://dc.lft.to/lastmile_qr_scan", "android": "https://dc.lft.to/lastmile_qr_scan"}, "is_reserved": 0}, {"lon": -77.00576383333333, "bike_id": "82231cf76c98ba21e629b93a44f25b61", "lat": 38.8359115, "fusion_lon": 0.0, "fusion_lat": 0.0, "type": "electric_scooter", "name": "82231cf76c98ba21e629b93a44f25b61", "is_disabled": 0, "rental_uris": {"ios": "https://dc.lft.to/lastmile_qr_scan", "android": "https://dc.lft.to/lastmile_qr_scan"}, "is_reserved": 0}, {"lon": -77.00892483333334, "bike_id": "a0a4e4194cce92f3054cb2ff8133d176", "lat": 38.89794066666666, "fusion_lon": 0.0, "fusion_lat": 0.0, "type": "electric_scooter", "name": "a0a4e4194cce92f3054cb2ff8133d176", "is_disabled": 0, "rental_uris": {"ios": "https://dc.lft.to/lastmile_qr_scan", "android": "https://dc.lft.to/lastmile_qr_scan"}, "is_reserved": 0}, {"lon": -76.99375033333334, "bike_id": "fb9c6a56fa1791c5b1df025377515f18", "lat": 38.971849666666664, "fusion_lon": 0.0, "fusion_lat": 0.0, "type": "electric_bike", "name": "fb9c6a56fa1791c5b1df025377515f18", "is_disabled": 0, "rental_uris": {"ios": "https://dc.lft.to/lastmile_qr_scan", "android": "https://dc.lft.to/lastmile_qr_scan"}, "is_reserved": 0}, {"lon": -77.03378216666667, "bike_id": "ca6e276a692aa598874a7d77480a6a50", "lat": 38.921601333333335, "fusion_lon": 0.0, "fusion_lat": 0.0, "type": "electric_scooter", "name": "ca6e276a692aa598874a7d77480a6a50", "is_disabled": 0, "rental_uris": {"ios": "https://dc.lft.to/lastmile_qr_scan", "android": "https://dc.lft.to/lastmile_qr_scan"}, "is_reserved": 0}, {"lon": -77.04872166666667, "bike_id": "4680bb5b67bae6bae9108bca298a8c8e", "lat": 38.8922765, "fusion_lon": 0.0, "fusion_lat": 0.0, "type": "electric_scooter", "name": "4680bb5b67bae6bae9108bca298a8c8e", "is_disabled": 0, "rental_uris": {"ios": "https://dc.lft.to/lastmile_qr_scan", "android": "https://dc.lft.to/lastmile_qr_scan"}, "is_reserved": 0}, {"lon": -77.0130345, "bike_id": "026de6d631d1d8a56ee87597f2f01aa7", "lat": 38.94327, "fusion_lon": 0.0, "fusion_lat": 0.0, "type": "electric_scooter", "name": "026de6d631d1d8a56ee87597f2f01aa7", "is_disabled": 0, "rental_uris": {"ios": "https://dc.lft.to/lastmile_qr_scan", "android": "https://dc.lft.to/lastmile_qr_scan"}, "is_reserved": 0}, {"lon": -77.02027, "bike_id": "fb0ac0c6a8a82ae874a467cf2d67f242", "lat": 38.915502833333335, "fusion_lon": 0.0, "fusion_lat": 0.0, "type": "electric_scooter", "name": "fb0ac0c6a8a82ae874a467cf2d67f242", "is_disabled": 0, "rental_uris": {"ios": "https://dc.lft.to/lastmile_qr_scan", "android": "https://dc.lft.to/lastmile_qr_scan"}, "is_reserved": 0}, {"lon": -76.96089633333334, "bike_id": "27dc5ab02fac8d5cccafbb622d7f151e", "lat": 38.918587333333335, "fusion_lon": 0.0, "fusion_lat": 0.0, "type": "electric_bike", "name": "27dc5ab02fac8d5cccafbb622d7f151e", "is_disabled": 0, "rental_uris": {"ios": "https://dc.lft.to/lastmile_qr_scan", "android": "https://dc.lft.to/lastmile_qr_scan"}, "is_reserved": 0}, {"lon": -77.018156, "bike_id": "b854977d923ca50ccd33fb53fcb38c13", "lat": 38.92220966666667, "fusion_lon": 0.0, "fusion_lat": 0.0, "type": "electric_scooter", "name": "b854977d923ca50ccd33fb53fcb38c13", "is_disabled": 0, "rental_uris": {"ios": "https://dc.lft.to/lastmile_qr_scan", "android": "https://dc.lft.to/lastmile_qr_scan"}, "is_reserved": 0}, {"lon": -77.045793, "bike_id": "8ac6cbdf597766ca5a904e16be77d174", "lat": 38.921217666666664, "fusion_lon": 0.0, "fusion_lat": 0.0, "type": "electric_scooter", "name": "8ac6cbdf597766ca5a904e16be77d174", "is_disabled": 0, "rental_uris": {"ios": "https://dc.lft.to/lastmile_qr_scan", "android": "https://dc.lft.to/lastmile_qr_scan"}, "is_reserved": 0}, {"lon": -77.0360685, "bike_id": "3b5931c993077c135c7015509f6a1da9", "lat": 38.93682283333333, "fusion_lon": 0.0, "fusion_lat": 0.0, "type": "electric_scooter", "name": "3b5931c993077c135c7015509f6a1da9", "is_disabled": 0, "rental_uris": {"ios": "https://dc.lft.to/lastmile_qr_scan", "android": "https://dc.lft.to/lastmile_qr_scan"}, "is_reserved": 0}, {"lon": -77.035147, "bike_id": "b9965e92a602efed86e41cd784632b7f", "lat": 38.93589733333334, "fusion_lon": 0.0, "fusion_lat": 0.0, "type": "electric_bike", "name": "b9965e92a602efed86e41cd784632b7f", "is_disabled": 0, "rental_uris": {"ios": "https://dc.lft.to/lastmile_qr_scan", "android": "https://dc.lft.to/lastmile_qr_scan"}, "is_reserved": 0}, {"lon": -77.03602383333333, "bike_id": "96f1d675d73330aac8ebc3ba40d7eb49", "lat": 38.928551, "fusion_lon": 0.0, "fusion_lat": 0.0, "type": "electric_scooter", "name": "96f1d675d73330aac8ebc3ba40d7eb49", "is_disabled": 0, "rental_uris": {"ios": "https://dc.lft.to/lastmile_qr_scan", "android": "https://dc.lft.to/lastmile_qr_scan"}, "is_reserved": 0}, {"lon": -76.9498255, "bike_id": "51ffb858aeef4fc11a140d4f64be95a4", "lat": 38.893684666666665, "fusion_lon": 0.0, "fusion_lat": 0.0, "type": "electric_scooter", "name": "51ffb858aeef4fc11a140d4f64be95a4", "is_disabled": 0, "rental_uris": {"ios": "https://dc.lft.to/lastmile_qr_scan", "android": "https://dc.lft.to/lastmile_qr_scan"}, "is_reserved": 0}, {"lon": -77.038244, "bike_id": "9b90a6359080395cdfd4ef1c96e5fc37", "lat": 38.91040366666667, "fusion_lon": 0.0, "fusion_lat": 0.0, "type": "electric_scooter", "name": "9b90a6359080395cdfd4ef1c96e5fc37", "is_disabled": 0, "rental_uris": {"ios": "https://dc.lft.to/lastmile_qr_scan", "android": "https://dc.lft.to/lastmile_qr_scan"}, "is_reserved": 0}, {"lon": -77.00067783333333, "bike_id": "2f5531fa255639dd13b92f8818979688", "lat": 38.89996683333333, "fusion_lon": 0.0, "fusion_lat": 0.0, "type": "electric_scooter", "name": "2f5531fa255639dd13b92f8818979688", "is_disabled": 0, "rental_uris": {"ios": "https://dc.lft.to/lastmile_qr_scan", "android": "https://dc.lft.to/lastmile_qr_scan"}, "is_reserved": 0}, {"lon": -77.02368633333333, "bike_id": "2f0112cbe85b8c878936e01eda2b0d19", "lat": 38.90731566666667, "fusion_lon": 0.0, "fusion_lat": 0.0, "type": "electric_scooter", "name": "2f0112cbe85b8c878936e01eda2b0d19", "is_disabled": 0, "rental_uris": {"ios": "https://dc.lft.to/lastmile_qr_scan", "android": "https://dc.lft.to/lastmile_qr_scan"}, "is_reserved": 0}, {"lon": -77.04380116666667, "bike_id": "05e2622d83ae841cf1e1727f47d4e037", "lat": 38.9187685, "fusion_lon": 0.0, "fusion_lat": 0.0, "type": "electric_scooter", "name": "05e2622d83ae841cf1e1727f47d4e037", "is_disabled": 0, "rental_uris": {"ios": "https://dc.lft.to/lastmile_qr_scan", "android": "https://dc.lft.to/lastmile_qr_scan"}, "is_reserved": 0}, {"lon": -77.04864316666666, "bike_id": "934533ce21bad8ca9e660ef976cb2b10", "lat": 38.91617866666667, "fusion_lon": 0.0, "fusion_lat": 0.0, "type": "electric_scooter", "name": "934533ce21bad8ca9e660ef976cb2b10", "is_disabled": 0, "rental_uris": {"ios": "https://dc.lft.to/lastmile_qr_scan", "android": "https://dc.lft.to/lastmile_qr_scan"}, "is_reserved": 0}, {"lon": -76.98349366666666, "bike_id": "ed5396841b770c2a2ce52f70aa6fc6a0", "lat": 38.862606666666665, "fusion_lon": 0.0, "fusion_lat": 0.0, "type": "electric_bike", "name": "ed5396841b770c2a2ce52f70aa6fc6a0", "is_disabled": 0, "rental_uris": {"ios": "https://dc.lft.to/lastmile_qr_scan", "android": "https://dc.lft.to/lastmile_qr_scan"}, "is_reserved": 0}, {"lon": -77.03303566666666, "bike_id": "c5589b7951a73a09475304bfdf8dec67", "lat": 38.926254, "fusion_lon": 0.0, "fusion_lat": 0.0, "type": "electric_bike", "name": "c5589b7951a73a09475304bfdf8dec67", "is_disabled": 0, "rental_uris": {"ios": "https://dc.lft.to/lastmile_qr_scan", "android": "https://dc.lft.to/lastmile_qr_scan"}, "is_reserved": 0}, {"lon": -77.03364783333333, "bike_id": "8a7fc2e07de05ee7740291c96a5c3452", "lat": 38.92895083333333, "fusion_lon": 0.0, "fusion_lat": 0.0, "type": "electric_scooter", "name": "8a7fc2e07de05ee7740291c96a5c3452", "is_disabled": 0, "rental_uris": {"ios": "https://dc.lft.to/lastmile_qr_scan", "android": "https://dc.lft.to/lastmile_qr_scan"}, "is_reserved": 0}, {"lon": -76.97329983333333, "bike_id": "85c073a97ea2cdfe020e465204913541", "lat": 38.904142, "fusion_lon": 0.0, "fusion_lat": 0.0, "type": "electric_scooter", "name": "85c073a97ea2cdfe020e465204913541", "is_disabled": 0, "rental_uris": {"ios": "https://dc.lft.to/lastmile_qr_scan", "android": "https://dc.lft.to/lastmile_qr_scan"}, "is_reserved": 0}, {"lon": -77.03476933333333, "bike_id": "150c460e38edf8210b4b5e30748449c2", "lat": 38.9073405, "fusion_lon": 0.0, "fusion_lat": 0.0, "type": "electric_scooter", "name": "150c460e38edf8210b4b5e30748449c2", "is_disabled": 0, "rental_uris": {"ios": "https://dc.lft.to/lastmile_qr_scan", "android": "https://dc.lft.to/lastmile_qr_scan"}, "is_reserved": 0}, {"lon": -77.03274216666667, "bike_id": "c61ededde565a3776dab4d3aa178a5e4", "lat": 38.9140555, "fusion_lon": 0.0, "fusion_lat": 0.0, "type": "electric_scooter", "name": "c61ededde565a3776dab4d3aa178a5e4", "is_disabled": 0, "rental_uris": {"ios": "https://dc.lft.to/lastmile_qr_scan", "android": "https://dc.lft.to/lastmile_qr_scan"}, "is_reserved": 0}, {"lon": -77.0386765, "bike_id": "145a1e800f7284d4a0b03afbb5664399", "lat": 38.91262316666667, "fusion_lon": 0.0, "fusion_lat": 0.0, "type": "electric_scooter", "name": "145a1e800f7284d4a0b03afbb5664399", "is_disabled": 0, "rental_uris": {"ios": "https://dc.lft.to/lastmile_qr_scan", "android": "https://dc.lft.to/lastmile_qr_scan"}, "is_reserved": 0}, {"lon": -77.04155966666667, "bike_id": "e7a712a94efb209a403f90893b26406d", "lat": 38.91814883333333, "fusion_lon": 0.0, "fusion_lat": 0.0, "type": "electric_scooter", "name": "e7a712a94efb209a403f90893b26406d", "is_disabled": 0, "rental_uris": {"ios": "https://dc.lft.to/lastmile_qr_scan", "android": "https://dc.lft.to/lastmile_qr_scan"}, "is_reserved": 0}, {"lon": -76.98767966666666, "bike_id": "279da1906868aa6572b8ee48fad699b9", "lat": 38.86626566666666, "fusion_lon": 0.0, "fusion_lat": 0.0, "type": "electric_bike", "name": "279da1906868aa6572b8ee48fad699b9", "is_disabled": 0, "rental_uris": {"ios": "https://dc.lft.to/lastmile_qr_scan", "android": "https://dc.lft.to/lastmile_qr_scan"}, "is_reserved": 0}, {"lon": -76.94198583333333, "bike_id": "64ff25eb333062784ff8c46395a5763e", "lat": 38.893089333333336, "fusion_lon": 0.0, "fusion_lat": 0.0, "type": "electric_bike", "name": "64ff25eb333062784ff8c46395a5763e", "is_disabled": 0, "rental_uris": {"ios": "https://dc.lft.to/lastmile_qr_scan", "android": "https://dc.lft.to/lastmile_qr_scan"}, "is_reserved": 0}, {"lon": -77.01325466666667, "bike_id": "77fc4d3ccda3f5f3424638220971ec25", "lat": 38.90032, "fusion_lon": 0.0, "fusion_lat": 0.0, "type": "electric_scooter", "name": "77fc4d3ccda3f5f3424638220971ec25", "is_disabled": 0, "rental_uris": {"ios": "https://dc.lft.to/lastmile_qr_scan", "android": "https://dc.lft.to/lastmile_qr_scan"}, "is_reserved": 0}, {"lon": -76.985258, "bike_id": "8b765c472e233d15f7ba25d94477495a", "lat": 38.866862, "fusion_lon": 0.0, "fusion_lat": 0.0, "type": "electric_scooter", "name": "8b765c472e233d15f7ba25d94477495a", "is_disabled": 0, "rental_uris": {"ios": "https://dc.lft.to/lastmile_qr_scan", "android": "https://dc.lft.to/lastmile_qr_scan"}, "is_reserved": 0}, {"lon": -77.02227366666666, "bike_id": "0cbaae6bdf54944a7cb60b13dc75ba1a", "lat": 38.91260283333333, "fusion_lon": 0.0, "fusion_lat": 0.0, "type": "electric_scooter", "name": "0cbaae6bdf54944a7cb60b13dc75ba1a", "is_disabled": 0, "rental_uris": {"ios": "https://dc.lft.to/lastmile_qr_scan", "android": "https://dc.lft.to/lastmile_qr_scan"}, "is_reserved": 0}, {"lon": -77.03512266666667, "bike_id": "90a7643a54686a6162e9f91cf19252a1", "lat": 38.923464, "fusion_lon": 0.0, "fusion_lat": 0.0, "type": "electric_scooter", "name": "90a7643a54686a6162e9f91cf19252a1", "is_disabled": 0, "rental_uris": {"ios": "https://dc.lft.to/lastmile_qr_scan", "android": "https://dc.lft.to/lastmile_qr_scan"}, "is_reserved": 0}, {"lon": -77.06855616666667, "bike_id": "02109ceccef194f6462b7e4d29ffaa46", "lat": 38.9380945, "fusion_lon": 0.0, "fusion_lat": 0.0, "type": "electric_bike", "name": "02109ceccef194f6462b7e4d29ffaa46", "is_disabled": 0, "rental_uris": {"ios": "https://dc.lft.to/lastmile_qr_scan", "android": "https://dc.lft.to/lastmile_qr_scan"}, "is_reserved": 0}, {"lon": -77.04350083333334, "bike_id": "991452113a0ab2917c0092e1297aa45f", "lat": 38.912156333333336, "fusion_lon": 0.0, "fusion_lat": 0.0, "type": "electric_scooter", "name": "991452113a0ab2917c0092e1297aa45f", "is_disabled": 0, "rental_uris": {"ios": "https://dc.lft.to/lastmile_qr_scan", "android": "https://dc.lft.to/lastmile_qr_scan"}, "is_reserved": 0}, {"lon": -77.02387783333333, "bike_id": "fb3fd0d4907453da3aaf63ad500c4c38", "lat": 38.9114485, "fusion_lon": 0.0, "fusion_lat": 0.0, "type": "electric_scooter", "name": "fb3fd0d4907453da3aaf63ad500c4c38", "is_disabled": 0, "rental_uris": {"ios": "https://dc.lft.to/lastmile_qr_scan", "android": "https://dc.lft.to/lastmile_qr_scan"}, "is_reserved": 0}, {"lon": -77.105246, "bike_id": "ad9091c39430b76e0c0051ba9f45e324", "lat": 38.873735333333336, "fusion_lon": 0.0, "fusion_lat": 0.0, "type": "electric_bike", "name": "ad9091c39430b76e0c0051ba9f45e324", "is_disabled": 0, "rental_uris": {"ios": "https://dc.lft.to/lastmile_qr_scan", "android": "https://dc.lft.to/lastmile_qr_scan"}, "is_reserved": 0}, {"lon": -77.05563116666667, "bike_id": "580063d05af2e1697ac0679da7105f27", "lat": 38.930409833333336, "fusion_lon": 0.0, "fusion_lat": 0.0, "type": "electric_scooter", "name": "580063d05af2e1697ac0679da7105f27", "is_disabled": 0, "rental_uris": {"ios": "https://dc.lft.to/lastmile_qr_scan", "android": "https://dc.lft.to/lastmile_qr_scan"}, "is_reserved": 0}, {"lon": -77.04263983333334, "bike_id": "23769bafb4a8511977cbc89856164440", "lat": 38.9001845, "fusion_lon": 0.0, "fusion_lat": 0.0, "type": "electric_scooter", "name": "23769bafb4a8511977cbc89856164440", "is_disabled": 0, "rental_uris": {"ios": "https://dc.lft.to/lastmile_qr_scan", "android": "https://dc.lft.to/lastmile_qr_scan"}, "is_reserved": 0}, {"lon": -77.07822466666667, "bike_id": "2c70789a7b5fa4d0f96ef9d570988d09", "lat": 38.9237055, "fusion_lon": 0.0, "fusion_lat": 0.0, "type": "electric_scooter", "name": "2c70789a7b5fa4d0f96ef9d570988d09", "is_disabled": 0, "rental_uris": {"ios": "https://dc.lft.to/lastmile_qr_scan", "android": "https://dc.lft.to/lastmile_qr_scan"}, "is_reserved": 0}, {"lon": -77.03320983333333, "bike_id": "9c0992a6955f8f5e2217fb917adee7d3", "lat": 38.90290316666667, "fusion_lon": 0.0, "fusion_lat": 0.0, "type": "electric_scooter", "name": "9c0992a6955f8f5e2217fb917adee7d3", "is_disabled": 0, "rental_uris": {"ios": "https://dc.lft.to/lastmile_qr_scan", "android": "https://dc.lft.to/lastmile_qr_scan"}, "is_reserved": 0}, {"lon": -77.07293833333334, "bike_id": "79235e0b2e916206fc82df56789dc455", "lat": 38.9228195, "fusion_lon": 0.0, "fusion_lat": 0.0, "type": "electric_scooter", "name": "79235e0b2e916206fc82df56789dc455", "is_disabled": 0, "rental_uris": {"ios": "https://dc.lft.to/lastmile_qr_scan", "android": "https://dc.lft.to/lastmile_qr_scan"}, "is_reserved": 0}, {"lon": -76.9879895, "bike_id": "bfbc9e9158602bcde0d6810444eb0fb5", "lat": 38.89242483333334, "fusion_lon": 0.0, "fusion_lat": 0.0, "type": "electric_scooter", "name": "bfbc9e9158602bcde0d6810444eb0fb5", "is_disabled": 0, "rental_uris": {"ios": "https://dc.lft.to/lastmile_qr_scan", "android": "https://dc.lft.to/lastmile_qr_scan"}, "is_reserved": 0}, {"lon": -77.03210183333333, "bike_id": "6f3d6b4d91797cf1ae7b8057c9588384", "lat": 38.912103333333334, "fusion_lon": 0.0, "fusion_lat": 0.0, "type": "electric_scooter", "name": "6f3d6b4d91797cf1ae7b8057c9588384", "is_disabled": 0, "rental_uris": {"ios": "https://dc.lft.to/lastmile_qr_scan", "android": "https://dc.lft.to/lastmile_qr_scan"}, "is_reserved": 0}, {"lon": -77.0410815, "bike_id": "17a837b12acb40ea22c483bb6789e13c", "lat": 38.91549716666667, "fusion_lon": 0.0, "fusion_lat": 0.0, "type": "electric_scooter", "name": "17a837b12acb40ea22c483bb6789e13c", "is_disabled": 0, "rental_uris": {"ios": "https://dc.lft.to/lastmile_qr_scan", "android": "https://dc.lft.to/lastmile_qr_scan"}, "is_reserved": 0}, {"lon": -77.094651, "bike_id": "314dc77196613e979d7a8532c7be6a2a", "lat": 38.86940766666667, "fusion_lon": 0.0, "fusion_lat": 0.0, "type": "electric_bike", "name": "314dc77196613e979d7a8532c7be6a2a", "is_disabled": 0, "rental_uris": {"ios": "https://dc.lft.to/lastmile_qr_scan", "android": "https://dc.lft.to/lastmile_qr_scan"}, "is_reserved": 0}, {"lon": -77.0057565, "bike_id": "0a56d963963aad6f4873ad1b1a32ccf0", "lat": 38.82999616666667, "fusion_lon": 0.0, "fusion_lat": 0.0, "type": "electric_scooter", "name": "0a56d963963aad6f4873ad1b1a32ccf0", "is_disabled": 0, "rental_uris": {"ios": "https://dc.lft.to/lastmile_qr_scan", "android": "https://dc.lft.to/lastmile_qr_scan"}, "is_reserved": 0}, {"lon": -77.02220966666667, "bike_id": "9602e81205e62bd736d396736ce15504", "lat": 38.935469833333336, "fusion_lon": 0.0, "fusion_lat": 0.0, "type": "electric_scooter", "name": "9602e81205e62bd736d396736ce15504", "is_disabled": 0, "rental_uris": {"ios": "https://dc.lft.to/lastmile_qr_scan", "android": "https://dc.lft.to/lastmile_qr_scan"}, "is_reserved": 0}, {"lon": -77.03666733333333, "bike_id": "56490b8f787d88859643c0ea2c0f95f5", "lat": 38.918153, "fusion_lon": 0.0, "fusion_lat": 0.0, "type": "electric_scooter", "name": "56490b8f787d88859643c0ea2c0f95f5", "is_disabled": 0, "rental_uris": {"ios": "https://dc.lft.to/lastmile_qr_scan", "android": "https://dc.lft.to/lastmile_qr_scan"}, "is_reserved": 0}, {"lon": -77.02691816666666, "bike_id": "ff182e9f47cd7af55b4ddf94dcb5caff", "lat": 38.918128, "fusion_lon": 0.0, "fusion_lat": 0.0, "type": "electric_scooter", "name": "ff182e9f47cd7af55b4ddf94dcb5caff", "is_disabled": 0, "rental_uris": {"ios": "https://dc.lft.to/lastmile_qr_scan", "android": "https://dc.lft.to/lastmile_qr_scan"}, "is_reserved": 0}, {"lon": -77.03232166666666, "bike_id": "0a4b5eff2328aacacb22f11581a30959", "lat": 38.929865166666666, "fusion_lon": 0.0, "fusion_lat": 0.0, "type": "electric_scooter", "name": "0a4b5eff2328aacacb22f11581a30959", "is_disabled": 0, "rental_uris": {"ios": "https://dc.lft.to/lastmile_qr_scan", "android": "https://dc.lft.to/lastmile_qr_scan"}, "is_reserved": 0}, {"lon": -77.02975366666666, "bike_id": "d654ef8d0714900285fe716de0cda1d1", "lat": 38.90839033333334, "fusion_lon": 0.0, "fusion_lat": 0.0, "type": "electric_bike", "name": "d654ef8d0714900285fe716de0cda1d1", "is_disabled": 0, "rental_uris": {"ios": "https://dc.lft.to/lastmile_qr_scan", "android": "https://dc.lft.to/lastmile_qr_scan"}, "is_reserved": 0}, {"lon": -77.02508316666666, "bike_id": "2232fa7b1830b4488c6898c3f4747dfa", "lat": 38.92049566666667, "fusion_lon": 0.0, "fusion_lat": 0.0, "type": "electric_scooter", "name": "2232fa7b1830b4488c6898c3f4747dfa", "is_disabled": 0, "rental_uris": {"ios": "https://dc.lft.to/lastmile_qr_scan", "android": "https://dc.lft.to/lastmile_qr_scan"}, "is_reserved": 0}, {"lon": -76.981419, "bike_id": "b7484f0054fe182c208ec30d8cd568c6", "lat": 38.90565683333333, "fusion_lon": 0.0, "fusion_lat": 0.0, "type": "electric_scooter", "name": "b7484f0054fe182c208ec30d8cd568c6", "is_disabled": 0, "rental_uris": {"ios": "https://dc.lft.to/lastmile_qr_scan", "android": "https://dc.lft.to/lastmile_qr_scan"}, "is_reserved": 0}, {"lon": -77.034725, "bike_id": "9585f766c90f9a69772c9068a942b080", "lat": 38.9027765, "fusion_lon": 0.0, "fusion_lat": 0.0, "type": "electric_scooter", "name": "9585f766c90f9a69772c9068a942b080", "is_disabled": 0, "rental_uris": {"ios": "https://dc.lft.to/lastmile_qr_scan", "android": "https://dc.lft.to/lastmile_qr_scan"}, "is_reserved": 0}, {"lon": -77.03428216666667, "bike_id": "d2719c6013bbd00dd81f9f089f179b11", "lat": 38.909737166666666, "fusion_lon": 0.0, "fusion_lat": 0.0, "type": "electric_scooter", "name": "d2719c6013bbd00dd81f9f089f179b11", "is_disabled": 0, "rental_uris": {"ios": "https://dc.lft.to/lastmile_qr_scan", "android": "https://dc.lft.to/lastmile_qr_scan"}, "is_reserved": 0}, {"lon": -77.01221616666666, "bike_id": "c13d0158b2ef6a4d4f4359157cfe257d", "lat": 38.91543, "fusion_lon": 0.0, "fusion_lat": 0.0, "type": "electric_scooter", "name": "c13d0158b2ef6a4d4f4359157cfe257d", "is_disabled": 0, "rental_uris": {"ios": "https://dc.lft.to/lastmile_qr_scan", "android": "https://dc.lft.to/lastmile_qr_scan"}, "is_reserved": 0}, {"lon": -77.12528583333334, "bike_id": "3df46266df960443d3d269580894514c", "lat": 39.05635216666667, "fusion_lon": 0.0, "fusion_lat": 0.0, "type": "electric_bike", "name": "3df46266df960443d3d269580894514c", "is_disabled": 0, "rental_uris": {"ios": "https://dc.lft.to/lastmile_qr_scan", "android": "https://dc.lft.to/lastmile_qr_scan"}, "is_reserved": 0}, {"lon": -77.04671783333333, "bike_id": "fa4d67435537c747c2b4686adf08cad5", "lat": 38.8923075, "fusion_lon": 0.0, "fusion_lat": 0.0, "type": "electric_scooter", "name": "fa4d67435537c747c2b4686adf08cad5", "is_disabled": 0, "rental_uris": {"ios": "https://dc.lft.to/lastmile_qr_scan", "android": "https://dc.lft.to/lastmile_qr_scan"}, "is_reserved": 0}, {"lon": -77.013007, "bike_id": "97dca50ee878f2e1871e22674c56bd01", "lat": 38.91409383333333, "fusion_lon": 0.0, "fusion_lat": 0.0, "type": "electric_scooter", "name": "97dca50ee878f2e1871e22674c56bd01", "is_disabled": 0, "rental_uris": {"ios": "https://dc.lft.to/lastmile_qr_scan", "android": "https://dc.lft.to/lastmile_qr_scan"}, "is_reserved": 0}, {"lon": -76.99931733333334, "bike_id": "aa8b1dfbdd7a0c70e21106030e8551c3", "lat": 38.843149, "fusion_lon": 0.0, "fusion_lat": 0.0, "type": "electric_scooter", "name": "aa8b1dfbdd7a0c70e21106030e8551c3", "is_disabled": 0, "rental_uris": {"ios": "https://dc.lft.to/lastmile_qr_scan", "android": "https://dc.lft.to/lastmile_qr_scan"}, "is_reserved": 0}, {"lon": -77.04335416666666, "bike_id": "4505a991aadcd8f0d46e65c0f9ffebe8", "lat": 38.89222016666667, "fusion_lon": 0.0, "fusion_lat": 0.0, "type": "electric_scooter", "name": "4505a991aadcd8f0d46e65c0f9ffebe8", "is_disabled": 0, "rental_uris": {"ios": "https://dc.lft.to/lastmile_qr_scan", "android": "https://dc.lft.to/lastmile_qr_scan"}, "is_reserved": 0}, {"lon": -77.03450033333333, "bike_id": "2b2983d5afe1bb2a336d1bdebdd4dd47", "lat": 38.905863833333335, "fusion_lon": 0.0, "fusion_lat": 0.0, "type": "electric_scooter", "name": "2b2983d5afe1bb2a336d1bdebdd4dd47", "is_disabled": 0, "rental_uris": {"ios": "https://dc.lft.to/lastmile_qr_scan", "android": "https://dc.lft.to/lastmile_qr_scan"}, "is_reserved": 0}, {"lon": -77.00596916666667, "bike_id": "ce238cf0344859b56be74d4c6453d103", "lat": 38.905574333333334, "fusion_lon": 0.0, "fusion_lat": 0.0, "type": "electric_scooter", "name": "ce238cf0344859b56be74d4c6453d103", "is_disabled": 0, "rental_uris": {"ios": "https://dc.lft.to/lastmile_qr_scan", "android": "https://dc.lft.to/lastmile_qr_scan"}, "is_reserved": 0}, {"lon": -77.02847333333334, "bike_id": "d11eb2f28b113a119c8a243cf1fa271e", "lat": 38.9341795, "fusion_lon": 0.0, "fusion_lat": 0.0, "type": "electric_scooter", "name": "d11eb2f28b113a119c8a243cf1fa271e", "is_disabled": 0, "rental_uris": {"ios": "https://dc.lft.to/lastmile_qr_scan", "android": "https://dc.lft.to/lastmile_qr_scan"}, "is_reserved": 0}, {"lon": -77.07457683333334, "bike_id": "2045859c9b6829c8fab1a1deece9c5fb", "lat": 38.945044, "fusion_lon": 0.0, "fusion_lat": 0.0, "type": "electric_scooter", "name": "2045859c9b6829c8fab1a1deece9c5fb", "is_disabled": 0, "rental_uris": {"ios": "https://dc.lft.to/lastmile_qr_scan", "android": "https://dc.lft.to/lastmile_qr_scan"}, "is_reserved": 0}, {"lon": -77.01599883333333, "bike_id": "b7305ee4c10492c47050cd6bb1160a2b", "lat": 38.899697, "fusion_lon": 0.0, "fusion_lat": 0.0, "type": "electric_scooter", "name": "b7305ee4c10492c47050cd6bb1160a2b", "is_disabled": 0, "rental_uris": {"ios": "https://dc.lft.to/lastmile_qr_scan", "android": "https://dc.lft.to/lastmile_qr_scan"}, "is_reserved": 0}, {"lon": -76.93730966666666, "bike_id": "0b701cfd3e61649cef8e1227572f24f4", "lat": 38.89014733333333, "fusion_lon": 0.0, "fusion_lat": 0.0, "type": "electric_scooter", "name": "0b701cfd3e61649cef8e1227572f24f4", "is_disabled": 0, "rental_uris": {"ios": "https://dc.lft.to/lastmile_qr_scan", "android": "https://dc.lft.to/lastmile_qr_scan"}, "is_reserved": 0}, {"lon": -76.94729233333334, "bike_id": "cae6464de72af89a89dbae87192aa2a4", "lat": 38.897409833333334, "fusion_lon": 0.0, "fusion_lat": 0.0, "type": "electric_scooter", "name": "cae6464de72af89a89dbae87192aa2a4", "is_disabled": 0, "rental_uris": {"ios": "https://dc.lft.to/lastmile_qr_scan", "android": "https://dc.lft.to/lastmile_qr_scan"}, "is_reserved": 0}, {"lon": -77.03278366666666, "bike_id": "8bff7087f9d1ca030df5538d3f3fb9f8", "lat": 38.940963833333335, "fusion_lon": 0.0, "fusion_lat": 0.0, "type": "electric_scooter", "name": "8bff7087f9d1ca030df5538d3f3fb9f8", "is_disabled": 0, "rental_uris": {"ios": "https://dc.lft.to/lastmile_qr_scan", "android": "https://dc.lft.to/lastmile_qr_scan"}, "is_reserved": 0}, {"lon": -77.02236016666667, "bike_id": "51c3b51f96b61b5517917c06a8f36867", "lat": 38.90851083333333, "fusion_lon": 0.0, "fusion_lat": 0.0, "type": "electric_scooter", "name": "51c3b51f96b61b5517917c06a8f36867", "is_disabled": 0, "rental_uris": {"ios": "https://dc.lft.to/lastmile_qr_scan", "android": "https://dc.lft.to/lastmile_qr_scan"}, "is_reserved": 0}, {"lon": -76.97702866666667, "bike_id": "cef438193604c3a9e79750eaf581d5ec", "lat": 38.94914983333334, "fusion_lon": 0.0, "fusion_lat": 0.0, "type": "electric_bike", "name": "cef438193604c3a9e79750eaf581d5ec", "is_disabled": 0, "rental_uris": {"ios": "https://dc.lft.to/lastmile_qr_scan", "android": "https://dc.lft.to/lastmile_qr_scan"}, "is_reserved": 0}, {"lon": -77.03659183333333, "bike_id": "a6bb3f21760d80f7359ddddc249fd341", "lat": 38.92285183333333, "fusion_lon": 0.0, "fusion_lat": 0.0, "type": "electric_scooter", "name": "a6bb3f21760d80f7359ddddc249fd341", "is_disabled": 0, "rental_uris": {"ios": "https://dc.lft.to/lastmile_qr_scan", "android": "https://dc.lft.to/lastmile_qr_scan"}, "is_reserved": 0}, {"lon": -77.02974883333333, "bike_id": "8fcd95ceaffe9e5e7b6e18c6d39af0fe", "lat": 38.904779, "fusion_lon": 0.0, "fusion_lat": 0.0, "type": "electric_bike", "name": "8fcd95ceaffe9e5e7b6e18c6d39af0fe", "is_disabled": 0, "rental_uris": {"ios": "https://dc.lft.to/lastmile_qr_scan", "android": "https://dc.lft.to/lastmile_qr_scan"}, "is_reserved": 0}, {"lon": -77.02615616666667, "bike_id": "ecb182d6891a02046969fad1871970b2", "lat": 38.900559, "fusion_lon": 0.0, "fusion_lat": 0.0, "type": "electric_scooter", "name": "ecb182d6891a02046969fad1871970b2", "is_disabled": 0, "rental_uris": {"ios": "https://dc.lft.to/lastmile_qr_scan", "android": "https://dc.lft.to/lastmile_qr_scan"}, "is_reserved": 0}, {"lon": -77.01201766666667, "bike_id": "e8bbd5bc5fd1a7e7bf65d8c4d86c27bf", "lat": 38.88549733333333, "fusion_lon": 0.0, "fusion_lat": 0.0, "type": "electric_scooter", "name": "e8bbd5bc5fd1a7e7bf65d8c4d86c27bf", "is_disabled": 0, "rental_uris": {"ios": "https://dc.lft.to/lastmile_qr_scan", "android": "https://dc.lft.to/lastmile_qr_scan"}, "is_reserved": 0}, {"lon": -77.05299716666667, "bike_id": "3d135db3215f31e98619fd7e8da5f1a6", "lat": 38.89890116666667, "fusion_lon": 0.0, "fusion_lat": 0.0, "type": "electric_scooter", "name": "3d135db3215f31e98619fd7e8da5f1a6", "is_disabled": 0, "rental_uris": {"ios": "https://dc.lft.to/lastmile_qr_scan", "android": "https://dc.lft.to/lastmile_qr_scan"}, "is_reserved": 0}, {"lon": -77.0378845, "bike_id": "8b12c46368f546057c21fa425bdb5e9f", "lat": 38.99676083333333, "fusion_lon": 0.0, "fusion_lat": 0.0, "type": "electric_bike", "name": "8b12c46368f546057c21fa425bdb5e9f", "is_disabled": 0, "rental_uris": {"ios": "https://dc.lft.to/lastmile_qr_scan", "android": "https://dc.lft.to/lastmile_qr_scan"}, "is_reserved": 0}, {"lon": -77.34403733333333, "bike_id": "3965e9f4e3aaa6661ae502619eb3a41d", "lat": 38.94584566666666, "fusion_lon": 0.0, "fusion_lat": 0.0, "type": "electric_bike", "name": "3965e9f4e3aaa6661ae502619eb3a41d", "is_disabled": 0, "rental_uris": {"ios": "https://dc.lft.to/lastmile_qr_scan", "android": "https://dc.lft.to/lastmile_qr_scan"}, "is_reserved": 0}, {"lon": -77.02026366666666, "bike_id": "367fcd88d356a9920d9088ccd9c638bc", "lat": 38.92427133333333, "fusion_lon": 0.0, "fusion_lat": 0.0, "type": "electric_scooter", "name": "367fcd88d356a9920d9088ccd9c638bc", "is_disabled": 0, "rental_uris": {"ios": "https://dc.lft.to/lastmile_qr_scan", "android": "https://dc.lft.to/lastmile_qr_scan"}, "is_reserved": 0}, {"lon": -77.02651283333333, "bike_id": "c2eeea7c7e763f9f0fa1fe4d98b891c6", "lat": 38.9260825, "fusion_lon": 0.0, "fusion_lat": 0.0, "type": "electric_scooter", "name": "c2eeea7c7e763f9f0fa1fe4d98b891c6", "is_disabled": 0, "rental_uris": {"ios": "https://dc.lft.to/lastmile_qr_scan", "android": "https://dc.lft.to/lastmile_qr_scan"}, "is_reserved": 0}, {"lon": -77.04083083333333, "bike_id": "40c9c69676db2c91e8a3c655e1bce066", "lat": 38.916948166666664, "fusion_lon": 0.0, "fusion_lat": 0.0, "type": "electric_scooter", "name": "40c9c69676db2c91e8a3c655e1bce066", "is_disabled": 0, "rental_uris": {"ios": "https://dc.lft.to/lastmile_qr_scan", "android": "https://dc.lft.to/lastmile_qr_scan"}, "is_reserved": 0}, {"lon": -77.02172133333333, "bike_id": "9d5e3b2c141c898e1e63394a46a909f3", "lat": 38.94296583333333, "fusion_lon": 0.0, "fusion_lat": 0.0, "type": "electric_scooter", "name": "9d5e3b2c141c898e1e63394a46a909f3", "is_disabled": 0, "rental_uris": {"ios": "https://dc.lft.to/lastmile_qr_scan", "android": "https://dc.lft.to/lastmile_qr_scan"}, "is_reserved": 0}, {"lon": -77.02712583333333, "bike_id": "53f7355ad1d602d7a0beefb0e6449c83", "lat": 38.90669333333334, "fusion_lon": 0.0, "fusion_lat": 0.0, "type": "electric_scooter", "name": "53f7355ad1d602d7a0beefb0e6449c83", "is_disabled": 0, "rental_uris": {"ios": "https://dc.lft.to/lastmile_qr_scan", "android": "https://dc.lft.to/lastmile_qr_scan"}, "is_reserved": 0}, {"lon": -76.99782066666667, "bike_id": "f40712943a28be0cef3511b0079fb0e7", "lat": 38.84427483333333, "fusion_lon": 0.0, "fusion_lat": 0.0, "type": "electric_scooter", "name": "f40712943a28be0cef3511b0079fb0e7", "is_disabled": 0, "rental_uris": {"ios": "https://dc.lft.to/lastmile_qr_scan", "android": "https://dc.lft.to/lastmile_qr_scan"}, "is_reserved": 0}, {"lon": -77.02390566666666, "bike_id": "6992d98d6ffa662806ce855c8e5d7455", "lat": 38.92804, "fusion_lon": 0.0, "fusion_lat": 0.0, "type": "electric_scooter", "name": "6992d98d6ffa662806ce855c8e5d7455", "is_disabled": 0, "rental_uris": {"ios": "https://dc.lft.to/lastmile_qr_scan", "android": "https://dc.lft.to/lastmile_qr_scan"}, "is_reserved": 0}, {"lon": -77.03185633333334, "bike_id": "13934365d97e6d9320d0f68e7ed1f528", "lat": 38.89222516666667, "fusion_lon": 0.0, "fusion_lat": 0.0, "type": "electric_scooter", "name": "13934365d97e6d9320d0f68e7ed1f528", "is_disabled": 0, "rental_uris": {"ios": "https://dc.lft.to/lastmile_qr_scan", "android": "https://dc.lft.to/lastmile_qr_scan"}, "is_reserved": 0}, {"lon": -77.031836, "bike_id": "58056e8dce251105f44b5dd6dbab9191", "lat": 38.89224516666667, "fusion_lon": 0.0, "fusion_lat": 0.0, "type": "electric_scooter", "name": "58056e8dce251105f44b5dd6dbab9191", "is_disabled": 0, "rental_uris": {"ios": "https://dc.lft.to/lastmile_qr_scan", "android": "https://dc.lft.to/lastmile_qr_scan"}, "is_reserved": 0}, {"lon": -76.9895235, "bike_id": "2e274b2d8b033e7eee8d78a334adb85b", "lat": 38.86686383333333, "fusion_lon": 0.0, "fusion_lat": 0.0, "type": "electric_bike", "name": "2e274b2d8b033e7eee8d78a334adb85b", "is_disabled": 0, "rental_uris": {"ios": "https://dc.lft.to/lastmile_qr_scan", "android": "https://dc.lft.to/lastmile_qr_scan"}, "is_reserved": 0}, {"lon": -76.9858335, "bike_id": "6b5b12d50b9c2cd82f34b75548725911", "lat": 38.86683766666667, "fusion_lon": 0.0, "fusion_lat": 0.0, "type": "electric_scooter", "name": "6b5b12d50b9c2cd82f34b75548725911", "is_disabled": 0, "rental_uris": {"ios": "https://dc.lft.to/lastmile_qr_scan", "android": "https://dc.lft.to/lastmile_qr_scan"}, "is_reserved": 0}, {"lon": -77.0262445, "bike_id": "d4c24ae2d72c7f1ac7a0494c073ccca3", "lat": 38.899923, "fusion_lon": 0.0, "fusion_lat": 0.0, "type": "electric_scooter", "name": "d4c24ae2d72c7f1ac7a0494c073ccca3", "is_disabled": 0, "rental_uris": {"ios": "https://dc.lft.to/lastmile_qr_scan", "android": "https://dc.lft.to/lastmile_qr_scan"}, "is_reserved": 0}, {"lon": -77.0345035, "bike_id": "f0b904e9debf04b8572a20077b1b5020", "lat": 38.90586233333333, "fusion_lon": 0.0, "fusion_lat": 0.0, "type": "electric_scooter", "name": "f0b904e9debf04b8572a20077b1b5020", "is_disabled": 0, "rental_uris": {"ios": "https://dc.lft.to/lastmile_qr_scan", "android": "https://dc.lft.to/lastmile_qr_scan"}, "is_reserved": 0}, {"lon": -77.04893916666667, "bike_id": "a56bcf3a2701ebbfd81a6f2d4fc196f3", "lat": 38.89224683333333, "fusion_lon": 0.0, "fusion_lat": 0.0, "type": "electric_scooter", "name": "a56bcf3a2701ebbfd81a6f2d4fc196f3", "is_disabled": 0, "rental_uris": {"ios": "https://dc.lft.to/lastmile_qr_scan", "android": "https://dc.lft.to/lastmile_qr_scan"}, "is_reserved": 0}, {"lon": -77.02220816666667, "bike_id": "6ea02ce0ab73b85a0bca1e6e1754ac7e", "lat": 38.89220816666667, "fusion_lon": 0.0, "fusion_lat": 0.0, "type": "electric_scooter", "name": "6ea02ce0ab73b85a0bca1e6e1754ac7e", "is_disabled": 0, "rental_uris": {"ios": "https://dc.lft.to/lastmile_qr_scan", "android": "https://dc.lft.to/lastmile_qr_scan"}, "is_reserved": 0}, {"lon": -77.02514566666666, "bike_id": "a064bdf645af25c70cd7453be8412ff3", "lat": 38.92078816666667, "fusion_lon": 0.0, "fusion_lat": 0.0, "type": "electric_scooter", "name": "a064bdf645af25c70cd7453be8412ff3", "is_disabled": 0, "rental_uris": {"ios": "https://dc.lft.to/lastmile_qr_scan", "android": "https://dc.lft.to/lastmile_qr_scan"}, "is_reserved": 0}, {"lon": -77.054384, "bike_id": "5665de5e219daae738bfb63ae2f04553", "lat": 38.90373433333333, "fusion_lon": 0.0, "fusion_lat": 0.0, "type": "electric_scooter", "name": "5665de5e219daae738bfb63ae2f04553", "is_disabled": 0, "rental_uris": {"ios": "https://dc.lft.to/lastmile_qr_scan", "android": "https://dc.lft.to/lastmile_qr_scan"}, "is_reserved": 0}, {"lon": -77.00039733333334, "bike_id": "5f8fd37953e9466ebf15772f98163b65", "lat": 38.87506583333333, "fusion_lon": 0.0, "fusion_lat": 0.0, "type": "electric_scooter", "name": "5f8fd37953e9466ebf15772f98163b65", "is_disabled": 0, "rental_uris": {"ios": "https://dc.lft.to/lastmile_qr_scan", "android": "https://dc.lft.to/lastmile_qr_scan"}, "is_reserved": 0}, {"lon": -77.02623083333333, "bike_id": "646f61399d9bacdb147711d77e710452", "lat": 38.89221516666667, "fusion_lon": 0.0, "fusion_lat": 0.0, "type": "electric_scooter", "name": "646f61399d9bacdb147711d77e710452", "is_disabled": 0, "rental_uris": {"ios": "https://dc.lft.to/lastmile_qr_scan", "android": "https://dc.lft.to/lastmile_qr_scan"}, "is_reserved": 0}, {"lon": -77.031738, "bike_id": "563b7090fb1df59a872388658c7c532b", "lat": 38.915539333333335, "fusion_lon": 0.0, "fusion_lat": 0.0, "type": "electric_scooter", "name": "563b7090fb1df59a872388658c7c532b", "is_disabled": 0, "rental_uris": {"ios": "https://dc.lft.to/lastmile_qr_scan", "android": "https://dc.lft.to/lastmile_qr_scan"}, "is_reserved": 0}, {"lon": -77.06522566666666, "bike_id": "5d842a5bdeb4b4eb6f958e9135f3c195", "lat": 38.90405283333333, "fusion_lon": 0.0, "fusion_lat": 0.0, "type": "electric_scooter", "name": "5d842a5bdeb4b4eb6f958e9135f3c195", "is_disabled": 0, "rental_uris": {"ios": "https://dc.lft.to/lastmile_qr_scan", "android": "https://dc.lft.to/lastmile_qr_scan"}, "is_reserved": 0}, {"lon": -76.974783, "bike_id": "a52534c3a3c71fb6737bb918e7e42d67", "lat": 38.90352566666667, "fusion_lon": 0.0, "fusion_lat": 0.0, "type": "electric_scooter", "name": "a52534c3a3c71fb6737bb918e7e42d67", "is_disabled": 0, "rental_uris": {"ios": "https://dc.lft.to/lastmile_qr_scan", "android": "https://dc.lft.to/lastmile_qr_scan"}, "is_reserved": 0}, {"lon": -77.042404, "bike_id": "1e9dd21ca11a56d0509659d74ae40296", "lat": 38.913442333333336, "fusion_lon": 0.0, "fusion_lat": 0.0, "type": "electric_scooter", "name": "1e9dd21ca11a56d0509659d74ae40296", "is_disabled": 0, "rental_uris": {"ios": "https://dc.lft.to/lastmile_qr_scan", "android": "https://dc.lft.to/lastmile_qr_scan"}, "is_reserved": 0}, {"lon": -77.05854783333334, "bike_id": "12b96881612912f1ab03f1623e5f74d6", "lat": 38.936048, "fusion_lon": 0.0, "fusion_lat": 0.0, "type": "electric_bike", "name": "12b96881612912f1ab03f1623e5f74d6", "is_disabled": 0, "rental_uris": {"ios": "https://dc.lft.to/lastmile_qr_scan", "android": "https://dc.lft.to/lastmile_qr_scan"}, "is_reserved": 0}, {"lon": -77.02505933333333, "bike_id": "61c935721dcfad0d6a0f6265b7a55ca5", "lat": 38.920726333333334, "fusion_lon": 0.0, "fusion_lat": 0.0, "type": "electric_scooter", "name": "61c935721dcfad0d6a0f6265b7a55ca5", "is_disabled": 0, "rental_uris": {"ios": "https://dc.lft.to/lastmile_qr_scan", "android": "https://dc.lft.to/lastmile_qr_scan"}, "is_reserved": 0}, {"lon": -76.99086666666666, "bike_id": "c4cc273706952fb3231cfda93d786d5f", "lat": 38.862376166666664, "fusion_lon": 0.0, "fusion_lat": 0.0, "type": "electric_bike", "name": "c4cc273706952fb3231cfda93d786d5f", "is_disabled": 0, "rental_uris": {"ios": "https://dc.lft.to/lastmile_qr_scan", "android": "https://dc.lft.to/lastmile_qr_scan"}, "is_reserved": 0}, {"lon": -77.01938233333334, "bike_id": "6cc46b006e28718dec5eb0033433a5a3", "lat": 38.935233333333336, "fusion_lon": 0.0, "fusion_lat": 0.0, "type": "electric_scooter", "name": "6cc46b006e28718dec5eb0033433a5a3", "is_disabled": 0, "rental_uris": {"ios": "https://dc.lft.to/lastmile_qr_scan", "android": "https://dc.lft.to/lastmile_qr_scan"}, "is_reserved": 0}, {"lon": -76.9953425, "bike_id": "5534d77ea0f68d25e287474ab30be6ac", "lat": 38.88374316666667, "fusion_lon": 0.0, "fusion_lat": 0.0, "type": "electric_scooter", "name": "5534d77ea0f68d25e287474ab30be6ac", "is_disabled": 0, "rental_uris": {"ios": "https://dc.lft.to/lastmile_qr_scan", "android": "https://dc.lft.to/lastmile_qr_scan"}, "is_reserved": 0}, {"lon": -77.08071816666667, "bike_id": "c8547e5610a0c81bb44cc7e04bbbf81a", "lat": 39.052788166666666, "fusion_lon": 0.0, "fusion_lat": 0.0, "type": "electric_bike", "name": "c8547e5610a0c81bb44cc7e04bbbf81a", "is_disabled": 0, "rental_uris": {"ios": "https://dc.lft.to/lastmile_qr_scan", "android": "https://dc.lft.to/lastmile_qr_scan"}, "is_reserved": 0}, {"lon": -77.006458, "bike_id": "5912ddb91db34be6de587c6b20d674cb", "lat": 38.926170666666664, "fusion_lon": 0.0, "fusion_lat": 0.0, "type": "electric_scooter", "name": "5912ddb91db34be6de587c6b20d674cb", "is_disabled": 0, "rental_uris": {"ios": "https://dc.lft.to/lastmile_qr_scan", "android": "https://dc.lft.to/lastmile_qr_scan"}, "is_reserved": 0}, {"lon": -77.022251, "bike_id": "85d8ebf0e31e7076dab0ebaa1594b300", "lat": 38.95687816666667, "fusion_lon": 0.0, "fusion_lat": 0.0, "type": "electric_bike", "name": "85d8ebf0e31e7076dab0ebaa1594b300", "is_disabled": 0, "rental_uris": {"ios": "https://dc.lft.to/lastmile_qr_scan", "android": "https://dc.lft.to/lastmile_qr_scan"}, "is_reserved": 0}, {"lon": -76.99836833333333, "bike_id": "f49a8d790f3a2f9d8348b9f4b4fb3b7b", "lat": 38.90492016666666, "fusion_lon": 0.0, "fusion_lat": 0.0, "type": "electric_scooter", "name": "f49a8d790f3a2f9d8348b9f4b4fb3b7b", "is_disabled": 0, "rental_uris": {"ios": "https://dc.lft.to/lastmile_qr_scan", "android": "https://dc.lft.to/lastmile_qr_scan"}, "is_reserved": 0}, {"lon": -77.02092666666667, "bike_id": "0fa7f1fa96023c50c3b9e8b1ae523645", "lat": 38.927055833333334, "fusion_lon": 0.0, "fusion_lat": 0.0, "type": "electric_scooter", "name": "0fa7f1fa96023c50c3b9e8b1ae523645", "is_disabled": 0, "rental_uris": {"ios": "https://dc.lft.to/lastmile_qr_scan", "android": "https://dc.lft.to/lastmile_qr_scan"}, "is_reserved": 0}, {"lon": -77.01764783333333, "bike_id": "e91c4aa3c66a277f13df3f509ab6d6f3", "lat": 38.887312, "fusion_lon": 0.0, "fusion_lat": 0.0, "type": "electric_scooter", "name": "e91c4aa3c66a277f13df3f509ab6d6f3", "is_disabled": 0, "rental_uris": {"ios": "https://dc.lft.to/lastmile_qr_scan", "android": "https://dc.lft.to/lastmile_qr_scan"}, "is_reserved": 0}, {"lon": -76.97359316666666, "bike_id": "4cb813d3b6e37988815baec2b0b400d1", "lat": 38.873361, "fusion_lon": 0.0, "fusion_lat": 0.0, "type": "electric_scooter", "name": "4cb813d3b6e37988815baec2b0b400d1", "is_disabled": 0, "rental_uris": {"ios": "https://dc.lft.to/lastmile_qr_scan", "android": "https://dc.lft.to/lastmile_qr_scan"}, "is_reserved": 0}, {"lon": -77.034559, "bike_id": "e3b17d6ee377506f8d934c4da59f66fa", "lat": 38.90728466666667, "fusion_lon": 0.0, "fusion_lat": 0.0, "type": "electric_scooter", "name": "e3b17d6ee377506f8d934c4da59f66fa", "is_disabled": 0, "rental_uris": {"ios": "https://dc.lft.to/lastmile_qr_scan", "android": "https://dc.lft.to/lastmile_qr_scan"}, "is_reserved": 0}, {"lon": -77.0298155, "bike_id": "e6f685bf7c434384e19b985287623d55", "lat": 38.932478833333334, "fusion_lon": 0.0, "fusion_lat": 0.0, "type": "electric_scooter", "name": "e6f685bf7c434384e19b985287623d55", "is_disabled": 0, "rental_uris": {"ios": "https://dc.lft.to/lastmile_qr_scan", "android": "https://dc.lft.to/lastmile_qr_scan"}, "is_reserved": 0}, {"lon": -77.02422633333333, "bike_id": "d9d5ccf64da69f7050e5eaa81cc0a3eb", "lat": 38.91826533333333, "fusion_lon": 0.0, "fusion_lat": 0.0, "type": "electric_scooter", "name": "d9d5ccf64da69f7050e5eaa81cc0a3eb", "is_disabled": 0, "rental_uris": {"ios": "https://dc.lft.to/lastmile_qr_scan", "android": "https://dc.lft.to/lastmile_qr_scan"}, "is_reserved": 0}, {"lon": -77.01757683333334, "bike_id": "858e816a02c83fe31a335f16857dcd60", "lat": 38.876666666666665, "fusion_lon": 0.0, "fusion_lat": 0.0, "type": "electric_scooter", "name": "858e816a02c83fe31a335f16857dcd60", "is_disabled": 0, "rental_uris": {"ios": "https://dc.lft.to/lastmile_qr_scan", "android": "https://dc.lft.to/lastmile_qr_scan"}, "is_reserved": 0}, {"lon": -77.0433585, "bike_id": "a6e17f666e6045a06c2df0195dddca02", "lat": 38.8922355, "fusion_lon": 0.0, "fusion_lat": 0.0, "type": "electric_scooter", "name": "a6e17f666e6045a06c2df0195dddca02", "is_disabled": 0, "rental_uris": {"ios": "https://dc.lft.to/lastmile_qr_scan", "android": "https://dc.lft.to/lastmile_qr_scan"}, "is_reserved": 0}, {"lon": -77.02181233333333, "bike_id": "e4dc7bb38463ccf6b729c27ce5e5fba4", "lat": 38.914817666666664, "fusion_lon": 0.0, "fusion_lat": 0.0, "type": "electric_scooter", "name": "e4dc7bb38463ccf6b729c27ce5e5fba4", "is_disabled": 0, "rental_uris": {"ios": "https://dc.lft.to/lastmile_qr_scan", "android": "https://dc.lft.to/lastmile_qr_scan"}, "is_reserved": 0}, {"lon": -77.02449566666667, "bike_id": "e70845e1d24afc42dd55df075a64acaf", "lat": 38.914124666666666, "fusion_lon": 0.0, "fusion_lat": 0.0, "type": "electric_scooter", "name": "e70845e1d24afc42dd55df075a64acaf", "is_disabled": 0, "rental_uris": {"ios": "https://dc.lft.to/lastmile_qr_scan", "android": "https://dc.lft.to/lastmile_qr_scan"}, "is_reserved": 0}, {"lon": -77.00829983333334, "bike_id": "85b8508bc250dd6471e2eb5eefba3773", "lat": 38.87923516666667, "fusion_lon": 0.0, "fusion_lat": 0.0, "type": "electric_scooter", "name": "85b8508bc250dd6471e2eb5eefba3773", "is_disabled": 0, "rental_uris": {"ios": "https://dc.lft.to/lastmile_qr_scan", "android": "https://dc.lft.to/lastmile_qr_scan"}, "is_reserved": 0}, {"lon": -77.04355683333333, "bike_id": "8eb14b9820dd861a4ec3f639941e629b", "lat": 38.921513, "fusion_lon": 0.0, "fusion_lat": 0.0, "type": "electric_scooter", "name": "8eb14b9820dd861a4ec3f639941e629b", "is_disabled": 0, "rental_uris": {"ios": "https://dc.lft.to/lastmile_qr_scan", "android": "https://dc.lft.to/lastmile_qr_scan"}, "is_reserved": 0}, {"lon": -76.9488, "bike_id": "08ba111c31cbdea541fac39cec91ebca", "lat": 38.895061, "fusion_lon": 0.0, "fusion_lat": 0.0, "type": "electric_scooter", "name": "08ba111c31cbdea541fac39cec91ebca", "is_disabled": 0, "rental_uris": {"ios": "https://dc.lft.to/lastmile_qr_scan", "android": "https://dc.lft.to/lastmile_qr_scan"}, "is_reserved": 0}, {"lon": -77.02120866666667, "bike_id": "81c4234b0c001b0f3141dc126c391b39", "lat": 38.9370005, "fusion_lon": 0.0, "fusion_lat": 0.0, "type": "electric_scooter", "name": "81c4234b0c001b0f3141dc126c391b39", "is_disabled": 0, "rental_uris": {"ios": "https://dc.lft.to/lastmile_qr_scan", "android": "https://dc.lft.to/lastmile_qr_scan"}, "is_reserved": 0}, {"lon": -77.04175083333334, "bike_id": "72833f8828fb92a4f6f65e8de88b9a02", "lat": 38.917953, "fusion_lon": 0.0, "fusion_lat": 0.0, "type": "electric_scooter", "name": "72833f8828fb92a4f6f65e8de88b9a02", "is_disabled": 0, "rental_uris": {"ios": "https://dc.lft.to/lastmile_qr_scan", "android": "https://dc.lft.to/lastmile_qr_scan"}, "is_reserved": 0}, {"lon": -77.0569795, "bike_id": "8635f001255daf14023442a02c93c26e", "lat": 38.90539916666667, "fusion_lon": 0.0, "fusion_lat": 0.0, "type": "electric_scooter", "name": "8635f001255daf14023442a02c93c26e", "is_disabled": 0, "rental_uris": {"ios": "https://dc.lft.to/lastmile_qr_scan", "android": "https://dc.lft.to/lastmile_qr_scan"}, "is_reserved": 0}, {"lon": -77.046972, "bike_id": "8be8476a42cd841f1199b491e0ca49cf", "lat": 38.90532733333333, "fusion_lon": 0.0, "fusion_lat": 0.0, "type": "electric_scooter", "name": "8be8476a42cd841f1199b491e0ca49cf", "is_disabled": 0, "rental_uris": {"ios": "https://dc.lft.to/lastmile_qr_scan", "android": "https://dc.lft.to/lastmile_qr_scan"}, "is_reserved": 0}, {"lon": -77.090726, "bike_id": "13ee62eb9ddcba53af7f9af38b73c73f", "lat": 38.978538666666665, "fusion_lon": 0.0, "fusion_lat": 0.0, "type": "electric_bike", "name": "13ee62eb9ddcba53af7f9af38b73c73f", "is_disabled": 0, "rental_uris": {"ios": "https://dc.lft.to/lastmile_qr_scan", "android": "https://dc.lft.to/lastmile_qr_scan"}, "is_reserved": 0}, {"lon": -77.025143, "bike_id": "43dfdc0aad585dd14aec84231725e930", "lat": 38.919199, "fusion_lon": 0.0, "fusion_lat": 0.0, "type": "electric_scooter", "name": "43dfdc0aad585dd14aec84231725e930", "is_disabled": 0, "rental_uris": {"ios": "https://dc.lft.to/lastmile_qr_scan", "android": "https://dc.lft.to/lastmile_qr_scan"}, "is_reserved": 0}, {"lon": -77.01928066666666, "bike_id": "ebe7a0fd5c53037a5376c7efd21589ef", "lat": 38.9221715, "fusion_lon": 0.0, "fusion_lat": 0.0, "type": "electric_scooter", "name": "ebe7a0fd5c53037a5376c7efd21589ef", "is_disabled": 0, "rental_uris": {"ios": "https://dc.lft.to/lastmile_qr_scan", "android": "https://dc.lft.to/lastmile_qr_scan"}, "is_reserved": 0}, {"lon": -77.02713166666666, "bike_id": "505e47e3adcd34b74d4adec4ff3bb8e6", "lat": 38.916898, "fusion_lon": 0.0, "fusion_lat": 0.0, "type": "electric_scooter", "name": "505e47e3adcd34b74d4adec4ff3bb8e6", "is_disabled": 0, "rental_uris": {"ios": "https://dc.lft.to/lastmile_qr_scan", "android": "https://dc.lft.to/lastmile_qr_scan"}, "is_reserved": 0}, {"lon": -77.0153735, "bike_id": "6eeb8ee0987a5ffa7f22c3451418babc", "lat": 38.90256616666667, "fusion_lon": 0.0, "fusion_lat": 0.0, "type": "electric_scooter", "name": "6eeb8ee0987a5ffa7f22c3451418babc", "is_disabled": 0, "rental_uris": {"ios": "https://dc.lft.to/lastmile_qr_scan", "android": "https://dc.lft.to/lastmile_qr_scan"}, "is_reserved": 0}, {"lon": -77.02416, "bike_id": "dbd24dcde3ddb22aa798af778e131d32", "lat": 38.92068883333334, "fusion_lon": 0.0, "fusion_lat": 0.0, "type": "electric_scooter", "name": "dbd24dcde3ddb22aa798af778e131d32", "is_disabled": 0, "rental_uris": {"ios": "https://dc.lft.to/lastmile_qr_scan", "android": "https://dc.lft.to/lastmile_qr_scan"}, "is_reserved": 0}, {"lon": -77.067824, "bike_id": "7ba2e363b2ba80f32fbbc10343fac807", "lat": 38.90457833333333, "fusion_lon": 0.0, "fusion_lat": 0.0, "type": "electric_scooter", "name": "7ba2e363b2ba80f32fbbc10343fac807", "is_disabled": 0, "rental_uris": {"ios": "https://dc.lft.to/lastmile_qr_scan", "android": "https://dc.lft.to/lastmile_qr_scan"}, "is_reserved": 0}, {"lon": -77.13099816666667, "bike_id": "b5b4f1ce1ad593c63194576b8daa020f", "lat": 39.02432666666667, "fusion_lon": 0.0, "fusion_lat": 0.0, "type": "electric_bike", "name": "b5b4f1ce1ad593c63194576b8daa020f", "is_disabled": 0, "rental_uris": {"ios": "https://dc.lft.to/lastmile_qr_scan", "android": "https://dc.lft.to/lastmile_qr_scan"}, "is_reserved": 0}, {"lon": -77.018502, "bike_id": "213f774e82ede0b00b3ec71363cdbb27", "lat": 38.903910333333336, "fusion_lon": 0.0, "fusion_lat": 0.0, "type": "electric_scooter", "name": "213f774e82ede0b00b3ec71363cdbb27", "is_disabled": 0, "rental_uris": {"ios": "https://dc.lft.to/lastmile_qr_scan", "android": "https://dc.lft.to/lastmile_qr_scan"}, "is_reserved": 0}, {"lon": -77.03857616666667, "bike_id": "a6c73ecd006d021c774842d1ef92f39c", "lat": 38.915507166666664, "fusion_lon": 0.0, "fusion_lat": 0.0, "type": "electric_scooter", "name": "a6c73ecd006d021c774842d1ef92f39c", "is_disabled": 0, "rental_uris": {"ios": "https://dc.lft.to/lastmile_qr_scan", "android": "https://dc.lft.to/lastmile_qr_scan"}, "is_reserved": 0}, {"lon": -77.03256866666666, "bike_id": "a066f8fa7007aa211463d758007dc539", "lat": 38.92553233333334, "fusion_lon": 0.0, "fusion_lat": 0.0, "type": "electric_scooter", "name": "a066f8fa7007aa211463d758007dc539", "is_disabled": 0, "rental_uris": {"ios": "https://dc.lft.to/lastmile_qr_scan", "android": "https://dc.lft.to/lastmile_qr_scan"}, "is_reserved": 0}, {"lon": -76.99594266666666, "bike_id": "7eeacc1085f9f595dc04e4b89c8f4ada", "lat": 38.88428183333333, "fusion_lon": 0.0, "fusion_lat": 0.0, "type": "electric_scooter", "name": "7eeacc1085f9f595dc04e4b89c8f4ada", "is_disabled": 0, "rental_uris": {"ios": "https://dc.lft.to/lastmile_qr_scan", "android": "https://dc.lft.to/lastmile_qr_scan"}, "is_reserved": 0}, {"lon": -77.04173966666667, "bike_id": "48c3b4e691dff3d5412da135b0351df9", "lat": 38.917975166666665, "fusion_lon": 0.0, "fusion_lat": 0.0, "type": "electric_scooter", "name": "48c3b4e691dff3d5412da135b0351df9", "is_disabled": 0, "rental_uris": {"ios": "https://dc.lft.to/lastmile_qr_scan", "android": "https://dc.lft.to/lastmile_qr_scan"}, "is_reserved": 0}, {"lon": -77.02849933333333, "bike_id": "f946de935667c31196f3d1f23289c935", "lat": 38.933428666666664, "fusion_lon": 0.0, "fusion_lat": 0.0, "type": "electric_scooter", "name": "f946de935667c31196f3d1f23289c935", "is_disabled": 0, "rental_uris": {"ios": "https://dc.lft.to/lastmile_qr_scan", "android": "https://dc.lft.to/lastmile_qr_scan"}, "is_reserved": 0}, {"lon": -76.949219, "bike_id": "19581e41d6375cf9e83adbd580070b0d", "lat": 38.893559, "fusion_lon": 0.0, "fusion_lat": 0.0, "type": "electric_scooter", "name": "19581e41d6375cf9e83adbd580070b0d", "is_disabled": 0, "rental_uris": {"ios": "https://dc.lft.to/lastmile_qr_scan", "android": "https://dc.lft.to/lastmile_qr_scan"}, "is_reserved": 0}, {"lon": -77.04141066666666, "bike_id": "a957d829e3bcf9e00a2d06069cff3f61", "lat": 38.92659183333333, "fusion_lon": 0.0, "fusion_lat": 0.0, "type": "electric_scooter", "name": "a957d829e3bcf9e00a2d06069cff3f61", "is_disabled": 0, "rental_uris": {"ios": "https://dc.lft.to/lastmile_qr_scan", "android": "https://dc.lft.to/lastmile_qr_scan"}, "is_reserved": 0}, {"lon": -77.06407483333334, "bike_id": "24e9013e5cef85bdc6fe1b7d7c1c05db", "lat": 38.9078295, "fusion_lon": 0.0, "fusion_lat": 0.0, "type": "electric_scooter", "name": "24e9013e5cef85bdc6fe1b7d7c1c05db", "is_disabled": 0, "rental_uris": {"ios": "https://dc.lft.to/lastmile_qr_scan", "android": "https://dc.lft.to/lastmile_qr_scan"}, "is_reserved": 0}, {"lon": -76.98941916666666, "bike_id": "d068762c14a7db4a88d1a79a82290e0a", "lat": 38.90392516666667, "fusion_lon": 0.0, "fusion_lat": 0.0, "type": "electric_scooter", "name": "d068762c14a7db4a88d1a79a82290e0a", "is_disabled": 0, "rental_uris": {"ios": "https://dc.lft.to/lastmile_qr_scan", "android": "https://dc.lft.to/lastmile_qr_scan"}, "is_reserved": 0}, {"lon": -77.05864016666666, "bike_id": "69adfa56d880f3cc76ff0d8c8113cbe8", "lat": 38.93606583333333, "fusion_lon": 0.0, "fusion_lat": 0.0, "type": "electric_scooter", "name": "69adfa56d880f3cc76ff0d8c8113cbe8", "is_disabled": 0, "rental_uris": {"ios": "https://dc.lft.to/lastmile_qr_scan", "android": "https://dc.lft.to/lastmile_qr_scan"}, "is_reserved": 0}, {"lon": -77.00975, "bike_id": "4583854f5be7f5289a30020fc67b0621", "lat": 38.8948375, "fusion_lon": 0.0, "fusion_lat": 0.0, "type": "electric_scooter", "name": "4583854f5be7f5289a30020fc67b0621", "is_disabled": 0, "rental_uris": {"ios": "https://dc.lft.to/lastmile_qr_scan", "android": "https://dc.lft.to/lastmile_qr_scan"}, "is_reserved": 0}, {"lon": -77.07431333333334, "bike_id": "4a5ba8d7dfdff215449a042a5e11c7b0", "lat": 38.99941883333334, "fusion_lon": 0.0, "fusion_lat": 0.0, "type": "electric_bike", "name": "4a5ba8d7dfdff215449a042a5e11c7b0", "is_disabled": 0, "rental_uris": {"ios": "https://dc.lft.to/lastmile_qr_scan", "android": "https://dc.lft.to/lastmile_qr_scan"}, "is_reserved": 0}, {"lon": -77.0477095, "bike_id": "b24321329847f782b9aa3211c8e9f7cf", "lat": 38.9098385, "fusion_lon": 0.0, "fusion_lat": 0.0, "type": "electric_scooter", "name": "b24321329847f782b9aa3211c8e9f7cf", "is_disabled": 0, "rental_uris": {"ios": "https://dc.lft.to/lastmile_qr_scan", "android": "https://dc.lft.to/lastmile_qr_scan"}, "is_reserved": 0}, {"lon": -77.0580865, "bike_id": "4f312e0b86a17477bb0b3c79c4aecc7b", "lat": 38.82392083333333, "fusion_lon": 0.0, "fusion_lat": 0.0, "type": "electric_bike", "name": "4f312e0b86a17477bb0b3c79c4aecc7b", "is_disabled": 0, "rental_uris": {"ios": "https://dc.lft.to/lastmile_qr_scan", "android": "https://dc.lft.to/lastmile_qr_scan"}, "is_reserved": 0}, {"lon": -76.98718316666667, "bike_id": "58f9a7bc35c63c4769b45b5e6b4150f9", "lat": 38.86627216666667, "fusion_lon": 0.0, "fusion_lat": 0.0, "type": "electric_scooter", "name": "58f9a7bc35c63c4769b45b5e6b4150f9", "is_disabled": 0, "rental_uris": {"ios": "https://dc.lft.to/lastmile_qr_scan", "android": "https://dc.lft.to/lastmile_qr_scan"}, "is_reserved": 0}, {"lon": -77.02428883333333, "bike_id": "8c1f33c7ff467d229582633bda6adc63", "lat": 38.920434, "fusion_lon": 0.0, "fusion_lat": 0.0, "type": "electric_scooter", "name": "8c1f33c7ff467d229582633bda6adc63", "is_disabled": 0, "rental_uris": {"ios": "https://dc.lft.to/lastmile_qr_scan", "android": "https://dc.lft.to/lastmile_qr_scan"}, "is_reserved": 0}, {"lon": -77.01089483333334, "bike_id": "d9bcb394ec0fc5c0d93763d938979bc2", "lat": 38.90662366666667, "fusion_lon": 0.0, "fusion_lat": 0.0, "type": "electric_bike", "name": "d9bcb394ec0fc5c0d93763d938979bc2", "is_disabled": 0, "rental_uris": {"ios": "https://dc.lft.to/lastmile_qr_scan", "android": "https://dc.lft.to/lastmile_qr_scan"}, "is_reserved": 0}, {"lon": -77.05217983333333, "bike_id": "8543068f11caf50d3b8c7fdb9c7bc7a3", "lat": 38.92486983333333, "fusion_lon": 0.0, "fusion_lat": 0.0, "type": "electric_scooter", "name": "8543068f11caf50d3b8c7fdb9c7bc7a3", "is_disabled": 0, "rental_uris": {"ios": "https://dc.lft.to/lastmile_qr_scan", "android": "https://dc.lft.to/lastmile_qr_scan"}, "is_reserved": 0}, {"lon": -77.04422166666667, "bike_id": "5b4b5888e2c17882a34e0968031c6330", "lat": 38.9211575, "fusion_lon": 0.0, "fusion_lat": 0.0, "type": "electric_scooter", "name": "5b4b5888e2c17882a34e0968031c6330", "is_disabled": 0, "rental_uris": {"ios": "https://dc.lft.to/lastmile_qr_scan", "android": "https://dc.lft.to/lastmile_qr_scan"}, "is_reserved": 0}, {"lon": -77.0249035, "bike_id": "1b2f65082a5586cc79213a411fa32e9a", "lat": 38.919301833333336, "fusion_lon": 0.0, "fusion_lat": 0.0, "type": "electric_scooter", "name": "1b2f65082a5586cc79213a411fa32e9a", "is_disabled": 0, "rental_uris": {"ios": "https://dc.lft.to/lastmile_qr_scan", "android": "https://dc.lft.to/lastmile_qr_scan"}, "is_reserved": 0}, {"lon": -77.07293333333334, "bike_id": "d4ed8fc9379d6572e1c3510e3eaccc26", "lat": 38.931035333333334, "fusion_lon": 0.0, "fusion_lat": 0.0, "type": "electric_scooter", "name": "d4ed8fc9379d6572e1c3510e3eaccc26", "is_disabled": 0, "rental_uris": {"ios": "https://dc.lft.to/lastmile_qr_scan", "android": "https://dc.lft.to/lastmile_qr_scan"}, "is_reserved": 0}, {"lon": -77.03347033333333, "bike_id": "d0e03ad6721af7184e2f926037c1bb9c", "lat": 38.89239116666667, "fusion_lon": 0.0, "fusion_lat": 0.0, "type": "electric_scooter", "name": "d0e03ad6721af7184e2f926037c1bb9c", "is_disabled": 0, "rental_uris": {"ios": "https://dc.lft.to/lastmile_qr_scan", "android": "https://dc.lft.to/lastmile_qr_scan"}, "is_reserved": 0}, {"lon": -77.02303866666666, "bike_id": "8d2820bc543b851ac7321d8ff9ea9f59", "lat": 38.91706116666667, "fusion_lon": 0.0, "fusion_lat": 0.0, "type": "electric_scooter", "name": "8d2820bc543b851ac7321d8ff9ea9f59", "is_disabled": 0, "rental_uris": {"ios": "https://dc.lft.to/lastmile_qr_scan", "android": "https://dc.lft.to/lastmile_qr_scan"}, "is_reserved": 0}, {"lon": -77.02172416666667, "bike_id": "b8f1d49125d07b8802aee0acf9af4015", "lat": 38.90853716666667, "fusion_lon": 0.0, "fusion_lat": 0.0, "type": "electric_scooter", "name": "b8f1d49125d07b8802aee0acf9af4015", "is_disabled": 0, "rental_uris": {"ios": "https://dc.lft.to/lastmile_qr_scan", "android": "https://dc.lft.to/lastmile_qr_scan"}, "is_reserved": 0}, {"lon": -77.0416385, "bike_id": "e12ddbf46760e2ce8652353080c0f7f2", "lat": 38.912518666666664, "fusion_lon": 0.0, "fusion_lat": 0.0, "type": "electric_scooter", "name": "e12ddbf46760e2ce8652353080c0f7f2", "is_disabled": 0, "rental_uris": {"ios": "https://dc.lft.to/lastmile_qr_scan", "android": "https://dc.lft.to/lastmile_qr_scan"}, "is_reserved": 0}, {"lon": -77.04379066666667, "bike_id": "77dd73c922790447d683f924b26f1105", "lat": 38.920679666666665, "fusion_lon": 0.0, "fusion_lat": 0.0, "type": "electric_scooter", "name": "77dd73c922790447d683f924b26f1105", "is_disabled": 0, "rental_uris": {"ios": "https://dc.lft.to/lastmile_qr_scan", "android": "https://dc.lft.to/lastmile_qr_scan"}, "is_reserved": 0}, {"lon": -77.01657533333334, "bike_id": "ff4522a83cf37f8979bfd12ec8c5ddfb", "lat": 38.928983333333335, "fusion_lon": 0.0, "fusion_lat": 0.0, "type": "electric_scooter", "name": "ff4522a83cf37f8979bfd12ec8c5ddfb", "is_disabled": 0, "rental_uris": {"ios": "https://dc.lft.to/lastmile_qr_scan", "android": "https://dc.lft.to/lastmile_qr_scan"}, "is_reserved": 0}, {"lon": -77.05808683333333, "bike_id": "a02a05935eb990810b229b03be45dd68", "lat": 38.93513166666666, "fusion_lon": 0.0, "fusion_lat": 0.0, "type": "electric_scooter", "name": "a02a05935eb990810b229b03be45dd68", "is_disabled": 0, "rental_uris": {"ios": "https://dc.lft.to/lastmile_qr_scan", "android": "https://dc.lft.to/lastmile_qr_scan"}, "is_reserved": 0}, {"lon": -77.077641, "bike_id": "eb87dbdb72569a88a271caba1a91e6f2", "lat": 38.92562066666667, "fusion_lon": 0.0, "fusion_lat": 0.0, "type": "electric_scooter", "name": "eb87dbdb72569a88a271caba1a91e6f2", "is_disabled": 0, "rental_uris": {"ios": "https://dc.lft.to/lastmile_qr_scan", "android": "https://dc.lft.to/lastmile_qr_scan"}, "is_reserved": 0}, {"lon": -77.02360133333333, "bike_id": "adfbaf2cb1675d76e7160ce37f090df5", "lat": 38.892186833333334, "fusion_lon": 0.0, "fusion_lat": 0.0, "type": "electric_scooter", "name": "adfbaf2cb1675d76e7160ce37f090df5", "is_disabled": 0, "rental_uris": {"ios": "https://dc.lft.to/lastmile_qr_scan", "android": "https://dc.lft.to/lastmile_qr_scan"}, "is_reserved": 0}, {"lon": -77.03197833333333, "bike_id": "7a8c840cdb88c35bf608be817bcba540", "lat": 38.912152666666664, "fusion_lon": 0.0, "fusion_lat": 0.0, "type": "electric_scooter", "name": "7a8c840cdb88c35bf608be817bcba540", "is_disabled": 0, "rental_uris": {"ios": "https://dc.lft.to/lastmile_qr_scan", "android": "https://dc.lft.to/lastmile_qr_scan"}, "is_reserved": 0}, {"lon": -76.93126383333333, "bike_id": "ea6865e25d5693eed70c81ccfaf6535b", "lat": 38.87852266666667, "fusion_lon": 0.0, "fusion_lat": 0.0, "type": "electric_scooter", "name": "ea6865e25d5693eed70c81ccfaf6535b", "is_disabled": 0, "rental_uris": {"ios": "https://dc.lft.to/lastmile_qr_scan", "android": "https://dc.lft.to/lastmile_qr_scan"}, "is_reserved": 0}, {"lon": -77.02591333333334, "bike_id": "c9a6a9a5dc35c886bcb55d1dafcaa93b", "lat": 38.943022666666664, "fusion_lon": 0.0, "fusion_lat": 0.0, "type": "electric_scooter", "name": "c9a6a9a5dc35c886bcb55d1dafcaa93b", "is_disabled": 0, "rental_uris": {"ios": "https://dc.lft.to/lastmile_qr_scan", "android": "https://dc.lft.to/lastmile_qr_scan"}, "is_reserved": 0}, {"lon": -77.017833, "bike_id": "0a0bf0bd1fa89923ec8912cb0e5cbb18", "lat": 38.92043566666667, "fusion_lon": 0.0, "fusion_lat": 0.0, "type": "electric_scooter", "name": "0a0bf0bd1fa89923ec8912cb0e5cbb18", "is_disabled": 0, "rental_uris": {"ios": "https://dc.lft.to/lastmile_qr_scan", "android": "https://dc.lft.to/lastmile_qr_scan"}, "is_reserved": 0}, {"lon": -77.03214583333333, "bike_id": "9c5c827b271b97af9b364d22af87a4e7", "lat": 38.9361755, "fusion_lon": 0.0, "fusion_lat": 0.0, "type": "electric_scooter", "name": "9c5c827b271b97af9b364d22af87a4e7", "is_disabled": 0, "rental_uris": {"ios": "https://dc.lft.to/lastmile_qr_scan", "android": "https://dc.lft.to/lastmile_qr_scan"}, "is_reserved": 0}, {"lon": -77.03192016666667, "bike_id": "01fdbb1ee9521565d348d8bc9e11df8c", "lat": 38.9157325, "fusion_lon": 0.0, "fusion_lat": 0.0, "type": "electric_scooter", "name": "01fdbb1ee9521565d348d8bc9e11df8c", "is_disabled": 0, "rental_uris": {"ios": "https://dc.lft.to/lastmile_qr_scan", "android": "https://dc.lft.to/lastmile_qr_scan"}, "is_reserved": 0}, {"lon": -77.02960183333333, "bike_id": "3f3cda7eeae216eab8fced9128d0f329", "lat": 38.89644083333334, "fusion_lon": 0.0, "fusion_lat": 0.0, "type": "electric_scooter", "name": "3f3cda7eeae216eab8fced9128d0f329", "is_disabled": 0, "rental_uris": {"ios": "https://dc.lft.to/lastmile_qr_scan", "android": "https://dc.lft.to/lastmile_qr_scan"}, "is_reserved": 0}, {"lon": -77.01759433333334, "bike_id": "0486a39e79e7d39e784828a5d22be364", "lat": 38.87663383333334, "fusion_lon": 0.0, "fusion_lat": 0.0, "type": "electric_scooter", "name": "0486a39e79e7d39e784828a5d22be364", "is_disabled": 0, "rental_uris": {"ios": "https://dc.lft.to/lastmile_qr_scan", "android": "https://dc.lft.to/lastmile_qr_scan"}, "is_reserved": 0}, {"lon": -77.05599683333334, "bike_id": "53d54b37fabb63cd4a4abbc0177cf974", "lat": 38.936996666666666, "fusion_lon": 0.0, "fusion_lat": 0.0, "type": "electric_scooter", "name": "53d54b37fabb63cd4a4abbc0177cf974", "is_disabled": 0, "rental_uris": {"ios": "https://dc.lft.to/lastmile_qr_scan", "android": "https://dc.lft.to/lastmile_qr_scan"}, "is_reserved": 0}, {"lon": -76.94625066666667, "bike_id": "6734d8a66aa49a231cbb5b9f91729140", "lat": 38.832303833333334, "fusion_lon": 0.0, "fusion_lat": 0.0, "type": "electric_bike", "name": "6734d8a66aa49a231cbb5b9f91729140", "is_disabled": 0, "rental_uris": {"ios": "https://dc.lft.to/lastmile_qr_scan", "android": "https://dc.lft.to/lastmile_qr_scan"}, "is_reserved": 0}, {"lon": -77.0362915, "bike_id": "6498f225a7ea3e0562442dafc6a38b6b", "lat": 38.915515666666664, "fusion_lon": 0.0, "fusion_lat": 0.0, "type": "electric_scooter", "name": "6498f225a7ea3e0562442dafc6a38b6b", "is_disabled": 0, "rental_uris": {"ios": "https://dc.lft.to/lastmile_qr_scan", "android": "https://dc.lft.to/lastmile_qr_scan"}, "is_reserved": 0}, {"lon": -77.06126216666667, "bike_id": "ea8c15d2978d68e3404b389c0083c48f", "lat": 38.90524, "fusion_lon": 0.0, "fusion_lat": 0.0, "type": "electric_scooter", "name": "ea8c15d2978d68e3404b389c0083c48f", "is_disabled": 0, "rental_uris": {"ios": "https://dc.lft.to/lastmile_qr_scan", "android": "https://dc.lft.to/lastmile_qr_scan"}, "is_reserved": 0}, {"lon": -77.03498066666667, "bike_id": "6aede16a500e5656f919a39e22eaf9c0", "lat": 38.91183766666666, "fusion_lon": 0.0, "fusion_lat": 0.0, "type": "electric_scooter", "name": "6aede16a500e5656f919a39e22eaf9c0", "is_disabled": 0, "rental_uris": {"ios": "https://dc.lft.to/lastmile_qr_scan", "android": "https://dc.lft.to/lastmile_qr_scan"}, "is_reserved": 0}, {"lon": -77.02, "bike_id": "4681210a57758c40c3e098c58bae8a0d", "lat": 38.91161616666667, "fusion_lon": 0.0, "fusion_lat": 0.0, "type": "electric_scooter", "name": "4681210a57758c40c3e098c58bae8a0d", "is_disabled": 0, "rental_uris": {"ios": "https://dc.lft.to/lastmile_qr_scan", "android": "https://dc.lft.to/lastmile_qr_scan"}, "is_reserved": 0}, {"lon": -77.00129933333334, "bike_id": "6f139ceb4947c70b14eeac2a8b787e02", "lat": 38.87823866666667, "fusion_lon": 0.0, "fusion_lat": 0.0, "type": "electric_scooter", "name": "6f139ceb4947c70b14eeac2a8b787e02", "is_disabled": 0, "rental_uris": {"ios": "https://dc.lft.to/lastmile_qr_scan", "android": "https://dc.lft.to/lastmile_qr_scan"}, "is_reserved": 0}, {"lon": -76.93278866666667, "bike_id": "ca4c12eb6fa2a3adc12c81adb1aae1db", "lat": 38.954223, "fusion_lon": 0.0, "fusion_lat": 0.0, "type": "electric_bike", "name": "ca4c12eb6fa2a3adc12c81adb1aae1db", "is_disabled": 0, "rental_uris": {"ios": "https://dc.lft.to/lastmile_qr_scan", "android": "https://dc.lft.to/lastmile_qr_scan"}, "is_reserved": 0}, {"lon": -77.0449475, "bike_id": "2e08ddc4c8b441c904fad9f195e29a01", "lat": 38.90380433333333, "fusion_lon": 0.0, "fusion_lat": 0.0, "type": "electric_scooter", "name": "2e08ddc4c8b441c904fad9f195e29a01", "is_disabled": 0, "rental_uris": {"ios": "https://dc.lft.to/lastmile_qr_scan", "android": "https://dc.lft.to/lastmile_qr_scan"}, "is_reserved": 0},