{"data": {"bikes": [{"rental_uris": {"android": "https://dc.lft.to/lastmile_qr_scan", "ios": "https://dc.lft.to/lastmile_qr_scan"}, "type": "electric_scooter", "lon": -77.046802, "name": "2e2fae5d2f22ddfeceb981b919971747", "bike_id": "2e2fae5d2f22ddfeceb981b919971747", "fusion_lat": 0.0, "is_reserved": 0, "lat": 38.9157305, "fusion_lon": 0.0, "is_disabled": 0}, {"rental_uris": {"android": "https://dc.lft.to/lastmile_qr_scan", "ios": "https://dc.lft.to/lastmile_qr_scan"}, "type": "electric_bike", "lon": -77.1954245, "name": "03ce1b0a1b00302af7b61ead2e1cb796", "bike_id": "03ce1b0a1b00302af7b61ead2e1cb796", "fusion_lat": 0.0, "is_reserved": 0, "lat": 39.115044833333336, "fusion_lon": 0.0, "is_disabled": 0}, {"rental_uris": {"android": "https://dc.lft.to/lastmile_qr_scan", "ios": "https://dc.lft.to/lastmile_qr_scan"}, "type": "electric_scooter", "lon": -76.9982655, "name": "260961580fb3df32401d30816ec43a5c", "bike_id": "260961580fb3df32401d30816ec43a5c", "fusion_lat": 0.0, "is_reserved": 0, "lat": 38.88270583333333, "fusion_lon": 0.0, "is_disabled": 0}, {"rental_uris": {"android": "https://dc.lft.to/lastmile_qr_scan", "ios": "https://dc.lft.to/lastmile_qr_scan"}, "type": "electric_scooter", "lon": -76.9903565, "name": "89a0714e72b4e0bbdd9caf35c746be40", "bike_id": "89a0714e72b4e0bbdd9caf35c746be40", "fusion_lat": 0.0, "is_reserved": 0, "lat": 38.92344816666667, "fusion_lon": 0.0, "is_disabled": 0}, {"rental_uris": {"android": "https://dc.lft.to/lastmile_qr_scan", "ios": "https://dc.lft.to/lastmile_qr_scan"}, "type": "electric_scooter", "lon": -77.03582633333333, "name": "102c5d4ed8824a57de98a2ffb99e8e6a", "bike_id": "102c5d4ed8824a57de98a2ffb99e8e6a", "fusion_lat": 0.0, "is_reserved": 0, "lat": 38.9286365, "fusion_lon": 0.0, "is_disabled": 0}, {"rental_uris": {"android": "https://dc.lft.to/lastmile_qr_scan", "ios": "https://dc.lft.to/lastmile_qr_scan"}, "type": "electric_bike", "lon": -77.049804, "name": "64e8c30c5e97db0c1773176f4d51aee8", "bike_id": "64e8c30c5e97db0c1773176f4d51aee8", "fusion_lat": 0.0, "is_reserved": 0, "lat": 38.99242533333334, "fusion_lon": 0.0, "is_disabled": 0}, {"rental_uris": {"android": "https://dc.lft.to/lastmile_qr_scan", "ios": "https://dc.lft.to/lastmile_qr_scan"}, "type": "electric_bike", "lon": -77.011978, "name": "c9a1836711da06c7dfc1aa6c7290a568", "bike_id": "c9a1836711da06c7dfc1aa6c7290a568", "fusion_lat": 0.0, "is_reserved": 0, "lat": 38.9507145, "fusion_lon": 0.0, "is_disabled": 0}, {"rental_uris": {"android": "https://dc.lft.to/lastmile_qr_scan", "ios": "https://dc.lft.to/lastmile_qr_scan"}, "type": "electric_bike", "lon": -76.9669765, "name": "c185f90d0811dff482efbef7c99a5202", "bike_id": "c185f90d0811dff482efbef7c99a5202", "fusion_lat": 0.0, "is_reserved": 0, "lat": 38.8684235, "fusion_lon": 0.0, "is_disabled": 0}, {"rental_uris": {"android": "https://dc.lft.to/lastmile_qr_scan", "ios": "https://dc.lft.to/lastmile_qr_scan"}, "type": "electric_scooter", "lon": -77.00921, "name": "928e8bb14686ee29cbed3469b30c2182", "bike_id": "928e8bb14686ee29cbed3469b30c2182", "fusion_lat": 0.0, "is_reserved": 0, "lat": 38.8763355, "fusion_lon": 0.0, "is_disabled": 0}, {"rental_uris": {"android": "https://dc.lft.to/lastmile_qr_scan", "ios": "https://dc.lft.to/lastmile_qr_scan"}, "type": "electric_scooter", "lon": -77.02682466666667, "name": "0ab17dee9093b8dbd0b9577ed387a475", "bike_id": "0ab17dee9093b8dbd0b9577ed387a475", "fusion_lat": 0.0, "is_reserved": 0, "lat": 38.90959333333333, "fusion_lon": 0.0, "is_disabled": 0}, {"rental_uris": {"android": "https://dc.lft.to/lastmile_qr_scan", "ios": "https://dc.lft.to/lastmile_qr_scan"}, "type": "electric_bike", "lon": -77.0362105, "name": "7274f97b4aa8628d5188e651a4aaa3a0", "bike_id": "7274f97b4aa8628d5188e651a4aaa3a0", "fusion_lat": 0.0, "is_reserved": 0, "lat": 38.93768083333333, "fusion_lon": 0.0, "is_disabled": 0}, {"rental_uris": {"android": "https://dc.lft.to/lastmile_qr_scan", "ios": "https://dc.lft.to/lastmile_qr_scan"}, "type": "electric_scooter", "lon": -77.025471, "name": "96e36a768e32ee9f762ee841b6ee14d0", "bike_id": "96e36a768e32ee9f762ee841b6ee14d0", "fusion_lat": 0.0, "is_reserved": 0, "lat": 38.89218066666667, "fusion_lon": 0.0, "is_disabled": 0}, {"rental_uris": {"android": "https://dc.lft.to/lastmile_qr_scan", "ios": "https://dc.lft.to/lastmile_qr_scan"}, "type": "electric_scooter", "lon": -76.94841916666667, "name": "27239084fe3c4c383780fc8ef0c0bda3", "bike_id": "27239084fe3c4c383780fc8ef0c0bda3", "fusion_lat": 0.0, "is_reserved": 0, "lat": 38.894860666666666, "fusion_lon": 0.0, "is_disabled": 0}, {"rental_uris": {"android": "https://dc.lft.to/lastmile_qr_scan", "ios": "https://dc.lft.to/lastmile_qr_scan"}, "type": "electric_scooter", "lon": -77.01113283333333, "name": "93e882f5f736343905c23384c24c3616", "bike_id": "93e882f5f736343905c23384c24c3616", "fusion_lat": 0.0, "is_reserved": 0, "lat": 38.903621666666666, "fusion_lon": 0.0, "is_disabled": 0}, {"rental_uris": {"android": "https://dc.lft.to/lastmile_qr_scan", "ios": "https://dc.lft.to/lastmile_qr_scan"}, "type": "electric_bike", "lon": -77.08528716666666, "name": "269fba6559973e50a2e6c14f2427a80c", "bike_id": "269fba6559973e50a2e6c14f2427a80c", "fusion_lat": 0.0, "is_reserved": 0, "lat": 38.85645566666667, "fusion_lon": 0.0, "is_disabled": 0}, {"rental_uris": {"android": "https://dc.lft.to/lastmile_qr_scan", "ios": "https://dc.lft.to/lastmile_qr_scan"}, "type": "electric_scooter", "lon": -77.01720766666666, "name": "30bfdf99d1a75b4ce628786db1779084", "bike_id": "30bfdf99d1a75b4ce628786db1779084", "fusion_lat": 0.0, "is_reserved": 0, "lat": 38.88591816666667, "fusion_lon": 0.0, "is_disabled": 0}, {"rental_uris": {"android": "https://dc.lft.to/lastmile_qr_scan", "ios": "https://dc.lft.to/lastmile_qr_scan"}, "type": "electric_scooter", "lon": -77.02960933333334, "name": "83e7168ab69594d3f9d3c201d5b05fd8", "bike_id": "83e7168ab69594d3f9d3c201d5b05fd8", "fusion_lat": 0.0, "is_reserved": 0, "lat": 38.92404066666667, "fusion_lon": 0.0, "is_disabled": 0}, {"rental_uris": {"android": "https://dc.lft.to/lastmile_qr_scan", "ios": "https://dc.lft.to/lastmile_qr_scan"}, "type": "electric_scooter", "lon": -77.04496666666667, "name": "d3d6db98e1ca1143613fe9494ae2d480", "bike_id": "d3d6db98e1ca1143613fe9494ae2d480", "fusion_lat": 0.0, "is_reserved": 0, "lat": 38.919326166666664, "fusion_lon": 0.0, "is_disabled": 0}, {"rental_uris": {"android": "https://dc.lft.to/lastmile_qr_scan", "ios": "https://dc.lft.to/lastmile_qr_scan"}, "type": "electric_bike", "lon": -77.01288416666667, "name": "16d98a0d64065d94ab6f81805630fcce", "bike_id": "16d98a0d64065d94ab6f81805630fcce", "fusion_lat": 0.0, "is_reserved": 0, "lat": 39.00380766666667, "fusion_lon": 0.0, "is_disabled": 0}, {"rental_uris": {"android": "https://dc.lft.to/lastmile_qr_scan", "ios": "https://dc.lft.to/lastmile_qr_scan"}, "type": "electric_scooter", "lon": -77.00598533333333, "name": "043ea36398badcc21cc59d1d8b765db1", "bike_id": "043ea36398badcc21cc59d1d8b765db1", "fusion_lat": 0.0, "is_reserved": 0, "lat": 38.8770845, "fusion_lon": 0.0, "is_disabled": 0}, {"rental_uris": {"android": "https://dc.lft.to/lastmile_qr_scan", "ios": "https://dc.lft.to/lastmile_qr_scan"}, "type": "electric_scooter", "lon": -77.04838333333333, "name": "9e48fee00957773e73b394a6d48727e9", "bike_id": "9e48fee00957773e73b394a6d48727e9", "fusion_lat": 0.0, "is_reserved": 0, "lat": 38.913302, "fusion_lon": 0.0, "is_disabled": 0}, {"rental_uris": {"android": "https://dc.lft.to/lastmile_qr_scan", "ios": "https://dc.lft.to/lastmile_qr_scan"}, "type": "electric_scooter", "lon": -77.04651566666666, "name": "f1e63d411e0afbdb7e9c4e502c685fd4", "bike_id": "f1e63d411e0afbdb7e9c4e502c685fd4", "fusion_lat": 0.0, "is_reserved": 0, "lat": 38.892399166666664, "fusion_lon": 0.0, "is_disabled": 0}, {"rental_uris": {"android": "https://dc.lft.to/lastmile_qr_scan", "ios": "https://dc.lft.to/lastmile_qr_scan"}, "type": "electric_scooter", "lon": -77.03142616666666, "name": "332e6b25bcafee97444c52cacb0220e5", "bike_id": "332e6b25bcafee97444c52cacb0220e5", "fusion_lat": 0.0, "is_reserved": 0, "lat": 38.931832666666665, "fusion_lon": 0.0, "is_disabled": 0}, {"rental_uris": {"android": "https://dc.lft.to/lastmile_qr_scan", "ios": "https://dc.lft.to/lastmile_qr_scan"}, "type": "electric_scooter", "lon": -76.996297, "name": "7eb85f391777ba59ec53991f92ae9f7e", "bike_id": "7eb85f391777ba59ec53991f92ae9f7e", "fusion_lat": 0.0, "is_reserved": 0, "lat": 38.846186833333334, "fusion_lon": 0.0, "is_disabled": 0}, {"rental_uris": {"android": "https://dc.lft.to/lastmile_qr_scan", "ios": "https://dc.lft.to/lastmile_qr_scan"}, "type": "electric_scooter", "lon": -77.02299516666666, "name": "acd20271262b582e2f16a6f6af87a100", "bike_id": "acd20271262b582e2f16a6f6af87a100", "fusion_lat": 0.0, "is_reserved": 0, "lat": 38.917652, "fusion_lon": 0.0, "is_disabled": 0}, {"rental_uris": {"android": "https://dc.lft.to/lastmile_qr_scan", "ios": "https://dc.lft.to/lastmile_qr_scan"}, "type": "electric_scooter", "lon": -77.01207966666666, "name": "4b01cb28690be77089beeb0e449d03da", "bike_id": "4b01cb28690be77089beeb0e449d03da", "fusion_lat": 0.0, "is_reserved": 0, "lat": 38.895359, "fusion_lon": 0.0, "is_disabled": 0}, {"rental_uris": {"android": "https://dc.lft.to/lastmile_qr_scan", "ios": "https://dc.lft.to/lastmile_qr_scan"}, "type": "electric_scooter", "lon": -77.0113615, "name": "6c2cbc7a0bdccdce938d77cfcb995fec", "bike_id": "6c2cbc7a0bdccdce938d77cfcb995fec", "fusion_lat": 0.0, "is_reserved": 0, "lat": 38.90647583333333, "fusion_lon": 0.0, "is_disabled": 0}, {"rental_uris": {"android": "https://dc.lft.to/lastmile_qr_scan", "ios": "https://dc.lft.to/lastmile_qr_scan"}, "type": "electric_scooter", "lon": -76.9346625, "name": "ebf21575d3a53e1ab21807291382a84e", "bike_id": "ebf21575d3a53e1ab21807291382a84e", "fusion_lat": 0.0, "is_reserved": 0, "lat": 38.90185266666667, "fusion_lon": 0.0, "is_disabled": 0}, {"rental_uris": {"android": "https://dc.lft.to/lastmile_qr_scan", "ios": "https://dc.lft.to/lastmile_qr_scan"}, "type": "electric_scooter", "lon": -77.019468, "name": "4d2608c17d6836c417c73f6db5b60baa", "bike_id": "4d2608c17d6836c417c73f6db5b60baa", "fusion_lat": 0.0, "is_reserved": 0, "lat": 38.92418816666667, "fusion_lon": 0.0, "is_disabled": 0}, {"rental_uris": {"android": "https://dc.lft.to/lastmile_qr_scan", "ios": "https://dc.lft.to/lastmile_qr_scan"}, "type": "electric_scooter", "lon": -76.99780433333333, "name": "76a31b64470f8dfeeb6962d97a71c154", "bike_id": "76a31b64470f8dfeeb6962d97a71c154", "fusion_lat": 0.0, "is_reserved": 0, "lat": 38.84424416666667, "fusion_lon": 0.0, "is_disabled": 0}, {"rental_uris": {"android": "https://dc.lft.to/lastmile_qr_scan", "ios": "https://dc.lft.to/lastmile_qr_scan"}, "type": "electric_bike", "lon": -76.987508, "name": "054f70d4688511a7a718da44959c6238", "bike_id": "054f70d4688511a7a718da44959c6238", "fusion_lat": 0.0, "is_reserved": 0, "lat": 38.988238833333334, "fusion_lon": 0.0, "is_disabled": 0}, {"rental_uris": {"android": "https://dc.lft.to/lastmile_qr_scan", "ios": "https://dc.lft.to/lastmile_qr_scan"}, "type": "electric_scooter", "lon": -77.02032166666666, "name": "2507aebb1b147262a056611a95bb3da7", "bike_id": "2507aebb1b147262a056611a95bb3da7", "fusion_lat": 0.0, "is_reserved": 0, "lat": 38.89876266666667, "fusion_lon": 0.0, "is_disabled": 0}, {"rental_uris": {"android": "https://dc.lft.to/lastmile_qr_scan", "ios": "https://dc.lft.to/lastmile_qr_scan"}, "type": "electric_scooter", "lon": -77.031498, "name": "2bf6e877593c1b3abd05613cc7eb0074", "bike_id": "2bf6e877593c1b3abd05613cc7eb0074", "fusion_lat": 0.0, "is_reserved": 0, "lat": 38.928080333333334, "fusion_lon": 0.0, "is_disabled": 0}, {"rental_uris": {"android": "https://dc.lft.to/lastmile_qr_scan", "ios": "https://dc.lft.to/lastmile_qr_scan"}, "type": "electric_bike", "lon": -76.93883066666666, "name": "c36f15ae581f892dae2d4a0741dd3685", "bike_id": "c36f15ae581f892dae2d4a0741dd3685", "fusion_lat": 0.0, "is_reserved": 0, "lat": 38.9562655, "fusion_lon": 0.0, "is_disabled": 0}, {"rental_uris": {"android": "https://dc.lft.to/lastmile_qr_scan", "ios": "https://dc.lft.to/lastmile_qr_scan"}, "type": "electric_scooter", "lon": -77.02697533333334, "name": "210e49e5af466f1dbda995e756752f53", "bike_id": "210e49e5af466f1dbda995e756752f53", "fusion_lat": 0.0, "is_reserved": 0, "lat": 38.916566, "fusion_lon": 0.0, "is_disabled": 0}, {"rental_uris": {"android": "https://dc.lft.to/lastmile_qr_scan", "ios": "https://dc.lft.to/lastmile_qr_scan"}, "type": "electric_scooter", "lon": -77.04172983333333, "name": "2b7cf9855af0966ef75c05933030730c", "bike_id": "2b7cf9855af0966ef75c05933030730c", "fusion_lat": 0.0, "is_reserved": 0, "lat": 38.919809, "fusion_lon": 0.0, "is_disabled": 0}, {"rental_uris": {"android": "https://dc.lft.to/lastmile_qr_scan", "ios": "https://dc.lft.to/lastmile_qr_scan"}, "type": "electric_scooter", "lon": -77.03163633333334, "name": "91bab4b4fc5657511ae07ca74ddfcd29", "bike_id": "91bab4b4fc5657511ae07ca74ddfcd29", "fusion_lat": 0.0, "is_reserved": 0, "lat": 38.918179333333335, "fusion_lon": 0.0, "is_disabled": 0}, {"rental_uris": {"android": "https://dc.lft.to/lastmile_qr_scan", "ios": "https://dc.lft.to/lastmile_qr_scan"}, "type": "electric_scooter", "lon": -77.032982, "name": "8078ee1bc1b162678a2747cbae0f03d6", "bike_id": "8078ee1bc1b162678a2747cbae0f03d6", "fusion_lat": 0.0, "is_reserved": 0, "lat": 38.9083395, "fusion_lon": 0.0, "is_disabled": 0}, {"rental_uris": {"android": "https://dc.lft.to/lastmile_qr_scan", "ios": "https://dc.lft.to/lastmile_qr_scan"}, "type": "electric_scooter", "lon": -76.9553605, "name": "529826b0f210f09ccdd23c6fb51aca76", "bike_id": "529826b0f210f09ccdd23c6fb51aca76", "fusion_lat": 0.0, "is_reserved": 0, "lat": 38.88766283333333, "fusion_lon": 0.0, "is_disabled": 0}, {"rental_uris": {"android": "https://dc.lft.to/lastmile_qr_scan", "ios": "https://dc.lft.to/lastmile_qr_scan"}, "type": "electric_scooter", "lon": -77.01214233333333, "name": "c85063364bd96049309001e30b5303c7", "bike_id": "c85063364bd96049309001e30b5303c7", "fusion_lat": 0.0, "is_reserved": 0, "lat": 38.918229333333336, "fusion_lon": 0.0, "is_disabled": 0}, {"rental_uris": {"android": "https://dc.lft.to/lastmile_qr_scan", "ios": "https://dc.lft.to/lastmile_qr_scan"}, "type": "electric_scooter", "lon": -77.03778483333333, "name": "54409ebf984e744a0e638e52b14ca1d9", "bike_id": "54409ebf984e744a0e638e52b14ca1d9", "fusion_lat": 0.0, "is_reserved": 0, "lat": 38.9247765, "fusion_lon": 0.0, "is_disabled": 0}, {"rental_uris": {"android": "https://dc.lft.to/lastmile_qr_scan", "ios": "https://dc.lft.to/lastmile_qr_scan"}, "type": "electric_scooter", "lon": -77.04244616666666, "name": "590911dcf85fb9d0a2b4035abda42df9", "bike_id": "590911dcf85fb9d0a2b4035abda42df9", "fusion_lat": 0.0, "is_reserved": 0, "lat": 38.917821833333335, "fusion_lon": 0.0, "is_disabled": 0}, {"rental_uris": {"android": "https://dc.lft.to/lastmile_qr_scan", "ios": "https://dc.lft.to/lastmile_qr_scan"}, "type": "electric_scooter", "lon": -77.02724416666666, "name": "ec9032a284e229b4258026bb6a9dd248", "bike_id": "ec9032a284e229b4258026bb6a9dd248", "fusion_lat": 0.0, "is_reserved": 0, "lat": 38.93448266666667, "fusion_lon": 0.0, "is_disabled": 0}, {"rental_uris": {"android": "https://dc.lft.to/lastmile_qr_scan", "ios": "https://dc.lft.to/lastmile_qr_scan"}, "type": "electric_scooter", "lon": -76.97403833333334, "name": "8cb7381f3ad4a7cf4de3805cf54acc3e", "bike_id": "8cb7381f3ad4a7cf4de3805cf54acc3e", "fusion_lat": 0.0, "is_reserved": 0, "lat": 38.865558, "fusion_lon": 0.0, "is_disabled": 0}, {"rental_uris": {"android": "https://dc.lft.to/lastmile_qr_scan", "ios": "https://dc.lft.to/lastmile_qr_scan"}, "type": "electric_scooter", "lon": -76.98677483333333, "name": "3db1ec44b7146a82f18c841d7e4e0281", "bike_id": "3db1ec44b7146a82f18c841d7e4e0281", "fusion_lat": 0.0, "is_reserved": 0, "lat": 38.900148333333334, "fusion_lon": 0.0, "is_disabled": 0}, {"rental_uris": {"android": "https://dc.lft.to/lastmile_qr_scan", "ios": "https://dc.lft.to/lastmile_qr_scan"}, "type": "electric_scooter", "lon": -77.00281483333333, "name": "ee989a622b094c11bfb7d1e5c803a2e5", "bike_id": "ee989a622b094c11bfb7d1e5c803a2e5", "fusion_lat": 0.0, "is_reserved": 0, "lat": 38.9391955, "fusion_lon": 0.0, "is_disabled": 0}, {"rental_uris": {"android": "https://dc.lft.to/lastmile_qr_scan", "ios": "https://dc.lft.to/lastmile_qr_scan"}, "type": "electric_scooter", "lon": -76.99154583333333, "name": "ce9941889ed30d319fc63c6ff49e1d15", "bike_id": "ce9941889ed30d319fc63c6ff49e1d15", "fusion_lat": 0.0, "is_reserved": 0, "lat": 38.87315983333333, "fusion_lon": 0.0, "is_disabled": 0}, {"rental_uris": {"android": "https://dc.lft.to/lastmile_qr_scan", "ios": "https://dc.lft.to/lastmile_qr_scan"}, "type": "electric_scooter", "lon": -77.047091, "name": "d80416624534da3a399213c4238a9c63", "bike_id": "d80416624534da3a399213c4238a9c63", "fusion_lat": 0.0, "is_reserved": 0, "lat": 38.9126625, "fusion_lon": 0.0, "is_disabled": 0}, {"rental_uris": {"android": "https://dc.lft.to/lastmile_qr_scan", "ios": "https://dc.lft.to/lastmile_qr_scan"}, "type": "electric_scooter", "lon": -76.982274, "name": "18b8a7dc754bb19b486e743eabb49ff6", "bike_id": "18b8a7dc754bb19b486e743eabb49ff6", "fusion_lat": 0.0, "is_reserved": 0, "lat": 38.9255235, "fusion_lon": 0.0, "is_disabled": 0}, {"rental_uris": {"android": "https://dc.lft.to/lastmile_qr_scan", "ios": "https://dc.lft.to/lastmile_qr_scan"}, "type": "electric_scooter", "lon": -76.9374325, "name": "eecc72de59594cf9556a7f8b543ac5d6", "bike_id": "eecc72de59594cf9556a7f8b543ac5d6", "fusion_lat": 0.0, "is_reserved": 0, "lat": 38.8901495, "fusion_lon": 0.0, "is_disabled": 0}, {"rental_uris": {"android": "https://dc.lft.to/lastmile_qr_scan", "ios": "https://dc.lft.to/lastmile_qr_scan"}, "type": "electric_scooter", "lon": -77.03208, "name": "041b46e1e8c600f51e28d6201a81a0b2", "bike_id": "041b46e1e8c600f51e28d6201a81a0b2", "fusion_lat": 0.0, "is_reserved": 0, "lat": 38.91633566666667, "fusion_lon": 0.0, "is_disabled": 0}, {"rental_uris": {"android": "https://dc.lft.to/lastmile_qr_scan", "ios": "https://dc.lft.to/lastmile_qr_scan"}, "type": "electric_scooter", "lon": -76.99080166666667, "name": "deef09fc2ed30ce3e52bd11499b269c1", "bike_id": "deef09fc2ed30ce3e52bd11499b269c1", "fusion_lat": 0.0, "is_reserved": 0, "lat": 38.90011466666667, "fusion_lon": 0.0, "is_disabled": 0}, {"rental_uris": {"android": "https://dc.lft.to/lastmile_qr_scan", "ios": "https://dc.lft.to/lastmile_qr_scan"}, "type": "electric_bike", "lon": -76.93190233333334, "name": "a41c31da85345867695ff9c4383fb504", "bike_id": "a41c31da85345867695ff9c4383fb504", "fusion_lat": 0.0, "is_reserved": 0, "lat": 38.898523, "fusion_lon": 0.0, "is_disabled": 0}, {"rental_uris": {"android": "https://dc.lft.to/lastmile_qr_scan", "ios": "https://dc.lft.to/lastmile_qr_scan"}, "type": "electric_scooter", "lon": -77.05513366666666, "name": "3b0ff5bcdb03bcce298fd7660abdcc21", "bike_id": "3b0ff5bcdb03bcce298fd7660abdcc21", "fusion_lat": 0.0, "is_reserved": 0, "lat": 38.9441705, "fusion_lon": 0.0, "is_disabled": 0}, {"rental_uris": {"android": "https://dc.lft.to/lastmile_qr_scan", "ios": "https://dc.lft.to/lastmile_qr_scan"}, "type": "electric_scooter", "lon": -77.03009633333333, "name": "3f627c9d968223a18719ca793dfcaae6", "bike_id": "3f627c9d968223a18719ca793dfcaae6", "fusion_lat": 0.0, "is_reserved": 0, "lat": 38.93116033333333, "fusion_lon": 0.0, "is_disabled": 0}, {"rental_uris": {"android": "https://dc.lft.to/lastmile_qr_scan", "ios": "https://dc.lft.to/lastmile_qr_scan"}, "type": "electric_scooter", "lon": -77.0241025, "name": "ba8220f17ff8dc2c1ea9cca9aa39cd29", "bike_id": "ba8220f17ff8dc2c1ea9cca9aa39cd29", "fusion_lat": 0.0, "is_reserved": 0, "lat": 38.8937945, "fusion_lon": 0.0, "is_disabled": 0}, {"rental_uris": {"android": "https://dc.lft.to/lastmile_qr_scan", "ios": "https://dc.lft.to/lastmile_qr_scan"}, "type": "electric_scooter", "lon": -77.05880083333334, "name": "f3dc9c04360efe59b433f4efa6a007d5", "bike_id": "f3dc9c04360efe59b433f4efa6a007d5", "fusion_lat": 0.0, "is_reserved": 0, "lat": 38.93637316666667, "fusion_lon": 0.0, "is_disabled": 0}, {"rental_uris": {"android": "https://dc.lft.to/lastmile_qr_scan", "ios": "https://dc.lft.to/lastmile_qr_scan"}, "type": "electric_scooter", "lon": -76.94856033333333, "name": "fd4fd396f5a847c1ad657bd201a064b0", "bike_id": "fd4fd396f5a847c1ad657bd201a064b0", "fusion_lat": 0.0, "is_reserved": 0, "lat": 38.882999833333336, "fusion_lon": 0.0, "is_disabled": 0}, {"rental_uris": {"android": "https://dc.lft.to/lastmile_qr_scan", "ios": "https://dc.lft.to/lastmile_qr_scan"}, "type": "electric_scooter", "lon": -76.98902266666667, "name": "c9bb482230baa6d87957688419a405a6", "bike_id": "c9bb482230baa6d87957688419a405a6", "fusion_lat": 0.0, "is_reserved": 0, "lat": 38.90235116666667, "fusion_lon": 0.0, "is_disabled": 0}, {"rental_uris": {"android": "https://dc.lft.to/lastmile_qr_scan", "ios": "https://dc.lft.to/lastmile_qr_scan"}, "type": "electric_scooter", "lon": -77.00109016666667, "name": "252d1c89e57df44a951b7a856ac6e621", "bike_id": "252d1c89e57df44a951b7a856ac6e621", "fusion_lat": 0.0, "is_reserved": 0, "lat": 38.9163325, "fusion_lon": 0.0, "is_disabled": 0}, {"rental_uris": {"android": "https://dc.lft.to/lastmile_qr_scan", "ios": "https://dc.lft.to/lastmile_qr_scan"}, "type": "electric_scooter", "lon": -77.03798166666667, "name": "5ebaafe54f449ed114eda9bdc9cee9c6", "bike_id": "5ebaafe54f449ed114eda9bdc9cee9c6", "fusion_lat": 0.0, "is_reserved": 0, "lat": 38.92589516666666, "fusion_lon": 0.0, "is_disabled": 0}, {"rental_uris": {"android": "https://dc.lft.to/lastmile_qr_scan", "ios": "https://dc.lft.to/lastmile_qr_scan"}, "type": "electric_scooter", "lon": -77.02927516666666, "name": "865e914d38db69bb595c24b2afdb3bf0", "bike_id": "865e914d38db69bb595c24b2afdb3bf0", "fusion_lat": 0.0, "is_reserved": 0, "lat": 38.89827116666667, "fusion_lon": 0.0, "is_disabled": 0}, {"rental_uris": {"android": "https://dc.lft.to/lastmile_qr_scan", "ios": "https://dc.lft.to/lastmile_qr_scan"}, "type": "electric_scooter", "lon": -77.04589916666667, "name": "cc9ccdf35bbe645cee6ff0b4a881cc0a", "bike_id": "cc9ccdf35bbe645cee6ff0b4a881cc0a", "fusion_lat": 0.0, "is_reserved": 0, "lat": 38.921286333333335, "fusion_lon": 0.0, "is_disabled": 0}, {"rental_uris": {"android": "https://dc.lft.to/lastmile_qr_scan", "ios": "https://dc.lft.to/lastmile_qr_scan"}, "type": "electric_scooter", "lon": -77.04253366666667, "name": "6d24915b2a89cd8fc4553ad949311932", "bike_id": "6d24915b2a89cd8fc4553ad949311932", "fusion_lat": 0.0, "is_reserved": 0, "lat": 38.9223375, "fusion_lon": 0.0, "is_disabled": 0}, {"rental_uris": {"android": "https://dc.lft.to/lastmile_qr_scan", "ios": "https://dc.lft.to/lastmile_qr_scan"}, "type": "electric_scooter", "lon": -76.94842, "name": "38dd3c3494e8cec357eeb3d973a63762", "bike_id": "38dd3c3494e8cec357eeb3d973a63762", "fusion_lat": 0.0, "is_reserved": 0, "lat": 38.8948705, "fusion_lon": 0.0, "is_disabled": 0}, {"rental_uris": {"android": "https://dc.lft.to/lastmile_qr_scan", "ios": "https://dc.lft.to/lastmile_qr_scan"}, "type": "electric_scooter", "lon": -77.03145933333333, "name": "328ff23ad9354631942a794105adfa2f", "bike_id": "328ff23ad9354631942a794105adfa2f", "fusion_lat": 0.0, "is_reserved": 0, "lat": 38.8874755, "fusion_lon": 0.0, "is_disabled": 0}, {"rental_uris": {"android": "https://dc.lft.to/lastmile_qr_scan", "ios": "https://dc.lft.to/lastmile_qr_scan"}, "type": "electric_bike", "lon": -76.98168283333334, "name": "4300b75affdb1c425c4e263b23ca954d", "bike_id": "4300b75affdb1c425c4e263b23ca954d", "fusion_lat": 0.0, "is_reserved": 0, "lat": 38.959639333333335, "fusion_lon": 0.0, "is_disabled": 0}, {"rental_uris": {"android": "https://dc.lft.to/lastmile_qr_scan", "ios": "https://dc.lft.to/lastmile_qr_scan"}, "type": "electric_scooter", "lon": -77.04100166666667, "name": "082ced77dd403d583defa7b5dfc62fac", "bike_id": "082ced77dd403d583defa7b5dfc62fac", "fusion_lat": 0.0, "is_reserved": 0, "lat": 38.920877, "fusion_lon": 0.0, "is_disabled": 0}, {"rental_uris": {"android": "https://dc.lft.to/lastmile_qr_scan", "ios": "https://dc.lft.to/lastmile_qr_scan"}, "type": "electric_scooter", "lon": -76.98454733333334, "name": "c5d5e99ccc22a74046f0c75c40f4355d", "bike_id": "c5d5e99ccc22a74046f0c75c40f4355d", "fusion_lat": 0.0, "is_reserved": 0, "lat": 38.88012966666667, "fusion_lon": 0.0, "is_disabled": 0}, {"rental_uris": {"android": "https://dc.lft.to/lastmile_qr_scan", "ios": "https://dc.lft.to/lastmile_qr_scan"}, "type": "electric_scooter", "lon": -77.00011766666667, "name": "3e12470d917bc2ed753cfa21226e3825", "bike_id": "3e12470d917bc2ed753cfa21226e3825", "fusion_lat": 0.0, "is_reserved": 0, "lat": 38.90011783333333, "fusion_lon": 0.0, "is_disabled": 0}, {"rental_uris": {"android": "https://dc.lft.to/lastmile_qr_scan", "ios": "https://dc.lft.to/lastmile_qr_scan"}, "type": "electric_scooter", "lon": -77.0363935, "name": "b3ecf6432823e0bb0a9fb2a598c6b1ff", "bike_id": "b3ecf6432823e0bb0a9fb2a598c6b1ff", "fusion_lat": 0.0, "is_reserved": 0, "lat": 38.9366895, "fusion_lon": 0.0, "is_disabled": 0}, {"rental_uris": {"android": "https://dc.lft.to/lastmile_qr_scan", "ios": "https://dc.lft.to/lastmile_qr_scan"}, "type": "electric_scooter", "lon": -77.0251465, "name": "f04137bef59daa5e9a7b5a1732ec079e", "bike_id": "f04137bef59daa5e9a7b5a1732ec079e", "fusion_lat": 0.0, "is_reserved": 0, "lat": 38.94176683333333, "fusion_lon": 0.0, "is_disabled": 0}, {"rental_uris": {"android": "https://dc.lft.to/lastmile_qr_scan", "ios": "https://dc.lft.to/lastmile_qr_scan"}, "type": "electric_scooter", "lon": -77.01872666666667, "name": "8fdfeed1002aaee201f14c4b9b112b89", "bike_id": "8fdfeed1002aaee201f14c4b9b112b89", "fusion_lat": 0.0, "is_reserved": 0, "lat": 38.948976, "fusion_lon": 0.0, "is_disabled": 0}, {"rental_uris": {"android": "https://dc.lft.to/lastmile_qr_scan", "ios": "https://dc.lft.to/lastmile_qr_scan"}, "type": "electric_scooter", "lon": -77.0093675, "name": "01e39c07d5dfe34bbc45eebcd0b67aca", "bike_id": "01e39c07d5dfe34bbc45eebcd0b67aca", "fusion_lat": 0.0, "is_reserved": 0, "lat": 38.876285333333335, "fusion_lon": 0.0, "is_disabled": 0}, {"rental_uris": {"android": "https://dc.lft.to/lastmile_qr_scan", "ios": "https://dc.lft.to/lastmile_qr_scan"}, "type": "electric_scooter", "lon": -77.00190983333333, "name": "6a3f9bcaaf05273a1465341ef8294df3", "bike_id": "6a3f9bcaaf05273a1465341ef8294df3", "fusion_lat": 0.0, "is_reserved": 0, "lat": 38.90379133333333, "fusion_lon": 0.0, "is_disabled": 0}, {"rental_uris": {"android": "https://dc.lft.to/lastmile_qr_scan", "ios": "https://dc.lft.to/lastmile_qr_scan"}, "type": "electric_scooter", "lon": -77.02926733333334, "name": "3c4be84791e13ab215f7855453ce6d34", "bike_id": "3c4be84791e13ab215f7855453ce6d34", "fusion_lat": 0.0, "is_reserved": 0, "lat": 38.88220033333333, "fusion_lon": 0.0, "is_disabled": 0}, {"rental_uris": {"android": "https://dc.lft.to/lastmile_qr_scan", "ios": "https://dc.lft.to/lastmile_qr_scan"}, "type": "electric_scooter", "lon": -77.04660683333333, "name": "b3c48c3f88005623e28f465aff1562e1", "bike_id": "b3c48c3f88005623e28f465aff1562e1", "fusion_lat": 0.0, "is_reserved": 0, "lat": 38.89297633333334, "fusion_lon": 0.0, "is_disabled": 0}, {"rental_uris": {"android": "https://dc.lft.to/lastmile_qr_scan", "ios": "https://dc.lft.to/lastmile_qr_scan"}, "type": "electric_bike", "lon": -77.091628, "name": "fa27bd4495c707e309234c6869d96a5b", "bike_id": "fa27bd4495c707e309234c6869d96a5b", "fusion_lat": 0.0, "is_reserved": 0, "lat": 38.9675785, "fusion_lon": 0.0, "is_disabled": 0}, {"rental_uris": {"android": "https://dc.lft.to/lastmile_qr_scan", "ios": "https://dc.lft.to/lastmile_qr_scan"}, "type": "electric_scooter", "lon": -77.0404875, "name": "b6708854a6ee2b4354f523e7be260d80", "bike_id": "b6708854a6ee2b4354f523e7be260d80", "fusion_lat": 0.0, "is_reserved": 0, "lat": 38.928780333333336, "fusion_lon": 0.0, "is_disabled": 0}, {"rental_uris": {"android": "https://dc.lft.to/lastmile_qr_scan", "ios": "https://dc.lft.to/lastmile_qr_scan"}, "type": "electric_scooter", "lon": -77.03261116666667, "name": "ab8976cd5ade3310a310833fe8204858", "bike_id": "ab8976cd5ade3310a310833fe8204858", "fusion_lat": 0.0, "is_reserved": 0, "lat": 38.942585666666666, "fusion_lon": 0.0, "is_disabled": 0}, {"rental_uris": {"android": "https://dc.lft.to/lastmile_qr_scan", "ios": "https://dc.lft.to/lastmile_qr_scan"}, "type": "electric_scooter", "lon": -77.0440515, "name": "d86b61e42f14d6e9d31401c646330c78", "bike_id": "d86b61e42f14d6e9d31401c646330c78", "fusion_lat": 0.0, "is_reserved": 0, "lat": 38.874282, "fusion_lon": 0.0, "is_disabled": 0}, {"rental_uris": {"android": "https://dc.lft.to/lastmile_qr_scan", "ios": "https://dc.lft.to/lastmile_qr_scan"}, "type": "electric_scooter", "lon": -77.02445883333333, "name": "f894a36cc0d747c68eb0814113200d41", "bike_id": "f894a36cc0d747c68eb0814113200d41", "fusion_lat": 0.0, "is_reserved": 0, "lat": 38.920394, "fusion_lon": 0.0, "is_disabled": 0}, {"rental_uris": {"android": "https://dc.lft.to/lastmile_qr_scan", "ios": "https://dc.lft.to/lastmile_qr_scan"}, "type": "electric_scooter", "lon": -77.032652, "name": "40f50a1ed07e10c697f51d922086c912", "bike_id": "40f50a1ed07e10c697f51d922086c912", "fusion_lat": 0.0, "is_reserved": 0, "lat": 38.93256383333333, "fusion_lon": 0.0, "is_disabled": 0}, {"rental_uris": {"android": "https://dc.lft.to/lastmile_qr_scan", "ios": "https://dc.lft.to/lastmile_qr_scan"}, "type": "electric_scooter", "lon": -76.96923, "name": "4f59e38867836e08b9142c1be83c3bf9", "bike_id": "4f59e38867836e08b9142c1be83c3bf9", "fusion_lat": 0.0, "is_reserved": 0, "lat": 38.85528566666667, "fusion_lon": 0.0, "is_disabled": 0}, {"rental_uris": {"android": "https://dc.lft.to/lastmile_qr_scan", "ios": "https://dc.lft.to/lastmile_qr_scan"}, "type": "electric_scooter", "lon": -77.03220633333333, "name": "7ad51f2c0a02576b612325e121c3a6dc", "bike_id": "7ad51f2c0a02576b612325e121c3a6dc", "fusion_lat": 0.0, "is_reserved": 0, "lat": 38.9185605, "fusion_lon": 0.0, "is_disabled": 0}, {"rental_uris": {"android": "https://dc.lft.to/lastmile_qr_scan", "ios": "https://dc.lft.to/lastmile_qr_scan"}, "type": "electric_scooter", "lon": -77.0218055, "name": "545408e59de714fa2ef4a64afd016d23", "bike_id": "545408e59de714fa2ef4a64afd016d23", "fusion_lat": 0.0, "is_reserved": 0, "lat": 38.9141745, "fusion_lon": 0.0, "is_disabled": 0}, {"rental_uris": {"android": "https://dc.lft.to/lastmile_qr_scan", "ios": "https://dc.lft.to/lastmile_qr_scan"}, "type": "electric_scooter", "lon": -77.0368985, "name": "91e10da26305d3ca16b1361c524fb1d2", "bike_id": "91e10da26305d3ca16b1361c524fb1d2", "fusion_lat": 0.0, "is_reserved": 0, "lat": 38.9271955, "fusion_lon": 0.0, "is_disabled": 0}, {"rental_uris": {"android": "https://dc.lft.to/lastmile_qr_scan", "ios": "https://dc.lft.to/lastmile_qr_scan"}, "type": "electric_bike", "lon": -77.05033316666666, "name": "d5984c2fdd49f490762e5a359a014e81", "bike_id": "d5984c2fdd49f490762e5a359a014e81", "fusion_lat": 0.0, "is_reserved": 0, "lat": 38.91108, "fusion_lon": 0.0, "is_disabled": 0}, {"rental_uris": {"android": "https://dc.lft.to/lastmile_qr_scan", "ios": "https://dc.lft.to/lastmile_qr_scan"}, "type": "electric_scooter", "lon": -77.03124416666667, "name": "5ae82f519becf4b163f915df0b9360a0", "bike_id": "5ae82f519becf4b163f915df0b9360a0", "fusion_lat": 0.0, "is_reserved": 0, "lat": 38.973774, "fusion_lon": 0.0, "is_disabled": 0}, {"rental_uris": {"android": "https://dc.lft.to/lastmile_qr_scan", "ios": "https://dc.lft.to/lastmile_qr_scan"}, "type": "electric_scooter", "lon": -77.041386, "name": "1b593eba4a8b44bae3c9f6bc4c5658c6", "bike_id": "1b593eba4a8b44bae3c9f6bc4c5658c6", "fusion_lat": 0.0, "is_reserved": 0, "lat": 38.92131916666666, "fusion_lon": 0.0, "is_disabled": 0}, {"rental_uris": {"android": "https://dc.lft.to/lastmile_qr_scan", "ios": "https://dc.lft.to/lastmile_qr_scan"}, "type": "electric_scooter", "lon": -77.06568933333334, "name": "2b40c84413ad5c32eb4ae335893c095a", "bike_id": "2b40c84413ad5c32eb4ae335893c095a", "fusion_lat": 0.0, "is_reserved": 0, "lat": 38.9052085, "fusion_lon": 0.0, "is_disabled": 0}, {"rental_uris": {"android": "https://dc.lft.to/lastmile_qr_scan", "ios": "https://dc.lft.to/lastmile_qr_scan"}, "type": "electric_scooter", "lon": -77.06777683333334, "name": "307dee747ae54aec09f8a37cd4e29a50", "bike_id": "307dee747ae54aec09f8a37cd4e29a50", "fusion_lat": 0.0, "is_reserved": 0, "lat": 38.90525133333333, "fusion_lon": 0.0, "is_disabled": 0}, {"rental_uris": {"android": "https://dc.lft.to/lastmile_qr_scan", "ios": "https://dc.lft.to/lastmile_qr_scan"}, "type": "electric_scooter", "lon": -77.04334116666666, "name": "51ef8c3117953cc0981bfedc4db53428", "bike_id": "51ef8c3117953cc0981bfedc4db53428", "fusion_lat": 0.0, "is_reserved": 0, "lat": 38.907355, "fusion_lon": 0.0, "is_disabled": 0}, {"rental_uris": {"android": "https://dc.lft.to/lastmile_qr_scan", "ios": "https://dc.lft.to/lastmile_qr_scan"}, "type": "electric_scooter", "lon": -77.03194983333333, "name": "0de595f0f60597f59c794997e5d4c2fd", "bike_id": "0de595f0f60597f59c794997e5d4c2fd", "fusion_lat": 0.0, "is_reserved": 0, "lat": 38.9163405, "fusion_lon": 0.0, "is_disabled": 0}, {"rental_uris": {"android": "https://dc.lft.to/lastmile_qr_scan", "ios": "https://dc.lft.to/lastmile_qr_scan"}, "type": "electric_scooter", "lon": -77.01375133333333, "name": "de160510b82ea4a676194a9f98436180", "bike_id": "de160510b82ea4a676194a9f98436180", "fusion_lat": 0.0, "is_reserved": 0, "lat": 38.914995, "fusion_lon": 0.0, "is_disabled": 0}, {"rental_uris": {"android": "https://dc.lft.to/lastmile_qr_scan", "ios": "https://dc.lft.to/lastmile_qr_scan"}, "type": "electric_bike", "lon": -77.023799, "name": "0a2f789c3fb0ee1769aea893b973cf75", "bike_id": "0a2f789c3fb0ee1769aea893b973cf75", "fusion_lat": 0.0, "is_reserved": 0, "lat": 38.9529935, "fusion_lon": 0.0, "is_disabled": 0}, {"rental_uris": {"android": "https://dc.lft.to/lastmile_qr_scan", "ios": "https://dc.lft.to/lastmile_qr_scan"}, "type": "electric_scooter", "lon": -77.02600033333333, "name": "e501209fa0d5f338660531c11ef26dbe", "bike_id": "e501209fa0d5f338660531c11ef26dbe", "fusion_lat": 0.0, "is_reserved": 0, "lat": 38.904937833333335, "fusion_lon": 0.0, "is_disabled": 0}, {"rental_uris": {"android": "https://dc.lft.to/lastmile_qr_scan", "ios": "https://dc.lft.to/lastmile_qr_scan"}, "type": "electric_scooter", "lon": -76.93752633333334, "name": "784aef49879e289fe4205993dce0061e", "bike_id": "784aef49879e289fe4205993dce0061e", "fusion_lat": 0.0, "is_reserved": 0, "lat": 38.890322833333336, "fusion_lon": 0.0, "is_disabled": 0}, {"rental_uris": {"android": "https://dc.lft.to/lastmile_qr_scan", "ios": "https://dc.lft.to/lastmile_qr_scan"}, "type": "electric_scooter", "lon": -77.00341883333333, "name": "299748d64ca9f4fa54b7e7c3febafba8", "bike_id": "299748d64ca9f4fa54b7e7c3febafba8", "fusion_lat": 0.0, "is_reserved": 0, "lat": 38.9227025, "fusion_lon": 0.0, "is_disabled": 0}, {"rental_uris": {"android": "https://dc.lft.to/lastmile_qr_scan", "ios": "https://dc.lft.to/lastmile_qr_scan"}, "type": "electric_scooter", "lon": -77.03465616666666, "name": "e7184cecb3aa9d46b916cf9633a5e6c2", "bike_id": "e7184cecb3aa9d46b916cf9633a5e6c2", "fusion_lat": 0.0, "is_reserved": 0, "lat": 38.931024, "fusion_lon": 0.0, "is_disabled": 0}, {"rental_uris": {"android": "https://dc.lft.to/lastmile_qr_scan", "ios": "https://dc.lft.to/lastmile_qr_scan"}, "type": "electric_bike", "lon": -76.90959483333333, "name": "353b390ec4f29dc4acbf17ba4d9d53ad", "bike_id": "353b390ec4f29dc4acbf17ba4d9d53ad", "fusion_lat": 0.0, "is_reserved": 0, "lat": 38.854163, "fusion_lon": 0.0, "is_disabled": 0}, {"rental_uris": {"android": "https://dc.lft.to/lastmile_qr_scan", "ios": "https://dc.lft.to/lastmile_qr_scan"}, "type": "electric_scooter", "lon": -77.03184633333333, "name": "95c26ef0e36625750870a47902489e96", "bike_id": "95c26ef0e36625750870a47902489e96", "fusion_lat": 0.0, "is_reserved": 0, "lat": 38.911925333333336, "fusion_lon": 0.0, "is_disabled": 0}, {"rental_uris": {"android": "https://dc.lft.to/lastmile_qr_scan", "ios": "https://dc.lft.to/lastmile_qr_scan"}, "type": "electric_scooter", "lon": -77.082108, "name": "535340eb5033a75f40b5919422858de5", "bike_id": "535340eb5033a75f40b5919422858de5", "fusion_lat": 0.0, "is_reserved": 0, "lat": 38.93559366666667, "fusion_lon": 0.0, "is_disabled": 0}, {"rental_uris": {"android": "https://dc.lft.to/lastmile_qr_scan", "ios": "https://dc.lft.to/lastmile_qr_scan"}, "type": "electric_scooter", "lon": -77.04991466666667, "name": "e284df249af81eb96d06f55907a9d809", "bike_id": "e284df249af81eb96d06f55907a9d809", "fusion_lat": 0.0, "is_reserved": 0, "lat": 38.89896983333333, "fusion_lon": 0.0, "is_disabled": 0}, {"rental_uris": {"android": "https://dc.lft.to/lastmile_qr_scan", "ios": "https://dc.lft.to/lastmile_qr_scan"}, "type": "electric_scooter", "lon": -77.0153165, "name": "19bc674f508a72ff1bae6eaa099ffe1e", "bike_id": "19bc674f508a72ff1bae6eaa099ffe1e", "fusion_lat": 0.0, "is_reserved": 0, "lat": 38.913478, "fusion_lon": 0.0, "is_disabled": 0}, {"rental_uris": {"android": "https://dc.lft.to/lastmile_qr_scan", "ios": "https://dc.lft.to/lastmile_qr_scan"}, "type": "electric_bike", "lon": -77.1784685, "name": "72b30c9aa422b8cb0bce9019053f7cc9", "bike_id": "72b30c9aa422b8cb0bce9019053f7cc9", "fusion_lat": 0.0, "is_reserved": 0, "lat": 39.08905633333333, "fusion_lon": 0.0, "is_disabled": 0}, {"rental_uris": {"android": "https://dc.lft.to/lastmile_qr_scan", "ios": "https://dc.lft.to/lastmile_qr_scan"}, "type": "electric_scooter", "lon": -77.024071, "name": "89cfd720ecf4f27d5d4583b547e6189c", "bike_id": "89cfd720ecf4f27d5d4583b547e6189c", "fusion_lat": 0.0, "is_reserved": 0, "lat": 38.91343333333333, "fusion_lon": 0.0, "is_disabled": 0}, {"rental_uris": {"android": "https://dc.lft.to/lastmile_qr_scan", "ios": "https://dc.lft.to/lastmile_qr_scan"}, "type": "electric_scooter", "lon": -77.02283, "name": "1c46bc1b067aaf0ce4d22c88a15f53b9", "bike_id": "1c46bc1b067aaf0ce4d22c88a15f53b9", "fusion_lat": 0.0, "is_reserved": 0, "lat": 38.92425266666667, "fusion_lon": 0.0, "is_disabled": 0}, {"rental_uris": {"android": "https://dc.lft.to/lastmile_qr_scan", "ios": "https://dc.lft.to/lastmile_qr_scan"}, "type": "electric_scooter", "lon": -77.02704566666667, "name": "c8672a06e12bb6fa3a72214ca8490ce1", "bike_id": "c8672a06e12bb6fa3a72214ca8490ce1", "fusion_lat": 0.0, "is_reserved": 0, "lat": 38.949981666666666, "fusion_lon": 0.0, "is_disabled": 0}, {"rental_uris": {"android": "https://dc.lft.to/lastmile_qr_scan", "ios": "https://dc.lft.to/lastmile_qr_scan"}, "type": "electric_bike", "lon": -77.043021, "name": "65fcacdf1f4e626703f428de7508d9aa", "bike_id": "65fcacdf1f4e626703f428de7508d9aa", "fusion_lat": 0.0, "is_reserved": 0, "lat": 39.054487333333334, "fusion_lon": 0.0, "is_disabled": 0}, {"rental_uris": {"android": "https://dc.lft.to/lastmile_qr_scan", "ios": "https://dc.lft.to/lastmile_qr_scan"}, "type": "electric_scooter", "lon": -76.99478516666667, "name": "e5e9e05f120482911160e1543b3e304e", "bike_id": "e5e9e05f120482911160e1543b3e304e", "fusion_lat": 0.0, "is_reserved": 0, "lat": 38.888625833333336, "fusion_lon": 0.0, "is_disabled": 0}, {"rental_uris": {"android": "https://dc.lft.to/lastmile_qr_scan", "ios": "https://dc.lft.to/lastmile_qr_scan"}, "type": "electric_scooter", "lon": -77.02716866666667, "name": "8ae181a5c144d2f3180ef70886728e8b", "bike_id": "8ae181a5c144d2f3180ef70886728e8b", "fusion_lat": 0.0, "is_reserved": 0, "lat": 38.906679833333335, "fusion_lon": 0.0, "is_disabled": 0}, {"rental_uris": {"android": "https://dc.lft.to/lastmile_qr_scan", "ios": "https://dc.lft.to/lastmile_qr_scan"}, "type": "electric_scooter", "lon": -77.0386445, "name": "25ecf992e184613ae37192dc22a44507", "bike_id": "25ecf992e184613ae37192dc22a44507", "fusion_lat": 0.0, "is_reserved": 0, "lat": 38.91708883333333, "fusion_lon": 0.0, "is_disabled": 0}, {"rental_uris": {"android": "https://dc.lft.to/lastmile_qr_scan", "ios": "https://dc.lft.to/lastmile_qr_scan"}, "type": "electric_scooter", "lon": -77.03093883333334, "name": "3701ced44cc2243ec1136c50e5414ef3", "bike_id": "3701ced44cc2243ec1136c50e5414ef3", "fusion_lat": 0.0, "is_reserved": 0, "lat": 38.89752816666667, "fusion_lon": 0.0, "is_disabled": 0}, {"rental_uris": {"android": "https://dc.lft.to/lastmile_qr_scan", "ios": "https://dc.lft.to/lastmile_qr_scan"}, "type": "electric_scooter", "lon": -77.04808666666666, "name": "0974892b68228dfbf447f7317524a025", "bike_id": "0974892b68228dfbf447f7317524a025", "fusion_lat": 0.0, "is_reserved": 0, "lat": 38.919209333333335, "fusion_lon": 0.0, "is_disabled": 0}, {"rental_uris": {"android": "https://dc.lft.to/lastmile_qr_scan", "ios": "https://dc.lft.to/lastmile_qr_scan"}, "type": "electric_scooter", "lon": -77.00729283333334, "name": "b87ec4b3a098b4f6146d379de37249a9", "bike_id": "b87ec4b3a098b4f6146d379de37249a9", "fusion_lat": 0.0, "is_reserved": 0, "lat": 38.87913566666667, "fusion_lon": 0.0, "is_disabled": 0}, {"rental_uris": {"android": "https://dc.lft.to/lastmile_qr_scan", "ios": "https://dc.lft.to/lastmile_qr_scan"}, "type": "electric_scooter", "lon": -77.027156, "name": "c33f6ca8c3b3e82053be9e2eed3ff1d6", "bike_id": "c33f6ca8c3b3e82053be9e2eed3ff1d6", "fusion_lat": 0.0, "is_reserved": 0, "lat": 38.92466016666667, "fusion_lon": 0.0, "is_disabled": 0}, {"rental_uris": {"android": "https://dc.lft.to/lastmile_qr_scan", "ios": "https://dc.lft.to/lastmile_qr_scan"}, "type": "electric_scooter", "lon": -77.03225533333334, "name": "c82e4b41cbbd3429c16885454db5cb3a", "bike_id": "c82e4b41cbbd3429c16885454db5cb3a", "fusion_lat": 0.0, "is_reserved": 0, "lat": 38.9085735, "fusion_lon": 0.0, "is_disabled": 0}, {"rental_uris": {"android": "https://dc.lft.to/lastmile_qr_scan", "ios": "https://dc.lft.to/lastmile_qr_scan"}, "type": "electric_scooter", "lon": -77.0545515, "name": "7067eecac6de697eeb9837f8752a3e4b", "bike_id": "7067eecac6de697eeb9837f8752a3e4b", "fusion_lat": 0.0, "is_reserved": 0, "lat": 38.92897266666667, "fusion_lon": 0.0, "is_disabled": 0}, {"rental_uris": {"android": "https://dc.lft.to/lastmile_qr_scan", "ios": "https://dc.lft.to/lastmile_qr_scan"}, "type": "electric_scooter", "lon": -77.03049183333333, "name": "6750d99356c5803d70d36595d466a5eb", "bike_id": "6750d99356c5803d70d36595d466a5eb", "fusion_lat": 0.0, "is_reserved": 0, "lat": 38.88409266666667, "fusion_lon": 0.0, "is_disabled": 0}, {"rental_uris": {"android": "https://dc.lft.to/lastmile_qr_scan", "ios": "https://dc.lft.to/lastmile_qr_scan"}, "type": "electric_scooter", "lon": -76.97184933333334, "name": "60a9531c82136b00d74217139061799a", "bike_id": "60a9531c82136b00d74217139061799a", "fusion_lat": 0.0, "is_reserved": 0, "lat": 38.912638333333334, "fusion_lon": 0.0, "is_disabled": 0}, {"rental_uris": {"android": "https://dc.lft.to/lastmile_qr_scan", "ios": "https://dc.lft.to/lastmile_qr_scan"}, "type": "electric_scooter", "lon": -76.9671145, "name": "3e4b5ce9aeec3a70e069e31634e74d2a", "bike_id": "3e4b5ce9aeec3a70e069e31634e74d2a", "fusion_lat": 0.0, "is_reserved": 0, "lat": 38.8695185, "fusion_lon": 0.0, "is_disabled": 0}, {"rental_uris": {"android": "https://dc.lft.to/lastmile_qr_scan", "ios": "https://dc.lft.to/lastmile_qr_scan"}, "type": "electric_scooter", "lon": -77.02476683333333, "name": "a2d2ac350c408859e44e5f787eb9fa4a", "bike_id": "a2d2ac350c408859e44e5f787eb9fa4a", "fusion_lat": 0.0, "is_reserved": 0, "lat": 38.9387905, "fusion_lon": 0.0, "is_disabled": 0}, {"rental_uris": {"android": "https://dc.lft.to/lastmile_qr_scan", "ios": "https://dc.lft.to/lastmile_qr_scan"}, "type": "electric_scooter", "lon": -76.99631866666667, "name": "0b59005fe28a94e4b3190f64c4934201", "bike_id": "0b59005fe28a94e4b3190f64c4934201", "fusion_lat": 0.0, "is_reserved": 0, "lat": 38.8462025, "fusion_lon": 0.0, "is_disabled": 0}, {"rental_uris": {"android": "https://dc.lft.to/lastmile_qr_scan", "ios": "https://dc.lft.to/lastmile_qr_scan"}, "type": "electric_scooter", "lon": -77.0628695, "name": "cb94406ba1ee2a035b5efab221521d25", "bike_id": "cb94406ba1ee2a035b5efab221521d25", "fusion_lat": 0.0, "is_reserved": 0, "lat": 38.904583333333335, "fusion_lon": 0.0, "is_disabled": 0}, {"rental_uris": {"android": "https://dc.lft.to/lastmile_qr_scan", "ios": "https://dc.lft.to/lastmile_qr_scan"}, "type": "electric_scooter", "lon": -76.94923866666667, "name": "a46b5946df084823c9f6f4cc034a2009", "bike_id": "a46b5946df084823c9f6f4cc034a2009", "fusion_lat": 0.0, "is_reserved": 0, "lat": 38.884828166666665, "fusion_lon": 0.0, "is_disabled": 0}, {"rental_uris": {"android": "https://dc.lft.to/lastmile_qr_scan", "ios": "https://dc.lft.to/lastmile_qr_scan"}, "type": "electric_scooter", "lon": -77.018939, "name": "af30933af226dc7365f78b721f1fc470", "bike_id": "af30933af226dc7365f78b721f1fc470", "fusion_lat": 0.0, "is_reserved": 0, "lat": 38.90939766666666, "fusion_lon": 0.0, "is_disabled": 0}, {"rental_uris": {"android": "https://dc.lft.to/lastmile_qr_scan", "ios": "https://dc.lft.to/lastmile_qr_scan"}, "type": "electric_scooter", "lon": -76.99016333333333, "name": "dd0bc30c210917c1aea0dc1cc04a3334", "bike_id": "dd0bc30c210917c1aea0dc1cc04a3334", "fusion_lat": 0.0, "is_reserved": 0, "lat": 38.86112266666667, "fusion_lon": 0.0, "is_disabled": 0}, {"rental_uris": {"android": "https://dc.lft.to/lastmile_qr_scan", "ios": "https://dc.lft.to/lastmile_qr_scan"}, "type": "electric_scooter", "lon": -77.03906866666667, "name": "ad02642271cf3443c275b0e78c1f6422", "bike_id": "ad02642271cf3443c275b0e78c1f6422", "fusion_lat": 0.0, "is_reserved": 0, "lat": 38.914183666666666, "fusion_lon": 0.0, "is_disabled": 0}, {"rental_uris": {"android": "https://dc.lft.to/lastmile_qr_scan", "ios": "https://dc.lft.to/lastmile_qr_scan"}, "type": "electric_scooter", "lon": -77.013973, "name": "52fddb4b42de5fba97c0add2a84e40d3", "bike_id": "52fddb4b42de5fba97c0add2a84e40d3", "fusion_lat": 0.0, "is_reserved": 0, "lat": 38.919503, "fusion_lon": 0.0, "is_disabled": 0}, {"rental_uris": {"android": "https://dc.lft.to/lastmile_qr_scan", "ios": "https://dc.lft.to/lastmile_qr_scan"}, "type": "electric_scooter", "lon": -77.071215, "name": "e618849aee39ca092ece5631df47c7cc", "bike_id": "e618849aee39ca092ece5631df47c7cc", "fusion_lat": 0.0, "is_reserved": 0, "lat": 38.91974283333333, "fusion_lon": 0.0, "is_disabled": 0}, {"rental_uris": {"android": "https://dc.lft.to/lastmile_qr_scan", "ios": "https://dc.lft.to/lastmile_qr_scan"}, "type": "electric_bike", "lon": -77.0248965, "name": "1928ced30f8ea1c99745cc42e65d5a3d", "bike_id": "1928ced30f8ea1c99745cc42e65d5a3d", "fusion_lat": 0.0, "is_reserved": 0, "lat": 38.973661, "fusion_lon": 0.0, "is_disabled": 0}, {"rental_uris": {"android": "https://dc.lft.to/lastmile_qr_scan", "ios": "https://dc.lft.to/lastmile_qr_scan"}, "type": "electric_scooter", "lon": -77.03886, "name": "b2cc1ce68904e63f70c4cf5168ab52c3", "bike_id": "b2cc1ce68904e63f70c4cf5168ab52c3", "fusion_lat": 0.0, "is_reserved": 0, "lat": 38.932626666666664, "fusion_lon": 0.0, "is_disabled": 0}, {"rental_uris": {"android": "https://dc.lft.to/lastmile_qr_scan", "ios": "https://dc.lft.to/lastmile_qr_scan"}, "type": "electric_scooter", "lon": -77.029585, "name": "7826928f62eac16c6c56c12ca845eecd", "bike_id": "7826928f62eac16c6c56c12ca845eecd", "fusion_lat": 0.0, "is_reserved": 0, "lat": 38.90548533333333, "fusion_lon": 0.0, "is_disabled": 0}, {"rental_uris": {"android": "https://dc.lft.to/lastmile_qr_scan", "ios": "https://dc.lft.to/lastmile_qr_scan"}, "type": "electric_scooter", "lon": -77.04869883333333, "name": "9dfc80e1c013eb001d409f10075a725a", "bike_id": "9dfc80e1c013eb001d409f10075a725a", "fusion_lat": 0.0, "is_reserved": 0, "lat": 38.90300516666667, "fusion_lon": 0.0, "is_disabled": 0}, {"rental_uris": {"android": "https://dc.lft.to/lastmile_qr_scan", "ios": "https://dc.lft.to/lastmile_qr_scan"}, "type": "electric_scooter", "lon": -76.994596, "name": "8a6fe6209bcb1dc437fa648fe56cc821", "bike_id": "8a6fe6209bcb1dc437fa648fe56cc821", "fusion_lat": 0.0, "is_reserved": 0, "lat": 38.9227725, "fusion_lon": 0.0, "is_disabled": 0}, {"rental_uris": {"android": "https://dc.lft.to/lastmile_qr_scan", "ios": "https://dc.lft.to/lastmile_qr_scan"}, "type": "electric_scooter", "lon": -77.05307983333333, "name": "b57f7986a461f46cfb66233b03790df3", "bike_id": "b57f7986a461f46cfb66233b03790df3", "fusion_lat": 0.0, "is_reserved": 0, "lat": 38.9067165, "fusion_lon": 0.0, "is_disabled": 0}, {"rental_uris": {"android": "https://dc.lft.to/lastmile_qr_scan", "ios": "https://dc.lft.to/lastmile_qr_scan"}, "type": "electric_scooter", "lon": -77.0326515, "name": "9d9a80fe2cacad29d73baf4afbb5aec6", "bike_id": "9d9a80fe2cacad29d73baf4afbb5aec6", "fusion_lat": 0.0, "is_reserved": 0, "lat": 38.92841766666667, "fusion_lon": 0.0, "is_disabled": 0}, {"rental_uris": {"android": "https://dc.lft.to/lastmile_qr_scan", "ios": "https://dc.lft.to/lastmile_qr_scan"}, "type": "electric_scooter", "lon": -77.02725733333334, "name": "d8b88141e9775ef83175fb56aff43cef", "bike_id": "d8b88141e9775ef83175fb56aff43cef", "fusion_lat": 0.0, "is_reserved": 0, "lat": 38.951335, "fusion_lon": 0.0, "is_disabled": 0}, {"rental_uris": {"android": "https://dc.lft.to/lastmile_qr_scan", "ios": "https://dc.lft.to/lastmile_qr_scan"}, "type": "electric_scooter", "lon": -77.03790883333333, "name": "cace39b84906150066fd8869b1ab8c38", "bike_id": "cace39b84906150066fd8869b1ab8c38", "fusion_lat": 0.0, "is_reserved": 0, "lat": 38.933229, "fusion_lon": 0.0, "is_disabled": 0}, {"rental_uris": {"android": "https://dc.lft.to/lastmile_qr_scan", "ios": "https://dc.lft.to/lastmile_qr_scan"}, "type": "electric_scooter", "lon": -76.98766916666666, "name": "349eb6950d769ba1cf13218a000cf641", "bike_id": "349eb6950d769ba1cf13218a000cf641", "fusion_lat": 0.0, "is_reserved": 0, "lat": 38.88316533333333, "fusion_lon": 0.0, "is_disabled": 0}, {"rental_uris": {"android": "https://dc.lft.to/lastmile_qr_scan", "ios": "https://dc.lft.to/lastmile_qr_scan"}, "type": "electric_scooter", "lon": -77.02573983333333, "name": "8bfc30346a1fca11eece247a81fa2b5c", "bike_id": "8bfc30346a1fca11eece247a81fa2b5c", "fusion_lat": 0.0, "is_reserved": 0, "lat": 38.92509533333333, "fusion_lon": 0.0, "is_disabled": 0}, {"rental_uris": {"android": "https://dc.lft.to/lastmile_qr_scan", "ios": "https://dc.lft.to/lastmile_qr_scan"}, "type": "electric_bike", "lon": -76.94622116666666, "name": "c4138ede4fc2b63aa528ecd90487ca92", "bike_id": "c4138ede4fc2b63aa528ecd90487ca92", "fusion_lat": 0.0, "is_reserved": 0, "lat": 38.83236933333333, "fusion_lon": 0.0, "is_disabled": 0}, {"rental_uris": {"android": "https://dc.lft.to/lastmile_qr_scan", "ios": "https://dc.lft.to/lastmile_qr_scan"}, "type": "electric_scooter", "lon": -77.01357833333333, "name": "48084523f024e58f314e7e9ab9b30941", "bike_id": "48084523f024e58f314e7e9ab9b30941", "fusion_lat": 0.0, "is_reserved": 0, "lat": 38.91928816666667, "fusion_lon": 0.0, "is_disabled": 0}, {"rental_uris": {"android": "https://dc.lft.to/lastmile_qr_scan", "ios": "https://dc.lft.to/lastmile_qr_scan"}, "type": "electric_scooter", "lon": -77.02717216666667, "name": "713e788060b16e834d88f97ede5e1e3c", "bike_id": "713e788060b16e834d88f97ede5e1e3c", "fusion_lat": 0.0, "is_reserved": 0, "lat": 38.8994305, "fusion_lon": 0.0, "is_disabled": 0}, {"rental_uris": {"android": "https://dc.lft.to/lastmile_qr_scan", "ios": "https://dc.lft.to/lastmile_qr_scan"}, "type": "electric_scooter", "lon": -77.04612, "name": "520890bd84ea600ad7ca15fe7947c2a2", "bike_id": "520890bd84ea600ad7ca15fe7947c2a2", "fusion_lat": 0.0, "is_reserved": 0, "lat": 38.88381666666667, "fusion_lon": 0.0, "is_disabled": 0}, {"rental_uris": {"android": "https://dc.lft.to/lastmile_qr_scan", "ios": "https://dc.lft.to/lastmile_qr_scan"}, "type": "electric_bike", "lon": -77.0398655, "name": "35ccfc80f40e069a72624b2304fa4fc7", "bike_id": "35ccfc80f40e069a72624b2304fa4fc7", "fusion_lat": 0.0, "is_reserved": 0, "lat": 38.802979666666666, "fusion_lon": 0.0, "is_disabled": 0}, {"rental_uris": {"android": "https://dc.lft.to/lastmile_qr_scan", "ios": "https://dc.lft.to/lastmile_qr_scan"}, "type": "electric_scooter", "lon": -77.02281, "name": "6a6325cfbf51bc7da7db06b9d1434fe5", "bike_id": "6a6325cfbf51bc7da7db06b9d1434fe5", "fusion_lat": 0.0, "is_reserved": 0, "lat": 38.926918, "fusion_lon": 0.0, "is_disabled": 0}, {"rental_uris": {"android": "https://dc.lft.to/lastmile_qr_scan", "ios": "https://dc.lft.to/lastmile_qr_scan"}, "type": "electric_scooter", "lon": -77.003764, "name": "04dac3716f53f9a941f393162b2e9881", "bike_id": "04dac3716f53f9a941f393162b2e9881", "fusion_lat": 0.0, "is_reserved": 0, "lat": 38.906055, "fusion_lon": 0.0, "is_disabled": 0}, {"rental_uris": {"android": "https://dc.lft.to/lastmile_qr_scan", "ios": "https://dc.lft.to/lastmile_qr_scan"}, "type": "electric_scooter", "lon": -77.04109966666667, "name": "923df5a8e9bcf7f502b58f8b12773353", "bike_id": "923df5a8e9bcf7f502b58f8b12773353", "fusion_lat": 0.0, "is_reserved": 0, "lat": 38.92534783333333, "fusion_lon": 0.0, "is_disabled": 0}, {"rental_uris": {"android": "https://dc.lft.to/lastmile_qr_scan", "ios": "https://dc.lft.to/lastmile_qr_scan"}, "type": "electric_scooter", "lon": -77.01614183333334, "name": "acfe1af54d7350745c4c6b21fd0fb739", "bike_id": "acfe1af54d7350745c4c6b21fd0fb739", "fusion_lat": 0.0, "is_reserved": 0, "lat": 38.8996825, "fusion_lon": 0.0, "is_disabled": 0}, {"rental_uris": {"android": "https://dc.lft.to/lastmile_qr_scan", "ios": "https://dc.lft.to/lastmile_qr_scan"}, "type": "electric_scooter", "lon": -76.99626333333333, "name": "cee90b1a642ea0a2601211061b541c0e", "bike_id": "cee90b1a642ea0a2601211061b541c0e", "fusion_lat": 0.0, "is_reserved": 0, "lat": 38.8803, "fusion_lon": 0.0, "is_disabled": 0}, {"rental_uris": {"android": "https://dc.lft.to/lastmile_qr_scan", "ios": "https://dc.lft.to/lastmile_qr_scan"}, "type": "electric_scooter", "lon": -76.997759, "name": "4c744fa46dfc94185998e6f18ecee68d", "bike_id": "4c744fa46dfc94185998e6f18ecee68d", "fusion_lat": 0.0, "is_reserved": 0, "lat": 38.8442465, "fusion_lon": 0.0, "is_disabled": 0}, {"rental_uris": {"android": "https://dc.lft.to/lastmile_qr_scan", "ios": "https://dc.lft.to/lastmile_qr_scan"}, "type": "electric_scooter", "lon": -76.99094133333334, "name": "69358a9387d3b91de8fb59d0812f4a7b", "bike_id": "69358a9387d3b91de8fb59d0812f4a7b", "fusion_lat": 0.0, "is_reserved": 0, "lat": 38.929528833333336, "fusion_lon": 0.0, "is_disabled": 0}, {"rental_uris": {"android": "https://dc.lft.to/lastmile_qr_scan", "ios": "https://dc.lft.to/lastmile_qr_scan"}, "type": "electric_scooter", "lon": -76.98931333333333, "name": "b36dd03656da06dcb37cc7113f16fc7f", "bike_id": "b36dd03656da06dcb37cc7113f16fc7f", "fusion_lat": 0.0, "is_reserved": 0, "lat": 38.8659265, "fusion_lon": 0.0, "is_disabled": 0}, {"rental_uris": {"android": "https://dc.lft.to/lastmile_qr_scan", "ios": "https://dc.lft.to/lastmile_qr_scan"}, "type": "electric_scooter", "lon": -77.01812066666666, "name": "1b39e4948f8de756bd275dfbafe0865e", "bike_id": "1b39e4948f8de756bd275dfbafe0865e", "fusion_lat": 0.0, "is_reserved": 0, "lat": 38.903785666666664, "fusion_lon": 0.0, "is_disabled": 0}, {"rental_uris": {"android": "https://dc.lft.to/lastmile_qr_scan", "ios": "https://dc.lft.to/lastmile_qr_scan"}, "type": "electric_scooter", "lon": -76.9888355, "name": "e8712aad07ea149003f160eee3bba383", "bike_id": "e8712aad07ea149003f160eee3bba383", "fusion_lat": 0.0, "is_reserved": 0, "lat": 38.902112333333335, "fusion_lon": 0.0, "is_disabled": 0}, {"rental_uris": {"android": "https://dc.lft.to/lastmile_qr_scan", "ios": "https://dc.lft.to/lastmile_qr_scan"}, "type": "electric_scooter", "lon": -77.006104, "name": "5b013791a9b8a8127abc0ebd58067a3f", "bike_id": "5b013791a9b8a8127abc0ebd58067a3f", "fusion_lat": 0.0, "is_reserved": 0, "lat": 38.905561666666664, "fusion_lon": 0.0, "is_disabled": 0}, {"rental_uris": {"android": "https://dc.lft.to/lastmile_qr_scan", "ios": "https://dc.lft.to/lastmile_qr_scan"}, "type": "electric_scooter", "lon": -77.04098966666666, "name": "e7d3d6ec52f944aeea7c54316349a577", "bike_id": "e7d3d6ec52f944aeea7c54316349a577", "fusion_lat": 0.0, "is_reserved": 0, "lat": 38.91405983333333, "fusion_lon": 0.0, "is_disabled": 0}, {"rental_uris": {"android": "https://dc.lft.to/lastmile_qr_scan", "ios": "https://dc.lft.to/lastmile_qr_scan"}, "type": "electric_scooter", "lon": -77.01878266666667, "name": "90169f21f77208d8d41d8a78736e6088", "bike_id": "90169f21f77208d8d41d8a78736e6088", "fusion_lat": 0.0, "is_reserved": 0, "lat": 38.91770316666667, "fusion_lon": 0.0, "is_disabled": 0}, {"rental_uris": {"android": "https://dc.lft.to/lastmile_qr_scan", "ios": "https://dc.lft.to/lastmile_qr_scan"}, "type": "electric_bike", "lon": -77.10026633333334, "name": "4b332424af1e80b50d0eb2a67526b9eb", "bike_id": "4b332424af1e80b50d0eb2a67526b9eb", "fusion_lat": 0.0, "is_reserved": 0, "lat": 38.990634, "fusion_lon": 0.0, "is_disabled": 0}, {"rental_uris": {"android": "https://dc.lft.to/lastmile_qr_scan", "ios": "https://dc.lft.to/lastmile_qr_scan"}, "type": "electric_scooter", "lon": -77.0247985, "name": "9c3744e443467b003556ce63fa14ea88", "bike_id": "9c3744e443467b003556ce63fa14ea88", "fusion_lat": 0.0, "is_reserved": 0, "lat": 38.938737, "fusion_lon": 0.0, "is_disabled": 0}, {"rental_uris": {"android": "https://dc.lft.to/lastmile_qr_scan", "ios": "https://dc.lft.to/lastmile_qr_scan"}, "type": "electric_scooter", "lon": -77.0190955, "name": "d9551d29ebfc6f0ba79ab2af443c5386", "bike_id": "d9551d29ebfc6f0ba79ab2af443c5386", "fusion_lat": 0.0, "is_reserved": 0, "lat": 38.923381166666665, "fusion_lon": 0.0, "is_disabled": 0}, {"rental_uris": {"android": "https://dc.lft.to/lastmile_qr_scan", "ios": "https://dc.lft.to/lastmile_qr_scan"}, "type": "electric_scooter", "lon": -77.02407016666666, "name": "bf4fb0b36ab478bdce10d252d7ad73f2", "bike_id": "bf4fb0b36ab478bdce10d252d7ad73f2", "fusion_lat": 0.0, "is_reserved": 0, "lat": 38.90871716666667, "fusion_lon": 0.0, "is_disabled": 0}, {"rental_uris": {"android": "https://dc.lft.to/lastmile_qr_scan", "ios": "https://dc.lft.to/lastmile_qr_scan"}, "type": "electric_scooter", "lon": -77.03275216666667, "name": "5050c8fdea9c51c90204549a130f2ac8", "bike_id": "5050c8fdea9c51c90204549a130f2ac8", "fusion_lat": 0.0, "is_reserved": 0, "lat": 38.932489, "fusion_lon": 0.0, "is_disabled": 0}, {"rental_uris": {"android": "https://dc.lft.to/lastmile_qr_scan", "ios": "https://dc.lft.to/lastmile_qr_scan"}, "type": "electric_scooter", "lon": -77.03935916666667, "name": "583a4bfc1bea08932c650e04c032db23", "bike_id": "583a4bfc1bea08932c650e04c032db23", "fusion_lat": 0.0, "is_reserved": 0, "lat": 38.91389516666667, "fusion_lon": 0.0, "is_disabled": 0}, {"rental_uris": {"android": "https://dc.lft.to/lastmile_qr_scan", "ios": "https://dc.lft.to/lastmile_qr_scan"}, "type": "electric_scooter", "lon": -77.01610833333334, "name": "f26d0a79c1e63048b91e56279ec66182", "bike_id": "f26d0a79c1e63048b91e56279ec66182", "fusion_lat": 0.0, "is_reserved": 0, "lat": 38.90589666666666, "fusion_lon": 0.0, "is_disabled": 0}, {"rental_uris": {"android": "https://dc.lft.to/lastmile_qr_scan", "ios": "https://dc.lft.to/lastmile_qr_scan"}, "type": "electric_scooter", "lon": -77.01179466666666, "name": "44c8c27b31723a1f0bb3418896a7855a", "bike_id": "44c8c27b31723a1f0bb3418896a7855a", "fusion_lat": 0.0, "is_reserved": 0, "lat": 38.89740116666667, "fusion_lon": 0.0, "is_disabled": 0}, {"rental_uris": {"android": "https://dc.lft.to/lastmile_qr_scan", "ios": "https://dc.lft.to/lastmile_qr_scan"}, "type": "electric_scooter", "lon": -77.02241033333334, "name": "d7f2ed73831b5cf929e67691a16386a5", "bike_id": "d7f2ed73831b5cf929e67691a16386a5", "fusion_lat": 0.0, "is_reserved": 0, "lat": 38.8787155, "fusion_lon": 0.0, "is_disabled": 0}, {"rental_uris": {"android": "https://dc.lft.to/lastmile_qr_scan", "ios": "https://dc.lft.to/lastmile_qr_scan"}, "type": "electric_scooter", "lon": -77.030483, "name": "cf2be74ae395cf9786ca8fbeab0c2274", "bike_id": "cf2be74ae395cf9786ca8fbeab0c2274", "fusion_lat": 0.0, "is_reserved": 0, "lat": 38.88408233333333, "fusion_lon": 0.0, "is_disabled": 0}, {"rental_uris": {"android": "https://dc.lft.to/lastmile_qr_scan", "ios": "https://dc.lft.to/lastmile_qr_scan"}, "type": "electric_scooter", "lon": -77.00265033333334, "name": "effe2191d31329fdadb2d9420d1b2209", "bike_id": "effe2191d31329fdadb2d9420d1b2209", "fusion_lat": 0.0, "is_reserved": 0, "lat": 38.90138566666667, "fusion_lon": 0.0, "is_disabled": 0}, {"rental_uris": {"android": "https://dc.lft.to/lastmile_qr_scan", "ios": "https://dc.lft.to/lastmile_qr_scan"}, "type": "electric_scooter", "lon": -77.01338283333334, "name": "401c032cb6c44999c32476cc02a44b76", "bike_id": "401c032cb6c44999c32476cc02a44b76", "fusion_lat": 0.0, "is_reserved": 0, "lat": 38.88120983333334, "fusion_lon": 0.0, "is_disabled": 0}, {"rental_uris": {"android": "https://dc.lft.to/lastmile_qr_scan", "ios": "https://dc.lft.to/lastmile_qr_scan"}, "type": "electric_bike", "lon": -77.04899133333333, "name": "b70be5ff1be8e9a6ce005dbcd10d2d4a", "bike_id": "b70be5ff1be8e9a6ce005dbcd10d2d4a", "fusion_lat": 0.0, "is_reserved": 0, "lat": 38.87493, "fusion_lon": 0.0, "is_disabled": 0}, {"rental_uris": {"android": "https://dc.lft.to/lastmile_qr_scan", "ios": "https://dc.lft.to/lastmile_qr_scan"}, "type": "electric_scooter", "lon": -77.0384095, "name": "9cb8137d7088e26dd4f2d88a727f0a38", "bike_id": "9cb8137d7088e26dd4f2d88a727f0a38", "fusion_lat": 0.0, "is_reserved": 0, "lat": 38.909834833333335, "fusion_lon": 0.0, "is_disabled": 0}, {"rental_uris": {"android": "https://dc.lft.to/lastmile_qr_scan", "ios": "https://dc.lft.to/lastmile_qr_scan"}, "type": "electric_scooter", "lon": -77.03887183333333, "name": "c9a2d03fff6af378c51d4a5517e39092", "bike_id": "c9a2d03fff6af378c51d4a5517e39092", "fusion_lat": 0.0, "is_reserved": 0, "lat": 38.932651166666666, "fusion_lon": 0.0, "is_disabled": 0}, {"rental_uris": {"android": "https://dc.lft.to/lastmile_qr_scan", "ios": "https://dc.lft.to/lastmile_qr_scan"}, "type": "electric_scooter", "lon": -77.038546, "name": "f37db176b7f3179b24969135f6c1a957", "bike_id": "f37db176b7f3179b24969135f6c1a957", "fusion_lat": 0.0, "is_reserved": 0, "lat": 38.9154575, "fusion_lon": 0.0, "is_disabled": 0}, {"rental_uris": {"android": "https://dc.lft.to/lastmile_qr_scan", "ios": "https://dc.lft.to/lastmile_qr_scan"}, "type": "electric_scooter", "lon": -77.032056, "name": "0e9829c37c19596911993a775fbf810c", "bike_id": "0e9829c37c19596911993a775fbf810c", "fusion_lat": 0.0, "is_reserved": 0, "lat": 38.912017166666665, "fusion_lon": 0.0, "is_disabled": 0}, {"rental_uris": {"android": "https://dc.lft.to/lastmile_qr_scan", "ios": "https://dc.lft.to/lastmile_qr_scan"}, "type": "electric_bike", "lon": -77.07905533333333, "name": "4f69db64ab4452767b809a5f281d681a", "bike_id": "4f69db64ab4452767b809a5f281d681a", "fusion_lat": 0.0, "is_reserved": 0, "lat": 38.839318666666664, "fusion_lon": 0.0, "is_disabled": 0}, {"rental_uris": {"android": "https://dc.lft.to/lastmile_qr_scan", "ios": "https://dc.lft.to/lastmile_qr_scan"}, "type": "electric_scooter", "lon": -77.0221985, "name": "197fba54f373e881c6732bca030ed6bb", "bike_id": "197fba54f373e881c6732bca030ed6bb", "fusion_lat": 0.0, "is_reserved": 0, "lat": 38.91255866666667, "fusion_lon": 0.0, "is_disabled": 0}, {"rental_uris": {"android": "https://dc.lft.to/lastmile_qr_scan", "ios": "https://dc.lft.to/lastmile_qr_scan"}, "type": "electric_bike", "lon": -77.1142995, "name": "2d6817c43bb9af9d6ba66232c2278554", "bike_id": "2d6817c43bb9af9d6ba66232c2278554", "fusion_lat": 0.0, "is_reserved": 0, "lat": 38.8429985, "fusion_lon": 0.0, "is_disabled": 0}, {"rental_uris": {"android": "https://dc.lft.to/lastmile_qr_scan", "ios": "https://dc.lft.to/lastmile_qr_scan"}, "type": "electric_scooter", "lon": -77.028275, "name": "10d507878dee083cdbed7411e7a9ed6b", "bike_id": "10d507878dee083cdbed7411e7a9ed6b", "fusion_lat": 0.0, "is_reserved": 0, "lat": 38.9155225, "fusion_lon": 0.0, "is_disabled": 0}, {"rental_uris": {"android": "https://dc.lft.to/lastmile_qr_scan", "ios": "https://dc.lft.to/lastmile_qr_scan"}, "type": "electric_scooter", "lon": -77.0235355, "name": "e92eb4c74e3763c8538476c5ca658172", "bike_id": "e92eb4c74e3763c8538476c5ca658172", "fusion_lat": 0.0, "is_reserved": 0, "lat": 38.892228333333335, "fusion_lon": 0.0, "is_disabled": 0}, {"rental_uris": {"android": "https://dc.lft.to/lastmile_qr_scan", "ios": "https://dc.lft.to/lastmile_qr_scan"}, "type": "electric_bike", "lon": -77.05093133333334, "name": "925c93fde7d7de9a809070618a82ebf2", "bike_id": "925c93fde7d7de9a809070618a82ebf2", "fusion_lat": 0.0, "is_reserved": 0, "lat": 38.81331466666666, "fusion_lon": 0.0, "is_disabled": 0}, {"rental_uris": {"android": "https://dc.lft.to/lastmile_qr_scan", "ios": "https://dc.lft.to/lastmile_qr_scan"}, "type": "electric_bike", "lon": -76.94470683333333, "name": "2d9c760a4f3fcd945f734318c36eecf0", "bike_id": "2d9c760a4f3fcd945f734318c36eecf0", "fusion_lat": 0.0, "is_reserved": 0, "lat": 38.94559233333333, "fusion_lon": 0.0, "is_disabled": 0}, {"rental_uris": {"android": "https://dc.lft.to/lastmile_qr_scan", "ios": "https://dc.lft.to/lastmile_qr_scan"}, "type": "electric_scooter", "lon": -76.98361383333334, "name": "0288a4309976be01d504a35f6ff98036", "bike_id": "0288a4309976be01d504a35f6ff98036", "fusion_lat": 0.0, "is_reserved": 0, "lat": 38.861037, "fusion_lon": 0.0, "is_disabled": 0}, {"rental_uris": {"android": "https://dc.lft.to/lastmile_qr_scan", "ios": "https://dc.lft.to/lastmile_qr_scan"}, "type": "electric_scooter", "lon": -77.02178566666667, "name": "aa8851dd3e8aa9700f847c04d65e1f53", "bike_id": "aa8851dd3e8aa9700f847c04d65e1f53", "fusion_lat": 0.0, "is_reserved": 0, "lat": 38.9059975, "fusion_lon": 0.0, "is_disabled": 0}, {"rental_uris": {"android": "https://dc.lft.to/lastmile_qr_scan", "ios": "https://dc.lft.to/lastmile_qr_scan"}, "type": "electric_scooter", "lon": -76.98770966666666, "name": "6a65bc1406a8f8912011ed8881925391", "bike_id": "6a65bc1406a8f8912011ed8881925391", "fusion_lat": 0.0, "is_reserved": 0, "lat": 38.911769, "fusion_lon": 0.0, "is_disabled": 0}, {"rental_uris": {"android": "https://dc.lft.to/lastmile_qr_scan", "ios": "https://dc.lft.to/lastmile_qr_scan"}, "type": "electric_scooter", "lon": -76.98686416666666, "name": "b9945cfeee04671831b37b125de4c9c0", "bike_id": "b9945cfeee04671831b37b125de4c9c0", "fusion_lat": 0.0, "is_reserved": 0, "lat": 38.85567966666667, "fusion_lon": 0.0, "is_disabled": 0}, {"rental_uris": {"android": "https://dc.lft.to/lastmile_qr_scan", "ios": "https://dc.lft.to/lastmile_qr_scan"}, "type": "electric_scooter", "lon": -77.04355933333333, "name": "81a57925d6cb566168238ad8622ebfd3", "bike_id": "81a57925d6cb566168238ad8622ebfd3", "fusion_lat": 0.0, "is_reserved": 0, "lat": 38.92158283333333, "fusion_lon": 0.0, "is_disabled": 0}, {"rental_uris": {"android": "https://dc.lft.to/lastmile_qr_scan", "ios": "https://dc.lft.to/lastmile_qr_scan"}, "type": "electric_scooter", "lon": -77.02315833333333, "name": "089ee7e1ebd230d7624d5a269b94943e", "bike_id": "089ee7e1ebd230d7624d5a269b94943e", "fusion_lat": 0.0, "is_reserved": 0, "lat": 38.878860333333336, "fusion_lon": 0.0, "is_disabled": 0}, {"rental_uris": {"android": "https://dc.lft.to/lastmile_qr_scan", "ios": "https://dc.lft.to/lastmile_qr_scan"}, "type": "electric_scooter", "lon": -77.02152766666667, "name": "7a3044e9ed43773a920bf0e1904ea8a3", "bike_id": "7a3044e9ed43773a920bf0e1904ea8a3", "fusion_lat": 0.0, "is_reserved": 0, "lat": 38.879194166666665, "fusion_lon": 0.0, "is_disabled": 0}, {"rental_uris": {"android": "https://dc.lft.to/lastmile_qr_scan", "ios": "https://dc.lft.to/lastmile_qr_scan"}, "type": "electric_bike", "lon": -77.12742633333333, "name": "d72814e133faf299ff4f5eea126dd1e8", "bike_id": "d72814e133faf299ff4f5eea126dd1e8", "fusion_lat": 0.0, "is_reserved": 0, "lat": 38.8882245, "fusion_lon": 0.0, "is_disabled": 0}, {"rental_uris": {"android": "https://dc.lft.to/lastmile_qr_scan", "ios": "https://dc.lft.to/lastmile_qr_scan"}, "type": "electric_scooter", "lon": -77.03854716666666, "name": "de0893c8aba115ad1b8f34a09216aa7c", "bike_id": "de0893c8aba115ad1b8f34a09216aa7c", "fusion_lat": 0.0, "is_reserved": 0, "lat": 38.91544066666667, "fusion_lon": 0.0, "is_disabled": 0}, {"rental_uris": {"android": "https://dc.lft.to/lastmile_qr_scan", "ios": "https://dc.lft.to/lastmile_qr_scan"}, "type": "electric_scooter", "lon": -76.99451783333333, "name": "12df846663e3715475a186bc7869be16", "bike_id": "12df846663e3715475a186bc7869be16", "fusion_lat": 0.0, "is_reserved": 0, "lat": 38.87659283333333, "fusion_lon": 0.0, "is_disabled": 0}, {"rental_uris": {"android": "https://dc.lft.to/lastmile_qr_scan", "ios": "https://dc.lft.to/lastmile_qr_scan"}, "type": "electric_scooter", "lon": -77.03660983333333, "name": "95f623805a29c6232d914708e41c5b6b", "bike_id": "95f623805a29c6232d914708e41c5b6b", "fusion_lat": 0.0, "is_reserved": 0, "lat": 38.9172075, "fusion_lon": 0.0, "is_disabled": 0}, {"rental_uris": {"android": "https://dc.lft.to/lastmile_qr_scan", "ios": "https://dc.lft.to/lastmile_qr_scan"}, "type": "electric_scooter", "lon": -77.06585966666667, "name": "97bf9260ae98929f9b4e41d8ccbd89b3", "bike_id": "97bf9260ae98929f9b4e41d8ccbd89b3", "fusion_lat": 0.0, "is_reserved": 0, "lat": 38.913649166666666, "fusion_lon": 0.0, "is_disabled": 0}, {"rental_uris": {"android": "https://dc.lft.to/lastmile_qr_scan", "ios": "https://dc.lft.to/lastmile_qr_scan"}, "type": "electric_scooter", "lon": -76.94117483333333, "name": "c3a7ae9587fdb21612e7426108466459", "bike_id": "c3a7ae9587fdb21612e7426108466459", "fusion_lat": 0.0, "is_reserved": 0, "lat": 38.907912333333336, "fusion_lon": 0.0, "is_disabled": 0}, {"rental_uris": {"android": "https://dc.lft.to/lastmile_qr_scan", "ios": "https://dc.lft.to/lastmile_qr_scan"}, "type": "electric_scooter", "lon": -77.02390933333334, "name": "94782a4a3c09994fd8dc671600b5ab6b", "bike_id": "94782a4a3c09994fd8dc671600b5ab6b", "fusion_lat": 0.0, "is_reserved": 0, "lat": 38.8873485, "fusion_lon": 0.0, "is_disabled": 0}, {"rental_uris": {"android": "https://dc.lft.to/lastmile_qr_scan", "ios": "https://dc.lft.to/lastmile_qr_scan"}, "type": "electric_scooter", "lon": -77.06164283333334, "name": "09e93da9b97439b12ecac1c6c9a7c194", "bike_id": "09e93da9b97439b12ecac1c6c9a7c194", "fusion_lat": 0.0, "is_reserved": 0, "lat": 38.94223683333333, "fusion_lon": 0.0, "is_disabled": 0}, {"rental_uris": {"android": "https://dc.lft.to/lastmile_qr_scan", "ios": "https://dc.lft.to/lastmile_qr_scan"}, "type": "electric_scooter", "lon": -76.931627, "name": "94607983cc3e911405751648305f27f1", "bike_id": "94607983cc3e911405751648305f27f1", "fusion_lat": 0.0, "is_reserved": 0, "lat": 38.898781666666665, "fusion_lon": 0.0, "is_disabled": 0}, {"rental_uris": {"android": "https://dc.lft.to/lastmile_qr_scan", "ios": "https://dc.lft.to/lastmile_qr_scan"}, "type": "electric_scooter", "lon": -77.0499525, "name": "7e865b777018cebca7990730711c7e49", "bike_id": "7e865b777018cebca7990730711c7e49", "fusion_lat": 0.0, "is_reserved": 0, "lat": 38.90518083333333, "fusion_lon": 0.0, "is_disabled": 0}, {"rental_uris": {"android": "https://dc.lft.to/lastmile_qr_scan", "ios": "https://dc.lft.to/lastmile_qr_scan"}, "type": "electric_scooter", "lon": -77.07189833333334, "name": "140f310ece19b0d41f2b10dfed73f4b6", "bike_id": "140f310ece19b0d41f2b10dfed73f4b6", "fusion_lat": 0.0, "is_reserved": 0, "lat": 38.92104966666667, "fusion_lon": 0.0, "is_disabled": 0}, {"rental_uris": {"android": "https://dc.lft.to/lastmile_qr_scan", "ios": "https://dc.lft.to/lastmile_qr_scan"}, "type": "electric_scooter", "lon": -76.9981575, "name": "28d20e0ad8d8fea7a9afaf3885cb04f9", "bike_id": "28d20e0ad8d8fea7a9afaf3885cb04f9", "fusion_lat": 0.0, "is_reserved": 0, "lat": 38.90727866666667, "fusion_lon": 0.0, "is_disabled": 0}, {"rental_uris": {"android": "https://dc.lft.to/lastmile_qr_scan", "ios": "https://dc.lft.to/lastmile_qr_scan"}, "type": "electric_scooter", "lon": -77.03186683333334, "name": "6e952fcddf87030cf669ef13012420f6", "bike_id": "6e952fcddf87030cf669ef13012420f6", "fusion_lat": 0.0, "is_reserved": 0, "lat": 38.91716983333333, "fusion_lon": 0.0, "is_disabled": 0}, {"rental_uris": {"android": "https://dc.lft.to/lastmile_qr_scan", "ios": "https://dc.lft.to/lastmile_qr_scan"}, "type": "electric_scooter", "lon": -76.97329683333334, "name": "723d973b48ff983213d554afd536be73", "bike_id": "723d973b48ff983213d554afd536be73", "fusion_lat": 0.0, "is_reserved": 0, "lat": 38.90482933333333, "fusion_lon": 0.0, "is_disabled": 0}, {"rental_uris": {"android": "https://dc.lft.to/lastmile_qr_scan", "ios": "https://dc.lft.to/lastmile_qr_scan"}, "type": "electric_scooter", "lon": -77.03636716666666, "name": "8d3456c21fb6d2a59631d0c965d83aac", "bike_id": "8d3456c21fb6d2a59631d0c965d83aac", "fusion_lat": 0.0, "is_reserved": 0, "lat": 38.91308133333333, "fusion_lon": 0.0, "is_disabled": 0}, {"rental_uris": {"android": "https://dc.lft.to/lastmile_qr_scan", "ios": "https://dc.lft.to/lastmile_qr_scan"}, "type": "electric_scooter", "lon": -76.98686766666667, "name": "64438f927db0f28c4fd3b5375a8ebf16", "bike_id": "64438f927db0f28c4fd3b5375a8ebf16", "fusion_lat": 0.0, "is_reserved": 0, "lat": 38.904942166666665, "fusion_lon": 0.0, "is_disabled": 0}, {"rental_uris": {"android": "https://dc.lft.to/lastmile_qr_scan", "ios": "https://dc.lft.to/lastmile_qr_scan"}, "type": "electric_scooter", "lon": -77.038578, "name": "8bf3141c139de98b11ea7e461f4ded41", "bike_id": "8bf3141c139de98b11ea7e461f4ded41", "fusion_lat": 0.0, "is_reserved": 0, "lat": 38.910195, "fusion_lon": 0.0, "is_disabled": 0}, {"rental_uris": {"android": "https://dc.lft.to/lastmile_qr_scan", "ios": "https://dc.lft.to/lastmile_qr_scan"}, "type": "electric_scooter", "lon": -77.03382333333333, "name": "a0506bb008864d6e46391626298e939a", "bike_id": "a0506bb008864d6e46391626298e939a", "fusion_lat": 0.0, "is_reserved": 0, "lat": 38.909765666666665, "fusion_lon": 0.0, "is_disabled": 0}, {"rental_uris": {"android": "https://dc.lft.to/lastmile_qr_scan", "ios": "https://dc.lft.to/lastmile_qr_scan"}, "type": "electric_bike", "lon": -77.35308866666666, "name": "19d1003db2a55bb872a153bafa636ecb", "bike_id": "19d1003db2a55bb872a153bafa636ecb", "fusion_lat": 0.0, "is_reserved": 0, "lat": 38.95001416666667, "fusion_lon": 0.0, "is_disabled": 0}, {"rental_uris": {"android": "https://dc.lft.to/lastmile_qr_scan", "ios": "https://dc.lft.to/lastmile_qr_scan"}, "type": "electric_scooter", "lon": -76.997193, "name": "45d3fe5b6df5be3e7b541bd24bae234e", "bike_id": "45d3fe5b6df5be3e7b541bd24bae234e", "fusion_lat": 0.0, "is_reserved": 0, "lat": 38.9110985, "fusion_lon": 0.0, "is_disabled": 0}, {"rental_uris": {"android": "https://dc.lft.to/lastmile_qr_scan", "ios": "https://dc.lft.to/lastmile_qr_scan"}, "type": "electric_scooter", "lon": -77.02725633333333, "name": "04b9447765340d292c16eb21fcc03719", "bike_id": "04b9447765340d292c16eb21fcc03719", "fusion_lat": 0.0, "is_reserved": 0, "lat": 38.9512995, "fusion_lon": 0.0, "is_disabled": 0}, {"rental_uris": {"android": "https://dc.lft.to/lastmile_qr_scan", "ios": "https://dc.lft.to/lastmile_qr_scan"}, "type": "electric_scooter", "lon": -76.94651883333333, "name": "4034dea49f38e6c3d588d6725054caa7", "bike_id": "4034dea49f38e6c3d588d6725054caa7", "fusion_lat": 0.0, "is_reserved": 0, "lat": 38.898235666666665, "fusion_lon": 0.0, "is_disabled": 0}, {"rental_uris": {"android": "https://dc.lft.to/lastmile_qr_scan", "ios": "https://dc.lft.to/lastmile_qr_scan"}, "type": "electric_scooter", "lon": -77.016407, "name": "e61017d844e43635d5df52498aa2fb2e", "bike_id": "e61017d844e43635d5df52498aa2fb2e", "fusion_lat": 0.0, "is_reserved": 0, "lat": 38.883157, "fusion_lon": 0.0, "is_disabled": 0}, {"rental_uris": {"android": "https://dc.lft.to/lastmile_qr_scan", "ios": "https://dc.lft.to/lastmile_qr_scan"}, "type": "electric_scooter", "lon": -77.02999733333333, "name": "5d571d3137c93310b93f9e2f04166329", "bike_id": "5d571d3137c93310b93f9e2f04166329", "fusion_lat": 0.0, "is_reserved": 0, "lat": 38.92796166666667, "fusion_lon": 0.0, "is_disabled": 0}, {"rental_uris": {"android": "https://dc.lft.to/lastmile_qr_scan", "ios": "https://dc.lft.to/lastmile_qr_scan"}, "type": "electric_scooter", "lon": -77.06345816666666, "name": "79cfa0ff0b290c538caef784ead90498", "bike_id": "79cfa0ff0b290c538caef784ead90498", "fusion_lat": 0.0, "is_reserved": 0, "lat": 38.91338916666667, "fusion_lon": 0.0, "is_disabled": 0}, {"rental_uris": {"android": "https://dc.lft.to/lastmile_qr_scan", "ios": "https://dc.lft.to/lastmile_qr_scan"}, "type": "electric_scooter", "lon": -77.01829283333333, "name": "b62da4d215317df4ba0da0ee5697212a", "bike_id": "b62da4d215317df4ba0da0ee5697212a", "fusion_lat": 0.0, "is_reserved": 0, "lat": 38.911058, "fusion_lon": 0.0, "is_disabled": 0}, {"rental_uris": {"android": "https://dc.lft.to/lastmile_qr_scan", "ios": "https://dc.lft.to/lastmile_qr_scan"}, "type": "electric_scooter", "lon": -76.947234, "name": "1c61f3288cba0c7d524389b2b522f362", "bike_id": "1c61f3288cba0c7d524389b2b522f362", "fusion_lat": 0.0, "is_reserved": 0, "lat": 38.8973915, "fusion_lon": 0.0, "is_disabled": 0}, {"rental_uris": {"android": "https://dc.lft.to/lastmile_qr_scan", "ios": "https://dc.lft.to/lastmile_qr_scan"}, "type": "electric_scooter", "lon": -77.05918316666667, "name": "35d4e173c4db88abba5c3b98474f968b", "bike_id": "35d4e173c4db88abba5c3b98474f968b", "fusion_lat": 0.0, "is_reserved": 0, "lat": 38.905395166666665, "fusion_lon": 0.0, "is_disabled": 0}, {"rental_uris": {"android": "https://dc.lft.to/lastmile_qr_scan", "ios": "https://dc.lft.to/lastmile_qr_scan"}, "type": "electric_scooter", "lon": -77.0319425, "name": "0018525aeaa9455a851d24092992eab5", "bike_id": "0018525aeaa9455a851d24092992eab5", "fusion_lat": 0.0, "is_reserved": 0, "lat": 38.915318, "fusion_lon": 0.0, "is_disabled": 0}, {"rental_uris": {"android": "https://dc.lft.to/lastmile_qr_scan", "ios": "https://dc.lft.to/lastmile_qr_scan"}, "type": "electric_bike", "lon": -76.98562033333333, "name": "22f6231425b6e640e4b82263f04ccaf4", "bike_id": "22f6231425b6e640e4b82263f04ccaf4", "fusion_lat": 0.0, "is_reserved": 0, "lat": 38.868908833333336, "fusion_lon": 0.0, "is_disabled": 0}, {"rental_uris": {"android": "https://dc.lft.to/lastmile_qr_scan", "ios": "https://dc.lft.to/lastmile_qr_scan"}, "type": "electric_scooter", "lon": -76.994461, "name": "60ec1fbb5c5bed8425693cb2213551fd", "bike_id": "60ec1fbb5c5bed8425693cb2213551fd", "fusion_lat": 0.0, "is_reserved": 0, "lat": 38.905044833333335, "fusion_lon": 0.0, "is_disabled": 0}, {"rental_uris": {"android": "https://dc.lft.to/lastmile_qr_scan", "ios": "https://dc.lft.to/lastmile_qr_scan"}, "type": "electric_scooter", "lon": -77.00737533333333, "name": "468eaf4e6ec6b8244352b1a4e05b1fe6", "bike_id": "468eaf4e6ec6b8244352b1a4e05b1fe6", "fusion_lat": 0.0, "is_reserved": 0, "lat": 38.87651, "fusion_lon": 0.0, "is_disabled": 0}, {"rental_uris": {"android": "https://dc.lft.to/lastmile_qr_scan", "ios": "https://dc.lft.to/lastmile_qr_scan"}, "type": "electric_scooter", "lon": -77.02973283333333, "name": "ac3cda874f367c08792f5f72225b2668", "bike_id": "ac3cda874f367c08792f5f72225b2668", "fusion_lat": 0.0, "is_reserved": 0, "lat": 38.92319333333333, "fusion_lon": 0.0, "is_disabled": 0}, {"rental_uris": {"android": "https://dc.lft.to/lastmile_qr_scan", "ios": "https://dc.lft.to/lastmile_qr_scan"}, "type": "electric_scooter", "lon": -76.95518316666667, "name": "3cd8f8aab1a55538af86102cb68d214a", "bike_id": "3cd8f8aab1a55538af86102cb68d214a", "fusion_lat": 0.0, "is_reserved": 0, "lat": 38.89054016666667, "fusion_lon": 0.0, "is_disabled": 0}, {"rental_uris": {"android": "https://dc.lft.to/lastmile_qr_scan", "ios": "https://dc.lft.to/lastmile_qr_scan"}, "type": "electric_scooter", "lon": -77.019588, "name": "d9caa4035bf1f2a1c3eaf10f75f95896", "bike_id": "d9caa4035bf1f2a1c3eaf10f75f95896", "fusion_lat": 0.0, "is_reserved": 0, "lat": 38.92255383333333, "fusion_lon": 0.0, "is_disabled": 0}, {"rental_uris": {"android": "https://dc.lft.to/lastmile_qr_scan", "ios": "https://dc.lft.to/lastmile_qr_scan"}, "type": "electric_scooter", "lon": -77.00298816666667, "name": "41d4f3f2d3e7dd195456af0f36216633", "bike_id": "41d4f3f2d3e7dd195456af0f36216633", "fusion_lat": 0.0, "is_reserved": 0, "lat": 38.908888833333336, "fusion_lon": 0.0, "is_disabled": 0}, {"rental_uris": {"android": "https://dc.lft.to/lastmile_qr_scan", "ios": "https://dc.lft.to/lastmile_qr_scan"}, "type": "electric_scooter", "lon": -76.981235, "name": "8a00eae3a93a80884be3e7a395e165a6", "bike_id": "8a00eae3a93a80884be3e7a395e165a6", "fusion_lat": 0.0, "is_reserved": 0, "lat": 38.89196533333333, "fusion_lon": 0.0, "is_disabled": 0}, {"rental_uris": {"android": "https://dc.lft.to/lastmile_qr_scan", "ios": "https://dc.lft.to/lastmile_qr_scan"}, "type": "electric_scooter", "lon": -76.96927316666667, "name": "704fbaf7eddc0f6f8b20f375836d3119", "bike_id": "704fbaf7eddc0f6f8b20f375836d3119", "fusion_lat": 0.0, "is_reserved": 0, "lat": 38.930295, "fusion_lon": 0.0, "is_disabled": 0}, {"rental_uris": {"android": "https://dc.lft.to/lastmile_qr_scan", "ios": "https://dc.lft.to/lastmile_qr_scan"}, "type": "electric_scooter", "lon": -77.02718833333333, "name": "487cbffa4c230b13b3dabc90bbfc53bc", "bike_id": "487cbffa4c230b13b3dabc90bbfc53bc", "fusion_lat": 0.0, "is_reserved": 0, "lat": 38.90670133333333, "fusion_lon": 0.0, "is_disabled": 0}, {"rental_uris": {"android": "https://dc.lft.to/lastmile_qr_scan", "ios": "https://dc.lft.to/lastmile_qr_scan"}, "type": "electric_scooter", "lon": -77.04842016666667, "name": "d2ca39bd9f6a652e134f5a1f80e8ae2a", "bike_id": "d2ca39bd9f6a652e134f5a1f80e8ae2a", "fusion_lat": 0.0, "is_reserved": 0, "lat": 38.9162975, "fusion_lon": 0.0, "is_disabled": 0}, {"rental_uris": {"android": "https://dc.lft.to/lastmile_qr_scan", "ios": "https://dc.lft.to/lastmile_qr_scan"}, "type": "electric_scooter", "lon": -77.02681366666667, "name": "7bfce1c6f16d21343aefc512eca3f9d0", "bike_id": "7bfce1c6f16d21343aefc512eca3f9d0", "fusion_lat": 0.0, "is_reserved": 0, "lat": 38.90000933333334, "fusion_lon": 0.0, "is_disabled": 0}, {"rental_uris": {"android": "https://dc.lft.to/lastmile_qr_scan", "ios": "https://dc.lft.to/lastmile_qr_scan"}, "type": "electric_scooter", "lon": -77.02694666666666, "name": "b892ff22db8478516008b6934c9c5b7e", "bike_id": "b892ff22db8478516008b6934c9c5b7e", "fusion_lat": 0.0, "is_reserved": 0, "lat": 38.908440666666664, "fusion_lon": 0.0, "is_disabled": 0}, {"rental_uris": {"android": "https://dc.lft.to/lastmile_qr_scan", "ios": "https://dc.lft.to/lastmile_qr_scan"}, "type": "electric_scooter", "lon": -76.9463955, "name": "a8c455150bd1bd977ada6966ef1c7767", "bike_id": "a8c455150bd1bd977ada6966ef1c7767", "fusion_lat": 0.0, "is_reserved": 0, "lat": 38.89844733333334, "fusion_lon": 0.0, "is_disabled": 0}, {"rental_uris": {"android": "https://dc.lft.to/lastmile_qr_scan", "ios": "https://dc.lft.to/lastmile_qr_scan"}, "type": "electric_scooter", "lon": -77.04231833333333, "name": "60c3b5d92853e0509611e903a28160c6", "bike_id": "60c3b5d92853e0509611e903a28160c6", "fusion_lat": 0.0, "is_reserved": 0, "lat": 38.91109, "fusion_lon": 0.0, "is_disabled": 0}, {"rental_uris": {"android": "https://dc.lft.to/lastmile_qr_scan", "ios": "https://dc.lft.to/lastmile_qr_scan"}, "type": "electric_scooter", "lon": -77.045635, "name": "fc8bb523630dc77fac4a921eed5057e3", "bike_id": "fc8bb523630dc77fac4a921eed5057e3", "fusion_lat": 0.0, "is_reserved": 0, "lat": 38.907532833333335, "fusion_lon": 0.0, "is_disabled": 0}, {"rental_uris": {"android": "https://dc.lft.to/lastmile_qr_scan", "ios": "https://dc.lft.to/lastmile_qr_scan"}, "type": "electric_scooter", "lon": -77.03088766666667, "name": "0d7ca71ebcaa5a5ca4dc5a4244170a8f", "bike_id": "0d7ca71ebcaa5a5ca4dc5a4244170a8f", "fusion_lat": 0.0, "is_reserved": 0, "lat": 38.92241, "fusion_lon": 0.0, "is_disabled": 0}, {"rental_uris": {"android": "https://dc.lft.to/lastmile_qr_scan", "ios": "https://dc.lft.to/lastmile_qr_scan"}, "type": "electric_scooter", "lon": -77.06497416666667, "name": "72b4ae71e76e0f1a040d6e5a998b48be", "bike_id": "72b4ae71e76e0f1a040d6e5a998b48be", "fusion_lat": 0.0, "is_reserved": 0, "lat": 38.9052255, "fusion_lon": 0.0, "is_disabled": 0}, {"rental_uris": {"android": "https://dc.lft.to/lastmile_qr_scan", "ios": "https://dc.lft.to/lastmile_qr_scan"}, "type": "electric_scooter", "lon": -77.0456935, "name": "6c74bd9dbaa8808fd3dfabeb116b9df3", "bike_id": "6c74bd9dbaa8808fd3dfabeb116b9df3", "fusion_lat": 0.0, "is_reserved": 0, "lat": 38.917831666666665, "fusion_lon": 0.0, "is_disabled": 0}, {"rental_uris": {"android": "https://dc.lft.to/lastmile_qr_scan", "ios": "https://dc.lft.to/lastmile_qr_scan"}, "type": "electric_scooter", "lon": -76.96509533333334, "name": "1e6f72ffde0d496829228402f8e67d74", "bike_id": "1e6f72ffde0d496829228402f8e67d74", "fusion_lat": 0.0, "is_reserved": 0, "lat": 38.876489, "fusion_lon": 0.0, "is_disabled": 0}, {"rental_uris": {"android": "https://dc.lft.to/lastmile_qr_scan", "ios": "https://dc.lft.to/lastmile_qr_scan"}, "type": "electric_scooter", "lon": -77.02714866666666, "name": "064c8ff7c6111ad06d1372e47806b2ed", "bike_id": "064c8ff7c6111ad06d1372e47806b2ed", "fusion_lat": 0.0, "is_reserved": 0, "lat": 38.89936983333333, "fusion_lon": 0.0, "is_disabled": 0}, {"rental_uris": {"android": "https://dc.lft.to/lastmile_qr_scan", "ios": "https://dc.lft.to/lastmile_qr_scan"}, "type": "electric_scooter", "lon": -77.0496525, "name": "d0ddcdf86b86ba162ca8a8b4592b4e37", "bike_id": "d0ddcdf86b86ba162ca8a8b4592b4e37", "fusion_lat": 0.0, "is_reserved": 0, "lat": 38.900877, "fusion_lon": 0.0, "is_disabled": 0}, {"rental_uris": {"android": "https://dc.lft.to/lastmile_qr_scan", "ios": "https://dc.lft.to/lastmile_qr_scan"}, "type": "electric_scooter", "lon": -77.00795933333333, "name": "95d98396f51e0c720239b7c70ee6eaf5", "bike_id": "95d98396f51e0c720239b7c70ee6eaf5", "fusion_lat": 0.0, "is_reserved": 0, "lat": 38.8968495, "fusion_lon": 0.0, "is_disabled": 0}, {"rental_uris": {"android": "https://dc.lft.to/lastmile_qr_scan", "ios": "https://dc.lft.to/lastmile_qr_scan"}, "type": "electric_bike", "lon": -77.0206015, "name": "ebf74ff1d0670b0723928d16cf2e6122", "bike_id": "ebf74ff1d0670b0723928d16cf2e6122", "fusion_lat": 0.0, "is_reserved": 0, "lat": 38.92848583333333, "fusion_lon": 0.0, "is_disabled": 0}, {"rental_uris": {"android": "https://dc.lft.to/lastmile_qr_scan", "ios": "https://dc.lft.to/lastmile_qr_scan"}, "type": "electric_scooter", "lon": -77.02181333333333, "name": "a7dd8fbdf9366d7ca14cb765c796b5e7", "bike_id": "a7dd8fbdf9366d7ca14cb765c796b5e7", "fusion_lat": 0.0, "is_reserved": 0, "lat": 38.91060983333333, "fusion_lon": 0.0, "is_disabled": 0}, {"rental_uris": {"android": "https://dc.lft.to/lastmile_qr_scan", "ios": "https://dc.lft.to/lastmile_qr_scan"}, "type": "electric_scooter", "lon": -77.05032183333333, "name": "5d7576a641266718c5ce229b948dfe09", "bike_id": "5d7576a641266718c5ce229b948dfe09", "fusion_lat": 0.0, "is_reserved": 0, "lat": 38.89551016666667, "fusion_lon": 0.0, "is_disabled": 0}, {"rental_uris": {"android": "https://dc.lft.to/lastmile_qr_scan", "ios": "https://dc.lft.to/lastmile_qr_scan"}, "type": "electric_scooter", "lon": -76.99630366666666, "name": "d85223bb4a94bc1004ebcede4de0fd06", "bike_id": "d85223bb4a94bc1004ebcede4de0fd06", "fusion_lat": 0.0, "is_reserved": 0, "lat": 38.846210666666664, "fusion_lon": 0.0, "is_disabled": 0}, {"rental_uris": {"android": "https://dc.lft.to/lastmile_qr_scan", "ios": "https://dc.lft.to/lastmile_qr_scan"}, "type": "electric_scooter", "lon": -76.93673166666666, "name": "968f70db79d15c4fa78bcfa16d7ac6d9", "bike_id": "968f70db79d15c4fa78bcfa16d7ac6d9", "fusion_lat": 0.0, "is_reserved": 0, "lat": 38.88753083333334, "fusion_lon": 0.0, "is_disabled": 0}, {"rental_uris": {"android": "https://dc.lft.to/lastmile_qr_scan", "ios": "https://dc.lft.to/lastmile_qr_scan"}, "type": "electric_scooter", "lon": -77.05885566666667, "name": "782b0c8da7d3849fc91c48461f88b84b", "bike_id": "782b0c8da7d3849fc91c48461f88b84b", "fusion_lat": 0.0, "is_reserved": 0, "lat": 38.93634866666667, "fusion_lon": 0.0, "is_disabled": 0}, {"rental_uris": {"android": "https://dc.lft.to/lastmile_qr_scan", "ios": "https://dc.lft.to/lastmile_qr_scan"}, "type": "electric_bike", "lon": -77.124042, "name": "1c3d65a3c039767cc9822e1e07c64077", "bike_id": "1c3d65a3c039767cc9822e1e07c64077", "fusion_lat": 0.0, "is_reserved": 0, "lat": 38.89335616666666, "fusion_lon": 0.0, "is_disabled": 0}, {"rental_uris": {"android": "https://dc.lft.to/lastmile_qr_scan", "ios": "https://dc.lft.to/lastmile_qr_scan"}, "type": "electric_scooter", "lon": -77.04981516666666, "name": "66ecc0ddeda5453d500660e61191264d", "bike_id": "66ecc0ddeda5453d500660e61191264d", "fusion_lat": 0.0, "is_reserved": 0, "lat": 38.905164666666664, "fusion_lon": 0.0, "is_disabled": 0}, {"rental_uris": {"android": "https://dc.lft.to/lastmile_qr_scan", "ios": "https://dc.lft.to/lastmile_qr_scan"}, "type": "electric_scooter", "lon": -77.0259355, "name": "3793aaf7593b84281625f2fe3c186ecf", "bike_id": "3793aaf7593b84281625f2fe3c186ecf", "fusion_lat": 0.0, "is_reserved": 0, "lat": 38.904959, "fusion_lon": 0.0, "is_disabled": 0}, {"rental_uris": {"android": "https://dc.lft.to/lastmile_qr_scan", "ios": "https://dc.lft.to/lastmile_qr_scan"}, "type": "electric_bike", "lon": -76.93197466666666, "name": "9dde8672726ecd772b9f4653e3a49ca8", "bike_id": "9dde8672726ecd772b9f4653e3a49ca8", "fusion_lat": 0.0, "is_reserved": 0, "lat": 38.872341166666665, "fusion_lon": 0.0, "is_disabled": 0}, {"rental_uris": {"android": "https://dc.lft.to/lastmile_qr_scan", "ios": "https://dc.lft.to/lastmile_qr_scan"}, "type": "electric_scooter", "lon": -77.0271335, "name": "e7ce9cb4a6bf463256e9d2873ac3e2bb", "bike_id": "e7ce9cb4a6bf463256e9d2873ac3e2bb", "fusion_lat": 0.0, "is_reserved": 0, "lat": 38.91545033333333, "fusion_lon": 0.0, "is_disabled": 0}, {"rental_uris": {"android": "https://dc.lft.to/lastmile_qr_scan", "ios": "https://dc.lft.to/lastmile_qr_scan"}, "type": "electric_bike", "lon": -77.0996265, "name": "fdc394f4572038e1f853b8a18f322b53", "bike_id": "fdc394f4572038e1f853b8a18f322b53", "fusion_lat": 0.0, "is_reserved": 0, "lat": 38.85788183333333, "fusion_lon": 0.0, "is_disabled": 0}, {"rental_uris": {"android": "https://dc.lft.to/lastmile_qr_scan", "ios": "https://dc.lft.to/lastmile_qr_scan"}, "type": "electric_scooter", "lon": -77.03501916666667, "name": "b766cdece9098073414d42323393a4e2", "bike_id": "b766cdece9098073414d42323393a4e2", "fusion_lat": 0.0, "is_reserved": 0, "lat": 38.918781, "fusion_lon": 0.0, "is_disabled": 0}, {"rental_uris": {"android": "https://dc.lft.to/lastmile_qr_scan", "ios": "https://dc.lft.to/lastmile_qr_scan"}, "type": "electric_scooter", "lon": -77.04212466666667, "name": "5f3eeebe478bdf1a6ac0b6f3de3a42b4", "bike_id": "5f3eeebe478bdf1a6ac0b6f3de3a42b4", "fusion_lat": 0.0, "is_reserved": 0, "lat": 38.921271833333336, "fusion_lon": 0.0, "is_disabled": 0}, {"rental_uris": {"android": "https://dc.lft.to/lastmile_qr_scan", "ios": "https://dc.lft.to/lastmile_qr_scan"}, "type": "electric_scooter", "lon": -77.02603233333333, "name": "2189a14a0742f2d05e74076e88efe83c", "bike_id": "2189a14a0742f2d05e74076e88efe83c", "fusion_lat": 0.0, "is_reserved": 0, "lat": 38.916195, "fusion_lon": 0.0, "is_disabled": 0}, {"rental_uris": {"android": "https://dc.lft.to/lastmile_qr_scan", "ios": "https://dc.lft.to/lastmile_qr_scan"}, "type": "electric_scooter", "lon": -77.04341766666667, "name": "390876f9b3e0e5e0abba9c4b42f57aaa", "bike_id": "390876f9b3e0e5e0abba9c4b42f57aaa", "fusion_lat": 0.0, "is_reserved": 0, "lat": 38.905024, "fusion_lon": 0.0, "is_disabled": 0}, {"rental_uris": {"android": "https://dc.lft.to/lastmile_qr_scan", "ios": "https://dc.lft.to/lastmile_qr_scan"}, "type": "electric_scooter", "lon": -76.95215616666667, "name": "28441b4882f3b86c8ffc3f40db0da68e", "bike_id": "28441b4882f3b86c8ffc3f40db0da68e", "fusion_lat": 0.0, "is_reserved": 0, "lat": 38.8867665, "fusion_lon": 0.0, "is_disabled": 0}, {"rental_uris": {"android": "https://dc.lft.to/lastmile_qr_scan", "ios": "https://dc.lft.to/lastmile_qr_scan"}, "type": "electric_scooter", "lon": -77.03323983333334, "name": "3a11081b35bfab3514e8a696389b22e0", "bike_id": "3a11081b35bfab3514e8a696389b22e0", "fusion_lat": 0.0, "is_reserved": 0, "lat": 38.928873833333334, "fusion_lon": 0.0, "is_disabled": 0}, {"rental_uris": {"android": "https://dc.lft.to/lastmile_qr_scan", "ios": "https://dc.lft.to/lastmile_qr_scan"}, "type": "electric_scooter", "lon": -77.02219633333333, "name": "de773ed824cc6708cdfa558769458026", "bike_id": "de773ed824cc6708cdfa558769458026", "fusion_lat": 0.0, "is_reserved": 0, "lat": 38.921036666666666, "fusion_lon": 0.0, "is_disabled": 0}, {"rental_uris": {"android": "https://dc.lft.to/lastmile_qr_scan", "ios": "https://dc.lft.to/lastmile_qr_scan"}, "type": "electric_scooter", "lon": -77.027075, "name": "b642fbb852e26a3e16cdb12b9307910f", "bike_id": "b642fbb852e26a3e16cdb12b9307910f", "fusion_lat": 0.0, "is_reserved": 0, "lat": 38.94999166666667, "fusion_lon": 0.0, "is_disabled": 0}, {"rental_uris": {"android": "https://dc.lft.to/lastmile_qr_scan", "ios": "https://dc.lft.to/lastmile_qr_scan"}, "type": "electric_bike", "lon": -77.0407395, "name": "2dd92ba901f0b6af2b84b95e4acc4fef", "bike_id": "2dd92ba901f0b6af2b84b95e4acc4fef", "fusion_lat": 0.0, "is_reserved": 0, "lat": 38.812357666666664, "fusion_lon": 0.0, "is_disabled": 0}, {"rental_uris": {"android": "https://dc.lft.to/lastmile_qr_scan", "ios": "https://dc.lft.to/lastmile_qr_scan"}, "type": "electric_scooter", "lon": -77.02624316666666, "name": "1106c336084b599054b7574a4890de72", "bike_id": "1106c336084b599054b7574a4890de72", "fusion_lat": 0.0, "is_reserved": 0, "lat": 38.887376333333336, "fusion_lon": 0.0, "is_disabled": 0}, {"rental_uris": {"android": "https://dc.lft.to/lastmile_qr_scan", "ios": "https://dc.lft.to/lastmile_qr_scan"}, "type": "electric_scooter", "lon": -77.02987633333333, "name": "efbd63a112842cbdb07f09972d617d81", "bike_id": "efbd63a112842cbdb07f09972d617d81", "fusion_lat": 0.0, "is_reserved": 0, "lat": 38.956305, "fusion_lon": 0.0, "is_disabled": 0}, {"rental_uris": {"android": "https://dc.lft.to/lastmile_qr_scan", "ios": "https://dc.lft.to/lastmile_qr_scan"}, "type": "electric_scooter", "lon": -77.0219875, "name": "9d998513473be8624f22cf4a3facebf0", "bike_id": "9d998513473be8624f22cf4a3facebf0", "fusion_lat": 0.0, "is_reserved": 0, "lat": 38.89515933333333, "fusion_lon": 0.0, "is_disabled": 0}, {"rental_uris": {"android": "https://dc.lft.to/lastmile_qr_scan", "ios": "https://dc.lft.to/lastmile_qr_scan"}, "type": "electric_scooter", "lon": -77.05879766666666, "name": "1ad938d784b91c761a3f2969fc620507", "bike_id": "1ad938d784b91c761a3f2969fc620507", "fusion_lat": 0.0, "is_reserved": 0, "lat": 38.936386666666664, "fusion_lon": 0.0, "is_disabled": 0}, {"rental_uris": {"android": "https://dc.lft.to/lastmile_qr_scan", "ios": "https://dc.lft.to/lastmile_qr_scan"}, "type": "electric_scooter", "lon": -76.99006783333333, "name": "88f63c560b1d7c355aadf7c57d2245de", "bike_id": "88f63c560b1d7c355aadf7c57d2245de", "fusion_lat": 0.0, "is_reserved": 0, "lat": 38.865092, "fusion_lon": 0.0, "is_disabled": 0}, {"rental_uris": {"android": "https://dc.lft.to/lastmile_qr_scan", "ios": "https://dc.lft.to/lastmile_qr_scan"}, "type": "electric_scooter", "lon": -76.99409283333334, "name": "93d465cf5083923190832c5914d51b6a", "bike_id": "93d465cf5083923190832c5914d51b6a", "fusion_lat": 0.0, "is_reserved": 0, "lat": 38.92263666666667, "fusion_lon": 0.0, "is_disabled": 0}, {"rental_uris": {"android": "https://dc.lft.to/lastmile_qr_scan", "ios": "https://dc.lft.to/lastmile_qr_scan"}, "type": "electric_scooter", "lon": -77.02824816666667, "name": "10f89f924cee0025d57bba8d0bc612cc", "bike_id": "10f89f924cee0025d57bba8d0bc612cc", "fusion_lat": 0.0, "is_reserved": 0, "lat": 38.92471066666667, "fusion_lon": 0.0, "is_disabled": 0}, {"rental_uris": {"android": "https://dc.lft.to/lastmile_qr_scan", "ios": "https://dc.lft.to/lastmile_qr_scan"}, "type": "electric_scooter", "lon": -76.99080666666667, "name": "8b62821dce452594cded67454b355767", "bike_id": "8b62821dce452594cded67454b355767", "fusion_lat": 0.0, "is_reserved": 0, "lat": 38.86049766666667, "fusion_lon": 0.0, "is_disabled": 0}, {"rental_uris": {"android": "https://dc.lft.to/lastmile_qr_scan", "ios": "https://dc.lft.to/lastmile_qr_scan"}, "type": "electric_scooter", "lon": -77.02280816666666, "name": "fc3737c37354ff1102ae3a6c3d737ff5", "bike_id": "fc3737c37354ff1102ae3a6c3d737ff5", "fusion_lat": 0.0, "is_reserved": 0, "lat": 38.909579, "fusion_lon": 0.0, "is_disabled": 0}, {"rental_uris": {"android": "https://dc.lft.to/lastmile_qr_scan", "ios": "https://dc.lft.to/lastmile_qr_scan"}, "type": "electric_scooter", "lon": -77.02406866666666, "name": "0236fa954b08c085265f40061958f521", "bike_id": "0236fa954b08c085265f40061958f521", "fusion_lat": 0.0, "is_reserved": 0, "lat": 38.90871283333333, "fusion_lon": 0.0, "is_disabled": 0}, {"rental_uris": {"android": "https://dc.lft.to/lastmile_qr_scan", "ios": "https://dc.lft.to/lastmile_qr_scan"}, "type": "electric_scooter", "lon": -76.99943116666667, "name": "11a366133234de8c470d547349807be6", "bike_id": "11a366133234de8c470d547349807be6", "fusion_lat": 0.0, "is_reserved": 0, "lat": 38.84320983333333, "fusion_lon": 0.0, "is_disabled": 0}, {"rental_uris": {"android": "https://dc.lft.to/lastmile_qr_scan", "ios": "https://dc.lft.to/lastmile_qr_scan"}, "type": "electric_bike", "lon": -76.95803533333333, "name": "8b7abfb67b0951c29433eda86b97403d", "bike_id": "8b7abfb67b0951c29433eda86b97403d", "fusion_lat": 0.0, "is_reserved": 0, "lat": 38.9805245, "fusion_lon": 0.0, "is_disabled": 0}, {"rental_uris": {"android": "https://dc.lft.to/lastmile_qr_scan", "ios": "https://dc.lft.to/lastmile_qr_scan"}, "type": "electric_scooter", "lon": -77.01995366666667, "name": "abed267f82c379c01e20e2a8dee178a5", "bike_id": "abed267f82c379c01e20e2a8dee178a5", "fusion_lat": 0.0, "is_reserved": 0, "lat": 38.96638933333333, "fusion_lon": 0.0, "is_disabled": 0}, {"rental_uris": {"android": "https://dc.lft.to/lastmile_qr_scan", "ios": "https://dc.lft.to/lastmile_qr_scan"}, "type": "electric_scooter", "lon": -77.04662366666666, "name": "48bf0c65bfb5a9f020a02e649c1e3f26", "bike_id": "48bf0c65bfb5a9f020a02e649c1e3f26", "fusion_lat": 0.0, "is_reserved": 0, "lat": 38.90015733333333, "fusion_lon": 0.0, "is_disabled": 0}, {"rental_uris": {"android": "https://dc.lft.to/lastmile_qr_scan", "ios": "https://dc.lft.to/lastmile_qr_scan"}, "type": "electric_scooter", "lon": -76.99364916666667, "name": "c16c044d8bf40ec9cfa5bd1dc7ea34d9", "bike_id": "c16c044d8bf40ec9cfa5bd1dc7ea34d9", "fusion_lat": 0.0, "is_reserved": 0, "lat": 38.928419166666664, "fusion_lon": 0.0, "is_disabled": 0}, {"rental_uris": {"android": "https://dc.lft.to/lastmile_qr_scan", "ios": "https://dc.lft.to/lastmile_qr_scan"}, "type": "electric_scooter", "lon": -76.98081733333333, "name": "36f39dd1ff162e9fcbf902cdbc60f28f", "bike_id": "36f39dd1ff162e9fcbf902cdbc60f28f", "fusion_lat": 0.0, "is_reserved": 0, "lat": 38.9016705, "fusion_lon": 0.0, "is_disabled": 0}, {"rental_uris": {"android": "https://dc.lft.to/lastmile_qr_scan", "ios": "https://dc.lft.to/lastmile_qr_scan"}, "type": "electric_scooter", "lon": -77.03444033333334, "name": "6862ffcdcb02f396bf2e8c80377bf583", "bike_id": "6862ffcdcb02f396bf2e8c80377bf583", "fusion_lat": 0.0, "is_reserved": 0, "lat": 38.9058575, "fusion_lon": 0.0, "is_disabled": 0}, {"rental_uris": {"android": "https://dc.lft.to/lastmile_qr_scan", "ios": "https://dc.lft.to/lastmile_qr_scan"}, "type": "electric_scooter", "lon": -76.9867025, "name": "9d1b2c69abf3047921a1269e945449f9", "bike_id": "9d1b2c69abf3047921a1269e945449f9", "fusion_lat": 0.0, "is_reserved": 0, "lat": 38.900163166666665, "fusion_lon": 0.0, "is_disabled": 0}, {"rental_uris": {"android": "https://dc.lft.to/lastmile_qr_scan", "ios": "https://dc.lft.to/lastmile_qr_scan"},