{"data": {"bikes": [{"is_disabled": 0, "is_reserved": 0, "fusion_lat": 0.0, "lat": 38.931121833333336, "fusion_lon": 0.0, "rental_uris": {"ios": "https://dc.lft.to/lastmile_qr_scan", "android": "https://dc.lft.to/lastmile_qr_scan"}, "lon": -77.03840033333333, "bike_id": "cb84122311cd286ac19c6879ab261f2a", "type": "electric_scooter", "name": "cb84122311cd286ac19c6879ab261f2a"}, {"is_disabled": 0, "is_reserved": 0, "fusion_lat": 0.0, "lat": 38.882811833333335, "fusion_lon": 0.0, "rental_uris": {"ios": "https://dc.lft.to/lastmile_qr_scan", "android": "https://dc.lft.to/lastmile_qr_scan"}, "lon": -76.986166, "bike_id": "c31c8d81dc50a1c6fd8d5c24bb143344", "type": "electric_scooter", "name": "c31c8d81dc50a1c6fd8d5c24bb143344"}, {"is_disabled": 0, "is_reserved": 0, "fusion_lat": 0.0, "lat": 38.86815683333333, "fusion_lon": 0.0, "rental_uris": {"ios": "https://dc.lft.to/lastmile_qr_scan", "android": "https://dc.lft.to/lastmile_qr_scan"}, "lon": -76.9802085, "bike_id": "6e67a2b4b6ba66f2b089bf9a93f5276c", "type": "electric_bike", "name": "6e67a2b4b6ba66f2b089bf9a93f5276c"}, {"is_disabled": 0, "is_reserved": 0, "fusion_lat": 0.0, "lat": 38.92331133333333, "fusion_lon": 0.0, "rental_uris": {"ios": "https://dc.lft.to/lastmile_qr_scan", "android": "https://dc.lft.to/lastmile_qr_scan"}, "lon": -77.05613383333333, "bike_id": "841cf5754f256a114fbf2a68b1e3f640", "type": "electric_scooter", "name": "841cf5754f256a114fbf2a68b1e3f640"}, {"is_disabled": 0, "is_reserved": 0, "fusion_lat": 0.0, "lat": 38.920608, "fusion_lon": 0.0, "rental_uris": {"ios": "https://dc.lft.to/lastmile_qr_scan", "android": "https://dc.lft.to/lastmile_qr_scan"}, "lon": -77.03298816666667, "bike_id": "027a56524dbf8920d705604d3ddbfd0e", "type": "electric_scooter", "name": "027a56524dbf8920d705604d3ddbfd0e"}, {"is_disabled": 0, "is_reserved": 0, "fusion_lat": 0.0, "lat": 38.91656666666667, "fusion_lon": 0.0, "rental_uris": {"ios": "https://dc.lft.to/lastmile_qr_scan", "android": "https://dc.lft.to/lastmile_qr_scan"}, "lon": -77.02390416666667, "bike_id": "d6eb44146e9899a1722e05df0c1be49e", "type": "electric_scooter", "name": "d6eb44146e9899a1722e05df0c1be49e"}, {"is_disabled": 0, "is_reserved": 0, "fusion_lat": 0.0, "lat": 38.93858316666667, "fusion_lon": 0.0, "rental_uris": {"ios": "https://dc.lft.to/lastmile_qr_scan", "android": "https://dc.lft.to/lastmile_qr_scan"}, "lon": -77.031614, "bike_id": "ce77fb6b1263936b95319c9bcfa068dc", "type": "electric_scooter", "name": "ce77fb6b1263936b95319c9bcfa068dc"}, {"is_disabled": 0, "is_reserved": 0, "fusion_lat": 0.0, "lat": 38.886208333333336, "fusion_lon": 0.0, "rental_uris": {"ios": "https://dc.lft.to/lastmile_qr_scan", "android": "https://dc.lft.to/lastmile_qr_scan"}, "lon": -77.02826683333333, "bike_id": "6664cdd6f74f5bd1ddf322c0674b1f40", "type": "electric_scooter", "name": "6664cdd6f74f5bd1ddf322c0674b1f40"}, {"is_disabled": 0, "is_reserved": 0, "fusion_lat": 0.0, "lat": 38.87063033333333, "fusion_lon": 0.0, "rental_uris": {"ios": "https://dc.lft.to/lastmile_qr_scan", "android": "https://dc.lft.to/lastmile_qr_scan"}, "lon": -77.11035816666667, "bike_id": "6a04fc0d502bf5f24f6b847de5473932", "type": "electric_bike", "name": "6a04fc0d502bf5f24f6b847de5473932"}, {"is_disabled": 0, "is_reserved": 0, "fusion_lat": 0.0, "lat": 38.87912333333333, "fusion_lon": 0.0, "rental_uris": {"ios": "https://dc.lft.to/lastmile_qr_scan", "android": "https://dc.lft.to/lastmile_qr_scan"}, "lon": -77.00849333333333, "bike_id": "2203822bd354632bafd5cf0abac3216f", "type": "electric_scooter", "name": "2203822bd354632bafd5cf0abac3216f"}, {"is_disabled": 0, "is_reserved": 0, "fusion_lat": 0.0, "lat": 38.8966315, "fusion_lon": 0.0, "rental_uris": {"ios": "https://dc.lft.to/lastmile_qr_scan", "android": "https://dc.lft.to/lastmile_qr_scan"}, "lon": -76.932082, "bike_id": "0d6af05ac72745e24e021eb7fb30de64", "type": "electric_scooter", "name": "0d6af05ac72745e24e021eb7fb30de64"}, {"is_disabled": 0, "is_reserved": 0, "fusion_lat": 0.0, "lat": 38.915412833333335, "fusion_lon": 0.0, "rental_uris": {"ios": "https://dc.lft.to/lastmile_qr_scan", "android": "https://dc.lft.to/lastmile_qr_scan"}, "lon": -77.026947, "bike_id": "7d4129afe658b9d27d9fafb7f2b02862", "type": "electric_scooter", "name": "7d4129afe658b9d27d9fafb7f2b02862"}, {"is_disabled": 0, "is_reserved": 0, "fusion_lat": 0.0, "lat": 38.895962833333336, "fusion_lon": 0.0, "rental_uris": {"ios": "https://dc.lft.to/lastmile_qr_scan", "android": "https://dc.lft.to/lastmile_qr_scan"}, "lon": -77.02317416666666, "bike_id": "b63c212ff9d31ee54030bb0eb7e2373b", "type": "electric_scooter", "name": "b63c212ff9d31ee54030bb0eb7e2373b"}, {"is_disabled": 0, "is_reserved": 0, "fusion_lat": 0.0, "lat": 38.880402333333336, "fusion_lon": 0.0, "rental_uris": {"ios": "https://dc.lft.to/lastmile_qr_scan", "android": "https://dc.lft.to/lastmile_qr_scan"}, "lon": -76.92725566666667, "bike_id": "1592e967313a9b936fe117e36f574d04", "type": "electric_scooter", "name": "1592e967313a9b936fe117e36f574d04"}, {"is_disabled": 0, "is_reserved": 0, "fusion_lat": 0.0, "lat": 38.875765, "fusion_lon": 0.0, "rental_uris": {"ios": "https://dc.lft.to/lastmile_qr_scan", "android": "https://dc.lft.to/lastmile_qr_scan"}, "lon": -77.23408866666666, "bike_id": "0aae9a093ab6bc968b134ee5e22c4073", "type": "electric_bike", "name": "0aae9a093ab6bc968b134ee5e22c4073"}, {"is_disabled": 0, "is_reserved": 0, "fusion_lat": 0.0, "lat": 38.87069416666667, "fusion_lon": 0.0, "rental_uris": {"ios": "https://dc.lft.to/lastmile_qr_scan", "android": "https://dc.lft.to/lastmile_qr_scan"}, "lon": -76.98127816666667, "bike_id": "4015eee488c2a783996121bfa346ad13", "type": "electric_scooter", "name": "4015eee488c2a783996121bfa346ad13"}, {"is_disabled": 0, "is_reserved": 0, "fusion_lat": 0.0, "lat": 38.914385, "fusion_lon": 0.0, "rental_uris": {"ios": "https://dc.lft.to/lastmile_qr_scan", "android": "https://dc.lft.to/lastmile_qr_scan"}, "lon": -77.02287616666666, "bike_id": "a46e4d163bff1ea3234e68bd1608a31a", "type": "electric_scooter", "name": "a46e4d163bff1ea3234e68bd1608a31a"}, {"is_disabled": 0, "is_reserved": 0, "fusion_lat": 0.0, "lat": 38.924923666666665, "fusion_lon": 0.0, "rental_uris": {"ios": "https://dc.lft.to/lastmile_qr_scan", "android": "https://dc.lft.to/lastmile_qr_scan"}, "lon": -77.02697733333333, "bike_id": "cc6b3f12b3300c7e7eb845ffa5dd83fd", "type": "electric_scooter", "name": "cc6b3f12b3300c7e7eb845ffa5dd83fd"}, {"is_disabled": 0, "is_reserved": 0, "fusion_lat": 0.0, "lat": 38.917946666666666, "fusion_lon": 0.0, "rental_uris": {"ios": "https://dc.lft.to/lastmile_qr_scan", "android": "https://dc.lft.to/lastmile_qr_scan"}, "lon": -77.03225, "bike_id": "5f1e18491b3fcb82336836690a5b27a7", "type": "electric_scooter", "name": "5f1e18491b3fcb82336836690a5b27a7"}, {"is_disabled": 0, "is_reserved": 0, "fusion_lat": 0.0, "lat": 38.936359, "fusion_lon": 0.0, "rental_uris": {"ios": "https://dc.lft.to/lastmile_qr_scan", "android": "https://dc.lft.to/lastmile_qr_scan"}, "lon": -77.02699433333333, "bike_id": "5144f7fcb39b667d9c19862f7d59e892", "type": "electric_bike", "name": "5144f7fcb39b667d9c19862f7d59e892"}, {"is_disabled": 0, "is_reserved": 0, "fusion_lat": 0.0, "lat": 38.90328516666667, "fusion_lon": 0.0, "rental_uris": {"ios": "https://dc.lft.to/lastmile_qr_scan", "android": "https://dc.lft.to/lastmile_qr_scan"}, "lon": -77.03658483333334, "bike_id": "b681dd19a28e0e7e0f752c1c9a4a3cc1", "type": "electric_bike", "name": "b681dd19a28e0e7e0f752c1c9a4a3cc1"}, {"is_disabled": 0, "is_reserved": 0, "fusion_lat": 0.0, "lat": 38.97585983333333, "fusion_lon": 0.0, "rental_uris": {"ios": "https://dc.lft.to/lastmile_qr_scan", "android": "https://dc.lft.to/lastmile_qr_scan"}, "lon": -77.018658, "bike_id": "10e85050a321ea333b6a359353d82db1", "type": "electric_scooter", "name": "10e85050a321ea333b6a359353d82db1"}, {"is_disabled": 0, "is_reserved": 0, "fusion_lat": 0.0, "lat": 38.842930833333334, "fusion_lon": 0.0, "rental_uris": {"ios": "https://dc.lft.to/lastmile_qr_scan", "android": "https://dc.lft.to/lastmile_qr_scan"}, "lon": -77.06379216666667, "bike_id": "c152df1c2595a92134a56842a65c996f", "type": "electric_bike", "name": "c152df1c2595a92134a56842a65c996f"}, {"is_disabled": 0, "is_reserved": 0, "fusion_lat": 0.0, "lat": 38.89738233333333, "fusion_lon": 0.0, "rental_uris": {"ios": "https://dc.lft.to/lastmile_qr_scan", "android": "https://dc.lft.to/lastmile_qr_scan"}, "lon": -77.04541716666667, "bike_id": "b03901a92df41e94095da132bc91bfe6", "type": "electric_scooter", "name": "b03901a92df41e94095da132bc91bfe6"}, {"is_disabled": 0, "is_reserved": 0, "fusion_lat": 0.0, "lat": 38.915609333333336, "fusion_lon": 0.0, "rental_uris": {"ios": "https://dc.lft.to/lastmile_qr_scan", "android": "https://dc.lft.to/lastmile_qr_scan"}, "lon": -77.036372, "bike_id": "86b9a927ea3e2c007a9cf36d53fde401", "type": "electric_scooter", "name": "86b9a927ea3e2c007a9cf36d53fde401"}, {"is_disabled": 0, "is_reserved": 0, "fusion_lat": 0.0, "lat": 38.9297415, "fusion_lon": 0.0, "rental_uris": {"ios": "https://dc.lft.to/lastmile_qr_scan", "android": "https://dc.lft.to/lastmile_qr_scan"}, "lon": -77.02928916666667, "bike_id": "081bab6edc33218cbf3a8f7289430477", "type": "electric_scooter", "name": "081bab6edc33218cbf3a8f7289430477"}, {"is_disabled": 0, "is_reserved": 0, "fusion_lat": 0.0, "lat": 38.9265625, "fusion_lon": 0.0, "rental_uris": {"ios": "https://dc.lft.to/lastmile_qr_scan", "android": "https://dc.lft.to/lastmile_qr_scan"}, "lon": -76.992926, "bike_id": "705c2f71d42ced416bef9bfaffdb87e0", "type": "electric_scooter", "name": "705c2f71d42ced416bef9bfaffdb87e0"}, {"is_disabled": 0, "is_reserved": 0, "fusion_lat": 0.0, "lat": 38.987155, "fusion_lon": 0.0, "rental_uris": {"ios": "https://dc.lft.to/lastmile_qr_scan", "android": "https://dc.lft.to/lastmile_qr_scan"}, "lon": -77.03764116666666, "bike_id": "ffd76b86fcd31d153fdf333a595c248f", "type": "electric_bike", "name": "ffd76b86fcd31d153fdf333a595c248f"}, {"is_disabled": 0, "is_reserved": 0, "fusion_lat": 0.0, "lat": 38.952482833333335, "fusion_lon": 0.0, "rental_uris": {"ios": "https://dc.lft.to/lastmile_qr_scan", "android": "https://dc.lft.to/lastmile_qr_scan"}, "lon": -77.09627366666666, "bike_id": "a64dae6c4c869c4855680f953b1dc251", "type": "electric_bike", "name": "a64dae6c4c869c4855680f953b1dc251"}, {"is_disabled": 0, "is_reserved": 0, "fusion_lat": 0.0, "lat": 38.908652000000004, "fusion_lon": 0.0, "rental_uris": {"ios": "https://dc.lft.to/lastmile_qr_scan", "android": "https://dc.lft.to/lastmile_qr_scan"}, "lon": -77.0161955, "bike_id": "2ac75266889dcfc7750d5ed0b8f751b4", "type": "electric_scooter", "name": "2ac75266889dcfc7750d5ed0b8f751b4"}, {"is_disabled": 0, "is_reserved": 0, "fusion_lat": 0.0, "lat": 38.89331816666667, "fusion_lon": 0.0, "rental_uris": {"ios": "https://dc.lft.to/lastmile_qr_scan", "android": "https://dc.lft.to/lastmile_qr_scan"}, "lon": -76.928902, "bike_id": "091276f4e162f6c7143efd4ca83fb98a", "type": "electric_scooter", "name": "091276f4e162f6c7143efd4ca83fb98a"}, {"is_disabled": 0, "is_reserved": 0, "fusion_lat": 0.0, "lat": 38.93003683333333, "fusion_lon": 0.0, "rental_uris": {"ios": "https://dc.lft.to/lastmile_qr_scan", "android": "https://dc.lft.to/lastmile_qr_scan"}, "lon": -77.03801516666667, "bike_id": "4d1091b37c044e44dff2f718777d5837", "type": "electric_scooter", "name": "4d1091b37c044e44dff2f718777d5837"}, {"is_disabled": 0, "is_reserved": 0, "fusion_lat": 0.0, "lat": 38.905065666666665, "fusion_lon": 0.0, "rental_uris": {"ios": "https://dc.lft.to/lastmile_qr_scan", "android": "https://dc.lft.to/lastmile_qr_scan"}, "lon": -76.9519215, "bike_id": "0a10bc5a3df1804d1f54381da0c431a7", "type": "electric_scooter", "name": "0a10bc5a3df1804d1f54381da0c431a7"}, {"is_disabled": 0, "is_reserved": 0, "fusion_lat": 0.0, "lat": 38.92518466666667, "fusion_lon": 0.0, "rental_uris": {"ios": "https://dc.lft.to/lastmile_qr_scan", "android": "https://dc.lft.to/lastmile_qr_scan"}, "lon": -77.04277883333333, "bike_id": "c54b2db4a4bcacf2a004ea819b52b0af", "type": "electric_bike", "name": "c54b2db4a4bcacf2a004ea819b52b0af"}, {"is_disabled": 0, "is_reserved": 0, "fusion_lat": 0.0, "lat": 38.92970616666667, "fusion_lon": 0.0, "rental_uris": {"ios": "https://dc.lft.to/lastmile_qr_scan", "android": "https://dc.lft.to/lastmile_qr_scan"}, "lon": -77.032198, "bike_id": "cf116da7d4f082ec00eceaac725a5ac8", "type": "electric_scooter", "name": "cf116da7d4f082ec00eceaac725a5ac8"}, {"is_disabled": 0, "is_reserved": 0, "fusion_lat": 0.0, "lat": 39.02645483333333, "fusion_lon": 0.0, "rental_uris": {"ios": "https://dc.lft.to/lastmile_qr_scan", "android": "https://dc.lft.to/lastmile_qr_scan"}, "lon": -77.03681066666667, "bike_id": "4ce65367c8c930c279d93510a72e279c", "type": "electric_bike", "name": "4ce65367c8c930c279d93510a72e279c"}, {"is_disabled": 0, "is_reserved": 0, "fusion_lat": 0.0, "lat": 38.8951395, "fusion_lon": 0.0, "rental_uris": {"ios": "https://dc.lft.to/lastmile_qr_scan", "android": "https://dc.lft.to/lastmile_qr_scan"}, "lon": -76.98111783333333, "bike_id": "ce61fa18b5d3d0dab60e2c489ab8c767", "type": "electric_scooter", "name": "ce61fa18b5d3d0dab60e2c489ab8c767"}, {"is_disabled": 0, "is_reserved": 0, "fusion_lat": 0.0, "lat": 38.9219645, "fusion_lon": 0.0, "rental_uris": {"ios": "https://dc.lft.to/lastmile_qr_scan", "android": "https://dc.lft.to/lastmile_qr_scan"}, "lon": -77.0204465, "bike_id": "f476143c887f4a80edbca658438c6e2d", "type": "electric_scooter", "name": "f476143c887f4a80edbca658438c6e2d"}, {"is_disabled": 0, "is_reserved": 0, "fusion_lat": 0.0, "lat": 38.88621966666667, "fusion_lon": 0.0, "rental_uris": {"ios": "https://dc.lft.to/lastmile_qr_scan", "android": "https://dc.lft.to/lastmile_qr_scan"}, "lon": -76.92634283333334, "bike_id": "8fe4402ef85fb9a730d40354b71ca329", "type": "electric_scooter", "name": "8fe4402ef85fb9a730d40354b71ca329"}, {"is_disabled": 0, "is_reserved": 0, "fusion_lat": 0.0, "lat": 38.9204565, "fusion_lon": 0.0, "rental_uris": {"ios": "https://dc.lft.to/lastmile_qr_scan", "android": "https://dc.lft.to/lastmile_qr_scan"}, "lon": -77.03115816666667, "bike_id": "d755bf5efbd737bd7fcbc9e5d410ecd3", "type": "electric_scooter", "name": "d755bf5efbd737bd7fcbc9e5d410ecd3"}, {"is_disabled": 0, "is_reserved": 0, "fusion_lat": 0.0, "lat": 38.914176166666664, "fusion_lon": 0.0, "rental_uris": {"ios": "https://dc.lft.to/lastmile_qr_scan", "android": "https://dc.lft.to/lastmile_qr_scan"}, "lon": -77.05209766666667, "bike_id": "e10f7dbdd520920dddc3edf9dae3f19a", "type": "electric_scooter", "name": "e10f7dbdd520920dddc3edf9dae3f19a"}, {"is_disabled": 0, "is_reserved": 0, "fusion_lat": 0.0, "lat": 38.943275666666665, "fusion_lon": 0.0, "rental_uris": {"ios": "https://dc.lft.to/lastmile_qr_scan", "android": "https://dc.lft.to/lastmile_qr_scan"}, "lon": -77.0269095, "bike_id": "4a4e9f7590e465954f11165a9c9d1d7a", "type": "electric_scooter", "name": "4a4e9f7590e465954f11165a9c9d1d7a"}, {"is_disabled": 0, "is_reserved": 0, "fusion_lat": 0.0, "lat": 38.92757183333333, "fusion_lon": 0.0, "rental_uris": {"ios": "https://dc.lft.to/lastmile_qr_scan", "android": "https://dc.lft.to/lastmile_qr_scan"}, "lon": -77.05264566666666, "bike_id": "e6fe5983d56e92669cef4fc7a7ddeff5", "type": "electric_scooter", "name": "e6fe5983d56e92669cef4fc7a7ddeff5"}, {"is_disabled": 0, "is_reserved": 0, "fusion_lat": 0.0, "lat": 38.90142516666667, "fusion_lon": 0.0, "rental_uris": {"ios": "https://dc.lft.to/lastmile_qr_scan", "android": "https://dc.lft.to/lastmile_qr_scan"}, "lon": -76.97407566666666, "bike_id": "613e0ada0d7c66a5f0f149623e18fd49", "type": "electric_scooter", "name": "613e0ada0d7c66a5f0f149623e18fd49"}, {"is_disabled": 0, "is_reserved": 0, "fusion_lat": 0.0, "lat": 38.88437, "fusion_lon": 0.0, "rental_uris": {"ios": "https://dc.lft.to/lastmile_qr_scan", "android": "https://dc.lft.to/lastmile_qr_scan"}, "lon": -77.025175, "bike_id": "54168f40b49ab35a84f0694f85831564", "type": "electric_scooter", "name": "54168f40b49ab35a84f0694f85831564"}, {"is_disabled": 0, "is_reserved": 0, "fusion_lat": 0.0, "lat": 38.92126666666667, "fusion_lon": 0.0, "rental_uris": {"ios": "https://dc.lft.to/lastmile_qr_scan", "android": "https://dc.lft.to/lastmile_qr_scan"}, "lon": -77.04560883333333, "bike_id": "06b183685b389de8c3d6ca213207b06d", "type": "electric_scooter", "name": "06b183685b389de8c3d6ca213207b06d"}, {"is_disabled": 0, "is_reserved": 0, "fusion_lat": 0.0, "lat": 38.92210883333333, "fusion_lon": 0.0, "rental_uris": {"ios": "https://dc.lft.to/lastmile_qr_scan", "android": "https://dc.lft.to/lastmile_qr_scan"}, "lon": -77.07439433333333, "bike_id": "00803b3d0521d652e6339cf4ae31a45e", "type": "electric_scooter", "name": "00803b3d0521d652e6339cf4ae31a45e"}, {"is_disabled": 0, "is_reserved": 0, "fusion_lat": 0.0, "lat": 38.904375, "fusion_lon": 0.0, "rental_uris": {"ios": "https://dc.lft.to/lastmile_qr_scan", "android": "https://dc.lft.to/lastmile_qr_scan"}, "lon": -77.03104966666666, "bike_id": "87e82d4b6a41b4dc74c37c8ed659315a", "type": "electric_scooter", "name": "87e82d4b6a41b4dc74c37c8ed659315a"}, {"is_disabled": 0, "is_reserved": 0, "fusion_lat": 0.0, "lat": 38.90576383333333, "fusion_lon": 0.0, "rental_uris": {"ios": "https://dc.lft.to/lastmile_qr_scan", "android": "https://dc.lft.to/lastmile_qr_scan"}, "lon": -77.00697383333333, "bike_id": "bcea15e6efcaf29808bafb462f7987c9", "type": "electric_scooter", "name": "bcea15e6efcaf29808bafb462f7987c9"}, {"is_disabled": 0, "is_reserved": 0, "fusion_lat": 0.0, "lat": 38.909699833333335, "fusion_lon": 0.0, "rental_uris": {"ios": "https://dc.lft.to/lastmile_qr_scan", "android": "https://dc.lft.to/lastmile_qr_scan"}, "lon": -77.0443985, "bike_id": "8cb99ddba988a0cd1746d2ac063d5b84", "type": "electric_bike", "name": "8cb99ddba988a0cd1746d2ac063d5b84"}, {"is_disabled": 0, "is_reserved": 0, "fusion_lat": 0.0, "lat": 38.905935166666666, "fusion_lon": 0.0, "rental_uris": {"ios": "https://dc.lft.to/lastmile_qr_scan", "android": "https://dc.lft.to/lastmile_qr_scan"}, "lon": -77.01612033333333, "bike_id": "74c2b2dc9012fb460092c1d17dbffdb1", "type": "electric_scooter", "name": "74c2b2dc9012fb460092c1d17dbffdb1"}, {"is_disabled": 0, "is_reserved": 0, "fusion_lat": 0.0, "lat": 38.90273, "fusion_lon": 0.0, "rental_uris": {"ios": "https://dc.lft.to/lastmile_qr_scan", "android": "https://dc.lft.to/lastmile_qr_scan"}, "lon": -77.03847, "bike_id": "f439244f7a7cddbcd617c4ddd51deb5c", "type": "electric_scooter", "name": "f439244f7a7cddbcd617c4ddd51deb5c"}, {"is_disabled": 0, "is_reserved": 0, "fusion_lat": 0.0, "lat": 38.913643666666665, "fusion_lon": 0.0, "rental_uris": {"ios": "https://dc.lft.to/lastmile_qr_scan", "android": "https://dc.lft.to/lastmile_qr_scan"}, "lon": -77.04656433333334, "bike_id": "a2220d98c2d12692b094ecb0336ebfb5", "type": "electric_scooter", "name": "a2220d98c2d12692b094ecb0336ebfb5"}, {"is_disabled": 0, "is_reserved": 0, "fusion_lat": 0.0, "lat": 38.912235333333335, "fusion_lon": 0.0, "rental_uris": {"ios": "https://dc.lft.to/lastmile_qr_scan", "android": "https://dc.lft.to/lastmile_qr_scan"}, "lon": -77.00662133333333, "bike_id": "cafafd6fa4f41f350229ad38b4bb052a", "type": "electric_scooter", "name": "cafafd6fa4f41f350229ad38b4bb052a"}, {"is_disabled": 0, "is_reserved": 0, "fusion_lat": 0.0, "lat": 38.8619135, "fusion_lon": 0.0, "rental_uris": {"ios": "https://dc.lft.to/lastmile_qr_scan", "android": "https://dc.lft.to/lastmile_qr_scan"}, "lon": -77.088322, "bike_id": "b3e8d9c6821f2ae83738e09744007551", "type": "electric_bike", "name": "b3e8d9c6821f2ae83738e09744007551"}, {"is_disabled": 0, "is_reserved": 0, "fusion_lat": 0.0, "lat": 38.935235166666665, "fusion_lon": 0.0, "rental_uris": {"ios": "https://dc.lft.to/lastmile_qr_scan", "android": "https://dc.lft.to/lastmile_qr_scan"}, "lon": -77.0544065, "bike_id": "eeaa10a5f08d1ac04dfd3ac2c9230df1", "type": "electric_scooter", "name": "eeaa10a5f08d1ac04dfd3ac2c9230df1"}, {"is_disabled": 0, "is_reserved": 0, "fusion_lat": 0.0, "lat": 38.92890083333333, "fusion_lon": 0.0, "rental_uris": {"ios": "https://dc.lft.to/lastmile_qr_scan", "android": "https://dc.lft.to/lastmile_qr_scan"}, "lon": -77.032339, "bike_id": "62959ca06e1a97f51d36f7a332a7d4b5", "type": "electric_scooter", "name": "62959ca06e1a97f51d36f7a332a7d4b5"}, {"is_disabled": 0, "is_reserved": 0, "fusion_lat": 0.0, "lat": 38.971527333333334, "fusion_lon": 0.0, "rental_uris": {"ios": "https://dc.lft.to/lastmile_qr_scan", "android": "https://dc.lft.to/lastmile_qr_scan"}, "lon": -76.98360966666667, "bike_id": "3cb4faf54e520d33bc604fe6685f2e15", "type": "electric_bike", "name": "3cb4faf54e520d33bc604fe6685f2e15"}, {"is_disabled": 0, "is_reserved": 0, "fusion_lat": 0.0, "lat": 38.89486216666667, "fusion_lon": 0.0, "rental_uris": {"ios": "https://dc.lft.to/lastmile_qr_scan", "android": "https://dc.lft.to/lastmile_qr_scan"}, "lon": -77.009827, "bike_id": "685c6cf54e8aedee1796a8168e2adf4b", "type": "electric_scooter", "name": "685c6cf54e8aedee1796a8168e2adf4b"}, {"is_disabled": 0, "is_reserved": 0, "fusion_lat": 0.0, "lat": 38.8972045, "fusion_lon": 0.0, "rental_uris": {"ios": "https://dc.lft.to/lastmile_qr_scan", "android": "https://dc.lft.to/lastmile_qr_scan"}, "lon": -77.02887133333333, "bike_id": "7643782a14d54eabfd7f86604ccd211d", "type": "electric_scooter", "name": "7643782a14d54eabfd7f86604ccd211d"}, {"is_disabled": 0, "is_reserved": 0, "fusion_lat": 0.0, "lat": 38.92651866666667, "fusion_lon": 0.0, "rental_uris": {"ios": "https://dc.lft.to/lastmile_qr_scan", "android": "https://dc.lft.to/lastmile_qr_scan"}, "lon": -77.09017833333333, "bike_id": "743c9842cec39026e92c9b24b09e79d5", "type": "electric_bike", "name": "743c9842cec39026e92c9b24b09e79d5"}, {"is_disabled": 0, "is_reserved": 0, "fusion_lat": 0.0, "lat": 38.91688633333333, "fusion_lon": 0.0, "rental_uris": {"ios": "https://dc.lft.to/lastmile_qr_scan", "android": "https://dc.lft.to/lastmile_qr_scan"}, "lon": -77.0257425, "bike_id": "fcd3e26fc22e7c7b59883bdec516d5c8", "type": "electric_scooter", "name": "fcd3e26fc22e7c7b59883bdec516d5c8"}, {"is_disabled": 0, "is_reserved": 0, "fusion_lat": 0.0, "lat": 38.939321666666665, "fusion_lon": 0.0, "rental_uris": {"ios": "https://dc.lft.to/lastmile_qr_scan", "android": "https://dc.lft.to/lastmile_qr_scan"}, "lon": -77.02584716666667, "bike_id": "58bd0f443f372cd081ffce0a07dfbb44", "type": "electric_scooter", "name": "58bd0f443f372cd081ffce0a07dfbb44"}, {"is_disabled": 0, "is_reserved": 0, "fusion_lat": 0.0, "lat": 38.895628333333335, "fusion_lon": 0.0, "rental_uris": {"ios": "https://dc.lft.to/lastmile_qr_scan", "android": "https://dc.lft.to/lastmile_qr_scan"}, "lon": -77.12732583333333, "bike_id": "e6188b33a842f6a81fe5014358a0edbf", "type": "electric_bike", "name": "e6188b33a842f6a81fe5014358a0edbf"}, {"is_disabled": 0, "is_reserved": 0, "fusion_lat": 0.0, "lat": 38.905787833333335, "fusion_lon": 0.0, "rental_uris": {"ios": "https://dc.lft.to/lastmile_qr_scan", "android": "https://dc.lft.to/lastmile_qr_scan"}, "lon": -77.00870066666667, "bike_id": "70058ad6218b9e37c3d9d14be10ec5c8", "type": "electric_scooter", "name": "70058ad6218b9e37c3d9d14be10ec5c8"}, {"is_disabled": 0, "is_reserved": 0, "fusion_lat": 0.0, "lat": 38.9032125, "fusion_lon": 0.0, "rental_uris": {"ios": "https://dc.lft.to/lastmile_qr_scan", "android": "https://dc.lft.to/lastmile_qr_scan"}, "lon": -76.97539683333333, "bike_id": "c3712a05eadd8031f39c9fca14659f35", "type": "electric_scooter", "name": "c3712a05eadd8031f39c9fca14659f35"}, {"is_disabled": 0, "is_reserved": 0, "fusion_lat": 0.0, "lat": 38.89711116666667, "fusion_lon": 0.0, "rental_uris": {"ios": "https://dc.lft.to/lastmile_qr_scan", "android": "https://dc.lft.to/lastmile_qr_scan"}, "lon": -76.939119, "bike_id": "04338dce7da2ee6bc7d400c751219a5f", "type": "electric_scooter", "name": "04338dce7da2ee6bc7d400c751219a5f"}, {"is_disabled": 0, "is_reserved": 0, "fusion_lat": 0.0, "lat": 38.87171016666667, "fusion_lon": 0.0, "rental_uris": {"ios": "https://dc.lft.to/lastmile_qr_scan", "android": "https://dc.lft.to/lastmile_qr_scan"}, "lon": -77.0062365, "bike_id": "e38e0e73e843e9cf75a32dbfe0ff6d0f", "type": "electric_scooter", "name": "e38e0e73e843e9cf75a32dbfe0ff6d0f"}, {"is_disabled": 0, "is_reserved": 0, "fusion_lat": 0.0, "lat": 38.919924, "fusion_lon": 0.0, "rental_uris": {"ios": "https://dc.lft.to/lastmile_qr_scan", "android": "https://dc.lft.to/lastmile_qr_scan"}, "lon": -77.03197166666666, "bike_id": "dcad11457348c77142412cda9d7e55fd", "type": "electric_scooter", "name": "dcad11457348c77142412cda9d7e55fd"}, {"is_disabled": 0, "is_reserved": 0, "fusion_lat": 0.0, "lat": 38.91178716666667, "fusion_lon": 0.0, "rental_uris": {"ios": "https://dc.lft.to/lastmile_qr_scan", "android": "https://dc.lft.to/lastmile_qr_scan"}, "lon": -77.02699083333333, "bike_id": "6b6e8371c57370b68e207b96a9a1517f", "type": "electric_bike", "name": "6b6e8371c57370b68e207b96a9a1517f"}, {"is_disabled": 0, "is_reserved": 0, "fusion_lat": 0.0, "lat": 38.89791983333333, "fusion_lon": 0.0, "rental_uris": {"ios": "https://dc.lft.to/lastmile_qr_scan", "android": "https://dc.lft.to/lastmile_qr_scan"}, "lon": -76.97165766666667, "bike_id": "733ac220191733984776e00b662ca127", "type": "electric_scooter", "name": "733ac220191733984776e00b662ca127"}, {"is_disabled": 0, "is_reserved": 0, "fusion_lat": 0.0, "lat": 38.902181666666664, "fusion_lon": 0.0, "rental_uris": {"ios": "https://dc.lft.to/lastmile_qr_scan", "android": "https://dc.lft.to/lastmile_qr_scan"}, "lon": -76.9317605, "bike_id": "0b5026592a473c809aa39c333f6966f7", "type": "electric_bike", "name": "0b5026592a473c809aa39c333f6966f7"}, {"is_disabled": 0, "is_reserved": 0, "fusion_lat": 0.0, "lat": 38.90257716666667, "fusion_lon": 0.0, "rental_uris": {"ios": "https://dc.lft.to/lastmile_qr_scan", "android": "https://dc.lft.to/lastmile_qr_scan"}, "lon": -77.01760983333334, "bike_id": "1f043c1e92f3565ec65951e0474ffbe7", "type": "electric_scooter", "name": "1f043c1e92f3565ec65951e0474ffbe7"}, {"is_disabled": 0, "is_reserved": 0, "fusion_lat": 0.0, "lat": 38.87991683333333, "fusion_lon": 0.0, "rental_uris": {"ios": "https://dc.lft.to/lastmile_qr_scan", "android": "https://dc.lft.to/lastmile_qr_scan"}, "lon": -77.037378, "bike_id": "1683441c332f1d7ea8a5c1797ba44841", "type": "electric_scooter", "name": "1683441c332f1d7ea8a5c1797ba44841"}, {"is_disabled": 0, "is_reserved": 0, "fusion_lat": 0.0, "lat": 38.924638, "fusion_lon": 0.0, "rental_uris": {"ios": "https://dc.lft.to/lastmile_qr_scan", "android": "https://dc.lft.to/lastmile_qr_scan"}, "lon": -77.05763216666666, "bike_id": "bfe92889ffb217d3a0ef278f57b13e45", "type": "electric_scooter", "name": "bfe92889ffb217d3a0ef278f57b13e45"}, {"is_disabled": 0, "is_reserved": 0, "fusion_lat": 0.0, "lat": 38.92414, "fusion_lon": 0.0, "rental_uris": {"ios": "https://dc.lft.to/lastmile_qr_scan", "android": "https://dc.lft.to/lastmile_qr_scan"}, "lon": -77.021301, "bike_id": "d0793b5d4db8514a89759ccbd7a893a0", "type": "electric_scooter", "name": "d0793b5d4db8514a89759ccbd7a893a0"}, {"is_disabled": 0, "is_reserved": 0, "fusion_lat": 0.0, "lat": 38.9120145, "fusion_lon": 0.0, "rental_uris": {"ios": "https://dc.lft.to/lastmile_qr_scan", "android": "https://dc.lft.to/lastmile_qr_scan"}, "lon": -77.00827133333334, "bike_id": "de77b72458b542932a3167f213e32c8a", "type": "electric_scooter", "name": "de77b72458b542932a3167f213e32c8a"}, {"is_disabled": 0, "is_reserved": 0, "fusion_lat": 0.0, "lat": 38.89899233333333, "fusion_lon": 0.0, "rental_uris": {"ios": "https://dc.lft.to/lastmile_qr_scan", "android": "https://dc.lft.to/lastmile_qr_scan"}, "lon": -77.03981366666666, "bike_id": "867ea9a73a3674900115a4b3fda36aa7", "type": "electric_scooter", "name": "867ea9a73a3674900115a4b3fda36aa7"}, {"is_disabled": 0, "is_reserved": 0, "fusion_lat": 0.0, "lat": 38.944449666666664, "fusion_lon": 0.0, "rental_uris": {"ios": "https://dc.lft.to/lastmile_qr_scan", "android": "https://dc.lft.to/lastmile_qr_scan"}, "lon": -77.03279366666666, "bike_id": "e22e2dcc1fa622bc9299536e5fa45fb6", "type": "electric_scooter", "name": "e22e2dcc1fa622bc9299536e5fa45fb6"}, {"is_disabled": 0, "is_reserved": 0, "fusion_lat": 0.0, "lat": 38.9064575, "fusion_lon": 0.0, "rental_uris": {"ios": "https://dc.lft.to/lastmile_qr_scan", "android": "https://dc.lft.to/lastmile_qr_scan"}, "lon": -76.97938316666666, "bike_id": "c283060c8e71acd6ffa717231b40b122", "type": "electric_scooter", "name": "c283060c8e71acd6ffa717231b40b122"}, {"is_disabled": 0, "is_reserved": 0, "fusion_lat": 0.0, "lat": 38.90392716666667, "fusion_lon": 0.0, "rental_uris": {"ios": "https://dc.lft.to/lastmile_qr_scan", "android": "https://dc.lft.to/lastmile_qr_scan"}, "lon": -77.0629475, "bike_id": "7ab8da2c3d55ef974c70dafc12428a9f", "type": "electric_scooter", "name": "7ab8da2c3d55ef974c70dafc12428a9f"}, {"is_disabled": 0, "is_reserved": 0, "fusion_lat": 0.0, "lat": 38.922293833333335, "fusion_lon": 0.0, "rental_uris": {"ios": "https://dc.lft.to/lastmile_qr_scan", "android": "https://dc.lft.to/lastmile_qr_scan"}, "lon": -77.0351825, "bike_id": "514bdba8be0f41d873576204db6c3156", "type": "electric_scooter", "name": "514bdba8be0f41d873576204db6c3156"}, {"is_disabled": 0, "is_reserved": 0, "fusion_lat": 0.0, "lat": 38.90419416666667, "fusion_lon": 0.0, "rental_uris": {"ios": "https://dc.lft.to/lastmile_qr_scan", "android": "https://dc.lft.to/lastmile_qr_scan"}, "lon": -77.029671, "bike_id": "113a8b3b0245634b0e18a900ac07112f", "type": "electric_scooter", "name": "113a8b3b0245634b0e18a900ac07112f"}, {"is_disabled": 0, "is_reserved": 0, "fusion_lat": 0.0, "lat": 38.928704333333336, "fusion_lon": 0.0, "rental_uris": {"ios": "https://dc.lft.to/lastmile_qr_scan", "android": "https://dc.lft.to/lastmile_qr_scan"}, "lon": -77.03993833333334, "bike_id": "d63d59c3ce3b680818a978020077936e", "type": "electric_scooter", "name": "d63d59c3ce3b680818a978020077936e"}, {"is_disabled": 0, "is_reserved": 0, "fusion_lat": 0.0, "lat": 38.904277666666665, "fusion_lon": 0.0, "rental_uris": {"ios": "https://dc.lft.to/lastmile_qr_scan", "android": "https://dc.lft.to/lastmile_qr_scan"}, "lon": -77.0610645, "bike_id": "8e0e51129ab99cc15c3b363cea39ebaf", "type": "electric_scooter", "name": "8e0e51129ab99cc15c3b363cea39ebaf"}, {"is_disabled": 0, "is_reserved": 0, "fusion_lat": 0.0, "lat": 38.905066166666664, "fusion_lon": 0.0, "rental_uris": {"ios": "https://dc.lft.to/lastmile_qr_scan", "android": "https://dc.lft.to/lastmile_qr_scan"}, "lon": -77.0091635, "bike_id": "432e908607e109d0f359adce00c75ca1", "type": "electric_scooter", "name": "432e908607e109d0f359adce00c75ca1"}, {"is_disabled": 0, "is_reserved": 0, "fusion_lat": 0.0, "lat": 38.918272333333334, "fusion_lon": 0.0, "rental_uris": {"ios": "https://dc.lft.to/lastmile_qr_scan", "android": "https://dc.lft.to/lastmile_qr_scan"}, "lon": -77.02417216666667, "bike_id": "4a9d44b2876c268eddf81ae9457b6e9b", "type": "electric_scooter", "name": "4a9d44b2876c268eddf81ae9457b6e9b"}, {"is_disabled": 0, "is_reserved": 0, "fusion_lat": 0.0, "lat": 38.89721333333333, "fusion_lon": 0.0, "rental_uris": {"ios": "https://dc.lft.to/lastmile_qr_scan", "android": "https://dc.lft.to/lastmile_qr_scan"}, "lon": -77.0241155, "bike_id": "c1f85fecc360af9e05926cb6061c4500", "type": "electric_scooter", "name": "c1f85fecc360af9e05926cb6061c4500"}, {"is_disabled": 0, "is_reserved": 0, "fusion_lat": 0.0, "lat": 38.91613516666666, "fusion_lon": 0.0, "rental_uris": {"ios": "https://dc.lft.to/lastmile_qr_scan", "android": "https://dc.lft.to/lastmile_qr_scan"}, "lon": -77.02285266666667, "bike_id": "5e9a9ded350f91a2898d2e1b54c297a3", "type": "electric_scooter", "name": "5e9a9ded350f91a2898d2e1b54c297a3"}, {"is_disabled": 0, "is_reserved": 0, "fusion_lat": 0.0, "lat": 38.956132, "fusion_lon": 0.0, "rental_uris": {"ios": "https://dc.lft.to/lastmile_qr_scan", "android": "https://dc.lft.to/lastmile_qr_scan"}, "lon": -77.03309016666667, "bike_id": "afda698d86d580d07efb2ea11152fc9d", "type": "electric_scooter", "name": "afda698d86d580d07efb2ea11152fc9d"}, {"is_disabled": 0, "is_reserved": 0, "fusion_lat": 0.0, "lat": 38.919502, "fusion_lon": 0.0, "rental_uris": {"ios": "https://dc.lft.to/lastmile_qr_scan", "android": "https://dc.lft.to/lastmile_qr_scan"}, "lon": -77.02305683333333, "bike_id": "0a77d8ce66804581b95c98184f56d6fe", "type": "electric_scooter", "name": "0a77d8ce66804581b95c98184f56d6fe"}, {"is_disabled": 0, "is_reserved": 0, "fusion_lat": 0.0, "lat": 38.9023795, "fusion_lon": 0.0, "rental_uris": {"ios": "https://dc.lft.to/lastmile_qr_scan", "android": "https://dc.lft.to/lastmile_qr_scan"}, "lon": -77.05341283333334, "bike_id": "ae7c9cb3ab88188cc7dc356c4035fe45", "type": "electric_scooter", "name": "ae7c9cb3ab88188cc7dc356c4035fe45"}, {"is_disabled": 0, "is_reserved": 0, "fusion_lat": 0.0, "lat": 38.8921405, "fusion_lon": 0.0, "rental_uris": {"ios": "https://dc.lft.to/lastmile_qr_scan", "android": "https://dc.lft.to/lastmile_qr_scan"}, "lon": -77.02964416666667, "bike_id": "54823d944e5ed194b403c21740950071", "type": "electric_scooter", "name": "54823d944e5ed194b403c21740950071"}, {"is_disabled": 0, "is_reserved": 0, "fusion_lat": 0.0, "lat": 38.910512, "fusion_lon": 0.0, "rental_uris": {"ios": "https://dc.lft.to/lastmile_qr_scan", "android": "https://dc.lft.to/lastmile_qr_scan"}, "lon": -77.04336816666667, "bike_id": "945be1dfbde05b756eb7cf65463750b3", "type": "electric_scooter", "name": "945be1dfbde05b756eb7cf65463750b3"}, {"is_disabled": 0, "is_reserved": 0, "fusion_lat": 0.0, "lat": 38.92853266666667, "fusion_lon": 0.0, "rental_uris": {"ios": "https://dc.lft.to/lastmile_qr_scan", "android": "https://dc.lft.to/lastmile_qr_scan"}, "lon": -77.028778, "bike_id": "773e784cc50779331799a8759cc40ad1", "type": "electric_scooter", "name": "773e784cc50779331799a8759cc40ad1"}, {"is_disabled": 0, "is_reserved": 0, "fusion_lat": 0.0, "lat": 38.936004, "fusion_lon": 0.0, "rental_uris": {"ios": "https://dc.lft.to/lastmile_qr_scan", "android": "https://dc.lft.to/lastmile_qr_scan"}, "lon": -77.038761, "bike_id": "8ca087f4508464015a3baae4fd09ea3c", "type": "electric_scooter", "name": "8ca087f4508464015a3baae4fd09ea3c"}, {"is_disabled": 0, "is_reserved": 0, "fusion_lat": 0.0, "lat": 38.90007283333333, "fusion_lon": 0.0, "rental_uris": {"ios": "https://dc.lft.to/lastmile_qr_scan", "android": "https://dc.lft.to/lastmile_qr_scan"}, "lon": -77.021795, "bike_id": "c2f1fb6d5275d4085789a2289be8b94a", "type": "electric_scooter", "name": "c2f1fb6d5275d4085789a2289be8b94a"}, {"is_disabled": 0, "is_reserved": 0, "fusion_lat": 0.0, "lat": 38.93406366666667, "fusion_lon": 0.0, "rental_uris": {"ios": "https://dc.lft.to/lastmile_qr_scan", "android": "https://dc.lft.to/lastmile_qr_scan"}, "lon": -77.0427345, "bike_id": "13d475dd5cb15409d2dce7924903656c", "type": "electric_scooter", "name": "13d475dd5cb15409d2dce7924903656c"}, {"is_disabled": 0, "is_reserved": 0, "fusion_lat": 0.0, "lat": 38.92240016666667, "fusion_lon": 0.0, "rental_uris": {"ios": "https://dc.lft.to/lastmile_qr_scan", "android": "https://dc.lft.to/lastmile_qr_scan"}, "lon": -77.02268966666666, "bike_id": "376e46824e9f9f3c0e2b63b11fa3586e", "type": "electric_scooter", "name": "376e46824e9f9f3c0e2b63b11fa3586e"}, {"is_disabled": 0, "is_reserved": 0, "fusion_lat": 0.0, "lat": 38.92119833333334, "fusion_lon": 0.0, "rental_uris": {"ios": "https://dc.lft.to/lastmile_qr_scan", "android": "https://dc.lft.to/lastmile_qr_scan"}, "lon": -77.0365855, "bike_id": "5b9e839a90ed83ea78db77537de5dd21", "type": "electric_scooter", "name": "5b9e839a90ed83ea78db77537de5dd21"}, {"is_disabled": 0, "is_reserved": 0, "fusion_lat": 0.0, "lat": 38.908916166666664, "fusion_lon": 0.0, "rental_uris": {"ios": "https://dc.lft.to/lastmile_qr_scan", "android": "https://dc.lft.to/lastmile_qr_scan"}, "lon": -76.99778483333333, "bike_id": "2c1a56a0f1a4fc235149d7c94c19f079", "type": "electric_scooter", "name": "2c1a56a0f1a4fc235149d7c94c19f079"}, {"is_disabled": 0, "is_reserved": 0, "fusion_lat": 0.0, "lat": 38.842773666666666, "fusion_lon": 0.0, "rental_uris": {"ios": "https://dc.lft.to/lastmile_qr_scan", "android": "https://dc.lft.to/lastmile_qr_scan"}, "lon": -76.98840183333333, "bike_id": "e1d531c12e404b2570dbff73b3009f27", "type": "electric_bike", "name": "e1d531c12e404b2570dbff73b3009f27"}, {"is_disabled": 0, "is_reserved": 0, "fusion_lat": 0.0, "lat": 38.89512166666667, "fusion_lon": 0.0, "rental_uris": {"ios": "https://dc.lft.to/lastmile_qr_scan", "android": "https://dc.lft.to/lastmile_qr_scan"}, "lon": -77.025896, "bike_id": "3d90fc3e0d6a6cb635b6ecf6a6c2c2a3", "type": "electric_scooter", "name": "3d90fc3e0d6a6cb635b6ecf6a6c2c2a3"}, {"is_disabled": 0, "is_reserved": 0, "fusion_lat": 0.0, "lat": 38.92987733333333, "fusion_lon": 0.0, "rental_uris": {"ios": "https://dc.lft.to/lastmile_qr_scan", "android": "https://dc.lft.to/lastmile_qr_scan"}, "lon": -77.03471616666667, "bike_id": "bb170b0eaff35a380dd5434024324359", "type": "electric_scooter", "name": "bb170b0eaff35a380dd5434024324359"}, {"is_disabled": 0, "is_reserved": 0, "fusion_lat": 0.0, "lat": 38.895511, "fusion_lon": 0.0, "rental_uris": {"ios": "https://dc.lft.to/lastmile_qr_scan", "android": "https://dc.lft.to/lastmile_qr_scan"}, "lon": -77.02702183333334, "bike_id": "0eb703bebfbd50f1d248a42db7180eb4", "type": "electric_scooter", "name": "0eb703bebfbd50f1d248a42db7180eb4"}, {"is_disabled": 0, "is_reserved": 0, "fusion_lat": 0.0, "lat": 38.9023715, "fusion_lon": 0.0, "rental_uris": {"ios": "https://dc.lft.to/lastmile_qr_scan", "android": "https://dc.lft.to/lastmile_qr_scan"}, "lon": -77.0195315, "bike_id": "96f5a8ca13284cbdd2ac87eea0e910ec", "type": "electric_scooter", "name": "96f5a8ca13284cbdd2ac87eea0e910ec"}, {"is_disabled": 0, "is_reserved": 0, "fusion_lat": 0.0, "lat": 38.879292, "fusion_lon": 0.0, "rental_uris": {"ios": "https://dc.lft.to/lastmile_qr_scan", "android": "https://dc.lft.to/lastmile_qr_scan"}, "lon": -77.00759916666667, "bike_id": "23daa7eea22f8b529e6b44431aaf7ff6", "type": "electric_scooter", "name": "23daa7eea22f8b529e6b44431aaf7ff6"}, {"is_disabled": 0, "is_reserved": 0, "fusion_lat": 0.0, "lat": 38.9096955, "fusion_lon": 0.0, "rental_uris": {"ios": "https://dc.lft.to/lastmile_qr_scan", "android": "https://dc.lft.to/lastmile_qr_scan"}, "lon": -77.03403416666667, "bike_id": "07f2e992a88850b28b3aa2705d1c432a", "type": "electric_scooter", "name": "07f2e992a88850b28b3aa2705d1c432a"}, {"is_disabled": 0, "is_reserved": 0, "fusion_lat": 0.0, "lat": 38.91953733333333, "fusion_lon": 0.0, "rental_uris": {"ios": "https://dc.lft.to/lastmile_qr_scan", "android": "https://dc.lft.to/lastmile_qr_scan"}, "lon": -77.0786665, "bike_id": "9b56ce1f58f08aca3842f626cd3f3d1c", "type": "electric_scooter", "name": "9b56ce1f58f08aca3842f626cd3f3d1c"}, {"is_disabled": 0, "is_reserved": 0, "fusion_lat": 0.0, "lat": 38.90841533333333, "fusion_lon": 0.0, "rental_uris": {"ios": "https://dc.lft.to/lastmile_qr_scan", "android": "https://dc.lft.to/lastmile_qr_scan"}, "lon": -77.05813366666666, "bike_id": "452ea117263302787bbf30961cbf87f5", "type": "electric_scooter", "name": "452ea117263302787bbf30961cbf87f5"}, {"is_disabled": 0, "is_reserved": 0, "fusion_lat": 0.0, "lat": 38.9023965, "fusion_lon": 0.0, "rental_uris": {"ios": "https://dc.lft.to/lastmile_qr_scan", "android": "https://dc.lft.to/lastmile_qr_scan"}, "lon": -77.06271166666667, "bike_id": "57e4b9e940834772ffbc10f7ceba7d35", "type": "electric_scooter", "name": "57e4b9e940834772ffbc10f7ceba7d35"}, {"is_disabled": 0, "is_reserved": 0, "fusion_lat": 0.0, "lat": 38.92100116666667, "fusion_lon": 0.0, "rental_uris": {"ios": "https://dc.lft.to/lastmile_qr_scan", "android": "https://dc.lft.to/lastmile_qr_scan"}, "lon": -77.0317025, "bike_id": "69b6333de9e12ba054005f1e31769016", "type": "electric_scooter", "name": "69b6333de9e12ba054005f1e31769016"}, {"is_disabled": 0, "is_reserved": 0, "fusion_lat": 0.0, "lat": 38.97341383333333, "fusion_lon": 0.0, "rental_uris": {"ios": "https://dc.lft.to/lastmile_qr_scan", "android": "https://dc.lft.to/lastmile_qr_scan"}, "lon": -77.01787566666667, "bike_id": "f205b990e66fb92e9e65e2edd12bac44", "type": "electric_bike", "name": "f205b990e66fb92e9e65e2edd12bac44"}, {"is_disabled": 0, "is_reserved": 0, "fusion_lat": 0.0, "lat": 38.9168875, "fusion_lon": 0.0, "rental_uris": {"ios": "https://dc.lft.to/lastmile_qr_scan", "android": "https://dc.lft.to/lastmile_qr_scan"}, "lon": -77.03210466666667, "bike_id": "302ffd0485232f10414d9d070e5d5b8c", "type": "electric_scooter", "name": "302ffd0485232f10414d9d070e5d5b8c"}, {"is_disabled": 0, "is_reserved": 0, "fusion_lat": 0.0, "lat": 38.924277000000004, "fusion_lon": 0.0, "rental_uris": {"ios": "https://dc.lft.to/lastmile_qr_scan", "android": "https://dc.lft.to/lastmile_qr_scan"}, "lon": -77.04241816666666, "bike_id": "493f1f809b7426bf0f665f4486b90808", "type": "electric_scooter", "name": "493f1f809b7426bf0f665f4486b90808"}, {"is_disabled": 0, "is_reserved": 0, "fusion_lat": 0.0, "lat": 38.87973383333333, "fusion_lon": 0.0, "rental_uris": {"ios": "https://dc.lft.to/lastmile_qr_scan", "android": "https://dc.lft.to/lastmile_qr_scan"}, "lon": -77.00588483333334, "bike_id": "f1110ad89ab9abe973621a1b29f885b0", "type": "electric_scooter", "name": "f1110ad89ab9abe973621a1b29f885b0"}, {"is_disabled": 0, "is_reserved": 0, "fusion_lat": 0.0, "lat": 38.848591666666664, "fusion_lon": 0.0, "rental_uris": {"ios": "https://dc.lft.to/lastmile_qr_scan", "android": "https://dc.lft.to/lastmile_qr_scan"}, "lon": -77.06828216666666, "bike_id": "4a3326022eb9efb1a8f4070863e6bd23", "type": "electric_bike", "name": "4a3326022eb9efb1a8f4070863e6bd23"}, {"is_disabled": 0, "is_reserved": 0, "fusion_lat": 0.0, "lat": 38.8073915, "fusion_lon": 0.0, "rental_uris": {"ios": "https://dc.lft.to/lastmile_qr_scan", "android": "https://dc.lft.to/lastmile_qr_scan"}, "lon": -77.0968635, "bike_id": "a414fe5008038bb63954044d7de8c2b1", "type": "electric_bike", "name": "a414fe5008038bb63954044d7de8c2b1"}, {"is_disabled": 0, "is_reserved": 0, "fusion_lat": 0.0, "lat": 38.91652416666667, "fusion_lon": 0.0, "rental_uris": {"ios": "https://dc.lft.to/lastmile_qr_scan", "android": "https://dc.lft.to/lastmile_qr_scan"}, "lon": -77.02393666666667, "bike_id": "478c8fe4c7f6bf18e72e4853b0d16995", "type": "electric_scooter", "name": "478c8fe4c7f6bf18e72e4853b0d16995"}, {"is_disabled": 0, "is_reserved": 0, "fusion_lat": 0.0, "lat": 38.91417083333333, "fusion_lon": 0.0, "rental_uris": {"ios": "https://dc.lft.to/lastmile_qr_scan", "android": "https://dc.lft.to/lastmile_qr_scan"}, "lon": -77.0317245, "bike_id": "e6a79c414a2a97be9622ed8fb9f5eae7", "type": "electric_scooter", "name": "e6a79c414a2a97be9622ed8fb9f5eae7"}, {"is_disabled": 0, "is_reserved": 0, "fusion_lat": 0.0, "lat": 38.90203616666667, "fusion_lon": 0.0, "rental_uris": {"ios": "https://dc.lft.to/lastmile_qr_scan", "android": "https://dc.lft.to/lastmile_qr_scan"}, "lon": -77.048728, "bike_id": "e987144692a8151d488e3567a781c2f6", "type": "electric_scooter", "name": "e987144692a8151d488e3567a781c2f6"}, {"is_disabled": 0, "is_reserved": 0, "fusion_lat": 0.0, "lat": 38.871685666666664, "fusion_lon": 0.0, "rental_uris": {"ios": "https://dc.lft.to/lastmile_qr_scan", "android": "https://dc.lft.to/lastmile_qr_scan"}, "lon": -77.23391166666667, "bike_id": "c49604c5ee67e2b4c593d049be4cb8f2", "type": "electric_bike", "name": "c49604c5ee67e2b4c593d049be4cb8f2"}, {"is_disabled": 0, "is_reserved": 0, "fusion_lat": 0.0, "lat": 38.91049733333333, "fusion_lon": 0.0, "rental_uris": {"ios": "https://dc.lft.to/lastmile_qr_scan", "android": "https://dc.lft.to/lastmile_qr_scan"}, "lon": -77.0434995, "bike_id": "36ea82739ceba3a509683308a4021349", "type": "electric_scooter", "name": "36ea82739ceba3a509683308a4021349"}, {"is_disabled": 0, "is_reserved": 0, "fusion_lat": 0.0, "lat": 38.96530033333333, "fusion_lon": 0.0, "rental_uris": {"ios": "https://dc.lft.to/lastmile_qr_scan", "android": "https://dc.lft.to/lastmile_qr_scan"}, "lon": -77.03414833333333, "bike_id": "18775b7915b041cdd7e657b16e222fcf", "type": "electric_bike", "name": "18775b7915b041cdd7e657b16e222fcf"}, {"is_disabled": 0, "is_reserved": 0, "fusion_lat": 0.0, "lat": 38.93092433333333, "fusion_lon": 0.0, "rental_uris": {"ios": "https://dc.lft.to/lastmile_qr_scan", "android": "https://dc.lft.to/lastmile_qr_scan"}, "lon": -77.026576, "bike_id": "b7e0a6d8196874bb6207b5c503578e9d", "type": "electric_scooter", "name": "b7e0a6d8196874bb6207b5c503578e9d"}, {"is_disabled": 0, "is_reserved": 0, "fusion_lat": 0.0, "lat": 38.8967685, "fusion_lon": 0.0, "rental_uris": {"ios": "https://dc.lft.to/lastmile_qr_scan", "android": "https://dc.lft.to/lastmile_qr_scan"}, "lon": -77.04894433333334, "bike_id": "0ce44b509fef9104ba42016fd18f72b3", "type": "electric_scooter", "name": "0ce44b509fef9104ba42016fd18f72b3"}, {"is_disabled": 0, "is_reserved": 0, "fusion_lat": 0.0, "lat": 38.89360083333333, "fusion_lon": 0.0, "rental_uris": {"ios": "https://dc.lft.to/lastmile_qr_scan", "android": "https://dc.lft.to/lastmile_qr_scan"}, "lon": -76.94106383333333, "bike_id": "ec2fb1af03315eb2ec5f0eed6e47a22d", "type": "electric_scooter", "name": "ec2fb1af03315eb2ec5f0eed6e47a22d"}, {"is_disabled": 0, "is_reserved": 0, "fusion_lat": 0.0, "lat": 38.936949, "fusion_lon": 0.0, "rental_uris": {"ios": "https://dc.lft.to/lastmile_qr_scan", "android": "https://dc.lft.to/lastmile_qr_scan"}, "lon": -77.05605416666667, "bike_id": "382708cd8f5c30416abeddae0482afbc", "type": "electric_scooter", "name": "382708cd8f5c30416abeddae0482afbc"}, {"is_disabled": 0, "is_reserved": 0, "fusion_lat": 0.0, "lat": 38.902684666666666, "fusion_lon": 0.0, "rental_uris": {"ios": "https://dc.lft.to/lastmile_qr_scan", "android": "https://dc.lft.to/lastmile_qr_scan"}, "lon": -77.03968383333333, "bike_id": "9f8a28f8910e007134e68d28ff5b63ed", "type": "electric_scooter", "name": "9f8a28f8910e007134e68d28ff5b63ed"}, {"is_disabled": 0, "is_reserved": 0, "fusion_lat": 0.0, "lat": 39.00000266666667, "fusion_lon": 0.0, "rental_uris": {"ios": "https://dc.lft.to/lastmile_qr_scan", "android": "https://dc.lft.to/lastmile_qr_scan"}, "lon": -76.91797466666667, "bike_id": "72d812720d8547fe135981fa29d91094", "type": "electric_bike", "name": "72d812720d8547fe135981fa29d91094"}, {"is_disabled": 0, "is_reserved": 0, "fusion_lat": 0.0, "lat": 38.899843, "fusion_lon": 0.0, "rental_uris": {"ios": "https://dc.lft.to/lastmile_qr_scan", "android": "https://dc.lft.to/lastmile_qr_scan"}, "lon": -77.00933066666667, "bike_id": "024fb0d680ce414c675e65130051a9fe", "type": "electric_scooter", "name": "024fb0d680ce414c675e65130051a9fe"}, {"is_disabled": 0, "is_reserved": 0, "fusion_lat": 0.0, "lat": 38.898925, "fusion_lon": 0.0, "rental_uris": {"ios": "https://dc.lft.to/lastmile_qr_scan", "android": "https://dc.lft.to/lastmile_qr_scan"}, "lon": -77.0398555, "bike_id": "7f870b4c9e3b65b8c1a1a569c4357ae2", "type": "electric_scooter", "name": "7f870b4c9e3b65b8c1a1a569c4357ae2"}, {"is_disabled": 0, "is_reserved": 0, "fusion_lat": 0.0, "lat": 38.8767715, "fusion_lon": 0.0, "rental_uris": {"ios": "https://dc.lft.to/lastmile_qr_scan", "android": "https://dc.lft.to/lastmile_qr_scan"}, "lon": -77.0006405, "bike_id": "1464c5c6ea810236eb5f77eb013d2d8f", "type": "electric_scooter", "name": "1464c5c6ea810236eb5f77eb013d2d8f"}, {"is_disabled": 0, "is_reserved": 0, "fusion_lat": 0.0, "lat": 38.86676816666667, "fusion_lon": 0.0, "rental_uris": {"ios": "https://dc.lft.to/lastmile_qr_scan", "android": "https://dc.lft.to/lastmile_qr_scan"}, "lon": -77.010224, "bike_id": "1003fa06153381247c76846ef694f16a", "type": "electric_scooter", "name": "1003fa06153381247c76846ef694f16a"}, {"is_disabled": 0, "is_reserved": 0, "fusion_lat": 0.0, "lat": 38.885267666666664, "fusion_lon": 0.0, "rental_uris": {"ios": "https://dc.lft.to/lastmile_qr_scan", "android": "https://dc.lft.to/lastmile_qr_scan"}, "lon": -76.99797166666667, "bike_id": "4ad454e8b92f829e2de9b18564cbb6ee", "type": "electric_scooter", "name": "4ad454e8b92f829e2de9b18564cbb6ee"}, {"is_disabled": 0, "is_reserved": 0, "fusion_lat": 0.0, "lat": 38.9677415, "fusion_lon": 0.0, "rental_uris": {"ios": "https://dc.lft.to/lastmile_qr_scan", "android": "https://dc.lft.to/lastmile_qr_scan"}, "lon": -76.99652483333334, "bike_id": "f3a040146734235ae9a24db7ba99ccd7", "type": "electric_bike", "name": "f3a040146734235ae9a24db7ba99ccd7"}, {"is_disabled": 0, "is_reserved": 0, "fusion_lat": 0.0, "lat": 38.91079633333333, "fusion_lon": 0.0, "rental_uris": {"ios": "https://dc.lft.to/lastmile_qr_scan", "android": "https://dc.lft.to/lastmile_qr_scan"}, "lon": -77.02178316666667, "bike_id": "d788a4c6ee91d1c5377fb1a452f43e9c", "type": "electric_scooter", "name": "d788a4c6ee91d1c5377fb1a452f43e9c"}, {"is_disabled": 0, "is_reserved": 0, "fusion_lat": 0.0, "lat": 38.911260666666664, "fusion_lon": 0.0, "rental_uris": {"ios": "https://dc.lft.to/lastmile_qr_scan", "android": "https://dc.lft.to/lastmile_qr_scan"}, "lon": -76.99748833333334, "bike_id": "58b94cce1b9690b1768704c4578fe540", "type": "electric_scooter", "name": "58b94cce1b9690b1768704c4578fe540"}, {"is_disabled": 0, "is_reserved": 0, "fusion_lat": 0.0, "lat": 38.90509516666667, "fusion_lon": 0.0, "rental_uris": {"ios": "https://dc.lft.to/lastmile_qr_scan", "android": "https://dc.lft.to/lastmile_qr_scan"}, "lon": -77.06114416666667, "bike_id": "36833a253eb0218567714a2061cf993a", "type": "electric_scooter", "name": "36833a253eb0218567714a2061cf993a"}, {"is_disabled": 0, "is_reserved": 0, "fusion_lat": 0.0, "lat": 38.905799333333334, "fusion_lon": 0.0, "rental_uris": {"ios": "https://dc.lft.to/lastmile_qr_scan", "android": "https://dc.lft.to/lastmile_qr_scan"}, "lon": -77.00689716666666, "bike_id": "2f99174df0e2b414b094675d402337f6", "type": "electric_scooter", "name": "2f99174df0e2b414b094675d402337f6"}, {"is_disabled": 0, "is_reserved": 0, "fusion_lat": 0.0, "lat": 38.92163733333334, "fusion_lon": 0.0, "rental_uris": {"ios": "https://dc.lft.to/lastmile_qr_scan", "android": "https://dc.lft.to/lastmile_qr_scan"}, "lon": -77.040139, "bike_id": "5300243838d2e7459d476300c3ec463f", "type": "electric_scooter", "name": "5300243838d2e7459d476300c3ec463f"}, {"is_disabled": 0, "is_reserved": 0, "fusion_lat": 0.0, "lat": 38.89966316666667, "fusion_lon": 0.0, "rental_uris": {"ios": "https://dc.lft.to/lastmile_qr_scan", "android": "https://dc.lft.to/lastmile_qr_scan"}, "lon": -76.92631266666666, "bike_id": "022488b181880995b917152238687df3", "type": "electric_scooter", "name": "022488b181880995b917152238687df3"}, {"is_disabled": 0, "is_reserved": 0, "fusion_lat": 0.0, "lat": 38.88882533333334, "fusion_lon": 0.0, "rental_uris": {"ios": "https://dc.lft.to/lastmile_qr_scan", "android": "https://dc.lft.to/lastmile_qr_scan"}, "lon": -76.9903655, "bike_id": "262bc0a345b64444d4005fcde88e03d4", "type": "electric_scooter", "name": "262bc0a345b64444d4005fcde88e03d4"}, {"is_disabled": 0, "is_reserved": 0, "fusion_lat": 0.0, "lat": 38.90301016666667, "fusion_lon": 0.0, "rental_uris": {"ios": "https://dc.lft.to/lastmile_qr_scan", "android": "https://dc.lft.to/lastmile_qr_scan"}, "lon": -77.03205866666667, "bike_id": "70102fca3090675a05a39a993d72c89e", "type": "electric_scooter", "name": "70102fca3090675a05a39a993d72c89e"}, {"is_disabled": 0, "is_reserved": 0, "fusion_lat": 0.0, "lat": 38.95346816666667, "fusion_lon": 0.0, "rental_uris": {"ios": "https://dc.lft.to/lastmile_qr_scan", "android": "https://dc.lft.to/lastmile_qr_scan"}, "lon": -77.081517, "bike_id": "320608a2f3abfd5323c84c5da322795c", "type": "electric_scooter", "name": "320608a2f3abfd5323c84c5da322795c"}, {"is_disabled": 0, "is_reserved": 0, "fusion_lat": 0.0, "lat": 38.92348716666667, "fusion_lon": 0.0, "rental_uris": {"ios": "https://dc.lft.to/lastmile_qr_scan", "android": "https://dc.lft.to/lastmile_qr_scan"}, "lon": -76.97207316666666, "bike_id": "a22a7543f95e9956d3825b3f427d2a17", "type": "electric_scooter", "name": "a22a7543f95e9956d3825b3f427d2a17"}, {"is_disabled": 0, "is_reserved": 0, "fusion_lat": 0.0, "lat": 39.084736166666666, "fusion_lon": 0.0, "rental_uris": {"ios": "https://dc.lft.to/lastmile_qr_scan", "android": "https://dc.lft.to/lastmile_qr_scan"}, "lon": -76.95069266666667, "bike_id": "7f3f14294544b379fa8da5d3b805df20", "type": "electric_bike", "name": "7f3f14294544b379fa8da5d3b805df20"}, {"is_disabled": 0, "is_reserved": 0, "fusion_lat": 0.0, "lat": 38.918014, "fusion_lon": 0.0, "rental_uris": {"ios": "https://dc.lft.to/lastmile_qr_scan", "android": "https://dc.lft.to/lastmile_qr_scan"}, "lon": -77.032129, "bike_id": "cf688efd013a89a81c118c1cceee9155", "type": "electric_scooter", "name": "cf688efd013a89a81c118c1cceee9155"}, {"is_disabled": 0, "is_reserved": 0, "fusion_lat": 0.0, "lat": 38.89462566666667, "fusion_lon": 0.0, "rental_uris": {"ios": "https://dc.lft.to/lastmile_qr_scan", "android": "https://dc.lft.to/lastmile_qr_scan"}, "lon": -77.00228066666666, "bike_id": "2840ca869d94d48b905da582245e1fa7", "type": "electric_scooter", "name": "2840ca869d94d48b905da582245e1fa7"}, {"is_disabled": 0, "is_reserved": 0, "fusion_lat": 0.0, "lat": 39.025152, "fusion_lon": 0.0, "rental_uris": {"ios": "https://dc.lft.to/lastmile_qr_scan", "android": "https://dc.lft.to/lastmile_qr_scan"}, "lon": -77.019661, "bike_id": "514de38cf17e80ebf8a8f48ed1693749", "type": "electric_bike", "name": "514de38cf17e80ebf8a8f48ed1693749"}, {"is_disabled": 0, "is_reserved": 0, "fusion_lat": 0.0, "lat": 38.93207266666667, "fusion_lon": 0.0, "rental_uris": {"ios": "https://dc.lft.to/lastmile_qr_scan", "android": "https://dc.lft.to/lastmile_qr_scan"}, "lon": -77.02281233333333, "bike_id": "4c43a339c35c34c779f92dda403f6cfb", "type": "electric_scooter", "name": "4c43a339c35c34c779f92dda403f6cfb"}, {"is_disabled": 0, "is_reserved": 0, "fusion_lat": 0.0, "lat": 38.804789166666666, "fusion_lon": 0.0, "rental_uris": {"ios": "https://dc.lft.to/lastmile_qr_scan", "android": "https://dc.lft.to/lastmile_qr_scan"}, "lon": -76.99104866666667, "bike_id": "202e8b4b3324935d75c3ab1ff2272512", "type": "electric_bike", "name": "202e8b4b3324935d75c3ab1ff2272512"}, {"is_disabled": 0, "is_reserved": 0, "fusion_lat": 0.0, "lat": 38.902316166666665, "fusion_lon": 0.0, "rental_uris": {"ios": "https://dc.lft.to/lastmile_qr_scan", "android": "https://dc.lft.to/lastmile_qr_scan"}, "lon": -77.0607235, "bike_id": "6eef57f7062b19f666d7cec71abfbc4b", "type": "electric_scooter", "name": "6eef57f7062b19f666d7cec71abfbc4b"}, {"is_disabled": 0, "is_reserved": 0, "fusion_lat": 0.0, "lat": 38.922627166666665, "fusion_lon": 0.0, "rental_uris": {"ios": "https://dc.lft.to/lastmile_qr_scan", "android": "https://dc.lft.to/lastmile_qr_scan"}, "lon": -77.03634983333333, "bike_id": "5a46d7ec2053567a56158742a955e6d4", "type": "electric_scooter", "name": "5a46d7ec2053567a56158742a955e6d4"}, {"is_disabled": 0, "is_reserved": 0, "fusion_lat": 0.0, "lat": 39.00095316666667, "fusion_lon": 0.0, "rental_uris": {"ios": "https://dc.lft.to/lastmile_qr_scan", "android": "https://dc.lft.to/lastmile_qr_scan"}, "lon": -76.909818, "bike_id": "f8e82aae88017ab2ce8e118d466fd75a", "type": "electric_bike", "name": "f8e82aae88017ab2ce8e118d466fd75a"}, {"is_disabled": 0, "is_reserved": 0, "fusion_lat": 0.0, "lat": 38.91537133333333, "fusion_lon": 0.0, "rental_uris": {"ios": "https://dc.lft.to/lastmile_qr_scan", "android": "https://dc.lft.to/lastmile_qr_scan"}, "lon": -77.03193133333333, "bike_id": "64d4dc650a062deed220a6e2056219d0", "type": "electric_scooter", "name": "64d4dc650a062deed220a6e2056219d0"}, {"is_disabled": 0, "is_reserved": 0, "fusion_lat": 0.0, "lat": 38.91550933333333, "fusion_lon": 0.0, "rental_uris": {"ios": "https://dc.lft.to/lastmile_qr_scan", "android": "https://dc.lft.to/lastmile_qr_scan"}, "lon": -77.02331566666666, "bike_id": "0480463f447e3c68b45e0b1465fdc1e2", "type": "electric_scooter", "name": "0480463f447e3c68b45e0b1465fdc1e2"}, {"is_disabled": 0, "is_reserved": 0, "fusion_lat": 0.0, "lat": 38.998494, "fusion_lon": 0.0, "rental_uris": {"ios": "https://dc.lft.to/lastmile_qr_scan", "android": "https://dc.lft.to/lastmile_qr_scan"}, "lon": -77.0024945, "bike_id": "e6e1a048c6fe6dd8c66c350cd8acfcc1", "type": "electric_bike", "name": "e6e1a048c6fe6dd8c66c350cd8acfcc1"}, {"is_disabled": 0, "is_reserved": 0, "fusion_lat": 0.0, "lat": 38.875650666666665, "fusion_lon": 0.0, "rental_uris": {"ios": "https://dc.lft.to/lastmile_qr_scan", "android": "https://dc.lft.to/lastmile_qr_scan"}, "lon": -77.04705066666666, "bike_id": "0f5d256e12d034f8d738aea9ff462b1c", "type": "electric_bike", "name": "0f5d256e12d034f8d738aea9ff462b1c"}, {"is_disabled": 0, "is_reserved": 0, "fusion_lat": 0.0, "lat": 38.8922245, "fusion_lon": 0.0, "rental_uris": {"ios": "https://dc.lft.to/lastmile_qr_scan", "android": "https://dc.lft.to/lastmile_qr_scan"}, "lon": -77.04333416666667, "bike_id": "ee45276cf702595fc035bda7001f26d1", "type": "electric_scooter", "name": "ee45276cf702595fc035bda7001f26d1"}, {"is_disabled": 0, "is_reserved": 0, "fusion_lat": 0.0, "lat": 39.04235666666667, "fusion_lon": 0.0, "rental_uris": {"ios": "https://dc.lft.to/lastmile_qr_scan", "android": "https://dc.lft.to/lastmile_qr_scan"}, "lon": -76.99735716666666, "bike_id": "1281326220ebcd300fdc81f441c6fa88", "type": "electric_bike", "name": "1281326220ebcd300fdc81f441c6fa88"}, {"is_disabled": 0, "is_reserved": 0, "fusion_lat": 0.0, "lat": 38.894731, "fusion_lon": 0.0, "rental_uris": {"ios": "https://dc.lft.to/lastmile_qr_scan", "android": "https://dc.lft.to/lastmile_qr_scan"}, "lon": -77.00267916666667, "bike_id": "0b6424bd44434c783cee0267a6485ee4", "type": "electric_scooter", "name": "0b6424bd44434c783cee0267a6485ee4"}, {"is_disabled": 0, "is_reserved": 0, "fusion_lat": 0.0, "lat": 38.912732, "fusion_lon": 0.0, "rental_uris": {"ios": "https://dc.lft.to/lastmile_qr_scan", "android": "https://dc.lft.to/lastmile_qr_scan"}, "lon": -77.04665766666666, "bike_id": "9d812a2bf8ad74e1a417d3db5104a819", "type": "electric_scooter", "name": "9d812a2bf8ad74e1a417d3db5104a819"}, {"is_disabled": 0, "is_reserved": 0, "fusion_lat": 0.0, "lat": 38.91183783333334, "fusion_lon": 0.0, "rental_uris": {"ios": "https://dc.lft.to/lastmile_qr_scan", "android": "https://dc.lft.to/lastmile_qr_scan"}, "lon": -77.0044195, "bike_id": "416de9e7effa6d4913e894f1df500108", "type": "electric_scooter", "name": "416de9e7effa6d4913e894f1df500108"}, {"is_disabled": 0, "is_reserved": 0, "fusion_lat": 0.0, "lat": 38.908914833333334, "fusion_lon": 0.0, "rental_uris": {"ios": "https://dc.lft.to/lastmile_qr_scan", "android": "https://dc.lft.to/lastmile_qr_scan"}, "lon": -77.046589, "bike_id": "e8e2e204bd912591b237b887f64be8de", "type": "electric_scooter", "name": "e8e2e204bd912591b237b887f64be8de"}, {"is_disabled": 0, "is_reserved": 0, "fusion_lat": 0.0, "lat": 38.950706333333336, "fusion_lon": 0.0, "rental_uris": {"ios": "https://dc.lft.to/lastmile_qr_scan", "android": "https://dc.lft.to/lastmile_qr_scan"}, "lon": -76.99600716666667, "bike_id": "e5555e5e30cb480bf2faeaf0527feea1", "type": "electric_bike", "name": "e5555e5e30cb480bf2faeaf0527feea1"}, {"is_disabled": 0, "is_reserved": 0, "fusion_lat": 0.0, "lat": 38.90607, "fusion_lon": 0.0, "rental_uris": {"ios": "https://dc.lft.to/lastmile_qr_scan", "android": "https://dc.lft.to/lastmile_qr_scan"}, "lon": -77.024075, "bike_id": "ab8d6c98daad4b2bdb2b751cbe93b88d", "type": "electric_scooter", "name": "ab8d6c98daad4b2bdb2b751cbe93b88d"}, {"is_disabled": 0, "is_reserved": 0, "fusion_lat": 0.0, "lat": 38.884302, "fusion_lon": 0.0, "rental_uris": {"ios": "https://dc.lft.to/lastmile_qr_scan", "android": "https://dc.lft.to/lastmile_qr_scan"}, "lon": -77.0299385, "bike_id": "5b7c32ee3e3f6a4aab5dfafa9b6aed1c", "type": "electric_scooter", "name": "5b7c32ee3e3f6a4aab5dfafa9b6aed1c"}, {"is_disabled": 0, "is_reserved": 0, "fusion_lat": 0.0, "lat": 38.9156125, "fusion_lon": 0.0, "rental_uris": {"ios": "https://dc.lft.to/lastmile_qr_scan", "android": "https://dc.lft.to/lastmile_qr_scan"}, "lon": -77.036357, "bike_id": "43903b257dd242f052e54b9d5abdf757", "type": "electric_scooter", "name": "43903b257dd242f052e54b9d5abdf757"}, {"is_disabled": 0, "is_reserved": 0, "fusion_lat": 0.0, "lat": 38.91643833333333, "fusion_lon": 0.0, "rental_uris": {"ios": "https://dc.lft.to/lastmile_qr_scan", "android": "https://dc.lft.to/lastmile_qr_scan"}, "lon": -77.0319725, "bike_id": "3bf937453b9f50beae7aa87b564665b5", "type": "electric_scooter", "name": "3bf937453b9f50beae7aa87b564665b5"}, {"is_disabled": 0, "is_reserved": 0, "fusion_lat": 0.0, "lat": 38.87729266666667, "fusion_lon": 0.0, "rental_uris": {"ios": "https://dc.lft.to/lastmile_qr_scan", "android": "https://dc.lft.to/lastmile_qr_scan"}, "lon": -77.11845433333333, "bike_id": "80ab043117eb1017511ba52921a2d8db", "type": "electric_bike", "name": "80ab043117eb1017511ba52921a2d8db"}, {"is_disabled": 0, "is_reserved": 0, "fusion_lat": 0.0, "lat": 38.929045333333335, "fusion_lon": 0.0, "rental_uris": {"ios": "https://dc.lft.to/lastmile_qr_scan", "android": "https://dc.lft.to/lastmile_qr_scan"}, "lon": -77.0598385, "bike_id": "80de308e89dfa9fb98fe00f07387d9e9", "type": "electric_scooter", "name": "80de308e89dfa9fb98fe00f07387d9e9"}, {"is_disabled": 0, "is_reserved": 0, "fusion_lat": 0.0, "lat": 38.894815666666666, "fusion_lon": 0.0, "rental_uris": {"ios": "https://dc.lft.to/lastmile_qr_scan", "android": "https://dc.lft.to/lastmile_qr_scan"}, "lon": -76.97881533333333, "bike_id": "9c85f548b77aad40d3e5f32ce6f55b45", "type": "electric_scooter", "name": "9c85f548b77aad40d3e5f32ce6f55b45"}, {"is_disabled": 0, "is_reserved": 0, "fusion_lat": 0.0, "lat": 38.93128333333333, "fusion_lon": 0.0, "rental_uris": {"ios": "https://dc.lft.to/lastmile_qr_scan", "android": "https://dc.lft.to/lastmile_qr_scan"}, "lon": -77.023426, "bike_id": "d0c887f3a5dba7775e04f13b88bba9c8", "type": "electric_scooter", "name": "d0c887f3a5dba7775e04f13b88bba9c8"}, {"is_disabled": 0, "is_reserved": 0, "fusion_lat": 0.0, "lat": 38.91567716666667, "fusion_lon": 0.0, "rental_uris": {"ios": "https://dc.lft.to/lastmile_qr_scan", "android": "https://dc.lft.to/lastmile_qr_scan"}, "lon": -77.03186916666667, "bike_id": "2dce95f270205a7ba72fe32a19a833f6", "type": "electric_scooter", "name": "2dce95f270205a7ba72fe32a19a833f6"}, {"is_disabled": 0, "is_reserved": 0, "fusion_lat": 0.0, "lat": 38.900689666666665, "fusion_lon": 0.0, "rental_uris": {"ios": "https://dc.lft.to/lastmile_qr_scan", "android": "https://dc.lft.to/lastmile_qr_scan"}, "lon": -77.00648333333334, "bike_id": "8ba7c45ba90e9276b2d8acd202ea8f34", "type": "electric_scooter", "name": "8ba7c45ba90e9276b2d8acd202ea8f34"}, {"is_disabled": 0, "is_reserved": 0, "fusion_lat": 0.0, "lat": 38.89222566666667, "fusion_lon": 0.0, "rental_uris": {"ios": "https://dc.lft.to/lastmile_qr_scan", "android": "https://dc.lft.to/lastmile_qr_scan"}, "lon": -77.03337066666667, "bike_id": "d74e867c5555eca13e74c53d5c960bce", "type": "electric_scooter", "name": "d74e867c5555eca13e74c53d5c960bce"}, {"is_disabled": 0, "is_reserved": 0, "fusion_lat": 0.0, "lat": 38.904411, "fusion_lon": 0.0, "rental_uris": {"ios": "https://dc.lft.to/lastmile_qr_scan", "android": "https://dc.lft.to/lastmile_qr_scan"}, "lon": -76.99637783333333, "bike_id": "68adab96d5613f11d79a5a6acaca4c1f", "type": "electric_scooter", "name": "68adab96d5613f11d79a5a6acaca4c1f"}, {"is_disabled": 0, "is_reserved": 0, "fusion_lat": 0.0, "lat": 38.914146, "fusion_lon": 0.0, "rental_uris": {"ios": "https://dc.lft.to/lastmile_qr_scan", "android": "https://dc.lft.to/lastmile_qr_scan"}, "lon": -77.03243216666667, "bike_id": "2e5f950b9fa716ef5318c961040c2040", "type": "electric_scooter", "name": "2e5f950b9fa716ef5318c961040c2040"}, {"is_disabled": 0, "is_reserved": 0, "fusion_lat": 0.0, "lat": 38.90686816666667, "fusion_lon": 0.0, "rental_uris": {"ios": "https://dc.lft.to/lastmile_qr_scan", "android": "https://dc.lft.to/lastmile_qr_scan"}, "lon": -77.06326783333333, "bike_id": "498201d5279faab60e7b3e60d5f180e6", "type": "electric_scooter", "name": "498201d5279faab60e7b3e60d5f180e6"}, {"is_disabled": 0, "is_reserved": 0, "fusion_lat": 0.0, "lat": 38.86468266666667, "fusion_lon": 0.0, "rental_uris": {"ios": "https://dc.lft.to/lastmile_qr_scan", "android": "https://dc.lft.to/lastmile_qr_scan"}, "lon": -76.97756066666666, "bike_id": "7a0fa52c8b8024fb6669c1d8e25a9fef", "type": "electric_scooter", "name": "7a0fa52c8b8024fb6669c1d8e25a9fef"}, {"is_disabled": 0, "is_reserved": 0, "fusion_lat": 0.0, "lat": 38.9542605, "fusion_lon": 0.0, "rental_uris": {"ios": "https://dc.lft.to/lastmile_qr_scan", "android": "https://dc.lft.to/lastmile_qr_scan"}, "lon": -76.98798333333333, "bike_id": "e25e4b3e07a77b1e1633226b9a71d556", "type": "electric_scooter", "name": "e25e4b3e07a77b1e1633226b9a71d556"}, {"is_disabled": 0, "is_reserved": 0, "fusion_lat": 0.0, "lat": 38.92853483333333, "fusion_lon": 0.0, "rental_uris": {"ios": "https://dc.lft.to/lastmile_qr_scan", "android": "https://dc.lft.to/lastmile_qr_scan"}, "lon": -77.01376133333333, "bike_id": "fe995c08570893ccb44b4b5e151bee8c", "type": "electric_scooter", "name": "fe995c08570893ccb44b4b5e151bee8c"}, {"is_disabled": 0, "is_reserved": 0, "fusion_lat": 0.0, "lat": 38.91564833333333, "fusion_lon": 0.0, "rental_uris": {"ios": "https://dc.lft.to/lastmile_qr_scan", "android": "https://dc.lft.to/lastmile_qr_scan"}, "lon": -77.03182366666667, "bike_id": "dbad8da1644b7d02e2de75c6a3fb20a2", "type": "electric_scooter", "name": "dbad8da1644b7d02e2de75c6a3fb20a2"}, {"is_disabled": 0, "is_reserved": 0, "fusion_lat": 0.0, "lat": 38.905376833333335, "fusion_lon": 0.0, "rental_uris": {"ios": "https://dc.lft.to/lastmile_qr_scan", "android": "https://dc.lft.to/lastmile_qr_scan"}, "lon": -77.05908933333333, "bike_id": "4ae588bf8ca38af7719155809e34cea9", "type": "electric_bike", "name": "4ae588bf8ca38af7719155809e34cea9"}, {"is_disabled": 0, "is_reserved": 0, "fusion_lat": 0.0, "lat": 38.90591033333333, "fusion_lon": 0.0, "rental_uris": {"ios": "https://dc.lft.to/lastmile_qr_scan", "android": "https://dc.lft.to/lastmile_qr_scan"}, "lon": -77.03188333333334, "bike_id": "280e906cd2dd50541e9e11bf0061ff2d", "type": "electric_scooter", "name": "280e906cd2dd50541e9e11bf0061ff2d"}, {"is_disabled": 0, "is_reserved": 0, "fusion_lat": 0.0, "lat": 38.906374166666666, "fusion_lon": 0.0, "rental_uris": {"ios": "https://dc.lft.to/lastmile_qr_scan", "android": "https://dc.lft.to/lastmile_qr_scan"}, "lon": -77.0689355, "bike_id": "39717366f8931588303865ee31d9ac49", "type": "electric_scooter", "name": "39717366f8931588303865ee31d9ac49"}, {"is_disabled": 0, "is_reserved": 0, "fusion_lat": 0.0, "lat": 38.89127033333333, "fusion_lon": 0.0, "rental_uris": {"ios": "https://dc.lft.to/lastmile_qr_scan", "android": "https://dc.lft.to/lastmile_qr_scan"}, "lon": -76.99934283333333, "bike_id": "0ade1d00e646607bdee2373b4a3a42a9", "type": "electric_scooter", "name": "0ade1d00e646607bdee2373b4a3a42a9"}, {"is_disabled": 0, "is_reserved": 0, "fusion_lat": 0.0, "lat": 38.87635016666667, "fusion_lon": 0.0, "rental_uris": {"ios": "https://dc.lft.to/lastmile_qr_scan", "android": "https://dc.lft.to/lastmile_qr_scan"}, "lon": -76.99292333333334, "bike_id": "c1d54a7406cf8aa797c11bedb45340d1", "type": "electric_scooter", "name": "c1d54a7406cf8aa797c11bedb45340d1"}, {"is_disabled": 0, "is_reserved": 0, "fusion_lat": 0.0, "lat": 38.89219, "fusion_lon": 0.0, "rental_uris": {"ios": "https://dc.lft.to/lastmile_qr_scan", "android": "https://dc.lft.to/lastmile_qr_scan"}, "lon": -77.02776516666667, "bike_id": "b5ff14cafbdf5a68bb5b97801d43d4e6", "type": "electric_scooter", "name": "b5ff14cafbdf5a68bb5b97801d43d4e6"}, {"is_disabled": 0, "is_reserved": 0, "fusion_lat": 0.0, "lat": 38.8972685, "fusion_lon": 0.0, "rental_uris": {"ios": "https://dc.lft.to/lastmile_qr_scan", "android": "https://dc.lft.to/lastmile_qr_scan"}, "lon": -77.0216425, "bike_id": "5312648cf47a6859f5ba95a303832a89", "type": "electric_scooter", "name": "5312648cf47a6859f5ba95a303832a89"}, {"is_disabled": 0, "is_reserved": 0, "fusion_lat": 0.0, "lat": 38.90954, "fusion_lon": 0.0, "rental_uris": {"ios": "https://dc.lft.to/lastmile_qr_scan", "android": "https://dc.lft.to/lastmile_qr_scan"}, "lon": -77.04927633333334, "bike_id": "4943ade073d7d674f43f47cc844d69de", "type": "electric_scooter", "name": "4943ade073d7d674f43f47cc844d69de"}, {"is_disabled": 0, "is_reserved": 0, "fusion_lat": 0.0, "lat": 38.920696, "fusion_lon": 0.0, "rental_uris": {"ios": "https://dc.lft.to/lastmile_qr_scan", "android": "https://dc.lft.to/lastmile_qr_scan"}, "lon": -77.0256805, "bike_id": "ce09baec9afc7117c6b77277cb461a32", "type": "electric_scooter", "name": "ce09baec9afc7117c6b77277cb461a32"}, {"is_disabled": 0, "is_reserved": 0, "fusion_lat": 0.0, "lat": 38.89424616666667, "fusion_lon": 0.0, "rental_uris": {"ios": "https://dc.lft.to/lastmile_qr_scan", "android": "https://dc.lft.to/lastmile_qr_scan"}, "lon": -77.05594383333333, "bike_id": "8852a7fe75f670fd93c4d7ccce869f25", "type": "electric_scooter", "name": "8852a7fe75f670fd93c4d7ccce869f25"}, {"is_disabled": 0, "is_reserved": 0, "fusion_lat": 0.0, "lat": 38.898898833333334, "fusion_lon": 0.0, "rental_uris": {"ios": "https://dc.lft.to/lastmile_qr_scan", "android": "https://dc.lft.to/lastmile_qr_scan"}, "lon": -77.03325, "bike_id": "bd7f651ea6882e8c84287c56de11b21b", "type": "electric_scooter", "name": "bd7f651ea6882e8c84287c56de11b21b"}, {"is_disabled": 0, "is_reserved": 0, "fusion_lat": 0.0, "lat": 38.89511566666667, "fusion_lon": 0.0, "rental_uris": {"ios": "https://dc.lft.to/lastmile_qr_scan", "android": "https://dc.lft.to/lastmile_qr_scan"}, "lon": -77.0230855, "bike_id": "ad360338c359af0568184fb516f6dc7d", "type": "electric_scooter", "name": "ad360338c359af0568184fb516f6dc7d"}, {"is_disabled": 0, "is_reserved": 0, "fusion_lat": 0.0, "lat": 38.820315, "fusion_lon": 0.0, "rental_uris": {"ios": "https://dc.lft.to/lastmile_qr_scan", "android": "https://dc.lft.to/lastmile_qr_scan"}, "lon": -77.054426, "bike_id": "0ba88dfa7b00509f6eaabe2633b289e8", "type": "electric_bike", "name": "0ba88dfa7b00509f6eaabe2633b289e8"}, {"is_disabled": 0, "is_reserved": 0, "fusion_lat": 0.0, "lat": 38.893559833333335, "fusion_lon": 0.0, "rental_uris": {"ios": "https://dc.lft.to/lastmile_qr_scan", "android": "https://dc.lft.to/lastmile_qr_scan"}, "lon": -77.04288766666667, "bike_id": "987d9d50bf99bacb7cc621b7ef113d3a", "type": "electric_scooter", "name": "987d9d50bf99bacb7cc621b7ef113d3a"}, {"is_disabled": 0, "is_reserved": 0, "fusion_lat": 0.0, "lat": 38.923564999999996, "fusion_lon": 0.0, "rental_uris": {"ios": "https://dc.lft.to/lastmile_qr_scan", "android": "https://dc.lft.to/lastmile_qr_scan"}, "lon": -77.05239416666667, "bike_id": "0a023651ed84ed9506c61369e9252c86", "type": "electric_scooter", "name": "0a023651ed84ed9506c61369e9252c86"}, {"is_disabled": 0, "is_reserved": 0, "fusion_lat": 0.0, "lat": 38.936034, "fusion_lon": 0.0, "rental_uris": {"ios": "https://dc.lft.to/lastmile_qr_scan", "android": "https://dc.lft.to/lastmile_qr_scan"}, "lon": -77.0558115, "bike_id": "da36851207c804682b9d70bdddf201c1", "type": "electric_scooter", "name": "da36851207c804682b9d70bdddf201c1"}, {"is_disabled": 0, "is_reserved": 0, "fusion_lat": 0.0, "lat": 38.9216065, "fusion_lon": 0.0, "rental_uris": {"ios": "https://dc.lft.to/lastmile_qr_scan", "android": "https://dc.lft.to/lastmile_qr_scan"}, "lon": -77.03653416666667, "bike_id": "53d36bb1de08a95c0485ce1be7156274", "type": "electric_scooter", "name": "53d36bb1de08a95c0485ce1be7156274"}, {"is_disabled": 0, "is_reserved": 0, "fusion_lat": 0.0, "lat": 38.9051075, "fusion_lon": 0.0, "rental_uris": {"ios": "https://dc.lft.to/lastmile_qr_scan", "android": "https://dc.lft.to/lastmile_qr_scan"}, "lon": -77.0639735, "bike_id": "1404e8d03b64e545a5c1ea7599e80a16", "type": "electric_bike", "name": "1404e8d03b64e545a5c1ea7599e80a16"}, {"is_disabled": 0, "is_reserved": 0, "fusion_lat": 0.0, "lat": 38.92778416666667, "fusion_lon": 0.0, "rental_uris": {"ios": "https://dc.lft.to/lastmile_qr_scan", "android": "https://dc.lft.to/lastmile_qr_scan"}, "lon": -77.05257616666667, "bike_id": "4384e8aa34a6b512002e9e563ce199bd", "type": "electric_scooter", "name": "4384e8aa34a6b512002e9e563ce199bd"}, {"is_disabled": 0, "is_reserved": 0, "fusion_lat": 0.0, "lat": 38.87834, "fusion_lon": 0.0, "rental_uris": {"ios": "https://dc.lft.to/lastmile_qr_scan", "android": "https://dc.lft.to/lastmile_qr_scan"}, "lon": -76.98606483333333, "bike_id": "727b384b8cdb27b8327ed23211caeac1", "type": "electric_scooter", "name": "727b384b8cdb27b8327ed23211caeac1"}, {"is_disabled": 0, "is_reserved": 0, "fusion_lat": 0.0, "lat": 38.98206183333333, "fusion_lon": 0.0, "rental_uris": {"ios": "https://dc.lft.to/lastmile_qr_scan", "android": "https://dc.lft.to/lastmile_qr_scan"}, "lon": -76.97811933333334, "bike_id": "a323c841cf127765cab2e0b771c43abd", "type": "electric_bike", "name": "a323c841cf127765cab2e0b771c43abd"}, {"is_disabled": 0, "is_reserved": 0, "fusion_lat": 0.0, "lat": 38.951083833333335, "fusion_lon": 0.0, "rental_uris": {"ios": "https://dc.lft.to/lastmile_qr_scan", "android": "https://dc.lft.to/lastmile_qr_scan"}, "lon": -77.01887633333334, "bike_id": "9ec1de246a50b94d188f3700564f0491", "type": "electric_scooter", "name": "9ec1de246a50b94d188f3700564f0491"}, {"is_disabled": 0, "is_reserved": 0, "fusion_lat": 0.0, "lat": 38.92611616666667, "fusion_lon": 0.0, "rental_uris": {"ios": "https://dc.lft.to/lastmile_qr_scan", "android": "https://dc.lft.to/lastmile_qr_scan"}, "lon": -77.006513, "bike_id": "5217538e2aba018a63fce1fa176250c6", "type": "electric_scooter", "name": "5217538e2aba018a63fce1fa176250c6"}, {"is_disabled": 0, "is_reserved": 0, "fusion_lat": 0.0, "lat": 38.8766785, "fusion_lon": 0.0, "rental_uris": {"ios": "https://dc.lft.to/lastmile_qr_scan", "android": "https://dc.lft.to/lastmile_qr_scan"}, "lon": -77.0008185, "bike_id": "7dd49f52e3c9aa2a35fb686f195a32d9", "type": "electric_scooter", "name": "7dd49f52e3c9aa2a35fb686f195a32d9"}, {"is_disabled": 0, "is_reserved": 0, "fusion_lat": 0.0, "lat": 38.8743945, "fusion_lon": 0.0, "rental_uris": {"ios": "https://dc.lft.to/lastmile_qr_scan", "android": "https://dc.lft.to/lastmile_qr_scan"}, "lon": -77.002793, "bike_id": "49bcc7f1b6a842ffd27cdad64355df57", "type": "electric_scooter", "name": "49bcc7f1b6a842ffd27cdad64355df57"}, {"is_disabled": 0, "is_reserved": 0, "fusion_lat": 0.0, "lat": 38.94711266666667, "fusion_lon": 0.0, "rental_uris": {"ios": "https://dc.lft.to/lastmile_qr_scan", "android": "https://dc.lft.to/lastmile_qr_scan"}, "lon": -77.02611866666666, "bike_id": "1fe507a06230031b16c9bd05bcc21c99", "type": "electric_scooter", "name": "1fe507a06230031b16c9bd05bcc21c99"}, {"is_disabled": 0, "is_reserved": 0, "fusion_lat": 0.0, "lat": 38.93863066666667, "fusion_lon": 0.0, "rental_uris": {"ios": "https://dc.lft.to/lastmile_qr_scan", "android": "https://dc.lft.to/lastmile_qr_scan"}, "lon": -77.03043616666666, "bike_id": "2423f64e9debfe0e5472a4f774cb4cc7", "type": "electric_scooter", "name": "2423f64e9debfe0e5472a4f774cb4cc7"}, {"is_disabled": 0, "is_reserved": 0, "fusion_lat": 0.0, "lat": 38.92969883333333, "fusion_lon": 0.0, "rental_uris": {"ios": "https://dc.lft.to/lastmile_qr_scan", "android": "https://dc.lft.to/lastmile_qr_scan"}, "lon": -77.02819066666666, "bike_id": "a0e79c034f9c9ae3dd0c573259c1740b", "type": "electric_scooter", "name": "a0e79c034f9c9ae3dd0c573259c1740b"}, {"is_disabled": 0, "is_reserved": 0, "fusion_lat": 0.0, "lat": 38.8470035, "fusion_lon": 0.0, "rental_uris": {"ios": "https://dc.lft.to/lastmile_qr_scan", "android": "https://dc.lft.to/lastmile_qr_scan"}, "lon": -76.9961415, "bike_id": "9bd500e9cc8162138ec3ee05df2b6a17", "type": "electric_bike", "name": "9bd500e9cc8162138ec3ee05df2b6a17"}, {"is_disabled": 0, "is_reserved": 0, "fusion_lat": 0.0, "lat": 38.9223755, "fusion_lon": 0.0, "rental_uris": {"ios": "https://dc.lft.to/lastmile_qr_scan", "android": "https://dc.lft.to/lastmile_qr_scan"}, "lon": -77.04480166666667, "bike_id": "efd3789fff456f103561bac6bdb9244c", "type": "electric_scooter", "name": "efd3789fff456f103561bac6bdb9244c"}, {"is_disabled": 0, "is_reserved": 0, "fusion_lat": 0.0, "lat": 38.900052, "fusion_lon": 0.0, "rental_uris": {"ios": "https://dc.lft.to/lastmile_qr_scan", "android": "https://dc.lft.to/lastmile_qr_scan"}, "lon": -77.02187716666667, "bike_id": "71623867ebfce38a5ac6cb42ffb129de", "type": "electric_scooter", "name": "71623867ebfce38a5ac6cb42ffb129de"}, {"is_disabled": 0, "is_reserved": 0, "fusion_lat": 0.0, "lat": 38.8769645, "fusion_lon": 0.0, "rental_uris": {"ios": "https://dc.lft.to/lastmile_qr_scan", "android": "https://dc.lft.to/lastmile_qr_scan"}, "lon": -76.99626966666666, "bike_id": "f3e8a5366c85553778d77bb81cf2739a", "type": "electric_scooter", "name": "f3e8a5366c85553778d77bb81cf2739a"}, {"is_disabled": 0, "is_reserved": 0, "fusion_lat": 0.0, "lat": 38.89232333333333, "fusion_lon": 0.0, "rental_uris": {"ios": "https://dc.lft.to/lastmile_qr_scan", "android": "https://dc.lft.to/lastmile_qr_scan"}, "lon": -77.02205533333333, "bike_id": "aef1461eea0b730227ab667ec73ac524", "type": "electric_scooter", "name": "aef1461eea0b730227ab667ec73ac524"}, {"is_disabled": 0, "is_reserved": 0, "fusion_lat": 0.0, "lat": 38.90273233333333, "fusion_lon": 0.0, "rental_uris": {"ios": "https://dc.lft.to/lastmile_qr_scan", "android": "https://dc.lft.to/lastmile_qr_scan"}, "lon": -77.059037, "bike_id": "a91a60cbed9884c87e0ba4704a790395", "type": "electric_scooter", "name": "a91a60cbed9884c87e0ba4704a790395"}, {"is_disabled": 0, "is_reserved": 0, "fusion_lat": 0.0, "lat": 38.9203685, "fusion_lon": 0.0, "rental_uris": {"ios": "https://dc.lft.to/lastmile_qr_scan", "android": "https://dc.lft.to/lastmile_qr_scan"}, "lon": -77.0259415, "bike_id": "21352e63fa50ba0bb224da301685967a", "type": "electric_scooter", "name": "21352e63fa50ba0bb224da301685967a"}, {"is_disabled": 0, "is_reserved": 0, "fusion_lat": 0.0, "lat": 38.92116733333334, "fusion_lon": 0.0, "rental_uris": {"ios": "https://dc.lft.to/lastmile_qr_scan", "android": "https://dc.lft.to/lastmile_qr_scan"}, "lon": -77.03651566666667, "bike_id": "838420ddf1fd1927064cd6ed86cc9346", "type": "electric_scooter", "name": "838420ddf1fd1927064cd6ed86cc9346"}, {"is_disabled": 0, "is_reserved": 0, "fusion_lat": 0.0, "lat": 38.895446166666666, "fusion_lon": 0.0, "rental_uris": {"ios": "https://dc.lft.to/lastmile_qr_scan", "android": "https://dc.lft.to/lastmile_qr_scan"}, "lon": -77.01658366666666, "bike_id": "35bafb468b3a8b4fea9e0ba69c1a4bae", "type": "electric_scooter", "name": "35bafb468b3a8b4fea9e0ba69c1a4bae"}, {"is_disabled": 0, "is_reserved": 0, "fusion_lat": 0.0, "lat": 38.91006516666667, "fusion_lon": 0.0, "rental_uris": {"ios": "https://dc.lft.to/lastmile_qr_scan", "android": "https://dc.lft.to/lastmile_qr_scan"}, "lon": -77.044296, "bike_id": "9bc638a14ce1a93bd73232c8b1517ee4", "type": "electric_scooter", "name": "9bc638a14ce1a93bd73232c8b1517ee4"}, {"is_disabled": 0, "is_reserved": 0, "fusion_lat": 0.0, "lat": 38.923464, "fusion_lon": 0.0, "rental_uris": {"ios": "https://dc.lft.to/lastmile_qr_scan", "android": "https://dc.lft.to/lastmile_qr_scan"}, "lon": -77.03521216666667, "bike_id": "c062156692323d8d82d831e93d77f065", "type": "electric_scooter", "name": "c062156692323d8d82d831e93d77f065"}, {"is_disabled": 0, "is_reserved": 0, "fusion_lat": 0.0, "lat": 38.92103316666667, "fusion_lon": 0.0, "rental_uris": {"ios": "https://dc.lft.to/lastmile_qr_scan", "android": "https://dc.lft.to/lastmile_qr_scan"}, "lon": -77.01766616666667, "bike_id": "92d89f08787d10dfb30f0f512dae937f", "type": "electric_scooter", "name": "92d89f08787d10dfb30f0f512dae937f"}, {"is_disabled": 0, "is_reserved": 0, "fusion_lat": 0.0, "lat": 38.876911666666665, "fusion_lon": 0.0, "rental_uris": {"ios": "https://dc.lft.to/lastmile_qr_scan", "android": "https://dc.lft.to/lastmile_qr_scan"}, "lon": -77.0175505, "bike_id": "6de997c1e8d87df8cec1c1b9ccb515a4", "type": "electric_scooter", "name": "6de997c1e8d87df8cec1c1b9ccb515a4"}, {"is_disabled": 0, "is_reserved": 0, "fusion_lat": 0.0, "lat": 38.9084005, "fusion_lon": 0.0, "rental_uris": {"ios": "https://dc.lft.to/lastmile_qr_scan", "android": "https://dc.lft.to/lastmile_qr_scan"}, "lon": -77.0269285, "bike_id": "c72860d53fa23b602fc1ecdc1fca1fa3", "type": "electric_scooter", "name": "c72860d53fa23b602fc1ecdc1fca1fa3"}, {"is_disabled": 0, "is_reserved": 0, "fusion_lat": 0.0, "lat": 38.890527166666665, "fusion_lon": 0.0, "rental_uris": {"ios": "https://dc.lft.to/lastmile_qr_scan", "android": "https://dc.lft.to/lastmile_qr_scan"}, "lon": -77.02664716666666, "bike_id": "cb7113c4ff3747362ee611afea1cf39e", "type": "electric_bike", "name": "cb7113c4ff3747362ee611afea1cf39e"}, {"is_disabled": 0, "is_reserved": 0, "fusion_lat": 0.0, "lat": 38.90226533333333, "fusion_lon": 0.0, "rental_uris": {"ios": "https://dc.lft.to/lastmile_qr_scan", "android": "https://dc.lft.to/lastmile_qr_scan"}, "lon": -77.03474283333334, "bike_id": "d15617bfa4418bb25ff40c67c8617677", "type": "electric_scooter", "name": "d15617bfa4418bb25ff40c67c8617677"}, {"is_disabled": 0, "is_reserved": 0, "fusion_lat": 0.0, "lat": 38.857959666666666, "fusion_lon": 0.0, "rental_uris": {"ios": "https://dc.lft.to/lastmile_qr_scan", "android": "https://dc.lft.to/lastmile_qr_scan"}, "lon": -76.9874675, "bike_id": "a73dc8aa6417bd22e43fe0ec90bd0c4d", "type": "electric_bike", "name": "a73dc8aa6417bd22e43fe0ec90bd0c4d"}, {"is_disabled": 0, "is_reserved": 0, "fusion_lat": 0.0, "lat": 38.926184166666665, "fusion_lon": 0.0, "rental_uris": {"ios": "https://dc.lft.to/lastmile_qr_scan", "android": "https://dc.lft.to/lastmile_qr_scan"}, "lon": -76.99055216666666, "bike_id": "95444b66f9f55364ea09e37395455557", "type": "electric_scooter", "name": "95444b66f9f55364ea09e37395455557"}, {"is_disabled": 0, "is_reserved": 0, "fusion_lat": 0.0, "lat": 38.926800666666665, "fusion_lon": 0.0, "rental_uris": {"ios": "https://dc.lft.to/lastmile_qr_scan", "android": "https://dc.lft.to/lastmile_qr_scan"}, "lon": -77.00856183333333, "bike_id": "1ca22b3d82e466b0e81fa0225865a072", "type": "electric_scooter", "name": "1ca22b3d82e466b0e81fa0225865a072"}, {"is_disabled": 0, "is_reserved": 0, "fusion_lat": 0.0, "lat": 38.922571833333336, "fusion_lon": 0.0, "rental_uris": {"ios": "https://dc.lft.to/lastmile_qr_scan", "android": "https://dc.lft.to/lastmile_qr_scan"}, "lon": -77.03656783333334, "bike_id": "b258a2c98c7f0ce81f81f539f61859cc", "type": "electric_scooter", "name": "b258a2c98c7f0ce81f81f539f61859cc"}, {"is_disabled": 0, "is_reserved": 0, "fusion_lat": 0.0, "lat": 39.0262375, "fusion_lon": 0.0, "rental_uris": {"ios": "https://dc.lft.to/lastmile_qr_scan", "android": "https://dc.lft.to/lastmile_qr_scan"}, "lon": -77.03881533333333, "bike_id": "22c69da4aee3bfb25ed79fd6eb088ad4", "type": "electric_bike", "name": "22c69da4aee3bfb25ed79fd6eb088ad4"}, {"is_disabled": 0, "is_reserved": 0, "fusion_lat": 0.0, "lat": 38.91931566666667, "fusion_lon": 0.0, "rental_uris": {"ios": "https://dc.lft.to/lastmile_qr_scan", "android": "https://dc.lft.to/lastmile_qr_scan"}, "lon": -77.04470183333333, "bike_id": "732a2c3d13e15aa03d0a9636781b1b0c", "type": "electric_scooter", "name": "732a2c3d13e15aa03d0a9636781b1b0c"}, {"is_disabled": 0, "is_reserved": 0, "fusion_lat": 0.0, "lat": 38.919538333333335, "fusion_lon": 0.0, "rental_uris": {"ios": "https://dc.lft.to/lastmile_qr_scan", "android": "https://dc.lft.to/lastmile_qr_scan"}, "lon": -77.018911, "bike_id": "df5fa615f60fedef217a7299b96bf91f", "type": "electric_scooter", "name": "df5fa615f60fedef217a7299b96bf91f"}, {"is_disabled": 0, "is_reserved": 0, "fusion_lat": 0.0, "lat": 38.88023116666667, "fusion_lon": 0.0, "rental_uris": {"ios": "https://dc.lft.to/lastmile_qr_scan", "android": "https://dc.lft.to/lastmile_qr_scan"}, "lon": -76.94323133333333, "bike_id": "afaa8bbe4e7471b0cf3b64b09de95d98", "type": "electric_scooter", "name": "afaa8bbe4e7471b0cf3b64b09de95d98"}, {"is_disabled": 0, "is_reserved": 0, "fusion_lat": 0.0, "lat": 38.8870625, "fusion_lon": 0.0, "rental_uris": {"ios": "https://dc.lft.to/lastmile_qr_scan", "android": "https://dc.lft.to/lastmile_qr_scan"}, "lon": -76.98342766666667, "bike_id": "6361ba849af1327311ffc3a0b8240402", "type": "electric_scooter", "name": "6361ba849af1327311ffc3a0b8240402"}, {"is_disabled": 0, "is_reserved": 0, "fusion_lat": 0.0, "lat": 38.84646433333333, "fusion_lon": 0.0, "rental_uris": {"ios": "https://dc.lft.to/lastmile_qr_scan", "android": "https://dc.lft.to/lastmile_qr_scan"}, "lon": -77.0036615, "bike_id": "b1fa1da179b66855b3339533ca119b4f", "type": "electric_scooter", "name": "b1fa1da179b66855b3339533ca119b4f"}, {"is_disabled": 0, "is_reserved": 0, "fusion_lat": 0.0, "lat": 38.9177465, "fusion_lon": 0.0, "rental_uris": {"ios": "https://dc.lft.to/lastmile_qr_scan", "android": "https://dc.lft.to/lastmile_qr_scan"}, "lon": -77.02700666666667, "bike_id": "3d74fed3af93f01be63580feb00342cc", "type": "electric_scooter", "name": "3d74fed3af93f01be63580feb00342cc"}, {"is_disabled": 0, "is_reserved": 0, "fusion_lat": 0.0, "lat": 38.910527333333334, "fusion_lon": 0.0, "rental_uris": {"ios": "https://dc.lft.to/lastmile_qr_scan", "android": "https://dc.lft.to/lastmile_qr_scan"}, "lon": -77.02183016666666, "bike_id": "23146a2156b10e93325f1c24477682f9", "type": "electric_scooter", "name": "23146a2156b10e93325f1c24477682f9"}, {"is_disabled": 0, "is_reserved": 0, "fusion_lat": 0.0, "lat": 38.905453666666666, "fusion_lon": 0.0, "rental_uris": {"ios": "https://dc.lft.to/lastmile_qr_scan", "android": "https://dc.lft.to/lastmile_qr_scan"}, "lon": -77.02190483333334, "bike_id": "44a0990728b5810cc6ef005ebefa7fdd", "type": "electric_scooter", "name": "44a0990728b5810cc6ef005ebefa7fdd"}, {"is_disabled": 0, "is_reserved": 0, "fusion_lat": 0.0, "lat": 38.84618183333333, "fusion_lon": 0.0, "rental_uris": {"ios": "https://dc.lft.to/lastmile_qr_scan", "android": "https://dc.lft.to/lastmile_qr_scan"}, "lon": -76.97837433333333, "bike_id": "35b9b507b5388a01de0e81c2987aaf95", "type": "electric_bike", "name": "35b9b507b5388a01de0e81c2987aaf95"}, {"is_disabled": 0, "is_reserved": 0, "fusion_lat": 0.0, "lat": 38.900357166666666, "fusion_lon": 0.0, "rental_uris": {"ios": "https://dc.lft.to/lastmile_qr_scan", "android": "https://dc.lft.to/lastmile_qr_scan"}, "lon": -77.01768666666666, "bike_id": "750dcff87bff59bf2f67dc31b596bf16", "type": "electric_scooter", "name": "750dcff87bff59bf2f67dc31b596bf16"}, {"is_disabled": 0, "is_reserved": 0, "fusion_lat": 0.0, "lat": 38.898986, "fusion_lon": 0.0, "rental_uris": {"ios": "https://dc.lft.to/lastmile_qr_scan", "android": "https://dc.lft.to/lastmile_qr_scan"}, "lon": -77.0198035, "bike_id": "05dd91a9a144ab737e557ac46c85429e", "type": "electric_scooter", "name": "05dd91a9a144ab737e557ac46c85429e"}, {"is_disabled": 0, "is_reserved": 0, "fusion_lat": 0.0, "lat": 38.8427125, "fusion_lon": 0.0, "rental_uris": {"ios": "https://dc.lft.to/lastmile_qr_scan", "android": "https://dc.lft.to/lastmile_qr_scan"}, "lon": -76.98833233333333, "bike_id": "6229ea34e8e38520e031a9f380ed95e5", "type": "electric_scooter", "name": "6229ea34e8e38520e031a9f380ed95e5"}, {"is_disabled": 0, "is_reserved": 0, "fusion_lat": 0.0, "lat": 38.8955955, "fusion_lon": 0.0, "rental_uris": {"ios": "https://dc.lft.to/lastmile_qr_scan", "android": "https://dc.lft.to/lastmile_qr_scan"}, "lon": -77.04662316666666, "bike_id": "13c3970f4181ceaf183661957de93785", "type": "electric_scooter", "name": "13c3970f4181ceaf183661957de93785"}, {"is_disabled": 0, "is_reserved": 0, "fusion_lat": 0.0, "lat": 38.9635215, "fusion_lon": 0.0, "rental_uris": {"ios": "https://dc.lft.to/lastmile_qr_scan", "android": "https://dc.lft.to/lastmile_qr_scan"}, "lon": -77.03445683333334, "bike_id": "381564e55eb55be48cd70f9d8a0d3f34", "type": "electric_scooter", "name": "381564e55eb55be48cd70f9d8a0d3f34"}, {"is_disabled": 0, "is_reserved": 0, "fusion_lat": 0.0, "lat": 38.8921895, "fusion_lon": 0.0, "rental_uris": {"ios": "https://dc.lft.to/lastmile_qr_scan", "android": "https://dc.lft.to/lastmile_qr_scan"}, "lon": -77.02773033333334, "bike_id": "6686c03e8fb9987f3d8c68481f5cf433", "type": "electric_scooter", "name": "6686c03e8fb9987f3d8c68481f5cf433"}, {"is_disabled": 0, "is_reserved": 0, "fusion_lat": 0.0, "lat": 38.90549933333333, "fusion_lon": 0.0, "rental_uris": {"ios": "https://dc.lft.to/lastmile_qr_scan", "android": "https://dc.lft.to/lastmile_qr_scan"}, "lon": -77.0029095, "bike_id": "c7aedae446c8acb6757c976552a1b2c6", "type": "electric_scooter", "name": "c7aedae446c8acb6757c976552a1b2c6"}, {"is_disabled": 0, "is_reserved": 0, "fusion_lat": 0.0, "lat": 38.9044315, "fusion_lon": 0.0, "rental_uris": {"ios": "https://dc.lft.to/lastmile_qr_scan", "android": "https://dc.lft.to/lastmile_qr_scan"}, "lon": -76.97305933333334, "bike_id": "9cdf13cf5d5760ee701cb258c320de2e", "type": "electric_scooter", "name": "9cdf13cf5d5760ee701cb258c320de2e"}, {"is_disabled": 0, "is_reserved": 0, "fusion_lat": 0.0, "lat": 38.87917383333333, "fusion_lon": 0.0, "rental_uris": {"ios": "https://dc.lft.to/lastmile_qr_scan", "android": "https://dc.lft.to/lastmile_qr_scan"}, "lon": -76.995078, "bike_id": "ec1c5089715a6d4af3dc017cb7c1c681", "type": "electric_scooter", "name": "ec1c5089715a6d4af3dc017cb7c1c681"}, {"is_disabled": 0, "is_reserved": 0, "fusion_lat": 0.0, "lat": 38.89420483333333, "fusion_lon": 0.0, "rental_uris": {"ios": "https://dc.lft.to/lastmile_qr_scan", "android": "https://dc.lft.to/lastmile_qr_scan"}, "lon": -77.05594533333333, "bike_id": "a9857dc0d980894177c703a93f62d796", "type": "electric_scooter", "name": "a9857dc0d980894177c703a93f62d796"}, {"is_disabled": 0, "is_reserved": 0, "fusion_lat": 0.0, "lat": 38.89615383333334, "fusion_lon": 0.0, "rental_uris": {"ios": "https://dc.lft.to/lastmile_qr_scan", "android": "https://dc.lft.to/lastmile_qr_scan"}, "lon": -77.03166283333333, "bike_id": "773ea92ae2729ce85fdd4141ea53e10a", "type": "electric_scooter", "name": "773ea92ae2729ce85fdd4141ea53e10a"}, {"is_disabled": 0, "is_reserved": 0, "fusion_lat": 0.0, "lat": 38.91418483333333, "fusion_lon": 0.0, "rental_uris": {"ios": "https://dc.lft.to/lastmile_qr_scan", "android": "https://dc.lft.to/lastmile_qr_scan"}, "lon": -77.031694, "bike_id": "b0a4cf49814d4eda45bf8a478f997505", "type": "electric_scooter", "name": "b0a4cf49814d4eda45bf8a478f997505"}, {"is_disabled": 0, "is_reserved": 0, "fusion_lat": 0.0, "lat": 38.91118433333333, "fusion_lon": 0.0, "rental_uris": {"ios": "https://dc.lft.to/lastmile_qr_scan", "android": "https://dc.lft.to/lastmile_qr_scan"}, "lon": -77.01112883333333, "bike_id": "b69dac0d4c05180247ae1d291b74aab5", "type": "electric_scooter", "name": "b69dac0d4c05180247ae1d291b74aab5"}, {"is_disabled": 0, "is_reserved": 0, "fusion_lat": 0.0, "lat": 38.90548483333333, "fusion_lon": 0.0, "rental_uris": {"ios": "https://dc.lft.to/lastmile_qr_scan", "android": "https://dc.lft.to/lastmile_qr_scan"}, "lon": -77.02181216666666, "bike_id": "e820af5b2c117cd86bf99ecc079ea22d", "type": "electric_scooter", "name": "e820af5b2c117cd86bf99ecc079ea22d"}, {"is_disabled": 0, "is_reserved": 0, "fusion_lat": 0.0, "lat": 38.95238966666667, "fusion_lon": 0.0, "rental_uris": {"ios": "https://dc.lft.to/lastmile_qr_scan", "android": "https://dc.lft.to/lastmile_qr_scan"}, "lon": -76.97953983333333, "bike_id": "22066152d5debdd319d2a5b23e711729", "type": "electric_bike", "name": "22066152d5debdd319d2a5b23e711729"}, {"is_disabled": 0, "is_reserved": 0, "fusion_lat": 0.0, "lat": 38.934825833333335, "fusion_lon": 0.0, "rental_uris": {"ios": "https://dc.lft.to/lastmile_qr_scan", "android": "https://dc.lft.to/lastmile_qr_scan"}, "lon": -77.03599766666666, "bike_id": "a5b7088d049c2a48072972e6057d751e", "type": "electric_scooter", "name": "a5b7088d049c2a48072972e6057d751e"}, {"is_disabled": 0, "is_reserved": 0, "fusion_lat": 0.0, "lat": 38.89784016666667, "fusion_lon": 0.0, "rental_uris": {"ios": "https://dc.lft.to/lastmile_qr_scan", "android": "https://dc.lft.to/lastmile_qr_scan"}, "lon": -77.00762333333333, "bike_id": "b38ebc6dfe36377a8a31d7ca72285e84", "type": "electric_scooter", "name": "b38ebc6dfe36377a8a31d7ca72285e84"}, {"is_disabled": 0, "is_reserved": 0, "fusion_lat": 0.0, "lat": 38.896971, "fusion_lon": 0.0, "rental_uris": {"ios": "https://dc.lft.to/lastmile_qr_scan", "android": "https://dc.lft.to/lastmile_qr_scan"}, "lon": -77.04344266666666, "bike_id": "47114aec21f9d3c866e3cdb69a4ce70a", "type": "electric_scooter", "name": "47114aec21f9d3c866e3cdb69a4ce70a"}, {"is_disabled": 0, "is_reserved": 0, "fusion_lat": 0.0, "lat": 38.957837166666664, "fusion_lon": 0.0, "rental_uris": {"ios": "https://dc.lft.to/lastmile_qr_scan", "android": "https://dc.lft.to/lastmile_qr_scan"}, "lon": -77.02458516666667, "bike_id": "449d72f7f8fb73d39f3ad467509425b0", "type": "electric_scooter", "name": "449d72f7f8fb73d39f3ad467509425b0"}, {"is_disabled": 0, "is_reserved": 0, "fusion_lat": 0.0, "lat": 38.90646483333333, "fusion_lon": 0.0, "rental_uris": {"ios": "https://dc.lft.to/lastmile_qr_scan", "android": "https://dc.lft.to/lastmile_qr_scan"}, "lon": -77.068961, "bike_id": "08ebad29f978bdcbf4b856b5557f52cf", "type": "electric_scooter", "name": "08ebad29f978bdcbf4b856b5557f52cf"}, {"is_disabled": 0, "is_reserved": 0, "fusion_lat": 0.0, "lat": 38.91812483333333, "fusion_lon": 0.0, "rental_uris": {"ios": "https://dc.lft.to/lastmile_qr_scan", "android": "https://dc.lft.to/lastmile_qr_scan"}, "lon": -77.014528, "bike_id": "b9fb39b267103816426b0530974dc116", "type": "electric_scooter", "name": "b9fb39b267103816426b0530974dc116"}, {"is_disabled": 0, "is_reserved": 0, "fusion_lat": 0.0, "lat": 38.8783975, "fusion_lon": 0.0, "rental_uris": {"ios": "https://dc.lft.to/lastmile_qr_scan", "android": "https://dc.lft.to/lastmile_qr_scan"}, "lon": -76.93129716666667, "bike_id": "316d4a361dd1c185ab25ad37719075f5", "type": "electric_scooter", "name": "316d4a361dd1c185ab25ad37719075f5"}, {"is_disabled": 0, "is_reserved": 0, "fusion_lat": 0.0, "lat": 39.01063033333333, "fusion_lon": 0.0, "rental_uris": {"ios": "https://dc.lft.to/lastmile_qr_scan", "android": "https://dc.lft.to/lastmile_qr_scan"}, "lon": -76.922396, "bike_id": "03e6c48b46bc05a25ee7b9c6b99e843a", "type": "electric_bike", "name": "03e6c48b46bc05a25ee7b9c6b99e843a"}, {"is_disabled": 0, "is_reserved": 0, "fusion_lat": 0.0, "lat": 38.92262, "fusion_lon": 0.0, "rental_uris": {"ios": "https://dc.lft.to/lastmile_qr_scan", "android": "https://dc.lft.to/lastmile_qr_scan"}, "lon": -77.03633433333333, "bike_id": "773162c5b0d8e35631227dc7d9d476f5", "type": "electric_scooter", "name": "773162c5b0d8e35631227dc7d9d476f5"}, {"is_disabled": 0, "is_reserved": 0, "fusion_lat": 0.0, "lat": 38.8829915, "fusion_lon": 0.0, "rental_uris": {"ios": "https://dc.lft.to/lastmile_qr_scan", "android": "https://dc.lft.to/lastmile_qr_scan"}, "lon": -77.0255825, "bike_id": "d8d2d1ac5354997261fd42878585db67", "type": "electric_scooter", "name": "d8d2d1ac5354997261fd42878585db67"}, {"is_disabled": 0, "is_reserved": 0, "fusion_lat": 0.0, "lat": 38.930912, "fusion_lon": 0.0, "rental_uris": {"ios": "https://dc.lft.to/lastmile_qr_scan", "android": "https://dc.lft.to/lastmile_qr_scan"}, "lon": -77.03437783333334, "bike_id": "bd9161aec1c3bac604af68ea19b735f6", "type": "electric_scooter", "name": "bd9161aec1c3bac604af68ea19b735f6"}, {"is_disabled": 0, "is_reserved": 0, "fusion_lat": 0.0, "lat": 38.882706, "fusion_lon": 0.0, "rental_uris": {"ios": "https://dc.lft.to/lastmile_qr_scan", "android": "https://dc.lft.to/lastmile_qr_scan"}, "lon": -77.00646283333333, "bike_id": "65807a2be9d8dfc53c29921b992bf299", "type": "electric_scooter", "name": "65807a2be9d8dfc53c29921b992bf299"}, {"is_disabled": 0, "is_reserved": 0, "fusion_lat": 0.0, "lat": 38.920314833333336, "fusion_lon": 0.0, "rental_uris": {"ios": "https://dc.lft.to/lastmile_qr_scan", "android": "https://dc.lft.to/lastmile_qr_scan"}, "lon": -77.02596533333333, "bike_id": "c9224cc08eac129e2ec5762e0fec971d", "type": "electric_scooter", "name": "c9224cc08eac129e2ec5762e0fec971d"}, {"is_disabled": 0, "is_reserved": 0, "fusion_lat": 0.0, "lat": 38.906839166666664, "fusion_lon": 0.0, "rental_uris": {"ios": "https://dc.lft.to/lastmile_qr_scan", "android": "https://dc.lft.to/lastmile_qr_scan"}, "lon": -77.026922, "bike_id": "b7d20bdb79f3249f3f014f1ec86a2325", "type": "electric_scooter", "name": "b7d20bdb79f3249f3f014f1ec86a2325"}, {"is_disabled": 0, "is_reserved": 0, "fusion_lat": 0.0, "lat": 38.893625, "fusion_lon": 0.0, "rental_uris": {"ios": "https://dc.lft.to/lastmile_qr_scan", "android": "https://dc.lft.to/lastmile_qr_scan"}, "lon": -77.0122785, "bike_id": "c4141d9684ff2512c9775d686031cfd2", "type": "electric_bike", "name": "c4141d9684ff2512c9775d686031cfd2"}, {"is_disabled": 0, "is_reserved": 0, "fusion_lat": 0.0, "lat": 38.896045, "fusion_lon": 0.0, "rental_uris": {"ios": "https://dc.lft.to/lastmile_qr_scan", "android": "https://dc.lft.to/lastmile_qr_scan"}, "lon": -76.9831135, "bike_id": "2fef277d6617578e645df713ff6a3e1e", "type": "electric_scooter", "name": "2fef277d6617578e645df713ff6a3e1e"}, {"is_disabled": 0, "is_reserved": 0, "fusion_lat": 0.0, "lat": 38.900907, "fusion_lon": 0.0, "rental_uris": {"ios": "https://dc.lft.to/lastmile_qr_scan", "android": "https://dc.lft.to/lastmile_qr_scan"}, "lon": -77.05062916666667, "bike_id": "850d64c1409ca2bfd81f3271777cfe42", "type": "electric_scooter", "name": "850d64c1409ca2bfd81f3271777cfe42"}, {"is_disabled": 0, "is_reserved": 0, "fusion_lat": 0.0, "lat": 38.9173665, "fusion_lon": 0.0, "rental_uris": {"ios": "https://dc.lft.to/lastmile_qr_scan", "android": "https://dc.lft.to/lastmile_qr_scan"}, "lon": -77.0260935, "bike_id": "a3c69b98e03fd43204bd47129a3b25ab", "type": "electric_scooter", "name": "a3c69b98e03fd43204bd47129a3b25ab"}, {"is_disabled": 0, "is_reserved": 0, "fusion_lat": 0.0, "lat": 38.923881, "fusion_lon": 0.0, "rental_uris": {"ios": "https://dc.lft.to/lastmile_qr_scan", "android": "https://dc.lft.to/lastmile_qr_scan"}, "lon": -77.03646866666666, "bike_id": "96a3a61ffb74480f9eece636ad382278", "type": "electric_scooter", "name": "96a3a61ffb74480f9eece636ad382278"}, {"is_disabled": 0, "is_reserved": 0, "fusion_lat": 0.0, "lat": 38.9126365, "fusion_lon": 0.0, "rental_uris": {"ios": "https://dc.lft.to/lastmile_qr_scan", "android": "https://dc.lft.to/lastmile_qr_scan"}, "lon": -77.04706066666667, "bike_id": "145892b5301123a08e541adf26af2dcf", "type": "electric_scooter", "name": "145892b5301123a08e541adf26af2dcf"}, {"is_disabled": 0, "is_reserved": 0, "fusion_lat": 0.0, "lat": 38.8688725, "fusion_lon": 0.0, "rental_uris": {"ios": "https://dc.lft.to/lastmile_qr_scan", "android": "https://dc.lft.to/lastmile_qr_scan"}, "lon": -76.989959, "bike_id": "16438140010ca98a2472967b0a411405", "type": "electric_scooter", "name": "16438140010ca98a2472967b0a411405"}, {"is_disabled": 0, "is_reserved": 0, "fusion_lat": 0.0, "lat": 38.880508, "fusion_lon": 0.0, "rental_uris": {"ios": "https://dc.lft.to/lastmile_qr_scan", "android": "https://dc.lft.to/lastmile_qr_scan"}, "lon": -77.0132545, "bike_id": "696db6aef8baa9e6127429736651c997", "type": "electric_scooter", "name": "696db6aef8baa9e6127429736651c997"}, {"is_disabled": 0, "is_reserved": 0, "fusion_lat": 0.0, "lat": 38.89739066666667, "fusion_lon": 0.0, "rental_uris": {"ios": "https://dc.lft.to/lastmile_qr_scan", "android": "https://dc.lft.to/lastmile_qr_scan"}, "lon": -77.02718866666666, "bike_id": "553c5325269cfad14becd2e997df52e1", "type": "electric_scooter", "name": "553c5325269cfad14becd2e997df52e1"}, {"is_disabled": 0, "is_reserved": 0, "fusion_lat": 0.0, "lat": 38.917815833333336, "fusion_lon": 0.0, "rental_uris": {"ios": "https://dc.lft.to/lastmile_qr_scan", "android": "https://dc.lft.to/lastmile_qr_scan"}, "lon": -77.02466866666667, "bike_id": "18d31d992a8bb6721057788fdb2c549f", "type": "electric_scooter", "name": "18d31d992a8bb6721057788fdb2c549f"}, {"is_disabled": 0, "is_reserved": 0, "fusion_lat": 0.0, "lat": 38.901875, "fusion_lon": 0.0, "rental_uris": {"ios": "https://dc.lft.to/lastmile_qr_scan", "android": "https://dc.lft.to/lastmile_qr_scan"}, "lon": -77.05084733333334, "bike_id": "70e6b76b43604cc19bea84a2d4b4f378", "type": "electric_scooter", "name": "70e6b76b43604cc19bea84a2d4b4f378"}, {"is_disabled": 0, "is_reserved": 0, "fusion_lat": 0.0, "lat": 38.924176333333335, "fusion_lon": 0.0, "rental_uris": {"ios": "https://dc.lft.to/lastmile_qr_scan", "android": "https://dc.lft.to/lastmile_qr_scan"},