{"data": {"bikes": [{"lat": 38.877284333333336, "fusion_lat": 0.0, "type": "electric_scooter", "name": "a1cae2db4b7398179cb275ab062d0561", "is_disabled": 0, "bike_id": "a1cae2db4b7398179cb275ab062d0561", "lon": -77.003529, "rental_uris": {"android": "https://dc.lft.to/lastmile_qr_scan", "ios": "https://dc.lft.to/lastmile_qr_scan"}, "fusion_lon": 0.0, "is_reserved": 0}, {"lat": 38.898823666666665, "fusion_lat": 0.0, "type": "electric_scooter", "name": "a7079b90a17a154b44d8064bbdfe7722", "is_disabled": 0, "bike_id": "a7079b90a17a154b44d8064bbdfe7722", "lon": -77.00917966666667, "rental_uris": {"android": "https://dc.lft.to/lastmile_qr_scan", "ios": "https://dc.lft.to/lastmile_qr_scan"}, "fusion_lon": 0.0, "is_reserved": 0}, {"lat": 38.931551166666665, "fusion_lat": 0.0, "type": "electric_scooter", "name": "9981da22c9149839b5a8f5ce93961711", "is_disabled": 0, "bike_id": "9981da22c9149839b5a8f5ce93961711", "lon": -77.036111, "rental_uris": {"android": "https://dc.lft.to/lastmile_qr_scan", "ios": "https://dc.lft.to/lastmile_qr_scan"}, "fusion_lon": 0.0, "is_reserved": 0}, {"lat": 38.9000965, "fusion_lat": 0.0, "type": "electric_scooter", "name": "f4900a19112d30d0c84537d118a478af", "is_disabled": 0, "bike_id": "f4900a19112d30d0c84537d118a478af", "lon": -77.0403485, "rental_uris": {"android": "https://dc.lft.to/lastmile_qr_scan", "ios": "https://dc.lft.to/lastmile_qr_scan"}, "fusion_lon": 0.0, "is_reserved": 0}, {"lat": 38.9170615, "fusion_lat": 0.0, "type": "electric_scooter", "name": "46d23dabd6f89b9efcf99f6407137d18", "is_disabled": 0, "bike_id": "46d23dabd6f89b9efcf99f6407137d18", "lon": -77.04170966666666, "rental_uris": {"android": "https://dc.lft.to/lastmile_qr_scan", "ios": "https://dc.lft.to/lastmile_qr_scan"}, "fusion_lon": 0.0, "is_reserved": 0}, {"lat": 38.894926, "fusion_lat": 0.0, "type": "electric_scooter", "name": "d1bd846d7b326edac317b5e7e6953657", "is_disabled": 0, "bike_id": "d1bd846d7b326edac317b5e7e6953657", "lon": -77.00296016666667, "rental_uris": {"android": "https://dc.lft.to/lastmile_qr_scan", "ios": "https://dc.lft.to/lastmile_qr_scan"}, "fusion_lon": 0.0, "is_reserved": 0}, {"lat": 38.896866833333334, "fusion_lat": 0.0, "type": "electric_scooter", "name": "55287368d11bc3d2962a4471886e8f31", "is_disabled": 0, "bike_id": "55287368d11bc3d2962a4471886e8f31", "lon": -77.02411716666667, "rental_uris": {"android": "https://dc.lft.to/lastmile_qr_scan", "ios": "https://dc.lft.to/lastmile_qr_scan"}, "fusion_lon": 0.0, "is_reserved": 0}, {"lat": 38.9003195, "fusion_lat": 0.0, "type": "electric_scooter", "name": "38f1b23a5288c9dc1ffc14b5cb57eb07", "is_disabled": 0, "bike_id": "38f1b23a5288c9dc1ffc14b5cb57eb07", "lon": -77.01183533333334, "rental_uris": {"android": "https://dc.lft.to/lastmile_qr_scan", "ios": "https://dc.lft.to/lastmile_qr_scan"}, "fusion_lon": 0.0, "is_reserved": 0}, {"lat": 38.8744745, "fusion_lat": 0.0, "type": "electric_scooter", "name": "314052e8fb9553a552924b3c10117853", "is_disabled": 0, "bike_id": "314052e8fb9553a552924b3c10117853", "lon": -77.000407, "rental_uris": {"android": "https://dc.lft.to/lastmile_qr_scan", "ios": "https://dc.lft.to/lastmile_qr_scan"}, "fusion_lon": 0.0, "is_reserved": 0}, {"lat": 38.90546916666667, "fusion_lat": 0.0, "type": "electric_scooter", "name": "81ee5e2a446eb6106cae5227bc5ce273", "is_disabled": 0, "bike_id": "81ee5e2a446eb6106cae5227bc5ce273", "lon": -77.04158083333333, "rental_uris": {"android": "https://dc.lft.to/lastmile_qr_scan", "ios": "https://dc.lft.to/lastmile_qr_scan"}, "fusion_lon": 0.0, "is_reserved": 0}, {"lat": 38.9206855, "fusion_lat": 0.0, "type": "electric_bike", "name": "ab977c4cf676152b73945036686a3b1a", "is_disabled": 0, "bike_id": "ab977c4cf676152b73945036686a3b1a", "lon": -77.0745505, "rental_uris": {"android": "https://dc.lft.to/lastmile_qr_scan", "ios": "https://dc.lft.to/lastmile_qr_scan"}, "fusion_lon": 0.0, "is_reserved": 0}, {"lat": 38.9391475, "fusion_lat": 0.0, "type": "electric_scooter", "name": "da367ff5105c51e2b2009241b3e5254b", "is_disabled": 0, "bike_id": "da367ff5105c51e2b2009241b3e5254b", "lon": -77.0603695, "rental_uris": {"android": "https://dc.lft.to/lastmile_qr_scan", "ios": "https://dc.lft.to/lastmile_qr_scan"}, "fusion_lon": 0.0, "is_reserved": 0}, {"lat": 38.862443, "fusion_lat": 0.0, "type": "electric_bike", "name": "381554b9203e76c2b3a76ffc78555268", "is_disabled": 0, "bike_id": "381554b9203e76c2b3a76ffc78555268", "lon": -76.952749, "rental_uris": {"android": "https://dc.lft.to/lastmile_qr_scan", "ios": "https://dc.lft.to/lastmile_qr_scan"}, "fusion_lon": 0.0, "is_reserved": 0}, {"lat": 38.922532, "fusion_lat": 0.0, "type": "electric_scooter", "name": "4a2564ab8ed8000626c7375e701e0367", "is_disabled": 0, "bike_id": "4a2564ab8ed8000626c7375e701e0367", "lon": -77.03519383333334, "rental_uris": {"android": "https://dc.lft.to/lastmile_qr_scan", "ios": "https://dc.lft.to/lastmile_qr_scan"}, "fusion_lon": 0.0, "is_reserved": 0}, {"lat": 38.903653166666665, "fusion_lat": 0.0, "type": "electric_scooter", "name": "3b01791f600876c5ab029f8ce6c168e3", "is_disabled": 0, "bike_id": "3b01791f600876c5ab029f8ce6c168e3", "lon": -77.04520633333334, "rental_uris": {"android": "https://dc.lft.to/lastmile_qr_scan", "ios": "https://dc.lft.to/lastmile_qr_scan"}, "fusion_lon": 0.0, "is_reserved": 0}, {"lat": 38.907379166666665, "fusion_lat": 0.0, "type": "electric_scooter", "name": "68cd667ca5283c01c4646e6de03e8f67", "is_disabled": 0, "bike_id": "68cd667ca5283c01c4646e6de03e8f67", "lon": -77.04285116666667, "rental_uris": {"android": "https://dc.lft.to/lastmile_qr_scan", "ios": "https://dc.lft.to/lastmile_qr_scan"}, "fusion_lon": 0.0, "is_reserved": 0}, {"lat": 38.913213666666664, "fusion_lat": 0.0, "type": "electric_scooter", "name": "f4b6fde7269f74af2ae7103f15a71fac", "is_disabled": 0, "bike_id": "f4b6fde7269f74af2ae7103f15a71fac", "lon": -77.0332005, "rental_uris": {"android": "https://dc.lft.to/lastmile_qr_scan", "ios": "https://dc.lft.to/lastmile_qr_scan"}, "fusion_lon": 0.0, "is_reserved": 0}, {"lat": 38.86510533333333, "fusion_lat": 0.0, "type": "electric_scooter", "name": "f26e635447145ec571bf03d58f965918", "is_disabled": 0, "bike_id": "f26e635447145ec571bf03d58f965918", "lon": -76.99007616666667, "rental_uris": {"android": "https://dc.lft.to/lastmile_qr_scan", "ios": "https://dc.lft.to/lastmile_qr_scan"}, "fusion_lon": 0.0, "is_reserved": 0}, {"lat": 38.893548833333334, "fusion_lat": 0.0, "type": "electric_bike", "name": "25eb6b50188c346471f17723de427c82", "is_disabled": 0, "bike_id": "25eb6b50188c346471f17723de427c82", "lon": -77.18740883333334, "rental_uris": {"android": "https://dc.lft.to/lastmile_qr_scan", "ios": "https://dc.lft.to/lastmile_qr_scan"}, "fusion_lon": 0.0, "is_reserved": 0}, {"lat": 38.906697333333334, "fusion_lat": 0.0, "type": "electric_scooter", "name": "30bcb7c2ac832785fc537d1017ba9424", "is_disabled": 0, "bike_id": "30bcb7c2ac832785fc537d1017ba9424", "lon": -77.02702083333334, "rental_uris": {"android": "https://dc.lft.to/lastmile_qr_scan", "ios": "https://dc.lft.to/lastmile_qr_scan"}, "fusion_lon": 0.0, "is_reserved": 0}, {"lat": 38.92325, "fusion_lat": 0.0, "type": "electric_scooter", "name": "996b8e0f26af972abf7f25d6bdaa99a6", "is_disabled": 0, "bike_id": "996b8e0f26af972abf7f25d6bdaa99a6", "lon": -77.0190945, "rental_uris": {"android": "https://dc.lft.to/lastmile_qr_scan", "ios": "https://dc.lft.to/lastmile_qr_scan"}, "fusion_lon": 0.0, "is_reserved": 0}, {"lat": 38.92593816666667, "fusion_lat": 0.0, "type": "electric_scooter", "name": "dcee089c9cbc7ecb883b7a2e702dd35f", "is_disabled": 0, "bike_id": "dcee089c9cbc7ecb883b7a2e702dd35f", "lon": -77.03224683333333, "rental_uris": {"android": "https://dc.lft.to/lastmile_qr_scan", "ios": "https://dc.lft.to/lastmile_qr_scan"}, "fusion_lon": 0.0, "is_reserved": 0}, {"lat": 38.91687533333333, "fusion_lat": 0.0, "type": "electric_scooter", "name": "70b66f73db0fd9704d765755ba9a35df", "is_disabled": 0, "bike_id": "70b66f73db0fd9704d765755ba9a35df", "lon": -77.029518, "rental_uris": {"android": "https://dc.lft.to/lastmile_qr_scan", "ios": "https://dc.lft.to/lastmile_qr_scan"}, "fusion_lon": 0.0, "is_reserved": 0}, {"lat": 38.91052833333333, "fusion_lat": 0.0, "type": "electric_scooter", "name": "b52a17f2330684ada6adb6a9a065afbd", "is_disabled": 0, "bike_id": "b52a17f2330684ada6adb6a9a065afbd", "lon": -77.02188233333334, "rental_uris": {"android": "https://dc.lft.to/lastmile_qr_scan", "ios": "https://dc.lft.to/lastmile_qr_scan"}, "fusion_lon": 0.0, "is_reserved": 0}, {"lat": 38.896254, "fusion_lat": 0.0, "type": "electric_scooter", "name": "3a89ff819e180ae3c353c6e5299ab163", "is_disabled": 0, "bike_id": "3a89ff819e180ae3c353c6e5299ab163", "lon": -77.0395335, "rental_uris": {"android": "https://dc.lft.to/lastmile_qr_scan", "ios": "https://dc.lft.to/lastmile_qr_scan"}, "fusion_lon": 0.0, "is_reserved": 0}, {"lat": 38.91911266666666, "fusion_lat": 0.0, "type": "electric_scooter", "name": "03db168d2924f2be70d30bd422614ac2", "is_disabled": 0, "bike_id": "03db168d2924f2be70d30bd422614ac2", "lon": -77.02085566666666, "rental_uris": {"android": "https://dc.lft.to/lastmile_qr_scan", "ios": "https://dc.lft.to/lastmile_qr_scan"}, "fusion_lon": 0.0, "is_reserved": 0}, {"lat": 38.9227135, "fusion_lat": 0.0, "type": "electric_scooter", "name": "b571b09a9ea4ccfb9505636f8482ecbd", "is_disabled": 0, "bike_id": "b571b09a9ea4ccfb9505636f8482ecbd", "lon": -77.02123683333333, "rental_uris": {"android": "https://dc.lft.to/lastmile_qr_scan", "ios": "https://dc.lft.to/lastmile_qr_scan"}, "fusion_lon": 0.0, "is_reserved": 0}, {"lat": 38.833762666666665, "fusion_lat": 0.0, "type": "electric_bike", "name": "0bec1cc3fa0bf2f19bf9caa113912caa", "is_disabled": 0, "bike_id": "0bec1cc3fa0bf2f19bf9caa113912caa", "lon": -77.002933, "rental_uris": {"android": "https://dc.lft.to/lastmile_qr_scan", "ios": "https://dc.lft.to/lastmile_qr_scan"}, "fusion_lon": 0.0, "is_reserved": 0}, {"lat": 38.903357166666666, "fusion_lat": 0.0, "type": "electric_scooter", "name": "72abaf7d2e5f8a75fbfe6713b0a87264", "is_disabled": 0, "bike_id": "72abaf7d2e5f8a75fbfe6713b0a87264", "lon": -77.03461166666666, "rental_uris": {"android": "https://dc.lft.to/lastmile_qr_scan", "ios": "https://dc.lft.to/lastmile_qr_scan"}, "fusion_lon": 0.0, "is_reserved": 0}, {"lat": 38.931567666666666, "fusion_lat": 0.0, "type": "electric_scooter", "name": "f8f4c736a9720f7175d5ca930a1189d6", "is_disabled": 0, "bike_id": "f8f4c736a9720f7175d5ca930a1189d6", "lon": -77.036069, "rental_uris": {"android": "https://dc.lft.to/lastmile_qr_scan", "ios": "https://dc.lft.to/lastmile_qr_scan"}, "fusion_lon": 0.0, "is_reserved": 0}, {"lat": 38.860069833333334, "fusion_lat": 0.0, "type": "electric_scooter", "name": "fc8f93d2165eeda09fc01ef85ea6c9f3", "is_disabled": 0, "bike_id": "fc8f93d2165eeda09fc01ef85ea6c9f3", "lon": -76.98518383333334, "rental_uris": {"android": "https://dc.lft.to/lastmile_qr_scan", "ios": "https://dc.lft.to/lastmile_qr_scan"}, "fusion_lon": 0.0, "is_reserved": 0}, {"lat": 38.8929115, "fusion_lat": 0.0, "type": "electric_bike", "name": "f30ac7b3c2f94241fc80cb751ae6827e", "is_disabled": 0, "bike_id": "f30ac7b3c2f94241fc80cb751ae6827e", "lon": -76.97616016666667, "rental_uris": {"android": "https://dc.lft.to/lastmile_qr_scan", "ios": "https://dc.lft.to/lastmile_qr_scan"}, "fusion_lon": 0.0, "is_reserved": 0}, {"lat": 38.90322833333333, "fusion_lat": 0.0, "type": "electric_scooter", "name": "56a66b998aa5da4aad3251c86fde1c85", "is_disabled": 0, "bike_id": "56a66b998aa5da4aad3251c86fde1c85", "lon": -77.02414633333333, "rental_uris": {"android": "https://dc.lft.to/lastmile_qr_scan", "ios": "https://dc.lft.to/lastmile_qr_scan"}, "fusion_lon": 0.0, "is_reserved": 0}, {"lat": 38.8873335, "fusion_lat": 0.0, "type": "electric_scooter", "name": "c9fd476a96c7c17493110f06ca5afdc6", "is_disabled": 0, "bike_id": "c9fd476a96c7c17493110f06ca5afdc6", "lon": -77.02829166666666, "rental_uris": {"android": "https://dc.lft.to/lastmile_qr_scan", "ios": "https://dc.lft.to/lastmile_qr_scan"}, "fusion_lon": 0.0, "is_reserved": 0}, {"lat": 38.902794, "fusion_lat": 0.0, "type": "electric_scooter", "name": "3f3996cfb7dbde002ddc3e26a9561ede", "is_disabled": 0, "bike_id": "3f3996cfb7dbde002ddc3e26a9561ede", "lon": -77.04224766666667, "rental_uris": {"android": "https://dc.lft.to/lastmile_qr_scan", "ios": "https://dc.lft.to/lastmile_qr_scan"}, "fusion_lon": 0.0, "is_reserved": 0}, {"lat": 38.9218805, "fusion_lat": 0.0, "type": "electric_scooter", "name": "98376211d47336060edd80bde59d1e7d", "is_disabled": 0, "bike_id": "98376211d47336060edd80bde59d1e7d", "lon": -77.03926716666666, "rental_uris": {"android": "https://dc.lft.to/lastmile_qr_scan", "ios": "https://dc.lft.to/lastmile_qr_scan"}, "fusion_lon": 0.0, "is_reserved": 0}, {"lat": 38.9234205, "fusion_lat": 0.0, "type": "electric_scooter", "name": "769d752d274d1643863918abc6548352", "is_disabled": 0, "bike_id": "769d752d274d1643863918abc6548352", "lon": -77.01912316666666, "rental_uris": {"android": "https://dc.lft.to/lastmile_qr_scan", "ios": "https://dc.lft.to/lastmile_qr_scan"}, "fusion_lon": 0.0, "is_reserved": 0}, {"lat": 38.897421666666666, "fusion_lat": 0.0, "type": "electric_scooter", "name": "7b978667a3b139c9177baeb04df1719c", "is_disabled": 0, "bike_id": "7b978667a3b139c9177baeb04df1719c", "lon": -77.02969983333334, "rental_uris": {"android": "https://dc.lft.to/lastmile_qr_scan", "ios": "https://dc.lft.to/lastmile_qr_scan"}, "fusion_lon": 0.0, "is_reserved": 0}, {"lat": 38.897805166666664, "fusion_lat": 0.0, "type": "electric_scooter", "name": "aeaf42473abe4252451f6d96058b60b0", "is_disabled": 0, "bike_id": "aeaf42473abe4252451f6d96058b60b0", "lon": -77.0064105, "rental_uris": {"android": "https://dc.lft.to/lastmile_qr_scan", "ios": "https://dc.lft.to/lastmile_qr_scan"}, "fusion_lon": 0.0, "is_reserved": 0}, {"lat": 38.9141445, "fusion_lat": 0.0, "type": "electric_scooter", "name": "6e2263d4d4e0484eb55c07a78dac16ef", "is_disabled": 0, "bike_id": "6e2263d4d4e0484eb55c07a78dac16ef", "lon": -77.04494183333334, "rental_uris": {"android": "https://dc.lft.to/lastmile_qr_scan", "ios": "https://dc.lft.to/lastmile_qr_scan"}, "fusion_lon": 0.0, "is_reserved": 0}, {"lat": 38.956302, "fusion_lat": 0.0, "type": "electric_bike", "name": "e28e08a534fcf674205bb6f87df63f0d", "is_disabled": 0, "bike_id": "e28e08a534fcf674205bb6f87df63f0d", "lon": -76.938713, "rental_uris": {"android": "https://dc.lft.to/lastmile_qr_scan", "ios": "https://dc.lft.to/lastmile_qr_scan"}, "fusion_lon": 0.0, "is_reserved": 0}, {"lat": 38.897969833333335, "fusion_lat": 0.0, "type": "electric_bike", "name": "e37ec75ff2133222ecfd8614b0696f75", "is_disabled": 0, "bike_id": "e37ec75ff2133222ecfd8614b0696f75", "lon": -77.04198066666666, "rental_uris": {"android": "https://dc.lft.to/lastmile_qr_scan", "ios": "https://dc.lft.to/lastmile_qr_scan"}, "fusion_lon": 0.0, "is_reserved": 0}, {"lat": 38.915240833333336, "fusion_lat": 0.0, "type": "electric_scooter", "name": "b587c82b69900ad9fb1985cf18c8f747", "is_disabled": 0, "bike_id": "b587c82b69900ad9fb1985cf18c8f747", "lon": -77.027082, "rental_uris": {"android": "https://dc.lft.to/lastmile_qr_scan", "ios": "https://dc.lft.to/lastmile_qr_scan"}, "fusion_lon": 0.0, "is_reserved": 0}, {"lat": 38.86389283333333, "fusion_lat": 0.0, "type": "electric_scooter", "name": "08b2ea9b6486e9582bd11fc360a4cca5", "is_disabled": 0, "bike_id": "08b2ea9b6486e9582bd11fc360a4cca5", "lon": -76.99040083333334, "rental_uris": {"android": "https://dc.lft.to/lastmile_qr_scan", "ios": "https://dc.lft.to/lastmile_qr_scan"}, "fusion_lon": 0.0, "is_reserved": 0}, {"lat": 38.86242033333333, "fusion_lat": 0.0, "type": "electric_scooter", "name": "0f824e69031bc14c1c44877190459da6", "is_disabled": 0, "bike_id": "0f824e69031bc14c1c44877190459da6", "lon": -76.99484333333334, "rental_uris": {"android": "https://dc.lft.to/lastmile_qr_scan", "ios": "https://dc.lft.to/lastmile_qr_scan"}, "fusion_lon": 0.0, "is_reserved": 0}, {"lat": 38.898140166666664, "fusion_lat": 0.0, "type": "electric_scooter", "name": "1890de915d517fb9c7e690660744177f", "is_disabled": 0, "bike_id": "1890de915d517fb9c7e690660744177f", "lon": -76.99248216666666, "rental_uris": {"android": "https://dc.lft.to/lastmile_qr_scan", "ios": "https://dc.lft.to/lastmile_qr_scan"}, "fusion_lon": 0.0, "is_reserved": 0}, {"lat": 38.92359583333333, "fusion_lat": 0.0, "type": "electric_scooter", "name": "d716a50e20a0077271e4b2b627d5a753", "is_disabled": 0, "bike_id": "d716a50e20a0077271e4b2b627d5a753", "lon": -77.0005225, "rental_uris": {"android": "https://dc.lft.to/lastmile_qr_scan", "ios": "https://dc.lft.to/lastmile_qr_scan"}, "fusion_lon": 0.0, "is_reserved": 0}, {"lat": 38.90234183333333, "fusion_lat": 0.0, "type": "electric_scooter", "name": "26f3bc35b5254df533551daf8c2b9164", "is_disabled": 0, "bike_id": "26f3bc35b5254df533551daf8c2b9164", "lon": -77.04696816666667, "rental_uris": {"android": "https://dc.lft.to/lastmile_qr_scan", "ios": "https://dc.lft.to/lastmile_qr_scan"}, "fusion_lon": 0.0, "is_reserved": 0}, {"lat": 38.911099166666666, "fusion_lat": 0.0, "type": "electric_scooter", "name": "abf6f4f449cc1d121493483f78d23a8b", "is_disabled": 0, "bike_id": "abf6f4f449cc1d121493483f78d23a8b", "lon": -77.02012266666667, "rental_uris": {"android": "https://dc.lft.to/lastmile_qr_scan", "ios": "https://dc.lft.to/lastmile_qr_scan"}, "fusion_lon": 0.0, "is_reserved": 0}, {"lat": 38.89631466666667, "fusion_lat": 0.0, "type": "electric_scooter", "name": "6f4c3da04d35933f8310727279f17a6c", "is_disabled": 0, "bike_id": "6f4c3da04d35933f8310727279f17a6c", "lon": -77.04007766666666, "rental_uris": {"android": "https://dc.lft.to/lastmile_qr_scan", "ios": "https://dc.lft.to/lastmile_qr_scan"}, "fusion_lon": 0.0, "is_reserved": 0}, {"lat": 38.956361, "fusion_lat": 0.0, "type": "electric_scooter", "name": "8b6bba53a32a7a64231476b9b85959f4", "is_disabled": 0, "bike_id": "8b6bba53a32a7a64231476b9b85959f4", "lon": -77.03306016666667, "rental_uris": {"android": "https://dc.lft.to/lastmile_qr_scan", "ios": "https://dc.lft.to/lastmile_qr_scan"}, "fusion_lon": 0.0, "is_reserved": 0}, {"lat": 38.9003785, "fusion_lat": 0.0, "type": "electric_scooter", "name": "6d83c86fbf073de727ce4e304d6d89dc", "is_disabled": 0, "bike_id": "6d83c86fbf073de727ce4e304d6d89dc", "lon": -76.98828916666666, "rental_uris": {"android": "https://dc.lft.to/lastmile_qr_scan", "ios": "https://dc.lft.to/lastmile_qr_scan"}, "fusion_lon": 0.0, "is_reserved": 0}, {"lat": 38.924774166666666, "fusion_lat": 0.0, "type": "electric_scooter", "name": "ecf2505e136d6f8dd480ea5796d939eb", "is_disabled": 0, "bike_id": "ecf2505e136d6f8dd480ea5796d939eb", "lon": -77.02264266666667, "rental_uris": {"android": "https://dc.lft.to/lastmile_qr_scan", "ios": "https://dc.lft.to/lastmile_qr_scan"}, "fusion_lon": 0.0, "is_reserved": 0}, {"lat": 38.900065833333336, "fusion_lat": 0.0, "type": "electric_scooter", "name": "e3cd91ec8dc5a44898a0a05a1ed97b1e", "is_disabled": 0, "bike_id": "e3cd91ec8dc5a44898a0a05a1ed97b1e", "lon": -77.0068605, "rental_uris": {"android": "https://dc.lft.to/lastmile_qr_scan", "ios": "https://dc.lft.to/lastmile_qr_scan"}, "fusion_lon": 0.0, "is_reserved": 0}, {"lat": 38.91399233333333, "fusion_lat": 0.0, "type": "electric_scooter", "name": "df88ae42d6d5284e6f04540f216eb8a9", "is_disabled": 0, "bike_id": "df88ae42d6d5284e6f04540f216eb8a9", "lon": -77.01795833333334, "rental_uris": {"android": "https://dc.lft.to/lastmile_qr_scan", "ios": "https://dc.lft.to/lastmile_qr_scan"}, "fusion_lon": 0.0, "is_reserved": 0}, {"lat": 38.9097175, "fusion_lat": 0.0, "type": "electric_scooter", "name": "7ef1057329167265fbcdec5184c6d5d3", "is_disabled": 0, "bike_id": "7ef1057329167265fbcdec5184c6d5d3", "lon": -77.03491016666666, "rental_uris": {"android": "https://dc.lft.to/lastmile_qr_scan", "ios": "https://dc.lft.to/lastmile_qr_scan"}, "fusion_lon": 0.0, "is_reserved": 0}, {"lat": 38.874809666666664, "fusion_lat": 0.0, "type": "electric_scooter", "name": "5033c4537ef94492f51d6585365501af", "is_disabled": 0, "bike_id": "5033c4537ef94492f51d6585365501af", "lon": -76.9998385, "rental_uris": {"android": "https://dc.lft.to/lastmile_qr_scan", "ios": "https://dc.lft.to/lastmile_qr_scan"}, "fusion_lon": 0.0, "is_reserved": 0}, {"lat": 38.91872433333333, "fusion_lat": 0.0, "type": "electric_scooter", "name": "231cdfd5787783424669b60d66a9bee6", "is_disabled": 0, "bike_id": "231cdfd5787783424669b60d66a9bee6", "lon": -77.02203266666666, "rental_uris": {"android": "https://dc.lft.to/lastmile_qr_scan", "ios": "https://dc.lft.to/lastmile_qr_scan"}, "fusion_lon": 0.0, "is_reserved": 0}, {"lat": 38.901299333333334, "fusion_lat": 0.0, "type": "electric_scooter", "name": "9343be4ab5fe074825425a01cacf551e", "is_disabled": 0, "bike_id": "9343be4ab5fe074825425a01cacf551e", "lon": -77.049909, "rental_uris": {"android": "https://dc.lft.to/lastmile_qr_scan", "ios": "https://dc.lft.to/lastmile_qr_scan"}, "fusion_lon": 0.0, "is_reserved": 0}, {"lat": 38.90171183333333, "fusion_lat": 0.0, "type": "electric_scooter", "name": "5d475f386125c9bd0d9cc457603e5cef", "is_disabled": 0, "bike_id": "5d475f386125c9bd0d9cc457603e5cef", "lon": -76.9807765, "rental_uris": {"android": "https://dc.lft.to/lastmile_qr_scan", "ios": "https://dc.lft.to/lastmile_qr_scan"}, "fusion_lon": 0.0, "is_reserved": 0}, {"lat": 38.94164166666667, "fusion_lat": 0.0, "type": "electric_scooter", "name": "d92021a77cfe409daa043982a5bf743d", "is_disabled": 0, "bike_id": "d92021a77cfe409daa043982a5bf743d", "lon": -77.02555083333333, "rental_uris": {"android": "https://dc.lft.to/lastmile_qr_scan", "ios": "https://dc.lft.to/lastmile_qr_scan"}, "fusion_lon": 0.0, "is_reserved": 0}, {"lat": 38.90279666666667, "fusion_lat": 0.0, "type": "electric_scooter", "name": "26150a07439cd55fc1833f3f64e21670", "is_disabled": 0, "bike_id": "26150a07439cd55fc1833f3f64e21670", "lon": -77.03849716666667, "rental_uris": {"android": "https://dc.lft.to/lastmile_qr_scan", "ios": "https://dc.lft.to/lastmile_qr_scan"}, "fusion_lon": 0.0, "is_reserved": 0}, {"lat": 38.91278233333333, "fusion_lat": 0.0, "type": "electric_scooter", "name": "1def9158428378b49ba59d8259204694", "is_disabled": 0, "bike_id": "1def9158428378b49ba59d8259204694", "lon": -77.04473966666667, "rental_uris": {"android": "https://dc.lft.to/lastmile_qr_scan", "ios": "https://dc.lft.to/lastmile_qr_scan"}, "fusion_lon": 0.0, "is_reserved": 0}, {"lat": 38.902645666666665, "fusion_lat": 0.0, "type": "electric_scooter", "name": "c19343174b77892f416b8dab323e66e8", "is_disabled": 0, "bike_id": "c19343174b77892f416b8dab323e66e8", "lon": -77.03882183333333, "rental_uris": {"android": "https://dc.lft.to/lastmile_qr_scan", "ios": "https://dc.lft.to/lastmile_qr_scan"}, "fusion_lon": 0.0, "is_reserved": 0}, {"lat": 38.908229166666665, "fusion_lat": 0.0, "type": "electric_scooter", "name": "19da72f4bfb624fb0f6e800cddb70c25", "is_disabled": 0, "bike_id": "19da72f4bfb624fb0f6e800cddb70c25", "lon": -77.03917083333333, "rental_uris": {"android": "https://dc.lft.to/lastmile_qr_scan", "ios": "https://dc.lft.to/lastmile_qr_scan"}, "fusion_lon": 0.0, "is_reserved": 0}, {"lat": 38.901696, "fusion_lat": 0.0, "type": "electric_scooter", "name": "7b0e80a1c9bad5fe86c39a2cb193bf1c", "is_disabled": 0, "bike_id": "7b0e80a1c9bad5fe86c39a2cb193bf1c", "lon": -77.03454566666667, "rental_uris": {"android": "https://dc.lft.to/lastmile_qr_scan", "ios": "https://dc.lft.to/lastmile_qr_scan"}, "fusion_lon": 0.0, "is_reserved": 0}, {"lat": 38.8757435, "fusion_lat": 0.0, "type": "electric_scooter", "name": "35a193d800ab7cf71f20fabe09c2756b", "is_disabled": 0, "bike_id": "35a193d800ab7cf71f20fabe09c2756b", "lon": -77.00576366666667, "rental_uris": {"android": "https://dc.lft.to/lastmile_qr_scan", "ios": "https://dc.lft.to/lastmile_qr_scan"}, "fusion_lon": 0.0, "is_reserved": 0}, {"lat": 38.997063, "fusion_lat": 0.0, "type": "electric_bike", "name": "6bf7c47fb7010451b0312a98009be0d8", "is_disabled": 0, "bike_id": "6bf7c47fb7010451b0312a98009be0d8", "lon": -77.025491, "rental_uris": {"android": "https://dc.lft.to/lastmile_qr_scan", "ios": "https://dc.lft.to/lastmile_qr_scan"}, "fusion_lon": 0.0, "is_reserved": 0}, {"lat": 38.9347235, "fusion_lat": 0.0, "type": "electric_scooter", "name": "662e49294712ec91ba3ce42ed91df73d", "is_disabled": 0, "bike_id": "662e49294712ec91ba3ce42ed91df73d", "lon": -77.07279533333333, "rental_uris": {"android": "https://dc.lft.to/lastmile_qr_scan", "ios": "https://dc.lft.to/lastmile_qr_scan"}, "fusion_lon": 0.0, "is_reserved": 0}, {"lat": 38.9429325, "fusion_lat": 0.0, "type": "electric_scooter", "name": "20a3f515035a2a1952318079e58adc05", "is_disabled": 0, "bike_id": "20a3f515035a2a1952318079e58adc05", "lon": -77.02168466666667, "rental_uris": {"android": "https://dc.lft.to/lastmile_qr_scan", "ios": "https://dc.lft.to/lastmile_qr_scan"}, "fusion_lon": 0.0, "is_reserved": 0}, {"lat": 38.92224183333333, "fusion_lat": 0.0, "type": "electric_scooter", "name": "286a066a8f94e8f77aeda5d21a0ba10e", "is_disabled": 0, "bike_id": "286a066a8f94e8f77aeda5d21a0ba10e", "lon": -77.02121066666666, "rental_uris": {"android": "https://dc.lft.to/lastmile_qr_scan", "ios": "https://dc.lft.to/lastmile_qr_scan"}, "fusion_lon": 0.0, "is_reserved": 0}, {"lat": 38.9023885, "fusion_lat": 0.0, "type": "electric_scooter", "name": "f57f4329c9855abf2c6ca8b88a5a8a87", "is_disabled": 0, "bike_id": "f57f4329c9855abf2c6ca8b88a5a8a87", "lon": -77.01506666666667, "rental_uris": {"android": "https://dc.lft.to/lastmile_qr_scan", "ios": "https://dc.lft.to/lastmile_qr_scan"}, "fusion_lon": 0.0, "is_reserved": 0}, {"lat": 38.866248, "fusion_lat": 0.0, "type": "electric_scooter", "name": "b4fcf5f58b1f9d113626953f7b60e450", "is_disabled": 0, "bike_id": "b4fcf5f58b1f9d113626953f7b60e450", "lon": -76.9871895, "rental_uris": {"android": "https://dc.lft.to/lastmile_qr_scan", "ios": "https://dc.lft.to/lastmile_qr_scan"}, "fusion_lon": 0.0, "is_reserved": 0}, {"lat": 38.9751045, "fusion_lat": 0.0, "type": "electric_scooter", "name": "7388651e1ed186f46312f35fed07000f", "is_disabled": 0, "bike_id": "7388651e1ed186f46312f35fed07000f", "lon": -77.01645533333334, "rental_uris": {"android": "https://dc.lft.to/lastmile_qr_scan", "ios": "https://dc.lft.to/lastmile_qr_scan"}, "fusion_lon": 0.0, "is_reserved": 0}, {"lat": 38.90672516666667, "fusion_lat": 0.0, "type": "electric_scooter", "name": "a675e8b77949778c21884451cbbabe13", "is_disabled": 0, "bike_id": "a675e8b77949778c21884451cbbabe13", "lon": -77.0380665, "rental_uris": {"android": "https://dc.lft.to/lastmile_qr_scan", "ios": "https://dc.lft.to/lastmile_qr_scan"}, "fusion_lon": 0.0, "is_reserved": 0}, {"lat": 38.897294, "fusion_lat": 0.0, "type": "electric_scooter", "name": "46f3fc31f36e57be44d98d7b1eeb80cb", "is_disabled": 0, "bike_id": "46f3fc31f36e57be44d98d7b1eeb80cb", "lon": -77.02692, "rental_uris": {"android": "https://dc.lft.to/lastmile_qr_scan", "ios": "https://dc.lft.to/lastmile_qr_scan"}, "fusion_lon": 0.0, "is_reserved": 0}, {"lat": 38.93155, "fusion_lat": 0.0, "type": "electric_scooter", "name": "0c0b0f2f8e8db1fa2902efea1b0ceb54", "is_disabled": 0, "bike_id": "0c0b0f2f8e8db1fa2902efea1b0ceb54", "lon": -77.04546266666667, "rental_uris": {"android": "https://dc.lft.to/lastmile_qr_scan", "ios": "https://dc.lft.to/lastmile_qr_scan"}, "fusion_lon": 0.0, "is_reserved": 0}, {"lat": 38.8965315, "fusion_lat": 0.0, "type": "electric_scooter", "name": "a1fcd6f43de341c97f71ee27528dc6eb", "is_disabled": 0, "bike_id": "a1fcd6f43de341c97f71ee27528dc6eb", "lon": -77.07068233333334, "rental_uris": {"android": "https://dc.lft.to/lastmile_qr_scan", "ios": "https://dc.lft.to/lastmile_qr_scan"}, "fusion_lon": 0.0, "is_reserved": 0}, {"lat": 38.85247366666667, "fusion_lat": 0.0, "type": "electric_bike", "name": "4f82baa929bfa089acfa7861fb11dd50", "is_disabled": 0, "bike_id": "4f82baa929bfa089acfa7861fb11dd50", "lon": -77.1078645, "rental_uris": {"android": "https://dc.lft.to/lastmile_qr_scan", "ios": "https://dc.lft.to/lastmile_qr_scan"}, "fusion_lon": 0.0, "is_reserved": 0}, {"lat": 38.89831316666667, "fusion_lat": 0.0, "type": "electric_scooter", "name": "b3e33762b3e37078f6ee21503c5a3dfb", "is_disabled": 0, "bike_id": "b3e33762b3e37078f6ee21503c5a3dfb", "lon": -76.94628516666667, "rental_uris": {"android": "https://dc.lft.to/lastmile_qr_scan", "ios": "https://dc.lft.to/lastmile_qr_scan"}, "fusion_lon": 0.0, "is_reserved": 0}, {"lat": 38.90425116666667, "fusion_lat": 0.0, "type": "electric_scooter", "name": "d68c6febc0bfd55c82d2093e837547b3", "is_disabled": 0, "bike_id": "d68c6febc0bfd55c82d2093e837547b3", "lon": -77.02638083333333, "rental_uris": {"android": "https://dc.lft.to/lastmile_qr_scan", "ios": "https://dc.lft.to/lastmile_qr_scan"}, "fusion_lon": 0.0, "is_reserved": 0}, {"lat": 38.90891966666667, "fusion_lat": 0.0, "type": "electric_scooter", "name": "b8f0ff0ba975b6b355398152831c608c", "is_disabled": 0, "bike_id": "b8f0ff0ba975b6b355398152831c608c", "lon": -76.99766383333333, "rental_uris": {"android": "https://dc.lft.to/lastmile_qr_scan", "ios": "https://dc.lft.to/lastmile_qr_scan"}, "fusion_lon": 0.0, "is_reserved": 0}, {"lat": 38.87718366666667, "fusion_lat": 0.0, "type": "electric_scooter", "name": "4637ae9a47a9043fc8f804b5434deee6", "is_disabled": 0, "bike_id": "4637ae9a47a9043fc8f804b5434deee6", "lon": -77.01770583333334, "rental_uris": {"android": "https://dc.lft.to/lastmile_qr_scan", "ios": "https://dc.lft.to/lastmile_qr_scan"}, "fusion_lon": 0.0, "is_reserved": 0}, {"lat": 38.82178416666667, "fusion_lat": 0.0, "type": "electric_bike", "name": "2b4bfbaa69efcaaa47e753657c00cb75", "is_disabled": 0, "bike_id": "2b4bfbaa69efcaaa47e753657c00cb75", "lon": -76.99508083333333, "rental_uris": {"android": "https://dc.lft.to/lastmile_qr_scan", "ios": "https://dc.lft.to/lastmile_qr_scan"}, "fusion_lon": 0.0, "is_reserved": 0}, {"lat": 38.91574416666667, "fusion_lat": 0.0, "type": "electric_scooter", "name": "e57fbd28a224f6bf0c9cf4fc03070aa1", "is_disabled": 0, "bike_id": "e57fbd28a224f6bf0c9cf4fc03070aa1", "lon": -77.019939, "rental_uris": {"android": "https://dc.lft.to/lastmile_qr_scan", "ios": "https://dc.lft.to/lastmile_qr_scan"}, "fusion_lon": 0.0, "is_reserved": 0}, {"lat": 38.921328833333334, "fusion_lat": 0.0, "type": "electric_scooter", "name": "8e958c02f53e51aca5a482e10130034a", "is_disabled": 0, "bike_id": "8e958c02f53e51aca5a482e10130034a", "lon": -77.0434675, "rental_uris": {"android": "https://dc.lft.to/lastmile_qr_scan", "ios": "https://dc.lft.to/lastmile_qr_scan"}, "fusion_lon": 0.0, "is_reserved": 0}, {"lat": 38.942927166666664, "fusion_lat": 0.0, "type": "electric_scooter", "name": "ba8aec3af77b7b0f8ac11d6eaf91ccca", "is_disabled": 0, "bike_id": "ba8aec3af77b7b0f8ac11d6eaf91ccca", "lon": -77.02167633333333, "rental_uris": {"android": "https://dc.lft.to/lastmile_qr_scan", "ios": "https://dc.lft.to/lastmile_qr_scan"}, "fusion_lon": 0.0, "is_reserved": 0}, {"lat": 38.89915583333333, "fusion_lat": 0.0, "type": "electric_bike", "name": "20f48c7a898e5a79657cb0160695f443", "is_disabled": 0, "bike_id": "20f48c7a898e5a79657cb0160695f443", "lon": -77.0447445, "rental_uris": {"android": "https://dc.lft.to/lastmile_qr_scan", "ios": "https://dc.lft.to/lastmile_qr_scan"}, "fusion_lon": 0.0, "is_reserved": 0}, {"lat": 38.919641666666664, "fusion_lat": 0.0, "type": "electric_scooter", "name": "e38960feff5c5ba737c5c9b7f458520d", "is_disabled": 0, "bike_id": "e38960feff5c5ba737c5c9b7f458520d", "lon": -77.02353416666666, "rental_uris": {"android": "https://dc.lft.to/lastmile_qr_scan", "ios": "https://dc.lft.to/lastmile_qr_scan"}, "fusion_lon": 0.0, "is_reserved": 0}, {"lat": 38.89946333333333, "fusion_lat": 0.0, "type": "electric_scooter", "name": "0f0eb84e90a7b81b73e640d8b55df7c2", "is_disabled": 0, "bike_id": "0f0eb84e90a7b81b73e640d8b55df7c2", "lon": -77.04490433333333, "rental_uris": {"android": "https://dc.lft.to/lastmile_qr_scan", "ios": "https://dc.lft.to/lastmile_qr_scan"}, "fusion_lon": 0.0, "is_reserved": 0}, {"lat": 38.923597666666666, "fusion_lat": 0.0, "type": "electric_scooter", "name": "71a4722956c8705dd04938b84a92037d", "is_disabled": 0, "bike_id": "71a4722956c8705dd04938b84a92037d", "lon": -77.05227233333333, "rental_uris": {"android": "https://dc.lft.to/lastmile_qr_scan", "ios": "https://dc.lft.to/lastmile_qr_scan"}, "fusion_lon": 0.0, "is_reserved": 0}, {"lat": 38.9489845, "fusion_lat": 0.0, "type": "electric_bike", "name": "27a300640d3b76ba7bc45fed70ae8154", "is_disabled": 0, "bike_id": "27a300640d3b76ba7bc45fed70ae8154", "lon": -76.9637035, "rental_uris": {"android": "https://dc.lft.to/lastmile_qr_scan", "ios": "https://dc.lft.to/lastmile_qr_scan"}, "fusion_lon": 0.0, "is_reserved": 0}, {"lat": 38.9000595, "fusion_lat": 0.0, "type": "electric_scooter", "name": "d279c4a7a724ae5c0f9b46bd451c67a3", "is_disabled": 0, "bike_id": "d279c4a7a724ae5c0f9b46bd451c67a3", "lon": -77.032799, "rental_uris": {"android": "https://dc.lft.to/lastmile_qr_scan", "ios": "https://dc.lft.to/lastmile_qr_scan"}, "fusion_lon": 0.0, "is_reserved": 0}, {"lat": 38.884210333333336, "fusion_lat": 0.0, "type": "electric_scooter", "name": "5f583678b2f0f793fb5b916c361a440e", "is_disabled": 0, "bike_id": "5f583678b2f0f793fb5b916c361a440e", "lon": -76.99693166666667, "rental_uris": {"android": "https://dc.lft.to/lastmile_qr_scan", "ios": "https://dc.lft.to/lastmile_qr_scan"}, "fusion_lon": 0.0, "is_reserved": 0}, {"lat": 38.86690266666667, "fusion_lat": 0.0, "type": "electric_scooter", "name": "dbe6511ff2c90e8a4483a0adb321cfd7", "is_disabled": 0, "bike_id": "dbe6511ff2c90e8a4483a0adb321cfd7", "lon": -76.9854275, "rental_uris": {"android": "https://dc.lft.to/lastmile_qr_scan", "ios": "https://dc.lft.to/lastmile_qr_scan"}, "fusion_lon": 0.0, "is_reserved": 0}, {"lat": 38.9416575, "fusion_lat": 0.0, "type": "electric_scooter", "name": "ef944efe97e6c5c5f41dde5c6f86e253", "is_disabled": 0, "bike_id": "ef944efe97e6c5c5f41dde5c6f86e253", "lon": -77.025538, "rental_uris": {"android": "https://dc.lft.to/lastmile_qr_scan", "ios": "https://dc.lft.to/lastmile_qr_scan"}, "fusion_lon": 0.0, "is_reserved": 0}, {"lat": 38.92042283333333, "fusion_lat": 0.0, "type": "electric_scooter", "name": "5fe309644e5daa32ecd88fbce30e103f", "is_disabled": 0, "bike_id": "5fe309644e5daa32ecd88fbce30e103f", "lon": -77.01666616666667, "rental_uris": {"android": "https://dc.lft.to/lastmile_qr_scan", "ios": "https://dc.lft.to/lastmile_qr_scan"}, "fusion_lon": 0.0, "is_reserved": 0}, {"lat": 38.921526, "fusion_lat": 0.0, "type": "electric_scooter", "name": "f44a2f519ef2ff7703072a8381985bcf", "is_disabled": 0, "bike_id": "f44a2f519ef2ff7703072a8381985bcf", "lon": -77.0208195, "rental_uris": {"android": "https://dc.lft.to/lastmile_qr_scan", "ios": "https://dc.lft.to/lastmile_qr_scan"}, "fusion_lon": 0.0, "is_reserved": 0}, {"lat": 38.91812633333333, "fusion_lat": 0.0, "type": "electric_scooter", "name": "1d206b8b3c39ab796f3392faf134d936", "is_disabled": 0, "bike_id": "1d206b8b3c39ab796f3392faf134d936", "lon": -77.03690983333334, "rental_uris": {"android": "https://dc.lft.to/lastmile_qr_scan", "ios": "https://dc.lft.to/lastmile_qr_scan"}, "fusion_lon": 0.0, "is_reserved": 0}, {"lat": 38.88075516666667, "fusion_lat": 0.0, "type": "electric_scooter", "name": "9077f30c72c2606fd132586c0f628983", "is_disabled": 0, "bike_id": "9077f30c72c2606fd132586c0f628983", "lon": -77.025647, "rental_uris": {"android": "https://dc.lft.to/lastmile_qr_scan", "ios": "https://dc.lft.to/lastmile_qr_scan"}, "fusion_lon": 0.0, "is_reserved": 0}, {"lat": 38.91787633333333, "fusion_lat": 0.0, "type": "electric_scooter", "name": "01663b083e97a88ba6f0148682cce615", "is_disabled": 0, "bike_id": "01663b083e97a88ba6f0148682cce615", "lon": -77.03207316666666, "rental_uris": {"android": "https://dc.lft.to/lastmile_qr_scan", "ios": "https://dc.lft.to/lastmile_qr_scan"}, "fusion_lon": 0.0, "is_reserved": 0}, {"lat": 38.846401166666666, "fusion_lat": 0.0, "type": "electric_scooter", "name": "696ed209404d4c2ca23074b13261b73e", "is_disabled": 0, "bike_id": "696ed209404d4c2ca23074b13261b73e", "lon": -76.99130466666666, "rental_uris": {"android": "https://dc.lft.to/lastmile_qr_scan", "ios": "https://dc.lft.to/lastmile_qr_scan"}, "fusion_lon": 0.0, "is_reserved": 0}, {"lat": 38.9095785, "fusion_lat": 0.0, "type": "electric_scooter", "name": "15ab2953c8b0193fdd10180dc6cf17c0", "is_disabled": 0, "bike_id": "15ab2953c8b0193fdd10180dc6cf17c0", "lon": -77.04751483333334, "rental_uris": {"android": "https://dc.lft.to/lastmile_qr_scan", "ios": "https://dc.lft.to/lastmile_qr_scan"}, "fusion_lon": 0.0, "is_reserved": 0}, {"lat": 38.89942283333333, "fusion_lat": 0.0, "type": "electric_scooter", "name": "3d302c6bad47ba0dcf0db8f77a5edad5", "is_disabled": 0, "bike_id": "3d302c6bad47ba0dcf0db8f77a5edad5", "lon": -76.99727383333334, "rental_uris": {"android": "https://dc.lft.to/lastmile_qr_scan", "ios": "https://dc.lft.to/lastmile_qr_scan"}, "fusion_lon": 0.0, "is_reserved": 0}, {"lat": 38.902824, "fusion_lat": 0.0, "type": "electric_scooter", "name": "d1a8c1b608fc48effa1d714bc8bc71f4", "is_disabled": 0, "bike_id": "d1a8c1b608fc48effa1d714bc8bc71f4", "lon": -77.038492, "rental_uris": {"android": "https://dc.lft.to/lastmile_qr_scan", "ios": "https://dc.lft.to/lastmile_qr_scan"}, "fusion_lon": 0.0, "is_reserved": 0}, {"lat": 38.90587683333333, "fusion_lat": 0.0, "type": "electric_scooter", "name": "2f801364b5d83e465d659ef545e67a3a", "is_disabled": 0, "bike_id": "2f801364b5d83e465d659ef545e67a3a", "lon": -77.04025883333334, "rental_uris": {"android": "https://dc.lft.to/lastmile_qr_scan", "ios": "https://dc.lft.to/lastmile_qr_scan"}, "fusion_lon": 0.0, "is_reserved": 0}, {"lat": 38.92816883333333, "fusion_lat": 0.0, "type": "electric_scooter", "name": "83c3a60305755dc7e72bce868d4de317", "is_disabled": 0, "bike_id": "83c3a60305755dc7e72bce868d4de317", "lon": -77.01412, "rental_uris": {"android": "https://dc.lft.to/lastmile_qr_scan", "ios": "https://dc.lft.to/lastmile_qr_scan"}, "fusion_lon": 0.0, "is_reserved": 0}, {"lat": 38.9563555, "fusion_lat": 0.0, "type": "electric_scooter", "name": "32361711e4b7a060d62e0548ddcd76b4", "is_disabled": 0, "bike_id": "32361711e4b7a060d62e0548ddcd76b4", "lon": -77.033034, "rental_uris": {"android": "https://dc.lft.to/lastmile_qr_scan", "ios": "https://dc.lft.to/lastmile_qr_scan"}, "fusion_lon": 0.0, "is_reserved": 0}, {"lat": 38.8983105, "fusion_lat": 0.0, "type": "electric_scooter", "name": "18369cb061b469b3788fdc5d43bfb798", "is_disabled": 0, "bike_id": "18369cb061b469b3788fdc5d43bfb798", "lon": -76.9317935, "rental_uris": {"android": "https://dc.lft.to/lastmile_qr_scan", "ios": "https://dc.lft.to/lastmile_qr_scan"}, "fusion_lon": 0.0, "is_reserved": 0}, {"lat": 38.92041483333333, "fusion_lat": 0.0, "type": "electric_scooter", "name": "af007eb54948c9c124425f419399a872", "is_disabled": 0, "bike_id": "af007eb54948c9c124425f419399a872", "lon": -77.01674783333333, "rental_uris": {"android": "https://dc.lft.to/lastmile_qr_scan", "ios": "https://dc.lft.to/lastmile_qr_scan"}, "fusion_lon": 0.0, "is_reserved": 0}, {"lat": 38.9114335, "fusion_lat": 0.0, "type": "electric_scooter", "name": "ff4c8fa7581a036f54c992a2e4f5abeb", "is_disabled": 0, "bike_id": "ff4c8fa7581a036f54c992a2e4f5abeb", "lon": -77.04425683333334, "rental_uris": {"android": "https://dc.lft.to/lastmile_qr_scan", "ios": "https://dc.lft.to/lastmile_qr_scan"}, "fusion_lon": 0.0, "is_reserved": 0}, {"lat": 38.9097825, "fusion_lat": 0.0, "type": "electric_scooter", "name": "4f3a5ca554f7213ae6215506e68e38ee", "is_disabled": 0, "bike_id": "4f3a5ca554f7213ae6215506e68e38ee", "lon": -77.04872533333334, "rental_uris": {"android": "https://dc.lft.to/lastmile_qr_scan", "ios": "https://dc.lft.to/lastmile_qr_scan"}, "fusion_lon": 0.0, "is_reserved": 0}, {"lat": 38.894886166666666, "fusion_lat": 0.0, "type": "electric_scooter", "name": "f51d9ddb88a6075243745f175a71a716", "is_disabled": 0, "bike_id": "f51d9ddb88a6075243745f175a71a716", "lon": -77.00255866666667, "rental_uris": {"android": "https://dc.lft.to/lastmile_qr_scan", "ios": "https://dc.lft.to/lastmile_qr_scan"}, "fusion_lon": 0.0, "is_reserved": 0}, {"lat": 38.84719616666667, "fusion_lat": 0.0, "type": "electric_scooter", "name": "b356b33343fed6eacb12ff4618a42b8c", "is_disabled": 0, "bike_id": "b356b33343fed6eacb12ff4618a42b8c", "lon": -76.9681625, "rental_uris": {"android": "https://dc.lft.to/lastmile_qr_scan", "ios": "https://dc.lft.to/lastmile_qr_scan"}, "fusion_lon": 0.0, "is_reserved": 0}, {"lat": 38.896104, "fusion_lat": 0.0, "type": "electric_scooter", "name": "b8dc3be1429393361b5516767efe0e99", "is_disabled": 0, "bike_id": "b8dc3be1429393361b5516767efe0e99", "lon": -77.009199, "rental_uris": {"android": "https://dc.lft.to/lastmile_qr_scan", "ios": "https://dc.lft.to/lastmile_qr_scan"}, "fusion_lon": 0.0, "is_reserved": 0}, {"lat": 38.8666925, "fusion_lat": 0.0, "type": "electric_scooter", "name": "cace5b517ecc2e3546cea309fa462d73", "is_disabled": 0, "bike_id": "cace5b517ecc2e3546cea309fa462d73", "lon": -76.98383616666666, "rental_uris": {"android": "https://dc.lft.to/lastmile_qr_scan", "ios": "https://dc.lft.to/lastmile_qr_scan"}, "fusion_lon": 0.0, "is_reserved": 0}, {"lat": 38.81511033333334, "fusion_lat": 0.0, "type": "electric_bike", "name": "2bcf49fd7d2a0f1932e54fdaa674feba", "is_disabled": 0, "bike_id": "2bcf49fd7d2a0f1932e54fdaa674feba", "lon": -77.1264995, "rental_uris": {"android": "https://dc.lft.to/lastmile_qr_scan", "ios": "https://dc.lft.to/lastmile_qr_scan"}, "fusion_lon": 0.0, "is_reserved": 0}, {"lat": 38.924436, "fusion_lat": 0.0, "type": "electric_scooter", "name": "61dc3917ae2f992f9700c06f3d30f955", "is_disabled": 0, "bike_id": "61dc3917ae2f992f9700c06f3d30f955", "lon": -77.02974933333333, "rental_uris": {"android": "https://dc.lft.to/lastmile_qr_scan", "ios": "https://dc.lft.to/lastmile_qr_scan"}, "fusion_lon": 0.0, "is_reserved": 0}, {"lat": 38.9722045, "fusion_lat": 0.0, "type": "electric_bike", "name": "c39b7d98c21c6cdbc079fa44f5eef7f9", "is_disabled": 0, "bike_id": "c39b7d98c21c6cdbc079fa44f5eef7f9", "lon": -77.01426033333334, "rental_uris": {"android": "https://dc.lft.to/lastmile_qr_scan", "ios": "https://dc.lft.to/lastmile_qr_scan"}, "fusion_lon": 0.0, "is_reserved": 0}, {"lat": 38.89391533333333, "fusion_lat": 0.0, "type": "electric_scooter", "name": "e4d946ea71b308e1300ba4a6bcc1277e", "is_disabled": 0, "bike_id": "e4d946ea71b308e1300ba4a6bcc1277e", "lon": -77.03155683333334, "rental_uris": {"android": "https://dc.lft.to/lastmile_qr_scan", "ios": "https://dc.lft.to/lastmile_qr_scan"}, "fusion_lon": 0.0, "is_reserved": 0}, {"lat": 38.794682333333334, "fusion_lat": 0.0, "type": "electric_bike", "name": "28ccfee06e7ec163324ad5ce1db3b44a", "is_disabled": 0, "bike_id": "28ccfee06e7ec163324ad5ce1db3b44a", "lon": -76.99245583333334, "rental_uris": {"android": "https://dc.lft.to/lastmile_qr_scan", "ios": "https://dc.lft.to/lastmile_qr_scan"}, "fusion_lon": 0.0, "is_reserved": 0}, {"lat": 38.916213166666665, "fusion_lat": 0.0, "type": "electric_scooter", "name": "135cad27876f6c0f3fcb18a1d6d24bb4", "is_disabled": 0, "bike_id": "135cad27876f6c0f3fcb18a1d6d24bb4", "lon": -77.03260883333333, "rental_uris": {"android": "https://dc.lft.to/lastmile_qr_scan", "ios": "https://dc.lft.to/lastmile_qr_scan"}, "fusion_lon": 0.0, "is_reserved": 0}, {"lat": 38.943833, "fusion_lat": 0.0, "type": "electric_scooter", "name": "46c313b504d2cf3dd626d20b4029598c", "is_disabled": 0, "bike_id": "46c313b504d2cf3dd626d20b4029598c", "lon": -77.07700133333333, "rental_uris": {"android": "https://dc.lft.to/lastmile_qr_scan", "ios": "https://dc.lft.to/lastmile_qr_scan"}, "fusion_lon": 0.0, "is_reserved": 0}, {"lat": 38.92167, "fusion_lat": 0.0, "type": "electric_scooter", "name": "0cf807c72c13a0fe5ffbb433ca2b4cbe", "is_disabled": 0, "bike_id": "0cf807c72c13a0fe5ffbb433ca2b4cbe", "lon": -77.02025833333333, "rental_uris": {"android": "https://dc.lft.to/lastmile_qr_scan", "ios": "https://dc.lft.to/lastmile_qr_scan"}, "fusion_lon": 0.0, "is_reserved": 0}, {"lat": 38.915694, "fusion_lat": 0.0, "type": "electric_scooter", "name": "8608745ac871ce07383c5e1c46f28250", "is_disabled": 0, "bike_id": "8608745ac871ce07383c5e1c46f28250", "lon": -77.01193666666667, "rental_uris": {"android": "https://dc.lft.to/lastmile_qr_scan", "ios": "https://dc.lft.to/lastmile_qr_scan"}, "fusion_lon": 0.0, "is_reserved": 0}, {"lat": 38.886928833333336, "fusion_lat": 0.0, "type": "electric_bike", "name": "1120cbd22f2606327fe7dea6f514126d", "is_disabled": 0, "bike_id": "1120cbd22f2606327fe7dea6f514126d", "lon": -77.01374666666666, "rental_uris": {"android": "https://dc.lft.to/lastmile_qr_scan", "ios": "https://dc.lft.to/lastmile_qr_scan"}, "fusion_lon": 0.0, "is_reserved": 0}, {"lat": 38.90875783333333, "fusion_lat": 0.0, "type": "electric_scooter", "name": "d0f3e112c65c430ac3c7e468dc0f2a31", "is_disabled": 0, "bike_id": "d0f3e112c65c430ac3c7e468dc0f2a31", "lon": -77.040544, "rental_uris": {"android": "https://dc.lft.to/lastmile_qr_scan", "ios": "https://dc.lft.to/lastmile_qr_scan"}, "fusion_lon": 0.0, "is_reserved": 0}, {"lat": 38.866895166666666, "fusion_lat": 0.0, "type": "electric_scooter", "name": "db0dccad36255ffe9337f64c7693fc3c", "is_disabled": 0, "bike_id": "db0dccad36255ffe9337f64c7693fc3c", "lon": -76.9853915, "rental_uris": {"android": "https://dc.lft.to/lastmile_qr_scan", "ios": "https://dc.lft.to/lastmile_qr_scan"}, "fusion_lon": 0.0, "is_reserved": 0}, {"lat": 38.900597166666664, "fusion_lat": 0.0, "type": "electric_scooter", "name": "f03d122c3f26851058ea053435ecd07a", "is_disabled": 0, "bike_id": "f03d122c3f26851058ea053435ecd07a", "lon": -77.02621966666666, "rental_uris": {"android": "https://dc.lft.to/lastmile_qr_scan", "ios": "https://dc.lft.to/lastmile_qr_scan"}, "fusion_lon": 0.0, "is_reserved": 0}, {"lat": 38.8668105, "fusion_lat": 0.0, "type": "electric_scooter", "name": "e4edff9e4503c71d0f31eb4cec01aba7", "is_disabled": 0, "bike_id": "e4edff9e4503c71d0f31eb4cec01aba7", "lon": -76.98562766666667, "rental_uris": {"android": "https://dc.lft.to/lastmile_qr_scan", "ios": "https://dc.lft.to/lastmile_qr_scan"}, "fusion_lon": 0.0, "is_reserved": 0}, {"lat": 38.842923166666665, "fusion_lat": 0.0, "type": "electric_scooter", "name": "4cf58518b9a12967b7cc324c2715de25", "is_disabled": 0, "bike_id": "4cf58518b9a12967b7cc324c2715de25", "lon": -76.99943466666667, "rental_uris": {"android": "https://dc.lft.to/lastmile_qr_scan", "ios": "https://dc.lft.to/lastmile_qr_scan"}, "fusion_lon": 0.0, "is_reserved": 0}, {"lat": 38.913750666666665, "fusion_lat": 0.0, "type": "electric_scooter", "name": "54e1c81d4baf65341dfd277ab07035e8", "is_disabled": 0, "bike_id": "54e1c81d4baf65341dfd277ab07035e8", "lon": -76.98190933333333, "rental_uris": {"android": "https://dc.lft.to/lastmile_qr_scan", "ios": "https://dc.lft.to/lastmile_qr_scan"}, "fusion_lon": 0.0, "is_reserved": 0}, {"lat": 38.87653233333333, "fusion_lat": 0.0, "type": "electric_scooter", "name": "46acd8e2d77eb2b09906f0681116c75c", "is_disabled": 0, "bike_id": "46acd8e2d77eb2b09906f0681116c75c", "lon": -77.00566083333334, "rental_uris": {"android": "https://dc.lft.to/lastmile_qr_scan", "ios": "https://dc.lft.to/lastmile_qr_scan"}, "fusion_lon": 0.0, "is_reserved": 0}, {"lat": 38.930584333333336, "fusion_lat": 0.0, "type": "electric_scooter", "name": "d3fcdb28196757809f743b75e25ee66c", "is_disabled": 0, "bike_id": "d3fcdb28196757809f743b75e25ee66c", "lon": -77.02792066666666, "rental_uris": {"android": "https://dc.lft.to/lastmile_qr_scan", "ios": "https://dc.lft.to/lastmile_qr_scan"}, "fusion_lon": 0.0, "is_reserved": 0}, {"lat": 38.912664, "fusion_lat": 0.0, "type": "electric_bike", "name": "13252f7740b5bfce36a1f2c8b962aee7", "is_disabled": 0, "bike_id": "13252f7740b5bfce36a1f2c8b962aee7", "lon": -76.98316266666667, "rental_uris": {"android": "https://dc.lft.to/lastmile_qr_scan", "ios": "https://dc.lft.to/lastmile_qr_scan"}, "fusion_lon": 0.0, "is_reserved": 0}, {"lat": 38.9023975, "fusion_lat": 0.0, "type": "electric_scooter", "name": "3bf0cfca9c3ffd929641a6d910ad49af", "is_disabled": 0, "bike_id": "3bf0cfca9c3ffd929641a6d910ad49af", "lon": -76.97434416666667, "rental_uris": {"android": "https://dc.lft.to/lastmile_qr_scan", "ios": "https://dc.lft.to/lastmile_qr_scan"}, "fusion_lon": 0.0, "is_reserved": 0}, {"lat": 38.90243683333333, "fusion_lat": 0.0, "type": "electric_scooter", "name": "40f4cd05d4156aad2c908c9df7044fc5", "is_disabled": 0, "bike_id": "40f4cd05d4156aad2c908c9df7044fc5", "lon": -77.017063, "rental_uris": {"android": "https://dc.lft.to/lastmile_qr_scan", "ios": "https://dc.lft.to/lastmile_qr_scan"}, "fusion_lon": 0.0, "is_reserved": 0}, {"lat": 38.9051655, "fusion_lat": 0.0, "type": "electric_scooter", "name": "095aab5e8aa088d321fe7d56c3344c37", "is_disabled": 0, "bike_id": "095aab5e8aa088d321fe7d56c3344c37", "lon": -76.99469816666667, "rental_uris": {"android": "https://dc.lft.to/lastmile_qr_scan", "ios": "https://dc.lft.to/lastmile_qr_scan"}, "fusion_lon": 0.0, "is_reserved": 0}, {"lat": 38.9057905, "fusion_lat": 0.0, "type": "electric_scooter", "name": "7505d2e15814851e6bcc6afccb7714b8", "is_disabled": 0, "bike_id": "7505d2e15814851e6bcc6afccb7714b8", "lon": -77.04360133333333, "rental_uris": {"android": "https://dc.lft.to/lastmile_qr_scan", "ios": "https://dc.lft.to/lastmile_qr_scan"}, "fusion_lon": 0.0, "is_reserved": 0}, {"lat": 38.9244005, "fusion_lat": 0.0, "type": "electric_scooter", "name": "af2d8c5304fe489624cd457b854fcdea", "is_disabled": 0, "bike_id": "af2d8c5304fe489624cd457b854fcdea", "lon": -77.034079, "rental_uris": {"android": "https://dc.lft.to/lastmile_qr_scan", "ios": "https://dc.lft.to/lastmile_qr_scan"}, "fusion_lon": 0.0, "is_reserved": 0}, {"lat": 38.86722433333333, "fusion_lat": 0.0, "type": "electric_scooter", "name": "813257f6098b31ce8f4c298f34f19fe2", "is_disabled": 0, "bike_id": "813257f6098b31ce8f4c298f34f19fe2", "lon": -76.9869735, "rental_uris": {"android": "https://dc.lft.to/lastmile_qr_scan", "ios": "https://dc.lft.to/lastmile_qr_scan"}, "fusion_lon": 0.0, "is_reserved": 0}, {"lat": 38.89948916666667, "fusion_lat": 0.0, "type": "electric_scooter", "name": "8a93e35996f61a8f5b2b8a77d796e35c", "is_disabled": 0, "bike_id": "8a93e35996f61a8f5b2b8a77d796e35c", "lon": -77.03111633333333, "rental_uris": {"android": "https://dc.lft.to/lastmile_qr_scan", "ios": "https://dc.lft.to/lastmile_qr_scan"}, "fusion_lon": 0.0, "is_reserved": 0}, {"lat": 38.904102, "fusion_lat": 0.0, "type": "electric_scooter", "name": "31b8935222141650b7dfbe5ef7cfe36a", "is_disabled": 0, "bike_id": "31b8935222141650b7dfbe5ef7cfe36a", "lon": -76.97329433333333, "rental_uris": {"android": "https://dc.lft.to/lastmile_qr_scan", "ios": "https://dc.lft.to/lastmile_qr_scan"}, "fusion_lon": 0.0, "is_reserved": 0}, {"lat": 38.9300205, "fusion_lat": 0.0, "type": "electric_scooter", "name": "096a0a6a25af0e7592a69e1c95f9f065", "is_disabled": 0, "bike_id": "096a0a6a25af0e7592a69e1c95f9f065", "lon": -77.012993, "rental_uris": {"android": "https://dc.lft.to/lastmile_qr_scan", "ios": "https://dc.lft.to/lastmile_qr_scan"}, "fusion_lon": 0.0, "is_reserved": 0}, {"lat": 38.9216365, "fusion_lat": 0.0, "type": "electric_scooter", "name": "85d08740ada11fe3cfb77e0acf7620fa", "is_disabled": 0, "bike_id": "85d08740ada11fe3cfb77e0acf7620fa", "lon": -77.04688, "rental_uris": {"android": "https://dc.lft.to/lastmile_qr_scan", "ios": "https://dc.lft.to/lastmile_qr_scan"}, "fusion_lon": 0.0, "is_reserved": 0}, {"lat": 38.92483516666667, "fusion_lat": 0.0, "type": "electric_scooter", "name": "856df94f67dea016b59ae55e857f8a75", "is_disabled": 0, "bike_id": "856df94f67dea016b59ae55e857f8a75", "lon": -77.03175783333333, "rental_uris": {"android": "https://dc.lft.to/lastmile_qr_scan", "ios": "https://dc.lft.to/lastmile_qr_scan"}, "fusion_lon": 0.0, "is_reserved": 0}, {"lat": 38.920295833333334, "fusion_lat": 0.0, "type": "electric_scooter", "name": "7feaf66201acdcc3f6b70ea268f87169", "is_disabled": 0, "bike_id": "7feaf66201acdcc3f6b70ea268f87169", "lon": -77.00300016666667, "rental_uris": {"android": "https://dc.lft.to/lastmile_qr_scan", "ios": "https://dc.lft.to/lastmile_qr_scan"}, "fusion_lon": 0.0, "is_reserved": 0}, {"lat": 38.88486266666666, "fusion_lat": 0.0, "type": "electric_scooter", "name": "0d66d40578372d1619057d7d29981e24", "is_disabled": 0, "bike_id": "0d66d40578372d1619057d7d29981e24", "lon": -77.00709966666666, "rental_uris": {"android": "https://dc.lft.to/lastmile_qr_scan", "ios": "https://dc.lft.to/lastmile_qr_scan"}, "fusion_lon": 0.0, "is_reserved": 0}, {"lat": 38.892293333333335, "fusion_lat": 0.0, "type": "electric_scooter", "name": "cb7f090c08026ecbe4ed5bf7aefbaebe", "is_disabled": 0, "bike_id": "cb7f090c08026ecbe4ed5bf7aefbaebe", "lon": -77.0498765, "rental_uris": {"android": "https://dc.lft.to/lastmile_qr_scan", "ios": "https://dc.lft.to/lastmile_qr_scan"}, "fusion_lon": 0.0, "is_reserved": 0}, {"lat": 38.924395833333335, "fusion_lat": 0.0, "type": "electric_scooter", "name": "86ae56fdccc92d863a1a6ae225c8ed38", "is_disabled": 0, "bike_id": "86ae56fdccc92d863a1a6ae225c8ed38", "lon": -77.03991916666666, "rental_uris": {"android": "https://dc.lft.to/lastmile_qr_scan", "ios": "https://dc.lft.to/lastmile_qr_scan"}, "fusion_lon": 0.0, "is_reserved": 0}, {"lat": 38.987687666666666, "fusion_lat": 0.0, "type": "electric_bike", "name": "5c3739a29c4932b4c9203ede2a85d91c", "is_disabled": 0, "bike_id": "5c3739a29c4932b4c9203ede2a85d91c", "lon": -77.14055633333334, "rental_uris": {"android": "https://dc.lft.to/lastmile_qr_scan", "ios": "https://dc.lft.to/lastmile_qr_scan"}, "fusion_lon": 0.0, "is_reserved": 0}, {"lat": 38.88517483333333, "fusion_lat": 0.0, "type": "electric_bike", "name": "c74ecf8cac94bd695ce47ec2194eae4e", "is_disabled": 0, "bike_id": "c74ecf8cac94bd695ce47ec2194eae4e", "lon": -76.95165733333333, "rental_uris": {"android": "https://dc.lft.to/lastmile_qr_scan", "ios": "https://dc.lft.to/lastmile_qr_scan"}, "fusion_lon": 0.0, "is_reserved": 0}, {"lat": 38.8923165, "fusion_lat": 0.0, "type": "electric_scooter", "name": "9b779bbc23637dcbc4450334b1c42e3b", "is_disabled": 0, "bike_id": "9b779bbc23637dcbc4450334b1c42e3b", "lon": -77.04152216666667, "rental_uris": {"android": "https://dc.lft.to/lastmile_qr_scan", "ios": "https://dc.lft.to/lastmile_qr_scan"}, "fusion_lon": 0.0, "is_reserved": 0}, {"lat": 38.921057833333336, "fusion_lat": 0.0, "type": "electric_scooter", "name": "40242244a4484d76bad994b8f7bc79cc", "is_disabled": 0, "bike_id": "40242244a4484d76bad994b8f7bc79cc", "lon": -77.04698116666667, "rental_uris": {"android": "https://dc.lft.to/lastmile_qr_scan", "ios": "https://dc.lft.to/lastmile_qr_scan"}, "fusion_lon": 0.0, "is_reserved": 0}, {"lat": 38.865045, "fusion_lat": 0.0, "type": "electric_scooter", "name": "7d7a2d17f29b2e94664e695a06fe2a04", "is_disabled": 0, "bike_id": "7d7a2d17f29b2e94664e695a06fe2a04", "lon": -76.99002616666667, "rental_uris": {"android": "https://dc.lft.to/lastmile_qr_scan", "ios": "https://dc.lft.to/lastmile_qr_scan"}, "fusion_lon": 0.0, "is_reserved": 0}, {"lat": 38.9034925, "fusion_lat": 0.0, "type": "electric_scooter", "name": "32c98d7397ae409a6d82d9542e3aa3a3", "is_disabled": 0, "bike_id": "32c98d7397ae409a6d82d9542e3aa3a3", "lon": -77.03881483333333, "rental_uris": {"android": "https://dc.lft.to/lastmile_qr_scan", "ios": "https://dc.lft.to/lastmile_qr_scan"}, "fusion_lon": 0.0, "is_reserved": 0}, {"lat": 38.906772333333336, "fusion_lat": 0.0, "type": "electric_scooter", "name": "2853587c7893f652cb6252e19ec1346b", "is_disabled": 0, "bike_id": "2853587c7893f652cb6252e19ec1346b", "lon": -77.0381105, "rental_uris": {"android": "https://dc.lft.to/lastmile_qr_scan", "ios": "https://dc.lft.to/lastmile_qr_scan"}, "fusion_lon": 0.0, "is_reserved": 0}, {"lat": 38.8937285, "fusion_lat": 0.0, "type": "electric_scooter", "name": "8e83f7d4ef4e84c41484e9a42ad235ef", "is_disabled": 0, "bike_id": "8e83f7d4ef4e84c41484e9a42ad235ef", "lon": -76.94813516666666, "rental_uris": {"android": "https://dc.lft.to/lastmile_qr_scan", "ios": "https://dc.lft.to/lastmile_qr_scan"}, "fusion_lon": 0.0, "is_reserved": 0}, {"lat": 38.91708883333333, "fusion_lat": 0.0, "type": "electric_scooter", "name": "c9c1e487ba2bde9791935e6ac6876bf8", "is_disabled": 0, "bike_id": "c9c1e487ba2bde9791935e6ac6876bf8", "lon": -77.02787866666667, "rental_uris": {"android": "https://dc.lft.to/lastmile_qr_scan", "ios": "https://dc.lft.to/lastmile_qr_scan"}, "fusion_lon": 0.0, "is_reserved": 0}, {"lat": 38.8830245, "fusion_lat": 0.0, "type": "electric_scooter", "name": "920b891b3bd3abd2969a175e5514e165", "is_disabled": 0, "bike_id": "920b891b3bd3abd2969a175e5514e165", "lon": -76.94852516666667, "rental_uris": {"android": "https://dc.lft.to/lastmile_qr_scan", "ios": "https://dc.lft.to/lastmile_qr_scan"}, "fusion_lon": 0.0, "is_reserved": 0}, {"lat": 38.89240983333333, "fusion_lat": 0.0, "type": "electric_scooter", "name": "0450228333900af835536dd555446f4e", "is_disabled": 0, "bike_id": "0450228333900af835536dd555446f4e", "lon": -77.03209866666667, "rental_uris": {"android": "https://dc.lft.to/lastmile_qr_scan", "ios": "https://dc.lft.to/lastmile_qr_scan"}, "fusion_lon": 0.0, "is_reserved": 0}, {"lat": 38.91417383333334, "fusion_lat": 0.0, "type": "electric_scooter", "name": "73b31af4289225f795a8ee494ea31574", "is_disabled": 0, "bike_id": "73b31af4289225f795a8ee494ea31574", "lon": -77.031713, "rental_uris": {"android": "https://dc.lft.to/lastmile_qr_scan", "ios": "https://dc.lft.to/lastmile_qr_scan"}, "fusion_lon": 0.0, "is_reserved": 0}, {"lat": 38.9402285, "fusion_lat": 0.0, "type": "electric_scooter", "name": "64957a97c3ff0afe82e466520a35cf15", "is_disabled": 0, "bike_id": "64957a97c3ff0afe82e466520a35cf15", "lon": -76.9760955, "rental_uris": {"android": "https://dc.lft.to/lastmile_qr_scan", "ios": "https://dc.lft.to/lastmile_qr_scan"}, "fusion_lon": 0.0, "is_reserved": 0}, {"lat": 38.91685316666667, "fusion_lat": 0.0, "type": "electric_scooter", "name": "973623f22b76892fb1d5455dbda2854f", "is_disabled": 0, "bike_id": "973623f22b76892fb1d5455dbda2854f", "lon": -77.02807583333333, "rental_uris": {"android": "https://dc.lft.to/lastmile_qr_scan", "ios": "https://dc.lft.to/lastmile_qr_scan"}, "fusion_lon": 0.0, "is_reserved": 0}, {"lat": 38.86263733333333, "fusion_lat": 0.0, "type": "electric_bike", "name": "d051e2b222ac94e08b9f25152ead975d", "is_disabled": 0, "bike_id": "d051e2b222ac94e08b9f25152ead975d", "lon": -76.98346633333334, "rental_uris": {"android": "https://dc.lft.to/lastmile_qr_scan", "ios": "https://dc.lft.to/lastmile_qr_scan"}, "fusion_lon": 0.0, "is_reserved": 0}, {"lat": 38.919229666666666, "fusion_lat": 0.0, "type": "electric_scooter", "name": "f975f8b1a399e4bb63fe25df105c0c88", "is_disabled": 0, "bike_id": "f975f8b1a399e4bb63fe25df105c0c88", "lon": -77.03255233333333, "rental_uris": {"android": "https://dc.lft.to/lastmile_qr_scan", "ios": "https://dc.lft.to/lastmile_qr_scan"}, "fusion_lon": 0.0, "is_reserved": 0}, {"lat": 38.92307616666667, "fusion_lat": 0.0, "type": "electric_scooter", "name": "3eddb62fbff93a78a203a1119e3338cf", "is_disabled": 0, "bike_id": "3eddb62fbff93a78a203a1119e3338cf", "lon": -77.04227633333333, "rental_uris": {"android": "https://dc.lft.to/lastmile_qr_scan", "ios": "https://dc.lft.to/lastmile_qr_scan"}, "fusion_lon": 0.0, "is_reserved": 0}, {"lat": 38.9617985, "fusion_lat": 0.0, "type": "electric_scooter", "name": "874d00e5192ea9713c3bf7efef4eac62", "is_disabled": 0, "bike_id": "874d00e5192ea9713c3bf7efef4eac62", "lon": -77.02800816666667, "rental_uris": {"android": "https://dc.lft.to/lastmile_qr_scan", "ios": "https://dc.lft.to/lastmile_qr_scan"}, "fusion_lon": 0.0, "is_reserved": 0}, {"lat": 38.89509, "fusion_lat": 0.0, "type": "electric_scooter", "name": "467213dd1984c388ecfd93a56a3669fb", "is_disabled": 0, "bike_id": "467213dd1984c388ecfd93a56a3669fb", "lon": -77.0467485, "rental_uris": {"android": "https://dc.lft.to/lastmile_qr_scan", "ios": "https://dc.lft.to/lastmile_qr_scan"}, "fusion_lon": 0.0, "is_reserved": 0}, {"lat": 38.894786333333336, "fusion_lat": 0.0, "type": "electric_scooter", "name": "0e16e776b20815621d6beccec9d63df4", "is_disabled": 0, "bike_id": "0e16e776b20815621d6beccec9d63df4", "lon": -76.94859483333333, "rental_uris": {"android": "https://dc.lft.to/lastmile_qr_scan", "ios": "https://dc.lft.to/lastmile_qr_scan"}, "fusion_lon": 0.0, "is_reserved": 0}, {"lat": 38.901141, "fusion_lat": 0.0, "type": "electric_scooter", "name": "db678439c39d7f734517def8ae73971d", "is_disabled": 0, "bike_id": "db678439c39d7f734517def8ae73971d", "lon": -77.03254266666667, "rental_uris": {"android": "https://dc.lft.to/lastmile_qr_scan", "ios": "https://dc.lft.to/lastmile_qr_scan"}, "fusion_lon": 0.0, "is_reserved": 0}, {"lat": 38.911670666666666, "fusion_lat": 0.0, "type": "electric_scooter", "name": "ed8cda63cbd222e1087c2d55ff84c71c", "is_disabled": 0, "bike_id": "ed8cda63cbd222e1087c2d55ff84c71c", "lon": -77.077538, "rental_uris": {"android": "https://dc.lft.to/lastmile_qr_scan", "ios": "https://dc.lft.to/lastmile_qr_scan"}, "fusion_lon": 0.0, "is_reserved": 0}, {"lat": 38.906885, "fusion_lat": 0.0, "type": "electric_scooter", "name": "0a6ecdffddc3394726532c640c3c952c", "is_disabled": 0, "bike_id": "0a6ecdffddc3394726532c640c3c952c", "lon": -77.02369016666667, "rental_uris": {"android": "https://dc.lft.to/lastmile_qr_scan", "ios": "https://dc.lft.to/lastmile_qr_scan"}, "fusion_lon": 0.0, "is_reserved": 0}, {"lat": 38.90256083333333, "fusion_lat": 0.0, "type": "electric_scooter", "name": "bfd54f34b1841cdcc6f211250e9d1886", "is_disabled": 0, "bike_id": "bfd54f34b1841cdcc6f211250e9d1886", "lon": -77.03843866666666, "rental_uris": {"android": "https://dc.lft.to/lastmile_qr_scan", "ios": "https://dc.lft.to/lastmile_qr_scan"}, "fusion_lon": 0.0, "is_reserved": 0}, {"lat": 38.926863166666664, "fusion_lat": 0.0, "type": "electric_scooter", "name": "6d8729b61ecad1ad7a5b4212662601f0", "is_disabled": 0, "bike_id": "6d8729b61ecad1ad7a5b4212662601f0", "lon": -77.01571066666666, "rental_uris": {"android": "https://dc.lft.to/lastmile_qr_scan", "ios": "https://dc.lft.to/lastmile_qr_scan"}, "fusion_lon": 0.0, "is_reserved": 0}, {"lat": 38.908672833333334, "fusion_lat": 0.0, "type": "electric_scooter", "name": "0c370813e7abd392e406e4f53291c028", "is_disabled": 0, "bike_id": "0c370813e7abd392e406e4f53291c028", "lon": -77.02352516666667, "rental_uris": {"android": "https://dc.lft.to/lastmile_qr_scan", "ios": "https://dc.lft.to/lastmile_qr_scan"}, "fusion_lon": 0.0, "is_reserved": 0}, {"lat": 38.8662695, "fusion_lat": 0.0, "type": "electric_scooter", "name": "3eb0001984554a50a0136d69e4c4c1e5", "is_disabled": 0, "bike_id": "3eb0001984554a50a0136d69e4c4c1e5", "lon": -76.98716783333333, "rental_uris": {"android": "https://dc.lft.to/lastmile_qr_scan", "ios": "https://dc.lft.to/lastmile_qr_scan"}, "fusion_lon": 0.0, "is_reserved": 0}, {"lat": 38.93897716666667, "fusion_lat": 0.0, "type": "electric_scooter", "name": "5d644f1e7b6906f10561f9af54c9bcec", "is_disabled": 0, "bike_id": "5d644f1e7b6906f10561f9af54c9bcec", "lon": -77.0249085, "rental_uris": {"android": "https://dc.lft.to/lastmile_qr_scan", "ios": "https://dc.lft.to/lastmile_qr_scan"}, "fusion_lon": 0.0, "is_reserved": 0}, {"lat": 38.858058, "fusion_lat": 0.0, "type": "electric_scooter", "name": "4ad41f1264c5e96b5a1950021a0cc292", "is_disabled": 0, "bike_id": "4ad41f1264c5e96b5a1950021a0cc292", "lon": -76.98654033333334, "rental_uris": {"android": "https://dc.lft.to/lastmile_qr_scan", "ios": "https://dc.lft.to/lastmile_qr_scan"}, "fusion_lon": 0.0, "is_reserved": 0}, {"lat": 38.88608416666667, "fusion_lat": 0.0, "type": "electric_scooter", "name": "163adcb5c1f64f0bb80151d07300ad9d", "is_disabled": 0, "bike_id": "163adcb5c1f64f0bb80151d07300ad9d", "lon": -77.01249183333333, "rental_uris": {"android": "https://dc.lft.to/lastmile_qr_scan", "ios": "https://dc.lft.to/lastmile_qr_scan"}, "fusion_lon": 0.0, "is_reserved": 0}, {"lat": 38.90820983333333, "fusion_lat": 0.0, "type": "electric_scooter", "name": "e9167ee6ad1e51fad6cc7a5aaabf3669", "is_disabled": 0, "bike_id": "e9167ee6ad1e51fad6cc7a5aaabf3669", "lon": -77.03577583333333, "rental_uris": {"android": "https://dc.lft.to/lastmile_qr_scan", "ios": "https://dc.lft.to/lastmile_qr_scan"}, "fusion_lon": 0.0, "is_reserved": 0}, {"lat": 38.86629816666667, "fusion_lat": 0.0, "type": "electric_scooter", "name": "c07a93932f13d9a633b3be6d5b159815", "is_disabled": 0, "bike_id": "c07a93932f13d9a633b3be6d5b159815", "lon": -76.9871415, "rental_uris": {"android": "https://dc.lft.to/lastmile_qr_scan", "ios": "https://dc.lft.to/lastmile_qr_scan"}, "fusion_lon": 0.0, "is_reserved": 0}, {"lat": 38.92338433333333, "fusion_lat": 0.0, "type": "electric_scooter", "name": "6238cbcca6f6202e8dfa8f48bfb4a357", "is_disabled": 0, "bike_id": "6238cbcca6f6202e8dfa8f48bfb4a357", "lon": -77.02144516666667, "rental_uris": {"android": "https://dc.lft.to/lastmile_qr_scan", "ios": "https://dc.lft.to/lastmile_qr_scan"}, "fusion_lon": 0.0, "is_reserved": 0}, {"lat": 38.887704166666666, "fusion_lat": 0.0, "type": "electric_scooter", "name": "58d716545f51c5df13b535ccdb3b8925", "is_disabled": 0, "bike_id": "58d716545f51c5df13b535ccdb3b8925", "lon": -77.0262385, "rental_uris": {"android": "https://dc.lft.to/lastmile_qr_scan", "ios": "https://dc.lft.to/lastmile_qr_scan"}, "fusion_lon": 0.0, "is_reserved": 0}, {"lat": 38.92360133333333, "fusion_lat": 0.0, "type": "electric_scooter", "name": "2d32b5da94444f8122cc20c8b8c2f4c5", "is_disabled": 0, "bike_id": "2d32b5da94444f8122cc20c8b8c2f4c5", "lon": -77.05045316666667, "rental_uris": {"android": "https://dc.lft.to/lastmile_qr_scan", "ios": "https://dc.lft.to/lastmile_qr_scan"}, "fusion_lon": 0.0, "is_reserved": 0}, {"lat": 38.927274833333335, "fusion_lat": 0.0, "type": "electric_scooter", "name": "360910998cc27ae5a51e088af37568b9", "is_disabled": 0, "bike_id": "360910998cc27ae5a51e088af37568b9", "lon": -77.03238566666667, "rental_uris": {"android": "https://dc.lft.to/lastmile_qr_scan", "ios": "https://dc.lft.to/lastmile_qr_scan"}, "fusion_lon": 0.0, "is_reserved": 0}, {"lat": 38.908250333333335, "fusion_lat": 0.0, "type": "electric_scooter", "name": "a87d1b18ef24e67c27ac1ff982fb7597", "is_disabled": 0, "bike_id": "a87d1b18ef24e67c27ac1ff982fb7597", "lon": -77.03961516666666, "rental_uris": {"android": "https://dc.lft.to/lastmile_qr_scan", "ios": "https://dc.lft.to/lastmile_qr_scan"}, "fusion_lon": 0.0, "is_reserved": 0}, {"lat": 38.885102, "fusion_lat": 0.0, "type": "electric_scooter", "name": "0e75170dab4647eb61bf455f54fe023e", "is_disabled": 0, "bike_id": "0e75170dab4647eb61bf455f54fe023e", "lon": -77.00447733333333, "rental_uris": {"android": "https://dc.lft.to/lastmile_qr_scan", "ios": "https://dc.lft.to/lastmile_qr_scan"}, "fusion_lon": 0.0, "is_reserved": 0}, {"lat": 38.8668405, "fusion_lat": 0.0, "type": "electric_scooter", "name": "1a24f2cf255362907761f9444cc3173c", "is_disabled": 0, "bike_id": "1a24f2cf255362907761f9444cc3173c", "lon": -76.98568816666666, "rental_uris": {"android": "https://dc.lft.to/lastmile_qr_scan", "ios": "https://dc.lft.to/lastmile_qr_scan"}, "fusion_lon": 0.0, "is_reserved": 0}, {"lat": 38.91868216666667, "fusion_lat": 0.0, "type": "electric_scooter", "name": "9deae5a77d0b688304c1eb49b419a343", "is_disabled": 0, "bike_id": "9deae5a77d0b688304c1eb49b419a343", "lon": -76.96330283333333, "rental_uris": {"android": "https://dc.lft.to/lastmile_qr_scan", "ios": "https://dc.lft.to/lastmile_qr_scan"}, "fusion_lon": 0.0, "is_reserved": 0}, {"lat": 38.914175666666665, "fusion_lat": 0.0, "type": "electric_scooter", "name": "ebbbdfce8abdddba7920abaae0af6e24", "is_disabled": 0, "bike_id": "ebbbdfce8abdddba7920abaae0af6e24", "lon": -77.02211316666667, "rental_uris": {"android": "https://dc.lft.to/lastmile_qr_scan", "ios": "https://dc.lft.to/lastmile_qr_scan"}, "fusion_lon": 0.0, "is_reserved": 0}, {"lat": 38.87578083333333, "fusion_lat": 0.0, "type": "electric_bike", "name": "85bb41c63f6b72090e593fce87013e9b", "is_disabled": 0, "bike_id": "85bb41c63f6b72090e593fce87013e9b", "lon": -77.23411883333333, "rental_uris": {"android": "https://dc.lft.to/lastmile_qr_scan", "ios": "https://dc.lft.to/lastmile_qr_scan"}, "fusion_lon": 0.0, "is_reserved": 0}, {"lat": 38.911178666666665, "fusion_lat": 0.0, "type": "electric_scooter", "name": "c5010943515e9df050f4d25635442094", "is_disabled": 0, "bike_id": "c5010943515e9df050f4d25635442094", "lon": -77.04368583333333, "rental_uris": {"android": "https://dc.lft.to/lastmile_qr_scan", "ios": "https://dc.lft.to/lastmile_qr_scan"}, "fusion_lon": 0.0, "is_reserved": 0}, {"lat": 38.91051733333333, "fusion_lat": 0.0, "type": "electric_scooter", "name": "1914f123b72da750a02c5d1c8cb31455", "is_disabled": 0, "bike_id": "1914f123b72da750a02c5d1c8cb31455", "lon": -77.043435, "rental_uris": {"android": "https://dc.lft.to/lastmile_qr_scan", "ios": "https://dc.lft.to/lastmile_qr_scan"}, "fusion_lon": 0.0, "is_reserved": 0}, {"lat": 38.916108666666666, "fusion_lat": 0.0, "type": "electric_scooter", "name": "ba2e66a9dd0bdf7933720ca54028412d", "is_disabled": 0, "bike_id": "ba2e66a9dd0bdf7933720ca54028412d", "lon": -77.0310335, "rental_uris": {"android": "https://dc.lft.to/lastmile_qr_scan", "ios": "https://dc.lft.to/lastmile_qr_scan"}, "fusion_lon": 0.0, "is_reserved": 0}, {"lat": 38.89368133333333, "fusion_lat": 0.0, "type": "electric_scooter", "name": "982092617adf3bdb6d959e4c11ec61b8", "is_disabled": 0, "bike_id": "982092617adf3bdb6d959e4c11ec61b8", "lon": -76.947009, "rental_uris": {"android": "https://dc.lft.to/lastmile_qr_scan", "ios": "https://dc.lft.to/lastmile_qr_scan"}, "fusion_lon": 0.0, "is_reserved": 0}, {"lat": 38.86060633333334, "fusion_lat": 0.0, "type": "electric_scooter", "name": "a5f85cec6378f637860213e4335ea4ab", "is_disabled": 0, "bike_id": "a5f85cec6378f637860213e4335ea4ab", "lon": -76.98503433333333, "rental_uris": {"android": "https://dc.lft.to/lastmile_qr_scan", "ios": "https://dc.lft.to/lastmile_qr_scan"}, "fusion_lon": 0.0, "is_reserved": 0}, {"lat": 38.902762, "fusion_lat": 0.0, "type": "electric_scooter", "name": "1d22d57b365498bfe2744507e22c57a2", "is_disabled": 0, "bike_id": "1d22d57b365498bfe2744507e22c57a2", "lon": -77.029995, "rental_uris": {"android": "https://dc.lft.to/lastmile_qr_scan", "ios": "https://dc.lft.to/lastmile_qr_scan"}, "fusion_lon": 0.0, "is_reserved": 0}, {"lat": 38.872910833333336, "fusion_lat": 0.0, "type": "electric_scooter", "name": "2fa6deb0a4d7aaba6c19045c4fcc2e3b", "is_disabled": 0, "bike_id": "2fa6deb0a4d7aaba6c19045c4fcc2e3b", "lon": -77.00986966666666, "rental_uris": {"android": "https://dc.lft.to/lastmile_qr_scan", "ios": "https://dc.lft.to/lastmile_qr_scan"}, "fusion_lon": 0.0, "is_reserved": 0}, {"lat": 38.92619716666667, "fusion_lat": 0.0, "type": "electric_scooter", "name": "5f3f602fc9b99b9a4bf7745d4406b2ba", "is_disabled": 0, "bike_id": "5f3f602fc9b99b9a4bf7745d4406b2ba", "lon": -77.04323, "rental_uris": {"android": "https://dc.lft.to/lastmile_qr_scan", "ios": "https://dc.lft.to/lastmile_qr_scan"}, "fusion_lon": 0.0, "is_reserved": 0}, {"lat": 38.89465783333333, "fusion_lat": 0.0, "type": "electric_scooter", "name": "e068a589e84ad9e42646894b356907a0", "is_disabled": 0, "bike_id": "e068a589e84ad9e42646894b356907a0", "lon": -76.94955333333333, "rental_uris": {"android": "https://dc.lft.to/lastmile_qr_scan", "ios": "https://dc.lft.to/lastmile_qr_scan"}, "fusion_lon": 0.0, "is_reserved": 0}, {"lat": 38.9170905, "fusion_lat": 0.0, "type": "electric_scooter", "name": "dde68f34d717cd7f0692751d3a098825", "is_disabled": 0, "bike_id": "dde68f34d717cd7f0692751d3a098825", "lon": -77.02457216666667, "rental_uris": {"android": "https://dc.lft.to/lastmile_qr_scan", "ios": "https://dc.lft.to/lastmile_qr_scan"}, "fusion_lon": 0.0, "is_reserved": 0}, {"lat": 38.81983233333333, "fusion_lat": 0.0, "type": "electric_bike", "name": "d3700378c5171e27fb07c8c1fcd3d5c6", "is_disabled": 0, "bike_id": "d3700378c5171e27fb07c8c1fcd3d5c6", "lon": -76.99812433333334, "rental_uris": {"android": "https://dc.lft.to/lastmile_qr_scan", "ios": "https://dc.lft.to/lastmile_qr_scan"}, "fusion_lon": 0.0, "is_reserved": 0}, {"lat": 38.86628433333333, "fusion_lat": 0.0, "type": "electric_scooter", "name": "f2fb42ab6fc1a577006a843049c039d5", "is_disabled": 0, "bike_id": "f2fb42ab6fc1a577006a843049c039d5", "lon": -76.987142, "rental_uris": {"android": "https://dc.lft.to/lastmile_qr_scan", "ios": "https://dc.lft.to/lastmile_qr_scan"}, "fusion_lon": 0.0, "is_reserved": 0}, {"lat": 38.93429966666667, "fusion_lat": 0.0, "type": "electric_scooter", "name": "878c995a718e59306a4bca5679598f1b", "is_disabled": 0, "bike_id": "878c995a718e59306a4bca5679598f1b", "lon": -77.0399825, "rental_uris": {"android": "https://dc.lft.to/lastmile_qr_scan", "ios": "https://dc.lft.to/lastmile_qr_scan"}, "fusion_lon": 0.0, "is_reserved": 0}, {"lat": 38.92861583333333, "fusion_lat": 0.0, "type": "electric_scooter", "name": "4ca8a32d42a001c06ed730d31eebd074", "is_disabled": 0, "bike_id": "4ca8a32d42a001c06ed730d31eebd074", "lon": -77.037379, "rental_uris": {"android": "https://dc.lft.to/lastmile_qr_scan", "ios": "https://dc.lft.to/lastmile_qr_scan"}, "fusion_lon": 0.0, "is_reserved": 0}, {"lat": 38.863728333333334, "fusion_lat": 0.0, "type": "electric_scooter", "name": "a844c65536956ed3a186f6a9e8eb0bb5", "is_disabled": 0, "bike_id": "a844c65536956ed3a186f6a9e8eb0bb5", "lon": -76.9906055, "rental_uris": {"android": "https://dc.lft.to/lastmile_qr_scan", "ios": "https://dc.lft.to/lastmile_qr_scan"}, "fusion_lon": 0.0, "is_reserved": 0}, {"lat": 38.924677, "fusion_lat": 0.0, "type": "electric_scooter", "name": "0a389b31f3b332858c84828aaa0e5c73", "is_disabled": 0, "bike_id": "0a389b31f3b332858c84828aaa0e5c73", "lon": -77.02209983333333, "rental_uris": {"android": "https://dc.lft.to/lastmile_qr_scan", "ios": "https://dc.lft.to/lastmile_qr_scan"}, "fusion_lon": 0.0, "is_reserved": 0}, {"lat": 38.91575983333333, "fusion_lat": 0.0, "type": "electric_scooter", "name": "68205fbe4e9809ac2f35e967f36431c7", "is_disabled": 0, "bike_id": "68205fbe4e9809ac2f35e967f36431c7", "lon": -77.01994683333334, "rental_uris": {"android": "https://dc.lft.to/lastmile_qr_scan", "ios": "https://dc.lft.to/lastmile_qr_scan"}, "fusion_lon": 0.0, "is_reserved": 0}, {"lat": 38.91104433333334, "fusion_lat": 0.0, "type": "electric_scooter", "name": "908a54c1579ce02017f690a6ba2b8888", "is_disabled": 0, "bike_id": "908a54c1579ce02017f690a6ba2b8888", "lon": -77.03841416666667, "rental_uris": {"android": "https://dc.lft.to/lastmile_qr_scan", "ios": "https://dc.lft.to/lastmile_qr_scan"}, "fusion_lon": 0.0, "is_reserved": 0}, {"lat": 38.923236, "fusion_lat": 0.0, "type": "electric_scooter", "name": "a78904555645d565ccef474ab99557f9", "is_disabled": 0, "bike_id": "a78904555645d565ccef474ab99557f9", "lon": -77.0212825, "rental_uris": {"android": "https://dc.lft.to/lastmile_qr_scan", "ios": "https://dc.lft.to/lastmile_qr_scan"}, "fusion_lon": 0.0, "is_reserved": 0}, {"lat": 38.892282, "fusion_lat": 0.0, "type": "electric_scooter", "name": "ef7295938c2cb9f30046e9bd0cfd49e2", "is_disabled": 0, "bike_id": "ef7295938c2cb9f30046e9bd0cfd49e2", "lon": -77.0320915, "rental_uris": {"android": "https://dc.lft.to/lastmile_qr_scan", "ios": "https://dc.lft.to/lastmile_qr_scan"}, "fusion_lon": 0.0, "is_reserved": 0}, {"lat": 38.896213, "fusion_lat": 0.0, "type": "electric_scooter", "name": "ea0169bf4073213f7ccf9d980e79d26b", "is_disabled": 0, "bike_id": "ea0169bf4073213f7ccf9d980e79d26b", "lon": -77.03172583333334, "rental_uris": {"android": "https://dc.lft.to/lastmile_qr_scan", "ios": "https://dc.lft.to/lastmile_qr_scan"}, "fusion_lon": 0.0, "is_reserved": 0}, {"lat": 38.9047975, "fusion_lat": 0.0, "type": "electric_scooter", "name": "6419735cd7d5c69390590f2ae0017e97", "is_disabled": 0, "bike_id": "6419735cd7d5c69390590f2ae0017e97", "lon": -77.00206116666666, "rental_uris": {"android": "https://dc.lft.to/lastmile_qr_scan", "ios": "https://dc.lft.to/lastmile_qr_scan"}, "fusion_lon": 0.0, "is_reserved": 0}, {"lat": 38.844401, "fusion_lat": 0.0, "type": "electric_scooter", "name": "2fe78d91442cdac44f2428e72d8b7e43", "is_disabled": 0, "bike_id": "2fe78d91442cdac44f2428e72d8b7e43", "lon": -76.9977585, "rental_uris": {"android": "https://dc.lft.to/lastmile_qr_scan", "ios": "https://dc.lft.to/lastmile_qr_scan"}, "fusion_lon": 0.0, "is_reserved": 0}, {"lat": 38.91172483333333, "fusion_lat": 0.0, "type": "electric_scooter", "name": "3c676c077fcfa2b242dae0c31a72538b", "is_disabled": 0, "bike_id": "3c676c077fcfa2b242dae0c31a72538b", "lon": -77.03182633333333, "rental_uris": {"android": "https://dc.lft.to/lastmile_qr_scan", "ios": "https://dc.lft.to/lastmile_qr_scan"}, "fusion_lon": 0.0, "is_reserved": 0}, {"lat": 38.917206, "fusion_lat": 0.0, "type": "electric_scooter", "name": "40a8b22b630f5c514bb9f430cdbb1d4b", "is_disabled": 0, "bike_id": "40a8b22b630f5c514bb9f430cdbb1d4b", "lon": -77.02703666666666, "rental_uris": {"android": "https://dc.lft.to/lastmile_qr_scan", "ios": "https://dc.lft.to/lastmile_qr_scan"}, "fusion_lon": 0.0, "is_reserved": 0}, {"lat": 38.92407983333333, "fusion_lat": 0.0, "type": "electric_scooter", "name": "14e46915ec2850545ad438dd3c3041ca", "is_disabled": 0, "bike_id": "14e46915ec2850545ad438dd3c3041ca", "lon": -77.05169016666666, "rental_uris": {"android": "https://dc.lft.to/lastmile_qr_scan", "ios": "https://dc.lft.to/lastmile_qr_scan"}, "fusion_lon": 0.0, "is_reserved": 0}, {"lat": 38.917261333333336, "fusion_lat": 0.0, "type": "electric_scooter", "name": "1165eb73f60a8bc724de88d891b713f5", "is_disabled": 0, "bike_id": "1165eb73f60a8bc724de88d891b713f5", "lon": -77.02962533333333, "rental_uris": {"android": "https://dc.lft.to/lastmile_qr_scan", "ios": "https://dc.lft.to/lastmile_qr_scan"}, "fusion_lon": 0.0, "is_reserved": 0}, {"lat": 38.90039133333333, "fusion_lat": 0.0, "type": "electric_scooter", "name": "f4e96aa5471256125e2ef064bd32f0a2", "is_disabled": 0, "bike_id": "f4e96aa5471256125e2ef064bd32f0a2", "lon": -76.94435583333333, "rental_uris": {"android": "https://dc.lft.to/lastmile_qr_scan", "ios": "https://dc.lft.to/lastmile_qr_scan"}, "fusion_lon": 0.0, "is_reserved": 0}, {"lat": 38.943027, "fusion_lat": 0.0, "type": "electric_scooter", "name": "9b82d169ff786f78d34381d33ff7c57a", "is_disabled": 0, "bike_id": "9b82d169ff786f78d34381d33ff7c57a", "lon": -77.02743383333333, "rental_uris": {"android": "https://dc.lft.to/lastmile_qr_scan", "ios": "https://dc.lft.to/lastmile_qr_scan"}, "fusion_lon": 0.0, "is_reserved": 0}, {"lat": 38.994240833333336, "fusion_lat": 0.0, "type": "electric_bike", "name": "f728940dbf351a68bec1dc0826d2ec38", "is_disabled": 0, "bike_id": "f728940dbf351a68bec1dc0826d2ec38", "lon": -77.0769555, "rental_uris": {"android": "https://dc.lft.to/lastmile_qr_scan", "ios": "https://dc.lft.to/lastmile_qr_scan"}, "fusion_lon": 0.0, "is_reserved": 0}, {"lat": 38.9224645, "fusion_lat": 0.0, "type": "electric_scooter", "name": "bf9cd6f7fd493488a80de567f2670e68", "is_disabled": 0, "bike_id": "bf9cd6f7fd493488a80de567f2670e68", "lon": -77.04252783333334, "rental_uris": {"android": "https://dc.lft.to/lastmile_qr_scan", "ios": "https://dc.lft.to/lastmile_qr_scan"}, "fusion_lon": 0.0, "is_reserved": 0}, {"lat": 38.903950333333334, "fusion_lat": 0.0, "type": "electric_scooter", "name": "b72ba8e037ba90c2d8e6ac720e291b73", "is_disabled": 0, "bike_id": "b72ba8e037ba90c2d8e6ac720e291b73", "lon": -77.03442416666667, "rental_uris": {"android": "https://dc.lft.to/lastmile_qr_scan", "ios": "https://dc.lft.to/lastmile_qr_scan"}, "fusion_lon": 0.0, "is_reserved": 0}, {"lat": 38.898775666666666, "fusion_lat": 0.0, "type": "electric_scooter", "name": "0f497837787eb9d12d2937fe532c1077", "is_disabled": 0, "bike_id": "0f497837787eb9d12d2937fe532c1077", "lon": -77.04673216666667, "rental_uris": {"android": "https://dc.lft.to/lastmile_qr_scan", "ios": "https://dc.lft.to/lastmile_qr_scan"}, "fusion_lon": 0.0, "is_reserved": 0}, {"lat": 38.930989833333335, "fusion_lat": 0.0, "type": "electric_scooter", "name": "289833e0eb2606c3836149df26f5c5f1", "is_disabled": 0, "bike_id": "289833e0eb2606c3836149df26f5c5f1", "lon": -77.02412933333333, "rental_uris": {"android": "https://dc.lft.to/lastmile_qr_scan", "ios": "https://dc.lft.to/lastmile_qr_scan"}, "fusion_lon": 0.0, "is_reserved": 0}, {"lat": 38.900160166666666, "fusion_lat": 0.0, "type": "electric_scooter", "name": "2b372e312ab3d5283319b69490b983e0", "is_disabled": 0, "bike_id": "2b372e312ab3d5283319b69490b983e0", "lon": -76.98697116666666, "rental_uris": {"android": "https://dc.lft.to/lastmile_qr_scan", "ios": "https://dc.lft.to/lastmile_qr_scan"}, "fusion_lon": 0.0, "is_reserved": 0}, {"lat": 38.92175433333333, "fusion_lat": 0.0, "type": "electric_scooter", "name": "f3984c62e329a295ea664501b126cbc3", "is_disabled": 0, "bike_id": "f3984c62e329a295ea664501b126cbc3", "lon": -77.0382465, "rental_uris": {"android": "https://dc.lft.to/lastmile_qr_scan", "ios": "https://dc.lft.to/lastmile_qr_scan"}, "fusion_lon": 0.0, "is_reserved": 0}, {"lat": 38.89233183333333, "fusion_lat": 0.0, "type": "electric_scooter", "name": "ef7ebfeaec2ea55a5a32fc883bc5f84f", "is_disabled": 0, "bike_id": "ef7ebfeaec2ea55a5a32fc883bc5f84f", "lon": -77.0499855, "rental_uris": {"android": "https://dc.lft.to/lastmile_qr_scan", "ios": "https://dc.lft.to/lastmile_qr_scan"}, "fusion_lon": 0.0, "is_reserved": 0}, {"lat": 38.90033316666667, "fusion_lat": 0.0, "type": "electric_scooter", "name": "22e70ebcd6eed10f255d1a854d194dd0", "is_disabled": 0, "bike_id": "22e70ebcd6eed10f255d1a854d194dd0", "lon": -77.0438095, "rental_uris": {"android": "https://dc.lft.to/lastmile_qr_scan", "ios": "https://dc.lft.to/lastmile_qr_scan"}, "fusion_lon": 0.0, "is_reserved": 0}, {"lat": 38.916786333333334, "fusion_lat": 0.0, "type": "electric_scooter", "name": "d8b20d2cdd05365bce8f7b17bfd3eb3e", "is_disabled": 0, "bike_id": "d8b20d2cdd05365bce8f7b17bfd3eb3e", "lon": -77.02392816666666, "rental_uris": {"android": "https://dc.lft.to/lastmile_qr_scan", "ios": "https://dc.lft.to/lastmile_qr_scan"}, "fusion_lon": 0.0, "is_reserved": 0}, {"lat": 38.84439233333333, "fusion_lat": 0.0, "type": "electric_scooter", "name": "7cb2522c247d226e96555237d2887618", "is_disabled": 0, "bike_id": "7cb2522c247d226e96555237d2887618", "lon": -76.99779533333333, "rental_uris": {"android": "https://dc.lft.to/lastmile_qr_scan", "ios": "https://dc.lft.to/lastmile_qr_scan"}, "fusion_lon": 0.0, "is_reserved": 0}, {"lat": 38.9434675, "fusion_lat": 0.0, "type": "electric_scooter", "name": "3b6631f4ae8d49a06b76142c3d6ab8bc", "is_disabled": 0, "bike_id": "3b6631f4ae8d49a06b76142c3d6ab8bc", "lon": -77.062989, "rental_uris": {"android": "https://dc.lft.to/lastmile_qr_scan", "ios": "https://dc.lft.to/lastmile_qr_scan"}, "fusion_lon": 0.0, "is_reserved": 0}, {"lat": 39.0844265, "fusion_lat": 0.0, "type": "electric_bike", "name": "d73b00d4d7bfefeb32b5878aea973988", "is_disabled": 0, "bike_id": "d73b00d4d7bfefeb32b5878aea973988", "lon": -76.95192533333334, "rental_uris": {"android": "https://dc.lft.to/lastmile_qr_scan", "ios": "https://dc.lft.to/lastmile_qr_scan"}, "fusion_lon": 0.0, "is_reserved": 0}, {"lat": 38.92764783333333, "fusion_lat": 0.0, "type": "electric_scooter", "name": "1952136c61075a25f76454c587a2649a", "is_disabled": 0, "bike_id": "1952136c61075a25f76454c587a2649a", "lon": -77.02898116666667, "rental_uris": {"android": "https://dc.lft.to/lastmile_qr_scan", "ios": "https://dc.lft.to/lastmile_qr_scan"}, "fusion_lon": 0.0, "is_reserved": 0}, {"lat": 38.919666666666664, "fusion_lat": 0.0, "type": "electric_scooter", "name": "567191e5e415146b53e0267bbd653469", "is_disabled": 0, "bike_id": "567191e5e415146b53e0267bbd653469", "lon": -77.04492666666667, "rental_uris": {"android": "https://dc.lft.to/lastmile_qr_scan", "ios": "https://dc.lft.to/lastmile_qr_scan"}, "fusion_lon": 0.0, "is_reserved": 0}, {"lat": 38.923791, "fusion_lat": 0.0, "type": "electric_scooter", "name": "8863e3b9b208b0c921ec87dce4d82d5a", "is_disabled": 0, "bike_id": "8863e3b9b208b0c921ec87dce4d82d5a", "lon": -77.05151366666666, "rental_uris": {"android": "https://dc.lft.to/lastmile_qr_scan", "ios": "https://dc.lft.to/lastmile_qr_scan"}, "fusion_lon": 0.0, "is_reserved": 0}, {"lat": 38.91398866666667, "fusion_lat": 0.0, "type": "electric_scooter", "name": "f71b303197a0c35bbbcbb814cf69b407", "is_disabled": 0, "bike_id": "f71b303197a0c35bbbcbb814cf69b407", "lon": -77.01797516666667, "rental_uris": {"android": "https://dc.lft.to/lastmile_qr_scan", "ios": "https://dc.lft.to/lastmile_qr_scan"}, "fusion_lon": 0.0, "is_reserved": 0}, {"lat": 38.9540755, "fusion_lat": 0.0, "type": "electric_scooter", "name": "3053cbf63898938c2eb6e6c5afc36f34", "is_disabled": 0, "bike_id": "3053cbf63898938c2eb6e6c5afc36f34", "lon": -77.02743333333333, "rental_uris": {"android": "https://dc.lft.to/lastmile_qr_scan", "ios": "https://dc.lft.to/lastmile_qr_scan"}, "fusion_lon": 0.0, "is_reserved": 0}, {"lat": 38.92220833333333, "fusion_lat": 0.0, "type": "electric_scooter", "name": "ecf906f228a0e5becd68b6450de4dfeb", "is_disabled": 0, "bike_id": "ecf906f228a0e5becd68b6450de4dfeb", "lon": -77.04241583333334, "rental_uris": {"android": "https://dc.lft.to/lastmile_qr_scan", "ios": "https://dc.lft.to/lastmile_qr_scan"}, "fusion_lon": 0.0, "is_reserved": 0}, {"lat": 38.92866766666667, "fusion_lat": 0.0, "type": "electric_scooter", "name": "3d197af3d6145f4a1a06133344d8ae58", "is_disabled": 0, "bike_id": "3d197af3d6145f4a1a06133344d8ae58", "lon": -77.03219433333334, "rental_uris": {"android": "https://dc.lft.to/lastmile_qr_scan", "ios": "https://dc.lft.to/lastmile_qr_scan"}, "fusion_lon": 0.0, "is_reserved": 0}, {"lat": 38.857586166666664, "fusion_lat": 0.0, "type": "electric_scooter", "name": "9db2e4a9866bcfdc9aa5bfbedd37edc4", "is_disabled": 0, "bike_id": "9db2e4a9866bcfdc9aa5bfbedd37edc4", "lon": -76.99288766666666, "rental_uris": {"android": "https://dc.lft.to/lastmile_qr_scan", "ios": "https://dc.lft.to/lastmile_qr_scan"}, "fusion_lon": 0.0, "is_reserved": 0}, {"lat": 38.92655166666667, "fusion_lat": 0.0, "type": "electric_scooter", "name": "4715033dbdd24958edd5a55e5890f871", "is_disabled": 0, "bike_id": "4715033dbdd24958edd5a55e5890f871", "lon": -77.0431685, "rental_uris": {"android": "https://dc.lft.to/lastmile_qr_scan", "ios": "https://dc.lft.to/lastmile_qr_scan"}, "fusion_lon": 0.0, "is_reserved": 0}, {"lat": 38.92692816666667, "fusion_lat": 0.0, "type": "electric_scooter", "name": "f04e861d67537275ca94ebd911526f5e", "is_disabled": 0, "bike_id": "f04e861d67537275ca94ebd911526f5e", "lon": -77.03561733333333, "rental_uris": {"android": "https://dc.lft.to/lastmile_qr_scan", "ios": "https://dc.lft.to/lastmile_qr_scan"}, "fusion_lon": 0.0, "is_reserved": 0}, {"lat": 38.90732533333333, "fusion_lat": 0.0, "type": "electric_scooter", "name": "c56046f0cf12a041f45338180de524aa", "is_disabled": 0, "bike_id": "c56046f0cf12a041f45338180de524aa", "lon": -77.0426915, "rental_uris": {"android": "https://dc.lft.to/lastmile_qr_scan", "ios": "https://dc.lft.to/lastmile_qr_scan"}, "fusion_lon": 0.0, "is_reserved": 0}, {"lat": 38.842554666666665, "fusion_lat": 0.0, "type": "electric_bike", "name": "f11f1f7f9ace958a4598080112c897a3", "is_disabled": 0, "bike_id": "f11f1f7f9ace958a4598080112c897a3", "lon": -77.07882066666667, "rental_uris": {"android": "https://dc.lft.to/lastmile_qr_scan", "ios": "https://dc.lft.to/lastmile_qr_scan"}, "fusion_lon": 0.0, "is_reserved": 0}, {"lat": 38.85807283333333, "fusion_lat": 0.0, "type": "electric_scooter", "name": "e15e58bf6e6b3caeec6d39788344c86a", "is_disabled": 0, "bike_id": "e15e58bf6e6b3caeec6d39788344c86a", "lon": -76.98652916666667, "rental_uris": {"android": "https://dc.lft.to/lastmile_qr_scan", "ios": "https://dc.lft.to/lastmile_qr_scan"}, "fusion_lon": 0.0, "is_reserved": 0}, {"lat": 38.906483333333334, "fusion_lat": 0.0, "type": "electric_scooter", "name": "195f3659b28cf63d3083e64bf174ae58", "is_disabled": 0, "bike_id": "195f3659b28cf63d3083e64bf174ae58", "lon": -76.98373783333334, "rental_uris": {"android": "https://dc.lft.to/lastmile_qr_scan", "ios": "https://dc.lft.to/lastmile_qr_scan"}, "fusion_lon": 0.0, "is_reserved": 0}, {"lat": 38.91758083333333, "fusion_lat": 0.0, "type": "electric_scooter", "name": "7e4ea7dbb691f9ea8aceb90411f5c6d9", "is_disabled": 0, "bike_id": "7e4ea7dbb691f9ea8aceb90411f5c6d9", "lon": -77.03181933333333, "rental_uris": {"android": "https://dc.lft.to/lastmile_qr_scan", "ios": "https://dc.lft.to/lastmile_qr_scan"}, "fusion_lon": 0.0, "is_reserved": 0}, {"lat": 38.914171, "fusion_lat": 0.0, "type": "electric_scooter", "name": "44fa908f38575d86fd996b3faa9d9814", "is_disabled": 0, "bike_id": "44fa908f38575d86fd996b3faa9d9814", "lon": -77.02214483333333, "rental_uris": {"android": "https://dc.lft.to/lastmile_qr_scan", "ios": "https://dc.lft.to/lastmile_qr_scan"}, "fusion_lon": 0.0, "is_reserved": 0}, {"lat": 38.89744433333333, "fusion_lat": 0.0, "type": "electric_scooter", "name": "be9cf201f23256f51b5a561a521300f2", "is_disabled": 0, "bike_id": "be9cf201f23256f51b5a561a521300f2", "lon": -77.05023833333334, "rental_uris": {"android": "https://dc.lft.to/lastmile_qr_scan", "ios": "https://dc.lft.to/lastmile_qr_scan"}, "fusion_lon": 0.0, "is_reserved": 0}, {"lat": 38.93330433333333, "fusion_lat": 0.0, "type": "electric_scooter", "name": "c5eeeab600bde11c222ed786614c49e9", "is_disabled": 0, "bike_id": "c5eeeab600bde11c222ed786614c49e9", "lon": -77.0326355, "rental_uris": {"android": "https://dc.lft.to/lastmile_qr_scan", "ios": "https://dc.lft.to/lastmile_qr_scan"}, "fusion_lon": 0.0, "is_reserved": 0}, {"lat": 38.8824745, "fusion_lat": 0.0, "type": "electric_bike", "name": "d3a5d65fc328a364c39fc24a6492d848", "is_disabled": 0, "bike_id": "d3a5d65fc328a364c39fc24a6492d848", "lon": -76.96254433333333, "rental_uris": {"android": "https://dc.lft.to/lastmile_qr_scan", "ios": "https://dc.lft.to/lastmile_qr_scan"}, "fusion_lon": 0.0, "is_reserved": 0}, {"lat": 38.91329566666667, "fusion_lat": 0.0, "type": "electric_scooter", "name": "c771e9271406db2fa463573150c6146a", "is_disabled": 0, "bike_id": "c771e9271406db2fa463573150c6146a", "lon": -77.03182616666666, "rental_uris": {"android": "https://dc.lft.to/lastmile_qr_scan", "ios": "https://dc.lft.to/lastmile_qr_scan"}, "fusion_lon": 0.0, "is_reserved": 0}, {"lat": 38.9069285, "fusion_lat": 0.0, "type": "electric_scooter", "name": "18436e88bc92fe8d798c87e46a3d1e2f", "is_disabled": 0, "bike_id": "18436e88bc92fe8d798c87e46a3d1e2f", "lon": -77.023823, "rental_uris": {"android": "https://dc.lft.to/lastmile_qr_scan", "ios": "https://dc.lft.to/lastmile_qr_scan"}, "fusion_lon": 0.0, "is_reserved": 0}, {"lat": 38.89198666666667, "fusion_lat": 0.0, "type": "electric_scooter", "name": "171c3c1a38604d7361a385d643e2f31d", "is_disabled": 0, "bike_id": "171c3c1a38604d7361a385d643e2f31d", "lon": -77.02376066666666, "rental_uris": {"android": "https://dc.lft.to/lastmile_qr_scan", "ios": "https://dc.lft.to/lastmile_qr_scan"}, "fusion_lon": 0.0, "is_reserved": 0}, {"lat": 38.884077833333336, "fusion_lat": 0.0, "type": "electric_scooter", "name": "87ba258a6f0cc1f93d1c0e234c6d3abc", "is_disabled": 0, "bike_id": "87ba258a6f0cc1f93d1c0e234c6d3abc", "lon": -76.94821833333333, "rental_uris": {"android": "https://dc.lft.to/lastmile_qr_scan", "ios": "https://dc.lft.to/lastmile_qr_scan"}, "fusion_lon": 0.0, "is_reserved": 0}, {"lat": 38.9350045, "fusion_lat": 0.0, "type": "electric_scooter", "name": "181dd4d9a023268ba249b7993682ecd5", "is_disabled": 0, "bike_id": "181dd4d9a023268ba249b7993682ecd5", "lon": -77.027237, "rental_uris": {"android": "https://dc.lft.to/lastmile_qr_scan", "ios": "https://dc.lft.to/lastmile_qr_scan"}, "fusion_lon": 0.0, "is_reserved": 0}, {"lat": 38.830960833333336, "fusion_lat": 0.0, "type": "electric_bike", "name": "635a051be56178aac74ed130c0fae9aa", "is_disabled": 0, "bike_id": "635a051be56178aac74ed130c0fae9aa", "lon": -77.0429085, "rental_uris": {"android": "https://dc.lft.to/lastmile_qr_scan", "ios": "https://dc.lft.to/lastmile_qr_scan"}, "fusion_lon": 0.0, "is_reserved": 0}, {"lat": 38.8975105, "fusion_lat": 0.0, "type": "electric_scooter", "name": "9b7517febbb4fac38ee0b7e8b7616363", "is_disabled": 0, "bike_id": "9b7517febbb4fac38ee0b7e8b7616363", "lon": -77.02989683333334, "rental_uris": {"android": "https://dc.lft.to/lastmile_qr_scan", "ios": "https://dc.lft.to/lastmile_qr_scan"}, "fusion_lon": 0.0, "is_reserved": 0}, {"lat": 38.9018655, "fusion_lat": 0.0, "type": "electric_scooter", "name": "d10ebac12bbe1c867b60cd74f4a49300", "is_disabled": 0, "bike_id": "d10ebac12bbe1c867b60cd74f4a49300", "lon": -76.92893916666667, "rental_uris": {"android": "https://dc.lft.to/lastmile_qr_scan", "ios": "https://dc.lft.to/lastmile_qr_scan"}, "fusion_lon": 0.0, "is_reserved": 0}, {"lat": 38.892286, "fusion_lat": 0.0, "type": "electric_scooter", "name": "3898f4aabd6e5aef388e7844d169db66", "is_disabled": 0, "bike_id": "3898f4aabd6e5aef388e7844d169db66", "lon": -77.0238175, "rental_uris": {"android": "https://dc.lft.to/lastmile_qr_scan", "ios": "https://dc.lft.to/lastmile_qr_scan"}, "fusion_lon": 0.0, "is_reserved": 0}, {"lat": 38.886987833333336, "fusion_lat": 0.0, "type": "electric_scooter", "name": "ec3a2ba87646729ef16079d06837ccd7", "is_disabled": 0, "bike_id": "ec3a2ba87646729ef16079d06837ccd7", "lon": -77.00349383333334, "rental_uris": {"android": "https://dc.lft.to/lastmile_qr_scan", "ios": "https://dc.lft.to/lastmile_qr_scan"}, "fusion_lon": 0.0, "is_reserved": 0}, {"lat": 38.89770633333333, "fusion_lat": 0.0, "type": "electric_scooter", "name": "5e4847f2010de15c84f6cd38be83c406", "is_disabled": 0, "bike_id": "5e4847f2010de15c84f6cd38be83c406", "lon": -77.03171033333334, "rental_uris": {"android": "https://dc.lft.to/lastmile_qr_scan", "ios": "https://dc.lft.to/lastmile_qr_scan"}, "fusion_lon": 0.0, "is_reserved": 0}, {"lat": 38.927532166666666, "fusion_lat": 0.0, "type": "electric_scooter", "name": "e30acd563551df0f8e319cf9be275ec5", "is_disabled": 0, "bike_id": "e30acd563551df0f8e319cf9be275ec5", "lon": -77.02110933333333, "rental_uris": {"android": "https://dc.lft.to/lastmile_qr_scan", "ios": "https://dc.lft.to/lastmile_qr_scan"}, "fusion_lon": 0.0, "is_reserved": 0}, {"lat": 38.936988166666666, "fusion_lat": 0.0, "type": "electric_bike", "name": "528db1d56285790bd9d189d6a5803a93", "is_disabled": 0, "bike_id": "528db1d56285790bd9d189d6a5803a93", "lon": -77.021171, "rental_uris": {"android": "https://dc.lft.to/lastmile_qr_scan", "ios": "https://dc.lft.to/lastmile_qr_scan"}, "fusion_lon": 0.0, "is_reserved": 0}, {"lat": 38.898604666666664, "fusion_lat": 0.0, "type": "electric_scooter", "name": "0416de280138ff2e7340424ae812a2b8", "is_disabled": 0, "bike_id": "0416de280138ff2e7340424ae812a2b8", "lon": -77.01145883333334, "rental_uris": {"android": "https://dc.lft.to/lastmile_qr_scan", "ios": "https://dc.lft.to/lastmile_qr_scan"}, "fusion_lon": 0.0, "is_reserved": 0}, {"lat": 38.895971333333335, "fusion_lat": 0.0, "type": "electric_scooter", "name": "37c61eb33101146849ce565f0779e637", "is_disabled": 0, "bike_id": "37c61eb33101146849ce565f0779e637", "lon": -77.02248083333333, "rental_uris": {"android": "https://dc.lft.to/lastmile_qr_scan", "ios": "https://dc.lft.to/lastmile_qr_scan"}, "fusion_lon": 0.0, "is_reserved": 0}, {"lat": 38.89340283333333, "fusion_lat": 0.0, "type": "electric_scooter", "name": "c6c0feef189aaa6a1543407ca994904f", "is_disabled": 0, "bike_id": "c6c0feef189aaa6a1543407ca994904f", "lon": -76.94918883333334, "rental_uris": {"android": "https://dc.lft.to/lastmile_qr_scan", "ios": "https://dc.lft.to/lastmile_qr_scan"}, "fusion_lon": 0.0, "is_reserved": 0}, {"lat": 38.89223883333333, "fusion_lat": 0.0, "type": "electric_scooter", "name": "bf885806cdfdbbaf0bbb655c7f2dbbe4", "is_disabled": 0, "bike_id": "bf885806cdfdbbaf0bbb655c7f2dbbe4", "lon": -77.0241015, "rental_uris": {"android": "https://dc.lft.to/lastmile_qr_scan", "ios": "https://dc.lft.to/lastmile_qr_scan"}, "fusion_lon": 0.0, "is_reserved": 0}, {"lat": 38.9111955, "fusion_lat": 0.0, "type": "electric_scooter", "name": "f853bbadc255f5730afdc876444e979c", "is_disabled": 0, "bike_id": "f853bbadc255f5730afdc876444e979c", "lon": -77.02184116666666, "rental_uris": {"android": "https://dc.lft.to/lastmile_qr_scan", "ios": "https://dc.lft.to/lastmile_qr_scan"}, "fusion_lon": 0.0, "is_reserved": 0}, {"lat": 38.9185645, "fusion_lat": 0.0, "type": "electric_scooter", "name": "d3da57dc66b00bdde6020f6272cefc4a", "is_disabled": 0, "bike_id": "d3da57dc66b00bdde6020f6272cefc4a", "lon": -77.040381, "rental_uris": {"android": "https://dc.lft.to/lastmile_qr_scan", "ios": "https://dc.lft.to/lastmile_qr_scan"}, "fusion_lon": 0.0, "is_reserved": 0}, {"lat": 38.898412, "fusion_lat": 0.0, "type": "electric_scooter", "name": "5613628edbb45a911823afad6335e9b7", "is_disabled": 0, "bike_id": "5613628edbb45a911823afad6335e9b7", "lon": -77.0265995, "rental_uris": {"android": "https://dc.lft.to/lastmile_qr_scan", "ios": "https://dc.lft.to/lastmile_qr_scan"}, "fusion_lon": 0.0, "is_reserved": 0}, {"lat": 38.91694366666667, "fusion_lat": 0.0, "type": "electric_scooter", "name": "9194dd5e22da8a272fb855b6710950fc", "is_disabled": 0, "bike_id": "9194dd5e22da8a272fb855b6710950fc", "lon": -77.02862933333333, "rental_uris": {"android": "https://dc.lft.to/lastmile_qr_scan", "ios": "https://dc.lft.to/lastmile_qr_scan"}, "fusion_lon": 0.0, "is_reserved": 0}, {"lat": 38.89220983333333, "fusion_lat": 0.0, "type": "electric_scooter", "name": "20b020d1214445cb2975a9c215a79551", "is_disabled": 0, "bike_id": "20b020d1214445cb2975a9c215a79551", "lon": -77.02621366666666, "rental_uris": {"android": "https://dc.lft.to/lastmile_qr_scan", "ios": "https://dc.lft.to/lastmile_qr_scan"}, "fusion_lon": 0.0, "is_reserved": 0}, {"lat": 38.922389333333335, "fusion_lat": 0.0, "type": "electric_scooter", "name": "eb7a9d43e519b7967b9a9452b90514ad", "is_disabled": 0, "bike_id": "eb7a9d43e519b7967b9a9452b90514ad", "lon": -77.0212935, "rental_uris": {"android": "https://dc.lft.to/lastmile_qr_scan", "ios": "https://dc.lft.to/lastmile_qr_scan"}, "fusion_lon": 0.0, "is_reserved": 0}, {"lat": 38.90304366666667, "fusion_lat": 0.0, "type": "electric_scooter", "name": "5f4d56c9cbf3f6b6e55558b22c4f096a", "is_disabled": 0, "bike_id": "5f4d56c9cbf3f6b6e55558b22c4f096a", "lon": -77.03422633333334, "rental_uris": {"android": "https://dc.lft.to/lastmile_qr_scan", "ios": "https://dc.lft.to/lastmile_qr_scan"}, "fusion_lon": 0.0, "is_reserved": 0}, {"lat": 38.93719383333333, "fusion_lat": 0.0, "type": "electric_scooter", "name": "68feb9ff80f249a35b33848301560858", "is_disabled": 0, "bike_id": "68feb9ff80f249a35b33848301560858", "lon": -77.0238835, "rental_uris": {"android": "https://dc.lft.to/lastmile_qr_scan", "ios": "https://dc.lft.to/lastmile_qr_scan"}, "fusion_lon": 0.0, "is_reserved": 0}, {"lat": 38.909142, "fusion_lat": 0.0, "type": "electric_scooter", "name": "428f3da4fc4644b65f38d711221143f3", "is_disabled": 0, "bike_id": "428f3da4fc4644b65f38d711221143f3", "lon": -77.07187483333334, "rental_uris": {"android": "https://dc.lft.to/lastmile_qr_scan", "ios": "https://dc.lft.to/lastmile_qr_scan"}, "fusion_lon": 0.0, "is_reserved": 0}, {"lat": 38.92125033333333, "fusion_lat": 0.0, "type": "electric_scooter", "name": "65d344f0b54e9eda2cf456e6367b9b49", "is_disabled": 0, "bike_id": "65d344f0b54e9eda2cf456e6367b9b49", "lon": -77.04589166666666, "rental_uris": {"android": "https://dc.lft.to/lastmile_qr_scan", "ios": "https://dc.lft.to/lastmile_qr_scan"}, "fusion_lon": 0.0, "is_reserved": 0}, {"lat": 38.87215716666667, "fusion_lat": 0.0, "type": "electric_scooter", "name": "76f5a393a428310cf6d580d725522181", "is_disabled": 0, "bike_id": "76f5a393a428310cf6d580d725522181", "lon": -77.01765833333333, "rental_uris": {"android": "https://dc.lft.to/lastmile_qr_scan", "ios": "https://dc.lft.to/lastmile_qr_scan"}, "fusion_lon": 0.0, "is_reserved": 0}, {"lat": 38.900096166666664, "fusion_lat": 0.0, "type": "electric_scooter", "name": "e6d2c304a95f820c101febfce04d0014", "is_disabled": 0, "bike_id": "e6d2c304a95f820c101febfce04d0014", "lon": -77.00686383333333, "rental_uris": {"android": "https://dc.lft.to/lastmile_qr_scan", "ios": "https://dc.lft.to/lastmile_qr_scan"}, "fusion_lon": 0.0, "is_reserved": 0},