{"data": {"bikes": [{"type": "electric_scooter", "name": "14a09834bd111b9c29bb206d0f0b4624", "fusion_lat": 0.0, "fusion_lon": 0.0, "lon": -77.02475583333333, "is_disabled": 0, "bike_id": "14a09834bd111b9c29bb206d0f0b4624", "is_reserved": 0, "rental_uris": {"android": "https://dc.lft.to/lastmile_qr_scan", "ios": "https://dc.lft.to/lastmile_qr_scan"}, "lat": 38.91816883333333}, {"type": "electric_scooter", "name": "04d68880f80815c59a434dc9e925cd0a", "fusion_lat": 0.0, "fusion_lon": 0.0, "lon": -77.00968183333333, "is_disabled": 0, "bike_id": "04d68880f80815c59a434dc9e925cd0a", "is_reserved": 0, "rental_uris": {"android": "https://dc.lft.to/lastmile_qr_scan", "ios": "https://dc.lft.to/lastmile_qr_scan"}, "lat": 38.917012166666666}, {"type": "electric_scooter", "name": "84340e7e9a4fe19d3877f82401383f54", "fusion_lat": 0.0, "fusion_lon": 0.0, "lon": -77.03291666666667, "is_disabled": 0, "bike_id": "84340e7e9a4fe19d3877f82401383f54", "is_reserved": 0, "rental_uris": {"android": "https://dc.lft.to/lastmile_qr_scan", "ios": "https://dc.lft.to/lastmile_qr_scan"}, "lat": 38.935063666666665}, {"type": "electric_scooter", "name": "98a7ab57115bf177404ada30e51af605", "fusion_lat": 0.0, "fusion_lon": 0.0, "lon": -77.034763, "is_disabled": 0, "bike_id": "98a7ab57115bf177404ada30e51af605", "is_reserved": 0, "rental_uris": {"android": "https://dc.lft.to/lastmile_qr_scan", "ios": "https://dc.lft.to/lastmile_qr_scan"}, "lat": 38.917110666666666}, {"type": "electric_scooter", "name": "dbd1416bca60bbdfdb0ed115c488c286", "fusion_lat": 0.0, "fusion_lon": 0.0, "lon": -76.99545316666666, "is_disabled": 0, "bike_id": "dbd1416bca60bbdfdb0ed115c488c286", "is_reserved": 0, "rental_uris": {"android": "https://dc.lft.to/lastmile_qr_scan", "ios": "https://dc.lft.to/lastmile_qr_scan"}, "lat": 38.927005}, {"type": "electric_scooter", "name": "f48c59137e3e2f95b95d438a6ec9b1c5", "fusion_lat": 0.0, "fusion_lon": 0.0, "lon": -77.02194516666667, "is_disabled": 0, "bike_id": "f48c59137e3e2f95b95d438a6ec9b1c5", "is_reserved": 0, "rental_uris": {"android": "https://dc.lft.to/lastmile_qr_scan", "ios": "https://dc.lft.to/lastmile_qr_scan"}, "lat": 38.895077666666666}, {"type": "electric_scooter", "name": "d2bf5c6b31b701b9ee415f8a88183f26", "fusion_lat": 0.0, "fusion_lon": 0.0, "lon": -77.05969133333333, "is_disabled": 0, "bike_id": "d2bf5c6b31b701b9ee415f8a88183f26", "is_reserved": 0, "rental_uris": {"android": "https://dc.lft.to/lastmile_qr_scan", "ios": "https://dc.lft.to/lastmile_qr_scan"}, "lat": 38.91044516666667}, {"type": "electric_scooter", "name": "1d27a373c53ed9cde69fdc5be2c0a827", "fusion_lat": 0.0, "fusion_lon": 0.0, "lon": -76.9734605, "is_disabled": 0, "bike_id": "1d27a373c53ed9cde69fdc5be2c0a827", "is_reserved": 0, "rental_uris": {"android": "https://dc.lft.to/lastmile_qr_scan", "ios": "https://dc.lft.to/lastmile_qr_scan"}, "lat": 38.850211}, {"type": "electric_bike", "name": "2b50729698bd20fa015bcfc90ee5460b", "fusion_lat": 0.0, "fusion_lon": 0.0, "lon": -77.07352683333333, "is_disabled": 0, "bike_id": "2b50729698bd20fa015bcfc90ee5460b", "is_reserved": 0, "rental_uris": {"android": "https://dc.lft.to/lastmile_qr_scan", "ios": "https://dc.lft.to/lastmile_qr_scan"}, "lat": 38.91099466666667}, {"type": "electric_scooter", "name": "9ac8750a9fae4222e229eefff584a395", "fusion_lat": 0.0, "fusion_lon": 0.0, "lon": -77.04247233333334, "is_disabled": 0, "bike_id": "9ac8750a9fae4222e229eefff584a395", "is_reserved": 0, "rental_uris": {"android": "https://dc.lft.to/lastmile_qr_scan", "ios": "https://dc.lft.to/lastmile_qr_scan"}, "lat": 38.907229666666666}, {"type": "electric_scooter", "name": "4d81f6ac56922e9e623597026ffd46b9", "fusion_lat": 0.0, "fusion_lon": 0.0, "lon": -77.03639333333334, "is_disabled": 0, "bike_id": "4d81f6ac56922e9e623597026ffd46b9", "is_reserved": 0, "rental_uris": {"android": "https://dc.lft.to/lastmile_qr_scan", "ios": "https://dc.lft.to/lastmile_qr_scan"}, "lat": 38.916125}, {"type": "electric_scooter", "name": "9c73852ee4bbd4be33c49708d64a54a3", "fusion_lat": 0.0, "fusion_lon": 0.0, "lon": -76.95449483333333, "is_disabled": 0, "bike_id": "9c73852ee4bbd4be33c49708d64a54a3", "is_reserved": 0, "rental_uris": {"android": "https://dc.lft.to/lastmile_qr_scan", "ios": "https://dc.lft.to/lastmile_qr_scan"}, "lat": 38.8838855}, {"type": "electric_scooter", "name": "a8a4daae097914a79a876022c8b850cc", "fusion_lat": 0.0, "fusion_lon": 0.0, "lon": -77.02585333333333, "is_disabled": 0, "bike_id": "a8a4daae097914a79a876022c8b850cc", "is_reserved": 0, "rental_uris": {"android": "https://dc.lft.to/lastmile_qr_scan", "ios": "https://dc.lft.to/lastmile_qr_scan"}, "lat": 38.9203365}, {"type": "electric_scooter", "name": "084112822deac1898bcc83c43dc70467", "fusion_lat": 0.0, "fusion_lon": 0.0, "lon": -77.029435, "is_disabled": 0, "bike_id": "084112822deac1898bcc83c43dc70467", "is_reserved": 0, "rental_uris": {"android": "https://dc.lft.to/lastmile_qr_scan", "ios": "https://dc.lft.to/lastmile_qr_scan"}, "lat": 38.90487316666667}, {"type": "electric_scooter", "name": "ff0d1f5efd8cebdac9f68b983b3e537c", "fusion_lat": 0.0, "fusion_lon": 0.0, "lon": -77.04348333333333, "is_disabled": 0, "bike_id": "ff0d1f5efd8cebdac9f68b983b3e537c", "is_reserved": 0, "rental_uris": {"android": "https://dc.lft.to/lastmile_qr_scan", "ios": "https://dc.lft.to/lastmile_qr_scan"}, "lat": 38.91351133333333}, {"type": "electric_scooter", "name": "14f012d04393b1f7f286f7c58ebc32e0", "fusion_lat": 0.0, "fusion_lon": 0.0, "lon": -76.99516516666667, "is_disabled": 0, "bike_id": "14f012d04393b1f7f286f7c58ebc32e0", "is_reserved": 0, "rental_uris": {"android": "https://dc.lft.to/lastmile_qr_scan", "ios": "https://dc.lft.to/lastmile_qr_scan"}, "lat": 38.88990733333333}, {"type": "electric_scooter", "name": "f3df43a5bd52909ce83ce24a22c9416a", "fusion_lat": 0.0, "fusion_lon": 0.0, "lon": -76.98701383333334, "is_disabled": 0, "bike_id": "f3df43a5bd52909ce83ce24a22c9416a", "is_reserved": 0, "rental_uris": {"android": "https://dc.lft.to/lastmile_qr_scan", "ios": "https://dc.lft.to/lastmile_qr_scan"}, "lat": 38.85962416666667}, {"type": "electric_scooter", "name": "4fa7cfd1d9d54f65a001124f85b29330", "fusion_lat": 0.0, "fusion_lon": 0.0, "lon": -77.03959633333334, "is_disabled": 0, "bike_id": "4fa7cfd1d9d54f65a001124f85b29330", "is_reserved": 0, "rental_uris": {"android": "https://dc.lft.to/lastmile_qr_scan", "ios": "https://dc.lft.to/lastmile_qr_scan"}, "lat": 38.933304666666665}, {"type": "electric_scooter", "name": "34b510c8d7c6643423cf1778ef96488a", "fusion_lat": 0.0, "fusion_lon": 0.0, "lon": -77.05918066666666, "is_disabled": 0, "bike_id": "34b510c8d7c6643423cf1778ef96488a", "is_reserved": 0, "rental_uris": {"android": "https://dc.lft.to/lastmile_qr_scan", "ios": "https://dc.lft.to/lastmile_qr_scan"}, "lat": 38.90268}, {"type": "electric_scooter", "name": "13a7aa47311895675091be4c0e4d3be4", "fusion_lat": 0.0, "fusion_lon": 0.0, "lon": -77.07862866666666, "is_disabled": 0, "bike_id": "13a7aa47311895675091be4c0e4d3be4", "is_reserved": 0, "rental_uris": {"android": "https://dc.lft.to/lastmile_qr_scan", "ios": "https://dc.lft.to/lastmile_qr_scan"}, "lat": 38.9246885}, {"type": "electric_scooter", "name": "4017062197359a239e79094957478b87", "fusion_lat": 0.0, "fusion_lon": 0.0, "lon": -77.036374, "is_disabled": 0, "bike_id": "4017062197359a239e79094957478b87", "is_reserved": 0, "rental_uris": {"android": "https://dc.lft.to/lastmile_qr_scan", "ios": "https://dc.lft.to/lastmile_qr_scan"}, "lat": 38.92591433333333}, {"type": "electric_scooter", "name": "0efda3a4cbfa240ca57bf85e615a4058", "fusion_lat": 0.0, "fusion_lon": 0.0, "lon": -77.0395455, "is_disabled": 0, "bike_id": "0efda3a4cbfa240ca57bf85e615a4058", "is_reserved": 0, "rental_uris": {"android": "https://dc.lft.to/lastmile_qr_scan", "ios": "https://dc.lft.to/lastmile_qr_scan"}, "lat": 38.8924395}, {"type": "electric_scooter", "name": "dfbc12a8c58efa522662b4ef6607233c", "fusion_lat": 0.0, "fusion_lon": 0.0, "lon": -77.01841016666667, "is_disabled": 0, "bike_id": "dfbc12a8c58efa522662b4ef6607233c", "is_reserved": 0, "rental_uris": {"android": "https://dc.lft.to/lastmile_qr_scan", "ios": "https://dc.lft.to/lastmile_qr_scan"}, "lat": 38.90960716666667}, {"type": "electric_scooter", "name": "05e2cb292abde56dd4fb909009d288ef", "fusion_lat": 0.0, "fusion_lon": 0.0, "lon": -77.03274533333334, "is_disabled": 0, "bike_id": "05e2cb292abde56dd4fb909009d288ef", "is_reserved": 0, "rental_uris": {"android": "https://dc.lft.to/lastmile_qr_scan", "ios": "https://dc.lft.to/lastmile_qr_scan"}, "lat": 38.919989}, {"type": "electric_scooter", "name": "2737773038a1f55071392d85ae25c822", "fusion_lat": 0.0, "fusion_lon": 0.0, "lon": -77.01212616666666, "is_disabled": 0, "bike_id": "2737773038a1f55071392d85ae25c822", "is_reserved": 0, "rental_uris": {"android": "https://dc.lft.to/lastmile_qr_scan", "ios": "https://dc.lft.to/lastmile_qr_scan"}, "lat": 38.91822783333333}, {"type": "electric_scooter", "name": "17e72bd2c7d52d7a3e437bec5e64bd69", "fusion_lat": 0.0, "fusion_lon": 0.0, "lon": -77.025197, "is_disabled": 0, "bike_id": "17e72bd2c7d52d7a3e437bec5e64bd69", "is_reserved": 0, "rental_uris": {"android": "https://dc.lft.to/lastmile_qr_scan", "ios": "https://dc.lft.to/lastmile_qr_scan"}, "lat": 38.92094616666667}, {"type": "electric_scooter", "name": "eda8477775a74a1b14842cd99cc27c41", "fusion_lat": 0.0, "fusion_lon": 0.0, "lon": -77.03851666666667, "is_disabled": 0, "bike_id": "eda8477775a74a1b14842cd99cc27c41", "is_reserved": 0, "rental_uris": {"android": "https://dc.lft.to/lastmile_qr_scan", "ios": "https://dc.lft.to/lastmile_qr_scan"}, "lat": 38.916624666666664}, {"type": "electric_scooter", "name": "b840cb66aeffcb0faf973595efa73381", "fusion_lat": 0.0, "fusion_lon": 0.0, "lon": -77.002008, "is_disabled": 0, "bike_id": "b840cb66aeffcb0faf973595efa73381", "is_reserved": 0, "rental_uris": {"android": "https://dc.lft.to/lastmile_qr_scan", "ios": "https://dc.lft.to/lastmile_qr_scan"}, "lat": 38.90236816666667}, {"type": "electric_scooter", "name": "8351c1fc24117be3348e113099b62103", "fusion_lat": 0.0, "fusion_lon": 0.0, "lon": -77.0343595, "is_disabled": 0, "bike_id": "8351c1fc24117be3348e113099b62103", "is_reserved": 0, "rental_uris": {"android": "https://dc.lft.to/lastmile_qr_scan", "ios": "https://dc.lft.to/lastmile_qr_scan"}, "lat": 38.908422}, {"type": "electric_scooter", "name": "64595a781a67f39cb0587b6074c7e6fb", "fusion_lat": 0.0, "fusion_lon": 0.0, "lon": -77.09663366666666, "is_disabled": 0, "bike_id": "64595a781a67f39cb0587b6074c7e6fb", "is_reserved": 0, "rental_uris": {"android": "https://dc.lft.to/lastmile_qr_scan", "ios": "https://dc.lft.to/lastmile_qr_scan"}, "lat": 38.917607}, {"type": "electric_scooter", "name": "9003f0b60cee2bba5774489020c9f561", "fusion_lat": 0.0, "fusion_lon": 0.0, "lon": -77.02044216666667, "is_disabled": 0, "bike_id": "9003f0b60cee2bba5774489020c9f561", "is_reserved": 0, "rental_uris": {"android": "https://dc.lft.to/lastmile_qr_scan", "ios": "https://dc.lft.to/lastmile_qr_scan"}, "lat": 38.899929}, {"type": "electric_bike", "name": "a998d35141977c6bfbabc7844514f786", "fusion_lat": 0.0, "fusion_lon": 0.0, "lon": -77.00757966666667, "is_disabled": 0, "bike_id": "a998d35141977c6bfbabc7844514f786", "is_reserved": 0, "rental_uris": {"android": "https://dc.lft.to/lastmile_qr_scan", "ios": "https://dc.lft.to/lastmile_qr_scan"}, "lat": 38.99781}, {"type": "electric_scooter", "name": "eb19c3f3b5e67623178c0e33e4394670", "fusion_lat": 0.0, "fusion_lon": 0.0, "lon": -77.01761216666667, "is_disabled": 0, "bike_id": "eb19c3f3b5e67623178c0e33e4394670", "is_reserved": 0, "rental_uris": {"android": "https://dc.lft.to/lastmile_qr_scan", "ios": "https://dc.lft.to/lastmile_qr_scan"}, "lat": 38.87687716666667}, {"type": "electric_scooter", "name": "61333d2ed5effba329b95bf1afb8cd66", "fusion_lat": 0.0, "fusion_lon": 0.0, "lon": -77.0165155, "is_disabled": 0, "bike_id": "61333d2ed5effba329b95bf1afb8cd66", "is_reserved": 0, "rental_uris": {"android": "https://dc.lft.to/lastmile_qr_scan", "ios": "https://dc.lft.to/lastmile_qr_scan"}, "lat": 38.90366933333333}, {"type": "electric_scooter", "name": "01be996bdf7f89e681e74abeda918c0f", "fusion_lat": 0.0, "fusion_lon": 0.0, "lon": -77.00321566666666, "is_disabled": 0, "bike_id": "01be996bdf7f89e681e74abeda918c0f", "is_reserved": 0, "rental_uris": {"android": "https://dc.lft.to/lastmile_qr_scan", "ios": "https://dc.lft.to/lastmile_qr_scan"}, "lat": 38.9134265}, {"type": "electric_scooter", "name": "a47a99663a920a46ca9bdbf00259b3da", "fusion_lat": 0.0, "fusion_lon": 0.0, "lon": -77.0499125, "is_disabled": 0, "bike_id": "a47a99663a920a46ca9bdbf00259b3da", "is_reserved": 0, "rental_uris": {"android": "https://dc.lft.to/lastmile_qr_scan", "ios": "https://dc.lft.to/lastmile_qr_scan"}, "lat": 38.900609833333334}, {"type": "electric_bike", "name": "fa02ca800e912ef5de2778c0a3441674", "fusion_lat": 0.0, "fusion_lon": 0.0, "lon": -76.94546783333334, "is_disabled": 0, "bike_id": "fa02ca800e912ef5de2778c0a3441674", "is_reserved": 0, "rental_uris": {"android": "https://dc.lft.to/lastmile_qr_scan", "ios": "https://dc.lft.to/lastmile_qr_scan"}, "lat": 38.98306066666667}, {"type": "electric_scooter", "name": "e20f3bc15db1c1591f6f4763a740fdf1", "fusion_lat": 0.0, "fusion_lon": 0.0, "lon": -77.0031335, "is_disabled": 0, "bike_id": "e20f3bc15db1c1591f6f4763a740fdf1", "is_reserved": 0, "rental_uris": {"android": "https://dc.lft.to/lastmile_qr_scan", "ios": "https://dc.lft.to/lastmile_qr_scan"}, "lat": 38.876886666666664}, {"type": "electric_bike", "name": "5b7c49c773efa26caec2f2b0990be970", "fusion_lat": 0.0, "fusion_lon": 0.0, "lon": -76.95245516666667, "is_disabled": 0, "bike_id": "5b7c49c773efa26caec2f2b0990be970", "is_reserved": 0, "rental_uris": {"android": "https://dc.lft.to/lastmile_qr_scan", "ios": "https://dc.lft.to/lastmile_qr_scan"}, "lat": 38.88463383333333}, {"type": "electric_scooter", "name": "5f3cd4d0ae0ef317b74f3a89037eb061", "fusion_lat": 0.0, "fusion_lon": 0.0, "lon": -77.03653916666667, "is_disabled": 0, "bike_id": "5f3cd4d0ae0ef317b74f3a89037eb061", "is_reserved": 0, "rental_uris": {"android": "https://dc.lft.to/lastmile_qr_scan", "ios": "https://dc.lft.to/lastmile_qr_scan"}, "lat": 38.92124783333333}, {"type": "electric_scooter", "name": "f9a44e7d4fda466c1e3671c7a221ee2c", "fusion_lat": 0.0, "fusion_lon": 0.0, "lon": -76.99410716666667, "is_disabled": 0, "bike_id": "f9a44e7d4fda466c1e3671c7a221ee2c", "is_reserved": 0, "rental_uris": {"android": "https://dc.lft.to/lastmile_qr_scan", "ios": "https://dc.lft.to/lastmile_qr_scan"}, "lat": 38.8779135}, {"type": "electric_scooter", "name": "b94fa558d9ab4dd6843de4045f39ed84", "fusion_lat": 0.0, "fusion_lon": 0.0, "lon": -77.011344, "is_disabled": 0, "bike_id": "b94fa558d9ab4dd6843de4045f39ed84", "is_reserved": 0, "rental_uris": {"android": "https://dc.lft.to/lastmile_qr_scan", "ios": "https://dc.lft.to/lastmile_qr_scan"}, "lat": 38.916939}, {"type": "electric_scooter", "name": "cd6b023f54813f6f83ba7b9d35abe886", "fusion_lat": 0.0, "fusion_lon": 0.0, "lon": -76.99855383333333, "is_disabled": 0, "bike_id": "cd6b023f54813f6f83ba7b9d35abe886", "is_reserved": 0, "rental_uris": {"android": "https://dc.lft.to/lastmile_qr_scan", "ios": "https://dc.lft.to/lastmile_qr_scan"}, "lat": 38.90329966666667}, {"type": "electric_scooter", "name": "e65b923ce4401c9002156bd96fc1fc17", "fusion_lat": 0.0, "fusion_lon": 0.0, "lon": -77.00209683333334, "is_disabled": 0, "bike_id": "e65b923ce4401c9002156bd96fc1fc17", "is_reserved": 0, "rental_uris": {"android": "https://dc.lft.to/lastmile_qr_scan", "ios": "https://dc.lft.to/lastmile_qr_scan"}, "lat": 38.91459066666667}, {"type": "electric_scooter", "name": "4b9fd35afeb988927b0ea2e00f59f064", "fusion_lat": 0.0, "fusion_lon": 0.0, "lon": -77.0467415, "is_disabled": 0, "bike_id": "4b9fd35afeb988927b0ea2e00f59f064", "is_reserved": 0, "rental_uris": {"android": "https://dc.lft.to/lastmile_qr_scan", "ios": "https://dc.lft.to/lastmile_qr_scan"}, "lat": 38.8974355}, {"type": "electric_scooter", "name": "0be6b162eb19ab913ad6b85909a9f532", "fusion_lat": 0.0, "fusion_lon": 0.0, "lon": -76.99844383333334, "is_disabled": 0, "bike_id": "0be6b162eb19ab913ad6b85909a9f532", "is_reserved": 0, "rental_uris": {"android": "https://dc.lft.to/lastmile_qr_scan", "ios": "https://dc.lft.to/lastmile_qr_scan"}, "lat": 38.90647366666666}, {"type": "electric_scooter", "name": "766a15d606eaf2f2a33424d33348a01e", "fusion_lat": 0.0, "fusion_lon": 0.0, "lon": -77.05990633333333, "is_disabled": 0, "bike_id": "766a15d606eaf2f2a33424d33348a01e", "is_reserved": 0, "rental_uris": {"android": "https://dc.lft.to/lastmile_qr_scan", "ios": "https://dc.lft.to/lastmile_qr_scan"}, "lat": 38.93824166666667}, {"type": "electric_bike", "name": "94af8384dd2ac7ce438ff385f3189edc", "fusion_lat": 0.0, "fusion_lon": 0.0, "lon": -76.90293, "is_disabled": 0, "bike_id": "94af8384dd2ac7ce438ff385f3189edc", "is_reserved": 0, "rental_uris": {"android": "https://dc.lft.to/lastmile_qr_scan", "ios": "https://dc.lft.to/lastmile_qr_scan"}, "lat": 39.002934}, {"type": "electric_bike", "name": "5560f6ba9963418ec8cff2829703a5c9", "fusion_lat": 0.0, "fusion_lon": 0.0, "lon": -77.0342775, "is_disabled": 0, "bike_id": "5560f6ba9963418ec8cff2829703a5c9", "is_reserved": 0, "rental_uris": {"android": "https://dc.lft.to/lastmile_qr_scan", "ios": "https://dc.lft.to/lastmile_qr_scan"}, "lat": 38.966195166666665}, {"type": "electric_scooter", "name": "ec26edc1f2a98d966eac2e52e3d212c8", "fusion_lat": 0.0, "fusion_lon": 0.0, "lon": -77.04152933333333, "is_disabled": 0, "bike_id": "ec26edc1f2a98d966eac2e52e3d212c8", "is_reserved": 0, "rental_uris": {"android": "https://dc.lft.to/lastmile_qr_scan", "ios": "https://dc.lft.to/lastmile_qr_scan"}, "lat": 38.9235495}, {"type": "electric_bike", "name": "dfa9d5c2f6bdc21a6440de86d570b211", "fusion_lat": 0.0, "fusion_lon": 0.0, "lon": -77.03271033333333, "is_disabled": 0, "bike_id": "dfa9d5c2f6bdc21a6440de86d570b211", "is_reserved": 0, "rental_uris": {"android": "https://dc.lft.to/lastmile_qr_scan", "ios": "https://dc.lft.to/lastmile_qr_scan"}, "lat": 38.96125933333333}, {"type": "electric_bike", "name": "ade672da502be1faf468701fe84e61a3", "fusion_lat": 0.0, "fusion_lon": 0.0, "lon": -76.98724466666667, "is_disabled": 0, "bike_id": "ade672da502be1faf468701fe84e61a3", "is_reserved": 0, "rental_uris": {"android": "https://dc.lft.to/lastmile_qr_scan", "ios": "https://dc.lft.to/lastmile_qr_scan"}, "lat": 38.8633225}, {"type": "electric_scooter", "name": "916da1b9396cfb2837a276c1318af8cb", "fusion_lat": 0.0, "fusion_lon": 0.0, "lon": -77.01387833333334, "is_disabled": 0, "bike_id": "916da1b9396cfb2837a276c1318af8cb", "is_reserved": 0, "rental_uris": {"android": "https://dc.lft.to/lastmile_qr_scan", "ios": "https://dc.lft.to/lastmile_qr_scan"}, "lat": 38.8789245}, {"type": "electric_scooter", "name": "c083762a6428a63680443dfffa47fdab", "fusion_lat": 0.0, "fusion_lon": 0.0, "lon": -77.0337235, "is_disabled": 0, "bike_id": "c083762a6428a63680443dfffa47fdab", "is_reserved": 0, "rental_uris": {"android": "https://dc.lft.to/lastmile_qr_scan", "ios": "https://dc.lft.to/lastmile_qr_scan"}, "lat": 38.91031866666667}, {"type": "electric_scooter", "name": "4106ee0cdfb98d2d43911bf88617fc58", "fusion_lat": 0.0, "fusion_lon": 0.0, "lon": -77.033073, "is_disabled": 0, "bike_id": "4106ee0cdfb98d2d43911bf88617fc58", "is_reserved": 0, "rental_uris": {"android": "https://dc.lft.to/lastmile_qr_scan", "ios": "https://dc.lft.to/lastmile_qr_scan"}, "lat": 38.926475833333335}, {"type": "electric_scooter", "name": "d9a88177ccdc363a99bbc3ea2a6225f4", "fusion_lat": 0.0, "fusion_lon": 0.0, "lon": -77.03268583333333, "is_disabled": 0, "bike_id": "d9a88177ccdc363a99bbc3ea2a6225f4", "is_reserved": 0, "rental_uris": {"android": "https://dc.lft.to/lastmile_qr_scan", "ios": "https://dc.lft.to/lastmile_qr_scan"}, "lat": 38.93729066666667}, {"type": "electric_scooter", "name": "be49dab6bf707b852b88133ddfd7d24e", "fusion_lat": 0.0, "fusion_lon": 0.0, "lon": -77.03950116666667, "is_disabled": 0, "bike_id": "be49dab6bf707b852b88133ddfd7d24e", "is_reserved": 0, "rental_uris": {"android": "https://dc.lft.to/lastmile_qr_scan", "ios": "https://dc.lft.to/lastmile_qr_scan"}, "lat": 38.900138166666665}, {"type": "electric_scooter", "name": "0c0a0672bd2fc2c78d7aefbb255f7231", "fusion_lat": 0.0, "fusion_lon": 0.0, "lon": -77.05370783333333, "is_disabled": 0, "bike_id": "0c0a0672bd2fc2c78d7aefbb255f7231", "is_reserved": 0, "rental_uris": {"android": "https://dc.lft.to/lastmile_qr_scan", "ios": "https://dc.lft.to/lastmile_qr_scan"}, "lat": 38.903636166666665}, {"type": "electric_scooter", "name": "6e813c235e2c2ae59f55ed6e63b9cdd4", "fusion_lat": 0.0, "fusion_lon": 0.0, "lon": -77.03873266666666, "is_disabled": 0, "bike_id": "6e813c235e2c2ae59f55ed6e63b9cdd4", "is_reserved": 0, "rental_uris": {"android": "https://dc.lft.to/lastmile_qr_scan", "ios": "https://dc.lft.to/lastmile_qr_scan"}, "lat": 38.91261266666667}, {"type": "electric_bike", "name": "3227c94545760036fdb85e2390da54b5", "fusion_lat": 0.0, "fusion_lon": 0.0, "lon": -77.00203116666667, "is_disabled": 0, "bike_id": "3227c94545760036fdb85e2390da54b5", "is_reserved": 0, "rental_uris": {"android": "https://dc.lft.to/lastmile_qr_scan", "ios": "https://dc.lft.to/lastmile_qr_scan"}, "lat": 38.98844666666667}, {"type": "electric_scooter", "name": "9e79f352b528ab3c67713d4395dc514f", "fusion_lat": 0.0, "fusion_lon": 0.0, "lon": -77.02171383333334, "is_disabled": 0, "bike_id": "9e79f352b528ab3c67713d4395dc514f", "is_reserved": 0, "rental_uris": {"android": "https://dc.lft.to/lastmile_qr_scan", "ios": "https://dc.lft.to/lastmile_qr_scan"}, "lat": 38.91107316666667}, {"type": "electric_bike", "name": "4148db7ff272848d4883be4446361852", "fusion_lat": 0.0, "fusion_lon": 0.0, "lon": -77.03707783333333, "is_disabled": 0, "bike_id": "4148db7ff272848d4883be4446361852", "is_reserved": 0, "rental_uris": {"android": "https://dc.lft.to/lastmile_qr_scan", "ios": "https://dc.lft.to/lastmile_qr_scan"}, "lat": 38.935555}, {"type": "electric_scooter", "name": "6a89618b7abc609103e1f5465e644fd8", "fusion_lat": 0.0, "fusion_lon": 0.0, "lon": -77.02933783333333, "is_disabled": 0, "bike_id": "6a89618b7abc609103e1f5465e644fd8", "is_reserved": 0, "rental_uris": {"android": "https://dc.lft.to/lastmile_qr_scan", "ios": "https://dc.lft.to/lastmile_qr_scan"}, "lat": 38.90404766666666}, {"type": "electric_scooter", "name": "20abbfc033aa35dd4a13aa674a7eeec0", "fusion_lat": 0.0, "fusion_lon": 0.0, "lon": -77.001106, "is_disabled": 0, "bike_id": "20abbfc033aa35dd4a13aa674a7eeec0", "is_reserved": 0, "rental_uris": {"android": "https://dc.lft.to/lastmile_qr_scan", "ios": "https://dc.lft.to/lastmile_qr_scan"}, "lat": 38.876456166666664}, {"type": "electric_scooter", "name": "d1f68fd54faaa4ed16f6abc284d92447", "fusion_lat": 0.0, "fusion_lon": 0.0, "lon": -77.027983, "is_disabled": 0, "bike_id": "d1f68fd54faaa4ed16f6abc284d92447", "is_reserved": 0, "rental_uris": {"android": "https://dc.lft.to/lastmile_qr_scan", "ios": "https://dc.lft.to/lastmile_qr_scan"}, "lat": 38.923189}, {"type": "electric_scooter", "name": "e3e6fe6a0ea95b2d730f7a4e61ebbc59", "fusion_lat": 0.0, "fusion_lon": 0.0, "lon": -77.005984, "is_disabled": 0, "bike_id": "e3e6fe6a0ea95b2d730f7a4e61ebbc59", "is_reserved": 0, "rental_uris": {"android": "https://dc.lft.to/lastmile_qr_scan", "ios": "https://dc.lft.to/lastmile_qr_scan"}, "lat": 38.8756735}, {"type": "electric_scooter", "name": "f986f6d040ef1846472f6ba952bb72fe", "fusion_lat": 0.0, "fusion_lon": 0.0, "lon": -77.0229865, "is_disabled": 0, "bike_id": "f986f6d040ef1846472f6ba952bb72fe", "is_reserved": 0, "rental_uris": {"android": "https://dc.lft.to/lastmile_qr_scan", "ios": "https://dc.lft.to/lastmile_qr_scan"}, "lat": 38.96129833333333}, {"type": "electric_scooter", "name": "77dd19fc833360d1a9f0292520759bfb", "fusion_lat": 0.0, "fusion_lon": 0.0, "lon": -77.0199965, "is_disabled": 0, "bike_id": "77dd19fc833360d1a9f0292520759bfb", "is_reserved": 0, "rental_uris": {"android": "https://dc.lft.to/lastmile_qr_scan", "ios": "https://dc.lft.to/lastmile_qr_scan"}, "lat": 38.914922}, {"type": "electric_scooter", "name": "624673cdaf06ffbc0d84a710cc9959e2", "fusion_lat": 0.0, "fusion_lon": 0.0, "lon": -77.06845816666667, "is_disabled": 0, "bike_id": "624673cdaf06ffbc0d84a710cc9959e2", "is_reserved": 0, "rental_uris": {"android": "https://dc.lft.to/lastmile_qr_scan", "ios": "https://dc.lft.to/lastmile_qr_scan"}, "lat": 38.952905333333334}, {"type": "electric_scooter", "name": "0d6c30875c22f7a12b0c17231bafdf0d", "fusion_lat": 0.0, "fusion_lon": 0.0, "lon": -77.029637, "is_disabled": 0, "bike_id": "0d6c30875c22f7a12b0c17231bafdf0d", "is_reserved": 0, "rental_uris": {"android": "https://dc.lft.to/lastmile_qr_scan", "ios": "https://dc.lft.to/lastmile_qr_scan"}, "lat": 38.89736216666667}, {"type": "electric_scooter", "name": "4de94df178197b911344ea9fad2edd65", "fusion_lat": 0.0, "fusion_lon": 0.0, "lon": -77.04825633333333, "is_disabled": 0, "bike_id": "4de94df178197b911344ea9fad2edd65", "is_reserved": 0, "rental_uris": {"android": "https://dc.lft.to/lastmile_qr_scan", "ios": "https://dc.lft.to/lastmile_qr_scan"}, "lat": 38.90958}, {"type": "electric_scooter", "name": "4b0be38ed000e56c5644396deaaf62ae", "fusion_lat": 0.0, "fusion_lon": 0.0, "lon": -77.03447433333334, "is_disabled": 0, "bike_id": "4b0be38ed000e56c5644396deaaf62ae", "is_reserved": 0, "rental_uris": {"android": "https://dc.lft.to/lastmile_qr_scan", "ios": "https://dc.lft.to/lastmile_qr_scan"}, "lat": 38.91391733333333}, {"type": "electric_scooter", "name": "7baebc11dcfc378850ffebbce52f98bf", "fusion_lat": 0.0, "fusion_lon": 0.0, "lon": -77.02197883333334, "is_disabled": 0, "bike_id": "7baebc11dcfc378850ffebbce52f98bf", "is_reserved": 0, "rental_uris": {"android": "https://dc.lft.to/lastmile_qr_scan", "ios": "https://dc.lft.to/lastmile_qr_scan"}, "lat": 38.8956445}, {"type": "electric_scooter", "name": "1d1bcbd1e856d33611e27c479e47d711", "fusion_lat": 0.0, "fusion_lon": 0.0, "lon": -76.98278783333333, "is_disabled": 0, "bike_id": "1d1bcbd1e856d33611e27c479e47d711", "is_reserved": 0, "rental_uris": {"android": "https://dc.lft.to/lastmile_qr_scan", "ios": "https://dc.lft.to/lastmile_qr_scan"}, "lat": 38.90344566666667}, {"type": "electric_scooter", "name": "7886bb9679283d5d667a077dd2ee71f7", "fusion_lat": 0.0, "fusion_lon": 0.0, "lon": -77.00736766666667, "is_disabled": 0, "bike_id": "7886bb9679283d5d667a077dd2ee71f7", "is_reserved": 0, "rental_uris": {"android": "https://dc.lft.to/lastmile_qr_scan", "ios": "https://dc.lft.to/lastmile_qr_scan"}, "lat": 38.91180766666667}, {"type": "electric_scooter", "name": "7b65b63b404f4e8bb12db3e0b1b419c4", "fusion_lat": 0.0, "fusion_lon": 0.0, "lon": -77.00104183333333, "is_disabled": 0, "bike_id": "7b65b63b404f4e8bb12db3e0b1b419c4", "is_reserved": 0, "rental_uris": {"android": "https://dc.lft.to/lastmile_qr_scan", "ios": "https://dc.lft.to/lastmile_qr_scan"}, "lat": 38.900257833333335}, {"type": "electric_scooter", "name": "419161ddd3733fae70355fab83692edc", "fusion_lat": 0.0, "fusion_lon": 0.0, "lon": -77.023309, "is_disabled": 0, "bike_id": "419161ddd3733fae70355fab83692edc", "is_reserved": 0, "rental_uris": {"android": "https://dc.lft.to/lastmile_qr_scan", "ios": "https://dc.lft.to/lastmile_qr_scan"}, "lat": 38.8972145}, {"type": "electric_scooter", "name": "e92283bbb51842cf119510a689f2a1f7", "fusion_lat": 0.0, "fusion_lon": 0.0, "lon": -77.0180775, "is_disabled": 0, "bike_id": "e92283bbb51842cf119510a689f2a1f7", "is_reserved": 0, "rental_uris": {"android": "https://dc.lft.to/lastmile_qr_scan", "ios": "https://dc.lft.to/lastmile_qr_scan"}, "lat": 38.90533383333333}, {"type": "electric_scooter", "name": "174656dbbd014bb085de6a086ba1a975", "fusion_lat": 0.0, "fusion_lon": 0.0, "lon": -76.99673733333333, "is_disabled": 0, "bike_id": "174656dbbd014bb085de6a086ba1a975", "is_reserved": 0, "rental_uris": {"android": "https://dc.lft.to/lastmile_qr_scan", "ios": "https://dc.lft.to/lastmile_qr_scan"}, "lat": 38.9324185}, {"type": "electric_scooter", "name": "72d8d6a192fdb6c4c9b29f6e28266978", "fusion_lat": 0.0, "fusion_lon": 0.0, "lon": -77.0383845, "is_disabled": 0, "bike_id": "72d8d6a192fdb6c4c9b29f6e28266978", "is_reserved": 0, "rental_uris": {"android": "https://dc.lft.to/lastmile_qr_scan", "ios": "https://dc.lft.to/lastmile_qr_scan"}, "lat": 38.91502666666667}, {"type": "electric_scooter", "name": "adbce770bb9336b94cdb3cf7b34381e0", "fusion_lat": 0.0, "fusion_lon": 0.0, "lon": -77.05173533333334, "is_disabled": 0, "bike_id": "adbce770bb9336b94cdb3cf7b34381e0", "is_reserved": 0, "rental_uris": {"android": "https://dc.lft.to/lastmile_qr_scan", "ios": "https://dc.lft.to/lastmile_qr_scan"}, "lat": 38.9031315}, {"type": "electric_scooter", "name": "6451c1f3bba73fb7b554e57e8243c939", "fusion_lat": 0.0, "fusion_lon": 0.0, "lon": -77.04733516666667, "is_disabled": 0, "bike_id": "6451c1f3bba73fb7b554e57e8243c939", "is_reserved": 0, "rental_uris": {"android": "https://dc.lft.to/lastmile_qr_scan", "ios": "https://dc.lft.to/lastmile_qr_scan"}, "lat": 38.89551733333333}, {"type": "electric_scooter", "name": "93179328ff875dd9c9512492fdca6e1c", "fusion_lat": 0.0, "fusion_lon": 0.0, "lon": -77.01017533333334, "is_disabled": 0, "bike_id": "93179328ff875dd9c9512492fdca6e1c", "is_reserved": 0, "rental_uris": {"android": "https://dc.lft.to/lastmile_qr_scan", "ios": "https://dc.lft.to/lastmile_qr_scan"}, "lat": 38.91259433333333}, {"type": "electric_scooter", "name": "db4469c110791c52b192ec6a89fc25c4", "fusion_lat": 0.0, "fusion_lon": 0.0, "lon": -76.931871, "is_disabled": 0, "bike_id": "db4469c110791c52b192ec6a89fc25c4", "is_reserved": 0, "rental_uris": {"android": "https://dc.lft.to/lastmile_qr_scan", "ios": "https://dc.lft.to/lastmile_qr_scan"}, "lat": 38.89854666666667}, {"type": "electric_scooter", "name": "34984af2ac617c39205ef65fb885c4ef", "fusion_lat": 0.0, "fusion_lon": 0.0, "lon": -77.01109716666667, "is_disabled": 0, "bike_id": "34984af2ac617c39205ef65fb885c4ef", "is_reserved": 0, "rental_uris": {"android": "https://dc.lft.to/lastmile_qr_scan", "ios": "https://dc.lft.to/lastmile_qr_scan"}, "lat": 38.89476}, {"type": "electric_scooter", "name": "2f8613881c1d68352189ebd19a522e69", "fusion_lat": 0.0, "fusion_lon": 0.0, "lon": -77.05775566666667, "is_disabled": 0, "bike_id": "2f8613881c1d68352189ebd19a522e69", "is_reserved": 0, "rental_uris": {"android": "https://dc.lft.to/lastmile_qr_scan", "ios": "https://dc.lft.to/lastmile_qr_scan"}, "lat": 38.92439516666666}, {"type": "electric_scooter", "name": "e6a23b30a7de135a2d5b4e64415caa39", "fusion_lat": 0.0, "fusion_lon": 0.0, "lon": -77.0698555, "is_disabled": 0, "bike_id": "e6a23b30a7de135a2d5b4e64415caa39", "is_reserved": 0, "rental_uris": {"android": "https://dc.lft.to/lastmile_qr_scan", "ios": "https://dc.lft.to/lastmile_qr_scan"}, "lat": 38.95527966666667}, {"type": "electric_scooter", "name": "3eb1e50382deb9c86a25d8ec6063151b", "fusion_lat": 0.0, "fusion_lon": 0.0, "lon": -77.0319525, "is_disabled": 0, "bike_id": "3eb1e50382deb9c86a25d8ec6063151b", "is_reserved": 0, "rental_uris": {"android": "https://dc.lft.to/lastmile_qr_scan", "ios": "https://dc.lft.to/lastmile_qr_scan"}, "lat": 38.93063683333333}, {"type": "electric_scooter", "name": "523999d951ed93c68dda5e2aa6661838", "fusion_lat": 0.0, "fusion_lon": 0.0, "lon": -76.93624366666667, "is_disabled": 0, "bike_id": "523999d951ed93c68dda5e2aa6661838", "is_reserved": 0, "rental_uris": {"android": "https://dc.lft.to/lastmile_qr_scan", "ios": "https://dc.lft.to/lastmile_qr_scan"}, "lat": 38.88349766666666}, {"type": "electric_scooter", "name": "e3be710373ae12cfa4a68d5ab91bae01", "fusion_lat": 0.0, "fusion_lon": 0.0, "lon": -77.01433016666667, "is_disabled": 0, "bike_id": "e3be710373ae12cfa4a68d5ab91bae01", "is_reserved": 0, "rental_uris": {"android": "https://dc.lft.to/lastmile_qr_scan", "ios": "https://dc.lft.to/lastmile_qr_scan"}, "lat": 38.909544833333335}, {"type": "electric_scooter", "name": "78c6a75a55d2aa895cd0ad948645278a", "fusion_lat": 0.0, "fusion_lon": 0.0, "lon": -77.0363455, "is_disabled": 0, "bike_id": "78c6a75a55d2aa895cd0ad948645278a", "is_reserved": 0, "rental_uris": {"android": "https://dc.lft.to/lastmile_qr_scan", "ios": "https://dc.lft.to/lastmile_qr_scan"}, "lat": 38.930552166666665}, {"type": "electric_scooter", "name": "e2641753a6e37bb3f863246b68122622", "fusion_lat": 0.0, "fusion_lon": 0.0, "lon": -77.00203016666667, "is_disabled": 0, "bike_id": "e2641753a6e37bb3f863246b68122622", "is_reserved": 0, "rental_uris": {"android": "https://dc.lft.to/lastmile_qr_scan", "ios": "https://dc.lft.to/lastmile_qr_scan"}, "lat": 38.902379}, {"type": "electric_scooter", "name": "017795ab697ffe2982d88772353d8ae7", "fusion_lat": 0.0, "fusion_lon": 0.0, "lon": -77.02497016666666, "is_disabled": 0, "bike_id": "017795ab697ffe2982d88772353d8ae7", "is_reserved": 0, "rental_uris": {"android": "https://dc.lft.to/lastmile_qr_scan", "ios": "https://dc.lft.to/lastmile_qr_scan"}, "lat": 38.93569683333333}, {"type": "electric_scooter", "name": "3f83c4729eac0879c1a4d1cc9edb79a8", "fusion_lat": 0.0, "fusion_lon": 0.0, "lon": -77.02782433333333, "is_disabled": 0, "bike_id": "3f83c4729eac0879c1a4d1cc9edb79a8", "is_reserved": 0, "rental_uris": {"android": "https://dc.lft.to/lastmile_qr_scan", "ios": "https://dc.lft.to/lastmile_qr_scan"}, "lat": 38.956097666666665}, {"type": "electric_scooter", "name": "efb90308351218e9016663c8e7381a4b", "fusion_lat": 0.0, "fusion_lon": 0.0, "lon": -76.97034833333333, "is_disabled": 0, "bike_id": "efb90308351218e9016663c8e7381a4b", "is_reserved": 0, "rental_uris": {"android": "https://dc.lft.to/lastmile_qr_scan", "ios": "https://dc.lft.to/lastmile_qr_scan"}, "lat": 38.873168666666665}, {"type": "electric_scooter", "name": "5ae19343b0a41dab8c07caaa375e73a1", "fusion_lat": 0.0, "fusion_lon": 0.0, "lon": -77.02089883333333, "is_disabled": 0, "bike_id": "5ae19343b0a41dab8c07caaa375e73a1", "is_reserved": 0, "rental_uris": {"android": "https://dc.lft.to/lastmile_qr_scan", "ios": "https://dc.lft.to/lastmile_qr_scan"}, "lat": 38.8817335}, {"type": "electric_scooter", "name": "b4327f8a8aa00ab15f746145a273a070", "fusion_lat": 0.0, "fusion_lon": 0.0, "lon": -76.99770016666666, "is_disabled": 0, "bike_id": "b4327f8a8aa00ab15f746145a273a070", "is_reserved": 0, "rental_uris": {"android": "https://dc.lft.to/lastmile_qr_scan", "ios": "https://dc.lft.to/lastmile_qr_scan"}, "lat": 38.92288533333333}, {"type": "electric_scooter", "name": "8bd7a1f5b89daf84e631784fe25e2d07", "fusion_lat": 0.0, "fusion_lon": 0.0, "lon": -77.02294666666667, "is_disabled": 0, "bike_id": "8bd7a1f5b89daf84e631784fe25e2d07", "is_reserved": 0, "rental_uris": {"android": "https://dc.lft.to/lastmile_qr_scan", "ios": "https://dc.lft.to/lastmile_qr_scan"}, "lat": 38.92083183333333}, {"type": "electric_scooter", "name": "8c115f33ca3f46a9718fcc502ca019c7", "fusion_lat": 0.0, "fusion_lon": 0.0, "lon": -77.00774833333334, "is_disabled": 0, "bike_id": "8c115f33ca3f46a9718fcc502ca019c7", "is_reserved": 0, "rental_uris": {"android": "https://dc.lft.to/lastmile_qr_scan", "ios": "https://dc.lft.to/lastmile_qr_scan"}, "lat": 38.875540666666666}, {"type": "electric_bike", "name": "eb4b5f0a4c3ea3f311eaf02913895e02", "fusion_lat": 0.0, "fusion_lon": 0.0, "lon": -76.9422785, "is_disabled": 0, "bike_id": "eb4b5f0a4c3ea3f311eaf02913895e02", "is_reserved": 0, "rental_uris": {"android": "https://dc.lft.to/lastmile_qr_scan", "ios": "https://dc.lft.to/lastmile_qr_scan"}, "lat": 38.8905075}, {"type": "electric_bike", "name": "8da41bd654e7a7cbdfbea061690bbf0a", "fusion_lat": 0.0, "fusion_lon": 0.0, "lon": -76.99377, "is_disabled": 0, "bike_id": "8da41bd654e7a7cbdfbea061690bbf0a", "is_reserved": 0, "rental_uris": {"android": "https://dc.lft.to/lastmile_qr_scan", "ios": "https://dc.lft.to/lastmile_qr_scan"}, "lat": 38.9909765}, {"type": "electric_scooter", "name": "4856e1d2eb8e32d34adc1033c6ec7616", "fusion_lat": 0.0, "fusion_lon": 0.0, "lon": -77.03838066666667, "is_disabled": 0, "bike_id": "4856e1d2eb8e32d34adc1033c6ec7616", "is_reserved": 0, "rental_uris": {"android": "https://dc.lft.to/lastmile_qr_scan", "ios": "https://dc.lft.to/lastmile_qr_scan"}, "lat": 38.9099155}, {"type": "electric_scooter", "name": "4fb63fe55888e664268cf020fdf4bbb2", "fusion_lat": 0.0, "fusion_lon": 0.0, "lon": -77.0364455, "is_disabled": 0, "bike_id": "4fb63fe55888e664268cf020fdf4bbb2", "is_reserved": 0, "rental_uris": {"android": "https://dc.lft.to/lastmile_qr_scan", "ios": "https://dc.lft.to/lastmile_qr_scan"}, "lat": 38.9327475}, {"type": "electric_scooter", "name": "138e320dc2a73e614fcd5667430a6446", "fusion_lat": 0.0, "fusion_lon": 0.0, "lon": -77.01762966666666, "is_disabled": 0, "bike_id": "138e320dc2a73e614fcd5667430a6446", "is_reserved": 0, "rental_uris": {"android": "https://dc.lft.to/lastmile_qr_scan", "ios": "https://dc.lft.to/lastmile_qr_scan"}, "lat": 38.87679083333333}, {"type": "electric_scooter", "name": "00f82bba645639ab00e76d458ff777c0", "fusion_lat": 0.0, "fusion_lon": 0.0, "lon": -77.04187216666666, "is_disabled": 0, "bike_id": "00f82bba645639ab00e76d458ff777c0", "is_reserved": 0, "rental_uris": {"android": "https://dc.lft.to/lastmile_qr_scan", "ios": "https://dc.lft.to/lastmile_qr_scan"}, "lat": 38.9203165}, {"type": "electric_bike", "name": "8bf154efaf2984139035ec7cceca5126", "fusion_lat": 0.0, "fusion_lon": 0.0, "lon": -77.06693016666667, "is_disabled": 0, "bike_id": "8bf154efaf2984139035ec7cceca5126", "is_reserved": 0, "rental_uris": {"android": "https://dc.lft.to/lastmile_qr_scan", "ios": "https://dc.lft.to/lastmile_qr_scan"}, "lat": 38.83173133333333}, {"type": "electric_scooter", "name": "4ed55c2b476a019b2135eb73310aad63", "fusion_lat": 0.0, "fusion_lon": 0.0, "lon": -77.021714, "is_disabled": 0, "bike_id": "4ed55c2b476a019b2135eb73310aad63", "is_reserved": 0, "rental_uris": {"android": "https://dc.lft.to/lastmile_qr_scan", "ios": "https://dc.lft.to/lastmile_qr_scan"}, "lat": 38.89729666666667}, {"type": "electric_scooter", "name": "c4ed0ca2ed4922b008e3249b7fb3512b", "fusion_lat": 0.0, "fusion_lon": 0.0, "lon": -77.06865216666667, "is_disabled": 0, "bike_id": "c4ed0ca2ed4922b008e3249b7fb3512b", "is_reserved": 0, "rental_uris": {"android": "https://dc.lft.to/lastmile_qr_scan", "ios": "https://dc.lft.to/lastmile_qr_scan"}, "lat": 38.95268766666667}, {"type": "electric_scooter", "name": "5d5fc05f267acd259549901627c26453", "fusion_lat": 0.0, "fusion_lon": 0.0, "lon": -77.0344735, "is_disabled": 0, "bike_id": "5d5fc05f267acd259549901627c26453", "is_reserved": 0, "rental_uris": {"android": "https://dc.lft.to/lastmile_qr_scan", "ios": "https://dc.lft.to/lastmile_qr_scan"}, "lat": 38.907414833333334}, {"type": "electric_scooter", "name": "6458437a4fa73df70114e91d80c84fce", "fusion_lat": 0.0, "fusion_lon": 0.0, "lon": -77.04187483333334, "is_disabled": 0, "bike_id": "6458437a4fa73df70114e91d80c84fce", "is_reserved": 0, "rental_uris": {"android": "https://dc.lft.to/lastmile_qr_scan", "ios": "https://dc.lft.to/lastmile_qr_scan"}, "lat": 38.9202505}, {"type": "electric_scooter", "name": "ad1dc9cf5c2b383ccc6c4efab3657620", "fusion_lat": 0.0, "fusion_lon": 0.0, "lon": -76.99002516666667, "is_disabled": 0, "bike_id": "ad1dc9cf5c2b383ccc6c4efab3657620", "is_reserved": 0, "rental_uris": {"android": "https://dc.lft.to/lastmile_qr_scan", "ios": "https://dc.lft.to/lastmile_qr_scan"}, "lat": 38.86432083333333}, {"type": "electric_bike", "name": "40d8e8deb6eed8e8914400d09dd14c04", "fusion_lat": 0.0, "fusion_lon": 0.0, "lon": -77.12933083333333, "is_disabled": 0, "bike_id": "40d8e8deb6eed8e8914400d09dd14c04", "is_reserved": 0, "rental_uris": {"android": "https://dc.lft.to/lastmile_qr_scan", "ios": "https://dc.lft.to/lastmile_qr_scan"}, "lat": 38.8657115}, {"type": "electric_scooter", "name": "46ab5802672dcc90a8c4d25a09e77ed9", "fusion_lat": 0.0, "fusion_lon": 0.0, "lon": -77.021481, "is_disabled": 0, "bike_id": "46ab5802672dcc90a8c4d25a09e77ed9", "is_reserved": 0, "rental_uris": {"android": "https://dc.lft.to/lastmile_qr_scan", "ios": "https://dc.lft.to/lastmile_qr_scan"}, "lat": 38.9245955}, {"type": "electric_scooter", "name": "e6aded9d0ddd62b50953e87bc0635dda", "fusion_lat": 0.0, "fusion_lon": 0.0, "lon": -77.02295183333334, "is_disabled": 0, "bike_id": "e6aded9d0ddd62b50953e87bc0635dda", "is_reserved": 0, "rental_uris": {"android": "https://dc.lft.to/lastmile_qr_scan", "ios": "https://dc.lft.to/lastmile_qr_scan"}, "lat": 38.920854166666665}, {"type": "electric_scooter", "name": "f200d7b61b2791b309d17e628dfb779b", "fusion_lat": 0.0, "fusion_lon": 0.0, "lon": -77.009287, "is_disabled": 0, "bike_id": "f200d7b61b2791b309d17e628dfb779b", "is_reserved": 0, "rental_uris": {"android": "https://dc.lft.to/lastmile_qr_scan", "ios": "https://dc.lft.to/lastmile_qr_scan"}, "lat": 38.92136466666667}, {"type": "electric_scooter", "name": "837dfaf2b8a371feb5e95db9d0cb05d1", "fusion_lat": 0.0, "fusion_lon": 0.0, "lon": -77.02201866666667, "is_disabled": 0, "bike_id": "837dfaf2b8a371feb5e95db9d0cb05d1", "is_reserved": 0, "rental_uris": {"android": "https://dc.lft.to/lastmile_qr_scan", "ios": "https://dc.lft.to/lastmile_qr_scan"}, "lat": 38.914776333333336}, {"type": "electric_scooter", "name": "dfe1b6574ff83a729fec1d4350b44594", "fusion_lat": 0.0, "fusion_lon": 0.0, "lon": -76.92967566666667, "is_disabled": 0, "bike_id": "dfe1b6574ff83a729fec1d4350b44594", "is_reserved": 0, "rental_uris": {"android": "https://dc.lft.to/lastmile_qr_scan", "ios": "https://dc.lft.to/lastmile_qr_scan"}, "lat": 38.89628}, {"type": "electric_scooter", "name": "522490603c93fb55dfaa95425b4c6e88", "fusion_lat": 0.0, "fusion_lon": 0.0, "lon": -77.0034105, "is_disabled": 0, "bike_id": "522490603c93fb55dfaa95425b4c6e88", "is_reserved": 0, "rental_uris": {"android": "https://dc.lft.to/lastmile_qr_scan", "ios": "https://dc.lft.to/lastmile_qr_scan"}, "lat": 38.886352}, {"type": "electric_scooter", "name": "4f39fe277f6899b25a375f45df2c5aa1", "fusion_lat": 0.0, "fusion_lon": 0.0, "lon": -77.0297, "is_disabled": 0, "bike_id": "4f39fe277f6899b25a375f45df2c5aa1", "is_reserved": 0, "rental_uris": {"android": "https://dc.lft.to/lastmile_qr_scan", "ios": "https://dc.lft.to/lastmile_qr_scan"}, "lat": 38.923152}, {"type": "electric_scooter", "name": "75c59acab0b82f894bf3ed823b6af973", "fusion_lat": 0.0, "fusion_lon": 0.0, "lon": -77.0151305, "is_disabled": 0, "bike_id": "75c59acab0b82f894bf3ed823b6af973", "is_reserved": 0, "rental_uris": {"android": "https://dc.lft.to/lastmile_qr_scan", "ios": "https://dc.lft.to/lastmile_qr_scan"}, "lat": 38.926565}, {"type": "electric_scooter", "name": "447e9651058257adb5bf7dedfa9df6a1", "fusion_lat": 0.0, "fusion_lon": 0.0, "lon": -77.0434075, "is_disabled": 0, "bike_id": "447e9651058257adb5bf7dedfa9df6a1", "is_reserved": 0, "rental_uris": {"android": "https://dc.lft.to/lastmile_qr_scan", "ios": "https://dc.lft.to/lastmile_qr_scan"}, "lat": 38.901121}, {"type": "electric_bike", "name": "2eb25c1a1108e48d6713a58a7a7cc1d6", "fusion_lat": 0.0, "fusion_lon": 0.0, "lon": -76.95743816666666, "is_disabled": 0, "bike_id": "2eb25c1a1108e48d6713a58a7a7cc1d6", "is_reserved": 0, "rental_uris": {"android": "https://dc.lft.to/lastmile_qr_scan", "ios": "https://dc.lft.to/lastmile_qr_scan"}, "lat": 38.888509666666664}, {"type": "electric_scooter", "name": "9f492aa9f650f67491ec011669e079e2", "fusion_lat": 0.0, "fusion_lon": 0.0, "lon": -76.98857666666666, "is_disabled": 0, "bike_id": "9f492aa9f650f67491ec011669e079e2", "is_reserved": 0, "rental_uris": {"android": "https://dc.lft.to/lastmile_qr_scan", "ios": "https://dc.lft.to/lastmile_qr_scan"}, "lat": 38.900317666666666}, {"type": "electric_scooter", "name": "843c25710bb8194edb622d5305af0288", "fusion_lat": 0.0, "fusion_lon": 0.0, "lon": -77.03837516666667, "is_disabled": 0, "bike_id": "843c25710bb8194edb622d5305af0288", "is_reserved": 0, "rental_uris": {"android": "https://dc.lft.to/lastmile_qr_scan", "ios": "https://dc.lft.to/lastmile_qr_scan"}, "lat": 38.909978833333334}, {"type": "electric_scooter", "name": "71b7d74100aabc611468125adeb3a072", "fusion_lat": 0.0, "fusion_lon": 0.0, "lon": -77.04235983333334, "is_disabled": 0, "bike_id": "71b7d74100aabc611468125adeb3a072", "is_reserved": 0, "rental_uris": {"android": "https://dc.lft.to/lastmile_qr_scan", "ios": "https://dc.lft.to/lastmile_qr_scan"}, "lat": 38.921512666666665}, {"type": "electric_scooter", "name": "ac4d79fb374c0bd104bd8e5fbe166d01", "fusion_lat": 0.0, "fusion_lon": 0.0, "lon": -77.0383525, "is_disabled": 0, "bike_id": "ac4d79fb374c0bd104bd8e5fbe166d01", "is_reserved": 0, "rental_uris": {"android": "https://dc.lft.to/lastmile_qr_scan", "ios": "https://dc.lft.to/lastmile_qr_scan"}, "lat": 38.9119135}, {"type": "electric_bike", "name": "b63af33c236bd6fcf9e45e0db2cc9536", "fusion_lat": 0.0, "fusion_lon": 0.0, "lon": -77.08949133333333, "is_disabled": 0, "bike_id": "b63af33c236bd6fcf9e45e0db2cc9536", "is_reserved": 0, "rental_uris": {"android": "https://dc.lft.to/lastmile_qr_scan", "ios": "https://dc.lft.to/lastmile_qr_scan"}, "lat": 38.841070333333334}, {"type": "electric_scooter", "name": "9e3ef201ef96d6ac08c6641fd0729af9", "fusion_lat": 0.0, "fusion_lon": 0.0, "lon": -77.03715616666666, "is_disabled": 0, "bike_id": "9e3ef201ef96d6ac08c6641fd0729af9", "is_reserved": 0, "rental_uris": {"android": "https://dc.lft.to/lastmile_qr_scan", "ios": "https://dc.lft.to/lastmile_qr_scan"}, "lat": 38.91559816666667}, {"type": "electric_scooter", "name": "ac343df54c691e08f533fec7401fa623", "fusion_lat": 0.0, "fusion_lon": 0.0, "lon": -76.99879233333333, "is_disabled": 0, "bike_id": "ac343df54c691e08f533fec7401fa623", "is_reserved": 0, "rental_uris": {"android": "https://dc.lft.to/lastmile_qr_scan", "ios": "https://dc.lft.to/lastmile_qr_scan"}, "lat": 38.90753766666667}, {"type": "electric_bike", "name": "059e7341de35dc56485b63ce851e1602", "fusion_lat": 0.0, "fusion_lon": 0.0, "lon": -77.0819705, "is_disabled": 0, "bike_id": "059e7341de35dc56485b63ce851e1602", "is_reserved": 0, "rental_uris": {"android": "https://dc.lft.to/lastmile_qr_scan", "ios": "https://dc.lft.to/lastmile_qr_scan"}, "lat": 38.92203966666667}, {"type": "electric_scooter", "name": "6086b6d86cbc7eb43462bb85299285c3", "fusion_lat": 0.0, "fusion_lon": 0.0, "lon": -77.006193, "is_disabled": 0, "bike_id": "6086b6d86cbc7eb43462bb85299285c3", "is_reserved": 0, "rental_uris": {"android": "https://dc.lft.to/lastmile_qr_scan", "ios": "https://dc.lft.to/lastmile_qr_scan"}, "lat": 38.87895066666667}, {"type": "electric_scooter", "name": "2b68ceddfd7bc39c2059ad6fbe22b242", "fusion_lat": 0.0, "fusion_lon": 0.0, "lon": -76.98356783333334, "is_disabled": 0, "bike_id": "2b68ceddfd7bc39c2059ad6fbe22b242", "is_reserved": 0, "rental_uris": {"android": "https://dc.lft.to/lastmile_qr_scan", "ios": "https://dc.lft.to/lastmile_qr_scan"}, "lat": 38.887326}, {"type": "electric_scooter", "name": "7e966e9013732858896dba0baec1b981", "fusion_lat": 0.0, "fusion_lon": 0.0, "lon": -76.94714883333333, "is_disabled": 0, "bike_id": "7e966e9013732858896dba0baec1b981", "is_reserved": 0, "rental_uris": {"android": "https://dc.lft.to/lastmile_qr_scan", "ios": "https://dc.lft.to/lastmile_qr_scan"}, "lat": 38.89084833333333}, {"type": "electric_scooter", "name": "91a2e7b4408e4478793295ac89cbd168", "fusion_lat": 0.0, "fusion_lon": 0.0, "lon": -77.01748633333334, "is_disabled": 0, "bike_id": "91a2e7b4408e4478793295ac89cbd168", "is_reserved": 0, "rental_uris": {"android": "https://dc.lft.to/lastmile_qr_scan", "ios": "https://dc.lft.to/lastmile_qr_scan"}, "lat": 38.91246316666667}, {"type": "electric_scooter", "name": "1d9939f99bc3a79b13976ea523db93b9", "fusion_lat": 0.0, "fusion_lon": 0.0, "lon": -77.01833816666667, "is_disabled": 0, "bike_id": "1d9939f99bc3a79b13976ea523db93b9", "is_reserved": 0, "rental_uris": {"android": "https://dc.lft.to/lastmile_qr_scan", "ios": "https://dc.lft.to/lastmile_qr_scan"}, "lat": 38.90957316666667}, {"type": "electric_scooter", "name": "592768c6ec84d3530988b3ee4a5977ca", "fusion_lat": 0.0, "fusion_lon": 0.0, "lon": -77.03261516666667, "is_disabled": 0, "bike_id": "592768c6ec84d3530988b3ee4a5977ca", "is_reserved": 0, "rental_uris": {"android": "https://dc.lft.to/lastmile_qr_scan", "ios": "https://dc.lft.to/lastmile_qr_scan"}, "lat": 38.9330315}, {"type": "electric_scooter", "name": "c45fc1cc3268c0fc58fb67ecd0f1fc7d", "fusion_lat": 0.0, "fusion_lon": 0.0, "lon": -77.00988083333333, "is_disabled": 0, "bike_id": "c45fc1cc3268c0fc58fb67ecd0f1fc7d", "is_reserved": 0, "rental_uris": {"android": "https://dc.lft.to/lastmile_qr_scan", "ios": "https://dc.lft.to/lastmile_qr_scan"}, "lat": 38.872834166666664}, {"type": "electric_scooter", "name": "8f5031fc608b06f23258bb7eccf43e93", "fusion_lat": 0.0, "fusion_lon": 0.0, "lon": -77.04179716666667, "is_disabled": 0, "bike_id": "8f5031fc608b06f23258bb7eccf43e93", "is_reserved": 0, "rental_uris": {"android": "https://dc.lft.to/lastmile_qr_scan", "ios": "https://dc.lft.to/lastmile_qr_scan"}, "lat": 38.91982816666667}, {"type": "electric_scooter", "name": "8332563aec746ed2dc9248adf241755c", "fusion_lat": 0.0, "fusion_lon": 0.0, "lon": -77.03457883333333, "is_disabled": 0, "bike_id": "8332563aec746ed2dc9248adf241755c", "is_reserved": 0, "rental_uris": {"android": "https://dc.lft.to/lastmile_qr_scan", "ios": "https://dc.lft.to/lastmile_qr_scan"}, "lat": 38.9221485}, {"type": "electric_bike", "name": "a7fed056b4a997e1f8151a8001c49f80", "fusion_lat": 0.0, "fusion_lon": 0.0, "lon": -77.1061335, "is_disabled": 0, "bike_id": "a7fed056b4a997e1f8151a8001c49f80", "is_reserved": 0, "rental_uris": {"android": "https://dc.lft.to/lastmile_qr_scan", "ios": "https://dc.lft.to/lastmile_qr_scan"}, "lat": 38.837270833333335}, {"type": "electric_scooter", "name": "332be592b74d9ec43d626075d55508a7", "fusion_lat": 0.0, "fusion_lon": 0.0, "lon": -77.05211583333333, "is_disabled": 0, "bike_id": "332be592b74d9ec43d626075d55508a7", "is_reserved": 0, "rental_uris": {"android": "https://dc.lft.to/lastmile_qr_scan", "ios": "https://dc.lft.to/lastmile_qr_scan"}, "lat": 38.899553833333336}, {"type": "electric_scooter", "name": "6f9a2f26b072bc33e6c00edfb7391483", "fusion_lat": 0.0, "fusion_lon": 0.0, "lon": -77.03532366666667, "is_disabled": 0, "bike_id": "6f9a2f26b072bc33e6c00edfb7391483", "is_reserved": 0, "rental_uris": {"android": "https://dc.lft.to/lastmile_qr_scan", "ios": "https://dc.lft.to/lastmile_qr_scan"}, "lat": 38.92348966666667}, {"type": "electric_scooter", "name": "e2be7d12992f353526c2554a3010af64", "fusion_lat": 0.0, "fusion_lon": 0.0, "lon": -77.03466566666667, "is_disabled": 0, "bike_id": "e2be7d12992f353526c2554a3010af64", "is_reserved": 0, "rental_uris": {"android": "https://dc.lft.to/lastmile_qr_scan", "ios": "https://dc.lft.to/lastmile_qr_scan"}, "lat": 38.92064716666667}, {"type": "electric_scooter", "name": "7a976d6c33625f29b9e648d7bdb3c796", "fusion_lat": 0.0, "fusion_lon": 0.0, "lon": -77.036621, "is_disabled": 0, "bike_id": "7a976d6c33625f29b9e648d7bdb3c796", "is_reserved": 0, "rental_uris": {"android": "https://dc.lft.to/lastmile_qr_scan", "ios": "https://dc.lft.to/lastmile_qr_scan"}, "lat": 38.92119916666667}, {"type": "electric_bike", "name": "590de1f7d94bcb89cbe54a07e697c517", "fusion_lat": 0.0, "fusion_lon": 0.0, "lon": -76.94164383333333, "is_disabled": 0, "bike_id": "590de1f7d94bcb89cbe54a07e697c517", "is_reserved": 0, "rental_uris": {"android": "https://dc.lft.to/lastmile_qr_scan", "ios": "https://dc.lft.to/lastmile_qr_scan"}, "lat": 38.865546}, {"type": "electric_bike", "name": "df4070d970cbdf0804c42e9fc1efd636", "fusion_lat": 0.0, "fusion_lon": 0.0, "lon": -77.0000795, "is_disabled": 0, "bike_id": "df4070d970cbdf0804c42e9fc1efd636", "is_reserved": 0, "rental_uris": {"android": "https://dc.lft.to/lastmile_qr_scan", "ios": "https://dc.lft.to/lastmile_qr_scan"}, "lat": 38.92395633333334}, {"type": "electric_scooter", "name": "e7861f533e855dcf5c9a44e45470265d", "fusion_lat": 0.0, "fusion_lon": 0.0, "lon": -77.04297183333334, "is_disabled": 0, "bike_id": "e7861f533e855dcf5c9a44e45470265d", "is_reserved": 0, "rental_uris": {"android": "https://dc.lft.to/lastmile_qr_scan", "ios": "https://dc.lft.to/lastmile_qr_scan"}, "lat": 38.93187783333333}, {"type": "electric_scooter", "name": "66561c7044d1d1731e30b87c24cd495a", "fusion_lat": 0.0, "fusion_lon": 0.0, "lon": -77.00450683333334, "is_disabled": 0, "bike_id": "66561c7044d1d1731e30b87c24cd495a", "is_reserved": 0, "rental_uris": {"android": "https://dc.lft.to/lastmile_qr_scan", "ios": "https://dc.lft.to/lastmile_qr_scan"}, "lat": 38.8782555}, {"type": "electric_scooter", "name": "1cae309e06587eb17858b5c6a519da8b", "fusion_lat": 0.0, "fusion_lon": 0.0, "lon": -77.0199455, "is_disabled": 0, "bike_id": "1cae309e06587eb17858b5c6a519da8b", "is_reserved": 0, "rental_uris": {"android": "https://dc.lft.to/lastmile_qr_scan", "ios": "https://dc.lft.to/lastmile_qr_scan"}, "lat": 38.876023333333336}, {"type": "electric_scooter", "name": "343f097ce0a27121c6dfd2518c60b840", "fusion_lat": 0.0, "fusion_lon": 0.0, "lon": -77.00463483333333, "is_disabled": 0, "bike_id": "343f097ce0a27121c6dfd2518c60b840", "is_reserved": 0, "rental_uris": {"android": "https://dc.lft.to/lastmile_qr_scan", "ios": "https://dc.lft.to/lastmile_qr_scan"}, "lat": 38.91195166666667}, {"type": "electric_scooter", "name": "de84c01287b46ffa9c0d11948167e79c", "fusion_lat": 0.0, "fusion_lon": 0.0, "lon": -76.997545, "is_disabled": 0, "bike_id": "de84c01287b46ffa9c0d11948167e79c", "is_reserved": 0, "rental_uris": {"android": "https://dc.lft.to/lastmile_qr_scan", "ios": "https://dc.lft.to/lastmile_qr_scan"}, "lat": 38.90036716666667}, {"type": "electric_scooter", "name": "e1911cc5ab9df390db1407ed706dddc3", "fusion_lat": 0.0, "fusion_lon": 0.0, "lon": -77.03955366666666, "is_disabled": 0, "bike_id": "e1911cc5ab9df390db1407ed706dddc3", "is_reserved": 0, "rental_uris": {"android": "https://dc.lft.to/lastmile_qr_scan", "ios": "https://dc.lft.to/lastmile_qr_scan"}, "lat": 38.892413}, {"type": "electric_scooter", "name": "487fb8141b4fdbe7180a600ca793515f", "fusion_lat": 0.0, "fusion_lon": 0.0, "lon": -77.01092233333334, "is_disabled": 0, "bike_id": "487fb8141b4fdbe7180a600ca793515f", "is_reserved": 0, "rental_uris": {"android": "https://dc.lft.to/lastmile_qr_scan", "ios": "https://dc.lft.to/lastmile_qr_scan"}, "lat": 38.916252}, {"type": "electric_bike", "name": "aa94301e405031555d5f86b23aaa34e2", "fusion_lat": 0.0, "fusion_lon": 0.0, "lon": -77.12840283333334, "is_disabled": 0, "bike_id": "aa94301e405031555d5f86b23aaa34e2", "is_reserved": 0, "rental_uris": {"android": "https://dc.lft.to/lastmile_qr_scan", "ios": "https://dc.lft.to/lastmile_qr_scan"}, "lat": 38.80052366666666}, {"type": "electric_scooter", "name": "14e3a28508617d529e0c7062622aba02", "fusion_lat": 0.0, "fusion_lon": 0.0, "lon": -76.999109, "is_disabled": 0, "bike_id": "14e3a28508617d529e0c7062622aba02", "is_reserved": 0, "rental_uris": {"android": "https://dc.lft.to/lastmile_qr_scan", "ios": "https://dc.lft.to/lastmile_qr_scan"}, "lat": 38.92456}, {"type": "electric_scooter", "name": "0de6413b4487593ce6391c62b003e029", "fusion_lat": 0.0, "fusion_lon": 0.0, "lon": -77.04437166666666, "is_disabled": 0, "bike_id": "0de6413b4487593ce6391c62b003e029", "is_reserved": 0, "rental_uris": {"android": "https://dc.lft.to/lastmile_qr_scan", "ios": "https://dc.lft.to/lastmile_qr_scan"}, "lat": 38.92229483333333}, {"type": "electric_scooter", "name": "78eea162f691fdb68fee3d07c67ef145", "fusion_lat": 0.0, "fusion_lon": 0.0, "lon": -77.0227935, "is_disabled": 0, "bike_id": "78eea162f691fdb68fee3d07c67ef145", "is_reserved": 0, "rental_uris": {"android": "https://dc.lft.to/lastmile_qr_scan", "ios": "https://dc.lft.to/lastmile_qr_scan"}, "lat": 38.8983675}, {"type": "electric_scooter", "name": "c6a822ce5d81c245a7a5690eb2198803", "fusion_lat": 0.0, "fusion_lon": 0.0, "lon": -77.02204716666667, "is_disabled": 0, "bike_id": "c6a822ce5d81c245a7a5690eb2198803", "is_reserved": 0, "rental_uris": {"android": "https://dc.lft.to/lastmile_qr_scan", "ios": "https://dc.lft.to/lastmile_qr_scan"}, "lat": 38.914405}, {"type": "electric_bike", "name": "7e1bec556e60bcb0362e8664b4cc4475", "fusion_lat": 0.0, "fusion_lon": 0.0, "lon": -77.1140765, "is_disabled": 0, "bike_id": "7e1bec556e60bcb0362e8664b4cc4475", "is_reserved": 0, "rental_uris": {"android": "https://dc.lft.to/lastmile_qr_scan", "ios": "https://dc.lft.to/lastmile_qr_scan"}, "lat": 38.873227166666666}, {"type": "electric_scooter", "name": "6b751aa25428d94f1f506ed01350c820", "fusion_lat": 0.0, "fusion_lon": 0.0, "lon": -77.00623333333333, "is_disabled": 0, "bike_id": "6b751aa25428d94f1f506ed01350c820", "is_reserved": 0, "rental_uris": {"android": "https://dc.lft.to/lastmile_qr_scan", "ios": "https://dc.lft.to/lastmile_qr_scan"}, "lat": 38.871940333333335}, {"type": "electric_scooter", "name": "8156b7cdabe3d6db99e4fb6514119ca6", "fusion_lat": 0.0, "fusion_lon": 0.0, "lon": -77.04876083333333, "is_disabled": 0, "bike_id": "8156b7cdabe3d6db99e4fb6514119ca6", "is_reserved": 0, "rental_uris": {"android": "https://dc.lft.to/lastmile_qr_scan", "ios": "https://dc.lft.to/lastmile_qr_scan"}, "lat": 38.91050233333333}, {"type": "electric_scooter", "name": "8accff4d8952c05ca5a959d2b10d35d1", "fusion_lat": 0.0, "fusion_lon": 0.0, "lon": -77.02299383333333, "is_disabled": 0, "bike_id": "8accff4d8952c05ca5a959d2b10d35d1", "is_reserved": 0, "rental_uris": {"android": "https://dc.lft.to/lastmile_qr_scan", "ios": "https://dc.lft.to/lastmile_qr_scan"}, "lat": 38.91697283333333}, {"type": "electric_scooter", "name": "accd4462a068c61b78049dae248a3a94", "fusion_lat": 0.0, "fusion_lon": 0.0, "lon": -77.04860633333334, "is_disabled": 0, "bike_id": "accd4462a068c61b78049dae248a3a94", "is_reserved": 0, "rental_uris": {"android": "https://dc.lft.to/lastmile_qr_scan", "ios": "https://dc.lft.to/lastmile_qr_scan"}, "lat": 38.912598833333334}, {"type": "electric_scooter", "name": "b08312984575c18214431c7b308ed3f8", "fusion_lat": 0.0, "fusion_lon": 0.0, "lon": -76.98366583333333, "is_disabled": 0, "bike_id": "b08312984575c18214431c7b308ed3f8", "is_reserved": 0, "rental_uris": {"android": "https://dc.lft.to/lastmile_qr_scan", "ios": "https://dc.lft.to/lastmile_qr_scan"}, "lat": 38.891368166666666}, {"type": "electric_scooter", "name": "7a12f96a8f916ae34bf41ef4a65216f8", "fusion_lat": 0.0, "fusion_lon": 0.0, "lon": -77.06685716666667, "is_disabled": 0, "bike_id": "7a12f96a8f916ae34bf41ef4a65216f8", "is_reserved": 0, "rental_uris": {"android": "https://dc.lft.to/lastmile_qr_scan", "ios": "https://dc.lft.to/lastmile_qr_scan"}, "lat": 38.9501725}, {"type": "electric_scooter", "name": "26c8eadf00c24f9d9564650968231d85", "fusion_lat": 0.0, "fusion_lon": 0.0, "lon": -77.0179455, "is_disabled": 0, "bike_id": "26c8eadf00c24f9d9564650968231d85", "is_reserved": 0, "rental_uris": {"android": "https://dc.lft.to/lastmile_qr_scan", "ios": "https://dc.lft.to/lastmile_qr_scan"}, "lat": 38.919407166666666}, {"type": "electric_scooter", "name": "64efc08110413facdc2dfeee7c651d8b", "fusion_lat": 0.0, "fusion_lon": 0.0, "lon": -77.0219065, "is_disabled": 0, "bike_id": "64efc08110413facdc2dfeee7c651d8b", "is_reserved": 0, "rental_uris": {"android": "https://dc.lft.to/lastmile_qr_scan", "ios": "https://dc.lft.to/lastmile_qr_scan"}, "lat": 38.90541016666667}, {"type": "electric_scooter", "name": "336f382780b048dfdc7c1e7fe5312822", "fusion_lat": 0.0, "fusion_lon": 0.0, "lon": -77.01801716666667, "is_disabled": 0, "bike_id": "336f382780b048dfdc7c1e7fe5312822", "is_reserved": 0, "rental_uris": {"android": "https://dc.lft.to/lastmile_qr_scan", "ios": "https://dc.lft.to/lastmile_qr_scan"}, "lat": 38.919769333333335}, {"type": "electric_scooter", "name": "e63dc72f0342dccf883466926453b7dc", "fusion_lat": 0.0, "fusion_lon": 0.0, "lon": -76.98334616666666, "is_disabled": 0, "bike_id": "e63dc72f0342dccf883466926453b7dc", "is_reserved": 0, "rental_uris": {"android": "https://dc.lft.to/lastmile_qr_scan", "ios": "https://dc.lft.to/lastmile_qr_scan"}, "lat": 38.89543483333333}, {"type": "electric_scooter", "name": "dc1dae971e5c6b728ee2a50d8536964d", "fusion_lat": 0.0, "fusion_lon": 0.0, "lon": -77.03349966666667, "is_disabled": 0, "bike_id": "dc1dae971e5c6b728ee2a50d8536964d", "is_reserved": 0, "rental_uris": {"android": "https://dc.lft.to/lastmile_qr_scan", "ios": "https://dc.lft.to/lastmile_qr_scan"}, "lat": 38.923441}, {"type": "electric_scooter", "name": "0b2d0f64da5f89853d2dde739506aa47", "fusion_lat": 0.0, "fusion_lon": 0.0, "lon": -77.00350416666667, "is_disabled": 0, "bike_id": "0b2d0f64da5f89853d2dde739506aa47", "is_reserved": 0, "rental_uris": {"android": "https://dc.lft.to/lastmile_qr_scan", "ios": "https://dc.lft.to/lastmile_qr_scan"}, "lat": 38.91622533333334}, {"type": "electric_scooter", "name": "a63523fa4622674032700d2619e6d207", "fusion_lat": 0.0, "fusion_lon": 0.0, "lon": -77.02094066666666, "is_disabled": 0, "bike_id": "a63523fa4622674032700d2619e6d207", "is_reserved": 0, "rental_uris": {"android": "https://dc.lft.to/lastmile_qr_scan", "ios": "https://dc.lft.to/lastmile_qr_scan"}, "lat": 38.930158666666664}, {"type": "electric_scooter", "name": "271176f822e7c5dfbf3478a998223c3e", "fusion_lat": 0.0, "fusion_lon": 0.0, "lon": -77.03669533333333, "is_disabled": 0, "bike_id": "271176f822e7c5dfbf3478a998223c3e", "is_reserved": 0, "rental_uris": {"android": "https://dc.lft.to/lastmile_qr_scan", "ios": "https://dc.lft.to/lastmile_qr_scan"}, "lat": 38.91819233333333}, {"type": "electric_scooter", "name": "f403903005d5e0d61f55167b3f53027d", "fusion_lat": 0.0, "fusion_lon": 0.0, "lon": -77.04333216666667, "is_disabled": 0, "bike_id": "f403903005d5e0d61f55167b3f53027d", "is_reserved": 0, "rental_uris": {"android": "https://dc.lft.to/lastmile_qr_scan", "ios": "https://dc.lft.to/lastmile_qr_scan"}, "lat": 38.93410733333333}, {"type": "electric_scooter", "name": "5bf88192ab004ae93220b019598f58fa", "fusion_lat": 0.0, "fusion_lon": 0.0, "lon": -77.00740416666666, "is_disabled": 0, "bike_id": "5bf88192ab004ae93220b019598f58fa", "is_reserved": 0, "rental_uris": {"android": "https://dc.lft.to/lastmile_qr_scan", "ios": "https://dc.lft.to/lastmile_qr_scan"}, "lat": 38.92525466666667}, {"type": "electric_scooter", "name": "6910701868f3ea2f332cdf56feff3a3d", "fusion_lat": 0.0, "fusion_lon": 0.0, "lon": -77.03842516666667, "is_disabled": 0, "bike_id": "6910701868f3ea2f332cdf56feff3a3d", "is_reserved": 0, "rental_uris": {"android": "https://dc.lft.to/lastmile_qr_scan", "ios": "https://dc.lft.to/lastmile_qr_scan"}, "lat": 38.907228333333336}, {"type": "electric_scooter", "name": "c87c77b97ea98c3f4cb7ee284131b9d1", "fusion_lat": 0.0, "fusion_lon": 0.0, "lon": -77.04880766666666, "is_disabled": 0, "bike_id": "c87c77b97ea98c3f4cb7ee284131b9d1", "is_reserved": 0, "rental_uris": {"android": "https://dc.lft.to/lastmile_qr_scan", "ios": "https://dc.lft.to/lastmile_qr_scan"}, "lat": 38.91609233333333}, {"type": "electric_scooter", "name": "fecc669467f07401e12fa0cdba39258a", "fusion_lat": 0.0, "fusion_lon": 0.0, "lon": -77.02402183333334, "is_disabled": 0, "bike_id": "fecc669467f07401e12fa0cdba39258a", "is_reserved": 0, "rental_uris": {"android": "https://dc.lft.to/lastmile_qr_scan", "ios": "https://dc.lft.to/lastmile_qr_scan"}, "lat": 38.917197}, {"type": "electric_scooter", "name": "29d5fac8e5d5438f735d6af0a5d4adc4", "fusion_lat": 0.0, "fusion_lon": 0.0, "lon": -77.02180116666666, "is_disabled": 0, "bike_id": "29d5fac8e5d5438f735d6af0a5d4adc4", "is_reserved": 0, "rental_uris": {"android": "https://dc.lft.to/lastmile_qr_scan", "ios": "https://dc.lft.to/lastmile_qr_scan"}, "lat": 38.90954816666667}, {"type": "electric_scooter", "name": "cd020c03cc8bb173602f89a4791c4598", "fusion_lat": 0.0, "fusion_lon": 0.0, "lon": -77.02736566666667, "is_disabled": 0, "bike_id": "cd020c03cc8bb173602f89a4791c4598", "is_reserved": 0, "rental_uris": {"android": "https://dc.lft.to/lastmile_qr_scan", "ios": "https://dc.lft.to/lastmile_qr_scan"}, "lat": 38.92386666666667}, {"type": "electric_scooter", "name": "9bc8807fe40118d04c73db9b45c3d49c", "fusion_lat": 0.0, "fusion_lon": 0.0, "lon": -77.03530583333334, "is_disabled": 0, "bike_id": "9bc8807fe40118d04c73db9b45c3d49c", "is_reserved": 0, "rental_uris": {"android": "https://dc.lft.to/lastmile_qr_scan", "ios": "https://dc.lft.to/lastmile_qr_scan"}, "lat": 38.92469666666667}, {"type": "electric_bike", "name": "721ce0edf8956e495c49cf495be4fffe", "fusion_lat": 0.0, "fusion_lon": 0.0, "lon": -76.90737083333333, "is_disabled": 0, "bike_id": "721ce0edf8956e495c49cf495be4fffe", "is_reserved": 0, "rental_uris": {"android": "https://dc.lft.to/lastmile_qr_scan", "ios": "https://dc.lft.to/lastmile_qr_scan"}, "lat": 38.89619866666666}, {"type": "electric_scooter", "name": "a2698f3c1f5923624d6aafdff21e8111", "fusion_lat": 0.0, "fusion_lon": 0.0, "lon": -77.03174783333333, "is_disabled": 0, "bike_id": "a2698f3c1f5923624d6aafdff21e8111", "is_reserved": 0, "rental_uris": {"android": "https://dc.lft.to/lastmile_qr_scan", "ios": "https://dc.lft.to/lastmile_qr_scan"}, "lat": 38.884746}, {"type": "electric_scooter", "name": "43b689832dd44fb86d4231b78fc36080", "fusion_lat": 0.0, "fusion_lon": 0.0, "lon": -77.02476183333333, "is_disabled": 0, "bike_id": "43b689832dd44fb86d4231b78fc36080", "is_reserved": 0, "rental_uris": {"android": "https://dc.lft.to/lastmile_qr_scan", "ios": "https://dc.lft.to/lastmile_qr_scan"}, "lat": 38.938533166666666}, {"type": "electric_scooter", "name": "a62cac5cb3fd87e4fff25a9101bb6047", "fusion_lat": 0.0, "fusion_lon": 0.0, "lon": -77.04762116666667, "is_disabled": 0, "bike_id": "a62cac5cb3fd87e4fff25a9101bb6047", "is_reserved": 0, "rental_uris": {"android": "https://dc.lft.to/lastmile_qr_scan", "ios": "https://dc.lft.to/lastmile_qr_scan"}, "lat": 38.940972333333335}, {"type": "electric_scooter", "name": "e2d0c4ce74f28dbbea8f5e6c016a85df", "fusion_lat": 0.0, "fusion_lon": 0.0, "lon": -77.03185783333333, "is_disabled": 0, "bike_id": "e2d0c4ce74f28dbbea8f5e6c016a85df", "is_reserved": 0, "rental_uris": {"android": "https://dc.lft.to/lastmile_qr_scan", "ios": "https://dc.lft.to/lastmile_qr_scan"}, "lat": 38.914151}, {"type": "electric_scooter", "name": "5fd0c87d5b8e092f0baacfbebf273e73", "fusion_lat": 0.0, "fusion_lon": 0.0, "lon": -77.02062716666667, "is_disabled": 0, "bike_id": "5fd0c87d5b8e092f0baacfbebf273e73", "is_reserved": 0, "rental_uris": {"android": "https://dc.lft.to/lastmile_qr_scan", "ios": "https://dc.lft.to/lastmile_qr_scan"}, "lat": 38.908472833333335}, {"type": "electric_scooter", "name": "0053f6fc3436f1f6d9d525784203fcef", "fusion_lat": 0.0, "fusion_lon": 0.0, "lon": -77.02805816666667, "is_disabled": 0, "bike_id": "0053f6fc3436f1f6d9d525784203fcef", "is_reserved": 0, "rental_uris": {"android": "https://dc.lft.to/lastmile_qr_scan", "ios": "https://dc.lft.to/lastmile_qr_scan"}, "lat": 38.9307835}, {"type": "electric_scooter", "name": "8fb9240ff1654a01e48483655c607a1e", "fusion_lat": 0.0, "fusion_lon": 0.0, "lon": -77.00822183333334, "is_disabled": 0, "bike_id": "8fb9240ff1654a01e48483655c607a1e", "is_reserved": 0, "rental_uris": {"android": "https://dc.lft.to/lastmile_qr_scan", "ios": "https://dc.lft.to/lastmile_qr_scan"}, "lat": 38.91365916666667}, {"type": "electric_scooter", "name": "b960b78d24723eec7a8fe389fecae027", "fusion_lat": 0.0, "fusion_lon": 0.0, "lon": -77.0052845, "is_disabled": 0, "bike_id": "b960b78d24723eec7a8fe389fecae027", "is_reserved": 0, "rental_uris": {"android": "https://dc.lft.to/lastmile_qr_scan", "ios": "https://dc.lft.to/lastmile_qr_scan"}, "lat": 38.874667333333335}, {"type": "electric_scooter", "name": "49bdb32ec2efd5d99a6e7d40ce5f945e", "fusion_lat": 0.0, "fusion_lon": 0.0, "lon": -77.00549916666667, "is_disabled": 0, "bike_id": "49bdb32ec2efd5d99a6e7d40ce5f945e", "is_reserved": 0, "rental_uris": {"android": "https://dc.lft.to/lastmile_qr_scan", "ios": "https://dc.lft.to/lastmile_qr_scan"}, "lat": 38.87910083333333}, {"type": "electric_scooter", "name": "b308a76cc731cfcfb9186602bbf0c38d", "fusion_lat": 0.0, "fusion_lon": 0.0, "lon": -77.03841133333333, "is_disabled": 0, "bike_id": "b308a76cc731cfcfb9186602bbf0c38d", "is_reserved": 0, "rental_uris": {"android": "https://dc.lft.to/lastmile_qr_scan", "ios": "https://dc.lft.to/lastmile_qr_scan"}, "lat": 38.9231145}, {"type": "electric_scooter", "name": "87364fd8193ea54b055f66f61b89af72", "fusion_lat": 0.0, "fusion_lon": 0.0, "lon": -77.036572, "is_disabled": 0, "bike_id": "87364fd8193ea54b055f66f61b89af72", "is_reserved": 0, "rental_uris": {"android": "https://dc.lft.to/lastmile_qr_scan", "ios": "https://dc.lft.to/lastmile_qr_scan"}, "lat": 38.920476666666666}, {"type": "electric_scooter", "name": "60c5edfa6cbc032813e371cf31a84721", "fusion_lat": 0.0, "fusion_lon": 0.0, "lon": -77.021708, "is_disabled": 0, "bike_id": "60c5edfa6cbc032813e371cf31a84721", "is_reserved": 0, "rental_uris": {"android": "https://dc.lft.to/lastmile_qr_scan", "ios": "https://dc.lft.to/lastmile_qr_scan"}, "lat": 38.911021833333336}, {"type": "electric_scooter", "name": "9889df35b92efa4a26d6285b7f465e40", "fusion_lat": 0.0, "fusion_lon": 0.0, "lon": -77.0342785, "is_disabled": 0, "bike_id": "9889df35b92efa4a26d6285b7f465e40", "is_reserved": 0, "rental_uris": {"android": "https://dc.lft.to/lastmile_qr_scan", "ios": "https://dc.lft.to/lastmile_qr_scan"}, "lat": 38.91919133333333}, {"type": "electric_scooter", "name": "7c9fafa4b9220a01b270a94e7d396304", "fusion_lat": 0.0, "fusion_lon": 0.0, "lon": -77.02887516666667, "is_disabled": 0, "bike_id": "7c9fafa4b9220a01b270a94e7d396304", "is_reserved": 0, "rental_uris": {"android": "https://dc.lft.to/lastmile_qr_scan", "ios": "https://dc.lft.to/lastmile_qr_scan"}, "lat": 38.935922}, {"type": "electric_scooter", "name": "257161a48651f944e652e5e0843c35a6", "fusion_lat": 0.0, "fusion_lon": 0.0, "lon": -77.02280666666667, "is_disabled": 0, "bike_id": "257161a48651f944e652e5e0843c35a6", "is_reserved": 0, "rental_uris": {"android": "https://dc.lft.to/lastmile_qr_scan", "ios": "https://dc.lft.to/lastmile_qr_scan"}, "lat": 38.898325166666666}, {"type": "electric_scooter", "name": "d98c2a5a28c732e2e011b72b83eae297", "fusion_lat": 0.0, "fusion_lon": 0.0, "lon": -77.02943816666667, "is_disabled": 0, "bike_id": "d98c2a5a28c732e2e011b72b83eae297", "is_reserved": 0, "rental_uris": {"android": "https://dc.lft.to/lastmile_qr_scan", "ios": "https://dc.lft.to/lastmile_qr_scan"}, "lat": 38.907161}, {"type": "electric_bike", "name": "4a41144ee2554d44b87d177c5afe58a1", "fusion_lat": 0.0, "fusion_lon": 0.0, "lon": -77.03002683333334, "is_disabled": 0, "bike_id": "4a41144ee2554d44b87d177c5afe58a1", "is_reserved": 0, "rental_uris": {"android": "https://dc.lft.to/lastmile_qr_scan", "ios": "https://dc.lft.to/lastmile_qr_scan"}, "lat": 38.900185}, {"type": "electric_scooter", "name": "a8a1f8a24b301278dd619155b6c1a119", "fusion_lat": 0.0, "fusion_lon": 0.0, "lon": -76.98085583333334, "is_disabled": 0, "bike_id": "a8a1f8a24b301278dd619155b6c1a119", "is_reserved": 0, "rental_uris": {"android": "https://dc.lft.to/lastmile_qr_scan", "ios": "https://dc.lft.to/lastmile_qr_scan"}, "lat": 38.894364}, {"type": "electric_scooter", "name": "725c9e41aa149d8081c89304d76c98bb", "fusion_lat": 0.0, "fusion_lon": 0.0, "lon": -77.034495, "is_disabled": 0, "bike_id": "725c9e41aa149d8081c89304d76c98bb", "is_reserved": 0, "rental_uris": {"android": "https://dc.lft.to/lastmile_qr_scan", "ios": "https://dc.lft.to/lastmile_qr_scan"}, "lat": 38.913971833333335}, {"type": "electric_scooter", "name": "9de9ed1a3186f84c3e06e4b8b4d867ad", "fusion_lat": 0.0, "fusion_lon": 0.0, "lon": -77.03369683333334, "is_disabled": 0, "bike_id": "9de9ed1a3186f84c3e06e4b8b4d867ad", "is_reserved": 0, "rental_uris": {"android": "https://dc.lft.to/lastmile_qr_scan", "ios": "https://dc.lft.to/lastmile_qr_scan"}, "lat": 38.90031316666666}, {"type": "electric_scooter", "name": "27e99d35491c34991cd908dbb6e64c11", "fusion_lat": 0.0, "fusion_lon": 0.0, "lon": -76.980077, "is_disabled": 0, "bike_id": "27e99d35491c34991cd908dbb6e64c11", "is_reserved": 0, "rental_uris": {"android": "https://dc.lft.to/lastmile_qr_scan", "ios": "https://dc.lft.to/lastmile_qr_scan"}, "lat": 38.9024065}, {"type": "electric_bike", "name": "8295f8662f9267a5108ae535522b750a", "fusion_lat": 0.0, "fusion_lon": 0.0, "lon": -76.98351033333333, "is_disabled": 0, "bike_id": "8295f8662f9267a5108ae535522b750a", "is_reserved": 0, "rental_uris": {"android": "https://dc.lft.to/lastmile_qr_scan", "ios": "https://dc.lft.to/lastmile_qr_scan"}, "lat": 38.8625735}, {"type": "electric_scooter", "name": "d0a6980648158e4e065bfb1c95cd6034", "fusion_lat": 0.0, "fusion_lon": 0.0, "lon": -77.04234083333333, "is_disabled": 0, "bike_id": "d0a6980648158e4e065bfb1c95cd6034", "is_reserved": 0, "rental_uris": {"android": "https://dc.lft.to/lastmile_qr_scan", "ios": "https://dc.lft.to/lastmile_qr_scan"}, "lat": 38.911180333333334}, {"type": "electric_scooter", "name": "639cf9d380f88a0e72e2dee298d1f142", "fusion_lat": 0.0, "fusion_lon": 0.0, "lon": -77.016285, "is_disabled": 0, "bike_id": "639cf9d380f88a0e72e2dee298d1f142", "is_reserved": 0, "rental_uris": {"android": "https://dc.lft.to/lastmile_qr_scan", "ios": "https://dc.lft.to/lastmile_qr_scan"}, "lat": 38.887367833333336}, {"type": "electric_scooter", "name": "deebe46553956e8f5deeed8ae04d105f", "fusion_lat": 0.0, "fusion_lon": 0.0, "lon": -77.04168533333333, "is_disabled": 0, "bike_id": "deebe46553956e8f5deeed8ae04d105f", "is_reserved": 0, "rental_uris": {"android": "https://dc.lft.to/lastmile_qr_scan", "ios": "https://dc.lft.to/lastmile_qr_scan"}, "lat": 38.918156833333335}, {"type": "electric_scooter", "name": "176afc8b7ea5a2dbd07d070a440e5885", "fusion_lat": 0.0, "fusion_lon": 0.0, "lon": -77.05918783333334, "is_disabled": 0, "bike_id": "176afc8b7ea5a2dbd07d070a440e5885", "is_reserved": 0, "rental_uris": {"android": "https://dc.lft.to/lastmile_qr_scan", "ios": "https://dc.lft.to/lastmile_qr_scan"}, "lat": 38.901479333333334}, {"type": "electric_scooter", "name": "3179f868cbd0326a27b865c1c975b513", "fusion_lat": 0.0, "fusion_lon": 0.0, "lon": -77.03651816666667, "is_disabled": 0, "bike_id": "3179f868cbd0326a27b865c1c975b513", "is_reserved": 0, "rental_uris": {"android": "https://dc.lft.to/lastmile_qr_scan", "ios": "https://dc.lft.to/lastmile_qr_scan"}, "lat": 38.90342833333333}, {"type": "electric_scooter", "name": "35e6c9bd0a7681f0c91a80dbd8d9f304", "fusion_lat": 0.0, "fusion_lon": 0.0, "lon": -77.01083533333333, "is_disabled": 0, "bike_id": "35e6c9bd0a7681f0c91a80dbd8d9f304", "is_reserved": 0, "rental_uris": {"android": "https://dc.lft.to/lastmile_qr_scan", "ios": "https://dc.lft.to/lastmile_qr_scan"}, "lat": 38.90326916666667}, {"type": "electric_scooter", "name": "f5ae1955a24aa6a63987fc0a99ef9dae", "fusion_lat": 0.0, "fusion_lon": 0.0, "lon": -77.04669933333334, "is_disabled": 0, "bike_id": "f5ae1955a24aa6a63987fc0a99ef9dae", "is_reserved": 0, "rental_uris": {"android": "https://dc.lft.to/lastmile_qr_scan", "ios": "https://dc.lft.to/lastmile_qr_scan"}, "lat": 38.90650983333333}, {"type": "electric_scooter", "name": "87646bbe550b58b91bf31bea4558a380", "fusion_lat": 0.0, "fusion_lon": 0.0, "lon": -76.99743766666667, "is_disabled": 0, "bike_id": "87646bbe550b58b91bf31bea4558a380", "is_reserved": 0, "rental_uris": {"android": "https://dc.lft.to/lastmile_qr_scan", "ios": "https://dc.lft.to/lastmile_qr_scan"}, "lat": 38.896072833333335}, {"type": "electric_scooter", "name": "8cfd5c7548e4aeefef1ac7206c0826c4", "fusion_lat": 0.0, "fusion_lon": 0.0, "lon": -77.01885466666667, "is_disabled": 0, "bike_id": "8cfd5c7548e4aeefef1ac7206c0826c4", "is_reserved": 0, "rental_uris": {"android": "https://dc.lft.to/lastmile_qr_scan", "ios": "https://dc.lft.to/lastmile_qr_scan"}, "lat": 38.90608866666667}, {"type": "electric_bike", "name": "ecdc91c60edcacea7fd9cef50133faa1", "fusion_lat": 0.0, "fusion_lon": 0.0, "lon": -77.06867833333334, "is_disabled": 0, "bike_id": "ecdc91c60edcacea7fd9cef50133faa1", "is_reserved": 0, "rental_uris": {"android": "https://dc.lft.to/lastmile_qr_scan", "ios": "https://dc.lft.to/lastmile_qr_scan"}, "lat": 38.952632333333334}, {"type": "electric_bike", "name": "69dca165c463ba8147ea1131914212ae", "fusion_lat": 0.0, "fusion_lon": 0.0, "lon": -76.99404166666666, "is_disabled": 0, "bike_id": "69dca165c463ba8147ea1131914212ae", "is_reserved": 0, "rental_uris": {"android": "https://dc.lft.to/lastmile_qr_scan", "ios": "https://dc.lft.to/lastmile_qr_scan"}, "lat": 38.8314555}, {"type": "electric_scooter", "name": "b15f176ddfa6bf3e29848d938b726284", "fusion_lat": 0.0, "fusion_lon": 0.0, "lon": -76.99944983333333, "is_disabled": 0, "bike_id": "b15f176ddfa6bf3e29848d938b726284", "is_reserved": 0, "rental_uris": {"android": "https://dc.lft.to/lastmile_qr_scan", "ios": "https://dc.lft.to/lastmile_qr_scan"}, "lat": 38.89163216666667}, {"type": "electric_scooter", "name": "78a728a4fe36a944a5139edf1a19eb17", "fusion_lat": 0.0, "fusion_lon": 0.0, "lon": -77.0336225, "is_disabled": 0, "bike_id": "78a728a4fe36a944a5139edf1a19eb17", "is_reserved": 0, "rental_uris": {"android": "https://dc.lft.to/lastmile_qr_scan", "ios": "https://dc.lft.to/lastmile_qr_scan"}, "lat": 38.92148516666666}, {"type": "electric_scooter", "name": "e37facb9453541d66d2d024f82fc2e73", "fusion_lat": 0.0, "fusion_lon": 0.0, "lon": -77.024827, "is_disabled": 0, "bike_id": "e37facb9453541d66d2d024f82fc2e73", "is_reserved": 0, "rental_uris": {"android": "https://dc.lft.to/lastmile_qr_scan", "ios": "https://dc.lft.to/lastmile_qr_scan"}, "lat": 38.930973333333334}, {"type": "electric_bike", "name": "cd80e098f2b5a7970f37dd1b2ca141bc", "fusion_lat": 0.0, "fusion_lon": 0.0, "lon": -77.00405416666666, "is_disabled": 0, "bike_id": "cd80e098f2b5a7970f37dd1b2ca141bc", "is_reserved": 0, "rental_uris": {"android": "https://dc.lft.to/lastmile_qr_scan", "ios": "https://dc.lft.to/lastmile_qr_scan"}, "lat": 38.98543983333333}, {"type": "electric_scooter", "name": "3c2fc67211f985df8b1fe9363702b27a", "fusion_lat": 0.0, "fusion_lon": 0.0, "lon": -76.93821066666666, "is_disabled": 0, "bike_id": "3c2fc67211f985df8b1fe9363702b27a", "is_reserved": 0, "rental_uris": {"android": "https://dc.lft.to/lastmile_qr_scan", "ios": "https://dc.lft.to/lastmile_qr_scan"}, "lat": 38.898346}, {"type": "electric_bike", "name": "97cb83fdae64811d0b6cc4a201d7fe9b", "fusion_lat": 0.0, "fusion_lon": 0.0, "lon": -77.09823133333333, "is_disabled": 0, "bike_id": "97cb83fdae64811d0b6cc4a201d7fe9b", "is_reserved": 0, "rental_uris": {"android": "https://dc.lft.to/lastmile_qr_scan", "ios": "https://dc.lft.to/lastmile_qr_scan"}, "lat": 38.850192}, {"type": "electric_scooter", "name": "2d65b18510b1904b502ac8772015e663", "fusion_lat": 0.0, "fusion_lon": 0.0, "lon": -77.01321433333334, "is_disabled": 0, "bike_id": "2d65b18510b1904b502ac8772015e663", "is_reserved": 0, "rental_uris": {"android": "https://dc.lft.to/lastmile_qr_scan", "ios": "https://dc.lft.to/lastmile_qr_scan"}, "lat": 38.89601416666667}, {"type": "electric_scooter", "name": "d604f687625253941e9f903c902c56d4", "fusion_lat": 0.0, "fusion_lon": 0.0, "lon": -77.03915716666667, "is_disabled": 0, "bike_id": "d604f687625253941e9f903c902c56d4", "is_reserved": 0, "rental_uris": {"android": "https://dc.lft.to/lastmile_qr_scan", "ios": "https://dc.lft.to/lastmile_qr_scan"}, "lat": 38.925852666666664}, {"type": "electric_scooter", "name": "97b223743895e54f106ce59ce173a4cc", "fusion_lat": 0.0, "fusion_lon": 0.0, "lon": -77.00731616666667, "is_disabled": 0, "bike_id": "97b223743895e54f106ce59ce173a4cc", "is_reserved": 0, "rental_uris": {"android": "https://dc.lft.to/lastmile_qr_scan", "ios": "https://dc.lft.to/lastmile_qr_scan"}, "lat": 38.876546}, {"type": "electric_scooter", "name": "df41dd669d21c0c4671fd327a56108b1", "fusion_lat": 0.0, "fusion_lon": 0.0, "lon": -77.02723766666666, "is_disabled": 0, "bike_id": "df41dd669d21c0c4671fd327a56108b1", "is_reserved": 0, "rental_uris": {"android": "https://dc.lft.to/lastmile_qr_scan", "ios": "https://dc.lft.to/lastmile_qr_scan"}, "lat": 38.897683}, {"type": "electric_scooter", "name": "b788d5480bb8032f159b988b6d4bad6a", "fusion_lat": 0.0, "fusion_lon": 0.0, "lon": -76.96520066666666, "is_disabled": 0, "bike_id": "b788d5480bb8032f159b988b6d4bad6a", "is_reserved": 0, "rental_uris": {"android": "https://dc.lft.to/lastmile_qr_scan", "ios": "https://dc.lft.to/lastmile_qr_scan"}, "lat": 38.87628433333333}, {"type": "electric_scooter", "name": "77a40090b62144422fec029424059308", "fusion_lat": 0.0, "fusion_lon": 0.0, "lon": -77.0357185, "is_disabled": 0, "bike_id": "77a40090b62144422fec029424059308", "is_reserved": 0, "rental_uris": {"android": "https://dc.lft.to/lastmile_qr_scan", "ios": "https://dc.lft.to/lastmile_qr_scan"}, "lat": 38.90955116666667}, {"type": "electric_scooter", "name": "a1d628228a6848714e6a90e1ba2f425e", "fusion_lat": 0.0, "fusion_lon": 0.0, "lon": -76.94105233333333, "is_disabled": 0, "bike_id": "a1d628228a6848714e6a90e1ba2f425e", "is_reserved": 0, "rental_uris": {"android": "https://dc.lft.to/lastmile_qr_scan", "ios": "https://dc.lft.to/lastmile_qr_scan"}, "lat": 38.89360216666667}, {"type": "electric_scooter", "name": "e9e7a199d0a9928e98cb5eb1bf0f8df1", "fusion_lat": 0.0, "fusion_lon": 0.0, "lon": -77.02310366666667, "is_disabled": 0, "bike_id": "e9e7a199d0a9928e98cb5eb1bf0f8df1", "is_reserved": 0, "rental_uris": {"android": "https://dc.lft.to/lastmile_qr_scan", "ios": "https://dc.lft.to/lastmile_qr_scan"}, "lat": 38.91763816666667}, {"type": "electric_bike", "name": "5c585753609b53482d5ee5040df4a577", "fusion_lat": 0.0, "fusion_lon": 0.0, "lon": -76.973131, "is_disabled": 0, "bike_id": "5c585753609b53482d5ee5040df4a577", "is_reserved": 0, "rental_uris": {"android": "https://dc.lft.to/lastmile_qr_scan", "ios": "https://dc.lft.to/lastmile_qr_scan"}, "lat": 38.91763666666667}, {"type": "electric_scooter", "name": "e4e0a39302dd3b88567b1c08fdaa7d15", "fusion_lat": 0.0, "fusion_lon": 0.0, "lon": -77.017751, "is_disabled": 0, "bike_id": "e4e0a39302dd3b88567b1c08fdaa7d15", "is_reserved": 0, "rental_uris": {"android": "https://dc.lft.to/lastmile_qr_scan", "ios": "https://dc.lft.to/lastmile_qr_scan"}, "lat": 38.92102083333333}, {"type": "electric_bike", "name": "fb6771bfb15c00a396642916eddb350b", "fusion_lat": 0.0, "fusion_lon": 0.0, "lon": -77.07754783333333, "is_disabled": 0, "bike_id": "fb6771bfb15c00a396642916eddb350b", "is_reserved": 0, "rental_uris": {"android": "https://dc.lft.to/lastmile_qr_scan", "ios": "https://dc.lft.to/lastmile_qr_scan"}, "lat": 38.8419035}, {"type": "electric_scooter", "name": "3d894dda89661fadce663d3ab398f954", "fusion_lat": 0.0, "fusion_lon": 0.0, "lon": -77.01618016666667, "is_disabled": 0, "bike_id": "3d894dda89661fadce663d3ab398f954", "is_reserved": 0, "rental_uris": {"android": "https://dc.lft.to/lastmile_qr_scan", "ios": "https://dc.lft.to/lastmile_qr_scan"}, "lat": 38.9159535}, {"type": "electric_scooter", "name": "6203634690918afd1959d6045428e7d8", "fusion_lat": 0.0, "fusion_lon": 0.0, "lon": -77.05322783333334, "is_disabled": 0, "bike_id": "6203634690918afd1959d6045428e7d8", "is_reserved": 0, "rental_uris": {"android": "https://dc.lft.to/lastmile_qr_scan", "ios": "https://dc.lft.to/lastmile_qr_scan"}, "lat": 38.9064075}, {"type": "electric_bike", "name": "da2e4f5083d1a2bb7a128d1a71ddf4c3", "fusion_lat": 0.0, "fusion_lon": 0.0, "lon": -76.96087916666667, "is_disabled": 0, "bike_id": "da2e4f5083d1a2bb7a128d1a71ddf4c3", "is_reserved": 0, "rental_uris": {"android": "https://dc.lft.to/lastmile_qr_scan", "ios": "https://dc.lft.to/lastmile_qr_scan"}, "lat": 38.918519333333336}, {"type": "electric_bike", "name": "32e04bc1e9efc4336c267b50552d9309", "fusion_lat": 0.0, "fusion_lon": 0.0, "lon": -77.04594116666667, "is_disabled": 0, "bike_id": "32e04bc1e9efc4336c267b50552d9309", "is_reserved": 0, "rental_uris": {"android": "https://dc.lft.to/lastmile_qr_scan", "ios": "https://dc.lft.to/lastmile_qr_scan"}, "lat": 38.93305466666666}, {"type": "electric_scooter", "name": "343e0739eecc8cc85821d484d0b41d2c", "fusion_lat": 0.0, "fusion_lon": 0.0, "lon": -77.01731483333333, "is_disabled": 0, "bike_id": "343e0739eecc8cc85821d484d0b41d2c", "is_reserved": 0, "rental_uris": {"android": "https://dc.lft.to/lastmile_qr_scan", "ios": "https://dc.lft.to/lastmile_qr_scan"}, "lat": 38.90471183333333}, {"type": "electric_scooter", "name": "4e5386ab4e71c3518440f45d7190da59", "fusion_lat": 0.0, "fusion_lon": 0.0, "lon": -76.992502, "is_disabled": 0, "bike_id": "4e5386ab4e71c3518440f45d7190da59", "is_reserved": 0, "rental_uris": {"android": "https://dc.lft.to/lastmile_qr_scan", "ios": "https://dc.lft.to/lastmile_qr_scan"}, "lat": 38.940667833333336}, {"type": "electric_scooter", "name": "9bba9018f930e42bff7943fc7e8f973d", "fusion_lat": 0.0, "fusion_lon": 0.0, "lon": -77.02557766666666, "is_disabled": 0, "bike_id": "9bba9018f930e42bff7943fc7e8f973d", "is_reserved": 0, "rental_uris": {"android": "https://dc.lft.to/lastmile_qr_scan", "ios": "https://dc.lft.to/lastmile_qr_scan"}, "lat": 38.953959}, {"type": "electric_scooter", "name": "b18c9afe891c0ff003bbd72646dc9ba3", "fusion_lat": 0.0, "fusion_lon": 0.0, "lon": -77.04208133333333, "is_disabled": 0, "bike_id": "b18c9afe891c0ff003bbd72646dc9ba3", "is_reserved": 0, "rental_uris": {"android": "https://dc.lft.to/lastmile_qr_scan", "ios": "https://dc.lft.to/lastmile_qr_scan"}, "lat": 38.920350166666665}, {"type": "electric_scooter", "name": "8c36589dd7c5dc5b80c7a12f10ec9698", "fusion_lat": 0.0, "fusion_lon": 0.0, "lon": -77.024027, "is_disabled": 0, "bike_id": "8c36589dd7c5dc5b80c7a12f10ec9698", "is_reserved": 0, "rental_uris": {"android": "https://dc.lft.to/lastmile_qr_scan", "ios": "https://dc.lft.to/lastmile_qr_scan"}, "lat": 38.931028833333336}, {"type": "electric_scooter", "name": "44993c080ce3bd7cc0f253a5030d7ed5", "fusion_lat": 0.0, "fusion_lon": 0.0, "lon": -76.990163, "is_disabled": 0, "bike_id": "44993c080ce3bd7cc0f253a5030d7ed5", "is_reserved": 0, "rental_uris": {"android": "https://dc.lft.to/lastmile_qr_scan", "ios": "https://dc.lft.to/lastmile_qr_scan"}, "lat": 38.864363833333336}, {"type": "electric_bike", "name": "3ceb4b7f111ae981a3c4a1ae77c4e016", "fusion_lat": 0.0, "fusion_lon": 0.0, "lon": -77.074748, "is_disabled": 0, "bike_id": "3ceb4b7f111ae981a3c4a1ae77c4e016", "is_reserved": 0, "rental_uris": {"android": "https://dc.lft.to/lastmile_qr_scan", "ios": "https://dc.lft.to/lastmile_qr_scan"}, "lat": 38.92064833333333}, {"type": "electric_scooter", "name": "67739234a6c2a7defb4f358ffd1b0472", "fusion_lat": 0.0, "fusion_lon": 0.0, "lon": -77.0161005, "is_disabled": 0, "bike_id": "67739234a6c2a7defb4f358ffd1b0472", "is_reserved": 0, "rental_uris": {"android": "https://dc.lft.to/lastmile_qr_scan", "ios": "https://dc.lft.to/lastmile_qr_scan"}, "lat": 38.906022166666666}, {"type": "electric_scooter", "name": "56a7fdb679c364d23bb4e18a89dce155", "fusion_lat": 0.0, "fusion_lon": 0.0, "lon": -77.0244765, "is_disabled": 0, "bike_id": "56a7fdb679c364d23bb4e18a89dce155", "is_reserved": 0, "rental_uris": {"android": "https://dc.lft.to/lastmile_qr_scan", "ios": "https://dc.lft.to/lastmile_qr_scan"}, "lat": 38.949734666666664}, {"type": "electric_scooter", "name": "ded3af0e29eaba503b4441a3be815263", "fusion_lat": 0.0, "fusion_lon": 0.0, "lon": -76.96522816666666, "is_disabled": 0, "bike_id": "ded3af0e29eaba503b4441a3be815263", "is_reserved": 0, "rental_uris": {"android": "https://dc.lft.to/lastmile_qr_scan", "ios": "https://dc.lft.to/lastmile_qr_scan"}, "lat": 38.87625966666667}, {"type": "electric_scooter", "name": "def8263ad14d2755f9c9011e97f6dea9", "fusion_lat": 0.0, "fusion_lon": 0.0, "lon": -77.02716433333333, "is_disabled": 0, "bike_id": "def8263ad14d2755f9c9011e97f6dea9", "is_reserved": 0, "rental_uris": {"android": "https://dc.lft.to/lastmile_qr_scan", "ios": "https://dc.lft.to/lastmile_qr_scan"}, "lat": 38.92235216666667}, {"type": "electric_scooter", "name": "cbc9d9ae334793e41255fc7b242acbea", "fusion_lat": 0.0, "fusion_lon": 0.0, "lon": -77.02871616666667, "is_disabled": 0, "bike_id": "cbc9d9ae334793e41255fc7b242acbea", "is_reserved": 0, "rental_uris": {"android": "https://dc.lft.to/lastmile_qr_scan", "ios": "https://dc.lft.to/lastmile_qr_scan"}, "lat": 38.912647}, {"type": "electric_scooter", "name": "a402c12277d7a2df0539f6791a037c81", "fusion_lat": 0.0, "fusion_lon": 0.0, "lon": -76.98312083333333, "is_disabled": 0, "bike_id": "a402c12277d7a2df0539f6791a037c81", "is_reserved": 0, "rental_uris": {"android": "https://dc.lft.to/lastmile_qr_scan", "ios": "https://dc.lft.to/lastmile_qr_scan"}, "lat": 38.8688535}, {"type": "electric_scooter", "name": "00d6c7518c17a8b069ad0b568b78d8c2", "fusion_lat": 0.0, "fusion_lon": 0.0, "lon": -77.0385245, "is_disabled": 0, "bike_id": "00d6c7518c17a8b069ad0b568b78d8c2", "is_reserved": 0, "rental_uris": {"android": "https://dc.lft.to/lastmile_qr_scan", "ios": "https://dc.lft.to/lastmile_qr_scan"}, "lat": 38.9112845}, {"type": "electric_scooter", "name": "019e4ea804cd59edbf85930f255e5d1b", "fusion_lat": 0.0, "fusion_lon": 0.0, "lon": -76.99512483333334, "is_disabled": 0, "bike_id": "019e4ea804cd59edbf85930f255e5d1b", "is_reserved": 0, "rental_uris": {"android": "https://dc.lft.to/lastmile_qr_scan", "ios": "https://dc.lft.to/lastmile_qr_scan"}, "lat": 38.887891333333336}, {"type": "electric_scooter", "name": "62f81f919f891fa7cad8ce211b724930", "fusion_lat": 0.0, "fusion_lon": 0.0, "lon": -77.03323633333333, "is_disabled": 0, "bike_id": "62f81f919f891fa7cad8ce211b724930", "is_reserved": 0, "rental_uris": {"android": "https://dc.lft.to/lastmile_qr_scan", "ios": "https://dc.lft.to/lastmile_qr_scan"}, "lat": 38.91915766666666}, {"type": "electric_scooter", "name": "a993203b14033ee362353bd59f5566a6", "fusion_lat": 0.0, "fusion_lon": 0.0, "lon": -77.01096066666666, "is_disabled": 0, "bike_id": "a993203b14033ee362353bd59f5566a6", "is_reserved": 0, "rental_uris": {"android": "https://dc.lft.to/lastmile_qr_scan", "ios": "https://dc.lft.to/lastmile_qr_scan"}, "lat": 38.8955155}, {"type": "electric_scooter", "name": "d3db32ff1cd2ad9c9f8b612b23a8a43d", "fusion_lat": 0.0, "fusion_lon": 0.0, "lon": -77.03658366666667, "is_disabled": 0, "bike_id": "d3db32ff1cd2ad9c9f8b612b23a8a43d", "is_reserved": 0, "rental_uris": {"android": "https://dc.lft.to/lastmile_qr_scan", "ios": "https://dc.lft.to/lastmile_qr_scan"}, "lat": 38.92284816666667}, {"type": "electric_scooter", "name": "be4ebca2a0128afe73ee8c7deca875b2", "fusion_lat": 0.0, "fusion_lon": 0.0, "lon": -77.0626825, "is_disabled": 0, "bike_id": "be4ebca2a0128afe73ee8c7deca875b2", "is_reserved": 0, "rental_uris": {"android": "https://dc.lft.to/lastmile_qr_scan", "ios": "https://dc.lft.to/lastmile_qr_scan"}, "lat": 38.9031585}, {"type": "electric_scooter", "name": "fc37fef31779a160c7f391ee6d87be8d", "fusion_lat": 0.0, "fusion_lon": 0.0, "lon": -76.94185916666666, "is_disabled": 0, "bike_id": "fc37fef31779a160c7f391ee6d87be8d", "is_reserved": 0, "rental_uris": {"android": "https://dc.lft.to/lastmile_qr_scan", "ios": "https://dc.lft.to/lastmile_qr_scan"}, "lat": 38.897559}, {"type": "electric_scooter", "name": "9b3ac5995e5457a72551ecdb689fff37", "fusion_lat": 0.0, "fusion_lon": 0.0, "lon": -77.03556266666666, "is_disabled": 0, "bike_id": "9b3ac5995e5457a72551ecdb689fff37", "is_reserved": 0, "rental_uris": {"android": "https://dc.lft.to/lastmile_qr_scan", "ios": "https://dc.lft.to/lastmile_qr_scan"}, "lat": 38.92482833333333}, {"type": "electric_scooter", "name": "201d1f62ce82a0bcfb7a635a2abfc71d", "fusion_lat": 0.0, "fusion_lon": 0.0, "lon": -77.01434133333333, "is_disabled": 0, "bike_id": "201d1f62ce82a0bcfb7a635a2abfc71d", "is_reserved": 0, "rental_uris": {"android": "https://dc.lft.to/lastmile_qr_scan", "ios": "https://dc.lft.to/lastmile_qr_scan"}, "lat": 38.9131525}, {"type": "electric_scooter", "name": "624817ff93d3bbc054e97ecdf359b617", "fusion_lat": 0.0, "fusion_lon": 0.0, "lon": -77.03384416666667, "is_disabled": 0, "bike_id": "624817ff93d3bbc054e97ecdf359b617", "is_reserved": 0, "rental_uris": {"android": "https://dc.lft.to/lastmile_qr_scan", "ios": "https://dc.lft.to/lastmile_qr_scan"}, "lat": 38.90144316666667}, {"type": "electric_bike", "name": "0f7b03793e583e2835732d4bcb193e7c", "fusion_lat": 0.0, "fusion_lon": 0.0, "lon": -77.07660766666666, "is_disabled": 0, "bike_id": "0f7b03793e583e2835732d4bcb193e7c", "is_reserved": 0, "rental_uris": {"android": "https://dc.lft.to/lastmile_qr_scan", "ios": "https://dc.lft.to/lastmile_qr_scan"}, "lat": 38.80978566666667}, {"type": "electric_scooter", "name": "84fc216a46ef14b1b9f534e63207d78a", "fusion_lat": 0.0, "fusion_lon": 0.0, "lon": -77.0279645, "is_disabled": 0, "bike_id": "84fc216a46ef14b1b9f534e63207d78a", "is_reserved": 0, "rental_uris": {"android": "https://dc.lft.to/lastmile_qr_scan", "ios": "https://dc.lft.to/lastmile_qr_scan"}, "lat": 38.93185233333333}, {"type": "electric_scooter", "name": "d0b2e58f8eadc64fc015bf4685b56ddd", "fusion_lat": 0.0, "fusion_lon": 0.0, "lon": -76.99210983333333, "is_disabled": 0, "bike_id": "d0b2e58f8eadc64fc015bf4685b56ddd", "is_reserved": 0, "rental_uris": {"android": "https://dc.lft.to/lastmile_qr_scan", "ios": "https://dc.lft.to/lastmile_qr_scan"}, "lat": 38.904769333333334}, {"type": "electric_scooter", "name": "14c0c9c9e2afbc05d4a5c7a29f625df9", "fusion_lat": 0.0, "fusion_lon": 0.0, "lon": -77.01734166666667, "is_disabled": 0, "bike_id": "14c0c9c9e2afbc05d4a5c7a29f625df9", "is_reserved": 0, "rental_uris": {"android": "https://dc.lft.to/lastmile_qr_scan", "ios": "https://dc.lft.to/lastmile_qr_scan"}, "lat": 38.905676666666665}, {"type": "electric_scooter", "name": "f3f05e192b8fe2a2cf11af8e403ee541", "fusion_lat": 0.0, "fusion_lon": 0.0, "lon": -76.99030633333334, "is_disabled": 0, "bike_id": "f3f05e192b8fe2a2cf11af8e403ee541", "is_reserved": 0, "rental_uris": {"android": "https://dc.lft.to/lastmile_qr_scan", "ios": "https://dc.lft.to/lastmile_qr_scan"}, "lat": 38.888749}, {"type": "electric_bike", "name": "ee55d6a384933bdc9fb4dd5c699f74ec", "fusion_lat": 0.0, "fusion_lon": 0.0, "lon": -77.02069233333333, "is_disabled": 0, "bike_id": "ee55d6a384933bdc9fb4dd5c699f74ec", "is_reserved": 0, "rental_uris": {"android": "https://dc.lft.to/lastmile_qr_scan", "ios": "https://dc.lft.to/lastmile_qr_scan"}, "lat": 38.96439383333333}, {"type": "electric_bike", "name": "ee9fbf9a22c4bf19d2c06a5299ce77e3", "fusion_lat": 0.0, "fusion_lon": 0.0, "lon": -77.12724833333333, "is_disabled": 0, "bike_id": "ee9fbf9a22c4bf19d2c06a5299ce77e3", "is_reserved": 0, "rental_uris": {"android": "https://dc.lft.to/lastmile_qr_scan", "ios": "https://dc.lft.to/lastmile_qr_scan"}, "lat": 38.89559466666667}, {"type": "electric_scooter", "name": "190f97971fdee6ce52a0b9f9fa5d4d33", "fusion_lat": 0.0, "fusion_lon": 0.0, "lon": -77.04004233333333, "is_disabled": 0, "bike_id": "190f97971fdee6ce52a0b9f9fa5d4d33", "is_reserved": 0, "rental_uris": {"android": "https://dc.lft.to/lastmile_qr_scan", "ios": "https://dc.lft.to/lastmile_qr_scan"}, "lat": 38.90587283333333}, {"type": "electric_scooter", "name": "833c08e436d1aad55a9cc20db146a07b", "fusion_lat": 0.0, "fusion_lon": 0.0, "lon": -76.9991455, "is_disabled": 0, "bike_id": "833c08e436d1aad55a9cc20db146a07b", "is_reserved": 0, "rental_uris": {"android": "https://dc.lft.to/lastmile_qr_scan", "ios": "https://dc.lft.to/lastmile_qr_scan"}, "lat": 38.924564333333336}, {"type": "electric_scooter", "name": "29ef7402689f9a1e1dcde24120721488", "fusion_lat": 0.0, "fusion_lon": 0.0, "lon": -76.98852666666667, "is_disabled": 0, "bike_id": "29ef7402689f9a1e1dcde24120721488", "is_reserved": 0, "rental_uris": {"android": "https://dc.lft.to/lastmile_qr_scan", "ios": "https://dc.lft.to/lastmile_qr_scan"}, "lat": 38.89164316666667}, {"type": "electric_scooter", "name": "585d4feacb3be42cc171285b08f8d58f", "fusion_lat": 0.0, "fusion_lon": 0.0, "lon": -77.017979, "is_disabled": 0, "bike_id": "585d4feacb3be42cc171285b08f8d58f", "is_reserved": 0, "rental_uris": {"android": "https://dc.lft.to/lastmile_qr_scan", "ios": "https://dc.lft.to/lastmile_qr_scan"}, "lat": 38.91935433333333}, {"type": "electric_scooter", "name": "13239a71392eaf55c8e7663498b833aa", "fusion_lat": 0.0, "fusion_lon": 0.0, "lon": -77.02943666666667, "is_disabled": 0, "bike_id": "13239a71392eaf55c8e7663498b833aa", "is_reserved": 0, "rental_uris": {"android": "https://dc.lft.to/lastmile_qr_scan", "ios": "https://dc.lft.to/lastmile_qr_scan"}, "lat": 38.916820666666666}, {"type": "electric_scooter", "name": "d1575e854a5903dca88051f3ebc7fa94", "fusion_lat": 0.0, "fusion_lon": 0.0, "lon": -77.02790166666666, "is_disabled": 0, "bike_id": "d1575e854a5903dca88051f3ebc7fa94", "is_reserved": 0, "rental_uris": {"android": "https://dc.lft.to/lastmile_qr_scan", "ios": "https://dc.lft.to/lastmile_qr_scan"}, "lat": 38.93186733333334}, {"type": "electric_bike", "name": "8059625b4f7e6178aebe58d348acedcb", "fusion_lat": 0.0, "fusion_lon": 0.0, "lon": -77.09013116666667, "is_disabled": 0, "bike_id": "8059625b4f7e6178aebe58d348acedcb", "is_reserved": 0, "rental_uris": {"android": "https://dc.lft.to/lastmile_qr_scan", "ios": "https://dc.lft.to/lastmile_qr_scan"}, "lat": 38.926493}, {"type": "electric_bike", "name": "151f7f88da2aba9d4a31e17f6e306b25", "fusion_lat": 0.0, "fusion_lon": 0.0, "lon": -76.95701016666666, "is_disabled": 0, "bike_id": "151f7f88da2aba9d4a31e17f6e306b25", "is_reserved": 0, "rental_uris": {"android": "https://dc.lft.to/lastmile_qr_scan", "ios": "https://dc.lft.to/lastmile_qr_scan"}, "lat": 38.850878}, {"type": "electric_scooter", "name": "d693f381468bfd2fcc4777d74900eff9", "fusion_lat": 0.0, "fusion_lon": 0.0, "lon": -77.03373816666667, "is_disabled": 0, "bike_id": "d693f381468bfd2fcc4777d74900eff9", "is_reserved": 0, "rental_uris": {"android": "https://dc.lft.to/lastmile_qr_scan", "ios": "https://dc.lft.to/lastmile_qr_scan"}, "lat": 38.900308833333334}, {"type": "electric_scooter", "name": "bb78054df9ed145ccb77ccc58f82af94", "fusion_lat": 0.0, "fusion_lon": 0.0, "lon": -77.01462166666667, "is_disabled": 0, "bike_id": "bb78054df9ed145ccb77ccc58f82af94", "is_reserved": 0, "rental_uris": {"android": "https://dc.lft.to/lastmile_qr_scan", "ios": "https://dc.lft.to/lastmile_qr_scan"}, "lat": 38.917545833333335}, {"type": "electric_scooter", "name": "56f56359c39cf53b0da2ceabef8c3d81", "fusion_lat": 0.0, "fusion_lon": 0.0, "lon": -76.95743566666667, "is_disabled": 0, "bike_id": "56f56359c39cf53b0da2ceabef8c3d81", "is_reserved": 0, "rental_uris": {"android": "https://dc.lft.to/lastmile_qr_scan", "ios": "https://dc.lft.to/lastmile_qr_scan"}, "lat": 38.88390583333333}, {"type": "electric_scooter", "name": "74c0bbff84cedbf66fb19c2014968087", "fusion_lat": 0.0, "fusion_lon": 0.0, "lon": -77.02591833333334, "is_disabled": 0, "bike_id": "74c0bbff84cedbf66fb19c2014968087", "is_reserved": 0, "rental_uris": {"android": "https://dc.lft.to/lastmile_qr_scan", "ios": "https://dc.lft.to/lastmile_qr_scan"}, "lat": 38.90149066666667}, {"type": "electric_scooter", "name": "1265caef03e9cc228ee8ddb1db68aed0", "fusion_lat": 0.0, "fusion_lon": 0.0, "lon": -77.02318783333334, "is_disabled": 0, "bike_id": "1265caef03e9cc228ee8ddb1db68aed0", "is_reserved": 0, "rental_uris": {"android": "https://dc.lft.to/lastmile_qr_scan", "ios": "https://dc.lft.to/lastmile_qr_scan"}, "lat": 38.9169715}, {"type": "electric_scooter", "name": "8bef6f2e9f348dc70af8d9b7324dc00b", "fusion_lat": 0.0, "fusion_lon": 0.0, "lon": -77.02249933333333, "is_disabled": 0, "bike_id": "8bef6f2e9f348dc70af8d9b7324dc00b", "is_reserved": 0, "rental_uris": {"android": "https://dc.lft.to/lastmile_qr_scan", "ios": "https://dc.lft.to/lastmile_qr_scan"}, "lat": 38.9086275}, {"type": "electric_scooter", "name": "d6fc11a073cdb9a69d00b790f0813140", "fusion_lat": 0.0, "fusion_lon": 0.0, "lon": -77.01433016666667, "is_disabled": 0, "bike_id": "d6fc11a073cdb9a69d00b790f0813140", "is_reserved": 0, "rental_uris": {"android": "https://dc.lft.to/lastmile_qr_scan", "ios": "https://dc.lft.to/lastmile_qr_scan"}, "lat": 38.91251483333333}, {"type": "electric_scooter", "name": "628f61f337610fe649957ecd622d8f18", "fusion_lat": 0.0, "fusion_lon": 0.0, "lon": -77.04741516666667, "is_disabled": 0, "bike_id": "628f61f337610fe649957ecd622d8f18", "is_reserved": 0, "rental_uris": {"android": "https://dc.lft.to/lastmile_qr_scan", "ios": "https://dc.lft.to/lastmile_qr_scan"}, "lat": 38.92333583333333},