{"data": {"bikes": [{"fusion_lat": 0.0, "name": "f791058dc260317d92e85f7efd61eae6", "is_disabled": 0, "rental_uris": {"android": "https://dc.lft.to/lastmile_qr_scan", "ios": "https://dc.lft.to/lastmile_qr_scan"}, "fusion_lon": 0.0, "lat": 38.932598166666665, "bike_id": "f791058dc260317d92e85f7efd61eae6", "type": "electric_scooter", "is_reserved": 0, "lon": -77.03272033333333}, {"fusion_lat": 0.0, "name": "8ad4083eeb1d48cc434d665ade48bf9b", "is_disabled": 0, "rental_uris": {"android": "https://dc.lft.to/lastmile_qr_scan", "ios": "https://dc.lft.to/lastmile_qr_scan"}, "fusion_lon": 0.0, "lat": 38.95882483333333, "bike_id": "8ad4083eeb1d48cc434d665ade48bf9b", "type": "electric_scooter", "is_reserved": 0, "lon": -77.01163616666666}, {"fusion_lat": 0.0, "name": "d0528aabf6674c970a692c4b5517fa4e", "is_disabled": 0, "rental_uris": {"android": "https://dc.lft.to/lastmile_qr_scan", "ios": "https://dc.lft.to/lastmile_qr_scan"}, "fusion_lon": 0.0, "lat": 38.91900833333333, "bike_id": "d0528aabf6674c970a692c4b5517fa4e", "type": "electric_scooter", "is_reserved": 0, "lon": -77.023644}, {"fusion_lat": 0.0, "name": "23a7aa399b835dd0e0a321837d324897", "is_disabled": 0, "rental_uris": {"android": "https://dc.lft.to/lastmile_qr_scan", "ios": "https://dc.lft.to/lastmile_qr_scan"}, "fusion_lon": 0.0, "lat": 38.87658166666667, "bike_id": "23a7aa399b835dd0e0a321837d324897", "type": "electric_scooter", "is_reserved": 0, "lon": -77.00917733333333}, {"fusion_lat": 0.0, "name": "273d9b63f499374b3342645fe569acfa", "is_disabled": 0, "rental_uris": {"android": "https://dc.lft.to/lastmile_qr_scan", "ios": "https://dc.lft.to/lastmile_qr_scan"}, "fusion_lon": 0.0, "lat": 38.91551466666667, "bike_id": "273d9b63f499374b3342645fe569acfa", "type": "electric_scooter", "is_reserved": 0, "lon": -77.032132}, {"fusion_lat": 0.0, "name": "f5d8aed8e12842a69841f00ffd0dd636", "is_disabled": 0, "rental_uris": {"android": "https://dc.lft.to/lastmile_qr_scan", "ios": "https://dc.lft.to/lastmile_qr_scan"}, "fusion_lon": 0.0, "lat": 38.909750833333334, "bike_id": "f5d8aed8e12842a69841f00ffd0dd636", "type": "electric_scooter", "is_reserved": 0, "lon": -77.023013}, {"fusion_lat": 0.0, "name": "cb08c98f538e7a1886348c680f2f6fa6", "is_disabled": 0, "rental_uris": {"android": "https://dc.lft.to/lastmile_qr_scan", "ios": "https://dc.lft.to/lastmile_qr_scan"}, "fusion_lon": 0.0, "lat": 38.92484966666667, "bike_id": "cb08c98f538e7a1886348c680f2f6fa6", "type": "electric_scooter", "is_reserved": 0, "lon": -77.02544866666666}, {"fusion_lat": 0.0, "name": "b8ce45987eabc8310ea2eb355e9464a3", "is_disabled": 0, "rental_uris": {"android": "https://dc.lft.to/lastmile_qr_scan", "ios": "https://dc.lft.to/lastmile_qr_scan"}, "fusion_lon": 0.0, "lat": 38.882306, "bike_id": "b8ce45987eabc8310ea2eb355e9464a3", "type": "electric_scooter", "is_reserved": 0, "lon": -77.02616316666666}, {"fusion_lat": 0.0, "name": "fd8530ec4418f817919ca11228a40424", "is_disabled": 0, "rental_uris": {"android": "https://dc.lft.to/lastmile_qr_scan", "ios": "https://dc.lft.to/lastmile_qr_scan"}, "fusion_lon": 0.0, "lat": 38.915625166666665, "bike_id": "fd8530ec4418f817919ca11228a40424", "type": "electric_scooter", "is_reserved": 0, "lon": -77.0322}, {"fusion_lat": 0.0, "name": "491d7406492dd1edf4520b466c404110", "is_disabled": 0, "rental_uris": {"android": "https://dc.lft.to/lastmile_qr_scan", "ios": "https://dc.lft.to/lastmile_qr_scan"}, "fusion_lon": 0.0, "lat": 38.87914166666667, "bike_id": "491d7406492dd1edf4520b466c404110", "type": "electric_scooter", "is_reserved": 0, "lon": -77.00889533333333}, {"fusion_lat": 0.0, "name": "2bbac30867833e9b05d413aa5b2baf62", "is_disabled": 0, "rental_uris": {"android": "https://dc.lft.to/lastmile_qr_scan", "ios": "https://dc.lft.to/lastmile_qr_scan"}, "fusion_lon": 0.0, "lat": 38.924813, "bike_id": "2bbac30867833e9b05d413aa5b2baf62", "type": "electric_scooter", "is_reserved": 0, "lon": -77.02648333333333}, {"fusion_lat": 0.0, "name": "2d7b27ea61a801801c2fab72847eafc2", "is_disabled": 0, "rental_uris": {"android": "https://dc.lft.to/lastmile_qr_scan", "ios": "https://dc.lft.to/lastmile_qr_scan"}, "fusion_lon": 0.0, "lat": 38.899128833333336, "bike_id": "2d7b27ea61a801801c2fab72847eafc2", "type": "electric_scooter", "is_reserved": 0, "lon": -76.93352116666667}, {"fusion_lat": 0.0, "name": "51957fa31ed21113c30afef98b8e7582", "is_disabled": 0, "rental_uris": {"android": "https://dc.lft.to/lastmile_qr_scan", "ios": "https://dc.lft.to/lastmile_qr_scan"}, "fusion_lon": 0.0, "lat": 38.92650966666667, "bike_id": "51957fa31ed21113c30afef98b8e7582", "type": "electric_scooter", "is_reserved": 0, "lon": -77.02698116666667}, {"fusion_lat": 0.0, "name": "feee5fe1c43d546eda07c5900ff55b08", "is_disabled": 0, "rental_uris": {"android": "https://dc.lft.to/lastmile_qr_scan", "ios": "https://dc.lft.to/lastmile_qr_scan"}, "fusion_lon": 0.0, "lat": 38.920418833333336, "bike_id": "feee5fe1c43d546eda07c5900ff55b08", "type": "electric_scooter", "is_reserved": 0, "lon": -77.04816066666666}, {"fusion_lat": 0.0, "name": "33d95ead9fda76004aa2b464b7d1cbc6", "is_disabled": 0, "rental_uris": {"android": "https://dc.lft.to/lastmile_qr_scan", "ios": "https://dc.lft.to/lastmile_qr_scan"}, "fusion_lon": 0.0, "lat": 38.9596505, "bike_id": "33d95ead9fda76004aa2b464b7d1cbc6", "type": "electric_bike", "is_reserved": 0, "lon": -76.9816415}, {"fusion_lat": 0.0, "name": "3eda18478505f0ecd622b1a0e7a3f3ff", "is_disabled": 0, "rental_uris": {"android": "https://dc.lft.to/lastmile_qr_scan", "ios": "https://dc.lft.to/lastmile_qr_scan"}, "fusion_lon": 0.0, "lat": 38.89638466666667, "bike_id": "3eda18478505f0ecd622b1a0e7a3f3ff", "type": "electric_scooter", "is_reserved": 0, "lon": -77.046484}, {"fusion_lat": 0.0, "name": "0dc38555b7f66118ee2817223edc010d", "is_disabled": 0, "rental_uris": {"android": "https://dc.lft.to/lastmile_qr_scan", "ios": "https://dc.lft.to/lastmile_qr_scan"}, "fusion_lon": 0.0, "lat": 38.92903483333333, "bike_id": "0dc38555b7f66118ee2817223edc010d", "type": "electric_scooter", "is_reserved": 0, "lon": -77.06409333333333}, {"fusion_lat": 0.0, "name": "4d9a3d26880491956be9c43121842d9d", "is_disabled": 0, "rental_uris": {"android": "https://dc.lft.to/lastmile_qr_scan", "ios": "https://dc.lft.to/lastmile_qr_scan"}, "fusion_lon": 0.0, "lat": 38.92865, "bike_id": "4d9a3d26880491956be9c43121842d9d", "type": "electric_scooter", "is_reserved": 0, "lon": -77.030949}, {"fusion_lat": 0.0, "name": "afc581e5e7e8788f3b2a0cbf9ebc8629", "is_disabled": 0, "rental_uris": {"android": "https://dc.lft.to/lastmile_qr_scan", "ios": "https://dc.lft.to/lastmile_qr_scan"}, "fusion_lon": 0.0, "lat": 38.95758033333333, "bike_id": "afc581e5e7e8788f3b2a0cbf9ebc8629", "type": "electric_bike", "is_reserved": 0, "lon": -76.980917}, {"fusion_lat": 0.0, "name": "5431076a4d7fb9a741a70f4aa77b11f4", "is_disabled": 0, "rental_uris": {"android": "https://dc.lft.to/lastmile_qr_scan", "ios": "https://dc.lft.to/lastmile_qr_scan"}, "fusion_lon": 0.0, "lat": 38.93238733333333, "bike_id": "5431076a4d7fb9a741a70f4aa77b11f4", "type": "electric_bike", "is_reserved": 0, "lon": -76.97425433333333}, {"fusion_lat": 0.0, "name": "c134d4907321c40ec068cb1654756071", "is_disabled": 0, "rental_uris": {"android": "https://dc.lft.to/lastmile_qr_scan", "ios": "https://dc.lft.to/lastmile_qr_scan"}, "fusion_lon": 0.0, "lat": 38.9197785, "bike_id": "c134d4907321c40ec068cb1654756071", "type": "electric_scooter", "is_reserved": 0, "lon": -77.01798866666667}, {"fusion_lat": 0.0, "name": "f480ac0d36e28eaea6b02a67e0603e22", "is_disabled": 0, "rental_uris": {"android": "https://dc.lft.to/lastmile_qr_scan", "ios": "https://dc.lft.to/lastmile_qr_scan"}, "fusion_lon": 0.0, "lat": 38.90123783333333, "bike_id": "f480ac0d36e28eaea6b02a67e0603e22", "type": "electric_scooter", "is_reserved": 0, "lon": -77.003242}, {"fusion_lat": 0.0, "name": "ecef92845973e497639e5de1c292cc32", "is_disabled": 0, "rental_uris": {"android": "https://dc.lft.to/lastmile_qr_scan", "ios": "https://dc.lft.to/lastmile_qr_scan"}, "fusion_lon": 0.0, "lat": 38.912272333333334, "bike_id": "ecef92845973e497639e5de1c292cc32", "type": "electric_scooter", "is_reserved": 0, "lon": -77.03199533333333}, {"fusion_lat": 0.0, "name": "55d3cbbe037860ac3dc09825f36a4bf4", "is_disabled": 0, "rental_uris": {"android": "https://dc.lft.to/lastmile_qr_scan", "ios": "https://dc.lft.to/lastmile_qr_scan"}, "fusion_lon": 0.0, "lat": 38.898611, "bike_id": "55d3cbbe037860ac3dc09825f36a4bf4", "type": "electric_scooter", "is_reserved": 0, "lon": -77.03281466666667}, {"fusion_lat": 0.0, "name": "473b6ac8ef7c481074ecd76f67113885", "is_disabled": 0, "rental_uris": {"android": "https://dc.lft.to/lastmile_qr_scan", "ios": "https://dc.lft.to/lastmile_qr_scan"}, "fusion_lon": 0.0, "lat": 38.94432966666667, "bike_id": "473b6ac8ef7c481074ecd76f67113885", "type": "electric_bike", "is_reserved": 0, "lon": -77.02601716666666}, {"fusion_lat": 0.0, "name": "52a2a3fa528095e4be60a7b7b07da012", "is_disabled": 0, "rental_uris": {"android": "https://dc.lft.to/lastmile_qr_scan", "ios": "https://dc.lft.to/lastmile_qr_scan"}, "fusion_lon": 0.0, "lat": 38.91707983333333, "bike_id": "52a2a3fa528095e4be60a7b7b07da012", "type": "electric_scooter", "is_reserved": 0, "lon": -77.04146966666667}, {"fusion_lat": 0.0, "name": "73570b88e2de8dc5243aa5981525349e", "is_disabled": 0, "rental_uris": {"android": "https://dc.lft.to/lastmile_qr_scan", "ios": "https://dc.lft.to/lastmile_qr_scan"}, "fusion_lon": 0.0, "lat": 38.932371, "bike_id": "73570b88e2de8dc5243aa5981525349e", "type": "electric_scooter", "is_reserved": 0, "lon": -77.03430433333334}, {"fusion_lat": 0.0, "name": "cf3d2cf69e8e37e14dda58336620c8ac", "is_disabled": 0, "rental_uris": {"android": "https://dc.lft.to/lastmile_qr_scan", "ios": "https://dc.lft.to/lastmile_qr_scan"}, "fusion_lon": 0.0, "lat": 38.947519166666666, "bike_id": "cf3d2cf69e8e37e14dda58336620c8ac", "type": "electric_scooter", "is_reserved": 0, "lon": -77.007196}, {"fusion_lat": 0.0, "name": "6778e51bb770ee4a1ad83d0d744f3ea7", "is_disabled": 0, "rental_uris": {"android": "https://dc.lft.to/lastmile_qr_scan", "ios": "https://dc.lft.to/lastmile_qr_scan"}, "fusion_lon": 0.0, "lat": 38.89858816666667, "bike_id": "6778e51bb770ee4a1ad83d0d744f3ea7", "type": "electric_scooter", "is_reserved": 0, "lon": -76.9766775}, {"fusion_lat": 0.0, "name": "8898163ccfd8b3cd114907a2c9d50b95", "is_disabled": 0, "rental_uris": {"android": "https://dc.lft.to/lastmile_qr_scan", "ios": "https://dc.lft.to/lastmile_qr_scan"}, "fusion_lon": 0.0, "lat": 38.882022666666664, "bike_id": "8898163ccfd8b3cd114907a2c9d50b95", "type": "electric_scooter", "is_reserved": 0, "lon": -77.02855066666666}, {"fusion_lat": 0.0, "name": "e28ef3d25701f83aaff55d12d40280c7", "is_disabled": 0, "rental_uris": {"android": "https://dc.lft.to/lastmile_qr_scan", "ios": "https://dc.lft.to/lastmile_qr_scan"}, "fusion_lon": 0.0, "lat": 38.798573833333336, "bike_id": "e28ef3d25701f83aaff55d12d40280c7", "type": "electric_bike", "is_reserved": 0, "lon": -77.063026}, {"fusion_lat": 0.0, "name": "a0038138b70a966af38dc04a8abfa6d1", "is_disabled": 0, "rental_uris": {"android": "https://dc.lft.to/lastmile_qr_scan", "ios": "https://dc.lft.to/lastmile_qr_scan"}, "fusion_lon": 0.0, "lat": 38.89738666666667, "bike_id": "a0038138b70a966af38dc04a8abfa6d1", "type": "electric_scooter", "is_reserved": 0, "lon": -77.04969283333334}, {"fusion_lat": 0.0, "name": "6e052eedd0b3b3567b0adc70c7e77556", "is_disabled": 0, "rental_uris": {"android": "https://dc.lft.to/lastmile_qr_scan", "ios": "https://dc.lft.to/lastmile_qr_scan"}, "fusion_lon": 0.0, "lat": 38.87992233333333, "bike_id": "6e052eedd0b3b3567b0adc70c7e77556", "type": "electric_scooter", "is_reserved": 0, "lon": -77.02407816666667}, {"fusion_lat": 0.0, "name": "8bc7a7d11b742305d1773bd7a0624cbc", "is_disabled": 0, "rental_uris": {"android": "https://dc.lft.to/lastmile_qr_scan", "ios": "https://dc.lft.to/lastmile_qr_scan"}, "fusion_lon": 0.0, "lat": 38.89092983333333, "bike_id": "8bc7a7d11b742305d1773bd7a0624cbc", "type": "electric_scooter", "is_reserved": 0, "lon": -76.91925683333334}, {"fusion_lat": 0.0, "name": "ff6e38f6cc194614a51a2ead8f1c7c84", "is_disabled": 0, "rental_uris": {"android": "https://dc.lft.to/lastmile_qr_scan", "ios": "https://dc.lft.to/lastmile_qr_scan"}, "fusion_lon": 0.0, "lat": 38.920669833333335, "bike_id": "ff6e38f6cc194614a51a2ead8f1c7c84", "type": "electric_scooter", "is_reserved": 0, "lon": -77.024017}, {"fusion_lat": 0.0, "name": "da43eb18b7673bdeef5b72fa65de126c", "is_disabled": 0, "rental_uris": {"android": "https://dc.lft.to/lastmile_qr_scan", "ios": "https://dc.lft.to/lastmile_qr_scan"}, "fusion_lon": 0.0, "lat": 38.903556333333334, "bike_id": "da43eb18b7673bdeef5b72fa65de126c", "type": "electric_scooter", "is_reserved": 0, "lon": -77.04495283333333}, {"fusion_lat": 0.0, "name": "c14fb8727d4d6bd396e3c2147a5fadd7", "is_disabled": 0, "rental_uris": {"android": "https://dc.lft.to/lastmile_qr_scan", "ios": "https://dc.lft.to/lastmile_qr_scan"}, "fusion_lon": 0.0, "lat": 38.92469466666667, "bike_id": "c14fb8727d4d6bd396e3c2147a5fadd7", "type": "electric_scooter", "is_reserved": 0, "lon": -77.038501}, {"fusion_lat": 0.0, "name": "b8418ad373b321ba63b808729227ada6", "is_disabled": 0, "rental_uris": {"android": "https://dc.lft.to/lastmile_qr_scan", "ios": "https://dc.lft.to/lastmile_qr_scan"}, "fusion_lon": 0.0, "lat": 38.87307, "bike_id": "b8418ad373b321ba63b808729227ada6", "type": "electric_scooter", "is_reserved": 0, "lon": -77.0004585}, {"fusion_lat": 0.0, "name": "0bcf9c67f5d529d26999bd3e1abed7bd", "is_disabled": 0, "rental_uris": {"android": "https://dc.lft.to/lastmile_qr_scan", "ios": "https://dc.lft.to/lastmile_qr_scan"}, "fusion_lon": 0.0, "lat": 38.864512833333336, "bike_id": "0bcf9c67f5d529d26999bd3e1abed7bd", "type": "electric_bike", "is_reserved": 0, "lon": -77.106824}, {"fusion_lat": 0.0, "name": "04b68906b76ee06b64e5b78e06a67c37", "is_disabled": 0, "rental_uris": {"android": "https://dc.lft.to/lastmile_qr_scan", "ios": "https://dc.lft.to/lastmile_qr_scan"}, "fusion_lon": 0.0, "lat": 38.95633433333333, "bike_id": "04b68906b76ee06b64e5b78e06a67c37", "type": "electric_scooter", "is_reserved": 0, "lon": -77.09125433333334}, {"fusion_lat": 0.0, "name": "94c255ee5aceb8acbfba540b5ece1454", "is_disabled": 0, "rental_uris": {"android": "https://dc.lft.to/lastmile_qr_scan", "ios": "https://dc.lft.to/lastmile_qr_scan"}, "fusion_lon": 0.0, "lat": 38.91062766666667, "bike_id": "94c255ee5aceb8acbfba540b5ece1454", "type": "electric_scooter", "is_reserved": 0, "lon": -77.04097233333333}, {"fusion_lat": 0.0, "name": "606aed9e379c6adc610419b3013310e1", "is_disabled": 0, "rental_uris": {"android": "https://dc.lft.to/lastmile_qr_scan", "ios": "https://dc.lft.to/lastmile_qr_scan"}, "fusion_lon": 0.0, "lat": 38.91502416666667, "bike_id": "606aed9e379c6adc610419b3013310e1", "type": "electric_scooter", "is_reserved": 0, "lon": -77.03207733333333}, {"fusion_lat": 0.0, "name": "1cc07af3b2cc32754232fef0fefce783", "is_disabled": 0, "rental_uris": {"android": "https://dc.lft.to/lastmile_qr_scan", "ios": "https://dc.lft.to/lastmile_qr_scan"}, "fusion_lon": 0.0, "lat": 38.89713716666667, "bike_id": "1cc07af3b2cc32754232fef0fefce783", "type": "electric_scooter", "is_reserved": 0, "lon": -77.0232985}, {"fusion_lat": 0.0, "name": "09b0d9e2f61c4ae7020f53156206215e", "is_disabled": 0, "rental_uris": {"android": "https://dc.lft.to/lastmile_qr_scan", "ios": "https://dc.lft.to/lastmile_qr_scan"}, "fusion_lon": 0.0, "lat": 38.87637766666667, "bike_id": "09b0d9e2f61c4ae7020f53156206215e", "type": "electric_scooter", "is_reserved": 0, "lon": -77.015755}, {"fusion_lat": 0.0, "name": "2bf31afeb2984c4f65cee2fab26dcee5", "is_disabled": 0, "rental_uris": {"android": "https://dc.lft.to/lastmile_qr_scan", "ios": "https://dc.lft.to/lastmile_qr_scan"}, "fusion_lon": 0.0, "lat": 38.909639166666665, "bike_id": "2bf31afeb2984c4f65cee2fab26dcee5", "type": "electric_scooter", "is_reserved": 0, "lon": -77.0454235}, {"fusion_lat": 0.0, "name": "8ea47b2887ebacac1d51c55e9feb13eb", "is_disabled": 0, "rental_uris": {"android": "https://dc.lft.to/lastmile_qr_scan", "ios": "https://dc.lft.to/lastmile_qr_scan"}, "fusion_lon": 0.0, "lat": 38.923979, "bike_id": "8ea47b2887ebacac1d51c55e9feb13eb", "type": "electric_scooter", "is_reserved": 0, "lon": -77.02482516666667}, {"fusion_lat": 0.0, "name": "ec855761b021e5fcfa36c50e0029282c", "is_disabled": 0, "rental_uris": {"android": "https://dc.lft.to/lastmile_qr_scan", "ios": "https://dc.lft.to/lastmile_qr_scan"}, "fusion_lon": 0.0, "lat": 38.91926083333333, "bike_id": "ec855761b021e5fcfa36c50e0029282c", "type": "electric_scooter", "is_reserved": 0, "lon": -77.00981283333333}, {"fusion_lat": 0.0, "name": "74e086855d48b0a3ac858321d4281d29", "is_disabled": 0, "rental_uris": {"android": "https://dc.lft.to/lastmile_qr_scan", "ios": "https://dc.lft.to/lastmile_qr_scan"}, "fusion_lon": 0.0, "lat": 38.9063345, "bike_id": "74e086855d48b0a3ac858321d4281d29", "type": "electric_scooter", "is_reserved": 0, "lon": -77.00999433333334}, {"fusion_lat": 0.0, "name": "2b33980f5c9a8e715566eec95afd199a", "is_disabled": 0, "rental_uris": {"android": "https://dc.lft.to/lastmile_qr_scan", "ios": "https://dc.lft.to/lastmile_qr_scan"}, "fusion_lon": 0.0, "lat": 38.900184833333334, "bike_id": "2b33980f5c9a8e715566eec95afd199a", "type": "electric_scooter", "is_reserved": 0, "lon": -77.0118075}, {"fusion_lat": 0.0, "name": "80ea3f5ed271390bb602348e0ab5c1d3", "is_disabled": 0, "rental_uris": {"android": "https://dc.lft.to/lastmile_qr_scan", "ios": "https://dc.lft.to/lastmile_qr_scan"}, "fusion_lon": 0.0, "lat": 38.91667316666667, "bike_id": "80ea3f5ed271390bb602348e0ab5c1d3", "type": "electric_scooter", "is_reserved": 0, "lon": -77.0321985}, {"fusion_lat": 0.0, "name": "7b80e13b3ba0052ba327cc2c1b2aa654", "is_disabled": 0, "rental_uris": {"android": "https://dc.lft.to/lastmile_qr_scan", "ios": "https://dc.lft.to/lastmile_qr_scan"}, "fusion_lon": 0.0, "lat": 38.885268333333336, "bike_id": "7b80e13b3ba0052ba327cc2c1b2aa654", "type": "electric_scooter", "is_reserved": 0, "lon": -76.929103}, {"fusion_lat": 0.0, "name": "6b3201ad02d27687f3058ba47b0caa9d", "is_disabled": 0, "rental_uris": {"android": "https://dc.lft.to/lastmile_qr_scan", "ios": "https://dc.lft.to/lastmile_qr_scan"}, "fusion_lon": 0.0, "lat": 38.900431833333336, "bike_id": "6b3201ad02d27687f3058ba47b0caa9d", "type": "electric_scooter", "is_reserved": 0, "lon": -77.03485083333334}, {"fusion_lat": 0.0, "name": "cf23ad782027397f931cbb9ddeac8333", "is_disabled": 0, "rental_uris": {"android": "https://dc.lft.to/lastmile_qr_scan", "ios": "https://dc.lft.to/lastmile_qr_scan"}, "fusion_lon": 0.0, "lat": 38.92136416666666, "bike_id": "cf23ad782027397f931cbb9ddeac8333", "type": "electric_scooter", "is_reserved": 0, "lon": -77.01801833333333}, {"fusion_lat": 0.0, "name": "1da2580034aa8e872171eb33bc41dcfc", "is_disabled": 0, "rental_uris": {"android": "https://dc.lft.to/lastmile_qr_scan", "ios": "https://dc.lft.to/lastmile_qr_scan"}, "fusion_lon": 0.0, "lat": 38.898297666666664, "bike_id": "1da2580034aa8e872171eb33bc41dcfc", "type": "electric_scooter", "is_reserved": 0, "lon": -76.94650016666667}, {"fusion_lat": 0.0, "name": "f5eb0680b85aa0fee5dc962b7e24982a", "is_disabled": 0, "rental_uris": {"android": "https://dc.lft.to/lastmile_qr_scan", "ios": "https://dc.lft.to/lastmile_qr_scan"}, "fusion_lon": 0.0, "lat": 38.90779633333333, "bike_id": "f5eb0680b85aa0fee5dc962b7e24982a", "type": "electric_scooter", "is_reserved": 0, "lon": -77.04337283333334}, {"fusion_lat": 0.0, "name": "3ea4dc16acbdc90ca188a76799c90f90", "is_disabled": 0, "rental_uris": {"android": "https://dc.lft.to/lastmile_qr_scan", "ios": "https://dc.lft.to/lastmile_qr_scan"}, "fusion_lon": 0.0, "lat": 38.899079, "bike_id": "3ea4dc16acbdc90ca188a76799c90f90", "type": "electric_scooter", "is_reserved": 0, "lon": -76.9335065}, {"fusion_lat": 0.0, "name": "8a010bfa54a0d4098a2d0a9daabc9dee", "is_disabled": 0, "rental_uris": {"android": "https://dc.lft.to/lastmile_qr_scan", "ios": "https://dc.lft.to/lastmile_qr_scan"}, "fusion_lon": 0.0, "lat": 38.95055633333333, "bike_id": "8a010bfa54a0d4098a2d0a9daabc9dee", "type": "electric_scooter", "is_reserved": 0, "lon": -77.080265}, {"fusion_lat": 0.0, "name": "9c137b4ecc02b8b7c41c9173b8df7709", "is_disabled": 0, "rental_uris": {"android": "https://dc.lft.to/lastmile_qr_scan", "ios": "https://dc.lft.to/lastmile_qr_scan"}, "fusion_lon": 0.0, "lat": 38.93604466666667, "bike_id": "9c137b4ecc02b8b7c41c9173b8df7709", "type": "electric_scooter", "is_reserved": 0, "lon": -77.03655583333334}, {"fusion_lat": 0.0, "name": "b23fa62ab6a79015b5bdee82c72ce8c7", "is_disabled": 0, "rental_uris": {"android": "https://dc.lft.to/lastmile_qr_scan", "ios": "https://dc.lft.to/lastmile_qr_scan"}, "fusion_lon": 0.0, "lat": 38.922483166666666, "bike_id": "b23fa62ab6a79015b5bdee82c72ce8c7", "type": "electric_scooter", "is_reserved": 0, "lon": -77.01949183333333}, {"fusion_lat": 0.0, "name": "dc848846ca4879107d7a7b8459927620", "is_disabled": 0, "rental_uris": {"android": "https://dc.lft.to/lastmile_qr_scan", "ios": "https://dc.lft.to/lastmile_qr_scan"}, "fusion_lon": 0.0, "lat": 38.89614816666667, "bike_id": "dc848846ca4879107d7a7b8459927620", "type": "electric_scooter", "is_reserved": 0, "lon": -77.03242133333333}, {"fusion_lat": 0.0, "name": "fc466353f0d965773611301e19ca2731", "is_disabled": 0, "rental_uris": {"android": "https://dc.lft.to/lastmile_qr_scan", "ios": "https://dc.lft.to/lastmile_qr_scan"}, "fusion_lon": 0.0, "lat": 38.891905333333334, "bike_id": "fc466353f0d965773611301e19ca2731", "type": "electric_scooter", "is_reserved": 0, "lon": -76.99837933333333}, {"fusion_lat": 0.0, "name": "0af9c2bef97c482253d1622b66b09ead", "is_disabled": 0, "rental_uris": {"android": "https://dc.lft.to/lastmile_qr_scan", "ios": "https://dc.lft.to/lastmile_qr_scan"}, "fusion_lon": 0.0, "lat": 38.87579683333333, "bike_id": "0af9c2bef97c482253d1622b66b09ead", "type": "electric_bike", "is_reserved": 0, "lon": -77.234101}, {"fusion_lat": 0.0, "name": "ab33694bdeb62bcd065ad85a861f6c9f", "is_disabled": 0, "rental_uris": {"android": "https://dc.lft.to/lastmile_qr_scan", "ios": "https://dc.lft.to/lastmile_qr_scan"}, "fusion_lon": 0.0, "lat": 38.916063666666666, "bike_id": "ab33694bdeb62bcd065ad85a861f6c9f", "type": "electric_scooter", "is_reserved": 0, "lon": -77.03114283333333}, {"fusion_lat": 0.0, "name": "e088700433d654696bf0f56006ac36bb", "is_disabled": 0, "rental_uris": {"android": "https://dc.lft.to/lastmile_qr_scan", "ios": "https://dc.lft.to/lastmile_qr_scan"}, "fusion_lon": 0.0, "lat": 38.918829333333335, "bike_id": "e088700433d654696bf0f56006ac36bb", "type": "electric_scooter", "is_reserved": 0, "lon": -77.048251}, {"fusion_lat": 0.0, "name": "2a7db4259447b64ba09520e986dd5d00", "is_disabled": 0, "rental_uris": {"android": "https://dc.lft.to/lastmile_qr_scan", "ios": "https://dc.lft.to/lastmile_qr_scan"}, "fusion_lon": 0.0, "lat": 38.908952, "bike_id": "2a7db4259447b64ba09520e986dd5d00", "type": "electric_scooter", "is_reserved": 0, "lon": -77.04272183333333}, {"fusion_lat": 0.0, "name": "69ba426219a9d3e7050df7baf6b004c4", "is_disabled": 0, "rental_uris": {"android": "https://dc.lft.to/lastmile_qr_scan", "ios": "https://dc.lft.to/lastmile_qr_scan"}, "fusion_lon": 0.0, "lat": 38.974999, "bike_id": "69ba426219a9d3e7050df7baf6b004c4", "type": "electric_scooter", "is_reserved": 0, "lon": -77.01699866666667}, {"fusion_lat": 0.0, "name": "c8b1a5c807de82d681fde14706dd680a", "is_disabled": 0, "rental_uris": {"android": "https://dc.lft.to/lastmile_qr_scan", "ios": "https://dc.lft.to/lastmile_qr_scan"}, "fusion_lon": 0.0, "lat": 38.969879166666665, "bike_id": "c8b1a5c807de82d681fde14706dd680a", "type": "electric_scooter", "is_reserved": 0, "lon": -77.01159083333333}, {"fusion_lat": 0.0, "name": "5f3fab7164f9a1171f5bafce82b43cb7", "is_disabled": 0, "rental_uris": {"android": "https://dc.lft.to/lastmile_qr_scan", "ios": "https://dc.lft.to/lastmile_qr_scan"}, "fusion_lon": 0.0, "lat": 38.91111166666666, "bike_id": "5f3fab7164f9a1171f5bafce82b43cb7", "type": "electric_scooter", "is_reserved": 0, "lon": -77.02903066666667}, {"fusion_lat": 0.0, "name": "9d22ee8c47ba9a0501e7b716ab6cb243", "is_disabled": 0, "rental_uris": {"android": "https://dc.lft.to/lastmile_qr_scan", "ios": "https://dc.lft.to/lastmile_qr_scan"}, "fusion_lon": 0.0, "lat": 38.93059433333333, "bike_id": "9d22ee8c47ba9a0501e7b716ab6cb243", "type": "electric_scooter", "is_reserved": 0, "lon": -77.04048033333333}, {"fusion_lat": 0.0, "name": "d1ba0b101b29d98f01e2701def85be05", "is_disabled": 0, "rental_uris": {"android": "https://dc.lft.to/lastmile_qr_scan", "ios": "https://dc.lft.to/lastmile_qr_scan"}, "fusion_lon": 0.0, "lat": 38.897354, "bike_id": "d1ba0b101b29d98f01e2701def85be05", "type": "electric_bike", "is_reserved": 0, "lon": -76.92042116666667}, {"fusion_lat": 0.0, "name": "b7e48eb89bbf3a3dfb0643f957656ce1", "is_disabled": 0, "rental_uris": {"android": "https://dc.lft.to/lastmile_qr_scan", "ios": "https://dc.lft.to/lastmile_qr_scan"}, "fusion_lon": 0.0, "lat": 38.881155666666665, "bike_id": "b7e48eb89bbf3a3dfb0643f957656ce1", "type": "electric_bike", "is_reserved": 0, "lon": -77.01647633333333}, {"fusion_lat": 0.0, "name": "53f9d76afc5dd9217b577cb85955739c", "is_disabled": 0, "rental_uris": {"android": "https://dc.lft.to/lastmile_qr_scan", "ios": "https://dc.lft.to/lastmile_qr_scan"}, "fusion_lon": 0.0, "lat": 38.909176333333335, "bike_id": "53f9d76afc5dd9217b577cb85955739c", "type": "electric_scooter", "is_reserved": 0, "lon": -77.0727785}, {"fusion_lat": 0.0, "name": "08f9f149d7229ef5d0b648878941efb7", "is_disabled": 0, "rental_uris": {"android": "https://dc.lft.to/lastmile_qr_scan", "ios": "https://dc.lft.to/lastmile_qr_scan"}, "fusion_lon": 0.0, "lat": 38.89735666666667, "bike_id": "08f9f149d7229ef5d0b648878941efb7", "type": "electric_scooter", "is_reserved": 0, "lon": -77.00373166666667}, {"fusion_lat": 0.0, "name": "3f8bbba81025bb013b0e17833f156137", "is_disabled": 0, "rental_uris": {"android": "https://dc.lft.to/lastmile_qr_scan", "ios": "https://dc.lft.to/lastmile_qr_scan"}, "fusion_lon": 0.0, "lat": 38.919066, "bike_id": "3f8bbba81025bb013b0e17833f156137", "type": "electric_scooter", "is_reserved": 0, "lon": -77.00211333333333}, {"fusion_lat": 0.0, "name": "a47ae9131258d15c849bc8777a78e2eb", "is_disabled": 0, "rental_uris": {"android": "https://dc.lft.to/lastmile_qr_scan", "ios": "https://dc.lft.to/lastmile_qr_scan"}, "fusion_lon": 0.0, "lat": 38.897016, "bike_id": "a47ae9131258d15c849bc8777a78e2eb", "type": "electric_scooter", "is_reserved": 0, "lon": -77.0431375}, {"fusion_lat": 0.0, "name": "5ff43cddd9b6d763ff050dbda12079c1", "is_disabled": 0, "rental_uris": {"android": "https://dc.lft.to/lastmile_qr_scan", "ios": "https://dc.lft.to/lastmile_qr_scan"}, "fusion_lon": 0.0, "lat": 38.926415, "bike_id": "5ff43cddd9b6d763ff050dbda12079c1", "type": "electric_scooter", "is_reserved": 0, "lon": -77.03320333333333}, {"fusion_lat": 0.0, "name": "4fae4ac6a0e2ab73c2980eec6aff8cdb", "is_disabled": 0, "rental_uris": {"android": "https://dc.lft.to/lastmile_qr_scan", "ios": "https://dc.lft.to/lastmile_qr_scan"}, "fusion_lon": 0.0, "lat": 38.90705283333333, "bike_id": "4fae4ac6a0e2ab73c2980eec6aff8cdb", "type": "electric_scooter", "is_reserved": 0, "lon": -77.02714266666666}, {"fusion_lat": 0.0, "name": "5bd92ef85d2b647346d20d06b8275bcb", "is_disabled": 0, "rental_uris": {"android": "https://dc.lft.to/lastmile_qr_scan", "ios": "https://dc.lft.to/lastmile_qr_scan"}, "fusion_lon": 0.0, "lat": 38.91131133333333, "bike_id": "5bd92ef85d2b647346d20d06b8275bcb", "type": "electric_scooter", "is_reserved": 0, "lon": -77.02089166666667}, {"fusion_lat": 0.0, "name": "8145d604c6e76b8bd53ea21ff5ea071e", "is_disabled": 0, "rental_uris": {"android": "https://dc.lft.to/lastmile_qr_scan", "ios": "https://dc.lft.to/lastmile_qr_scan"}, "fusion_lon": 0.0, "lat": 38.8911105, "bike_id": "8145d604c6e76b8bd53ea21ff5ea071e", "type": "electric_scooter", "is_reserved": 0, "lon": -76.94381216666666}, {"fusion_lat": 0.0, "name": "014c176505642ee3b312d60a27d13e4b", "is_disabled": 0, "rental_uris": {"android": "https://dc.lft.to/lastmile_qr_scan", "ios": "https://dc.lft.to/lastmile_qr_scan"}, "fusion_lon": 0.0, "lat": 38.901993, "bike_id": "014c176505642ee3b312d60a27d13e4b", "type": "electric_scooter", "is_reserved": 0, "lon": -76.98843783333334}, {"fusion_lat": 0.0, "name": "3a65d6b7f7eb6cf2dbac019ce8eb3c09", "is_disabled": 0, "rental_uris": {"android": "https://dc.lft.to/lastmile_qr_scan", "ios": "https://dc.lft.to/lastmile_qr_scan"}, "fusion_lon": 0.0, "lat": 38.92035883333333, "bike_id": "3a65d6b7f7eb6cf2dbac019ce8eb3c09", "type": "electric_scooter", "is_reserved": 0, "lon": -77.0178955}, {"fusion_lat": 0.0, "name": "ca20a0794c5dceb9bc72de97e5674493", "is_disabled": 0, "rental_uris": {"android": "https://dc.lft.to/lastmile_qr_scan", "ios": "https://dc.lft.to/lastmile_qr_scan"}, "fusion_lon": 0.0, "lat": 38.875952, "bike_id": "ca20a0794c5dceb9bc72de97e5674493", "type": "electric_scooter", "is_reserved": 0, "lon": -77.00100233333333}, {"fusion_lat": 0.0, "name": "bb697d906717635657b92e3dc2e65b13", "is_disabled": 0, "rental_uris": {"android": "https://dc.lft.to/lastmile_qr_scan", "ios": "https://dc.lft.to/lastmile_qr_scan"}, "fusion_lon": 0.0, "lat": 38.887374, "bike_id": "bb697d906717635657b92e3dc2e65b13", "type": "electric_scooter", "is_reserved": 0, "lon": -77.025793}, {"fusion_lat": 0.0, "name": "e75cf179e8ab3f00b71f7a3c5bd6180c", "is_disabled": 0, "rental_uris": {"android": "https://dc.lft.to/lastmile_qr_scan", "ios": "https://dc.lft.to/lastmile_qr_scan"}, "fusion_lon": 0.0, "lat": 38.9345625, "bike_id": "e75cf179e8ab3f00b71f7a3c5bd6180c", "type": "electric_scooter", "is_reserved": 0, "lon": -77.07268283333333}, {"fusion_lat": 0.0, "name": "d649bfb3ad07e26648e12f823804b601", "is_disabled": 0, "rental_uris": {"android": "https://dc.lft.to/lastmile_qr_scan", "ios": "https://dc.lft.to/lastmile_qr_scan"}, "fusion_lon": 0.0, "lat": 38.891599, "bike_id": "d649bfb3ad07e26648e12f823804b601", "type": "electric_bike", "is_reserved": 0, "lon": -77.00464233333334}, {"fusion_lat": 0.0, "name": "ba1dc7af2edf9a7f2dda0f6e6d44ab20", "is_disabled": 0, "rental_uris": {"android": "https://dc.lft.to/lastmile_qr_scan", "ios": "https://dc.lft.to/lastmile_qr_scan"}, "fusion_lon": 0.0, "lat": 38.957319166666665, "bike_id": "ba1dc7af2edf9a7f2dda0f6e6d44ab20", "type": "electric_scooter", "is_reserved": 0, "lon": -77.02401566666667}, {"fusion_lat": 0.0, "name": "ce08c20499596fce5b7ac34497a351f6", "is_disabled": 0, "rental_uris": {"android": "https://dc.lft.to/lastmile_qr_scan", "ios": "https://dc.lft.to/lastmile_qr_scan"}, "fusion_lon": 0.0, "lat": 38.945011666666666, "bike_id": "ce08c20499596fce5b7ac34497a351f6", "type": "electric_bike", "is_reserved": 0, "lon": -77.00656666666667}, {"fusion_lat": 0.0, "name": "72805e726e7432182d84540de93f0546", "is_disabled": 0, "rental_uris": {"android": "https://dc.lft.to/lastmile_qr_scan", "ios": "https://dc.lft.to/lastmile_qr_scan"}, "fusion_lon": 0.0, "lat": 38.91834983333333, "bike_id": "72805e726e7432182d84540de93f0546", "type": "electric_scooter", "is_reserved": 0, "lon": -77.02380116666667}, {"fusion_lat": 0.0, "name": "aad33b86c09906322896abb44819a246", "is_disabled": 0, "rental_uris": {"android": "https://dc.lft.to/lastmile_qr_scan", "ios": "https://dc.lft.to/lastmile_qr_scan"}, "fusion_lon": 0.0, "lat": 38.901780333333335, "bike_id": "aad33b86c09906322896abb44819a246", "type": "electric_scooter", "is_reserved": 0, "lon": -76.94145816666666}, {"fusion_lat": 0.0, "name": "bcf402ad6e54473df962c6f61d4feaac", "is_disabled": 0, "rental_uris": {"android": "https://dc.lft.to/lastmile_qr_scan", "ios": "https://dc.lft.to/lastmile_qr_scan"}, "fusion_lon": 0.0, "lat": 38.897412833333334, "bike_id": "bcf402ad6e54473df962c6f61d4feaac", "type": "electric_scooter", "is_reserved": 0, "lon": -77.00007333333333}, {"fusion_lat": 0.0, "name": "d43d5758b8f3ea36d6219a9b509c12bc", "is_disabled": 0, "rental_uris": {"android": "https://dc.lft.to/lastmile_qr_scan", "ios": "https://dc.lft.to/lastmile_qr_scan"}, "fusion_lon": 0.0, "lat": 38.905273666666666, "bike_id": "d43d5758b8f3ea36d6219a9b509c12bc", "type": "electric_scooter", "is_reserved": 0, "lon": -77.0343515}, {"fusion_lat": 0.0, "name": "e7517c4a95174df244e8e0e74d30b3d6", "is_disabled": 0, "rental_uris": {"android": "https://dc.lft.to/lastmile_qr_scan", "ios": "https://dc.lft.to/lastmile_qr_scan"}, "fusion_lon": 0.0, "lat": 38.900262166666664, "bike_id": "e7517c4a95174df244e8e0e74d30b3d6", "type": "electric_scooter", "is_reserved": 0, "lon": -77.01186766666666}, {"fusion_lat": 0.0, "name": "b2fdcbf42ed0b579cc17e06510bdc782", "is_disabled": 0, "rental_uris": {"android": "https://dc.lft.to/lastmile_qr_scan", "ios": "https://dc.lft.to/lastmile_qr_scan"}, "fusion_lon": 0.0, "lat": 38.916306166666665, "bike_id": "b2fdcbf42ed0b579cc17e06510bdc782", "type": "electric_scooter", "is_reserved": 0, "lon": -77.0481925}, {"fusion_lat": 0.0, "name": "6803dde0b421465881fc691f4f3040a9", "is_disabled": 0, "rental_uris": {"android": "https://dc.lft.to/lastmile_qr_scan", "ios": "https://dc.lft.to/lastmile_qr_scan"}, "fusion_lon": 0.0, "lat": 38.881241, "bike_id": "6803dde0b421465881fc691f4f3040a9", "type": "electric_scooter", "is_reserved": 0, "lon": -76.992774}, {"fusion_lat": 0.0, "name": "5ae36f6c7fdd9007e6fdf8d47e01772e", "is_disabled": 0, "rental_uris": {"android": "https://dc.lft.to/lastmile_qr_scan", "ios": "https://dc.lft.to/lastmile_qr_scan"}, "fusion_lon": 0.0, "lat": 38.88486983333333, "bike_id": "5ae36f6c7fdd9007e6fdf8d47e01772e", "type": "electric_scooter", "is_reserved": 0, "lon": -77.00706916666667}, {"fusion_lat": 0.0, "name": "7aad8a3ac1b6230915d01fd80220775f", "is_disabled": 0, "rental_uris": {"android": "https://dc.lft.to/lastmile_qr_scan", "ios": "https://dc.lft.to/lastmile_qr_scan"}, "fusion_lon": 0.0, "lat": 38.922412, "bike_id": "7aad8a3ac1b6230915d01fd80220775f", "type": "electric_scooter", "is_reserved": 0, "lon": -77.0418995}, {"fusion_lat": 0.0, "name": "be5440bed23800cc561a2d7ea515a897", "is_disabled": 0, "rental_uris": {"android": "https://dc.lft.to/lastmile_qr_scan", "ios": "https://dc.lft.to/lastmile_qr_scan"}, "fusion_lon": 0.0, "lat": 38.8999645, "bike_id": "be5440bed23800cc561a2d7ea515a897", "type": "electric_scooter", "is_reserved": 0, "lon": -77.006486}, {"fusion_lat": 0.0, "name": "ee89328c91a5e7530e6b31a6852deb07", "is_disabled": 0, "rental_uris": {"android": "https://dc.lft.to/lastmile_qr_scan", "ios": "https://dc.lft.to/lastmile_qr_scan"}, "fusion_lon": 0.0, "lat": 38.84284133333333, "bike_id": "ee89328c91a5e7530e6b31a6852deb07", "type": "electric_bike", "is_reserved": 0, "lon": -77.04492366666666}, {"fusion_lat": 0.0, "name": "5a511ca496e2ebc6fe9c5d1c344591c3", "is_disabled": 0, "rental_uris": {"android": "https://dc.lft.to/lastmile_qr_scan", "ios": "https://dc.lft.to/lastmile_qr_scan"}, "fusion_lon": 0.0, "lat": 38.89739183333333, "bike_id": "5a511ca496e2ebc6fe9c5d1c344591c3", "type": "electric_scooter", "is_reserved": 0, "lon": -77.04336766666667}, {"fusion_lat": 0.0, "name": "feda87d7d996508ddafac4335b5fb201", "is_disabled": 0, "rental_uris": {"android": "https://dc.lft.to/lastmile_qr_scan", "ios": "https://dc.lft.to/lastmile_qr_scan"}, "fusion_lon": 0.0, "lat": 38.935304333333335, "bike_id": "feda87d7d996508ddafac4335b5fb201", "type": "electric_scooter", "is_reserved": 0, "lon": -77.036547}, {"fusion_lat": 0.0, "name": "86956c4a9cb13dcd5dce9b75440c293b", "is_disabled": 0, "rental_uris": {"android": "https://dc.lft.to/lastmile_qr_scan", "ios": "https://dc.lft.to/lastmile_qr_scan"}, "fusion_lon": 0.0, "lat": 38.928323, "bike_id": "86956c4a9cb13dcd5dce9b75440c293b", "type": "electric_scooter", "is_reserved": 0, "lon": -77.032617}, {"fusion_lat": 0.0, "name": "ce04eef9294c7f8a3220c594858df8d6", "is_disabled": 0, "rental_uris": {"android": "https://dc.lft.to/lastmile_qr_scan", "ios": "https://dc.lft.to/lastmile_qr_scan"}, "fusion_lon": 0.0, "lat": 38.934627166666665, "bike_id": "ce04eef9294c7f8a3220c594858df8d6", "type": "electric_scooter", "is_reserved": 0, "lon": -77.0412325}, {"fusion_lat": 0.0, "name": "5921c64b74b9d6546b3c9966e2d09039", "is_disabled": 0, "rental_uris": {"android": "https://dc.lft.to/lastmile_qr_scan", "ios": "https://dc.lft.to/lastmile_qr_scan"}, "fusion_lon": 0.0, "lat": 38.9000305, "bike_id": "5921c64b74b9d6546b3c9966e2d09039", "type": "electric_scooter", "is_reserved": 0, "lon": -76.93154316666667}, {"fusion_lat": 0.0, "name": "564661d535fe96161f31b9ee35b54660", "is_disabled": 0, "rental_uris": {"android": "https://dc.lft.to/lastmile_qr_scan", "ios": "https://dc.lft.to/lastmile_qr_scan"}, "fusion_lon": 0.0, "lat": 38.903924333333336, "bike_id": "564661d535fe96161f31b9ee35b54660", "type": "electric_scooter", "is_reserved": 0, "lon": -77.03829383333333}, {"fusion_lat": 0.0, "name": "4a37e27000cc3bd01e19cce3b58c3724", "is_disabled": 0, "rental_uris": {"android": "https://dc.lft.to/lastmile_qr_scan", "ios": "https://dc.lft.to/lastmile_qr_scan"}, "fusion_lon": 0.0, "lat": 38.86683433333334, "bike_id": "4a37e27000cc3bd01e19cce3b58c3724", "type": "electric_scooter", "is_reserved": 0, "lon": -76.98561233333334}, {"fusion_lat": 0.0, "name": "0dd8fe1c1c7be64bafc7b0e63db6c6da", "is_disabled": 0, "rental_uris": {"android": "https://dc.lft.to/lastmile_qr_scan", "ios": "https://dc.lft.to/lastmile_qr_scan"}, "fusion_lon": 0.0, "lat": 38.91046633333333, "bike_id": "0dd8fe1c1c7be64bafc7b0e63db6c6da", "type": "electric_scooter", "is_reserved": 0, "lon": -77.03437566666666}, {"fusion_lat": 0.0, "name": "ac6b11ba64662a0a3e090295b3552f4f", "is_disabled": 0, "rental_uris": {"android": "https://dc.lft.to/lastmile_qr_scan", "ios": "https://dc.lft.to/lastmile_qr_scan"}, "fusion_lon": 0.0, "lat": 38.91723, "bike_id": "ac6b11ba64662a0a3e090295b3552f4f", "type": "electric_scooter", "is_reserved": 0, "lon": -77.068439}, {"fusion_lat": 0.0, "name": "ef386ccbd10c735f29662ce4c1838b7c", "is_disabled": 0, "rental_uris": {"android": "https://dc.lft.to/lastmile_qr_scan", "ios": "https://dc.lft.to/lastmile_qr_scan"}, "fusion_lon": 0.0, "lat": 38.8796995, "bike_id": "ef386ccbd10c735f29662ce4c1838b7c", "type": "electric_bike", "is_reserved": 0, "lon": -76.9160115}, {"fusion_lat": 0.0, "name": "21d03dc593bb2bdbb80dfa097b83b81b", "is_disabled": 0, "rental_uris": {"android": "https://dc.lft.to/lastmile_qr_scan", "ios": "https://dc.lft.to/lastmile_qr_scan"}, "fusion_lon": 0.0, "lat": 38.91318616666667, "bike_id": "21d03dc593bb2bdbb80dfa097b83b81b", "type": "electric_scooter", "is_reserved": 0, "lon": -77.02127716666666}, {"fusion_lat": 0.0, "name": "7d76802421e8633b048800d9e4d083f9", "is_disabled": 0, "rental_uris": {"android": "https://dc.lft.to/lastmile_qr_scan", "ios": "https://dc.lft.to/lastmile_qr_scan"}, "fusion_lon": 0.0, "lat": 38.900113166666664, "bike_id": "7d76802421e8633b048800d9e4d083f9", "type": "electric_scooter", "is_reserved": 0, "lon": -76.98809783333333}, {"fusion_lat": 0.0, "name": "478004f8ffbe7c9c3efbaee068a11248", "is_disabled": 0, "rental_uris": {"android": "https://dc.lft.to/lastmile_qr_scan", "ios": "https://dc.lft.to/lastmile_qr_scan"}, "fusion_lon": 0.0, "lat": 38.91559, "bike_id": "478004f8ffbe7c9c3efbaee068a11248", "type": "electric_scooter", "is_reserved": 0, "lon": -77.032206}, {"fusion_lat": 0.0, "name": "0d72e26f444530731308a27cd00efeef", "is_disabled": 0, "rental_uris": {"android": "https://dc.lft.to/lastmile_qr_scan", "ios": "https://dc.lft.to/lastmile_qr_scan"}, "fusion_lon": 0.0, "lat": 38.92821816666667, "bike_id": "0d72e26f444530731308a27cd00efeef", "type": "electric_scooter", "is_reserved": 0, "lon": -77.054522}, {"fusion_lat": 0.0, "name": "57b0a2a0c49a04b9b01da1c36276b8a8", "is_disabled": 0, "rental_uris": {"android": "https://dc.lft.to/lastmile_qr_scan", "ios": "https://dc.lft.to/lastmile_qr_scan"}, "fusion_lon": 0.0, "lat": 38.924196, "bike_id": "57b0a2a0c49a04b9b01da1c36276b8a8", "type": "electric_scooter", "is_reserved": 0, "lon": -77.01961966666667}, {"fusion_lat": 0.0, "name": "2322e870ae21f2791c15143ffa4cabaa", "is_disabled": 0, "rental_uris": {"android": "https://dc.lft.to/lastmile_qr_scan", "ios": "https://dc.lft.to/lastmile_qr_scan"}, "fusion_lon": 0.0, "lat": 38.920624, "bike_id": "2322e870ae21f2791c15143ffa4cabaa", "type": "electric_scooter", "is_reserved": 0, "lon": -77.02417583333333}, {"fusion_lat": 0.0, "name": "4d2f9ce07050b38cb7e8106943c33965", "is_disabled": 0, "rental_uris": {"android": "https://dc.lft.to/lastmile_qr_scan", "ios": "https://dc.lft.to/lastmile_qr_scan"}, "fusion_lon": 0.0, "lat": 38.89820916666667, "bike_id": "4d2f9ce07050b38cb7e8106943c33965", "type": "electric_scooter", "is_reserved": 0, "lon": -77.03163516666666}, {"fusion_lat": 0.0, "name": "a00e2a40c3b3fce7972f9c86479ca136", "is_disabled": 0, "rental_uris": {"android": "https://dc.lft.to/lastmile_qr_scan", "ios": "https://dc.lft.to/lastmile_qr_scan"}, "fusion_lon": 0.0, "lat": 38.88328116666667, "bike_id": "a00e2a40c3b3fce7972f9c86479ca136", "type": "electric_scooter", "is_reserved": 0, "lon": -77.017729}, {"fusion_lat": 0.0, "name": "6b6fc21f6f846f98f5dc36528c01aa47", "is_disabled": 0, "rental_uris": {"android": "https://dc.lft.to/lastmile_qr_scan", "ios": "https://dc.lft.to/lastmile_qr_scan"}, "fusion_lon": 0.0, "lat": 38.900272, "bike_id": "6b6fc21f6f846f98f5dc36528c01aa47", "type": "electric_scooter", "is_reserved": 0, "lon": -76.99861133333333}, {"fusion_lat": 0.0, "name": "d2f73c2b27ac00cf9af11ab5c27be3e2", "is_disabled": 0, "rental_uris": {"android": "https://dc.lft.to/lastmile_qr_scan", "ios": "https://dc.lft.to/lastmile_qr_scan"}, "fusion_lon": 0.0, "lat": 38.915688833333334, "bike_id": "d2f73c2b27ac00cf9af11ab5c27be3e2", "type": "electric_scooter", "is_reserved": 0, "lon": -77.03149583333334}, {"fusion_lat": 0.0, "name": "cca57b4b834df45976720857089258c8", "is_disabled": 0, "rental_uris": {"android": "https://dc.lft.to/lastmile_qr_scan", "ios": "https://dc.lft.to/lastmile_qr_scan"}, "fusion_lon": 0.0, "lat": 38.90573233333333, "bike_id": "cca57b4b834df45976720857089258c8", "type": "electric_scooter", "is_reserved": 0, "lon": -77.02203833333333}, {"fusion_lat": 0.0, "name": "67345a086cd29840c3eefaaf86971f49", "is_disabled": 0, "rental_uris": {"android": "https://dc.lft.to/lastmile_qr_scan", "ios": "https://dc.lft.to/lastmile_qr_scan"}, "fusion_lon": 0.0, "lat": 38.872884666666664, "bike_id": "67345a086cd29840c3eefaaf86971f49", "type": "electric_scooter", "is_reserved": 0, "lon": -77.00985583333333}, {"fusion_lat": 0.0, "name": "fafa9600042399ad6ade9a1293729702", "is_disabled": 0, "rental_uris": {"android": "https://dc.lft.to/lastmile_qr_scan", "ios": "https://dc.lft.to/lastmile_qr_scan"}, "fusion_lon": 0.0, "lat": 38.8849465, "bike_id": "fafa9600042399ad6ade9a1293729702", "type": "electric_scooter", "is_reserved": 0, "lon": -77.02079133333334}, {"fusion_lat": 0.0, "name": "d43156e938c1c056bfa5564ba7103dfb", "is_disabled": 0, "rental_uris": {"android": "https://dc.lft.to/lastmile_qr_scan", "ios": "https://dc.lft.to/lastmile_qr_scan"}, "fusion_lon": 0.0, "lat": 38.927171666666666, "bike_id": "d43156e938c1c056bfa5564ba7103dfb", "type": "electric_scooter", "is_reserved": 0, "lon": -77.02073733333333}, {"fusion_lat": 0.0, "name": "c2177d82fd1eeed5f03bb3f0d7c52b94", "is_disabled": 0, "rental_uris": {"android": "https://dc.lft.to/lastmile_qr_scan", "ios": "https://dc.lft.to/lastmile_qr_scan"}, "fusion_lon": 0.0, "lat": 38.90242166666667, "bike_id": "c2177d82fd1eeed5f03bb3f0d7c52b94", "type": "electric_scooter", "is_reserved": 0, "lon": -77.0294495}, {"fusion_lat": 0.0, "name": "4b522e7160de54d4fc91bbe58b4a750e", "is_disabled": 0, "rental_uris": {"android": "https://dc.lft.to/lastmile_qr_scan", "ios": "https://dc.lft.to/lastmile_qr_scan"}, "fusion_lon": 0.0, "lat": 38.939422666666665, "bike_id": "4b522e7160de54d4fc91bbe58b4a750e", "type": "electric_scooter", "is_reserved": 0, "lon": -77.03331483333334}, {"fusion_lat": 0.0, "name": "1e95f95478e22001d58cde8ffd326a95", "is_disabled": 0, "rental_uris": {"android": "https://dc.lft.to/lastmile_qr_scan", "ios": "https://dc.lft.to/lastmile_qr_scan"}, "fusion_lon": 0.0, "lat": 38.90392416666667, "bike_id": "1e95f95478e22001d58cde8ffd326a95", "type": "electric_scooter", "is_reserved": 0, "lon": -76.99004966666666}, {"fusion_lat": 0.0, "name": "b9b4dca1a11cea78f483661b867b3a20", "is_disabled": 0, "rental_uris": {"android": "https://dc.lft.to/lastmile_qr_scan", "ios": "https://dc.lft.to/lastmile_qr_scan"}, "fusion_lon": 0.0, "lat": 38.909312666666665, "bike_id": "b9b4dca1a11cea78f483661b867b3a20", "type": "electric_scooter", "is_reserved": 0, "lon": -77.02127716666666}, {"fusion_lat": 0.0, "name": "12e53ce46bf6f5fe91e0eb6f69a00aef", "is_disabled": 0, "rental_uris": {"android": "https://dc.lft.to/lastmile_qr_scan", "ios": "https://dc.lft.to/lastmile_qr_scan"}, "fusion_lon": 0.0, "lat": 38.889882666666665, "bike_id": "12e53ce46bf6f5fe91e0eb6f69a00aef", "type": "electric_scooter", "is_reserved": 0, "lon": -76.9873635}, {"fusion_lat": 0.0, "name": "a75d5017ce83822fc8410a2426a22104", "is_disabled": 0, "rental_uris": {"android": "https://dc.lft.to/lastmile_qr_scan", "ios": "https://dc.lft.to/lastmile_qr_scan"}, "fusion_lon": 0.0, "lat": 38.93219666666667, "bike_id": "a75d5017ce83822fc8410a2426a22104", "type": "electric_scooter", "is_reserved": 0, "lon": -77.03341916666666}, {"fusion_lat": 0.0, "name": "56cdc9d9088bd093c1ee8e53089bff65", "is_disabled": 0, "rental_uris": {"android": "https://dc.lft.to/lastmile_qr_scan", "ios": "https://dc.lft.to/lastmile_qr_scan"}, "fusion_lon": 0.0, "lat": 38.8624285, "bike_id": "56cdc9d9088bd093c1ee8e53089bff65", "type": "electric_scooter", "is_reserved": 0, "lon": -76.99495983333334}, {"fusion_lat": 0.0, "name": "402cf3722a063e31112c28c396584273", "is_disabled": 0, "rental_uris": {"android": "https://dc.lft.to/lastmile_qr_scan", "ios": "https://dc.lft.to/lastmile_qr_scan"}, "fusion_lon": 0.0, "lat": 38.90026533333333, "bike_id": "402cf3722a063e31112c28c396584273", "type": "electric_scooter", "is_reserved": 0, "lon": -76.99864533333333}, {"fusion_lat": 0.0, "name": "3b14f03d66a6d2d304738fd3a64a5693", "is_disabled": 0, "rental_uris": {"android": "https://dc.lft.to/lastmile_qr_scan", "ios": "https://dc.lft.to/lastmile_qr_scan"}, "fusion_lon": 0.0, "lat": 38.916706833333336, "bike_id": "3b14f03d66a6d2d304738fd3a64a5693", "type": "electric_scooter", "is_reserved": 0, "lon": -77.03850183333333}, {"fusion_lat": 0.0, "name": "bb9fe765df994328c8d08681f8e89dd6", "is_disabled": 0, "rental_uris": {"android": "https://dc.lft.to/lastmile_qr_scan", "ios": "https://dc.lft.to/lastmile_qr_scan"}, "fusion_lon": 0.0, "lat": 38.88664933333333, "bike_id": "bb9fe765df994328c8d08681f8e89dd6", "type": "electric_scooter", "is_reserved": 0, "lon": -77.00110733333334}, {"fusion_lat": 0.0, "name": "e65043ba1e30ce7828fed4e88c02d5c4", "is_disabled": 0, "rental_uris": {"android": "https://dc.lft.to/lastmile_qr_scan", "ios": "https://dc.lft.to/lastmile_qr_scan"}, "fusion_lon": 0.0, "lat": 38.909708, "bike_id": "e65043ba1e30ce7828fed4e88c02d5c4", "type": "electric_scooter", "is_reserved": 0, "lon": -77.03399716666667}, {"fusion_lat": 0.0, "name": "4586d7d30dab4994ec44b182bc68f546", "is_disabled": 0, "rental_uris": {"android": "https://dc.lft.to/lastmile_qr_scan", "ios": "https://dc.lft.to/lastmile_qr_scan"}, "fusion_lon": 0.0, "lat": 38.91457666666667, "bike_id": "4586d7d30dab4994ec44b182bc68f546", "type": "electric_scooter", "is_reserved": 0, "lon": -77.00207966666666}, {"fusion_lat": 0.0, "name": "83638a869b80a0f060fa2441937eb9cd", "is_disabled": 0, "rental_uris": {"android": "https://dc.lft.to/lastmile_qr_scan", "ios": "https://dc.lft.to/lastmile_qr_scan"}, "fusion_lon": 0.0, "lat": 38.853488666666664, "bike_id": "83638a869b80a0f060fa2441937eb9cd", "type": "electric_bike", "is_reserved": 0, "lon": -77.134658}, {"fusion_lat": 0.0, "name": "b1219601a61cf6f203b4d23482e53060", "is_disabled": 0, "rental_uris": {"android": "https://dc.lft.to/lastmile_qr_scan", "ios": "https://dc.lft.to/lastmile_qr_scan"}, "fusion_lon": 0.0, "lat": 38.8963545, "bike_id": "b1219601a61cf6f203b4d23482e53060", "type": "electric_scooter", "is_reserved": 0, "lon": -77.03221016666667}, {"fusion_lat": 0.0, "name": "06ce0e0e51f6ae5fab31498e49adaecf", "is_disabled": 0, "rental_uris": {"android": "https://dc.lft.to/lastmile_qr_scan", "ios": "https://dc.lft.to/lastmile_qr_scan"}, "fusion_lon": 0.0, "lat": 38.8973665, "bike_id": "06ce0e0e51f6ae5fab31498e49adaecf", "type": "electric_scooter", "is_reserved": 0, "lon": -77.00430616666667}, {"fusion_lat": 0.0, "name": "591ba33783ce85fc77470e439eceb6a2", "is_disabled": 0, "rental_uris": {"android": "https://dc.lft.to/lastmile_qr_scan", "ios": "https://dc.lft.to/lastmile_qr_scan"}, "fusion_lon": 0.0, "lat": 38.86426633333333, "bike_id": "591ba33783ce85fc77470e439eceb6a2", "type": "electric_scooter", "is_reserved": 0, "lon": -76.974202}, {"fusion_lat": 0.0, "name": "01a75b18c36a2c884b92c573051b5103", "is_disabled": 0, "rental_uris": {"android": "https://dc.lft.to/lastmile_qr_scan", "ios": "https://dc.lft.to/lastmile_qr_scan"}, "fusion_lon": 0.0, "lat": 38.897900166666666, "bike_id": "01a75b18c36a2c884b92c573051b5103", "type": "electric_scooter", "is_reserved": 0, "lon": -76.93113116666666}, {"fusion_lat": 0.0, "name": "3f81c1abbaffba5eb102bbb1f23b29e7", "is_disabled": 0, "rental_uris": {"android": "https://dc.lft.to/lastmile_qr_scan", "ios": "https://dc.lft.to/lastmile_qr_scan"}, "fusion_lon": 0.0, "lat": 38.918180166666666, "bike_id": "3f81c1abbaffba5eb102bbb1f23b29e7", "type": "electric_scooter", "is_reserved": 0, "lon": -77.025311}, {"fusion_lat": 0.0, "name": "dddb59ad7cdcb7d11ce04689aade043f", "is_disabled": 0, "rental_uris": {"android": "https://dc.lft.to/lastmile_qr_scan", "ios": "https://dc.lft.to/lastmile_qr_scan"}, "fusion_lon": 0.0, "lat": 38.905703833333334, "bike_id": "dddb59ad7cdcb7d11ce04689aade043f", "type": "electric_scooter", "is_reserved": 0, "lon": -77.02410016666667}, {"fusion_lat": 0.0, "name": "941ff981f52645d42d758a4c6d8eecbf", "is_disabled": 0, "rental_uris": {"android": "https://dc.lft.to/lastmile_qr_scan", "ios": "https://dc.lft.to/lastmile_qr_scan"}, "fusion_lon": 0.0, "lat": 38.92465466666667, "bike_id": "941ff981f52645d42d758a4c6d8eecbf", "type": "electric_scooter", "is_reserved": 0, "lon": -77.08022383333333}, {"fusion_lat": 0.0, "name": "cd7e6c9be3e246deb8c0afb41f6ec14b", "is_disabled": 0, "rental_uris": {"android": "https://dc.lft.to/lastmile_qr_scan", "ios": "https://dc.lft.to/lastmile_qr_scan"}, "fusion_lon": 0.0, "lat": 38.892610166666664, "bike_id": "cd7e6c9be3e246deb8c0afb41f6ec14b", "type": "electric_bike", "is_reserved": 0, "lon": -76.95116733333333}, {"fusion_lat": 0.0, "name": "4f3f2d64cf1f7dc37743c29155f292da", "is_disabled": 0, "rental_uris": {"android": "https://dc.lft.to/lastmile_qr_scan", "ios": "https://dc.lft.to/lastmile_qr_scan"}, "fusion_lon": 0.0, "lat": 38.913212333333334, "bike_id": "4f3f2d64cf1f7dc37743c29155f292da", "type": "electric_scooter", "is_reserved": 0, "lon": -77.03169316666667}, {"fusion_lat": 0.0, "name": "30e39823bbd0f7b7918afe794e08ff73", "is_disabled": 0, "rental_uris": {"android": "https://dc.lft.to/lastmile_qr_scan", "ios": "https://dc.lft.to/lastmile_qr_scan"}, "fusion_lon": 0.0, "lat": 38.896079666666665, "bike_id": "30e39823bbd0f7b7918afe794e08ff73", "type": "electric_scooter", "is_reserved": 0, "lon": -77.02661833333333}, {"fusion_lat": 0.0, "name": "dac8d8b53b5814b4a72270ce733ff213", "is_disabled": 0, "rental_uris": {"android": "https://dc.lft.to/lastmile_qr_scan", "ios": "https://dc.lft.to/lastmile_qr_scan"}, "fusion_lon": 0.0, "lat": 38.91917766666667, "bike_id": "dac8d8b53b5814b4a72270ce733ff213", "type": "electric_scooter", "is_reserved": 0, "lon": -77.02611033333334}, {"fusion_lat": 0.0, "name": "89ffdd9aaffbd8af152b9cca52613080", "is_disabled": 0, "rental_uris": {"android": "https://dc.lft.to/lastmile_qr_scan", "ios": "https://dc.lft.to/lastmile_qr_scan"}, "fusion_lon": 0.0, "lat": 38.967299833333335, "bike_id": "89ffdd9aaffbd8af152b9cca52613080", "type": "electric_scooter", "is_reserved": 0, "lon": -77.00918766666666}, {"fusion_lat": 0.0, "name": "70fc3dd12329c6dd9dc7d2c1af93f5ca", "is_disabled": 0, "rental_uris": {"android": "https://dc.lft.to/lastmile_qr_scan", "ios": "https://dc.lft.to/lastmile_qr_scan"}, "fusion_lon": 0.0, "lat": 38.9524355, "bike_id": "70fc3dd12329c6dd9dc7d2c1af93f5ca", "type": "electric_scooter", "is_reserved": 0, "lon": -77.02377516666667}, {"fusion_lat": 0.0, "name": "87db5affc71c93ee79c49325f69c6da8", "is_disabled": 0, "rental_uris": {"android": "https://dc.lft.to/lastmile_qr_scan", "ios": "https://dc.lft.to/lastmile_qr_scan"}, "fusion_lon": 0.0, "lat": 38.883138833333334, "bike_id": "87db5affc71c93ee79c49325f69c6da8", "type": "electric_scooter", "is_reserved": 0, "lon": -77.017341}, {"fusion_lat": 0.0, "name": "4e102f61207a75c91bd4ec50c37d007e", "is_disabled": 0, "rental_uris": {"android": "https://dc.lft.to/lastmile_qr_scan", "ios": "https://dc.lft.to/lastmile_qr_scan"}, "fusion_lon": 0.0, "lat": 38.8754205, "bike_id": "4e102f61207a75c91bd4ec50c37d007e", "type": "electric_scooter", "is_reserved": 0, "lon": -77.00530716666667}, {"fusion_lat": 0.0, "name": "241bac7d89e8827a3e9904ba87b9590f", "is_disabled": 0, "rental_uris": {"android": "https://dc.lft.to/lastmile_qr_scan", "ios": "https://dc.lft.to/lastmile_qr_scan"}, "fusion_lon": 0.0, "lat": 38.89879333333333, "bike_id": "241bac7d89e8827a3e9904ba87b9590f", "type": "electric_scooter", "is_reserved": 0, "lon": -77.04653383333333}, {"fusion_lat": 0.0, "name": "e17eb8861abcc8849e2562c3216e90ab", "is_disabled": 0, "rental_uris": {"android": "https://dc.lft.to/lastmile_qr_scan", "ios": "https://dc.lft.to/lastmile_qr_scan"}, "fusion_lon": 0.0, "lat": 38.89351833333333, "bike_id": "e17eb8861abcc8849e2562c3216e90ab", "type": "electric_scooter", "is_reserved": 0, "lon": -77.00061333333333}, {"fusion_lat": 0.0, "name": "cc598f49103ec9046f71cc6cb00c1792", "is_disabled": 0, "rental_uris": {"android": "https://dc.lft.to/lastmile_qr_scan", "ios": "https://dc.lft.to/lastmile_qr_scan"}, "fusion_lon": 0.0, "lat": 38.903691, "bike_id": "cc598f49103ec9046f71cc6cb00c1792", "type": "electric_scooter", "is_reserved": 0, "lon": -77.067236}, {"fusion_lat": 0.0, "name": "8730e057e0dcb97d34133b557d4e7274", "is_disabled": 0, "rental_uris": {"android": "https://dc.lft.to/lastmile_qr_scan", "ios": "https://dc.lft.to/lastmile_qr_scan"}, "fusion_lon": 0.0, "lat": 38.92245583333333, "bike_id": "8730e057e0dcb97d34133b557d4e7274", "type": "electric_scooter", "is_reserved": 0, "lon": -77.080783}, {"fusion_lat": 0.0, "name": "f5c6891ad3a5be0eaf5a8308accd92cc", "is_disabled": 0, "rental_uris": {"android": "https://dc.lft.to/lastmile_qr_scan", "ios": "https://dc.lft.to/lastmile_qr_scan"}, "fusion_lon": 0.0, "lat": 38.896811166666666, "bike_id": "f5c6891ad3a5be0eaf5a8308accd92cc", "type": "electric_scooter", "is_reserved": 0, "lon": -77.005142}, {"fusion_lat": 0.0, "name": "c17ff1bf71fe0776f0b0d3b72b2ddc27", "is_disabled": 0, "rental_uris": {"android": "https://dc.lft.to/lastmile_qr_scan", "ios": "https://dc.lft.to/lastmile_qr_scan"}, "fusion_lon": 0.0, "lat": 38.915517666666666, "bike_id": "c17ff1bf71fe0776f0b0d3b72b2ddc27", "type": "electric_scooter", "is_reserved": 0, "lon": -77.04112933333333}, {"fusion_lat": 0.0, "name": "37aa0e208a1aad6e1b27c556a7d2ec9d", "is_disabled": 0, "rental_uris": {"android": "https://dc.lft.to/lastmile_qr_scan", "ios": "https://dc.lft.to/lastmile_qr_scan"}, "fusion_lon": 0.0, "lat": 38.89649133333333, "bike_id": "37aa0e208a1aad6e1b27c556a7d2ec9d", "type": "electric_scooter", "is_reserved": 0, "lon": -77.0500485}, {"fusion_lat": 0.0, "name": "8e85ffa52a0257ed1728019d6c9df8fb", "is_disabled": 0, "rental_uris": {"android": "https://dc.lft.to/lastmile_qr_scan", "ios": "https://dc.lft.to/lastmile_qr_scan"}, "fusion_lon": 0.0, "lat": 38.909196, "bike_id": "8e85ffa52a0257ed1728019d6c9df8fb", "type": "electric_scooter", "is_reserved": 0, "lon": -77.04476133333333}, {"fusion_lat": 0.0, "name": "3ac585b6fd1f0e6324ef7e59f83ccc43", "is_disabled": 0, "rental_uris": {"android": "https://dc.lft.to/lastmile_qr_scan", "ios": "https://dc.lft.to/lastmile_qr_scan"}, "fusion_lon": 0.0, "lat": 38.958917, "bike_id": "3ac585b6fd1f0e6324ef7e59f83ccc43", "type": "electric_scooter", "is_reserved": 0, "lon": -77.027627}, {"fusion_lat": 0.0, "name": "e7771ef854cdb94711580d35f373d092", "is_disabled": 0, "rental_uris": {"android": "https://dc.lft.to/lastmile_qr_scan", "ios": "https://dc.lft.to/lastmile_qr_scan"}, "fusion_lon": 0.0, "lat": 38.81338733333333, "bike_id": "e7771ef854cdb94711580d35f373d092", "type": "electric_bike", "is_reserved": 0, "lon": -77.050837}, {"fusion_lat": 0.0, "name": "0db02ee936e2664ebe65798a4c245ca1", "is_disabled": 0, "rental_uris": {"android": "https://dc.lft.to/lastmile_qr_scan", "ios": "https://dc.lft.to/lastmile_qr_scan"}, "fusion_lon": 0.0, "lat": 38.9053515, "bike_id": "0db02ee936e2664ebe65798a4c245ca1", "type": "electric_scooter", "is_reserved": 0, "lon": -77.03452683333333}, {"fusion_lat": 0.0, "name": "6b30bf7d8d29aa071c26c355246ee413", "is_disabled": 0, "rental_uris": {"android": "https://dc.lft.to/lastmile_qr_scan", "ios": "https://dc.lft.to/lastmile_qr_scan"}, "fusion_lon": 0.0, "lat": 38.88386033333333, "bike_id": "6b30bf7d8d29aa071c26c355246ee413", "type": "electric_scooter", "is_reserved": 0, "lon": -76.93056083333333}, {"fusion_lat": 0.0, "name": "901e1e485095fe019113b6b76e4e7831", "is_disabled": 0, "rental_uris": {"android": "https://dc.lft.to/lastmile_qr_scan", "ios": "https://dc.lft.to/lastmile_qr_scan"}, "fusion_lon": 0.0, "lat": 38.873323166666665, "bike_id": "901e1e485095fe019113b6b76e4e7831", "type": "electric_bike", "is_reserved": 0, "lon": -77.0821375}, {"fusion_lat": 0.0, "name": "f93400e81ad46c76d411f3fc238a833c", "is_disabled": 0, "rental_uris": {"android": "https://dc.lft.to/lastmile_qr_scan", "ios": "https://dc.lft.to/lastmile_qr_scan"}, "fusion_lon": 0.0, "lat": 38.906597166666664, "bike_id": "f93400e81ad46c76d411f3fc238a833c", "type": "electric_scooter", "is_reserved": 0, "lon": -77.03436116666667}, {"fusion_lat": 0.0, "name": "a5e7a8df0e6891d70c0b5ad3b2edc31f", "is_disabled": 0, "rental_uris": {"android": "https://dc.lft.to/lastmile_qr_scan", "ios": "https://dc.lft.to/lastmile_qr_scan"}, "fusion_lon": 0.0, "lat": 38.89222483333333, "bike_id": "a5e7a8df0e6891d70c0b5ad3b2edc31f", "type": "electric_scooter", "is_reserved": 0, "lon": -77.02665966666666}, {"fusion_lat": 0.0, "name": "e95901a49da01486d7a54d696df04555", "is_disabled": 0, "rental_uris": {"android": "https://dc.lft.to/lastmile_qr_scan", "ios": "https://dc.lft.to/lastmile_qr_scan"}, "fusion_lon": 0.0, "lat": 38.9319475, "bike_id": "e95901a49da01486d7a54d696df04555", "type": "electric_scooter", "is_reserved": 0, "lon": -77.0374965}, {"fusion_lat": 0.0, "name": "80f1261c1faaf907dd12a05e9982b571", "is_disabled": 0, "rental_uris": {"android": "https://dc.lft.to/lastmile_qr_scan", "ios": "https://dc.lft.to/lastmile_qr_scan"}, "fusion_lon": 0.0, "lat": 38.9136275, "bike_id": "80f1261c1faaf907dd12a05e9982b571", "type": "electric_scooter", "is_reserved": 0, "lon": -77.01987833333334}, {"fusion_lat": 0.0, "name": "e39da04c46e1a1bd3b567adcb99c6ad5", "is_disabled": 0, "rental_uris": {"android": "https://dc.lft.to/lastmile_qr_scan", "ios": "https://dc.lft.to/lastmile_qr_scan"}, "fusion_lon": 0.0, "lat": 38.8472905, "bike_id": "e39da04c46e1a1bd3b567adcb99c6ad5", "type": "electric_scooter", "is_reserved": 0, "lon": -76.98250216666666}, {"fusion_lat": 0.0, "name": "dabf98f9ea6d076762f11a745e5a5ecd", "is_disabled": 0, "rental_uris": {"android": "https://dc.lft.to/lastmile_qr_scan", "ios": "https://dc.lft.to/lastmile_qr_scan"}, "fusion_lon": 0.0, "lat": 38.91960066666667, "bike_id": "dabf98f9ea6d076762f11a745e5a5ecd", "type": "electric_scooter", "is_reserved": 0, "lon": -77.07091416666667}, {"fusion_lat": 0.0, "name": "971a4df8381bed1f95b233d66a9eb839", "is_disabled": 0, "rental_uris": {"android": "https://dc.lft.to/lastmile_qr_scan", "ios": "https://dc.lft.to/lastmile_qr_scan"}, "fusion_lon": 0.0, "lat": 38.904839333333335, "bike_id": "971a4df8381bed1f95b233d66a9eb839", "type": "electric_scooter", "is_reserved": 0, "lon": -77.04353416666666}, {"fusion_lat": 0.0, "name": "4ff67d0100cae5213088823573ea1562", "is_disabled": 0, "rental_uris": {"android": "https://dc.lft.to/lastmile_qr_scan", "ios": "https://dc.lft.to/lastmile_qr_scan"}, "fusion_lon": 0.0, "lat": 38.800218, "bike_id": "4ff67d0100cae5213088823573ea1562", "type": "electric_bike", "is_reserved": 0, "lon": -77.054782}, {"fusion_lat": 0.0, "name": "75609dfe407276750bb51612f76bf6eb", "is_disabled": 0, "rental_uris": {"android": "https://dc.lft.to/lastmile_qr_scan", "ios": "https://dc.lft.to/lastmile_qr_scan"}, "fusion_lon": 0.0, "lat": 38.9288005, "bike_id": "75609dfe407276750bb51612f76bf6eb", "type": "electric_scooter", "is_reserved": 0, "lon": -77.03731833333333}, {"fusion_lat": 0.0, "name": "36e22d64453c1451fdc66386f012b15e", "is_disabled": 0, "rental_uris": {"android": "https://dc.lft.to/lastmile_qr_scan", "ios": "https://dc.lft.to/lastmile_qr_scan"}, "fusion_lon": 0.0, "lat": 38.903978333333335, "bike_id": "36e22d64453c1451fdc66386f012b15e", "type": "electric_scooter", "is_reserved": 0, "lon": -77.03849933333333}, {"fusion_lat": 0.0, "name": "8ffeb02b161f162265d84c6899a4aa39", "is_disabled": 0, "rental_uris": {"android": "https://dc.lft.to/lastmile_qr_scan", "ios": "https://dc.lft.to/lastmile_qr_scan"}, "fusion_lon": 0.0, "lat": 38.919137166666665, "bike_id": "8ffeb02b161f162265d84c6899a4aa39", "type": "electric_scooter", "is_reserved": 0, "lon": -77.035772}, {"fusion_lat": 0.0, "name": "8b77f2966e44a7a047ac9ee7057b5cdc", "is_disabled": 0, "rental_uris": {"android": "https://dc.lft.to/lastmile_qr_scan", "ios": "https://dc.lft.to/lastmile_qr_scan"}, "fusion_lon": 0.0, "lat": 38.939141166666666, "bike_id": "8b77f2966e44a7a047ac9ee7057b5cdc", "type": "electric_scooter", "is_reserved": 0, "lon": -77.02465816666667}, {"fusion_lat": 0.0, "name": "5b6d15927fb6f1e2dd91f14244844b8e", "is_disabled": 0, "rental_uris": {"android": "https://dc.lft.to/lastmile_qr_scan", "ios": "https://dc.lft.to/lastmile_qr_scan"}, "fusion_lon": 0.0, "lat": 38.93547366666667, "bike_id": "5b6d15927fb6f1e2dd91f14244844b8e", "type": "electric_scooter", "is_reserved": 0, "lon": -77.03249316666667}, {"fusion_lat": 0.0, "name": "76e25decac2eeeb439f55d31b0499068", "is_disabled": 0, "rental_uris": {"android": "https://dc.lft.to/lastmile_qr_scan", "ios": "https://dc.lft.to/lastmile_qr_scan"}, "fusion_lon": 0.0, "lat": 38.845072, "bike_id": "76e25decac2eeeb439f55d31b0499068", "type": "electric_bike", "is_reserved": 0, "lon": -76.99352466666667}, {"fusion_lat": 0.0, "name": "2b7ce71ad075470fa126cffc46bd444a", "is_disabled": 0, "rental_uris": {"android": "https://dc.lft.to/lastmile_qr_scan", "ios": "https://dc.lft.to/lastmile_qr_scan"}, "fusion_lon": 0.0, "lat": 38.91290866666667, "bike_id": "2b7ce71ad075470fa126cffc46bd444a", "type": "electric_scooter", "is_reserved": 0, "lon": -77.04745283333334}, {"fusion_lat": 0.0, "name": "4bcdd64bb593e5993bfd899b5a778314", "is_disabled": 0, "rental_uris": {"android": "https://dc.lft.to/lastmile_qr_scan", "ios": "https://dc.lft.to/lastmile_qr_scan"}, "fusion_lon": 0.0, "lat": 38.89613633333333, "bike_id": "4bcdd64bb593e5993bfd899b5a778314", "type": "electric_scooter", "is_reserved": 0, "lon": -77.04482083333333}, {"fusion_lat": 0.0, "name": "89551ae942e0f5b1c4f2aab8f37c8989", "is_disabled": 0, "rental_uris": {"android": "https://dc.lft.to/lastmile_qr_scan", "ios": "https://dc.lft.to/lastmile_qr_scan"}, "fusion_lon": 0.0, "lat": 38.95794466666667, "bike_id": "89551ae942e0f5b1c4f2aab8f37c8989", "type": "electric_bike", "is_reserved": 0, "lon": -76.99965516666667}, {"fusion_lat": 0.0, "name": "f19bd835f32a5684f3dc247db004aa75", "is_disabled": 0, "rental_uris": {"android": "https://dc.lft.to/lastmile_qr_scan", "ios": "https://dc.lft.to/lastmile_qr_scan"}, "fusion_lon": 0.0, "lat": 38.917669333333336, "bike_id": "f19bd835f32a5684f3dc247db004aa75", "type": "electric_scooter", "is_reserved": 0, "lon": -77.023073}, {"fusion_lat": 0.0, "name": "5e5776daa0dd3af99f7b7949e98e9fb1", "is_disabled": 0, "rental_uris": {"android": "https://dc.lft.to/lastmile_qr_scan", "ios": "https://dc.lft.to/lastmile_qr_scan"}, "fusion_lon": 0.0, "lat": 38.96953466666667, "bike_id": "5e5776daa0dd3af99f7b7949e98e9fb1", "type": "electric_bike", "is_reserved": 0, "lon": -77.0334765}, {"fusion_lat": 0.0, "name": "f2d4b9c52c22edeae8b7dfabc5744228", "is_disabled": 0, "rental_uris": {"android": "https://dc.lft.to/lastmile_qr_scan", "ios": "https://dc.lft.to/lastmile_qr_scan"}, "fusion_lon": 0.0, "lat": 38.857790333333334, "bike_id": "f2d4b9c52c22edeae8b7dfabc5744228", "type": "electric_scooter", "is_reserved": 0, "lon": -76.97297783333333}, {"fusion_lat": 0.0, "name": "9af02cf51b73739e21a377dfde0b65a2", "is_disabled": 0, "rental_uris": {"android": "https://dc.lft.to/lastmile_qr_scan", "ios": "https://dc.lft.to/lastmile_qr_scan"}, "fusion_lon": 0.0, "lat": 38.90372966666666, "bike_id": "9af02cf51b73739e21a377dfde0b65a2", "type": "electric_scooter", "is_reserved": 0, "lon": -77.06119383333333}, {"fusion_lat": 0.0, "name": "a5d88c33b7207e2777948e1a0903a329", "is_disabled": 0, "rental_uris": {"android": "https://dc.lft.to/lastmile_qr_scan", "ios": "https://dc.lft.to/lastmile_qr_scan"}, "fusion_lon": 0.0, "lat": 38.920572, "bike_id": "a5d88c33b7207e2777948e1a0903a329", "type": "electric_scooter", "is_reserved": 0, "lon": -77.02532733333334}, {"fusion_lat": 0.0, "name": "f31ff95cb856e7532a93dd99f4bc8fbc", "is_disabled": 0, "rental_uris": {"android": "https://dc.lft.to/lastmile_qr_scan", "ios": "https://dc.lft.to/lastmile_qr_scan"}, "fusion_lon": 0.0, "lat": 38.900679833333335, "bike_id": "f31ff95cb856e7532a93dd99f4bc8fbc", "type": "electric_scooter", "is_reserved": 0, "lon": -76.933858}, {"fusion_lat": 0.0, "name": "b7d4edbf26717b38f17c5967e57d5b2e", "is_disabled": 0, "rental_uris": {"android": "https://dc.lft.to/lastmile_qr_scan", "ios": "https://dc.lft.to/lastmile_qr_scan"}, "fusion_lon": 0.0, "lat": 38.929733166666665, "bike_id": "b7d4edbf26717b38f17c5967e57d5b2e", "type": "electric_scooter", "is_reserved": 0, "lon": -77.02824816666667}, {"fusion_lat": 0.0, "name": "ec95871f5a88cc0494bc6b365429bae5", "is_disabled": 0, "rental_uris": {"android": "https://dc.lft.to/lastmile_qr_scan", "ios": "https://dc.lft.to/lastmile_qr_scan"}, "fusion_lon": 0.0, "lat": 38.925295166666665, "bike_id": "ec95871f5a88cc0494bc6b365429bae5", "type": "electric_scooter", "is_reserved": 0, "lon": -77.05545133333334}, {"fusion_lat": 0.0, "name": "a6dfaabe12e7cb2ec877267fc8aa0e4d", "is_disabled": 0, "rental_uris": {"android": "https://dc.lft.to/lastmile_qr_scan", "ios": "https://dc.lft.to/lastmile_qr_scan"}, "fusion_lon": 0.0, "lat": 38.899968666666666, "bike_id": "a6dfaabe12e7cb2ec877267fc8aa0e4d", "type": "electric_scooter", "is_reserved": 0, "lon": -77.03935683333333}, {"fusion_lat": 0.0, "name": "c16fbb3c44a62e8e09f4b3f7f05e2d2a", "is_disabled": 0, "rental_uris": {"android": "https://dc.lft.to/lastmile_qr_scan", "ios": "https://dc.lft.to/lastmile_qr_scan"}, "fusion_lon": 0.0, "lat": 38.906930333333335, "bike_id": "c16fbb3c44a62e8e09f4b3f7f05e2d2a", "type": "electric_scooter", "is_reserved": 0, "lon": -77.07472783333333}, {"fusion_lat": 0.0, "name": "d7fc8d6fc57de612d76faf34dc9d8b78", "is_disabled": 0, "rental_uris": {"android": "https://dc.lft.to/lastmile_qr_scan", "ios": "https://dc.lft.to/lastmile_qr_scan"}, "fusion_lon": 0.0, "lat": 38.8935525, "bike_id": "d7fc8d6fc57de612d76faf34dc9d8b78", "type": "electric_scooter", "is_reserved": 0, "lon": -77.02799683333333}, {"fusion_lat": 0.0, "name": "6e8dfd87fc066abcc0b936a334321b20", "is_disabled": 0, "rental_uris": {"android": "https://dc.lft.to/lastmile_qr_scan", "ios": "https://dc.lft.to/lastmile_qr_scan"}, "fusion_lon": 0.0, "lat": 38.91976866666667, "bike_id": "6e8dfd87fc066abcc0b936a334321b20", "type": "electric_scooter", "is_reserved": 0, "lon": -77.02371933333333}, {"fusion_lat": 0.0, "name": "a17ec1b87a778da3ebd9402135ab7999", "is_disabled": 0, "rental_uris": {"android": "https://dc.lft.to/lastmile_qr_scan", "ios": "https://dc.lft.to/lastmile_qr_scan"}, "fusion_lon": 0.0, "lat": 38.907413166666664, "bike_id": "a17ec1b87a778da3ebd9402135ab7999", "type": "electric_scooter", "is_reserved": 0, "lon": -77.02965016666667}, {"fusion_lat": 0.0, "name": "0055f34179b973a24ef30783dd859d74", "is_disabled": 0, "rental_uris": {"android": "https://dc.lft.to/lastmile_qr_scan", "ios": "https://dc.lft.to/lastmile_qr_scan"}, "fusion_lon": 0.0, "lat": 38.931073, "bike_id": "0055f34179b973a24ef30783dd859d74", "type": "electric_scooter", "is_reserved": 0, "lon": -77.023978}, {"fusion_lat": 0.0, "name": "f9ddba744fd8af645449209d89f43a14", "is_disabled": 0, "rental_uris": {"android": "https://dc.lft.to/lastmile_qr_scan", "ios": "https://dc.lft.to/lastmile_qr_scan"}, "fusion_lon": 0.0, "lat": 38.941661333333336, "bike_id": "f9ddba744fd8af645449209d89f43a14", "type": "electric_scooter", "is_reserved": 0, "lon": -77.0251075}, {"fusion_lat": 0.0, "name": "59de299b7db3263500f2a842ef0617e2", "is_disabled": 0, "rental_uris": {"android": "https://dc.lft.to/lastmile_qr_scan", "ios": "https://dc.lft.to/lastmile_qr_scan"}, "fusion_lon": 0.0, "lat": 38.8880805, "bike_id": "59de299b7db3263500f2a842ef0617e2", "type": "electric_scooter", "is_reserved": 0, "lon": -76.98351833333334}, {"fusion_lat": 0.0, "name": "a922c27366058d84211a71621788a698", "is_disabled": 0, "rental_uris": {"android": "https://dc.lft.to/lastmile_qr_scan", "ios": "https://dc.lft.to/lastmile_qr_scan"}, "fusion_lon": 0.0, "lat": 38.86638383333333, "bike_id": "a922c27366058d84211a71621788a698", "type": "electric_scooter", "is_reserved": 0, "lon": -76.983036}, {"fusion_lat": 0.0, "name": "ffd3f8fe9bfaddc078b1f7379077de12", "is_disabled": 0, "rental_uris": {"android": "https://dc.lft.to/lastmile_qr_scan", "ios": "https://dc.lft.to/lastmile_qr_scan"}, "fusion_lon": 0.0, "lat": 38.905576833333335, "bike_id": "ffd3f8fe9bfaddc078b1f7379077de12", "type": "electric_scooter", "is_reserved": 0, "lon": -77.00573083333333}, {"fusion_lat": 0.0, "name": "64883b9fc11d48ef35e30138d23c90a0", "is_disabled": 0, "rental_uris": {"android": "https://dc.lft.to/lastmile_qr_scan", "ios": "https://dc.lft.to/lastmile_qr_scan"}, "fusion_lon": 0.0, "lat": 38.913416833333336, "bike_id": "64883b9fc11d48ef35e30138d23c90a0", "type": "electric_scooter", "is_reserved": 0, "lon": -77.0434715}, {"fusion_lat": 0.0, "name": "478d564bfb0d0e2729caa4d822efee66", "is_disabled": 0, "rental_uris": {"android": "https://dc.lft.to/lastmile_qr_scan", "ios": "https://dc.lft.to/lastmile_qr_scan"}, "fusion_lon": 0.0, "lat": 38.931327833333334, "bike_id": "478d564bfb0d0e2729caa4d822efee66", "type": "electric_scooter", "is_reserved": 0, "lon": -77.02189533333333}, {"fusion_lat": 0.0, "name": "847c78358319f0d1f550def67def8b7e", "is_disabled": 0, "rental_uris": {"android": "https://dc.lft.to/lastmile_qr_scan", "ios": "https://dc.lft.to/lastmile_qr_scan"}, "fusion_lon": 0.0, "lat": 38.925510333333335, "bike_id": "847c78358319f0d1f550def67def8b7e", "type": "electric_scooter", "is_reserved": 0, "lon": -76.98298783333334}, {"fusion_lat": 0.0, "name": "f04478c6380270a0cd2b201a50a4f9ab", "is_disabled": 0, "rental_uris": {"android": "https://dc.lft.to/lastmile_qr_scan", "ios": "https://dc.lft.to/lastmile_qr_scan"}, "fusion_lon": 0.0, "lat": 38.902008, "bike_id": "f04478c6380270a0cd2b201a50a4f9ab", "type": "electric_scooter", "is_reserved": 0, "lon": -77.0160395}, {"fusion_lat": 0.0, "name": "7536deaaeb240015ba3162124e510ba9", "is_disabled": 0, "rental_uris": {"android": "https://dc.lft.to/lastmile_qr_scan", "ios": "https://dc.lft.to/lastmile_qr_scan"}, "fusion_lon": 0.0, "lat": 38.91664316666667, "bike_id": "7536deaaeb240015ba3162124e510ba9", "type": "electric_scooter", "is_reserved": 0, "lon": -77.03844966666666}, {"fusion_lat": 0.0, "name": "230c42c3b43f5558ae345f00ae91e916", "is_disabled": 0, "rental_uris": {"android": "https://dc.lft.to/lastmile_qr_scan", "ios": "https://dc.lft.to/lastmile_qr_scan"}, "fusion_lon": 0.0, "lat": 38.926744666666664, "bike_id": "230c42c3b43f5558ae345f00ae91e916", "type": "electric_scooter", "is_reserved": 0, "lon": -77.03140966666666}, {"fusion_lat": 0.0, "name": "68fd09d785ca93926fae52dd8060af7a", "is_disabled": 0, "rental_uris": {"android": "https://dc.lft.to/lastmile_qr_scan", "ios": "https://dc.lft.to/lastmile_qr_scan"}, "fusion_lon": 0.0, "lat": 38.88556466666667, "bike_id": "68fd09d785ca93926fae52dd8060af7a", "type": "electric_scooter", "is_reserved": 0, "lon": -76.997808}, {"fusion_lat": 0.0, "name": "b4e036d59df4ce2e6f66d33f750084b2", "is_disabled": 0, "rental_uris": {"android": "https://dc.lft.to/lastmile_qr_scan", "ios": "https://dc.lft.to/lastmile_qr_scan"}, "fusion_lon": 0.0, "lat": 38.919821166666665, "bike_id": "b4e036d59df4ce2e6f66d33f750084b2", "type": "electric_scooter", "is_reserved": 0, "lon": -77.023716}, {"fusion_lat": 0.0, "name": "dc81f9e0a9c5c3d29869c8fc85a42505", "is_disabled": 0, "rental_uris": {"android": "https://dc.lft.to/lastmile_qr_scan", "ios": "https://dc.lft.to/lastmile_qr_scan"}, "fusion_lon": 0.0, "lat": 38.909736333333335, "bike_id": "dc81f9e0a9c5c3d29869c8fc85a42505", "type": "electric_scooter", "is_reserved": 0, "lon": -77.03861033333334}, {"fusion_lat": 0.0, "name": "bc6fa57a4783eccc662a585de13a699b", "is_disabled": 0, "rental_uris": {"android": "https://dc.lft.to/lastmile_qr_scan", "ios": "https://dc.lft.to/lastmile_qr_scan"}, "fusion_lon": 0.0, "lat": 38.92433616666667, "bike_id": "bc6fa57a4783eccc662a585de13a699b", "type": "electric_scooter", "is_reserved": 0, "lon": -77.00065516666666}, {"fusion_lat": 0.0, "name": "ecae1c9f713350079ccafb1841da3823", "is_disabled": 0, "rental_uris": {"android": "https://dc.lft.to/lastmile_qr_scan", "ios": "https://dc.lft.to/lastmile_qr_scan"}, "fusion_lon": 0.0, "lat": 38.917656, "bike_id": "ecae1c9f713350079ccafb1841da3823", "type": "electric_scooter", "is_reserved": 0, "lon": -77.02284533333334}, {"fusion_lat": 0.0, "name": "76a9e0994eb0255a4733a131adf718b1", "is_disabled": 0, "rental_uris": {"android": "https://dc.lft.to/lastmile_qr_scan", "ios": "https://dc.lft.to/lastmile_qr_scan"}, "fusion_lon": 0.0, "lat": 38.91816216666667, "bike_id": "76a9e0994eb0255a4733a131adf718b1", "type": "electric_scooter", "is_reserved": 0, "lon": -77.045941}, {"fusion_lat": 0.0, "name": "e93e4ec4de47d24574a2e6aaf9e25f77", "is_disabled": 0, "rental_uris": {"android": "https://dc.lft.to/lastmile_qr_scan", "ios": "https://dc.lft.to/lastmile_qr_scan"}, "fusion_lon": 0.0, "lat": 38.866836166666666, "bike_id": "e93e4ec4de47d24574a2e6aaf9e25f77", "type": "electric_scooter", "is_reserved": 0, "lon": -76.98570466666666}, {"fusion_lat": 0.0, "name": "3bd24b2ee32cea2b612a85919212d2cd", "is_disabled": 0, "rental_uris": {"android": "https://dc.lft.to/lastmile_qr_scan", "ios": "https://dc.lft.to/lastmile_qr_scan"}, "fusion_lon": 0.0, "lat": 38.923463, "bike_id": "3bd24b2ee32cea2b612a85919212d2cd", "type": "electric_scooter", "is_reserved": 0, "lon": -77.051251}, {"fusion_lat": 0.0, "name": "deee38b88020c7c275e7ee38f65d7140", "is_disabled": 0, "rental_uris": {"android": "https://dc.lft.to/lastmile_qr_scan", "ios": "https://dc.lft.to/lastmile_qr_scan"}, "fusion_lon": 0.0, "lat": 38.877151, "bike_id": "deee38b88020c7c275e7ee38f65d7140", "type": "electric_scooter", "is_reserved": 0, "lon": -77.01766033333334}, {"fusion_lat": 0.0, "name": "2f850e5a3719fdf4d6a25e5903cde2d4", "is_disabled": 0, "rental_uris": {"android": "https://dc.lft.to/lastmile_qr_scan", "ios": "https://dc.lft.to/lastmile_qr_scan"}, "fusion_lon": 0.0, "lat": 38.90804166666667, "bike_id": "2f850e5a3719fdf4d6a25e5903cde2d4", "type": "electric_scooter", "is_reserved": 0, "lon": -77.03846116666666}, {"fusion_lat": 0.0, "name": "1ed0ef38ffdc70a88975777d4ec74bb7", "is_disabled": 0, "rental_uris": {"android": "https://dc.lft.to/lastmile_qr_scan", "ios": "https://dc.lft.to/lastmile_qr_scan"}, "fusion_lon": 0.0, "lat": 38.89798916666667, "bike_id": "1ed0ef38ffdc70a88975777d4ec74bb7", "type": "electric_scooter", "is_reserved": 0, "lon": -77.02406483333333}, {"fusion_lat": 0.0, "name": "d27060d7f73afac417a487edc9166e47", "is_disabled": 0, "rental_uris": {"android": "https://dc.lft.to/lastmile_qr_scan", "ios": "https://dc.lft.to/lastmile_qr_scan"}, "fusion_lon": 0.0, "lat": 38.931925666666665, "bike_id": "d27060d7f73afac417a487edc9166e47", "type": "electric_scooter", "is_reserved": 0, "lon": -77.0429645}, {"fusion_lat": 0.0, "name": "0ec632c8e440f11d7597c818c0087bca", "is_disabled": 0, "rental_uris": {"android": "https://dc.lft.to/lastmile_qr_scan", "ios": "https://dc.lft.to/lastmile_qr_scan"}, "fusion_lon": 0.0, "lat": 38.8971755, "bike_id": "0ec632c8e440f11d7597c818c0087bca", "type": "electric_scooter", "is_reserved": 0, "lon": -77.0079045}, {"fusion_lat": 0.0, "name": "828e1fed2b556f9a9e4553122cb33fcc", "is_disabled": 0, "rental_uris": {"android": "https://dc.lft.to/lastmile_qr_scan", "ios": "https://dc.lft.to/lastmile_qr_scan"}, "fusion_lon": 0.0, "lat": 38.904278833333336, "bike_id": "828e1fed2b556f9a9e4553122cb33fcc", "type": "electric_scooter", "is_reserved": 0, "lon": -76.98176283333333}, {"fusion_lat": 0.0, "name": "79369478147ead5a7938b48e9b9fe1f7", "is_disabled": 0, "rental_uris": {"android": "https://dc.lft.to/lastmile_qr_scan", "ios": "https://dc.lft.to/lastmile_qr_scan"}, "fusion_lon": 0.0, "lat": 38.91027833333333, "bike_id": "79369478147ead5a7938b48e9b9fe1f7", "type": "electric_scooter", "is_reserved": 0, "lon": -77.00762883333333}, {"fusion_lat": 0.0, "name": "d5abecb5353500f8367a6560ba5b6bd9", "is_disabled": 0, "rental_uris": {"android": "https://dc.lft.to/lastmile_qr_scan", "ios": "https://dc.lft.to/lastmile_qr_scan"}, "fusion_lon": 0.0, "lat": 38.921921166666664, "bike_id": "d5abecb5353500f8367a6560ba5b6bd9", "type": "electric_scooter", "is_reserved": 0, "lon": -76.99766066666666}, {"fusion_lat": 0.0, "name": "0cf21b6d6f79a425d7ef58af0c5f75fd", "is_disabled": 0, "rental_uris": {"android": "https://dc.lft.to/lastmile_qr_scan", "ios": "https://dc.lft.to/lastmile_qr_scan"}, "fusion_lon": 0.0, "lat": 38.9453725, "bike_id": "0cf21b6d6f79a425d7ef58af0c5f75fd", "type": "electric_scooter", "is_reserved": 0, "lon": -77.0252825}, {"fusion_lat": 0.0, "name": "9a31552513a16316474205548e25390b", "is_disabled": 0, "rental_uris": {"android": "https://dc.lft.to/lastmile_qr_scan", "ios": "https://dc.lft.to/lastmile_qr_scan"}, "fusion_lon": 0.0, "lat": 38.89872966666667, "bike_id": "9a31552513a16316474205548e25390b", "type": "electric_scooter", "is_reserved": 0, "lon": -76.92739366666666}, {"fusion_lat": 0.0, "name": "df911c0a569367412c933ddcea44a4db", "is_disabled": 0, "rental_uris": {"android": "https://dc.lft.to/lastmile_qr_scan", "ios": "https://dc.lft.to/lastmile_qr_scan"}, "fusion_lon": 0.0, "lat": 38.8985295, "bike_id": "df911c0a569367412c933ddcea44a4db", "type": "electric_scooter", "is_reserved": 0, "lon": -76.99032216666667}, {"fusion_lat": 0.0, "name": "44efee5497fce3ede3a66d625c093e60", "is_disabled": 0, "rental_uris": {"android": "https://dc.lft.to/lastmile_qr_scan", "ios": "https://dc.lft.to/lastmile_qr_scan"}, "fusion_lon": 0.0, "lat": 39.070518166666666, "bike_id": "44efee5497fce3ede3a66d625c093e60", "type": "electric_bike", "is_reserved": 0, "lon": -77.11477183333334}, {"fusion_lat": 0.0, "name": "467c2fa42cbcbef5b309fb63ecb142d2", "is_disabled": 0, "rental_uris": {"android": "https://dc.lft.to/lastmile_qr_scan", "ios": "https://dc.lft.to/lastmile_qr_scan"}, "fusion_lon": 0.0, "lat": 38.883014833333334, "bike_id": "467c2fa42cbcbef5b309fb63ecb142d2", "type": "electric_scooter", "is_reserved": 0, "lon": -76.948527}, {"fusion_lat": 0.0, "name": "43729df6c2e7ba740f8b67066ca020b0", "is_disabled": 0, "rental_uris": {"android": "https://dc.lft.to/lastmile_qr_scan", "ios": "https://dc.lft.to/lastmile_qr_scan"}, "fusion_lon": 0.0, "lat": 38.906060833333335, "bike_id": "43729df6c2e7ba740f8b67066ca020b0", "type": "electric_scooter", "is_reserved": 0, "lon": -77.00785666666667}, {"fusion_lat": 0.0, "name": "5d83470eaf5cc0cd7ebb59bf6f9a2c0f", "is_disabled": 0, "rental_uris": {"android": "https://dc.lft.to/lastmile_qr_scan", "ios": "https://dc.lft.to/lastmile_qr_scan"}, "fusion_lon": 0.0, "lat": 38.902314, "bike_id": "5d83470eaf5cc0cd7ebb59bf6f9a2c0f", "type": "electric_scooter", "is_reserved": 0, "lon": -77.039577}, {"fusion_lat": 0.0, "name": "2efcedd66643284ec6cc60f5e94831fd", "is_disabled": 0, "rental_uris": {"android": "https://dc.lft.to/lastmile_qr_scan", "ios": "https://dc.lft.to/lastmile_qr_scan"}, "fusion_lon": 0.0, "lat": 38.91186666666667, "bike_id": "2efcedd66643284ec6cc60f5e94831fd", "type": "electric_scooter", "is_reserved": 0, "lon": -77.042536}, {"fusion_lat": 0.0, "name": "966f80d572ce503d2e687b1ac093b55a", "is_disabled": 0, "rental_uris": {"android": "https://dc.lft.to/lastmile_qr_scan", "ios": "https://dc.lft.to/lastmile_qr_scan"}, "fusion_lon": 0.0, "lat": 38.89360816666667, "bike_id": "966f80d572ce503d2e687b1ac093b55a", "type": "electric_scooter", "is_reserved": 0, "lon": -76.925916}, {"fusion_lat": 0.0, "name": "1d2a0bdafb460d9100c24e2a3589b451", "is_disabled": 0, "rental_uris": {"android": "https://dc.lft.to/lastmile_qr_scan", "ios": "https://dc.lft.to/lastmile_qr_scan"}, "fusion_lon": 0.0, "lat": 38.876774, "bike_id": "1d2a0bdafb460d9100c24e2a3589b451", "type": "electric_scooter", "is_reserved": 0, "lon": -77.0071945}, {"fusion_lat": 0.0, "name": "f4a11ca0b4d329628a32fab973d5956a", "is_disabled": 0, "rental_uris": {"android": "https://dc.lft.to/lastmile_qr_scan", "ios": "https://dc.lft.to/lastmile_qr_scan"}, "fusion_lon": 0.0, "lat": 38.912977166666664, "bike_id": "f4a11ca0b4d329628a32fab973d5956a", "type": "electric_scooter", "is_reserved": 0, "lon": -76.984696}, {"fusion_lat": 0.0, "name": "0d0c3c84a5579bf0a143436035a3edd2", "is_disabled": 0, "rental_uris": {"android": "https://dc.lft.to/lastmile_qr_scan", "ios": "https://dc.lft.to/lastmile_qr_scan"}, "fusion_lon": 0.0, "lat": 38.82459883333333, "bike_id": "0d0c3c84a5579bf0a143436035a3edd2", "type": "electric_bike", "is_reserved": 0, "lon": -77.007907}, {"fusion_lat": 0.0, "name": "b1ea04f0af3839ef40af9fd936f26cdd", "is_disabled": 0, "rental_uris": {"android": "https://dc.lft.to/lastmile_qr_scan", "ios": "https://dc.lft.to/lastmile_qr_scan"}, "fusion_lon": 0.0, "lat": 38.908688166666664, "bike_id": "b1ea04f0af3839ef40af9fd936f26cdd", "type": "electric_scooter", "is_reserved": 0, "lon": -77.08589416666666}, {"fusion_lat": 0.0, "name": "bbb2c35efa79025b5cc66843d5aadfb5", "is_disabled": 0, "rental_uris": {"android": "https://dc.lft.to/lastmile_qr_scan", "ios": "https://dc.lft.to/lastmile_qr_scan"}, "fusion_lon": 0.0, "lat": 38.92540983333333, "bike_id": "bbb2c35efa79025b5cc66843d5aadfb5", "type": "electric_scooter", "is_reserved": 0, "lon": -77.03478816666667}, {"fusion_lat": 0.0, "name": "73a4909aaf931a1fe417b4af499a89e3", "is_disabled": 0, "rental_uris": {"android": "https://dc.lft.to/lastmile_qr_scan", "ios": "https://dc.lft.to/lastmile_qr_scan"}, "fusion_lon": 0.0, "lat": 38.896109, "bike_id": "73a4909aaf931a1fe417b4af499a89e3", "type": "electric_scooter", "is_reserved": 0, "lon": -76.94812066666667}, {"fusion_lat": 0.0, "name": "3b68f9b47f3e5bafffbc9e1e83392d8a", "is_disabled": 0, "rental_uris": {"android": "https://dc.lft.to/lastmile_qr_scan", "ios": "https://dc.lft.to/lastmile_qr_scan"}, "fusion_lon": 0.0, "lat": 38.897535833333336, "bike_id": "3b68f9b47f3e5bafffbc9e1e83392d8a", "type": "electric_scooter", "is_reserved": 0, "lon": -77.03345816666666}, {"fusion_lat": 0.0, "name": "4505daf2e92b61182f65236a28bf4959", "is_disabled": 0, "rental_uris": {"android": "https://dc.lft.to/lastmile_qr_scan", "ios": "https://dc.lft.to/lastmile_qr_scan"}, "fusion_lon": 0.0, "lat": 38.858727333333334, "bike_id": "4505daf2e92b61182f65236a28bf4959", "type": "electric_bike", "is_reserved": 0, "lon": -77.0955755}, {"fusion_lat": 0.0, "name": "7416ae1cf0a0a1ea1fd2508a8d41c88c", "is_disabled": 0, "rental_uris": {"android": "https://dc.lft.to/lastmile_qr_scan", "ios": "https://dc.lft.to/lastmile_qr_scan"}, "fusion_lon": 0.0, "lat": 38.9615935, "bike_id": "7416ae1cf0a0a1ea1fd2508a8d41c88c", "type": "electric_scooter", "is_reserved": 0, "lon": -77.0733805}, {"fusion_lat": 0.0, "name": "3731d84d9eb36dc729622b308659829b", "is_disabled": 0, "rental_uris": {"android": "https://dc.lft.to/lastmile_qr_scan", "ios": "https://dc.lft.to/lastmile_qr_scan"}, "fusion_lon": 0.0, "lat": 38.923031, "bike_id": "3731d84d9eb36dc729622b308659829b", "type": "electric_scooter", "is_reserved": 0, "lon": -77.04107083333334}, {"fusion_lat": 0.0, "name": "cae47dbac6eab75a818dcad2a858bc00", "is_disabled": 0, "rental_uris": {"android": "https://dc.lft.to/lastmile_qr_scan", "ios": "https://dc.lft.to/lastmile_qr_scan"}, "fusion_lon": 0.0, "lat": 38.923840166666665, "bike_id": "cae47dbac6eab75a818dcad2a858bc00", "type": "electric_scooter", "is_reserved": 0, "lon": -77.03650666666667}, {"fusion_lat": 0.0, "name": "f27528e504c573bed6438613fd8ce83b", "is_disabled": 0, "rental_uris": {"android": "https://dc.lft.to/lastmile_qr_scan", "ios": "https://dc.lft.to/lastmile_qr_scan"}, "fusion_lon": 0.0, "lat": 38.904256, "bike_id": "f27528e504c573bed6438613fd8ce83b", "type": "electric_scooter", "is_reserved": 0, "lon": -77.0012615}, {"fusion_lat": 0.0, "name": "cc60f435c2e692a1c8422ddec4fe633d", "is_disabled": 0, "rental_uris": {"android": "https://dc.lft.to/lastmile_qr_scan", "ios": "https://dc.lft.to/lastmile_qr_scan"}, "fusion_lon": 0.0, "lat": 38.917001166666665, "bike_id": "cc60f435c2e692a1c8422ddec4fe633d", "type": "electric_scooter", "is_reserved": 0, "lon": -77.04211}, {"fusion_lat": 0.0, "name": "2e3ae378a7d41107cd0a85d1103d0640", "is_disabled": 0, "rental_uris": {"android": "https://dc.lft.to/lastmile_qr_scan", "ios": "https://dc.lft.to/lastmile_qr_scan"}, "fusion_lon": 0.0, "lat": 38.887628166666666, "bike_id": "2e3ae378a7d41107cd0a85d1103d0640", "type": "electric_scooter", "is_reserved": 0, "lon": -76.97753083333333}, {"fusion_lat": 0.0, "name": "5c499a1155c7ea1735a9cec774e6f9dd", "is_disabled": 0, "rental_uris": {"android": "https://dc.lft.to/lastmile_qr_scan", "ios": "https://dc.lft.to/lastmile_qr_scan"}, "fusion_lon": 0.0, "lat": 38.916093333333336, "bike_id": "5c499a1155c7ea1735a9cec774e6f9dd", "type": "electric_scooter", "is_reserved": 0, "lon": -77.02145133333333}, {"fusion_lat": 0.0, "name": "c1c894cc9ae4931da2de8dd4136061f6", "is_disabled": 0, "rental_uris": {"android": "https://dc.lft.to/lastmile_qr_scan", "ios": "https://dc.lft.to/lastmile_qr_scan"}, "fusion_lon": 0.0, "lat": 38.90946683333333, "bike_id": "c1c894cc9ae4931da2de8dd4136061f6", "type": "electric_scooter", "is_reserved": 0, "lon": -76.98543016666666}, {"fusion_lat": 0.0, "name": "88a5941a2ed1542ff2ee3d729f81ac71", "is_disabled": 0, "rental_uris": {"android": "https://dc.lft.to/lastmile_qr_scan", "ios": "https://dc.lft.to/lastmile_qr_scan"}, "fusion_lon": 0.0, "lat": 38.900006, "bike_id": "88a5941a2ed1542ff2ee3d729f81ac71", "type": "electric_scooter", "is_reserved": 0, "lon": -77.00656933333333}, {"fusion_lat": 0.0, "name": "983152b0fd8ddeace47b4937467652c2", "is_disabled": 0, "rental_uris": {"android": "https://dc.lft.to/lastmile_qr_scan", "ios": "https://dc.lft.to/lastmile_qr_scan"}, "fusion_lon": 0.0, "lat": 38.89736966666667, "bike_id": "983152b0fd8ddeace47b4937467652c2", "type": "electric_scooter", "is_reserved": 0, "lon": -77.04627416666666}, {"fusion_lat": 0.0, "name": "32651aed8d5f2695837ab668dfae8a0c", "is_disabled": 0, "rental_uris": {"android": "https://dc.lft.to/lastmile_qr_scan", "ios": "https://dc.lft.to/lastmile_qr_scan"}, "fusion_lon": 0.0, "lat": 38.9212375, "bike_id": "32651aed8d5f2695837ab668dfae8a0c", "type": "electric_bike", "is_reserved": 0, "lon": -77.0107515}, {"fusion_lat": 0.0, "name": "8227120652bf1a946a8703467d55670f", "is_disabled": 0, "rental_uris": {"android": "https://dc.lft.to/lastmile_qr_scan", "ios": "https://dc.lft.to/lastmile_qr_scan"}, "fusion_lon": 0.0, "lat": 38.9136335, "bike_id": "8227120652bf1a946a8703467d55670f", "type": "electric_scooter", "is_reserved": 0, "lon": -77.04554266666666}, {"fusion_lat": 0.0, "name": "18e3c161b784e0bd47becbac6c0180ce", "is_disabled": 0, "rental_uris": {"android": "https://dc.lft.to/lastmile_qr_scan", "ios": "https://dc.lft.to/lastmile_qr_scan"}, "fusion_lon": 0.0, "lat": 38.899905333333336, "bike_id": "18e3c161b784e0bd47becbac6c0180ce", "type": "electric_scooter", "is_reserved": 0, "lon": -76.98433716666666}, {"fusion_lat": 0.0, "name": "1db6a5f7d6a976c8648ddfcbda2a080a", "is_disabled": 0, "rental_uris": {"android": "https://dc.lft.to/lastmile_qr_scan", "ios": "https://dc.lft.to/lastmile_qr_scan"}, "fusion_lon": 0.0, "lat": 38.92826783333334, "bike_id": "1db6a5f7d6a976c8648ddfcbda2a080a", "type": "electric_scooter", "is_reserved": 0, "lon": -77.05968666666666}, {"fusion_lat": 0.0, "name": "5736daacc16293ad910f74c49fb2bc4e", "is_disabled": 0, "rental_uris": {"android": "https://dc.lft.to/lastmile_qr_scan", "ios": "https://dc.lft.to/lastmile_qr_scan"}, "fusion_lon": 0.0, "lat": 39.03614433333333, "bike_id": "5736daacc16293ad910f74c49fb2bc4e", "type": "electric_bike", "is_reserved": 0, "lon": -77.05536216666667}, {"fusion_lat": 0.0, "name": "52786e8667a6e93b43c8079b7931c636", "is_disabled": 0, "rental_uris": {"android": "https://dc.lft.to/lastmile_qr_scan", "ios": "https://dc.lft.to/lastmile_qr_scan"}, "fusion_lon": 0.0, "lat": 38.92416866666667, "bike_id": "52786e8667a6e93b43c8079b7931c636", "type": "electric_scooter", "is_reserved": 0, "lon": -77.03637233333333}, {"fusion_lat": 0.0, "name": "4f555a8ed4ad01df2f29c3b299eeb178", "is_disabled": 0, "rental_uris": {"android": "https://dc.lft.to/lastmile_qr_scan", "ios": "https://dc.lft.to/lastmile_qr_scan"}, "fusion_lon": 0.0, "lat": 38.9181385, "bike_id": "4f555a8ed4ad01df2f29c3b299eeb178", "type": "electric_scooter", "is_reserved": 0, "lon": -77.02478416666666}, {"fusion_lat": 0.0, "name": "63b7804ec6122ed38f9714f2c61ab547", "is_disabled": 0, "rental_uris": {"android": "https://dc.lft.to/lastmile_qr_scan", "ios": "https://dc.lft.to/lastmile_qr_scan"}, "fusion_lon": 0.0, "lat": 38.923616833333334, "bike_id": "63b7804ec6122ed38f9714f2c61ab547", "type": "electric_scooter", "is_reserved": 0, "lon": -77.04315166666666}, {"fusion_lat": 0.0, "name": "74a42ef4e94e71ae24ba84fcf0184c01", "is_disabled": 0, "rental_uris": {"android": "https://dc.lft.to/lastmile_qr_scan", "ios": "https://dc.lft.to/lastmile_qr_scan"}, "fusion_lon": 0.0, "lat": 38.9181825, "bike_id": "74a42ef4e94e71ae24ba84fcf0184c01", "type": "electric_scooter", "is_reserved": 0, "lon": -77.0264965}, {"fusion_lat": 0.0, "name": "67c637007c59e4571b20d03af053f44a", "is_disabled": 0, "rental_uris": {"android": "https://dc.lft.to/lastmile_qr_scan", "ios": "https://dc.lft.to/lastmile_qr_scan"}, "fusion_lon": 0.0, "lat": 38.91695516666667, "bike_id": "67c637007c59e4571b20d03af053f44a", "type": "electric_scooter", "is_reserved": 0, "lon": -77.04108083333334}, {"fusion_lat": 0.0, "name": "8f008e5e35c3e3cd88af6b75d294daad", "is_disabled": 0, "rental_uris": {"android": "https://dc.lft.to/lastmile_qr_scan", "ios": "https://dc.lft.to/lastmile_qr_scan"}, "fusion_lon": 0.0, "lat": 38.90611883333333, "bike_id": "8f008e5e35c3e3cd88af6b75d294daad", "type": "electric_scooter", "is_reserved": 0, "lon": -77.0589685}, {"fusion_lat": 0.0, "name": "cd60e243209193b46749ecc1646d0b45", "is_disabled": 0, "rental_uris": {"android": "https://dc.lft.to/lastmile_qr_scan", "ios": "https://dc.lft.to/lastmile_qr_scan"}, "fusion_lon": 0.0, "lat": 38.91267216666667, "bike_id": "cd60e243209193b46749ecc1646d0b45", "type": "electric_scooter", "is_reserved": 0, "lon": -77.03870583333334}, {"fusion_lat": 0.0, "name": "8ad07aeaff10380e5229477c840a6ccf", "is_disabled": 0, "rental_uris": {"android": "https://dc.lft.to/lastmile_qr_scan", "ios": "https://dc.lft.to/lastmile_qr_scan"}, "fusion_lon": 0.0, "lat": 38.89968233333333, "bike_id": "8ad07aeaff10380e5229477c840a6ccf", "type": "electric_scooter", "is_reserved": 0, "lon": -77.01608766666666}, {"fusion_lat": 0.0, "name": "815ad6847fe0af6f6a053b7d6d3154c1", "is_disabled": 0, "rental_uris": {"android": "https://dc.lft.to/lastmile_qr_scan", "ios": "https://dc.lft.to/lastmile_qr_scan"}, "fusion_lon": 0.0, "lat": 38.90096166666667, "bike_id": "815ad6847fe0af6f6a053b7d6d3154c1", "type": "electric_bike", "is_reserved": 0, "lon": -76.97680483333333}, {"fusion_lat": 0.0, "name": "33ac00b1d105cc24e02ba8129df41618", "is_disabled": 0, "rental_uris": {"android": "https://dc.lft.to/lastmile_qr_scan", "ios": "https://dc.lft.to/lastmile_qr_scan"}, "fusion_lon": 0.0, "lat": 38.91684883333333, "bike_id": "33ac00b1d105cc24e02ba8129df41618", "type": "electric_scooter", "is_reserved": 0, "lon": -77.04138016666667}, {"fusion_lat": 0.0, "name": "4722276172d5568c2fa7c62b5ebf1dad", "is_disabled": 0, "rental_uris": {"android": "https://dc.lft.to/lastmile_qr_scan", "ios": "https://dc.lft.to/lastmile_qr_scan"}, "fusion_lon": 0.0, "lat": 38.913315, "bike_id": "4722276172d5568c2fa7c62b5ebf1dad", "type": "electric_scooter", "is_reserved": 0, "lon": -77.04224333333333}, {"fusion_lat": 0.0, "name": "9200c3665c36a90ac0a8a5fc3fde2177", "is_disabled": 0, "rental_uris": {"android": "https://dc.lft.to/lastmile_qr_scan", "ios": "https://dc.lft.to/lastmile_qr_scan"}, "fusion_lon": 0.0, "lat": 38.87296933333333, "bike_id": "9200c3665c36a90ac0a8a5fc3fde2177", "type": "electric_bike", "is_reserved": 0, "lon": -77.010915}, {"fusion_lat": 0.0, "name": "ab24469ee73eddd1d733fa2145d67470", "is_disabled": 0, "rental_uris": {"android": "https://dc.lft.to/lastmile_qr_scan", "ios": "https://dc.lft.to/lastmile_qr_scan"}, "fusion_lon": 0.0, "lat": 38.9222215, "bike_id": "ab24469ee73eddd1d733fa2145d67470", "type": "electric_scooter", "is_reserved": 0, "lon": -77.04124016666667}, {"fusion_lat": 0.0, "name": "bdcecb363f01a9f99aced3d1b102ff9e", "is_disabled": 0, "rental_uris": {"android": "https://dc.lft.to/lastmile_qr_scan", "ios": "https://dc.lft.to/lastmile_qr_scan"}, "fusion_lon": 0.0, "lat": 38.935236333333336, "bike_id": "bdcecb363f01a9f99aced3d1b102ff9e", "type": "electric_scooter", "is_reserved": 0, "lon": -77.02412016666666}, {"fusion_lat": 0.0, "name": "121a0188c1d838c821ec864ef6db3726", "is_disabled": 0, "rental_uris": {"android": "https://dc.lft.to/lastmile_qr_scan", "ios": "https://dc.lft.to/lastmile_qr_scan"}, "fusion_lon": 0.0, "lat": 38.92847883333334, "bike_id": "121a0188c1d838c821ec864ef6db3726", "type": "electric_scooter", "is_reserved": 0, "lon": -76.99765683333334}, {"fusion_lat": 0.0, "name": "cce9f83e5f07b315d2465b7e21fa81a2", "is_disabled": 0, "rental_uris": {"android": "https://dc.lft.to/lastmile_qr_scan", "ios": "https://dc.lft.to/lastmile_qr_scan"}, "fusion_lon": 0.0, "lat": 38.9484235, "bike_id": "cce9f83e5f07b315d2465b7e21fa81a2", "type": "electric_scooter", "is_reserved": 0, "lon": -77.02568766666667}, {"fusion_lat": 0.0, "name": "5d60bb5d97c2aa8f5fa540c282323595", "is_disabled": 0, "rental_uris": {"android": "https://dc.lft.to/lastmile_qr_scan", "ios": "https://dc.lft.to/lastmile_qr_scan"}, "fusion_lon": 0.0, "lat": 38.92026516666667, "bike_id": "5d60bb5d97c2aa8f5fa540c282323595", "type": "electric_scooter", "is_reserved": 0, "lon": -77.0280735}, {"fusion_lat": 0.0, "name": "2db6af5aac9148c511b486523efa63d6", "is_disabled": 0, "rental_uris": {"android": "https://dc.lft.to/lastmile_qr_scan", "ios": "https://dc.lft.to/lastmile_qr_scan"}, "fusion_lon": 0.0, "lat": 39.0029405, "bike_id": "2db6af5aac9148c511b486523efa63d6", "type": "electric_bike", "is_reserved": 0, "lon": -76.90294833333333}, {"fusion_lat": 0.0, "name": "ecc60d61a47778217e3089dae00e3047", "is_disabled": 0, "rental_uris": {"android": "https://dc.lft.to/lastmile_qr_scan", "ios": "https://dc.lft.to/lastmile_qr_scan"}, "fusion_lon": 0.0, "lat": 38.938058, "bike_id": "ecc60d61a47778217e3089dae00e3047", "type": "electric_scooter", "is_reserved": 0, "lon": -77.06852966666666}, {"fusion_lat": 0.0, "name": "a6bf0ba017931636a393b1bfb49f87b4", "is_disabled": 0, "rental_uris": {"android": "https://dc.lft.to/lastmile_qr_scan", "ios": "https://dc.lft.to/lastmile_qr_scan"}, "fusion_lon": 0.0, "lat": 38.944729333333335, "bike_id": "a6bf0ba017931636a393b1bfb49f87b4", "type": "electric_scooter", "is_reserved": 0, "lon": -77.02356166666667}, {"fusion_lat": 0.0, "name": "ca22451d13ce24a48cef8ac2d40b8d32", "is_disabled": 0, "rental_uris": {"android": "https://dc.lft.to/lastmile_qr_scan", "ios": "https://dc.lft.to/lastmile_qr_scan"}, "fusion_lon": 0.0, "lat": 38.947625, "bike_id": "ca22451d13ce24a48cef8ac2d40b8d32", "type": "electric_bike", "is_reserved": 0, "lon": -77.03283316666666}, {"fusion_lat": 0.0, "name": "7e7484ea0d15d78f17580fec73c618bc", "is_disabled": 0, "rental_uris": {"android": "https://dc.lft.to/lastmile_qr_scan", "ios": "https://dc.lft.to/lastmile_qr_scan"}, "fusion_lon": 0.0, "lat": 38.92108316666667, "bike_id": "7e7484ea0d15d78f17580fec73c618bc", "type": "electric_scooter", "is_reserved": 0, "lon": -77.04681816666667}, {"fusion_lat": 0.0, "name": "5dcaad02e033ff90ba237250f79298df", "is_disabled": 0, "rental_uris": {"android": "https://dc.lft.to/lastmile_qr_scan", "ios": "https://dc.lft.to/lastmile_qr_scan"}, "fusion_lon": 0.0, "lat": 38.91107383333333, "bike_id": "5dcaad02e033ff90ba237250f79298df", "type": "electric_scooter", "is_reserved": 0, "lon": -77.03830633333334}, {"fusion_lat": 0.0, "name": "99615f02e086c25932ebf5f15a02ca2f", "is_disabled": 0, "rental_uris": {"android": "https://dc.lft.to/lastmile_qr_scan", "ios": "https://dc.lft.to/lastmile_qr_scan"}, "fusion_lon": 0.0, "lat": 38.9234605, "bike_id": "99615f02e086c25932ebf5f15a02ca2f", "type": "electric_scooter", "is_reserved": 0, "lon": -77.0201515}, {"fusion_lat": 0.0, "name": "3ee6490fef8c556379840a135eea1c71", "is_disabled": 0, "rental_uris": {"android": "https://dc.lft.to/lastmile_qr_scan", "ios": "https://dc.lft.to/lastmile_qr_scan"}, "fusion_lon": 0.0, "lat": 38.93325633333333, "bike_id": "3ee6490fef8c556379840a135eea1c71", "type": "electric_scooter", "is_reserved": 0, "lon": -77.03431516666667}, {"fusion_lat": 0.0, "name": "412c1321e803a56284f451ee6e8eb2d2", "is_disabled": 0, "rental_uris": {"android": "https://dc.lft.to/lastmile_qr_scan", "ios": "https://dc.lft.to/lastmile_qr_scan"}, "fusion_lon": 0.0, "lat": 38.904455, "bike_id": "412c1321e803a56284f451ee6e8eb2d2", "type": "electric_scooter", "is_reserved": 0, "lon": -77.03451283333334}, {"fusion_lat": 0.0, "name": "9628f3dddc13497f4a07d30df428d053", "is_disabled": 0, "rental_uris": {"android": "https://dc.lft.to/lastmile_qr_scan", "ios": "https://dc.lft.to/lastmile_qr_scan"}, "fusion_lon": 0.0, "lat": 38.89733966666667, "bike_id": "9628f3dddc13497f4a07d30df428d053", "type": "electric_scooter", "is_reserved": 0, "lon": -77.0220725}, {"fusion_lat": 0.0, "name": "2cc3f986b188717e7369919749bd51ad", "is_disabled": 0, "rental_uris": {"android": "https://dc.lft.to/lastmile_qr_scan", "ios": "https://dc.lft.to/lastmile_qr_scan"}, "fusion_lon": 0.0, "lat": 38.92356, "bike_id": "2cc3f986b188717e7369919749bd51ad", "type": "electric_scooter", "is_reserved": 0, "lon": -77.01941783333334}, {"fusion_lat": 0.0, "name": "d9f2e228e0155ecb6be8746a84b71ddf", "is_disabled": 0, "rental_uris": {"android": "https://dc.lft.to/lastmile_qr_scan", "ios": "https://dc.lft.to/lastmile_qr_scan"}, "fusion_lon": 0.0, "lat": 38.890048, "bike_id": "d9f2e228e0155ecb6be8746a84b71ddf", "type": "electric_scooter", "is_reserved": 0, "lon": -76.937377}, {"fusion_lat": 0.0, "name": "471594ceba34fc689e5ca3512529ecb0", "is_disabled": 0, "rental_uris": {"android": "https://dc.lft.to/lastmile_qr_scan", "ios": "https://dc.lft.to/lastmile_qr_scan"}, "fusion_lon": 0.0, "lat": 38.874943333333334, "bike_id": "471594ceba34fc689e5ca3512529ecb0", "type": "electric_bike", "is_reserved": 0, "lon": -77.21124716666667},