{"data": {"bikes": [{"fusion_lon": 0.0, "bike_id": "1d50d72258ac5bb4c2c8f40bd466fdcd", "is_disabled": 0, "is_reserved": 0, "lat": 38.97364316666667, "name": "1d50d72258ac5bb4c2c8f40bd466fdcd", "rental_uris": {"ios": "https://dc.lft.to/lastmile_qr_scan", "android": "https://dc.lft.to/lastmile_qr_scan"}, "type": "electric_scooter", "fusion_lat": 0.0, "lon": -77.0186335}, {"fusion_lon": 0.0, "bike_id": "b27894f9c2132d378416049143a51424", "is_disabled": 0, "is_reserved": 0, "lat": 38.93312, "name": "b27894f9c2132d378416049143a51424", "rental_uris": {"ios": "https://dc.lft.to/lastmile_qr_scan", "android": "https://dc.lft.to/lastmile_qr_scan"}, "type": "electric_scooter", "fusion_lat": 0.0, "lon": -77.034298}, {"fusion_lon": 0.0, "bike_id": "c47d30e993f8df0b3f3f266d16a09861", "is_disabled": 0, "is_reserved": 0, "lat": 38.952640333333335, "name": "c47d30e993f8df0b3f3f266d16a09861", "rental_uris": {"ios": "https://dc.lft.to/lastmile_qr_scan", "android": "https://dc.lft.to/lastmile_qr_scan"}, "type": "electric_scooter", "fusion_lat": 0.0, "lon": -77.0176815}, {"fusion_lon": 0.0, "bike_id": "46883093009a815f495a10f17f1ac89a", "is_disabled": 0, "is_reserved": 0, "lat": 38.96735366666667, "name": "46883093009a815f495a10f17f1ac89a", "rental_uris": {"ios": "https://dc.lft.to/lastmile_qr_scan", "android": "https://dc.lft.to/lastmile_qr_scan"}, "type": "electric_bike", "fusion_lat": 0.0, "lon": -76.960434}, {"fusion_lon": 0.0, "bike_id": "519fb12f09dbb0793b69d861cc5c53b6", "is_disabled": 0, "is_reserved": 0, "lat": 38.907421, "name": "519fb12f09dbb0793b69d861cc5c53b6", "rental_uris": {"ios": "https://dc.lft.to/lastmile_qr_scan", "android": "https://dc.lft.to/lastmile_qr_scan"}, "type": "electric_scooter", "fusion_lat": 0.0, "lon": -77.02184516666667}, {"fusion_lon": 0.0, "bike_id": "f7e313231249d142b6d2b583cf196602", "is_disabled": 0, "is_reserved": 0, "lat": 38.95607066666667, "name": "f7e313231249d142b6d2b583cf196602", "rental_uris": {"ios": "https://dc.lft.to/lastmile_qr_scan", "android": "https://dc.lft.to/lastmile_qr_scan"}, "type": "electric_scooter", "fusion_lat": 0.0, "lon": -77.08036533333333}, {"fusion_lon": 0.0, "bike_id": "10749c2d48f2b91e98c2d1a5719d1fd8", "is_disabled": 0, "is_reserved": 0, "lat": 38.93520216666667, "name": "10749c2d48f2b91e98c2d1a5719d1fd8", "rental_uris": {"ios": "https://dc.lft.to/lastmile_qr_scan", "android": "https://dc.lft.to/lastmile_qr_scan"}, "type": "electric_scooter", "fusion_lat": 0.0, "lon": -77.03370066666666}, {"fusion_lon": 0.0, "bike_id": "eb996266cb885dd1362791cf8768575c", "is_disabled": 0, "is_reserved": 0, "lat": 38.91897316666667, "name": "eb996266cb885dd1362791cf8768575c", "rental_uris": {"ios": "https://dc.lft.to/lastmile_qr_scan", "android": "https://dc.lft.to/lastmile_qr_scan"}, "type": "electric_scooter", "fusion_lat": 0.0, "lon": -77.03514666666666}, {"fusion_lon": 0.0, "bike_id": "01b121a447df8b7441f11bbd244b84d8", "is_disabled": 0, "is_reserved": 0, "lat": 38.875474, "name": "01b121a447df8b7441f11bbd244b84d8", "rental_uris": {"ios": "https://dc.lft.to/lastmile_qr_scan", "android": "https://dc.lft.to/lastmile_qr_scan"}, "type": "electric_scooter", "fusion_lat": 0.0, "lon": -77.0053785}, {"fusion_lon": 0.0, "bike_id": "c1e7287ca3788b0a8412893a67c96b19", "is_disabled": 0, "is_reserved": 0, "lat": 38.9147605, "name": "c1e7287ca3788b0a8412893a67c96b19", "rental_uris": {"ios": "https://dc.lft.to/lastmile_qr_scan", "android": "https://dc.lft.to/lastmile_qr_scan"}, "type": "electric_scooter", "fusion_lat": 0.0, "lon": -77.00212}, {"fusion_lon": 0.0, "bike_id": "62c3201cd4bc88deeebc04d46fa60196", "is_disabled": 0, "is_reserved": 0, "lat": 38.91454066666667, "name": "62c3201cd4bc88deeebc04d46fa60196", "rental_uris": {"ios": "https://dc.lft.to/lastmile_qr_scan", "android": "https://dc.lft.to/lastmile_qr_scan"}, "type": "electric_bike", "fusion_lat": 0.0, "lon": -76.972357}, {"fusion_lon": 0.0, "bike_id": "9e45d7daf201cc7bcda698dff83d65cb", "is_disabled": 0, "is_reserved": 0, "lat": 38.93260733333334, "name": "9e45d7daf201cc7bcda698dff83d65cb", "rental_uris": {"ios": "https://dc.lft.to/lastmile_qr_scan", "android": "https://dc.lft.to/lastmile_qr_scan"}, "type": "electric_scooter", "fusion_lat": 0.0, "lon": -76.98880483333333}, {"fusion_lon": 0.0, "bike_id": "4deb09a1a159fbdbc615912738727c8b", "is_disabled": 0, "is_reserved": 0, "lat": 38.897176, "name": "4deb09a1a159fbdbc615912738727c8b", "rental_uris": {"ios": "https://dc.lft.to/lastmile_qr_scan", "android": "https://dc.lft.to/lastmile_qr_scan"}, "type": "electric_bike", "fusion_lat": 0.0, "lon": -77.00698166666666}, {"fusion_lon": 0.0, "bike_id": "a0d17b68cd0a1fbaa927303c36f0d815", "is_disabled": 0, "is_reserved": 0, "lat": 38.917403666666665, "name": "a0d17b68cd0a1fbaa927303c36f0d815", "rental_uris": {"ios": "https://dc.lft.to/lastmile_qr_scan", "android": "https://dc.lft.to/lastmile_qr_scan"}, "type": "electric_scooter", "fusion_lat": 0.0, "lon": -77.02791533333334}, {"fusion_lon": 0.0, "bike_id": "de24880ed9a8a2e18d114c449efa2753", "is_disabled": 0, "is_reserved": 0, "lat": 38.887696166666665, "name": "de24880ed9a8a2e18d114c449efa2753", "rental_uris": {"ios": "https://dc.lft.to/lastmile_qr_scan", "android": "https://dc.lft.to/lastmile_qr_scan"}, "type": "electric_scooter", "fusion_lat": 0.0, "lon": -76.97731333333333}, {"fusion_lon": 0.0, "bike_id": "03cabf82fc5931101e8f133955b41e97", "is_disabled": 0, "is_reserved": 0, "lat": 38.96734566666667, "name": "03cabf82fc5931101e8f133955b41e97", "rental_uris": {"ios": "https://dc.lft.to/lastmile_qr_scan", "android": "https://dc.lft.to/lastmile_qr_scan"}, "type": "electric_bike", "fusion_lat": 0.0, "lon": -77.08911316666666}, {"fusion_lon": 0.0, "bike_id": "c08ba0f6255204a1ef015ebf1bbe985f", "is_disabled": 0, "is_reserved": 0, "lat": 38.93684616666667, "name": "c08ba0f6255204a1ef015ebf1bbe985f", "rental_uris": {"ios": "https://dc.lft.to/lastmile_qr_scan", "android": "https://dc.lft.to/lastmile_qr_scan"}, "type": "electric_scooter", "fusion_lat": 0.0, "lon": -77.0662145}, {"fusion_lon": 0.0, "bike_id": "eecdb2c2d15ffc8d6d4626ee602f82a6", "is_disabled": 0, "is_reserved": 0, "lat": 38.920332, "name": "eecdb2c2d15ffc8d6d4626ee602f82a6", "rental_uris": {"ios": "https://dc.lft.to/lastmile_qr_scan", "android": "https://dc.lft.to/lastmile_qr_scan"}, "type": "electric_scooter", "fusion_lat": 0.0, "lon": -77.04200816666666}, {"fusion_lon": 0.0, "bike_id": "d45e68dfc445a89da278354ff1a2d314", "is_disabled": 0, "is_reserved": 0, "lat": 38.835826833333336, "name": "d45e68dfc445a89da278354ff1a2d314", "rental_uris": {"ios": "https://dc.lft.to/lastmile_qr_scan", "android": "https://dc.lft.to/lastmile_qr_scan"}, "type": "electric_bike", "fusion_lat": 0.0, "lon": -76.99021733333333}, {"fusion_lon": 0.0, "bike_id": "2ec2039ddaa59435f9574a9d5880ae1f", "is_disabled": 0, "is_reserved": 0, "lat": 38.8877735, "name": "2ec2039ddaa59435f9574a9d5880ae1f", "rental_uris": {"ios": "https://dc.lft.to/lastmile_qr_scan", "android": "https://dc.lft.to/lastmile_qr_scan"}, "type": "electric_scooter", "fusion_lat": 0.0, "lon": -77.00049466666667}, {"fusion_lon": 0.0, "bike_id": "f716fea35810f4b377f9fa0308a41ba8", "is_disabled": 0, "is_reserved": 0, "lat": 38.88245383333334, "name": "f716fea35810f4b377f9fa0308a41ba8", "rental_uris": {"ios": "https://dc.lft.to/lastmile_qr_scan", "android": "https://dc.lft.to/lastmile_qr_scan"}, "type": "electric_bike", "fusion_lat": 0.0, "lon": -76.96260183333334}, {"fusion_lon": 0.0, "bike_id": "ce0621a197a85327f92f8b807d5b36f5", "is_disabled": 0, "is_reserved": 0, "lat": 38.89579616666666, "name": "ce0621a197a85327f92f8b807d5b36f5", "rental_uris": {"ios": "https://dc.lft.to/lastmile_qr_scan", "android": "https://dc.lft.to/lastmile_qr_scan"}, "type": "electric_scooter", "fusion_lat": 0.0, "lon": -77.02961766666667}, {"fusion_lon": 0.0, "bike_id": "338d5a1cb25392b6cc87c1862e18df30", "is_disabled": 0, "is_reserved": 0, "lat": 38.92236783333333, "name": "338d5a1cb25392b6cc87c1862e18df30", "rental_uris": {"ios": "https://dc.lft.to/lastmile_qr_scan", "android": "https://dc.lft.to/lastmile_qr_scan"}, "type": "electric_scooter", "fusion_lat": 0.0, "lon": -77.02827416666666}, {"fusion_lon": 0.0, "bike_id": "99e0119212211ac79dce01abb1057ad2", "is_disabled": 0, "is_reserved": 0, "lat": 38.88533666666667, "name": "99e0119212211ac79dce01abb1057ad2", "rental_uris": {"ios": "https://dc.lft.to/lastmile_qr_scan", "android": "https://dc.lft.to/lastmile_qr_scan"}, "type": "electric_scooter", "fusion_lat": 0.0, "lon": -76.95424433333334}, {"fusion_lon": 0.0, "bike_id": "40f2e5fe6b2b40deb736bdb85c684534", "is_disabled": 0, "is_reserved": 0, "lat": 38.91954366666667, "name": "40f2e5fe6b2b40deb736bdb85c684534", "rental_uris": {"ios": "https://dc.lft.to/lastmile_qr_scan", "android": "https://dc.lft.to/lastmile_qr_scan"}, "type": "electric_scooter", "fusion_lat": 0.0, "lon": -77.02533383333333}, {"fusion_lon": 0.0, "bike_id": "3e05a8ef4c6d4a66dfc8570db7dbad64", "is_disabled": 0, "is_reserved": 0, "lat": 38.924652333333334, "name": "3e05a8ef4c6d4a66dfc8570db7dbad64", "rental_uris": {"ios": "https://dc.lft.to/lastmile_qr_scan", "android": "https://dc.lft.to/lastmile_qr_scan"}, "type": "electric_scooter", "fusion_lat": 0.0, "lon": -77.02241183333334}, {"fusion_lon": 0.0, "bike_id": "fbaa51aa8d2e5e458d73d3ad656e0b8e", "is_disabled": 0, "is_reserved": 0, "lat": 38.87854316666667, "name": "fbaa51aa8d2e5e458d73d3ad656e0b8e", "rental_uris": {"ios": "https://dc.lft.to/lastmile_qr_scan", "android": "https://dc.lft.to/lastmile_qr_scan"}, "type": "electric_scooter", "fusion_lat": 0.0, "lon": -77.0075185}, {"fusion_lon": 0.0, "bike_id": "2d19b02850950d0c82ec7f97da712e3d", "is_disabled": 0, "is_reserved": 0, "lat": 38.91619333333333, "name": "2d19b02850950d0c82ec7f97da712e3d", "rental_uris": {"ios": "https://dc.lft.to/lastmile_qr_scan", "android": "https://dc.lft.to/lastmile_qr_scan"}, "type": "electric_scooter", "fusion_lat": 0.0, "lon": -77.028003}, {"fusion_lon": 0.0, "bike_id": "9d045710af8de03799c6925c144ea96f", "is_disabled": 0, "is_reserved": 0, "lat": 38.877891166666664, "name": "9d045710af8de03799c6925c144ea96f", "rental_uris": {"ios": "https://dc.lft.to/lastmile_qr_scan", "android": "https://dc.lft.to/lastmile_qr_scan"}, "type": "electric_scooter", "fusion_lat": 0.0, "lon": -76.99605916666667}, {"fusion_lon": 0.0, "bike_id": "fbd7c20ccfc095eab53a62ec48e5b976", "is_disabled": 0, "is_reserved": 0, "lat": 38.8944135, "name": "fbd7c20ccfc095eab53a62ec48e5b976", "rental_uris": {"ios": "https://dc.lft.to/lastmile_qr_scan", "android": "https://dc.lft.to/lastmile_qr_scan"}, "type": "electric_scooter", "fusion_lat": 0.0, "lon": -76.9773665}, {"fusion_lon": 0.0, "bike_id": "d805d26f84975c475be9d5641be582f6", "is_disabled": 0, "is_reserved": 0, "lat": 38.89983, "name": "d805d26f84975c475be9d5641be582f6", "rental_uris": {"ios": "https://dc.lft.to/lastmile_qr_scan", "android": "https://dc.lft.to/lastmile_qr_scan"}, "type": "electric_scooter", "fusion_lat": 0.0, "lon": -77.04195266666666}, {"fusion_lon": 0.0, "bike_id": "c0dded93c156f237037923d073979e41", "is_disabled": 0, "is_reserved": 0, "lat": 38.92544683333333, "name": "c0dded93c156f237037923d073979e41", "rental_uris": {"ios": "https://dc.lft.to/lastmile_qr_scan", "android": "https://dc.lft.to/lastmile_qr_scan"}, "type": "electric_scooter", "fusion_lat": 0.0, "lon": -77.0332895}, {"fusion_lon": 0.0, "bike_id": "c6250dec2d547a82aee925a74c88f89b", "is_disabled": 0, "is_reserved": 0, "lat": 38.92406783333333, "name": "c6250dec2d547a82aee925a74c88f89b", "rental_uris": {"ios": "https://dc.lft.to/lastmile_qr_scan", "android": "https://dc.lft.to/lastmile_qr_scan"}, "type": "electric_scooter", "fusion_lat": 0.0, "lon": -77.04047266666667}, {"fusion_lon": 0.0, "bike_id": "7e162e813e461d282191dd263ecac653", "is_disabled": 0, "is_reserved": 0, "lat": 38.9167075, "name": "7e162e813e461d282191dd263ecac653", "rental_uris": {"ios": "https://dc.lft.to/lastmile_qr_scan", "android": "https://dc.lft.to/lastmile_qr_scan"}, "type": "electric_scooter", "fusion_lat": 0.0, "lon": -77.04711583333334}, {"fusion_lon": 0.0, "bike_id": "1eb208f68610428b288c65861ac7319d", "is_disabled": 0, "is_reserved": 0, "lat": 38.92059066666667, "name": "1eb208f68610428b288c65861ac7319d", "rental_uris": {"ios": "https://dc.lft.to/lastmile_qr_scan", "android": "https://dc.lft.to/lastmile_qr_scan"}, "type": "electric_scooter", "fusion_lat": 0.0, "lon": -77.01721416666666}, {"fusion_lon": 0.0, "bike_id": "42beda62ad2608bbaf0fe085d9bae095", "is_disabled": 0, "is_reserved": 0, "lat": 38.913864333333336, "name": "42beda62ad2608bbaf0fe085d9bae095", "rental_uris": {"ios": "https://dc.lft.to/lastmile_qr_scan", "android": "https://dc.lft.to/lastmile_qr_scan"}, "type": "electric_scooter", "fusion_lat": 0.0, "lon": -77.01702416666667}, {"fusion_lon": 0.0, "bike_id": "4c711e8b13aeeec483976d89b45268b1", "is_disabled": 0, "is_reserved": 0, "lat": 38.877342666666664, "name": "4c711e8b13aeeec483976d89b45268b1", "rental_uris": {"ios": "https://dc.lft.to/lastmile_qr_scan", "android": "https://dc.lft.to/lastmile_qr_scan"}, "type": "electric_bike", "fusion_lat": 0.0, "lon": -77.11847583333333}, {"fusion_lon": 0.0, "bike_id": "a854ca86ff88d8935c44faa55f39e80e", "is_disabled": 0, "is_reserved": 0, "lat": 38.910051, "name": "a854ca86ff88d8935c44faa55f39e80e", "rental_uris": {"ios": "https://dc.lft.to/lastmile_qr_scan", "android": "https://dc.lft.to/lastmile_qr_scan"}, "type": "electric_bike", "fusion_lat": 0.0, "lon": -76.98421}, {"fusion_lon": 0.0, "bike_id": "ec27287f80e83582a835fd4bea4a5507", "is_disabled": 0, "is_reserved": 0, "lat": 38.908287, "name": "ec27287f80e83582a835fd4bea4a5507", "rental_uris": {"ios": "https://dc.lft.to/lastmile_qr_scan", "android": "https://dc.lft.to/lastmile_qr_scan"}, "type": "electric_scooter", "fusion_lat": 0.0, "lon": -77.000848}, {"fusion_lon": 0.0, "bike_id": "1e3bc33c9ac92c0fac4e287068659a73", "is_disabled": 0, "is_reserved": 0, "lat": 38.931887833333334, "name": "1e3bc33c9ac92c0fac4e287068659a73", "rental_uris": {"ios": "https://dc.lft.to/lastmile_qr_scan", "android": "https://dc.lft.to/lastmile_qr_scan"}, "type": "electric_scooter", "fusion_lat": 0.0, "lon": -77.03448933333334}, {"fusion_lon": 0.0, "bike_id": "ccace56b5441961fb66e1eaf3b94aad3", "is_disabled": 0, "is_reserved": 0, "lat": 38.91144583333333, "name": "ccace56b5441961fb66e1eaf3b94aad3", "rental_uris": {"ios": "https://dc.lft.to/lastmile_qr_scan", "android": "https://dc.lft.to/lastmile_qr_scan"}, "type": "electric_scooter", "fusion_lat": 0.0, "lon": -77.01076766666667}, {"fusion_lon": 0.0, "bike_id": "bc1a4864959642c482eda2bce070ded2", "is_disabled": 0, "is_reserved": 0, "lat": 38.92055933333333, "name": "bc1a4864959642c482eda2bce070ded2", "rental_uris": {"ios": "https://dc.lft.to/lastmile_qr_scan", "android": "https://dc.lft.to/lastmile_qr_scan"}, "type": "electric_scooter", "fusion_lat": 0.0, "lon": -77.02365866666666}, {"fusion_lon": 0.0, "bike_id": "69c26285df2a3f354f0b6207eb23a60e", "is_disabled": 0, "is_reserved": 0, "lat": 38.98504766666667, "name": "69c26285df2a3f354f0b6207eb23a60e", "rental_uris": {"ios": "https://dc.lft.to/lastmile_qr_scan", "android": "https://dc.lft.to/lastmile_qr_scan"}, "type": "electric_bike", "fusion_lat": 0.0, "lon": -76.98208766666667}, {"fusion_lon": 0.0, "bike_id": "23c9d35b6c4327c13d5062ae68cf3b7f", "is_disabled": 0, "is_reserved": 0, "lat": 38.91806116666667, "name": "23c9d35b6c4327c13d5062ae68cf3b7f", "rental_uris": {"ios": "https://dc.lft.to/lastmile_qr_scan", "android": "https://dc.lft.to/lastmile_qr_scan"}, "type": "electric_scooter", "fusion_lat": 0.0, "lon": -77.04636016666667}, {"fusion_lon": 0.0, "bike_id": "b55dc420dc10ff1beab795a9445fe775", "is_disabled": 0, "is_reserved": 0, "lat": 38.900679333333336, "name": "b55dc420dc10ff1beab795a9445fe775", "rental_uris": {"ios": "https://dc.lft.to/lastmile_qr_scan", "android": "https://dc.lft.to/lastmile_qr_scan"}, "type": "electric_scooter", "fusion_lat": 0.0, "lon": -77.0491325}, {"fusion_lon": 0.0, "bike_id": "70c898e37e0b13a1d4489cc583409124", "is_disabled": 0, "is_reserved": 0, "lat": 38.920631, "name": "70c898e37e0b13a1d4489cc583409124", "rental_uris": {"ios": "https://dc.lft.to/lastmile_qr_scan", "android": "https://dc.lft.to/lastmile_qr_scan"}, "type": "electric_scooter", "fusion_lat": 0.0, "lon": -77.04253616666666}, {"fusion_lon": 0.0, "bike_id": "5aff3a9d44ae1fd4c3510cbed41182d3", "is_disabled": 0, "is_reserved": 0, "lat": 38.91262733333333, "name": "5aff3a9d44ae1fd4c3510cbed41182d3", "rental_uris": {"ios": "https://dc.lft.to/lastmile_qr_scan", "android": "https://dc.lft.to/lastmile_qr_scan"}, "type": "electric_scooter", "fusion_lat": 0.0, "lon": -77.03872683333333}, {"fusion_lon": 0.0, "bike_id": "953de0eaad36e2b2c1ba2304a6803020", "is_disabled": 0, "is_reserved": 0, "lat": 38.80738266666667, "name": "953de0eaad36e2b2c1ba2304a6803020", "rental_uris": {"ios": "https://dc.lft.to/lastmile_qr_scan", "android": "https://dc.lft.to/lastmile_qr_scan"}, "type": "electric_bike", "fusion_lat": 0.0, "lon": -77.09684016666667}, {"fusion_lon": 0.0, "bike_id": "0ef32de29c8704cba3e729aee110644f", "is_disabled": 0, "is_reserved": 0, "lat": 38.940629666666666, "name": "0ef32de29c8704cba3e729aee110644f", "rental_uris": {"ios": "https://dc.lft.to/lastmile_qr_scan", "android": "https://dc.lft.to/lastmile_qr_scan"}, "type": "electric_bike", "fusion_lat": 0.0, "lon": -77.02893483333334}, {"fusion_lon": 0.0, "bike_id": "17abf53eb09f66ce3d9ed6c64f085a54", "is_disabled": 0, "is_reserved": 0, "lat": 38.871756833333336, "name": "17abf53eb09f66ce3d9ed6c64f085a54", "rental_uris": {"ios": "https://dc.lft.to/lastmile_qr_scan", "android": "https://dc.lft.to/lastmile_qr_scan"}, "type": "electric_bike", "fusion_lat": 0.0, "lon": -77.233944}, {"fusion_lon": 0.0, "bike_id": "d1e1b8590d4cd14646e5b538d8aa7a8d", "is_disabled": 0, "is_reserved": 0, "lat": 38.872937666666665, "name": "d1e1b8590d4cd14646e5b538d8aa7a8d", "rental_uris": {"ios": "https://dc.lft.to/lastmile_qr_scan", "android": "https://dc.lft.to/lastmile_qr_scan"}, "type": "electric_scooter", "fusion_lat": 0.0, "lon": -77.01521333333334}, {"fusion_lon": 0.0, "bike_id": "a37349f2950156ce34983a34c7adee47", "is_disabled": 0, "is_reserved": 0, "lat": 38.935289, "name": "a37349f2950156ce34983a34c7adee47", "rental_uris": {"ios": "https://dc.lft.to/lastmile_qr_scan", "android": "https://dc.lft.to/lastmile_qr_scan"}, "type": "electric_bike", "fusion_lat": 0.0, "lon": -77.05690633333333}, {"fusion_lon": 0.0, "bike_id": "89988b452cbe6abc256fb998da180054", "is_disabled": 0, "is_reserved": 0, "lat": 38.91019333333333, "name": "89988b452cbe6abc256fb998da180054", "rental_uris": {"ios": "https://dc.lft.to/lastmile_qr_scan", "android": "https://dc.lft.to/lastmile_qr_scan"}, "type": "electric_scooter", "fusion_lat": 0.0, "lon": -77.052699}, {"fusion_lon": 0.0, "bike_id": "a28c09d4184c83da7aa7afe21388f6e1", "is_disabled": 0, "is_reserved": 0, "lat": 38.9132605, "name": "a28c09d4184c83da7aa7afe21388f6e1", "rental_uris": {"ios": "https://dc.lft.to/lastmile_qr_scan", "android": "https://dc.lft.to/lastmile_qr_scan"}, "type": "electric_scooter", "fusion_lat": 0.0, "lon": -77.01474466666667}, {"fusion_lon": 0.0, "bike_id": "9ffaff5229ceda4de574c02bc72c1d5d", "is_disabled": 0, "is_reserved": 0, "lat": 38.904984666666664, "name": "9ffaff5229ceda4de574c02bc72c1d5d", "rental_uris": {"ios": "https://dc.lft.to/lastmile_qr_scan", "android": "https://dc.lft.to/lastmile_qr_scan"}, "type": "electric_scooter", "fusion_lat": 0.0, "lon": -77.01999966666666}, {"fusion_lon": 0.0, "bike_id": "2fde607c04df005cbca1f43bb3d0f62a", "is_disabled": 0, "is_reserved": 0, "lat": 38.916912833333335, "name": "2fde607c04df005cbca1f43bb3d0f62a", "rental_uris": {"ios": "https://dc.lft.to/lastmile_qr_scan", "android": "https://dc.lft.to/lastmile_qr_scan"}, "type": "electric_scooter", "fusion_lat": 0.0, "lon": -77.01752166666667}, {"fusion_lon": 0.0, "bike_id": "7192e54e3bf184a773e67913de842a0c", "is_disabled": 0, "is_reserved": 0, "lat": 38.93077383333333, "name": "7192e54e3bf184a773e67913de842a0c", "rental_uris": {"ios": "https://dc.lft.to/lastmile_qr_scan", "android": "https://dc.lft.to/lastmile_qr_scan"}, "type": "electric_scooter", "fusion_lat": 0.0, "lon": -77.0216985}, {"fusion_lon": 0.0, "bike_id": "4b793188143b55ff6942e7f3e7f23200", "is_disabled": 0, "is_reserved": 0, "lat": 38.92243083333334, "name": "4b793188143b55ff6942e7f3e7f23200", "rental_uris": {"ios": "https://dc.lft.to/lastmile_qr_scan", "android": "https://dc.lft.to/lastmile_qr_scan"}, "type": "electric_scooter", "fusion_lat": 0.0, "lon": -77.0281295}, {"fusion_lon": 0.0, "bike_id": "7828d85cc540f667fbd71d632f73d73e", "is_disabled": 0, "is_reserved": 0, "lat": 38.921019666666666, "name": "7828d85cc540f667fbd71d632f73d73e", "rental_uris": {"ios": "https://dc.lft.to/lastmile_qr_scan", "android": "https://dc.lft.to/lastmile_qr_scan"}, "type": "electric_scooter", "fusion_lat": 0.0, "lon": -77.08194733333333}, {"fusion_lon": 0.0, "bike_id": "0e60fa511547092701fc47c8ed86daf3", "is_disabled": 0, "is_reserved": 0, "lat": 38.89605233333333, "name": "0e60fa511547092701fc47c8ed86daf3", "rental_uris": {"ios": "https://dc.lft.to/lastmile_qr_scan", "android": "https://dc.lft.to/lastmile_qr_scan"}, "type": "electric_scooter", "fusion_lat": 0.0, "lon": -77.0221955}, {"fusion_lon": 0.0, "bike_id": "e9e200af767c5a2618446ae0f408b88a", "is_disabled": 0, "is_reserved": 0, "lat": 38.942037666666664, "name": "e9e200af767c5a2618446ae0f408b88a", "rental_uris": {"ios": "https://dc.lft.to/lastmile_qr_scan", "android": "https://dc.lft.to/lastmile_qr_scan"}, "type": "electric_scooter", "fusion_lat": 0.0, "lon": -77.02500366666666}, {"fusion_lon": 0.0, "bike_id": "6f53da8b1b2eaa81855c5467fd9d5163", "is_disabled": 0, "is_reserved": 0, "lat": 38.91410416666667, "name": "6f53da8b1b2eaa81855c5467fd9d5163", "rental_uris": {"ios": "https://dc.lft.to/lastmile_qr_scan", "android": "https://dc.lft.to/lastmile_qr_scan"}, "type": "electric_scooter", "fusion_lat": 0.0, "lon": -77.00822966666667}, {"fusion_lon": 0.0, "bike_id": "989444c394444647524e32764b14f172", "is_disabled": 0, "is_reserved": 0, "lat": 38.921704166666665, "name": "989444c394444647524e32764b14f172", "rental_uris": {"ios": "https://dc.lft.to/lastmile_qr_scan", "android": "https://dc.lft.to/lastmile_qr_scan"}, "type": "electric_scooter", "fusion_lat": 0.0, "lon": -77.02111733333334}, {"fusion_lon": 0.0, "bike_id": "ba9890d44566d27011c1bfdcad28981a", "is_disabled": 0, "is_reserved": 0, "lat": 38.887276166666666, "name": "ba9890d44566d27011c1bfdcad28981a", "rental_uris": {"ios": "https://dc.lft.to/lastmile_qr_scan", "android": "https://dc.lft.to/lastmile_qr_scan"}, "type": "electric_scooter", "fusion_lat": 0.0, "lon": -76.98378166666667}, {"fusion_lon": 0.0, "bike_id": "217c91b144484e8e23a1244b180b4652", "is_disabled": 0, "is_reserved": 0, "lat": 38.90794916666667, "name": "217c91b144484e8e23a1244b180b4652", "rental_uris": {"ios": "https://dc.lft.to/lastmile_qr_scan", "android": "https://dc.lft.to/lastmile_qr_scan"}, "type": "electric_scooter", "fusion_lat": 0.0, "lon": -77.0001955}, {"fusion_lon": 0.0, "bike_id": "ef2e338c0aafd933a43b1c5280280401", "is_disabled": 0, "is_reserved": 0, "lat": 38.89326233333333, "name": "ef2e338c0aafd933a43b1c5280280401", "rental_uris": {"ios": "https://dc.lft.to/lastmile_qr_scan", "android": "https://dc.lft.to/lastmile_qr_scan"}, "type": "electric_scooter", "fusion_lat": 0.0, "lon": -77.033755}, {"fusion_lon": 0.0, "bike_id": "08a42ae337b92a70cb86f6a22af6117e", "is_disabled": 0, "is_reserved": 0, "lat": 38.92331716666666, "name": "08a42ae337b92a70cb86f6a22af6117e", "rental_uris": {"ios": "https://dc.lft.to/lastmile_qr_scan", "android": "https://dc.lft.to/lastmile_qr_scan"}, "type": "electric_scooter", "fusion_lat": 0.0, "lon": -77.00892916666666}, {"fusion_lon": 0.0, "bike_id": "9fdc3dfeabbc208d65c8235c489fee3d", "is_disabled": 0, "is_reserved": 0, "lat": 38.90384266666667, "name": "9fdc3dfeabbc208d65c8235c489fee3d", "rental_uris": {"ios": "https://dc.lft.to/lastmile_qr_scan", "android": "https://dc.lft.to/lastmile_qr_scan"}, "type": "electric_scooter", "fusion_lat": 0.0, "lon": -77.05025166666667}, {"fusion_lon": 0.0, "bike_id": "a7113973f73f86956b43f39fe7f853e0", "is_disabled": 0, "is_reserved": 0, "lat": 38.90840216666667, "name": "a7113973f73f86956b43f39fe7f853e0", "rental_uris": {"ios": "https://dc.lft.to/lastmile_qr_scan", "android": "https://dc.lft.to/lastmile_qr_scan"}, "type": "electric_scooter", "fusion_lat": 0.0, "lon": -77.041786}, {"fusion_lon": 0.0, "bike_id": "4e53dd7a444317f5b3b51ce3336686f1", "is_disabled": 0, "is_reserved": 0, "lat": 38.909738, "name": "4e53dd7a444317f5b3b51ce3336686f1", "rental_uris": {"ios": "https://dc.lft.to/lastmile_qr_scan", "android": "https://dc.lft.to/lastmile_qr_scan"}, "type": "electric_scooter", "fusion_lat": 0.0, "lon": -77.00882933333334}, {"fusion_lon": 0.0, "bike_id": "21680cdf681ad8456b386cd7214d44c5", "is_disabled": 0, "is_reserved": 0, "lat": 38.90342833333333, "name": "21680cdf681ad8456b386cd7214d44c5", "rental_uris": {"ios": "https://dc.lft.to/lastmile_qr_scan", "android": "https://dc.lft.to/lastmile_qr_scan"}, "type": "electric_scooter", "fusion_lat": 0.0, "lon": -77.010876}, {"fusion_lon": 0.0, "bike_id": "a47474d96d227b27c3ea66791f4b349b", "is_disabled": 0, "is_reserved": 0, "lat": 38.898408833333335, "name": "a47474d96d227b27c3ea66791f4b349b", "rental_uris": {"ios": "https://dc.lft.to/lastmile_qr_scan", "android": "https://dc.lft.to/lastmile_qr_scan"}, "type": "electric_scooter", "fusion_lat": 0.0, "lon": -77.048057}, {"fusion_lon": 0.0, "bike_id": "ebf014a797a712ebd94f34eaf2c75bc1", "is_disabled": 0, "is_reserved": 0, "lat": 38.9011185, "name": "ebf014a797a712ebd94f34eaf2c75bc1", "rental_uris": {"ios": "https://dc.lft.to/lastmile_qr_scan", "android": "https://dc.lft.to/lastmile_qr_scan"}, "type": "electric_scooter", "fusion_lat": 0.0, "lon": -77.04981916666667}, {"fusion_lon": 0.0, "bike_id": "adb7c48d2f2453a55d2670f42a7e6e2d", "is_disabled": 0, "is_reserved": 0, "lat": 38.8962705, "name": "adb7c48d2f2453a55d2670f42a7e6e2d", "rental_uris": {"ios": "https://dc.lft.to/lastmile_qr_scan", "android": "https://dc.lft.to/lastmile_qr_scan"}, "type": "electric_scooter", "fusion_lat": 0.0, "lon": -77.003461}, {"fusion_lon": 0.0, "bike_id": "f75b6affca70d11a76e4d1998ca27a41", "is_disabled": 0, "is_reserved": 0, "lat": 38.953148, "name": "f75b6affca70d11a76e4d1998ca27a41", "rental_uris": {"ios": "https://dc.lft.to/lastmile_qr_scan", "android": "https://dc.lft.to/lastmile_qr_scan"}, "type": "electric_bike", "fusion_lat": 0.0, "lon": -77.019198}, {"fusion_lon": 0.0, "bike_id": "f5390d2e2c2dc9add40e8acc5dae25af", "is_disabled": 0, "is_reserved": 0, "lat": 38.8896655, "name": "f5390d2e2c2dc9add40e8acc5dae25af", "rental_uris": {"ios": "https://dc.lft.to/lastmile_qr_scan", "android": "https://dc.lft.to/lastmile_qr_scan"}, "type": "electric_scooter", "fusion_lat": 0.0, "lon": -76.92735583333334}, {"fusion_lon": 0.0, "bike_id": "b0c0ff87a327700eefef6986ce0e5c46", "is_disabled": 0, "is_reserved": 0, "lat": 38.925683166666666, "name": "b0c0ff87a327700eefef6986ce0e5c46", "rental_uris": {"ios": "https://dc.lft.to/lastmile_qr_scan", "android": "https://dc.lft.to/lastmile_qr_scan"}, "type": "electric_scooter", "fusion_lat": 0.0, "lon": -77.03772566666666}, {"fusion_lon": 0.0, "bike_id": "29fd8596240a8ed657f9f88d9baeb8b6", "is_disabled": 0, "is_reserved": 0, "lat": 38.9214285, "name": "29fd8596240a8ed657f9f88d9baeb8b6", "rental_uris": {"ios": "https://dc.lft.to/lastmile_qr_scan", "android": "https://dc.lft.to/lastmile_qr_scan"}, "type": "electric_scooter", "fusion_lat": 0.0, "lon": -77.01789466666666}, {"fusion_lon": 0.0, "bike_id": "21bf91f49072404e2b87e6afd81c99d5", "is_disabled": 0, "is_reserved": 0, "lat": 38.91711766666667, "name": "21bf91f49072404e2b87e6afd81c99d5", "rental_uris": {"ios": "https://dc.lft.to/lastmile_qr_scan", "android": "https://dc.lft.to/lastmile_qr_scan"}, "type": "electric_scooter", "fusion_lat": 0.0, "lon": -77.032493}, {"fusion_lon": 0.0, "bike_id": "f906ef4bbe3f39f329e0e0747e367998", "is_disabled": 0, "is_reserved": 0, "lat": 38.898382833333336, "name": "f906ef4bbe3f39f329e0e0747e367998", "rental_uris": {"ios": "https://dc.lft.to/lastmile_qr_scan", "android": "https://dc.lft.to/lastmile_qr_scan"}, "type": "electric_scooter", "fusion_lat": 0.0, "lon": -77.04814633333334}, {"fusion_lon": 0.0, "bike_id": "8db471bf258d73fe32d73ca75ccec9c0", "is_disabled": 0, "is_reserved": 0, "lat": 38.895077666666666, "name": "8db471bf258d73fe32d73ca75ccec9c0", "rental_uris": {"ios": "https://dc.lft.to/lastmile_qr_scan", "android": "https://dc.lft.to/lastmile_qr_scan"}, "type": "electric_scooter", "fusion_lat": 0.0, "lon": -76.9236135}, {"fusion_lon": 0.0, "bike_id": "3366a555a3e6b8a54eb575574a6c2953", "is_disabled": 0, "is_reserved": 0, "lat": 38.895739666666664, "name": "3366a555a3e6b8a54eb575574a6c2953", "rental_uris": {"ios": "https://dc.lft.to/lastmile_qr_scan", "android": "https://dc.lft.to/lastmile_qr_scan"}, "type": "electric_scooter", "fusion_lat": 0.0, "lon": -77.04158833333334}, {"fusion_lon": 0.0, "bike_id": "b02ac9d9df2499f128f683a203995d73", "is_disabled": 0, "is_reserved": 0, "lat": 38.9141435, "name": "b02ac9d9df2499f128f683a203995d73", "rental_uris": {"ios": "https://dc.lft.to/lastmile_qr_scan", "android": "https://dc.lft.to/lastmile_qr_scan"}, "type": "electric_scooter", "fusion_lat": 0.0, "lon": -77.02214083333334}, {"fusion_lon": 0.0, "bike_id": "de2e2ffddd0d7eb357b8c1100b3c0f0e", "is_disabled": 0, "is_reserved": 0, "lat": 38.93388433333333, "name": "de2e2ffddd0d7eb357b8c1100b3c0f0e", "rental_uris": {"ios": "https://dc.lft.to/lastmile_qr_scan", "android": "https://dc.lft.to/lastmile_qr_scan"}, "type": "electric_scooter", "fusion_lat": 0.0, "lon": -77.0274865}, {"fusion_lon": 0.0, "bike_id": "94bb3d108707258dddf8c6a27e659476", "is_disabled": 0, "is_reserved": 0, "lat": 38.91429016666667, "name": "94bb3d108707258dddf8c6a27e659476", "rental_uris": {"ios": "https://dc.lft.to/lastmile_qr_scan", "android": "https://dc.lft.to/lastmile_qr_scan"}, "type": "electric_scooter", "fusion_lat": 0.0, "lon": -77.01804466666667}, {"fusion_lon": 0.0, "bike_id": "bd2faf544cf9c04269a012d7f1f9de0e", "is_disabled": 0, "is_reserved": 0, "lat": 38.84459833333333, "name": "bd2faf544cf9c04269a012d7f1f9de0e", "rental_uris": {"ios": "https://dc.lft.to/lastmile_qr_scan", "android": "https://dc.lft.to/lastmile_qr_scan"}, "type": "electric_bike", "fusion_lat": 0.0, "lon": -77.068259}, {"fusion_lon": 0.0, "bike_id": "917df1de9a9f5b92f38e946557a30567", "is_disabled": 0, "is_reserved": 0, "lat": 38.830364833333334, "name": "917df1de9a9f5b92f38e946557a30567", "rental_uris": {"ios": "https://dc.lft.to/lastmile_qr_scan", "android": "https://dc.lft.to/lastmile_qr_scan"}, "type": "electric_bike", "fusion_lat": 0.0, "lon": -77.00835283333333}, {"fusion_lon": 0.0, "bike_id": "947c1ebd1e25a4bb74a48f6da2d518fe", "is_disabled": 0, "is_reserved": 0, "lat": 38.91845216666667, "name": "947c1ebd1e25a4bb74a48f6da2d518fe", "rental_uris": {"ios": "https://dc.lft.to/lastmile_qr_scan", "android": "https://dc.lft.to/lastmile_qr_scan"}, "type": "electric_scooter", "fusion_lat": 0.0, "lon": -77.03203783333333}, {"fusion_lon": 0.0, "bike_id": "f206a9814723f920ee90f897be42a4c3", "is_disabled": 0, "is_reserved": 0, "lat": 38.87640716666667, "name": "f206a9814723f920ee90f897be42a4c3", "rental_uris": {"ios": "https://dc.lft.to/lastmile_qr_scan", "android": "https://dc.lft.to/lastmile_qr_scan"}, "type": "electric_bike", "fusion_lat": 0.0, "lon": -77.003695}, {"fusion_lon": 0.0, "bike_id": "ca4b3fceb20c223bf7e0b9ce46919b19", "is_disabled": 0, "is_reserved": 0, "lat": 38.921697333333334, "name": "ca4b3fceb20c223bf7e0b9ce46919b19", "rental_uris": {"ios": "https://dc.lft.to/lastmile_qr_scan", "android": "https://dc.lft.to/lastmile_qr_scan"}, "type": "electric_scooter", "fusion_lat": 0.0, "lon": -77.03183633333333}, {"fusion_lon": 0.0, "bike_id": "728100f4010c55336b6727dee56cfc7b", "is_disabled": 0, "is_reserved": 0, "lat": 38.905609, "name": "728100f4010c55336b6727dee56cfc7b", "rental_uris": {"ios": "https://dc.lft.to/lastmile_qr_scan", "android": "https://dc.lft.to/lastmile_qr_scan"}, "type": "electric_scooter", "fusion_lat": 0.0, "lon": -77.00575766666667}, {"fusion_lon": 0.0, "bike_id": "1bae9212d28525a434767c04e6d5ea4d", "is_disabled": 0, "is_reserved": 0, "lat": 38.93120183333333, "name": "1bae9212d28525a434767c04e6d5ea4d", "rental_uris": {"ios": "https://dc.lft.to/lastmile_qr_scan", "android": "https://dc.lft.to/lastmile_qr_scan"}, "type": "electric_scooter", "fusion_lat": 0.0, "lon": -77.02097883333333}, {"fusion_lon": 0.0, "bike_id": "c9807a9fe907c98a9ef1533a8b22f8c6", "is_disabled": 0, "is_reserved": 0, "lat": 38.89910416666667, "name": "c9807a9fe907c98a9ef1533a8b22f8c6", "rental_uris": {"ios": "https://dc.lft.to/lastmile_qr_scan", "android": "https://dc.lft.to/lastmile_qr_scan"}, "type": "electric_scooter", "fusion_lat": 0.0, "lon": -76.933927}, {"fusion_lon": 0.0, "bike_id": "26af511be3ef5709f806b082a28ab363", "is_disabled": 0, "is_reserved": 0, "lat": 38.9170985, "name": "26af511be3ef5709f806b082a28ab363", "rental_uris": {"ios": "https://dc.lft.to/lastmile_qr_scan", "android": "https://dc.lft.to/lastmile_qr_scan"}, "type": "electric_scooter", "fusion_lat": 0.0, "lon": -77.03128816666667}, {"fusion_lon": 0.0, "bike_id": "52be357fcc4ec54294cc3005729ab7d6", "is_disabled": 0, "is_reserved": 0, "lat": 38.91253183333333, "name": "52be357fcc4ec54294cc3005729ab7d6", "rental_uris": {"ios": "https://dc.lft.to/lastmile_qr_scan", "android": "https://dc.lft.to/lastmile_qr_scan"}, "type": "electric_scooter", "fusion_lat": 0.0, "lon": -77.04766316666667}, {"fusion_lon": 0.0, "bike_id": "d84d892088fce4bfc7520b820416f671", "is_disabled": 0, "is_reserved": 0, "lat": 38.922903, "name": "d84d892088fce4bfc7520b820416f671", "rental_uris": {"ios": "https://dc.lft.to/lastmile_qr_scan", "android": "https://dc.lft.to/lastmile_qr_scan"}, "type": "electric_scooter", "fusion_lat": 0.0, "lon": -77.03661033333333}, {"fusion_lon": 0.0, "bike_id": "c7efdf2ed3ca0ac60c0d49607e186a1a", "is_disabled": 0, "is_reserved": 0, "lat": 38.91369783333333, "name": "c7efdf2ed3ca0ac60c0d49607e186a1a", "rental_uris": {"ios": "https://dc.lft.to/lastmile_qr_scan", "android": "https://dc.lft.to/lastmile_qr_scan"}, "type": "electric_scooter", "fusion_lat": 0.0, "lon": -77.02054166666667}, {"fusion_lon": 0.0, "bike_id": "aaad312ee84a03cde755ee0cd59034c9", "is_disabled": 0, "is_reserved": 0, "lat": 38.8046285, "name": "aaad312ee84a03cde755ee0cd59034c9", "rental_uris": {"ios": "https://dc.lft.to/lastmile_qr_scan", "android": "https://dc.lft.to/lastmile_qr_scan"}, "type": "electric_bike", "fusion_lat": 0.0, "lon": -77.06078316666667}, {"fusion_lon": 0.0, "bike_id": "c01e4bd137673c228644492dd5fa0ca3", "is_disabled": 0, "is_reserved": 0, "lat": 38.892548, "name": "c01e4bd137673c228644492dd5fa0ca3", "rental_uris": {"ios": "https://dc.lft.to/lastmile_qr_scan", "android": "https://dc.lft.to/lastmile_qr_scan"}, "type": "electric_scooter", "fusion_lat": 0.0, "lon": -77.0450085}, {"fusion_lon": 0.0, "bike_id": "cb0a73c7013687caf28b96a40a8a6305", "is_disabled": 0, "is_reserved": 0, "lat": 38.93108483333334, "name": "cb0a73c7013687caf28b96a40a8a6305", "rental_uris": {"ios": "https://dc.lft.to/lastmile_qr_scan", "android": "https://dc.lft.to/lastmile_qr_scan"}, "type": "electric_scooter", "fusion_lat": 0.0, "lon": -77.021298}, {"fusion_lon": 0.0, "bike_id": "3043e50ba048dd53cc3dc2cfd48e6c69", "is_disabled": 0, "is_reserved": 0, "lat": 38.946360166666665, "name": "3043e50ba048dd53cc3dc2cfd48e6c69", "rental_uris": {"ios": "https://dc.lft.to/lastmile_qr_scan", "android": "https://dc.lft.to/lastmile_qr_scan"}, "type": "electric_bike", "fusion_lat": 0.0, "lon": -76.9931035}, {"fusion_lon": 0.0, "bike_id": "0b308bb824c7eeb863ccc6937b2eb413", "is_disabled": 0, "is_reserved": 0, "lat": 38.964912, "name": "0b308bb824c7eeb863ccc6937b2eb413", "rental_uris": {"ios": "https://dc.lft.to/lastmile_qr_scan", "android": "https://dc.lft.to/lastmile_qr_scan"}, "type": "electric_bike", "fusion_lat": 0.0, "lon": -77.02857166666666}, {"fusion_lon": 0.0, "bike_id": "a1d81ab1f63480f2c1290bef8e090c87", "is_disabled": 0, "is_reserved": 0, "lat": 38.917841333333335, "name": "a1d81ab1f63480f2c1290bef8e090c87", "rental_uris": {"ios": "https://dc.lft.to/lastmile_qr_scan", "android": "https://dc.lft.to/lastmile_qr_scan"}, "type": "electric_scooter", "fusion_lat": 0.0, "lon": -77.04753916666667}, {"fusion_lon": 0.0, "bike_id": "654ac0c393193d2d0d9cf9f816a700c8", "is_disabled": 0, "is_reserved": 0, "lat": 38.89959316666667, "name": "654ac0c393193d2d0d9cf9f816a700c8", "rental_uris": {"ios": "https://dc.lft.to/lastmile_qr_scan", "android": "https://dc.lft.to/lastmile_qr_scan"}, "type": "electric_scooter", "fusion_lat": 0.0, "lon": -77.04511366666667}, {"fusion_lon": 0.0, "bike_id": "c86c3b0d5aace5a46639930b65678ea2", "is_disabled": 0, "is_reserved": 0, "lat": 38.90341683333333, "name": "c86c3b0d5aace5a46639930b65678ea2", "rental_uris": {"ios": "https://dc.lft.to/lastmile_qr_scan", "android": "https://dc.lft.to/lastmile_qr_scan"}, "type": "electric_scooter", "fusion_lat": 0.0, "lon": -77.0494255}, {"fusion_lon": 0.0, "bike_id": "0c46f3e41579b604d6d4b11594a4b175", "is_disabled": 0, "is_reserved": 0, "lat": 38.916546833333335, "name": "0c46f3e41579b604d6d4b11594a4b175", "rental_uris": {"ios": "https://dc.lft.to/lastmile_qr_scan", "android": "https://dc.lft.to/lastmile_qr_scan"}, "type": "electric_scooter", "fusion_lat": 0.0, "lon": -77.010239}, {"fusion_lon": 0.0, "bike_id": "3d1b8e1f66c0173f74354dc1111f847c", "is_disabled": 0, "is_reserved": 0, "lat": 38.92367466666666, "name": "3d1b8e1f66c0173f74354dc1111f847c", "rental_uris": {"ios": "https://dc.lft.to/lastmile_qr_scan", "android": "https://dc.lft.to/lastmile_qr_scan"}, "type": "electric_scooter", "fusion_lat": 0.0, "lon": -77.01954516666666}, {"fusion_lon": 0.0, "bike_id": "39cdcbcf860c9986076d6d97a59dc977", "is_disabled": 0, "is_reserved": 0, "lat": 38.91924433333333, "name": "39cdcbcf860c9986076d6d97a59dc977", "rental_uris": {"ios": "https://dc.lft.to/lastmile_qr_scan", "android": "https://dc.lft.to/lastmile_qr_scan"}, "type": "electric_scooter", "fusion_lat": 0.0, "lon": -77.0341705}, {"fusion_lon": 0.0, "bike_id": "b7e88397d3b10ab176609a33b5665110", "is_disabled": 0, "is_reserved": 0, "lat": 38.923392666666665, "name": "b7e88397d3b10ab176609a33b5665110", "rental_uris": {"ios": "https://dc.lft.to/lastmile_qr_scan", "android": "https://dc.lft.to/lastmile_qr_scan"}, "type": "electric_scooter", "fusion_lat": 0.0, "lon": -77.0213175}, {"fusion_lon": 0.0, "bike_id": "3213fbaa5940f5ab9b30ac4fb3fe9813", "is_disabled": 0, "is_reserved": 0, "lat": 38.9133915, "name": "3213fbaa5940f5ab9b30ac4fb3fe9813", "rental_uris": {"ios": "https://dc.lft.to/lastmile_qr_scan", "android": "https://dc.lft.to/lastmile_qr_scan"}, "type": "electric_scooter", "fusion_lat": 0.0, "lon": -77.00332066666667}, {"fusion_lon": 0.0, "bike_id": "44a91dc8dfce0732b13c9305098421a0", "is_disabled": 0, "is_reserved": 0, "lat": 38.81939833333333, "name": "44a91dc8dfce0732b13c9305098421a0", "rental_uris": {"ios": "https://dc.lft.to/lastmile_qr_scan", "android": "https://dc.lft.to/lastmile_qr_scan"}, "type": "electric_bike", "fusion_lat": 0.0, "lon": -77.0020195}, {"fusion_lon": 0.0, "bike_id": "c207ab39024f9f9b70f17071d9ac4c5b", "is_disabled": 0, "is_reserved": 0, "lat": 38.8998795, "name": "c207ab39024f9f9b70f17071d9ac4c5b", "rental_uris": {"ios": "https://dc.lft.to/lastmile_qr_scan", "android": "https://dc.lft.to/lastmile_qr_scan"}, "type": "electric_scooter", "fusion_lat": 0.0, "lon": -77.026589}, {"fusion_lon": 0.0, "bike_id": "55822db5272a29ae4281f979a33db349", "is_disabled": 0, "is_reserved": 0, "lat": 38.9038415, "name": "55822db5272a29ae4281f979a33db349", "rental_uris": {"ios": "https://dc.lft.to/lastmile_qr_scan", "android": "https://dc.lft.to/lastmile_qr_scan"}, "type": "electric_scooter", "fusion_lat": 0.0, "lon": -77.04835383333334}, {"fusion_lon": 0.0, "bike_id": "1889f27322276a609e5b6d8788d402c1", "is_disabled": 0, "is_reserved": 0, "lat": 38.915435333333335, "name": "1889f27322276a609e5b6d8788d402c1", "rental_uris": {"ios": "https://dc.lft.to/lastmile_qr_scan", "android": "https://dc.lft.to/lastmile_qr_scan"}, "type": "electric_scooter", "fusion_lat": 0.0, "lon": -77.044255}, {"fusion_lon": 0.0, "bike_id": "af3ab2edbd8e829d40a28fd87b41771e", "is_disabled": 0, "is_reserved": 0, "lat": 38.932101833333334, "name": "af3ab2edbd8e829d40a28fd87b41771e", "rental_uris": {"ios": "https://dc.lft.to/lastmile_qr_scan", "android": "https://dc.lft.to/lastmile_qr_scan"}, "type": "electric_scooter", "fusion_lat": 0.0, "lon": -77.01878683333334}, {"fusion_lon": 0.0, "bike_id": "072187205d04673cbe99da1f94df06dd", "is_disabled": 0, "is_reserved": 0, "lat": 38.89025766666666, "name": "072187205d04673cbe99da1f94df06dd", "rental_uris": {"ios": "https://dc.lft.to/lastmile_qr_scan", "android": "https://dc.lft.to/lastmile_qr_scan"}, "type": "electric_scooter", "fusion_lat": 0.0, "lon": -76.9446495}, {"fusion_lon": 0.0, "bike_id": "ade18ffb3da696eef9d030f77deb84e7", "is_disabled": 0, "is_reserved": 0, "lat": 38.90210733333333, "name": "ade18ffb3da696eef9d030f77deb84e7", "rental_uris": {"ios": "https://dc.lft.to/lastmile_qr_scan", "android": "https://dc.lft.to/lastmile_qr_scan"}, "type": "electric_scooter", "fusion_lat": 0.0, "lon": -77.04816366666667}, {"fusion_lon": 0.0, "bike_id": "ecce02d2272a72bd74ceab200962fef2", "is_disabled": 0, "is_reserved": 0, "lat": 38.9261655, "name": "ecce02d2272a72bd74ceab200962fef2", "rental_uris": {"ios": "https://dc.lft.to/lastmile_qr_scan", "android": "https://dc.lft.to/lastmile_qr_scan"}, "type": "electric_scooter", "fusion_lat": 0.0, "lon": -77.02161166666667}, {"fusion_lon": 0.0, "bike_id": "e09bc81618c1ba2776eea6d96737d781", "is_disabled": 0, "is_reserved": 0, "lat": 38.91676916666667, "name": "e09bc81618c1ba2776eea6d96737d781", "rental_uris": {"ios": "https://dc.lft.to/lastmile_qr_scan", "android": "https://dc.lft.to/lastmile_qr_scan"}, "type": "electric_scooter", "fusion_lat": 0.0, "lon": -77.02611083333333}, {"fusion_lon": 0.0, "bike_id": "d96135cd94c047009444d314b2ec4b96", "is_disabled": 0, "is_reserved": 0, "lat": 38.914709, "name": "d96135cd94c047009444d314b2ec4b96", "rental_uris": {"ios": "https://dc.lft.to/lastmile_qr_scan", "android": "https://dc.lft.to/lastmile_qr_scan"}, "type": "electric_scooter", "fusion_lat": 0.0, "lon": -77.00213216666667}, {"fusion_lon": 0.0, "bike_id": "96fa606e86ed1c911bcb8c0b9645bd2a", "is_disabled": 0, "is_reserved": 0, "lat": 38.88121366666667, "name": "96fa606e86ed1c911bcb8c0b9645bd2a", "rental_uris": {"ios": "https://dc.lft.to/lastmile_qr_scan", "android": "https://dc.lft.to/lastmile_qr_scan"}, "type": "electric_scooter", "fusion_lat": 0.0, "lon": -77.016424}, {"fusion_lon": 0.0, "bike_id": "babdcaad0c0dab5157927ed7c28c0c0a", "is_disabled": 0, "is_reserved": 0, "lat": 38.90683033333333, "name": "babdcaad0c0dab5157927ed7c28c0c0a", "rental_uris": {"ios": "https://dc.lft.to/lastmile_qr_scan", "android": "https://dc.lft.to/lastmile_qr_scan"}, "type": "electric_scooter", "fusion_lat": 0.0, "lon": -77.07190533333333}, {"fusion_lon": 0.0, "bike_id": "c707400d6dec2f7698c8ccdf72fdb15b", "is_disabled": 0, "is_reserved": 0, "lat": 38.91410166666667, "name": "c707400d6dec2f7698c8ccdf72fdb15b", "rental_uris": {"ios": "https://dc.lft.to/lastmile_qr_scan", "android": "https://dc.lft.to/lastmile_qr_scan"}, "type": "electric_scooter", "fusion_lat": 0.0, "lon": -77.01073383333333}, {"fusion_lon": 0.0, "bike_id": "6bb21f72bdd72eb027768a6330ef6393", "is_disabled": 0, "is_reserved": 0, "lat": 38.892203, "name": "6bb21f72bdd72eb027768a6330ef6393", "rental_uris": {"ios": "https://dc.lft.to/lastmile_qr_scan", "android": "https://dc.lft.to/lastmile_qr_scan"}, "type": "electric_scooter", "fusion_lat": 0.0, "lon": -77.0487855}, {"fusion_lon": 0.0, "bike_id": "695c8efc9abbeebfc480286317872c2e", "is_disabled": 0, "is_reserved": 0, "lat": 38.901659333333335, "name": "695c8efc9abbeebfc480286317872c2e", "rental_uris": {"ios": "https://dc.lft.to/lastmile_qr_scan", "android": "https://dc.lft.to/lastmile_qr_scan"}, "type": "electric_scooter", "fusion_lat": 0.0, "lon": -77.03453783333333}, {"fusion_lon": 0.0, "bike_id": "a8a0b50101b91d49d972441815ad7942", "is_disabled": 0, "is_reserved": 0, "lat": 38.909079166666665, "name": "a8a0b50101b91d49d972441815ad7942", "rental_uris": {"ios": "https://dc.lft.to/lastmile_qr_scan", "android": "https://dc.lft.to/lastmile_qr_scan"}, "type": "electric_scooter", "fusion_lat": 0.0, "lon": -76.9978285}, {"fusion_lon": 0.0, "bike_id": "20b0ff21f2f603b3ce25b557383d99d5", "is_disabled": 0, "is_reserved": 0, "lat": 38.91294, "name": "20b0ff21f2f603b3ce25b557383d99d5", "rental_uris": {"ios": "https://dc.lft.to/lastmile_qr_scan", "android": "https://dc.lft.to/lastmile_qr_scan"}, "type": "electric_scooter", "fusion_lat": 0.0, "lon": -76.9869785}, {"fusion_lon": 0.0, "bike_id": "d59e22201f636109757162fdc65e5e58", "is_disabled": 0, "is_reserved": 0, "lat": 38.90683933333333, "name": "d59e22201f636109757162fdc65e5e58", "rental_uris": {"ios": "https://dc.lft.to/lastmile_qr_scan", "android": "https://dc.lft.to/lastmile_qr_scan"}, "type": "electric_scooter", "fusion_lat": 0.0, "lon": -77.06263416666667}, {"fusion_lon": 0.0, "bike_id": "b7744c9b3d9be51dc0325f5f67b2a94f", "is_disabled": 0, "is_reserved": 0, "lat": 38.84611533333333, "name": "b7744c9b3d9be51dc0325f5f67b2a94f", "rental_uris": {"ios": "https://dc.lft.to/lastmile_qr_scan", "android": "https://dc.lft.to/lastmile_qr_scan"}, "type": "electric_bike", "fusion_lat": 0.0, "lon": -76.978206}, {"fusion_lon": 0.0, "bike_id": "39bea21476b1487354cb24848ca3cf3c", "is_disabled": 0, "is_reserved": 0, "lat": 38.91027583333333, "name": "39bea21476b1487354cb24848ca3cf3c", "rental_uris": {"ios": "https://dc.lft.to/lastmile_qr_scan", "android": "https://dc.lft.to/lastmile_qr_scan"}, "type": "electric_scooter", "fusion_lat": 0.0, "lon": -77.02943716666667}, {"fusion_lon": 0.0, "bike_id": "dba8da4ef7788d42a3a545e993a8bdde", "is_disabled": 0, "is_reserved": 0, "lat": 38.91426766666667, "name": "dba8da4ef7788d42a3a545e993a8bdde", "rental_uris": {"ios": "https://dc.lft.to/lastmile_qr_scan", "android": "https://dc.lft.to/lastmile_qr_scan"}, "type": "electric_scooter", "fusion_lat": 0.0, "lon": -77.06696966666667}, {"fusion_lon": 0.0, "bike_id": "cbf4060901c0d3d9592c1f7ba521ff76", "is_disabled": 0, "is_reserved": 0, "lat": 38.91470916666667, "name": "cbf4060901c0d3d9592c1f7ba521ff76", "rental_uris": {"ios": "https://dc.lft.to/lastmile_qr_scan", "android": "https://dc.lft.to/lastmile_qr_scan"}, "type": "electric_scooter", "fusion_lat": 0.0, "lon": -77.00208583333334}, {"fusion_lon": 0.0, "bike_id": "65ebe12ba90c7649a9fa8c7fc57634f1", "is_disabled": 0, "is_reserved": 0, "lat": 38.92247783333333, "name": "65ebe12ba90c7649a9fa8c7fc57634f1", "rental_uris": {"ios": "https://dc.lft.to/lastmile_qr_scan", "android": "https://dc.lft.to/lastmile_qr_scan"}, "type": "electric_scooter", "fusion_lat": 0.0, "lon": -77.030856}, {"fusion_lon": 0.0, "bike_id": "c237249846b8f9bedcdf3239bbc10f91", "is_disabled": 0, "is_reserved": 0, "lat": 38.918817833333335, "name": "c237249846b8f9bedcdf3239bbc10f91", "rental_uris": {"ios": "https://dc.lft.to/lastmile_qr_scan", "android": "https://dc.lft.to/lastmile_qr_scan"}, "type": "electric_scooter", "fusion_lat": 0.0, "lon": -77.03738933333334}, {"fusion_lon": 0.0, "bike_id": "15e5c3e2570b3c2f8cc133bc20a90db4", "is_disabled": 0, "is_reserved": 0, "lat": 38.917123333333336, "name": "15e5c3e2570b3c2f8cc133bc20a90db4", "rental_uris": {"ios": "https://dc.lft.to/lastmile_qr_scan", "android": "https://dc.lft.to/lastmile_qr_scan"}, "type": "electric_scooter", "fusion_lat": 0.0, "lon": -77.01106383333334}, {"fusion_lon": 0.0, "bike_id": "7ba46cb19b403a333cb5f3621ecef5ae", "is_disabled": 0, "is_reserved": 0, "lat": 38.9247015, "name": "7ba46cb19b403a333cb5f3621ecef5ae", "rental_uris": {"ios": "https://dc.lft.to/lastmile_qr_scan", "android": "https://dc.lft.to/lastmile_qr_scan"}, "type": "electric_scooter", "fusion_lat": 0.0, "lon": -77.03054}, {"fusion_lon": 0.0, "bike_id": "673e2ad2890c40d1c76ab4df79a3ef74", "is_disabled": 0, "is_reserved": 0, "lat": 38.92744183333333, "name": "673e2ad2890c40d1c76ab4df79a3ef74", "rental_uris": {"ios": "https://dc.lft.to/lastmile_qr_scan", "android": "https://dc.lft.to/lastmile_qr_scan"}, "type": "electric_scooter", "fusion_lat": 0.0, "lon": -77.03563533333333}, {"fusion_lon": 0.0, "bike_id": "58320b0ec4cd5543e5154795309e4e0a", "is_disabled": 0, "is_reserved": 0, "lat": 38.94977466666667, "name": "58320b0ec4cd5543e5154795309e4e0a", "rental_uris": {"ios": "https://dc.lft.to/lastmile_qr_scan", "android": "https://dc.lft.to/lastmile_qr_scan"}, "type": "electric_scooter", "fusion_lat": 0.0, "lon": -77.02448066666666}, {"fusion_lon": 0.0, "bike_id": "32110d739e21907a0c6f72d9efb74027", "is_disabled": 0, "is_reserved": 0, "lat": 38.8973235, "name": "32110d739e21907a0c6f72d9efb74027", "rental_uris": {"ios": "https://dc.lft.to/lastmile_qr_scan", "android": "https://dc.lft.to/lastmile_qr_scan"}, "type": "electric_scooter", "fusion_lat": 0.0, "lon": -76.925862}, {"fusion_lon": 0.0, "bike_id": "371974e334f8505d0dcb65788fef6bb9", "is_disabled": 0, "is_reserved": 0, "lat": 38.903944333333335, "name": "371974e334f8505d0dcb65788fef6bb9", "rental_uris": {"ios": "https://dc.lft.to/lastmile_qr_scan", "android": "https://dc.lft.to/lastmile_qr_scan"}, "type": "electric_scooter", "fusion_lat": 0.0, "lon": -77.04245066666667}, {"fusion_lon": 0.0, "bike_id": "81e989405dc8f75c886a4d0696ff32c1", "is_disabled": 0, "is_reserved": 0, "lat": 38.918194, "name": "81e989405dc8f75c886a4d0696ff32c1", "rental_uris": {"ios": "https://dc.lft.to/lastmile_qr_scan", "android": "https://dc.lft.to/lastmile_qr_scan"}, "type": "electric_scooter", "fusion_lat": 0.0, "lon": -77.02528433333333}, {"fusion_lon": 0.0, "bike_id": "025cd7d92c3b98438a8474aa4f8a672b", "is_disabled": 0, "is_reserved": 0, "lat": 38.928607666666664, "name": "025cd7d92c3b98438a8474aa4f8a672b", "rental_uris": {"ios": "https://dc.lft.to/lastmile_qr_scan", "android": "https://dc.lft.to/lastmile_qr_scan"}, "type": "electric_scooter", "fusion_lat": 0.0, "lon": -77.01393116666667}, {"fusion_lon": 0.0, "bike_id": "e73ee068b5ef13ce43e41a4ca8e95bcf", "is_disabled": 0, "is_reserved": 0, "lat": 38.88239766666667, "name": "e73ee068b5ef13ce43e41a4ca8e95bcf", "rental_uris": {"ios": "https://dc.lft.to/lastmile_qr_scan", "android": "https://dc.lft.to/lastmile_qr_scan"}, "type": "electric_scooter", "fusion_lat": 0.0, "lon": -76.93334416666667}, {"fusion_lon": 0.0, "bike_id": "b6456325263345a6a2fd25674523353d", "is_disabled": 0, "is_reserved": 0, "lat": 38.92978466666667, "name": "b6456325263345a6a2fd25674523353d", "rental_uris": {"ios": "https://dc.lft.to/lastmile_qr_scan", "android": "https://dc.lft.to/lastmile_qr_scan"}, "type": "electric_scooter", "fusion_lat": 0.0, "lon": -77.016498}, {"fusion_lon": 0.0, "bike_id": "19729c9fa8bd5ac8b37a0b7e2de37b2a", "is_disabled": 0, "is_reserved": 0, "lat": 38.91867583333333, "name": "19729c9fa8bd5ac8b37a0b7e2de37b2a", "rental_uris": {"ios": "https://dc.lft.to/lastmile_qr_scan", "android": "https://dc.lft.to/lastmile_qr_scan"}, "type": "electric_scooter", "fusion_lat": 0.0, "lon": -77.04157633333334}, {"fusion_lon": 0.0, "bike_id": "3d267ada2ac9a0e08fd87e692eb86b2f", "is_disabled": 0, "is_reserved": 0, "lat": 38.87243933333333, "name": "3d267ada2ac9a0e08fd87e692eb86b2f", "rental_uris": {"ios": "https://dc.lft.to/lastmile_qr_scan", "android": "https://dc.lft.to/lastmile_qr_scan"}, "type": "electric_scooter", "fusion_lat": 0.0, "lon": -76.97728083333334}, {"fusion_lon": 0.0, "bike_id": "023c9e2c9b8b05027e7bfb344c5096c2", "is_disabled": 0, "is_reserved": 0, "lat": 38.896286333333336, "name": "023c9e2c9b8b05027e7bfb344c5096c2", "rental_uris": {"ios": "https://dc.lft.to/lastmile_qr_scan", "android": "https://dc.lft.to/lastmile_qr_scan"}, "type": "electric_scooter", "fusion_lat": 0.0, "lon": -76.99857383333334}, {"fusion_lon": 0.0, "bike_id": "e9c92ae8368c58b8b807042b20658303", "is_disabled": 0, "is_reserved": 0, "lat": 38.90414466666667, "name": "e9c92ae8368c58b8b807042b20658303", "rental_uris": {"ios": "https://dc.lft.to/lastmile_qr_scan", "android": "https://dc.lft.to/lastmile_qr_scan"}, "type": "electric_scooter", "fusion_lat": 0.0, "lon": -77.05323383333334}, {"fusion_lon": 0.0, "bike_id": "f281aee3d855cf59ce78cde9c4a3fc28", "is_disabled": 0, "is_reserved": 0, "lat": 38.89367933333333, "name": "f281aee3d855cf59ce78cde9c4a3fc28", "rental_uris": {"ios": "https://dc.lft.to/lastmile_qr_scan", "android": "https://dc.lft.to/lastmile_qr_scan"}, "type": "electric_scooter", "fusion_lat": 0.0, "lon": -77.02053966666666}, {"fusion_lon": 0.0, "bike_id": "6fb131e0a674ec913b9032b3bb7af2e8", "is_disabled": 0, "is_reserved": 0, "lat": 38.89845716666667, "name": "6fb131e0a674ec913b9032b3bb7af2e8", "rental_uris": {"ios": "https://dc.lft.to/lastmile_qr_scan", "android": "https://dc.lft.to/lastmile_qr_scan"}, "type": "electric_scooter", "fusion_lat": 0.0, "lon": -77.02280633333334}, {"fusion_lon": 0.0, "bike_id": "db6ead403e60929f62ab8c9dc5841595", "is_disabled": 0, "is_reserved": 0, "lat": 38.935809166666665, "name": "db6ead403e60929f62ab8c9dc5841595", "rental_uris": {"ios": "https://dc.lft.to/lastmile_qr_scan", "android": "https://dc.lft.to/lastmile_qr_scan"}, "type": "electric_scooter", "fusion_lat": 0.0, "lon": -77.07426816666667}, {"fusion_lon": 0.0, "bike_id": "04f704c9e5c3b71ff9e29894f43a9076", "is_disabled": 0, "is_reserved": 0, "lat": 38.898528166666665, "name": "04f704c9e5c3b71ff9e29894f43a9076", "rental_uris": {"ios": "https://dc.lft.to/lastmile_qr_scan", "android": "https://dc.lft.to/lastmile_qr_scan"}, "type": "electric_scooter", "fusion_lat": 0.0, "lon": -76.93207933333333}, {"fusion_lon": 0.0, "bike_id": "ce8ecae98fbc3dc3675c5cebe0a33638", "is_disabled": 0, "is_reserved": 0, "lat": 38.903747, "name": "ce8ecae98fbc3dc3675c5cebe0a33638", "rental_uris": {"ios": "https://dc.lft.to/lastmile_qr_scan", "android": "https://dc.lft.to/lastmile_qr_scan"}, "type": "electric_scooter", "fusion_lat": 0.0, "lon": -77.01769916666667}, {"fusion_lon": 0.0, "bike_id": "8f6524c19f3fa8a5dce62df0e940ea22", "is_disabled": 0, "is_reserved": 0, "lat": 38.92418283333333, "name": "8f6524c19f3fa8a5dce62df0e940ea22", "rental_uris": {"ios": "https://dc.lft.to/lastmile_qr_scan", "android": "https://dc.lft.to/lastmile_qr_scan"}, "type": "electric_scooter", "fusion_lat": 0.0, "lon": -77.02036383333333}, {"fusion_lon": 0.0, "bike_id": "fc0e839d2a59942d31a98600818391f1", "is_disabled": 0, "is_reserved": 0, "lat": 38.91929, "name": "fc0e839d2a59942d31a98600818391f1", "rental_uris": {"ios": "https://dc.lft.to/lastmile_qr_scan", "android": "https://dc.lft.to/lastmile_qr_scan"}, "type": "electric_scooter", "fusion_lat": 0.0, "lon": -77.0178705}, {"fusion_lon": 0.0, "bike_id": "c1932321a3b222cd710fe9f530a74f9c", "is_disabled": 0, "is_reserved": 0, "lat": 38.922892, "name": "c1932321a3b222cd710fe9f530a74f9c", "rental_uris": {"ios": "https://dc.lft.to/lastmile_qr_scan", "android": "https://dc.lft.to/lastmile_qr_scan"}, "type": "electric_scooter", "fusion_lat": 0.0, "lon": -77.022465}, {"fusion_lon": 0.0, "bike_id": "8d19a59d61e5b0c05ec69c5c30edf5fd", "is_disabled": 0, "is_reserved": 0, "lat": 38.887147166666665, "name": "8d19a59d61e5b0c05ec69c5c30edf5fd", "rental_uris": {"ios": "https://dc.lft.to/lastmile_qr_scan", "android": "https://dc.lft.to/lastmile_qr_scan"}, "type": "electric_scooter", "fusion_lat": 0.0, "lon": -76.9838645}, {"fusion_lon": 0.0, "bike_id": "25f9283da9589162b6a262f4398b5711", "is_disabled": 0, "is_reserved": 0, "lat": 38.924743, "name": "25f9283da9589162b6a262f4398b5711", "rental_uris": {"ios": "https://dc.lft.to/lastmile_qr_scan", "android": "https://dc.lft.to/lastmile_qr_scan"}, "type": "electric_scooter", "fusion_lat": 0.0, "lon": -77.0221685}, {"fusion_lon": 0.0, "bike_id": "41d9ae9c7a7f60b8618e2139be593dbc", "is_disabled": 0, "is_reserved": 0, "lat": 38.91371483333333, "name": "41d9ae9c7a7f60b8618e2139be593dbc", "rental_uris": {"ios": "https://dc.lft.to/lastmile_qr_scan", "android": "https://dc.lft.to/lastmile_qr_scan"}, "type": "electric_scooter", "fusion_lat": 0.0, "lon": -77.04472383333334}, {"fusion_lon": 0.0, "bike_id": "f0c596319f4cfd24b497e431a4388637", "is_disabled": 0, "is_reserved": 0, "lat": 38.919237833333334, "name": "f0c596319f4cfd24b497e431a4388637", "rental_uris": {"ios": "https://dc.lft.to/lastmile_qr_scan", "android": "https://dc.lft.to/lastmile_qr_scan"}, "type": "electric_scooter", "fusion_lat": 0.0, "lon": -77.08063166666666}, {"fusion_lon": 0.0, "bike_id": "80ea9a21b9673b3983adf02661154ea4", "is_disabled": 0, "is_reserved": 0, "lat": 38.903521833333336, "name": "80ea9a21b9673b3983adf02661154ea4", "rental_uris": {"ios": "https://dc.lft.to/lastmile_qr_scan", "android": "https://dc.lft.to/lastmile_qr_scan"}, "type": "electric_scooter", "fusion_lat": 0.0, "lon": -77.026896}, {"fusion_lon": 0.0, "bike_id": "10b32a9b8cc2a8be8716953cfdbb45b3", "is_disabled": 0, "is_reserved": 0, "lat": 38.911043166666666, "name": "10b32a9b8cc2a8be8716953cfdbb45b3", "rental_uris": {"ios": "https://dc.lft.to/lastmile_qr_scan", "android": "https://dc.lft.to/lastmile_qr_scan"}, "type": "electric_scooter", "fusion_lat": 0.0, "lon": -77.009358}, {"fusion_lon": 0.0, "bike_id": "6ed400b10443e353f0e49a60a30010c6", "is_disabled": 0, "is_reserved": 0, "lat": 38.93334766666667, "name": "6ed400b10443e353f0e49a60a30010c6", "rental_uris": {"ios": "https://dc.lft.to/lastmile_qr_scan", "android": "https://dc.lft.to/lastmile_qr_scan"}, "type": "electric_bike", "fusion_lat": 0.0, "lon": -77.03971616666666}, {"fusion_lon": 0.0, "bike_id": "a77d79001871ddab804ccf6f0241a4c3", "is_disabled": 0, "is_reserved": 0, "lat": 38.934898833333335, "name": "a77d79001871ddab804ccf6f0241a4c3", "rental_uris": {"ios": "https://dc.lft.to/lastmile_qr_scan", "android": "https://dc.lft.to/lastmile_qr_scan"}, "type": "electric_scooter", "fusion_lat": 0.0, "lon": -77.03658833333333}, {"fusion_lon": 0.0, "bike_id": "1a2bbc03c728a9ddea10d5f6fa4a411a", "is_disabled": 0, "is_reserved": 0, "lat": 38.92680433333334, "name": "1a2bbc03c728a9ddea10d5f6fa4a411a", "rental_uris": {"ios": "https://dc.lft.to/lastmile_qr_scan", "android": "https://dc.lft.to/lastmile_qr_scan"}, "type": "electric_scooter", "fusion_lat": 0.0, "lon": -77.025767}, {"fusion_lon": 0.0, "bike_id": "a974bb0ec4118714877c073ccb8aa1eb", "is_disabled": 0, "is_reserved": 0, "lat": 38.9286735, "name": "a974bb0ec4118714877c073ccb8aa1eb", "rental_uris": {"ios": "https://dc.lft.to/lastmile_qr_scan", "android": "https://dc.lft.to/lastmile_qr_scan"}, "type": "electric_scooter", "fusion_lat": 0.0, "lon": -77.03689583333333}, {"fusion_lon": 0.0, "bike_id": "f55f246009125f188b304b65e7ad0eb9", "is_disabled": 0, "is_reserved": 0, "lat": 38.899828166666666, "name": "f55f246009125f188b304b65e7ad0eb9", "rental_uris": {"ios": "https://dc.lft.to/lastmile_qr_scan", "android": "https://dc.lft.to/lastmile_qr_scan"}, "type": "electric_scooter", "fusion_lat": 0.0, "lon": -77.0419355}, {"fusion_lon": 0.0, "bike_id": "67ee7621ac35396b4095accf79316921", "is_disabled": 0, "is_reserved": 0, "lat": 38.961533, "name": "67ee7621ac35396b4095accf79316921", "rental_uris": {"ios": "https://dc.lft.to/lastmile_qr_scan", "android": "https://dc.lft.to/lastmile_qr_scan"}, "type": "electric_bike", "fusion_lat": 0.0, "lon": -77.03243666666667}, {"fusion_lon": 0.0, "bike_id": "c7c5c3655b49232bfc7380689cf433dc", "is_disabled": 0, "is_reserved": 0, "lat": 38.91598416666667, "name": "c7c5c3655b49232bfc7380689cf433dc", "rental_uris": {"ios": "https://dc.lft.to/lastmile_qr_scan", "android": "https://dc.lft.to/lastmile_qr_scan"}, "type": "electric_scooter", "fusion_lat": 0.0, "lon": -77.0319875}, {"fusion_lon": 0.0, "bike_id": "9593418115104fb28bfa3c03e456f954", "is_disabled": 0, "is_reserved": 0, "lat": 38.92534416666667, "name": "9593418115104fb28bfa3c03e456f954", "rental_uris": {"ios": "https://dc.lft.to/lastmile_qr_scan", "android": "https://dc.lft.to/lastmile_qr_scan"}, "type": "electric_scooter", "fusion_lat": 0.0, "lon": -77.03441283333333}, {"fusion_lon": 0.0, "bike_id": "7db502699918a6dd2d29e5f4bc1a3c7d", "is_disabled": 0, "is_reserved": 0, "lat": 38.932698, "name": "7db502699918a6dd2d29e5f4bc1a3c7d", "rental_uris": {"ios": "https://dc.lft.to/lastmile_qr_scan", "android": "https://dc.lft.to/lastmile_qr_scan"}, "type": "electric_scooter", "fusion_lat": 0.0, "lon": -77.01919566666666}, {"fusion_lon": 0.0, "bike_id": "45cdc05cfaa3efa3349655d7e4c34d1f", "is_disabled": 0, "is_reserved": 0, "lat": 38.91572683333333, "name": "45cdc05cfaa3efa3349655d7e4c34d1f", "rental_uris": {"ios": "https://dc.lft.to/lastmile_qr_scan", "android": "https://dc.lft.to/lastmile_qr_scan"}, "type": "electric_scooter", "fusion_lat": 0.0, "lon": -77.0319865}, {"fusion_lon": 0.0, "bike_id": "f6a14674d2260b72e9d0f8262b855c47", "is_disabled": 0, "is_reserved": 0, "lat": 38.91332633333333, "name": "f6a14674d2260b72e9d0f8262b855c47", "rental_uris": {"ios": "https://dc.lft.to/lastmile_qr_scan", "android": "https://dc.lft.to/lastmile_qr_scan"}, "type": "electric_scooter", "fusion_lat": 0.0, "lon": -77.04358633333334}, {"fusion_lon": 0.0, "bike_id": "b91e65cf58fa45c70e11dc973fff94cc", "is_disabled": 0, "is_reserved": 0, "lat": 38.988843, "name": "b91e65cf58fa45c70e11dc973fff94cc", "rental_uris": {"ios": "https://dc.lft.to/lastmile_qr_scan", "android": "https://dc.lft.to/lastmile_qr_scan"}, "type": "electric_bike", "fusion_lat": 0.0, "lon": -76.98804266666667}, {"fusion_lon": 0.0, "bike_id": "33e94b18a2d1f01994fab79c3c3ee9ba", "is_disabled": 0, "is_reserved": 0, "lat": 38.88773233333333, "name": "33e94b18a2d1f01994fab79c3c3ee9ba", "rental_uris": {"ios": "https://dc.lft.to/lastmile_qr_scan", "android": "https://dc.lft.to/lastmile_qr_scan"}, "type": "electric_scooter", "fusion_lat": 0.0, "lon": -76.932651}, {"fusion_lon": 0.0, "bike_id": "d07ae25e58b7696c2f8b0acef701e458", "is_disabled": 0, "is_reserved": 0, "lat": 38.921682833333335, "name": "d07ae25e58b7696c2f8b0acef701e458", "rental_uris": {"ios": "https://dc.lft.to/lastmile_qr_scan", "android": "https://dc.lft.to/lastmile_qr_scan"}, "type": "electric_scooter", "fusion_lat": 0.0, "lon": -77.04019066666666}, {"fusion_lon": 0.0, "bike_id": "0e2d7a04d0dc92f22b3f4c76b277aaed", "is_disabled": 0, "is_reserved": 0, "lat": 38.93192966666667, "name": "0e2d7a04d0dc92f22b3f4c76b277aaed", "rental_uris": {"ios": "https://dc.lft.to/lastmile_qr_scan", "android": "https://dc.lft.to/lastmile_qr_scan"}, "type": "electric_scooter", "fusion_lat": 0.0, "lon": -77.02570033333333}, {"fusion_lon": 0.0, "bike_id": "4e0deb3b8b086bb3a816ccc3e5e9ed11", "is_disabled": 0, "is_reserved": 0, "lat": 38.920775, "name": "4e0deb3b8b086bb3a816ccc3e5e9ed11", "rental_uris": {"ios": "https://dc.lft.to/lastmile_qr_scan", "android": "https://dc.lft.to/lastmile_qr_scan"}, "type": "electric_scooter", "fusion_lat": 0.0, "lon": -77.00453933333333}, {"fusion_lon": 0.0, "bike_id": "2a9efa06b8da78e25fc16cf009b9ff2d", "is_disabled": 0, "is_reserved": 0, "lat": 38.90022333333334, "name": "2a9efa06b8da78e25fc16cf009b9ff2d", "rental_uris": {"ios": "https://dc.lft.to/lastmile_qr_scan", "android": "https://dc.lft.to/lastmile_qr_scan"}, "type": "electric_scooter", "fusion_lat": 0.0, "lon": -77.01994883333333}, {"fusion_lon": 0.0, "bike_id": "ccc89c4ea0cec1a607b691cbf02487b1", "is_disabled": 0, "is_reserved": 0, "lat": 38.90842033333333, "name": "ccc89c4ea0cec1a607b691cbf02487b1", "rental_uris": {"ios": "https://dc.lft.to/lastmile_qr_scan", "android": "https://dc.lft.to/lastmile_qr_scan"}, "type": "electric_scooter", "fusion_lat": 0.0, "lon": -77.03305266666666}, {"fusion_lon": 0.0, "bike_id": "d03fbfc219ec8d5e74e9e77c18e277c6", "is_disabled": 0, "is_reserved": 0, "lat": 38.944973166666664, "name": "d03fbfc219ec8d5e74e9e77c18e277c6", "rental_uris": {"ios": "https://dc.lft.to/lastmile_qr_scan", "android": "https://dc.lft.to/lastmile_qr_scan"}, "type": "electric_scooter", "fusion_lat": 0.0, "lon": -77.02849433333333}, {"fusion_lon": 0.0, "bike_id": "137928ddfa1c42f2c461ea5aebe4a38d", "is_disabled": 0, "is_reserved": 0, "lat": 38.922569, "name": "137928ddfa1c42f2c461ea5aebe4a38d", "rental_uris": {"ios": "https://dc.lft.to/lastmile_qr_scan", "android": "https://dc.lft.to/lastmile_qr_scan"}, "type": "electric_scooter", "fusion_lat": 0.0, "lon": -77.0194935}, {"fusion_lon": 0.0, "bike_id": "fcaabe7184d723cc560508bebfd3986f", "is_disabled": 0, "is_reserved": 0, "lat": 38.93575933333334, "name": "fcaabe7184d723cc560508bebfd3986f", "rental_uris": {"ios": "https://dc.lft.to/lastmile_qr_scan", "android": "https://dc.lft.to/lastmile_qr_scan"}, "type": "electric_bike", "fusion_lat": 0.0, "lon": -77.02124283333333}, {"fusion_lon": 0.0, "bike_id": "ebe7c389e476a8787ead05b08afce0c4", "is_disabled": 0, "is_reserved": 0, "lat": 38.923362166666664, "name": "ebe7c389e476a8787ead05b08afce0c4", "rental_uris": {"ios": "https://dc.lft.to/lastmile_qr_scan", "android": "https://dc.lft.to/lastmile_qr_scan"}, "type": "electric_scooter", "fusion_lat": 0.0, "lon": -77.05620466666667}, {"fusion_lon": 0.0, "bike_id": "232c0704e15ad6e241dcecab9f442a57", "is_disabled": 0, "is_reserved": 0, "lat": 38.89763116666666, "name": "232c0704e15ad6e241dcecab9f442a57", "rental_uris": {"ios": "https://dc.lft.to/lastmile_qr_scan", "android": "https://dc.lft.to/lastmile_qr_scan"}, "type": "electric_scooter", "fusion_lat": 0.0, "lon": -77.01188166666667}, {"fusion_lon": 0.0, "bike_id": "49d057ab951cc79940349fab4561be2d", "is_disabled": 0, "is_reserved": 0, "lat": 38.8955635, "name": "49d057ab951cc79940349fab4561be2d", "rental_uris": {"ios": "https://dc.lft.to/lastmile_qr_scan", "android": "https://dc.lft.to/lastmile_qr_scan"}, "type": "electric_scooter", "fusion_lat": 0.0, "lon": -77.00914983333334}, {"fusion_lon": 0.0, "bike_id": "bfb02a97f8846f92e6379bcaf05fe804", "is_disabled": 0, "is_reserved": 0, "lat": 38.90737516666667, "name": "bfb02a97f8846f92e6379bcaf05fe804", "rental_uris": {"ios": "https://dc.lft.to/lastmile_qr_scan", "android": "https://dc.lft.to/lastmile_qr_scan"}, "type": "electric_scooter", "fusion_lat": 0.0, "lon": -77.008045}, {"fusion_lon": 0.0, "bike_id": "3690abe8b9f7816c4d4faae34108d565", "is_disabled": 0, "is_reserved": 0, "lat": 38.9679475, "name": "3690abe8b9f7816c4d4faae34108d565", "rental_uris": {"ios": "https://dc.lft.to/lastmile_qr_scan", "android": "https://dc.lft.to/lastmile_qr_scan"}, "type": "electric_scooter", "fusion_lat": 0.0, "lon": -77.02428966666666}, {"fusion_lon": 0.0, "bike_id": "164a4fcb6a02f55b38760a92e90e9195", "is_disabled": 0, "is_reserved": 0, "lat": 38.9457015, "name": "164a4fcb6a02f55b38760a92e90e9195", "rental_uris": {"ios": "https://dc.lft.to/lastmile_qr_scan", "android": "https://dc.lft.to/lastmile_qr_scan"}, "type": "electric_bike", "fusion_lat": 0.0, "lon": -76.98116616666667}, {"fusion_lon": 0.0, "bike_id": "7b24da13daa6074c69ffc07cdabf0d4e", "is_disabled": 0, "is_reserved": 0, "lat": 38.914977, "name": "7b24da13daa6074c69ffc07cdabf0d4e", "rental_uris": {"ios": "https://dc.lft.to/lastmile_qr_scan", "android": "https://dc.lft.to/lastmile_qr_scan"}, "type": "electric_scooter", "fusion_lat": 0.0, "lon": -77.038338}, {"fusion_lon": 0.0, "bike_id": "143d28099b98bef7ca0cabc15af8a1e9", "is_disabled": 0, "is_reserved": 0, "lat": 38.90563983333333, "name": "143d28099b98bef7ca0cabc15af8a1e9", "rental_uris": {"ios": "https://dc.lft.to/lastmile_qr_scan", "android": "https://dc.lft.to/lastmile_qr_scan"}, "type": "electric_scooter", "fusion_lat": 0.0, "lon": -77.03462}, {"fusion_lon": 0.0, "bike_id": "1d1f1bfee80aac9a0b873c1a243ab2f1", "is_disabled": 0, "is_reserved": 0, "lat": 38.912671333333336, "name": "1d1f1bfee80aac9a0b873c1a243ab2f1", "rental_uris": {"ios": "https://dc.lft.to/lastmile_qr_scan", "android": "https://dc.lft.to/lastmile_qr_scan"}, "type": "electric_scooter", "fusion_lat": 0.0, "lon": -77.03875016666667}, {"fusion_lon": 0.0, "bike_id": "67216d2c807013b8b291126d22564b6d", "is_disabled": 0, "is_reserved": 0, "lat": 38.8565335, "name": "67216d2c807013b8b291126d22564b6d", "rental_uris": {"ios": "https://dc.lft.to/lastmile_qr_scan", "android": "https://dc.lft.to/lastmile_qr_scan"}, "type": "electric_bike", "fusion_lat": 0.0, "lon": -77.08532166666667}, {"fusion_lon": 0.0, "bike_id": "00762d820ab1a38fe6fad02619988823", "is_disabled": 0, "is_reserved": 0, "lat": 38.86516683333333, "name": "00762d820ab1a38fe6fad02619988823", "rental_uris": {"ios": "https://dc.lft.to/lastmile_qr_scan", "android": "https://dc.lft.to/lastmile_qr_scan"}, "type": "electric_bike", "fusion_lat": 0.0, "lon": -76.97326766666667}, {"fusion_lon": 0.0, "bike_id": "36b5edcdb935d416ea10c5d6fd2a933a", "is_disabled": 0, "is_reserved": 0, "lat": 38.89883866666667, "name": "36b5edcdb935d416ea10c5d6fd2a933a", "rental_uris": {"ios": "https://dc.lft.to/lastmile_qr_scan", "android": "https://dc.lft.to/lastmile_qr_scan"}, "type": "electric_scooter", "fusion_lat": 0.0, "lon": -76.931755}, {"fusion_lon": 0.0, "bike_id": "ecd88224b30b9b009b8b492c18934d8f", "is_disabled": 0, "is_reserved": 0, "lat": 38.918403833333336, "name": "ecd88224b30b9b009b8b492c18934d8f", "rental_uris": {"ios": "https://dc.lft.to/lastmile_qr_scan", "android": "https://dc.lft.to/lastmile_qr_scan"}, "type": "electric_scooter", "fusion_lat": 0.0, "lon": -77.02315716666666}, {"fusion_lon": 0.0, "bike_id": "eadbf7da034ef40af22e96e8d31c7871", "is_disabled": 0, "is_reserved": 0, "lat": 38.92152733333333, "name": "eadbf7da034ef40af22e96e8d31c7871", "rental_uris": {"ios": "https://dc.lft.to/lastmile_qr_scan", "android": "https://dc.lft.to/lastmile_qr_scan"}, "type": "electric_scooter", "fusion_lat": 0.0, "lon": -77.03439733333333}, {"fusion_lon": 0.0, "bike_id": "9065ac5a3e213f45f40026ac932fd68b", "is_disabled": 0, "is_reserved": 0, "lat": 38.92153016666666, "name": "9065ac5a3e213f45f40026ac932fd68b", "rental_uris": {"ios": "https://dc.lft.to/lastmile_qr_scan", "android": "https://dc.lft.to/lastmile_qr_scan"}, "type": "electric_scooter", "fusion_lat": 0.0, "lon": -77.03867716666667}, {"fusion_lon": 0.0, "bike_id": "100c43ba41806fd5ec9223dfeeb8acc3", "is_disabled": 0, "is_reserved": 0, "lat": 38.9050055, "name": "100c43ba41806fd5ec9223dfeeb8acc3", "rental_uris": {"ios": "https://dc.lft.to/lastmile_qr_scan", "android": "https://dc.lft.to/lastmile_qr_scan"}, "type": "electric_scooter", "fusion_lat": 0.0, "lon": -77.02944416666666}, {"fusion_lon": 0.0, "bike_id": "f435576dac6d7220332f45ab41144620", "is_disabled": 0, "is_reserved": 0, "lat": 38.92573466666666, "name": "f435576dac6d7220332f45ab41144620", "rental_uris": {"ios": "https://dc.lft.to/lastmile_qr_scan", "android": "https://dc.lft.to/lastmile_qr_scan"}, "type": "electric_scooter", "fusion_lat": 0.0, "lon": -77.02884116666667}, {"fusion_lon": 0.0, "bike_id": "d0f1f69f26bcffe29b4128bd537c684e", "is_disabled": 0, "is_reserved": 0, "lat": 38.93480183333333, "name": "d0f1f69f26bcffe29b4128bd537c684e", "rental_uris": {"ios": "https://dc.lft.to/lastmile_qr_scan", "android": "https://dc.lft.to/lastmile_qr_scan"}, "type": "electric_scooter", "fusion_lat": 0.0, "lon": -77.05787333333333}, {"fusion_lon": 0.0, "bike_id": "53606a4566cf10bc350966b3bf0031ce", "is_disabled": 0, "is_reserved": 0, "lat": 38.87075033333333, "name": "53606a4566cf10bc350966b3bf0031ce", "rental_uris": {"ios": "https://dc.lft.to/lastmile_qr_scan", "android": "https://dc.lft.to/lastmile_qr_scan"}, "type": "electric_scooter", "fusion_lat": 0.0, "lon": -76.97951083333334}, {"fusion_lon": 0.0, "bike_id": "00b00a3439d95a17c24aeb229b3c8cc7", "is_disabled": 0, "is_reserved": 0, "lat": 38.87511833333333, "name": "00b00a3439d95a17c24aeb229b3c8cc7", "rental_uris": {"ios": "https://dc.lft.to/lastmile_qr_scan", "android": "https://dc.lft.to/lastmile_qr_scan"}, "type": "electric_scooter", "fusion_lat": 0.0, "lon": -76.976573}, {"fusion_lon": 0.0, "bike_id": "3a463ee12cb3b201bbe2473abb276ee8", "is_disabled": 0, "is_reserved": 0, "lat": 38.87536983333333, "name": "3a463ee12cb3b201bbe2473abb276ee8", "rental_uris": {"ios": "https://dc.lft.to/lastmile_qr_scan", "android": "https://dc.lft.to/lastmile_qr_scan"}, "type": "electric_scooter", "fusion_lat": 0.0, "lon": -77.00066616666666}, {"fusion_lon": 0.0, "bike_id": "ae0be2045571419ac07210ef0e09f01d", "is_disabled": 0, "is_reserved": 0, "lat": 38.91339333333333, "name": "ae0be2045571419ac07210ef0e09f01d", "rental_uris": {"ios": "https://dc.lft.to/lastmile_qr_scan", "android": "https://dc.lft.to/lastmile_qr_scan"}, "type": "electric_scooter", "fusion_lat": 0.0, "lon": -77.03810216666666}, {"fusion_lon": 0.0, "bike_id": "877e72b3f4f6a28651a2ce04ec746e16", "is_disabled": 0, "is_reserved": 0, "lat": 38.96693716666667, "name": "877e72b3f4f6a28651a2ce04ec746e16", "rental_uris": {"ios": "https://dc.lft.to/lastmile_qr_scan", "android": "https://dc.lft.to/lastmile_qr_scan"}, "type": "electric_bike", "fusion_lat": 0.0, "lon": -77.02277366666667}, {"fusion_lon": 0.0, "bike_id": "e39b5dfa30e5202876f3660c3bc85b5a", "is_disabled": 0, "is_reserved": 0, "lat": 38.830658166666666, "name": "e39b5dfa30e5202876f3660c3bc85b5a", "rental_uris": {"ios": "https://dc.lft.to/lastmile_qr_scan", "android": "https://dc.lft.to/lastmile_qr_scan"}, "type": "electric_bike", "fusion_lat": 0.0, "lon": -77.04078116666666}, {"fusion_lon": 0.0, "bike_id": "826f15b50100388479952acdd5508a76", "is_disabled": 0, "is_reserved": 0, "lat": 38.930915666666664, "name": "826f15b50100388479952acdd5508a76", "rental_uris": {"ios": "https://dc.lft.to/lastmile_qr_scan", "android": "https://dc.lft.to/lastmile_qr_scan"}, "type": "electric_scooter", "fusion_lat": 0.0, "lon": -77.03438933333334}, {"fusion_lon": 0.0, "bike_id": "4695baaa825ab48a728709251e7cc7af", "is_disabled": 0, "is_reserved": 0, "lat": 38.90737883333333, "name": "4695baaa825ab48a728709251e7cc7af", "rental_uris": {"ios": "https://dc.lft.to/lastmile_qr_scan", "android": "https://dc.lft.to/lastmile_qr_scan"}, "type": "electric_scooter", "fusion_lat": 0.0, "lon": -77.0456655}, {"fusion_lon": 0.0, "bike_id": "45f4fae28a912f45c81b63e9ab31b3b9", "is_disabled": 0, "is_reserved": 0, "lat": 38.925444666666664, "name": "45f4fae28a912f45c81b63e9ab31b3b9", "rental_uris": {"ios": "https://dc.lft.to/lastmile_qr_scan", "android": "https://dc.lft.to/lastmile_qr_scan"}, "type": "electric_scooter", "fusion_lat": 0.0, "lon": -77.04264583333334}, {"fusion_lon": 0.0, "bike_id": "65dc60d108653c172ed6cdb971abfbfa", "is_disabled": 0, "is_reserved": 0, "lat": 38.8767535, "name": "65dc60d108653c172ed6cdb971abfbfa", "rental_uris": {"ios": "https://dc.lft.to/lastmile_qr_scan", "android": "https://dc.lft.to/lastmile_qr_scan"}, "type": "electric_bike", "fusion_lat": 0.0, "lon": -77.014436}, {"fusion_lon": 0.0, "bike_id": "864df47bea817024e0a6c7356472018c", "is_disabled": 0, "is_reserved": 0, "lat": 38.891311333333334, "name": "864df47bea817024e0a6c7356472018c", "rental_uris": {"ios": "https://dc.lft.to/lastmile_qr_scan", "android": "https://dc.lft.to/lastmile_qr_scan"}, "type": "electric_scooter", "fusion_lat": 0.0, "lon": -76.99937916666667}, {"fusion_lon": 0.0, "bike_id": "e4d13aedb9820e4f7b683b5825699292", "is_disabled": 0, "is_reserved": 0, "lat": 38.9118895, "name": "e4d13aedb9820e4f7b683b5825699292", "rental_uris": {"ios": "https://dc.lft.to/lastmile_qr_scan", "android": "https://dc.lft.to/lastmile_qr_scan"}, "type": "electric_scooter", "fusion_lat": 0.0, "lon": -77.0321435}, {"fusion_lon": 0.0, "bike_id": "d08e462e456d2ecfba6123ca82e84adb", "is_disabled": 0, "is_reserved": 0, "lat": 38.902635833333335, "name": "d08e462e456d2ecfba6123ca82e84adb", "rental_uris": {"ios": "https://dc.lft.to/lastmile_qr_scan", "android": "https://dc.lft.to/lastmile_qr_scan"}, "type": "electric_scooter", "fusion_lat": 0.0, "lon": -77.03964483333333}, {"fusion_lon": 0.0, "bike_id": "35143d5b524b39a7cb9181ef2be26fcb", "is_disabled": 0, "is_reserved": 0, "lat": 38.923248666666666, "name": "35143d5b524b39a7cb9181ef2be26fcb", "rental_uris": {"ios": "https://dc.lft.to/lastmile_qr_scan", "android": "https://dc.lft.to/lastmile_qr_scan"}, "type": "electric_scooter", "fusion_lat": 0.0, "lon": -77.039113}, {"fusion_lon": 0.0, "bike_id": "c540f4640f3e39dec991f945cc163bdf", "is_disabled": 0, "is_reserved": 0, "lat": 38.91816933333333, "name": "c540f4640f3e39dec991f945cc163bdf", "rental_uris": {"ios": "https://dc.lft.to/lastmile_qr_scan", "android": "https://dc.lft.to/lastmile_qr_scan"}, "type": "electric_scooter", "fusion_lat": 0.0, "lon": -77.04979033333333}, {"fusion_lon": 0.0, "bike_id": "41741f5b791b76fcfa2de19b053c9c87", "is_disabled": 0, "is_reserved": 0, "lat": 38.89988116666667, "name": "41741f5b791b76fcfa2de19b053c9c87", "rental_uris": {"ios": "https://dc.lft.to/lastmile_qr_scan", "android": "https://dc.lft.to/lastmile_qr_scan"}, "type": "electric_scooter", "fusion_lat": 0.0, "lon": -77.01929466666667}, {"fusion_lon": 0.0, "bike_id": "8963971c8508dcf893992337bc21c318", "is_disabled": 0, "is_reserved": 0, "lat": 38.9123245, "name": "8963971c8508dcf893992337bc21c318", "rental_uris": {"ios": "https://dc.lft.to/lastmile_qr_scan", "android": "https://dc.lft.to/lastmile_qr_scan"}, "type": "electric_scooter", "fusion_lat": 0.0, "lon": -77.038335}, {"fusion_lon": 0.0, "bike_id": "df554d618308d03e3b79f9e24e85d962", "is_disabled": 0, "is_reserved": 0, "lat": 38.90277716666667, "name": "df554d618308d03e3b79f9e24e85d962", "rental_uris": {"ios": "https://dc.lft.to/lastmile_qr_scan", "android": "https://dc.lft.to/lastmile_qr_scan"}, "type": "electric_scooter", "fusion_lat": 0.0, "lon": -77.0518195}, {"fusion_lon": 0.0, "bike_id": "a0856c6f5fef417c3a166854d9027fff", "is_disabled": 0, "is_reserved": 0, "lat": 38.909134, "name": "a0856c6f5fef417c3a166854d9027fff", "rental_uris": {"ios": "https://dc.lft.to/lastmile_qr_scan", "android": "https://dc.lft.to/lastmile_qr_scan"}, "type": "electric_scooter", "fusion_lat": 0.0, "lon": -77.01885266666666}, {"fusion_lon": 0.0, "bike_id": "f5f118d2f8d84228b92a50e36ad215c7", "is_disabled": 0, "is_reserved": 0, "lat": 38.918491333333336, "name": "f5f118d2f8d84228b92a50e36ad215c7", "rental_uris": {"ios": "https://dc.lft.to/lastmile_qr_scan", "android": "https://dc.lft.to/lastmile_qr_scan"}, "type": "electric_scooter", "fusion_lat": 0.0, "lon": -77.04533766666667}, {"fusion_lon": 0.0, "bike_id": "5c3fc38ddb8f81005c5670a2ae313107", "is_disabled": 0, "is_reserved": 0, "lat": 38.91414816666666, "name": "5c3fc38ddb8f81005c5670a2ae313107", "rental_uris": {"ios": "https://dc.lft.to/lastmile_qr_scan", "android": "https://dc.lft.to/lastmile_qr_scan"}, "type": "electric_scooter", "fusion_lat": 0.0, "lon": -77.02213183333333}, {"fusion_lon": 0.0, "bike_id": "617a564d3186aa334a537238299bfcfa", "is_disabled": 0, "is_reserved": 0, "lat": 38.915650666666664, "name": "617a564d3186aa334a537238299bfcfa", "rental_uris": {"ios": "https://dc.lft.to/lastmile_qr_scan", "android": "https://dc.lft.to/lastmile_qr_scan"}, "type": "electric_scooter", "fusion_lat": 0.0, "lon": -77.0380635}, {"fusion_lon": 0.0, "bike_id": "513dca07e46d9255aaa7f299444a2e55", "is_disabled": 0, "is_reserved": 0, "lat": 38.90804466666667, "name": "513dca07e46d9255aaa7f299444a2e55", "rental_uris": {"ios": "https://dc.lft.to/lastmile_qr_scan", "android": "https://dc.lft.to/lastmile_qr_scan"}, "type": "electric_scooter", "fusion_lat": 0.0, "lon": -77.04338866666667}, {"fusion_lon": 0.0, "bike_id": "2306e9ee5853cb57c32e54aa98a29c9b", "is_disabled": 0, "is_reserved": 0, "lat": 38.91625466666667, "name": "2306e9ee5853cb57c32e54aa98a29c9b", "rental_uris": {"ios": "https://dc.lft.to/lastmile_qr_scan", "android": "https://dc.lft.to/lastmile_qr_scan"}, "type": "electric_bike", "fusion_lat": 0.0, "lon": -77.00925266666667}, {"fusion_lon": 0.0, "bike_id": "606c301c64f3164ac777bab71091cc2b", "is_disabled": 0, "is_reserved": 0, "lat": 38.92485166666667, "name": "606c301c64f3164ac777bab71091cc2b", "rental_uris": {"ios": "https://dc.lft.to/lastmile_qr_scan", "android": "https://dc.lft.to/lastmile_qr_scan"}, "type": "electric_scooter", "fusion_lat": 0.0, "lon": -77.035453}, {"fusion_lon": 0.0, "bike_id": "c362ef2c336699755f0c77a204db9cf9", "is_disabled": 0, "is_reserved": 0, "lat": 38.9016455, "name": "c362ef2c336699755f0c77a204db9cf9", "rental_uris": {"ios": "https://dc.lft.to/lastmile_qr_scan", "android": "https://dc.lft.to/lastmile_qr_scan"}, "type": "electric_scooter", "fusion_lat": 0.0, "lon": -77.022294}, {"fusion_lon": 0.0, "bike_id": "45c04816102222adc065801adf66db20", "is_disabled": 0, "is_reserved": 0, "lat": 38.91040433333333, "name": "45c04816102222adc065801adf66db20", "rental_uris": {"ios": "https://dc.lft.to/lastmile_qr_scan", "android": "https://dc.lft.to/lastmile_qr_scan"}, "type": "electric_scooter", "fusion_lat": 0.0, "lon": -76.98570166666667}, {"fusion_lon": 0.0, "bike_id": "814675db2759a60a0126e32acb571bb1", "is_disabled": 0, "is_reserved": 0, "lat": 38.935339166666665, "name": "814675db2759a60a0126e32acb571bb1", "rental_uris": {"ios": "https://dc.lft.to/lastmile_qr_scan", "android": "https://dc.lft.to/lastmile_qr_scan"}, "type": "electric_scooter", "fusion_lat": 0.0, "lon": -77.034805}, {"fusion_lon": 0.0, "bike_id": "99e914b417a335dc620bba8e052bde60", "is_disabled": 0, "is_reserved": 0, "lat": 38.896232499999996, "name": "99e914b417a335dc620bba8e052bde60", "rental_uris": {"ios": "https://dc.lft.to/lastmile_qr_scan", "android": "https://dc.lft.to/lastmile_qr_scan"}, "type": "electric_bike", "fusion_lat": 0.0, "lon": -76.90747633333334}, {"fusion_lon": 0.0, "bike_id": "5eee0a18e9bcf8674551020b16d2982e", "is_disabled": 0, "is_reserved": 0, "lat": 38.92413333333333, "name": "5eee0a18e9bcf8674551020b16d2982e", "rental_uris": {"ios": "https://dc.lft.to/lastmile_qr_scan", "android": "https://dc.lft.to/lastmile_qr_scan"}, "type": "electric_scooter", "fusion_lat": 0.0, "lon": -77.02007466666667}, {"fusion_lon": 0.0, "bike_id": "92959495ecdc923f8d0db94276912209", "is_disabled": 0, "is_reserved": 0, "lat": 38.885154166666666, "name": "92959495ecdc923f8d0db94276912209", "rental_uris": {"ios": "https://dc.lft.to/lastmile_qr_scan", "android": "https://dc.lft.to/lastmile_qr_scan"}, "type": "electric_scooter", "fusion_lat": 0.0, "lon": -76.924458}, {"fusion_lon": 0.0, "bike_id": "b4ab7d36335987445a6ce500172b3625", "is_disabled": 0, "is_reserved": 0, "lat": 38.902562833333334, "name": "b4ab7d36335987445a6ce500172b3625", "rental_uris": {"ios": "https://dc.lft.to/lastmile_qr_scan", "android": "https://dc.lft.to/lastmile_qr_scan"}, "type": "electric_scooter", "fusion_lat": 0.0, "lon": -76.97704233333333}, {"fusion_lon": 0.0, "bike_id": "84ba7722dca6913f66751ae753402eb2", "is_disabled": 0, "is_reserved": 0, "lat": 38.91409216666667, "name": "84ba7722dca6913f66751ae753402eb2", "rental_uris": {"ios": "https://dc.lft.to/lastmile_qr_scan", "android": "https://dc.lft.to/lastmile_qr_scan"}, "type": "electric_scooter", "fusion_lat": 0.0, "lon": -77.01806833333333}, {"fusion_lon": 0.0, "bike_id": "aae8bb0f38f1d4a508998ab3b89ae00e", "is_disabled": 0, "is_reserved": 0, "lat": 38.92168383333333, "name": "aae8bb0f38f1d4a508998ab3b89ae00e", "rental_uris": {"ios": "https://dc.lft.to/lastmile_qr_scan", "android": "https://dc.lft.to/lastmile_qr_scan"}, "type": "electric_scooter", "fusion_lat": 0.0, "lon": -77.04010366666667}, {"fusion_lon": 0.0, "bike_id": "a6d257d623bbabfd1beffb4f7550b547", "is_disabled": 0, "is_reserved": 0, "lat": 38.905964833333336, "name": "a6d257d623bbabfd1beffb4f7550b547", "rental_uris": {"ios": "https://dc.lft.to/lastmile_qr_scan", "android": "https://dc.lft.to/lastmile_qr_scan"}, "type": "electric_scooter", "fusion_lat": 0.0, "lon": -77.070085}, {"fusion_lon": 0.0, "bike_id": "78b2c55b1c4084a242cdfadc0e55f17d", "is_disabled": 0, "is_reserved": 0, "lat": 38.892301333333336, "name": "78b2c55b1c4084a242cdfadc0e55f17d", "rental_uris": {"ios": "https://dc.lft.to/lastmile_qr_scan", "android": "https://dc.lft.to/lastmile_qr_scan"}, "type": "electric_scooter", "fusion_lat": 0.0, "lon": -77.024143}, {"fusion_lon": 0.0, "bike_id": "f94c90df51bfb4bc53e9bbc226be8036", "is_disabled": 0, "is_reserved": 0, "lat": 38.885329666666664, "name": "f94c90df51bfb4bc53e9bbc226be8036", "rental_uris": {"ios": "https://dc.lft.to/lastmile_qr_scan", "android": "https://dc.lft.to/lastmile_qr_scan"}, "type": "electric_scooter", "fusion_lat": 0.0, "lon": -76.98055266666667}, {"fusion_lon": 0.0, "bike_id": "6581d7432cd4c417f198e61a540dc784", "is_disabled": 0, "is_reserved": 0, "lat": 38.9319545, "name": "6581d7432cd4c417f198e61a540dc784", "rental_uris": {"ios": "https://dc.lft.to/lastmile_qr_scan", "android": "https://dc.lft.to/lastmile_qr_scan"}, "type": "electric_scooter", "fusion_lat": 0.0, "lon": -77.0374875}, {"fusion_lon": 0.0, "bike_id": "a197a52d1c935313e0c65ab65d430b4c", "is_disabled": 0, "is_reserved": 0, "lat": 38.91751583333333, "name": "a197a52d1c935313e0c65ab65d430b4c", "rental_uris": {"ios": "https://dc.lft.to/lastmile_qr_scan", "android": "https://dc.lft.to/lastmile_qr_scan"}, "type": "electric_scooter", "fusion_lat": 0.0, "lon": -77.0238215}, {"fusion_lon": 0.0, "bike_id": "9ae82c573c0e7e66aa219cf95bd1a4b2", "is_disabled": 0, "is_reserved": 0, "lat": 38.967318166666665, "name": "9ae82c573c0e7e66aa219cf95bd1a4b2", "rental_uris": {"ios": "https://dc.lft.to/lastmile_qr_scan", "android": "https://dc.lft.to/lastmile_qr_scan"}, "type": "electric_scooter", "fusion_lat": 0.0, "lon": -77.02528}, {"fusion_lon": 0.0, "bike_id": "3b40d1b6e01b1fcc6e574b201db6f07a", "is_disabled": 0, "is_reserved": 0, "lat": 38.95850883333333, "name": "3b40d1b6e01b1fcc6e574b201db6f07a", "rental_uris": {"ios": "https://dc.lft.to/lastmile_qr_scan", "android": "https://dc.lft.to/lastmile_qr_scan"}, "type": "electric_scooter", "fusion_lat": 0.0, "lon": -77.071625}, {"fusion_lon": 0.0, "bike_id": "b0a199eebbc54fadd149a95252b68a3e", "is_disabled": 0, "is_reserved": 0, "lat": 38.905155666666666, "name": "b0a199eebbc54fadd149a95252b68a3e", "rental_uris": {"ios": "https://dc.lft.to/lastmile_qr_scan", "android": "https://dc.lft.to/lastmile_qr_scan"}, "type": "electric_scooter", "fusion_lat": 0.0, "lon": -76.98399016666667}, {"fusion_lon": 0.0, "bike_id": "11e8c553c9e40be31705e8f2b1aa637a", "is_disabled": 0, "is_reserved": 0, "lat": 38.822066666666665, "name": "11e8c553c9e40be31705e8f2b1aa637a", "rental_uris": {"ios": "https://dc.lft.to/lastmile_qr_scan", "android": "https://dc.lft.to/lastmile_qr_scan"}, "type": "electric_bike", "fusion_lat": 0.0, "lon": -76.977016}, {"fusion_lon": 0.0, "bike_id": "24995ebef86b39e9f7322fb919f987dd", "is_disabled": 0, "is_reserved": 0, "lat": 38.94509983333333, "name": "24995ebef86b39e9f7322fb919f987dd", "rental_uris": {"ios": "https://dc.lft.to/lastmile_qr_scan", "android": "https://dc.lft.to/lastmile_qr_scan"}, "type": "electric_bike", "fusion_lat": 0.0, "lon": -77.0067115}, {"fusion_lon": 0.0, "bike_id": "de5d28631b629073331662d497444b93", "is_disabled": 0, "is_reserved": 0, "lat": 38.90741966666667, "name": "de5d28631b629073331662d497444b93", "rental_uris": {"ios": "https://dc.lft.to/lastmile_qr_scan", "android": "https://dc.lft.to/lastmile_qr_scan"}, "type": "electric_bike", "fusion_lat": 0.0, "lon": -77.002999}, {"fusion_lon": 0.0, "bike_id": "57598d8818646bcf526ac77dc2a09f40", "is_disabled": 0, "is_reserved": 0, "lat": 38.89969883333333, "name": "57598d8818646bcf526ac77dc2a09f40", "rental_uris": {"ios": "https://dc.lft.to/lastmile_qr_scan", "android": "https://dc.lft.to/lastmile_qr_scan"}, "type": "electric_scooter", "fusion_lat": 0.0, "lon": -76.994823}, {"fusion_lon": 0.0, "bike_id": "ad289fed8a45e658a7782b7899da25b0", "is_disabled": 0, "is_reserved": 0, "lat": 38.919134666666665, "name": "ad289fed8a45e658a7782b7899da25b0", "rental_uris": {"ios": "https://dc.lft.to/lastmile_qr_scan", "android": "https://dc.lft.to/lastmile_qr_scan"}, "type": "electric_scooter", "fusion_lat": 0.0, "lon": -77.0463385}, {"fusion_lon": 0.0, "bike_id": "e265f1767a4b992a23edd46757a61092", "is_disabled": 0, "is_reserved": 0, "lat": 38.901644833333336, "name": "e265f1767a4b992a23edd46757a61092", "rental_uris": {"ios": "https://dc.lft.to/lastmile_qr_scan", "android": "https://dc.lft.to/lastmile_qr_scan"}, "type": "electric_scooter", "fusion_lat": 0.0, "lon": -77.05125316666667}, {"fusion_lon": 0.0, "bike_id": "56c2faa1bc5a5e4dfab637db3a7db3c3", "is_disabled": 0, "is_reserved": 0, "lat": 38.87766666666667, "name": "56c2faa1bc5a5e4dfab637db3a7db3c3", "rental_uris": {"ios": "https://dc.lft.to/lastmile_qr_scan", "android": "https://dc.lft.to/lastmile_qr_scan"}, "type": "electric_scooter", "fusion_lat": 0.0, "lon": -77.01874216666667}, {"fusion_lon": 0.0, "bike_id": "51b134503c0fa34d62afd5a890fe96b0", "is_disabled": 0, "is_reserved": 0, "lat": 38.88178766666667, "name": "51b134503c0fa34d62afd5a890fe96b0", "rental_uris": {"ios": "https://dc.lft.to/lastmile_qr_scan", "android": "https://dc.lft.to/lastmile_qr_scan"}, "type": "electric_scooter", "fusion_lat": 0.0, "lon": -77.01742766666666}, {"fusion_lon": 0.0, "bike_id": "87fb7197489cc0d681d7068ff275b130", "is_disabled": 0, "is_reserved": 0, "lat": 38.96777066666667, "name": "87fb7197489cc0d681d7068ff275b130", "rental_uris": {"ios": "https://dc.lft.to/lastmile_qr_scan", "android": "https://dc.lft.to/lastmile_qr_scan"}, "type": "electric_bike", "fusion_lat": 0.0, "lon": -76.99652083333334}, {"fusion_lon": 0.0, "bike_id": "19071c3462d10d4d4342d6352ba1b76f", "is_disabled": 0, "is_reserved": 0, "lat": 38.966841, "name": "19071c3462d10d4d4342d6352ba1b76f", "rental_uris": {"ios": "https://dc.lft.to/lastmile_qr_scan", "android": "https://dc.lft.to/lastmile_qr_scan"}, "type": "electric_scooter", "fusion_lat": 0.0, "lon": -77.03402483333333}, {"fusion_lon": 0.0, "bike_id": "ed640465b6802aa9657bc256d29747ee", "is_disabled": 0, "is_reserved": 0, "lat": 38.91109816666667, "name": "ed640465b6802aa9657bc256d29747ee", "rental_uris": {"ios": "https://dc.lft.to/lastmile_qr_scan", "android": "https://dc.lft.to/lastmile_qr_scan"}, "type": "electric_scooter", "fusion_lat": 0.0, "lon": -77.01156083333333}, {"fusion_lon": 0.0, "bike_id": "656103d8688456a720d05abdc10a7cb6", "is_disabled": 0, "is_reserved": 0, "lat": 38.928245833333335, "name": "656103d8688456a720d05abdc10a7cb6", "rental_uris": {"ios": "https://dc.lft.to/lastmile_qr_scan", "android": "https://dc.lft.to/lastmile_qr_scan"}, "type": "electric_scooter", "fusion_lat": 0.0, "lon": -77.022567}, {"fusion_lon": 0.0, "bike_id": "44bc68f71a8aa5715bdc234bdd364d8e", "is_disabled": 0, "is_reserved": 0, "lat": 38.909589, "name": "44bc68f71a8aa5715bdc234bdd364d8e", "rental_uris": {"ios": "https://dc.lft.to/lastmile_qr_scan", "android": "https://dc.lft.to/lastmile_qr_scan"}, "type": "electric_scooter", "fusion_lat": 0.0, "lon": -77.01189466666666}, {"fusion_lon": 0.0, "bike_id": "6f4f077686ebb264390d7216980920ae", "is_disabled": 0, "is_reserved": 0, "lat": 38.926213, "name": "6f4f077686ebb264390d7216980920ae", "rental_uris": {"ios": "https://dc.lft.to/lastmile_qr_scan", "android": "https://dc.lft.to/lastmile_qr_scan"}, "type": "electric_scooter", "fusion_lat": 0.0, "lon": -77.07713433333333}, {"fusion_lon": 0.0, "bike_id": "feeb8abc63b22aa02a49c85f37117831", "is_disabled": 0, "is_reserved": 0, "lat": 38.901490833333334, "name": "feeb8abc63b22aa02a49c85f37117831", "rental_uris": {"ios": "https://dc.lft.to/lastmile_qr_scan", "android": "https://dc.lft.to/lastmile_qr_scan"}, "type": "electric_scooter", "fusion_lat": 0.0, "lon": -77.05108383333334}, {"fusion_lon": 0.0, "bike_id": "cd9cb8cb4d53be3694f1229946401d88", "is_disabled": 0, "is_reserved": 0, "lat": 38.930904, "name": "cd9cb8cb4d53be3694f1229946401d88", "rental_uris": {"ios": "https://dc.lft.to/lastmile_qr_scan", "android": "https://dc.lft.to/lastmile_qr_scan"}, "type": "electric_scooter", "fusion_lat": 0.0, "lon": -77.02553016666667}, {"fusion_lon": 0.0, "bike_id": "98baabf65d9ad4089a20dc5c4a3d2e1d", "is_disabled": 0, "is_reserved": 0, "lat": 38.9017865, "name": "98baabf65d9ad4089a20dc5c4a3d2e1d", "rental_uris": {"ios": "https://dc.lft.to/lastmile_qr_scan", "android": "https://dc.lft.to/lastmile_qr_scan"}, "type": "electric_scooter", "fusion_lat": 0.0, "lon": -76.97666483333333}, {"fusion_lon": 0.0, "bike_id": "d6dd4cada625a953889ac5912d177d13", "is_disabled": 0, "is_reserved": 0, "lat": 38.93342766666667, "name": "d6dd4cada625a953889ac5912d177d13", "rental_uris": {"ios": "https://dc.lft.to/lastmile_qr_scan", "android": "https://dc.lft.to/lastmile_qr_scan"}, "type": "electric_scooter", "fusion_lat": 0.0, "lon": -77.05712433333333}, {"fusion_lon": 0.0, "bike_id": "c2aa6851dc6f7cdb6d71ed2d069bb856", "is_disabled": 0, "is_reserved": 0, "lat": 38.9143195, "name": "c2aa6851dc6f7cdb6d71ed2d069bb856", "rental_uris": {"ios": "https://dc.lft.to/lastmile_qr_scan", "android": "https://dc.lft.to/lastmile_qr_scan"}, "type": "electric_scooter", "fusion_lat": 0.0, "lon": -77.032159}, {"fusion_lon": 0.0, "bike_id": "27c395541f1ecadb1c1a8eb448bbf5ca", "is_disabled": 0, "is_reserved": 0, "lat": 38.92363366666667, "name": "27c395541f1ecadb1c1a8eb448bbf5ca", "rental_uris": {"ios": "https://dc.lft.to/lastmile_qr_scan", "android": "https://dc.lft.to/lastmile_qr_scan"}, "type": "electric_scooter", "fusion_lat": 0.0, "lon": -77.02135316666667}, {"fusion_lon": 0.0, "bike_id": "1e099ee88c11ed2b75be9b5bef3a9ca1", "is_disabled": 0, "is_reserved": 0, "lat": 38.92741383333333, "name": "1e099ee88c11ed2b75be9b5bef3a9ca1", "rental_uris": {"ios": "https://dc.lft.to/lastmile_qr_scan", "android": "https://dc.lft.to/lastmile_qr_scan"}, "type": "electric_scooter", "fusion_lat": 0.0, "lon": -77.03560783333333}, {"fusion_lon": 0.0, "bike_id": "0a5423855c5c17950d135495a469d869", "is_disabled": 0, "is_reserved": 0, "lat": 38.912655666666666, "name": "0a5423855c5c17950d135495a469d869", "rental_uris": {"ios": "https://dc.lft.to/lastmile_qr_scan", "android": "https://dc.lft.to/lastmile_qr_scan"}, "type": "electric_scooter", "fusion_lat": 0.0, "lon": -77.02228316666667}, {"fusion_lon": 0.0, "bike_id": "88321f66fcbcf957770c369137406f31", "is_disabled": 0, "is_reserved": 0, "lat": 38.89510416666667, "name": "88321f66fcbcf957770c369137406f31", "rental_uris": {"ios": "https://dc.lft.to/lastmile_qr_scan", "android": "https://dc.lft.to/lastmile_qr_scan"}, "type": "electric_scooter", "fusion_lat": 0.0, "lon": -76.9489005}, {"fusion_lon": 0.0, "bike_id": "3dd4ecb00f26e33dcae59cd7764cf0ba", "is_disabled": 0, "is_reserved": 0, "lat": 38.905660833333336, "name": "3dd4ecb00f26e33dcae59cd7764cf0ba", "rental_uris": {"ios": "https://dc.lft.to/lastmile_qr_scan", "android": "https://dc.lft.to/lastmile_qr_scan"}, "type": "electric_scooter", "fusion_lat": 0.0, "lon": -77.03004883333334}, {"fusion_lon": 0.0, "bike_id": "72a543c53fe3d2ea4000a85f58f7350f", "is_disabled": 0, "is_reserved": 0, "lat": 38.872902333333336, "name": "72a543c53fe3d2ea4000a85f58f7350f", "rental_uris": {"ios": "https://dc.lft.to/lastmile_qr_scan", "android": "https://dc.lft.to/lastmile_qr_scan"}, "type": "electric_scooter", "fusion_lat": 0.0, "lon": -77.009874}, {"fusion_lon": 0.0, "bike_id": "be9175b665f24a0c97e99f3340233f30", "is_disabled": 0, "is_reserved": 0, "lat": 38.8800665, "name": "be9175b665f24a0c97e99f3340233f30", "rental_uris": {"ios": "https://dc.lft.to/lastmile_qr_scan", "android": "https://dc.lft.to/lastmile_qr_scan"}, "type": "electric_scooter", "fusion_lat": 0.0, "lon": -76.9983335}, {"fusion_lon": 0.0, "bike_id": "4e75c7179ab2f3406919db2136b31b86", "is_disabled": 0, "is_reserved": 0, "lat": 38.8993595, "name": "4e75c7179ab2f3406919db2136b31b86", "rental_uris": {"ios": "https://dc.lft.to/lastmile_qr_scan", "android": "https://dc.lft.to/lastmile_qr_scan"}, "type": "electric_scooter", "fusion_lat": 0.0, "lon": -76.937635}, {"fusion_lon": 0.0, "bike_id": "928d8d2cc489fb6c5b30a632e2300bf7", "is_disabled": 0, "is_reserved": 0, "lat": 38.89334866666667, "name": "928d8d2cc489fb6c5b30a632e2300bf7", "rental_uris": {"ios": "https://dc.lft.to/lastmile_qr_scan", "android": "https://dc.lft.to/lastmile_qr_scan"}, "type": "electric_scooter", "fusion_lat": 0.0, "lon": -76.99383033333334}, {"fusion_lon": 0.0, "bike_id": "a8d108ebd2942bb373551088aa2c6c0b", "is_disabled": 0, "is_reserved": 0, "lat": 38.932125666666664, "name": "a8d108ebd2942bb373551088aa2c6c0b", "rental_uris": {"ios": "https://dc.lft.to/lastmile_qr_scan", "android": "https://dc.lft.to/lastmile_qr_scan"}, "type": "electric_scooter", "fusion_lat": 0.0, "lon": -77.02666383333333}, {"fusion_lon": 0.0, "bike_id": "e5c006c08e344ea563b41c61c3594859", "is_disabled": 0, "is_reserved": 0, "lat": 39.0347155, "name": "e5c006c08e344ea563b41c61c3594859", "rental_uris": {"ios": "https://dc.lft.to/lastmile_qr_scan", "android": "https://dc.lft.to/lastmile_qr_scan"}, "type": "electric_bike", "fusion_lat": 0.0, "lon": -77.04102316666666}, {"fusion_lon": 0.0, "bike_id": "383a3117881a5b7c32bd32b5c84a841f", "is_disabled": 0, "is_reserved": 0, "lat": 38.90215166666667, "name": "383a3117881a5b7c32bd32b5c84a841f", "rental_uris": {"ios": "https://dc.lft.to/lastmile_qr_scan", "android": "https://dc.lft.to/lastmile_qr_scan"}, "type": "electric_scooter", "fusion_lat": 0.0, "lon": -77.051287}, {"fusion_lon": 0.0, "bike_id": "4c2c003634fb39772fb49ae5c170ff3d", "is_disabled": 0, "is_reserved": 0, "lat": 38.92318683333333, "name": "4c2c003634fb39772fb49ae5c170ff3d", "rental_uris": {"ios": "https://dc.lft.to/lastmile_qr_scan", "android": "https://dc.lft.to/lastmile_qr_scan"}, "type": "electric_scooter", "fusion_lat": 0.0, "lon": -77.02916116666667}, {"fusion_lon": 0.0, "bike_id": "28bb358554f57c5a3c41ae533afbb41d", "is_disabled": 0, "is_reserved": 0, "lat": 38.92572916666667, "name": "28bb358554f57c5a3c41ae533afbb41d", "rental_uris": {"ios": "https://dc.lft.to/lastmile_qr_scan", "android": "https://dc.lft.to/lastmile_qr_scan"}, "type": "electric_scooter", "fusion_lat": 0.0, "lon": -77.03786666666667}, {"fusion_lon": 0.0, "bike_id": "0d16979a5f387a51517064f482307601", "is_disabled": 0, "is_reserved": 0, "lat": 38.8924115, "name": "0d16979a5f387a51517064f482307601", "rental_uris": {"ios": "https://dc.lft.to/lastmile_qr_scan", "android": "https://dc.lft.to/lastmile_qr_scan"}, "type": "electric_scooter", "fusion_lat": 0.0, "lon": -77.03181666666667}, {"fusion_lon": 0.0, "bike_id": "7b9d105155bc3a2b3771fe35747e0ee5", "is_disabled": 0, "is_reserved": 0, "lat": 38.89883966666667, "name": "7b9d105155bc3a2b3771fe35747e0ee5", "rental_uris": {"ios": "https://dc.lft.to/lastmile_qr_scan", "android": "https://dc.lft.to/lastmile_qr_scan"}, "type": "electric_scooter", "fusion_lat": 0.0, "lon": -76.9317795}, {"fusion_lon": 0.0, "bike_id": "442e58eb96fea2dc250998fded0f0f3d", "is_disabled": 0, "is_reserved": 0, "lat": 38.9258275, "name": "442e58eb96fea2dc250998fded0f0f3d", "rental_uris": {"ios": "https://dc.lft.to/lastmile_qr_scan", "android": "https://dc.lft.to/lastmile_qr_scan"}, "type": "electric_scooter", "fusion_lat": 0.0, "lon": -77.0281085}, {"fusion_lon": 0.0, "bike_id": "c531b7103ae4baba3385b38a858fbc81", "is_disabled": 0, "is_reserved": 0, "lat": 38.9211555, "name": "c531b7103ae4baba3385b38a858fbc81", "rental_uris": {"ios": "https://dc.lft.to/lastmile_qr_scan", "android": "https://dc.lft.to/lastmile_qr_scan"}, "type": "electric_scooter", "fusion_lat": 0.0, "lon": -77.04205583333334}, {"fusion_lon": 0.0, "bike_id": "786224ce1b81d46f81549ff1f3f4d2ba", "is_disabled": 0, "is_reserved": 0, "lat": 38.887351333333335, "name": "786224ce1b81d46f81549ff1f3f4d2ba", "rental_uris": {"ios": "https://dc.lft.to/lastmile_qr_scan", "android": "https://dc.lft.to/lastmile_qr_scan"}, "type": "electric_scooter", "fusion_lat": 0.0, "lon": -77.0030645}, {"fusion_lon": 0.0, "bike_id": "e338b74548d0a84301cfb9326d1f7bd3", "is_disabled": 0, "is_reserved": 0, "lat": 38.899908333333336, "name": "e338b74548d0a84301cfb9326d1f7bd3", "rental_uris": {"ios": "https://dc.lft.to/lastmile_qr_scan", "android": "https://dc.lft.to/lastmile_qr_scan"}, "type": "electric_scooter", "fusion_lat": 0.0, "lon": -77.02217433333334},