{"data": {"bikes": [{"bike_id": "e2278efed5a784cfc6c81857fa18128b", "is_reserved": 0, "fusion_lon": 0.0, "lat": 38.900785166666665, "is_disabled": 0, "name": "e2278efed5a784cfc6c81857fa18128b", "fusion_lat": 0.0, "rental_uris": {"ios": "https://dc.lft.to/lastmile_qr_scan", "android": "https://dc.lft.to/lastmile_qr_scan"}, "lon": -76.93862566666667, "type": "electric_scooter"}, {"bike_id": "be4d12875067a8d75ea37f65a9b96cc7", "is_reserved": 0, "fusion_lon": 0.0, "lat": 38.90799483333333, "is_disabled": 0, "name": "be4d12875067a8d75ea37f65a9b96cc7", "fusion_lat": 0.0, "rental_uris": {"ios": "https://dc.lft.to/lastmile_qr_scan", "android": "https://dc.lft.to/lastmile_qr_scan"}, "lon": -76.99696166666666, "type": "electric_scooter"}, {"bike_id": "5c644a242aefa8131ad6447e5384de32", "is_reserved": 0, "fusion_lon": 0.0, "lat": 38.91964933333333, "is_disabled": 0, "name": "5c644a242aefa8131ad6447e5384de32", "fusion_lat": 0.0, "rental_uris": {"ios": "https://dc.lft.to/lastmile_qr_scan", "android": "https://dc.lft.to/lastmile_qr_scan"}, "lon": -77.03187916666667, "type": "electric_scooter"}, {"bike_id": "9d19093e18ceb71f2dd9b745ed6b589f", "is_reserved": 0, "fusion_lon": 0.0, "lat": 38.896846833333335, "is_disabled": 0, "name": "9d19093e18ceb71f2dd9b745ed6b589f", "fusion_lat": 0.0, "rental_uris": {"ios": "https://dc.lft.to/lastmile_qr_scan", "android": "https://dc.lft.to/lastmile_qr_scan"}, "lon": -76.9962245, "type": "electric_scooter"}, {"bike_id": "55e2fd61475b3bb09b6dbccb5749b398", "is_reserved": 0, "fusion_lon": 0.0, "lat": 38.94973016666667, "is_disabled": 0, "name": "55e2fd61475b3bb09b6dbccb5749b398", "fusion_lat": 0.0, "rental_uris": {"ios": "https://dc.lft.to/lastmile_qr_scan", "android": "https://dc.lft.to/lastmile_qr_scan"}, "lon": -76.97278983333334, "type": "electric_bike"}, {"bike_id": "6232e194a34256a0b90f8f004e4b8aff", "is_reserved": 0, "fusion_lon": 0.0, "lat": 38.86622066666666, "is_disabled": 0, "name": "6232e194a34256a0b90f8f004e4b8aff", "fusion_lat": 0.0, "rental_uris": {"ios": "https://dc.lft.to/lastmile_qr_scan", "android": "https://dc.lft.to/lastmile_qr_scan"}, "lon": -76.94571516666667, "type": "electric_bike"}, {"bike_id": "d6f9c97230564b9990ce2f0d680fb8fa", "is_reserved": 0, "fusion_lon": 0.0, "lat": 38.8973205, "is_disabled": 0, "name": "d6f9c97230564b9990ce2f0d680fb8fa", "fusion_lat": 0.0, "rental_uris": {"ios": "https://dc.lft.to/lastmile_qr_scan", "android": "https://dc.lft.to/lastmile_qr_scan"}, "lon": -77.05567783333333, "type": "electric_scooter"}, {"bike_id": "d481eb282c210faa8ba80db5fd58caa1", "is_reserved": 0, "fusion_lon": 0.0, "lat": 38.860119833333336, "is_disabled": 0, "name": "d481eb282c210faa8ba80db5fd58caa1", "fusion_lat": 0.0, "rental_uris": {"ios": "https://dc.lft.to/lastmile_qr_scan", "android": "https://dc.lft.to/lastmile_qr_scan"}, "lon": -77.05777333333333, "type": "electric_bike"}, {"bike_id": "912eb1468835bc846fb6c22422664064", "is_reserved": 0, "fusion_lon": 0.0, "lat": 38.888499, "is_disabled": 0, "name": "912eb1468835bc846fb6c22422664064", "fusion_lat": 0.0, "rental_uris": {"ios": "https://dc.lft.to/lastmile_qr_scan", "android": "https://dc.lft.to/lastmile_qr_scan"}, "lon": -76.926737, "type": "electric_scooter"}, {"bike_id": "c20bf5279ceb0d5ec313e61959aeace0", "is_reserved": 0, "fusion_lon": 0.0, "lat": 38.90377633333333, "is_disabled": 0, "name": "c20bf5279ceb0d5ec313e61959aeace0", "fusion_lat": 0.0, "rental_uris": {"ios": "https://dc.lft.to/lastmile_qr_scan", "android": "https://dc.lft.to/lastmile_qr_scan"}, "lon": -77.04484966666666, "type": "electric_scooter"}, {"bike_id": "7e55d1fd68e6dc93b525e346ae3491ab", "is_reserved": 0, "fusion_lon": 0.0, "lat": 38.903792833333334, "is_disabled": 0, "name": "7e55d1fd68e6dc93b525e346ae3491ab", "fusion_lat": 0.0, "rental_uris": {"ios": "https://dc.lft.to/lastmile_qr_scan", "android": "https://dc.lft.to/lastmile_qr_scan"}, "lon": -76.9956335, "type": "electric_scooter"}, {"bike_id": "50f2a5d4c92f5258e13ad83f19dd370c", "is_reserved": 0, "fusion_lon": 0.0, "lat": 38.94804116666667, "is_disabled": 0, "name": "50f2a5d4c92f5258e13ad83f19dd370c", "fusion_lat": 0.0, "rental_uris": {"ios": "https://dc.lft.to/lastmile_qr_scan", "android": "https://dc.lft.to/lastmile_qr_scan"}, "lon": -77.07906966666667, "type": "electric_scooter"}, {"bike_id": "03a303f6e200c35074a59e0eb3e23366", "is_reserved": 0, "fusion_lon": 0.0, "lat": 38.905255833333335, "is_disabled": 0, "name": "03a303f6e200c35074a59e0eb3e23366", "fusion_lat": 0.0, "rental_uris": {"ios": "https://dc.lft.to/lastmile_qr_scan", "android": "https://dc.lft.to/lastmile_qr_scan"}, "lon": -77.05115033333334, "type": "electric_scooter"}, {"bike_id": "d87f60f0c56e70a44718a62f4d9ade9f", "is_reserved": 0, "fusion_lon": 0.0, "lat": 38.887458333333335, "is_disabled": 0, "name": "d87f60f0c56e70a44718a62f4d9ade9f", "fusion_lat": 0.0, "rental_uris": {"ios": "https://dc.lft.to/lastmile_qr_scan", "android": "https://dc.lft.to/lastmile_qr_scan"}, "lon": -77.02973466666667, "type": "electric_scooter"}, {"bike_id": "e65673f050921470c2a4171a4ddc3f2c", "is_reserved": 0, "fusion_lon": 0.0, "lat": 38.945132666666666, "is_disabled": 0, "name": "e65673f050921470c2a4171a4ddc3f2c", "fusion_lat": 0.0, "rental_uris": {"ios": "https://dc.lft.to/lastmile_qr_scan", "android": "https://dc.lft.to/lastmile_qr_scan"}, "lon": -77.00673283333333, "type": "electric_bike"}, {"bike_id": "e9ff966760a92614f34f3f11efc3234e", "is_reserved": 0, "fusion_lon": 0.0, "lat": 38.919571166666664, "is_disabled": 0, "name": "e9ff966760a92614f34f3f11efc3234e", "fusion_lat": 0.0, "rental_uris": {"ios": "https://dc.lft.to/lastmile_qr_scan", "android": "https://dc.lft.to/lastmile_qr_scan"}, "lon": -77.03184266666666, "type": "electric_scooter"}, {"bike_id": "33fbd8d9dd660be85511bd2eaa0695f9", "is_reserved": 0, "fusion_lon": 0.0, "lat": 38.88594066666667, "is_disabled": 0, "name": "33fbd8d9dd660be85511bd2eaa0695f9", "fusion_lat": 0.0, "rental_uris": {"ios": "https://dc.lft.to/lastmile_qr_scan", "android": "https://dc.lft.to/lastmile_qr_scan"}, "lon": -76.95261166666667, "type": "electric_scooter"}, {"bike_id": "fb462751e47b8912cfc2542d9c0e2ee0", "is_reserved": 0, "fusion_lon": 0.0, "lat": 38.86409733333333, "is_disabled": 0, "name": "fb462751e47b8912cfc2542d9c0e2ee0", "fusion_lat": 0.0, "rental_uris": {"ios": "https://dc.lft.to/lastmile_qr_scan", "android": "https://dc.lft.to/lastmile_qr_scan"}, "lon": -76.9805505, "type": "electric_scooter"}, {"bike_id": "728b08d29bca6d9ee89b2dc77a7b502d", "is_reserved": 0, "fusion_lon": 0.0, "lat": 38.83238883333333, "is_disabled": 0, "name": "728b08d29bca6d9ee89b2dc77a7b502d", "fusion_lat": 0.0, "rental_uris": {"ios": "https://dc.lft.to/lastmile_qr_scan", "android": "https://dc.lft.to/lastmile_qr_scan"}, "lon": -76.94621483333333, "type": "electric_bike"}, {"bike_id": "eeda2b79200efb0c5b1a11bc763bf278", "is_reserved": 0, "fusion_lon": 0.0, "lat": 38.8998735, "is_disabled": 0, "name": "eeda2b79200efb0c5b1a11bc763bf278", "fusion_lat": 0.0, "rental_uris": {"ios": "https://dc.lft.to/lastmile_qr_scan", "android": "https://dc.lft.to/lastmile_qr_scan"}, "lon": -76.99481866666666, "type": "electric_scooter"}, {"bike_id": "745248d9dfa223e139462a6b132975f1", "is_reserved": 0, "fusion_lon": 0.0, "lat": 38.895310333333335, "is_disabled": 0, "name": "745248d9dfa223e139462a6b132975f1", "fusion_lat": 0.0, "rental_uris": {"ios": "https://dc.lft.to/lastmile_qr_scan", "android": "https://dc.lft.to/lastmile_qr_scan"}, "lon": -77.03348083333333, "type": "electric_scooter"}, {"bike_id": "33cc70e8435fafb263e2458361fe01dd", "is_reserved": 0, "fusion_lon": 0.0, "lat": 38.9244875, "is_disabled": 0, "name": "33cc70e8435fafb263e2458361fe01dd", "fusion_lat": 0.0, "rental_uris": {"ios": "https://dc.lft.to/lastmile_qr_scan", "android": "https://dc.lft.to/lastmile_qr_scan"}, "lon": -77.020338, "type": "electric_scooter"}, {"bike_id": "5e06221b0162fa802aa619c66ed4428d", "is_reserved": 0, "fusion_lon": 0.0, "lat": 38.9140815, "is_disabled": 0, "name": "5e06221b0162fa802aa619c66ed4428d", "fusion_lat": 0.0, "rental_uris": {"ios": "https://dc.lft.to/lastmile_qr_scan", "android": "https://dc.lft.to/lastmile_qr_scan"}, "lon": -77.045696, "type": "electric_scooter"}, {"bike_id": "53d1f46bf839e4709882c299adf4487c", "is_reserved": 0, "fusion_lon": 0.0, "lat": 38.91050166666667, "is_disabled": 0, "name": "53d1f46bf839e4709882c299adf4487c", "fusion_lat": 0.0, "rental_uris": {"ios": "https://dc.lft.to/lastmile_qr_scan", "android": "https://dc.lft.to/lastmile_qr_scan"}, "lon": -77.01509016666667, "type": "electric_scooter"}, {"bike_id": "3da92ef53fbb1cc4237a56b4352eb088", "is_reserved": 0, "fusion_lon": 0.0, "lat": 38.9244365, "is_disabled": 0, "name": "3da92ef53fbb1cc4237a56b4352eb088", "fusion_lat": 0.0, "rental_uris": {"ios": "https://dc.lft.to/lastmile_qr_scan", "android": "https://dc.lft.to/lastmile_qr_scan"}, "lon": -77.03368983333333, "type": "electric_scooter"}, {"bike_id": "5c08b4a3bcd61cdf89c5d538a8c6fada", "is_reserved": 0, "fusion_lon": 0.0, "lat": 38.940957, "is_disabled": 0, "name": "5c08b4a3bcd61cdf89c5d538a8c6fada", "fusion_lat": 0.0, "rental_uris": {"ios": "https://dc.lft.to/lastmile_qr_scan", "android": "https://dc.lft.to/lastmile_qr_scan"}, "lon": -77.03280766666667, "type": "electric_scooter"}, {"bike_id": "322ff21048d46a419e0ba5e7c82a7e6c", "is_reserved": 0, "fusion_lon": 0.0, "lat": 38.972356, "is_disabled": 0, "name": "322ff21048d46a419e0ba5e7c82a7e6c", "fusion_lat": 0.0, "rental_uris": {"ios": "https://dc.lft.to/lastmile_qr_scan", "android": "https://dc.lft.to/lastmile_qr_scan"}, "lon": -77.02716, "type": "electric_scooter"}, {"bike_id": "21f70f5c9552dd2479b6f05c11b316d3", "is_reserved": 0, "fusion_lon": 0.0, "lat": 38.86430466666667, "is_disabled": 0, "name": "21f70f5c9552dd2479b6f05c11b316d3", "fusion_lat": 0.0, "rental_uris": {"ios": "https://dc.lft.to/lastmile_qr_scan", "android": "https://dc.lft.to/lastmile_qr_scan"}, "lon": -76.97434383333334, "type": "electric_scooter"}, {"bike_id": "abbcf0b0c10bdafef143e8b6e6a96499", "is_reserved": 0, "fusion_lon": 0.0, "lat": 38.932018666666664, "is_disabled": 0, "name": "abbcf0b0c10bdafef143e8b6e6a96499", "fusion_lat": 0.0, "rental_uris": {"ios": "https://dc.lft.to/lastmile_qr_scan", "android": "https://dc.lft.to/lastmile_qr_scan"}, "lon": -77.0385225, "type": "electric_scooter"}, {"bike_id": "679041454cf12538fa9c9a9113f70e7f", "is_reserved": 0, "fusion_lon": 0.0, "lat": 38.9083015, "is_disabled": 0, "name": "679041454cf12538fa9c9a9113f70e7f", "fusion_lat": 0.0, "rental_uris": {"ios": "https://dc.lft.to/lastmile_qr_scan", "android": "https://dc.lft.to/lastmile_qr_scan"}, "lon": -77.04464483333334, "type": "electric_scooter"}, {"bike_id": "0a4f27b4f7061b5240ca555493c50ae5", "is_reserved": 0, "fusion_lon": 0.0, "lat": 38.907996833333335, "is_disabled": 0, "name": "0a4f27b4f7061b5240ca555493c50ae5", "fusion_lat": 0.0, "rental_uris": {"ios": "https://dc.lft.to/lastmile_qr_scan", "android": "https://dc.lft.to/lastmile_qr_scan"}, "lon": -77.04868566666667, "type": "electric_scooter"}, {"bike_id": "1036767e20a450f9c575008f031e72b4", "is_reserved": 0, "fusion_lon": 0.0, "lat": 38.902622, "is_disabled": 0, "name": "1036767e20a450f9c575008f031e72b4", "fusion_lat": 0.0, "rental_uris": {"ios": "https://dc.lft.to/lastmile_qr_scan", "android": "https://dc.lft.to/lastmile_qr_scan"}, "lon": -77.03438816666667, "type": "electric_scooter"}, {"bike_id": "a72ee73422aa6df5790cae50653b8e42", "is_reserved": 0, "fusion_lon": 0.0, "lat": 38.911993833333334, "is_disabled": 0, "name": "a72ee73422aa6df5790cae50653b8e42", "fusion_lat": 0.0, "rental_uris": {"ios": "https://dc.lft.to/lastmile_qr_scan", "android": "https://dc.lft.to/lastmile_qr_scan"}, "lon": -77.00727583333334, "type": "electric_scooter"}, {"bike_id": "c1fc77d84602c560682706f522b57037", "is_reserved": 0, "fusion_lon": 0.0, "lat": 38.878938, "is_disabled": 0, "name": "c1fc77d84602c560682706f522b57037", "fusion_lat": 0.0, "rental_uris": {"ios": "https://dc.lft.to/lastmile_qr_scan", "android": "https://dc.lft.to/lastmile_qr_scan"}, "lon": -76.99144416666667, "type": "electric_scooter"}, {"bike_id": "b9607a350944f034d6b56f83a4da45a2", "is_reserved": 0, "fusion_lon": 0.0, "lat": 38.90471516666667, "is_disabled": 0, "name": "b9607a350944f034d6b56f83a4da45a2", "fusion_lat": 0.0, "rental_uris": {"ios": "https://dc.lft.to/lastmile_qr_scan", "android": "https://dc.lft.to/lastmile_qr_scan"}, "lon": -77.02942616666667, "type": "electric_scooter"}, {"bike_id": "77a69a86102f39949deaaf45d67c6b70", "is_reserved": 0, "fusion_lon": 0.0, "lat": 38.88220466666667, "is_disabled": 0, "name": "77a69a86102f39949deaaf45d67c6b70", "fusion_lat": 0.0, "rental_uris": {"ios": "https://dc.lft.to/lastmile_qr_scan", "android": "https://dc.lft.to/lastmile_qr_scan"}, "lon": -76.94173633333334, "type": "electric_scooter"}, {"bike_id": "f051b3694808ef19e4cbfed07b1a4cd8", "is_reserved": 0, "fusion_lon": 0.0, "lat": 38.903179333333334, "is_disabled": 0, "name": "f051b3694808ef19e4cbfed07b1a4cd8", "fusion_lat": 0.0, "rental_uris": {"ios": "https://dc.lft.to/lastmile_qr_scan", "android": "https://dc.lft.to/lastmile_qr_scan"}, "lon": -77.034346, "type": "electric_scooter"}, {"bike_id": "6ef02350e7bffb709988eb9c547da39d", "is_reserved": 0, "fusion_lon": 0.0, "lat": 38.93123216666667, "is_disabled": 0, "name": "6ef02350e7bffb709988eb9c547da39d", "fusion_lat": 0.0, "rental_uris": {"ios": "https://dc.lft.to/lastmile_qr_scan", "android": "https://dc.lft.to/lastmile_qr_scan"}, "lon": -77.03818533333333, "type": "electric_scooter"}, {"bike_id": "72aca4a757a7af67a481bf73aa341c4e", "is_reserved": 0, "fusion_lon": 0.0, "lat": 38.903337666666665, "is_disabled": 0, "name": "72aca4a757a7af67a481bf73aa341c4e", "fusion_lat": 0.0, "rental_uris": {"ios": "https://dc.lft.to/lastmile_qr_scan", "android": "https://dc.lft.to/lastmile_qr_scan"}, "lon": -76.9896715, "type": "electric_scooter"}, {"bike_id": "31f87c047e635d17915fb625cd0f14fb", "is_reserved": 0, "fusion_lon": 0.0, "lat": 38.902822666666665, "is_disabled": 0, "name": "31f87c047e635d17915fb625cd0f14fb", "fusion_lat": 0.0, "rental_uris": {"ios": "https://dc.lft.to/lastmile_qr_scan", "android": "https://dc.lft.to/lastmile_qr_scan"}, "lon": -77.036454, "type": "electric_scooter"}, {"bike_id": "9a097304438485a320e581dfcd96a5ec", "is_reserved": 0, "fusion_lon": 0.0, "lat": 38.915792833333334, "is_disabled": 0, "name": "9a097304438485a320e581dfcd96a5ec", "fusion_lat": 0.0, "rental_uris": {"ios": "https://dc.lft.to/lastmile_qr_scan", "android": "https://dc.lft.to/lastmile_qr_scan"}, "lon": -77.04668266666667, "type": "electric_scooter"}, {"bike_id": "5b521a0e24704e2fbda8acce056f2f10", "is_reserved": 0, "fusion_lon": 0.0, "lat": 38.916907, "is_disabled": 0, "name": "5b521a0e24704e2fbda8acce056f2f10", "fusion_lat": 0.0, "rental_uris": {"ios": "https://dc.lft.to/lastmile_qr_scan", "android": "https://dc.lft.to/lastmile_qr_scan"}, "lon": -77.0290415, "type": "electric_scooter"}, {"bike_id": "a82952911e1330381675fdff47d9bf97", "is_reserved": 0, "fusion_lon": 0.0, "lat": 38.91281983333333, "is_disabled": 0, "name": "a82952911e1330381675fdff47d9bf97", "fusion_lat": 0.0, "rental_uris": {"ios": "https://dc.lft.to/lastmile_qr_scan", "android": "https://dc.lft.to/lastmile_qr_scan"}, "lon": -77.03857116666667, "type": "electric_scooter"}, {"bike_id": "8fac4863c03d16b9dcd369fcfa236759", "is_reserved": 0, "fusion_lon": 0.0, "lat": 38.901321333333335, "is_disabled": 0, "name": "8fac4863c03d16b9dcd369fcfa236759", "fusion_lat": 0.0, "rental_uris": {"ios": "https://dc.lft.to/lastmile_qr_scan", "android": "https://dc.lft.to/lastmile_qr_scan"}, "lon": -77.01611516666667, "type": "electric_scooter"}, {"bike_id": "205af14b232f7f1298db3d2c9a0697fe", "is_reserved": 0, "fusion_lon": 0.0, "lat": 38.93694266666667, "is_disabled": 0, "name": "205af14b232f7f1298db3d2c9a0697fe", "fusion_lat": 0.0, "rental_uris": {"ios": "https://dc.lft.to/lastmile_qr_scan", "android": "https://dc.lft.to/lastmile_qr_scan"}, "lon": -77.06016066666666, "type": "electric_scooter"}, {"bike_id": "0b69a933873297027464fa5007c58f6e", "is_reserved": 0, "fusion_lon": 0.0, "lat": 38.89804016666667, "is_disabled": 0, "name": "0b69a933873297027464fa5007c58f6e", "fusion_lat": 0.0, "rental_uris": {"ios": "https://dc.lft.to/lastmile_qr_scan", "android": "https://dc.lft.to/lastmile_qr_scan"}, "lon": -77.029347, "type": "electric_scooter"}, {"bike_id": "04f2653ffd034d922671af29d922d498", "is_reserved": 0, "fusion_lon": 0.0, "lat": 38.855356666666665, "is_disabled": 0, "name": "04f2653ffd034d922671af29d922d498", "fusion_lat": 0.0, "rental_uris": {"ios": "https://dc.lft.to/lastmile_qr_scan", "android": "https://dc.lft.to/lastmile_qr_scan"}, "lon": -77.1132855, "type": "electric_bike"}, {"bike_id": "e65184fb4d4aa801d2f61abacbb8f88c", "is_reserved": 0, "fusion_lon": 0.0, "lat": 38.896669333333335, "is_disabled": 0, "name": "e65184fb4d4aa801d2f61abacbb8f88c", "fusion_lat": 0.0, "rental_uris": {"ios": "https://dc.lft.to/lastmile_qr_scan", "android": "https://dc.lft.to/lastmile_qr_scan"}, "lon": -77.02941633333333, "type": "electric_scooter"}, {"bike_id": "b9948e16c53ac8e3db2296b7eeef8eaf", "is_reserved": 0, "fusion_lon": 0.0, "lat": 38.88325916666667, "is_disabled": 0, "name": "b9948e16c53ac8e3db2296b7eeef8eaf", "fusion_lat": 0.0, "rental_uris": {"ios": "https://dc.lft.to/lastmile_qr_scan", "android": "https://dc.lft.to/lastmile_qr_scan"}, "lon": -77.01752883333333, "type": "electric_scooter"}, {"bike_id": "0dde846c2917908a0696606ab08eb0b1", "is_reserved": 0, "fusion_lon": 0.0, "lat": 38.92579333333333, "is_disabled": 0, "name": "0dde846c2917908a0696606ab08eb0b1", "fusion_lat": 0.0, "rental_uris": {"ios": "https://dc.lft.to/lastmile_qr_scan", "android": "https://dc.lft.to/lastmile_qr_scan"}, "lon": -77.03909666666667, "type": "electric_scooter"}, {"bike_id": "512d88f80780a0d3fc872e4ade07d8ab", "is_reserved": 0, "fusion_lon": 0.0, "lat": 38.9171325, "is_disabled": 0, "name": "512d88f80780a0d3fc872e4ade07d8ab", "fusion_lat": 0.0, "rental_uris": {"ios": "https://dc.lft.to/lastmile_qr_scan", "android": "https://dc.lft.to/lastmile_qr_scan"}, "lon": -77.031111, "type": "electric_scooter"}, {"bike_id": "3f687157c7485a281c6e0acb58d7c51c", "is_reserved": 0, "fusion_lon": 0.0, "lat": 38.9258725, "is_disabled": 0, "name": "3f687157c7485a281c6e0acb58d7c51c", "fusion_lat": 0.0, "rental_uris": {"ios": "https://dc.lft.to/lastmile_qr_scan", "android": "https://dc.lft.to/lastmile_qr_scan"}, "lon": -77.03924866666667, "type": "electric_scooter"}, {"bike_id": "e96d15b022f96f056ed0e5ad0506709f", "is_reserved": 0, "fusion_lon": 0.0, "lat": 38.9043295, "is_disabled": 0, "name": "e96d15b022f96f056ed0e5ad0506709f", "fusion_lat": 0.0, "rental_uris": {"ios": "https://dc.lft.to/lastmile_qr_scan", "android": "https://dc.lft.to/lastmile_qr_scan"}, "lon": -77.02882416666667, "type": "electric_scooter"}, {"bike_id": "09299f1faa053595c095d510a9b9cecc", "is_reserved": 0, "fusion_lon": 0.0, "lat": 38.915905333333335, "is_disabled": 0, "name": "09299f1faa053595c095d510a9b9cecc", "fusion_lat": 0.0, "rental_uris": {"ios": "https://dc.lft.to/lastmile_qr_scan", "android": "https://dc.lft.to/lastmile_qr_scan"}, "lon": -76.9837145, "type": "electric_scooter"}, {"bike_id": "4317f234223aae41ddc1e8df66809e4c", "is_reserved": 0, "fusion_lon": 0.0, "lat": 38.90251283333333, "is_disabled": 0, "name": "4317f234223aae41ddc1e8df66809e4c", "fusion_lat": 0.0, "rental_uris": {"ios": "https://dc.lft.to/lastmile_qr_scan", "android": "https://dc.lft.to/lastmile_qr_scan"}, "lon": -77.01774383333333, "type": "electric_scooter"}, {"bike_id": "5383264d32d59f6795a2fdc6bce8f7b4", "is_reserved": 0, "fusion_lon": 0.0, "lat": 38.912184833333335, "is_disabled": 0, "name": "5383264d32d59f6795a2fdc6bce8f7b4", "fusion_lat": 0.0, "rental_uris": {"ios": "https://dc.lft.to/lastmile_qr_scan", "android": "https://dc.lft.to/lastmile_qr_scan"}, "lon": -77.02802716666666, "type": "electric_scooter"}, {"bike_id": "77bc508aeb696c00e1e60ecce50fc7fb", "is_reserved": 0, "fusion_lon": 0.0, "lat": 38.917710666666665, "is_disabled": 0, "name": "77bc508aeb696c00e1e60ecce50fc7fb", "fusion_lat": 0.0, "rental_uris": {"ios": "https://dc.lft.to/lastmile_qr_scan", "android": "https://dc.lft.to/lastmile_qr_scan"}, "lon": -77.014906, "type": "electric_scooter"}, {"bike_id": "3b59939d17855f9a673ca8213b969830", "is_reserved": 0, "fusion_lon": 0.0, "lat": 38.8665945, "is_disabled": 0, "name": "3b59939d17855f9a673ca8213b969830", "fusion_lat": 0.0, "rental_uris": {"ios": "https://dc.lft.to/lastmile_qr_scan", "android": "https://dc.lft.to/lastmile_qr_scan"}, "lon": -76.98892666666667, "type": "electric_scooter"}, {"bike_id": "7e8de07fd2b357603ca2ee69c76f4698", "is_reserved": 0, "fusion_lon": 0.0, "lat": 38.93115183333333, "is_disabled": 0, "name": "7e8de07fd2b357603ca2ee69c76f4698", "fusion_lat": 0.0, "rental_uris": {"ios": "https://dc.lft.to/lastmile_qr_scan", "android": "https://dc.lft.to/lastmile_qr_scan"}, "lon": -77.0213765, "type": "electric_scooter"}, {"bike_id": "43ee416d05577dfbdbc7b4ae7013164b", "is_reserved": 0, "fusion_lon": 0.0, "lat": 38.91874283333333, "is_disabled": 0, "name": "43ee416d05577dfbdbc7b4ae7013164b", "fusion_lat": 0.0, "rental_uris": {"ios": "https://dc.lft.to/lastmile_qr_scan", "android": "https://dc.lft.to/lastmile_qr_scan"}, "lon": -77.04462583333333, "type": "electric_scooter"}, {"bike_id": "63eaf4ef349e433135b0edad49ad09db", "is_reserved": 0, "fusion_lon": 0.0, "lat": 38.964958, "is_disabled": 0, "name": "63eaf4ef349e433135b0edad49ad09db", "fusion_lat": 0.0, "rental_uris": {"ios": "https://dc.lft.to/lastmile_qr_scan", "android": "https://dc.lft.to/lastmile_qr_scan"}, "lon": -77.06486016666666, "type": "electric_bike"}, {"bike_id": "1e1a9ff04c6d7323fe31cf420a8234e1", "is_reserved": 0, "fusion_lon": 0.0, "lat": 38.8989605, "is_disabled": 0, "name": "1e1a9ff04c6d7323fe31cf420a8234e1", "fusion_lat": 0.0, "rental_uris": {"ios": "https://dc.lft.to/lastmile_qr_scan", "android": "https://dc.lft.to/lastmile_qr_scan"}, "lon": -77.03921983333333, "type": "electric_scooter"}, {"bike_id": "1effc31616482af66fe606b81b5053a6", "is_reserved": 0, "fusion_lon": 0.0, "lat": 38.91037133333333, "is_disabled": 0, "name": "1effc31616482af66fe606b81b5053a6", "fusion_lat": 0.0, "rental_uris": {"ios": "https://dc.lft.to/lastmile_qr_scan", "android": "https://dc.lft.to/lastmile_qr_scan"}, "lon": -77.0438755, "type": "electric_scooter"}, {"bike_id": "5e79cbe9f2b362e83611ce3eb62a324b", "is_reserved": 0, "fusion_lon": 0.0, "lat": 38.923136, "is_disabled": 0, "name": "5e79cbe9f2b362e83611ce3eb62a324b", "fusion_lat": 0.0, "rental_uris": {"ios": "https://dc.lft.to/lastmile_qr_scan", "android": "https://dc.lft.to/lastmile_qr_scan"}, "lon": -77.0365455, "type": "electric_scooter"}, {"bike_id": "83760626482462e039c4831e6bcf7110", "is_reserved": 0, "fusion_lon": 0.0, "lat": 38.901753666666664, "is_disabled": 0, "name": "83760626482462e039c4831e6bcf7110", "fusion_lat": 0.0, "rental_uris": {"ios": "https://dc.lft.to/lastmile_qr_scan", "android": "https://dc.lft.to/lastmile_qr_scan"}, "lon": -77.02489516666667, "type": "electric_scooter"}, {"bike_id": "9f799bc38e0e3658d908345d73eee1f5", "is_reserved": 0, "fusion_lon": 0.0, "lat": 38.89059266666667, "is_disabled": 0, "name": "9f799bc38e0e3658d908345d73eee1f5", "fusion_lat": 0.0, "rental_uris": {"ios": "https://dc.lft.to/lastmile_qr_scan", "android": "https://dc.lft.to/lastmile_qr_scan"}, "lon": -77.02300733333334, "type": "electric_scooter"}, {"bike_id": "c3d1c994265121b372ccf7e429810af5", "is_reserved": 0, "fusion_lon": 0.0, "lat": 38.900384, "is_disabled": 0, "name": "c3d1c994265121b372ccf7e429810af5", "fusion_lat": 0.0, "rental_uris": {"ios": "https://dc.lft.to/lastmile_qr_scan", "android": "https://dc.lft.to/lastmile_qr_scan"}, "lon": -77.00535083333334, "type": "electric_scooter"}, {"bike_id": "ff381eac73571ea2c4201300b6e92c64", "is_reserved": 0, "fusion_lon": 0.0, "lat": 38.909759666666666, "is_disabled": 0, "name": "ff381eac73571ea2c4201300b6e92c64", "fusion_lat": 0.0, "rental_uris": {"ios": "https://dc.lft.to/lastmile_qr_scan", "android": "https://dc.lft.to/lastmile_qr_scan"}, "lon": -77.04871066666666, "type": "electric_scooter"}, {"bike_id": "79392bd1e39e6f86dd8524d8b8ba94a9", "is_reserved": 0, "fusion_lon": 0.0, "lat": 38.8843205, "is_disabled": 0, "name": "79392bd1e39e6f86dd8524d8b8ba94a9", "fusion_lat": 0.0, "rental_uris": {"ios": "https://dc.lft.to/lastmile_qr_scan", "android": "https://dc.lft.to/lastmile_qr_scan"}, "lon": -76.95751383333334, "type": "electric_scooter"}, {"bike_id": "cbbbdc346b3948665d089f8238f4cc95", "is_reserved": 0, "fusion_lon": 0.0, "lat": 38.931416666666664, "is_disabled": 0, "name": "cbbbdc346b3948665d089f8238f4cc95", "fusion_lat": 0.0, "rental_uris": {"ios": "https://dc.lft.to/lastmile_qr_scan", "android": "https://dc.lft.to/lastmile_qr_scan"}, "lon": -77.05704083333333, "type": "electric_scooter"}, {"bike_id": "d3129739fa52cde8cc97bac88cf7af2d", "is_reserved": 0, "fusion_lon": 0.0, "lat": 38.90562933333333, "is_disabled": 0, "name": "d3129739fa52cde8cc97bac88cf7af2d", "fusion_lat": 0.0, "rental_uris": {"ios": "https://dc.lft.to/lastmile_qr_scan", "android": "https://dc.lft.to/lastmile_qr_scan"}, "lon": -76.98136283333334, "type": "electric_scooter"}, {"bike_id": "07f398ba074579634af619dd121e2e08", "is_reserved": 0, "fusion_lon": 0.0, "lat": 38.940174666666664, "is_disabled": 0, "name": "07f398ba074579634af619dd121e2e08", "fusion_lat": 0.0, "rental_uris": {"ios": "https://dc.lft.to/lastmile_qr_scan", "android": "https://dc.lft.to/lastmile_qr_scan"}, "lon": -77.071732, "type": "electric_scooter"}, {"bike_id": "2f437a0d07436d6db99a51c7603ac0e7", "is_reserved": 0, "fusion_lon": 0.0, "lat": 38.904075666666664, "is_disabled": 0, "name": "2f437a0d07436d6db99a51c7603ac0e7", "fusion_lat": 0.0, "rental_uris": {"ios": "https://dc.lft.to/lastmile_qr_scan", "android": "https://dc.lft.to/lastmile_qr_scan"}, "lon": -76.97326733333334, "type": "electric_scooter"}, {"bike_id": "1852a0bc0ad7522105335e161be7b934", "is_reserved": 0, "fusion_lon": 0.0, "lat": 38.9192075, "is_disabled": 0, "name": "1852a0bc0ad7522105335e161be7b934", "fusion_lat": 0.0, "rental_uris": {"ios": "https://dc.lft.to/lastmile_qr_scan", "android": "https://dc.lft.to/lastmile_qr_scan"}, "lon": -77.0097205, "type": "electric_scooter"}, {"bike_id": "3c767c69cc2e2c30c2048dc5b9ca1af0", "is_reserved": 0, "fusion_lon": 0.0, "lat": 38.904069, "is_disabled": 0, "name": "3c767c69cc2e2c30c2048dc5b9ca1af0", "fusion_lat": 0.0, "rental_uris": {"ios": "https://dc.lft.to/lastmile_qr_scan", "android": "https://dc.lft.to/lastmile_qr_scan"}, "lon": -77.024998, "type": "electric_scooter"}, {"bike_id": "6e61de8ba18c550c2853f0c2192904bc", "is_reserved": 0, "fusion_lon": 0.0, "lat": 38.90390383333333, "is_disabled": 0, "name": "6e61de8ba18c550c2853f0c2192904bc", "fusion_lat": 0.0, "rental_uris": {"ios": "https://dc.lft.to/lastmile_qr_scan", "android": "https://dc.lft.to/lastmile_qr_scan"}, "lon": -77.04206283333333, "type": "electric_scooter"}, {"bike_id": "0b1e03e7912a49749446829250af2ecc", "is_reserved": 0, "fusion_lon": 0.0, "lat": 38.90384133333333, "is_disabled": 0, "name": "0b1e03e7912a49749446829250af2ecc", "fusion_lat": 0.0, "rental_uris": {"ios": "https://dc.lft.to/lastmile_qr_scan", "android": "https://dc.lft.to/lastmile_qr_scan"}, "lon": -77.01780133333334, "type": "electric_scooter"}, {"bike_id": "f79dec4d768d1fd516658f3676e0adc0", "is_reserved": 0, "fusion_lon": 0.0, "lat": 38.920142166666665, "is_disabled": 0, "name": "f79dec4d768d1fd516658f3676e0adc0", "fusion_lat": 0.0, "rental_uris": {"ios": "https://dc.lft.to/lastmile_qr_scan", "android": "https://dc.lft.to/lastmile_qr_scan"}, "lon": -77.03869516666667, "type": "electric_scooter"}, {"bike_id": "cd77c5aa1531e9dc6a4e13c534b6de17", "is_reserved": 0, "fusion_lon": 0.0, "lat": 38.88745983333333, "is_disabled": 0, "name": "cd77c5aa1531e9dc6a4e13c534b6de17", "fusion_lat": 0.0, "rental_uris": {"ios": "https://dc.lft.to/lastmile_qr_scan", "android": "https://dc.lft.to/lastmile_qr_scan"}, "lon": -77.02859183333334, "type": "electric_scooter"}, {"bike_id": "1874a4bb52824362b367a81f7bb3fab6", "is_reserved": 0, "fusion_lon": 0.0, "lat": 38.90370816666667, "is_disabled": 0, "name": "1874a4bb52824362b367a81f7bb3fab6", "fusion_lat": 0.0, "rental_uris": {"ios": "https://dc.lft.to/lastmile_qr_scan", "android": "https://dc.lft.to/lastmile_qr_scan"}, "lon": -76.98501783333333, "type": "electric_scooter"}, {"bike_id": "6169e010b1a4dbc84075af41853c34bf", "is_reserved": 0, "fusion_lon": 0.0, "lat": 38.938992999999996, "is_disabled": 0, "name": "6169e010b1a4dbc84075af41853c34bf", "fusion_lat": 0.0, "rental_uris": {"ios": "https://dc.lft.to/lastmile_qr_scan", "android": "https://dc.lft.to/lastmile_qr_scan"}, "lon": -77.02809616666667, "type": "electric_bike"}, {"bike_id": "9b1d641f968afb06cc34986278f24001", "is_reserved": 0, "fusion_lon": 0.0, "lat": 38.81335416666667, "is_disabled": 0, "name": "9b1d641f968afb06cc34986278f24001", "fusion_lat": 0.0, "rental_uris": {"ios": "https://dc.lft.to/lastmile_qr_scan", "android": "https://dc.lft.to/lastmile_qr_scan"}, "lon": -77.05108616666666, "type": "electric_bike"}, {"bike_id": "237ba84d39d1862613c82227fcd71b3e", "is_reserved": 0, "fusion_lon": 0.0, "lat": 38.88639666666667, "is_disabled": 0, "name": "237ba84d39d1862613c82227fcd71b3e", "fusion_lat": 0.0, "rental_uris": {"ios": "https://dc.lft.to/lastmile_qr_scan", "android": "https://dc.lft.to/lastmile_qr_scan"}, "lon": -77.02136533333334, "type": "electric_scooter"}, {"bike_id": "0b4dca2d9e51f21edbf97b4d5ad29e69", "is_reserved": 0, "fusion_lon": 0.0, "lat": 38.906768666666665, "is_disabled": 0, "name": "0b4dca2d9e51f21edbf97b4d5ad29e69", "fusion_lat": 0.0, "rental_uris": {"ios": "https://dc.lft.to/lastmile_qr_scan", "android": "https://dc.lft.to/lastmile_qr_scan"}, "lon": -77.00026616666666, "type": "electric_scooter"}, {"bike_id": "fda4a5af0d746c01b8c53b291895f47b", "is_reserved": 0, "fusion_lon": 0.0, "lat": 38.903783833333335, "is_disabled": 0, "name": "fda4a5af0d746c01b8c53b291895f47b", "fusion_lat": 0.0, "rental_uris": {"ios": "https://dc.lft.to/lastmile_qr_scan", "android": "https://dc.lft.to/lastmile_qr_scan"}, "lon": -76.99830366666667, "type": "electric_scooter"}, {"bike_id": "455a0efcba1416e52d469147fd9b8acd", "is_reserved": 0, "fusion_lon": 0.0, "lat": 38.9245675, "is_disabled": 0, "name": "455a0efcba1416e52d469147fd9b8acd", "fusion_lat": 0.0, "rental_uris": {"ios": "https://dc.lft.to/lastmile_qr_scan", "android": "https://dc.lft.to/lastmile_qr_scan"}, "lon": -76.99911516666667, "type": "electric_scooter"}, {"bike_id": "0dea946231fba52d40cbe92bea949881", "is_reserved": 0, "fusion_lon": 0.0, "lat": 38.9033365, "is_disabled": 0, "name": "0dea946231fba52d40cbe92bea949881", "fusion_lat": 0.0, "rental_uris": {"ios": "https://dc.lft.to/lastmile_qr_scan", "android": "https://dc.lft.to/lastmile_qr_scan"}, "lon": -77.03840716666667, "type": "electric_scooter"}, {"bike_id": "0edd645a2813f752099cad8cdac8fd8b", "is_reserved": 0, "fusion_lon": 0.0, "lat": 38.91012966666667, "is_disabled": 0, "name": "0edd645a2813f752099cad8cdac8fd8b", "fusion_lat": 0.0, "rental_uris": {"ios": "https://dc.lft.to/lastmile_qr_scan", "android": "https://dc.lft.to/lastmile_qr_scan"}, "lon": -76.993908, "type": "electric_scooter"}, {"bike_id": "f3bc3c938aa96df11fe31eea8aaf1b06", "is_reserved": 0, "fusion_lon": 0.0, "lat": 38.928884333333336, "is_disabled": 0, "name": "f3bc3c938aa96df11fe31eea8aaf1b06", "fusion_lat": 0.0, "rental_uris": {"ios": "https://dc.lft.to/lastmile_qr_scan", "android": "https://dc.lft.to/lastmile_qr_scan"}, "lon": -77.03419016666666, "type": "electric_scooter"}, {"bike_id": "518ac12c5e04806e294efb59be103ba0", "is_reserved": 0, "fusion_lon": 0.0, "lat": 38.883991333333334, "is_disabled": 0, "name": "518ac12c5e04806e294efb59be103ba0", "fusion_lat": 0.0, "rental_uris": {"ios": "https://dc.lft.to/lastmile_qr_scan", "android": "https://dc.lft.to/lastmile_qr_scan"}, "lon": -76.93041366666667, "type": "electric_scooter"}, {"bike_id": "95121778e0ad21420ebc01cf83a0f084", "is_reserved": 0, "fusion_lon": 0.0, "lat": 38.84425133333333, "is_disabled": 0, "name": "95121778e0ad21420ebc01cf83a0f084", "fusion_lat": 0.0, "rental_uris": {"ios": "https://dc.lft.to/lastmile_qr_scan", "android": "https://dc.lft.to/lastmile_qr_scan"}, "lon": -76.99777466666667, "type": "electric_scooter"}, {"bike_id": "55c57eb8a6edd807d8fc066558643514", "is_reserved": 0, "fusion_lon": 0.0, "lat": 38.9066275, "is_disabled": 0, "name": "55c57eb8a6edd807d8fc066558643514", "fusion_lat": 0.0, "rental_uris": {"ios": "https://dc.lft.to/lastmile_qr_scan", "android": "https://dc.lft.to/lastmile_qr_scan"}, "lon": -77.0350975, "type": "electric_scooter"}, {"bike_id": "9cd8176ee4b13a50f82e3a2062a44459", "is_reserved": 0, "fusion_lon": 0.0, "lat": 38.87357983333333, "is_disabled": 0, "name": "9cd8176ee4b13a50f82e3a2062a44459", "fusion_lat": 0.0, "rental_uris": {"ios": "https://dc.lft.to/lastmile_qr_scan", "android": "https://dc.lft.to/lastmile_qr_scan"}, "lon": -76.97167116666667, "type": "electric_scooter"}, {"bike_id": "63261b5082d27a84e527328f00be5f56", "is_reserved": 0, "fusion_lon": 0.0, "lat": 38.97329116666667, "is_disabled": 0, "name": "63261b5082d27a84e527328f00be5f56", "fusion_lat": 0.0, "rental_uris": {"ios": "https://dc.lft.to/lastmile_qr_scan", "android": "https://dc.lft.to/lastmile_qr_scan"}, "lon": -77.021503, "type": "electric_bike"}, {"bike_id": "cbbac5ee883b20127ddf26c7987fb69f", "is_reserved": 0, "fusion_lon": 0.0, "lat": 38.9001745, "is_disabled": 0, "name": "cbbac5ee883b20127ddf26c7987fb69f", "fusion_lat": 0.0, "rental_uris": {"ios": "https://dc.lft.to/lastmile_qr_scan", "android": "https://dc.lft.to/lastmile_qr_scan"}, "lon": -77.01208466666667, "type": "electric_scooter"}, {"bike_id": "54ecf283bd5da73cce18d4613591c64e", "is_reserved": 0, "fusion_lon": 0.0, "lat": 38.894853499999996, "is_disabled": 0, "name": "54ecf283bd5da73cce18d4613591c64e", "fusion_lat": 0.0, "rental_uris": {"ios": "https://dc.lft.to/lastmile_qr_scan", "android": "https://dc.lft.to/lastmile_qr_scan"}, "lon": -77.0122065, "type": "electric_scooter"}, {"bike_id": "1e3945f3242d3306905db1bd2a305fb1", "is_reserved": 0, "fusion_lon": 0.0, "lat": 38.917091, "is_disabled": 0, "name": "1e3945f3242d3306905db1bd2a305fb1", "fusion_lat": 0.0, "rental_uris": {"ios": "https://dc.lft.to/lastmile_qr_scan", "android": "https://dc.lft.to/lastmile_qr_scan"}, "lon": -77.022681, "type": "electric_scooter"}, {"bike_id": "33a3f23001c5a7395fbcf647dc5e6b61", "is_reserved": 0, "fusion_lon": 0.0, "lat": 38.86560383333333, "is_disabled": 0, "name": "33a3f23001c5a7395fbcf647dc5e6b61", "fusion_lat": 0.0, "rental_uris": {"ios": "https://dc.lft.to/lastmile_qr_scan", "android": "https://dc.lft.to/lastmile_qr_scan"}, "lon": -76.98948066666667, "type": "electric_scooter"}, {"bike_id": "7c4e3eeadccc3896fe4351d79359673c", "is_reserved": 0, "fusion_lon": 0.0, "lat": 38.861771833333336, "is_disabled": 0, "name": "7c4e3eeadccc3896fe4351d79359673c", "fusion_lat": 0.0, "rental_uris": {"ios": "https://dc.lft.to/lastmile_qr_scan", "android": "https://dc.lft.to/lastmile_qr_scan"}, "lon": -76.969075, "type": "electric_scooter"}, {"bike_id": "baec468d512c30d349673de39eef2151", "is_reserved": 0, "fusion_lon": 0.0, "lat": 38.94552783333334, "is_disabled": 0, "name": "baec468d512c30d349673de39eef2151", "fusion_lat": 0.0, "rental_uris": {"ios": "https://dc.lft.to/lastmile_qr_scan", "android": "https://dc.lft.to/lastmile_qr_scan"}, "lon": -76.895399, "type": "electric_bike"}, {"bike_id": "4b2e0c996bc6acc39f22f23c7c5dbf79", "is_reserved": 0, "fusion_lon": 0.0, "lat": 38.90747316666667, "is_disabled": 0, "name": "4b2e0c996bc6acc39f22f23c7c5dbf79", "fusion_lat": 0.0, "rental_uris": {"ios": "https://dc.lft.to/lastmile_qr_scan", "android": "https://dc.lft.to/lastmile_qr_scan"}, "lon": -77.034685, "type": "electric_scooter"}, {"bike_id": "d39dfcb72ad09b9583f6f334d1bfb714", "is_reserved": 0, "fusion_lon": 0.0, "lat": 38.91478333333333, "is_disabled": 0, "name": "d39dfcb72ad09b9583f6f334d1bfb714", "fusion_lat": 0.0, "rental_uris": {"ios": "https://dc.lft.to/lastmile_qr_scan", "android": "https://dc.lft.to/lastmile_qr_scan"}, "lon": -77.01272316666666, "type": "electric_scooter"}, {"bike_id": "55c9d219cff6ad0104800bffbc9e318c", "is_reserved": 0, "fusion_lon": 0.0, "lat": 38.9180135, "is_disabled": 0, "name": "55c9d219cff6ad0104800bffbc9e318c", "fusion_lat": 0.0, "rental_uris": {"ios": "https://dc.lft.to/lastmile_qr_scan", "android": "https://dc.lft.to/lastmile_qr_scan"}, "lon": -77.0343725, "type": "electric_scooter"}, {"bike_id": "0255cedd9a9d8bf18556659fafa11340", "is_reserved": 0, "fusion_lon": 0.0, "lat": 38.90127716666667, "is_disabled": 0, "name": "0255cedd9a9d8bf18556659fafa11340", "fusion_lat": 0.0, "rental_uris": {"ios": "https://dc.lft.to/lastmile_qr_scan", "android": "https://dc.lft.to/lastmile_qr_scan"}, "lon": -77.01964583333333, "type": "electric_scooter"}, {"bike_id": "9d9d6d66f5d7b6603314d2c87c387c41", "is_reserved": 0, "fusion_lon": 0.0, "lat": 38.93338516666667, "is_disabled": 0, "name": "9d9d6d66f5d7b6603314d2c87c387c41", "fusion_lat": 0.0, "rental_uris": {"ios": "https://dc.lft.to/lastmile_qr_scan", "android": "https://dc.lft.to/lastmile_qr_scan"}, "lon": -77.03282933333334, "type": "electric_scooter"}, {"bike_id": "3b55536c6ffbd0d6df77e751ab4b358f", "is_reserved": 0, "fusion_lon": 0.0, "lat": 38.906023, "is_disabled": 0, "name": "3b55536c6ffbd0d6df77e751ab4b358f", "fusion_lat": 0.0, "rental_uris": {"ios": "https://dc.lft.to/lastmile_qr_scan", "android": "https://dc.lft.to/lastmile_qr_scan"}, "lon": -77.0630205, "type": "electric_scooter"}, {"bike_id": "f8229b41d5a90627c7f90a7be2d988f2", "is_reserved": 0, "fusion_lon": 0.0, "lat": 38.89835583333333, "is_disabled": 0, "name": "f8229b41d5a90627c7f90a7be2d988f2", "fusion_lat": 0.0, "rental_uris": {"ios": "https://dc.lft.to/lastmile_qr_scan", "android": "https://dc.lft.to/lastmile_qr_scan"}, "lon": -76.946342, "type": "electric_scooter"}, {"bike_id": "25770daefedaf783301dc0a1bfba89a4", "is_reserved": 0, "fusion_lon": 0.0, "lat": 38.9333515, "is_disabled": 0, "name": "25770daefedaf783301dc0a1bfba89a4", "fusion_lat": 0.0, "rental_uris": {"ios": "https://dc.lft.to/lastmile_qr_scan", "android": "https://dc.lft.to/lastmile_qr_scan"}, "lon": -77.03271666666667, "type": "electric_scooter"}, {"bike_id": "853d4fe363094fbf807d33496baa2d97", "is_reserved": 0, "fusion_lon": 0.0, "lat": 38.900189166666664, "is_disabled": 0, "name": "853d4fe363094fbf807d33496baa2d97", "fusion_lat": 0.0, "rental_uris": {"ios": "https://dc.lft.to/lastmile_qr_scan", "android": "https://dc.lft.to/lastmile_qr_scan"}, "lon": -77.04657566666667, "type": "electric_scooter"}, {"bike_id": "6b7598b64558d83fadda4db19443073b", "is_reserved": 0, "fusion_lon": 0.0, "lat": 38.925949333333335, "is_disabled": 0, "name": "6b7598b64558d83fadda4db19443073b", "fusion_lat": 0.0, "rental_uris": {"ios": "https://dc.lft.to/lastmile_qr_scan", "android": "https://dc.lft.to/lastmile_qr_scan"}, "lon": -77.0048295, "type": "electric_scooter"}, {"bike_id": "31a85176152016a77885fb259715e5be", "is_reserved": 0, "fusion_lon": 0.0, "lat": 38.908481, "is_disabled": 0, "name": "31a85176152016a77885fb259715e5be", "fusion_lat": 0.0, "rental_uris": {"ios": "https://dc.lft.to/lastmile_qr_scan", "android": "https://dc.lft.to/lastmile_qr_scan"}, "lon": -77.08532933333333, "type": "electric_scooter"}, {"bike_id": "fa59a69da08813b3296290fbd1ac9aba", "is_reserved": 0, "fusion_lon": 0.0, "lat": 38.892320166666664, "is_disabled": 0, "name": "fa59a69da08813b3296290fbd1ac9aba", "fusion_lat": 0.0, "rental_uris": {"ios": "https://dc.lft.to/lastmile_qr_scan", "android": "https://dc.lft.to/lastmile_qr_scan"}, "lon": -77.02820483333333, "type": "electric_scooter"}, {"bike_id": "e8fcfa083f5fd50b32bfb5fe6c51fe1c", "is_reserved": 0, "fusion_lon": 0.0, "lat": 38.883622333333335, "is_disabled": 0, "name": "e8fcfa083f5fd50b32bfb5fe6c51fe1c", "fusion_lat": 0.0, "rental_uris": {"ios": "https://dc.lft.to/lastmile_qr_scan", "android": "https://dc.lft.to/lastmile_qr_scan"}, "lon": -77.031761, "type": "electric_scooter"}, {"bike_id": "38e1324edba8d1d7c388d845d73f0b7b", "is_reserved": 0, "fusion_lon": 0.0, "lat": 38.92150783333334, "is_disabled": 0, "name": "38e1324edba8d1d7c388d845d73f0b7b", "fusion_lat": 0.0, "rental_uris": {"ios": "https://dc.lft.to/lastmile_qr_scan", "android": "https://dc.lft.to/lastmile_qr_scan"}, "lon": -77.033786, "type": "electric_scooter"}, {"bike_id": "dcab03978c3e8f02908915816ec5f6a0", "is_reserved": 0, "fusion_lon": 0.0, "lat": 38.92611516666667, "is_disabled": 0, "name": "dcab03978c3e8f02908915816ec5f6a0", "fusion_lat": 0.0, "rental_uris": {"ios": "https://dc.lft.to/lastmile_qr_scan", "android": "https://dc.lft.to/lastmile_qr_scan"}, "lon": -77.044136, "type": "electric_scooter"}, {"bike_id": "ce933670647ff4822d9932305925ad20", "is_reserved": 0, "fusion_lon": 0.0, "lat": 38.892332333333336, "is_disabled": 0, "name": "ce933670647ff4822d9932305925ad20", "fusion_lat": 0.0, "rental_uris": {"ios": "https://dc.lft.to/lastmile_qr_scan", "android": "https://dc.lft.to/lastmile_qr_scan"}, "lon": -77.04998016666667, "type": "electric_scooter"}, {"bike_id": "fbf5beef793d2d44dc26677718bdc5d1", "is_reserved": 0, "fusion_lon": 0.0, "lat": 38.935268666666666, "is_disabled": 0, "name": "fbf5beef793d2d44dc26677718bdc5d1", "fusion_lat": 0.0, "rental_uris": {"ios": "https://dc.lft.to/lastmile_qr_scan", "android": "https://dc.lft.to/lastmile_qr_scan"}, "lon": -77.02854533333333, "type": "electric_scooter"}, {"bike_id": "2c1aa1f86dcacc898974377279bfe069", "is_reserved": 0, "fusion_lon": 0.0, "lat": 38.8976405, "is_disabled": 0, "name": "2c1aa1f86dcacc898974377279bfe069", "fusion_lat": 0.0, "rental_uris": {"ios": "https://dc.lft.to/lastmile_qr_scan", "android": "https://dc.lft.to/lastmile_qr_scan"}, "lon": -76.9391165, "type": "electric_scooter"}, {"bike_id": "b6763aae856f2bb0fbd66893b1808613", "is_reserved": 0, "fusion_lon": 0.0, "lat": 38.9111255, "is_disabled": 0, "name": "b6763aae856f2bb0fbd66893b1808613", "fusion_lat": 0.0, "rental_uris": {"ios": "https://dc.lft.to/lastmile_qr_scan", "android": "https://dc.lft.to/lastmile_qr_scan"}, "lon": -77.0482875, "type": "electric_scooter"}, {"bike_id": "65d5669147fd3725b43319b55ffe6630", "is_reserved": 0, "fusion_lon": 0.0, "lat": 38.899573833333335, "is_disabled": 0, "name": "65d5669147fd3725b43319b55ffe6630", "fusion_lat": 0.0, "rental_uris": {"ios": "https://dc.lft.to/lastmile_qr_scan", "android": "https://dc.lft.to/lastmile_qr_scan"}, "lon": -76.9755125, "type": "electric_scooter"}, {"bike_id": "571bf48e785f8502aa3f098c636b8643", "is_reserved": 0, "fusion_lon": 0.0, "lat": 38.89997066666667, "is_disabled": 0, "name": "571bf48e785f8502aa3f098c636b8643", "fusion_lat": 0.0, "rental_uris": {"ios": "https://dc.lft.to/lastmile_qr_scan", "android": "https://dc.lft.to/lastmile_qr_scan"}, "lon": -77.05228, "type": "electric_scooter"}, {"bike_id": "af89c790a10afac9a530123e6e72e0c3", "is_reserved": 0, "fusion_lon": 0.0, "lat": 38.89483233333333, "is_disabled": 0, "name": "af89c790a10afac9a530123e6e72e0c3", "fusion_lat": 0.0, "rental_uris": {"ios": "https://dc.lft.to/lastmile_qr_scan", "android": "https://dc.lft.to/lastmile_qr_scan"}, "lon": -76.94868666666666, "type": "electric_scooter"}, {"bike_id": "e83c3d666ee94ba7b8f99ef77d0c97f2", "is_reserved": 0, "fusion_lon": 0.0, "lat": 38.90620083333334, "is_disabled": 0, "name": "e83c3d666ee94ba7b8f99ef77d0c97f2", "fusion_lat": 0.0, "rental_uris": {"ios": "https://dc.lft.to/lastmile_qr_scan", "android": "https://dc.lft.to/lastmile_qr_scan"}, "lon": -77.0294875, "type": "electric_scooter"}, {"bike_id": "056be12cd649ae6934055f681fafb3e7", "is_reserved": 0, "fusion_lon": 0.0, "lat": 38.892175333333334, "is_disabled": 0, "name": "056be12cd649ae6934055f681fafb3e7", "fusion_lat": 0.0, "rental_uris": {"ios": "https://dc.lft.to/lastmile_qr_scan", "android": "https://dc.lft.to/lastmile_qr_scan"}, "lon": -77.04361666666667, "type": "electric_scooter"}, {"bike_id": "1e0be37c083c81d1b365ca666201283f", "is_reserved": 0, "fusion_lon": 0.0, "lat": 38.958874, "is_disabled": 0, "name": "1e0be37c083c81d1b365ca666201283f", "fusion_lat": 0.0, "rental_uris": {"ios": "https://dc.lft.to/lastmile_qr_scan", "android": "https://dc.lft.to/lastmile_qr_scan"}, "lon": -76.9247905, "type": "electric_bike"}, {"bike_id": "1ce13090b80600f9a97d4c5584cb51ef", "is_reserved": 0, "fusion_lon": 0.0, "lat": 38.92571866666667, "is_disabled": 0, "name": "1ce13090b80600f9a97d4c5584cb51ef", "fusion_lat": 0.0, "rental_uris": {"ios": "https://dc.lft.to/lastmile_qr_scan", "android": "https://dc.lft.to/lastmile_qr_scan"}, "lon": -77.03100016666667, "type": "electric_scooter"}, {"bike_id": "ae14d6b8b4c3c0e56a13486d4afcf327", "is_reserved": 0, "fusion_lon": 0.0, "lat": 38.898344, "is_disabled": 0, "name": "ae14d6b8b4c3c0e56a13486d4afcf327", "fusion_lat": 0.0, "rental_uris": {"ios": "https://dc.lft.to/lastmile_qr_scan", "android": "https://dc.lft.to/lastmile_qr_scan"}, "lon": -76.9804075, "type": "electric_scooter"}, {"bike_id": "16bed450760c0e556804b628e7037ed3", "is_reserved": 0, "fusion_lon": 0.0, "lat": 38.911410000000004, "is_disabled": 0, "name": "16bed450760c0e556804b628e7037ed3", "fusion_lat": 0.0, "rental_uris": {"ios": "https://dc.lft.to/lastmile_qr_scan", "android": "https://dc.lft.to/lastmile_qr_scan"}, "lon": -77.06578733333333, "type": "electric_bike"}, {"bike_id": "0bf53336969951f667883731f8003b0d", "is_reserved": 0, "fusion_lon": 0.0, "lat": 38.906714, "is_disabled": 0, "name": "0bf53336969951f667883731f8003b0d", "fusion_lat": 0.0, "rental_uris": {"ios": "https://dc.lft.to/lastmile_qr_scan", "android": "https://dc.lft.to/lastmile_qr_scan"}, "lon": -76.9878445, "type": "electric_scooter"}, {"bike_id": "9edc0ec32ae83b99b6dcd73b413edd77", "is_reserved": 0, "fusion_lon": 0.0, "lat": 38.918438333333334, "is_disabled": 0, "name": "9edc0ec32ae83b99b6dcd73b413edd77", "fusion_lat": 0.0, "rental_uris": {"ios": "https://dc.lft.to/lastmile_qr_scan", "android": "https://dc.lft.to/lastmile_qr_scan"}, "lon": -77.02292266666667, "type": "electric_scooter"}, {"bike_id": "40ffd3a931c3a739b65857e0dc5970cd", "is_reserved": 0, "fusion_lon": 0.0, "lat": 38.910385, "is_disabled": 0, "name": "40ffd3a931c3a739b65857e0dc5970cd", "fusion_lat": 0.0, "rental_uris": {"ios": "https://dc.lft.to/lastmile_qr_scan", "android": "https://dc.lft.to/lastmile_qr_scan"}, "lon": -77.04387766666666, "type": "electric_scooter"}, {"bike_id": "d80ca293b13604ac79ad3cad41b75bf8", "is_reserved": 0, "fusion_lon": 0.0, "lat": 38.8886065, "is_disabled": 0, "name": "d80ca293b13604ac79ad3cad41b75bf8", "fusion_lat": 0.0, "rental_uris": {"ios": "https://dc.lft.to/lastmile_qr_scan", "android": "https://dc.lft.to/lastmile_qr_scan"}, "lon": -76.99475616666666, "type": "electric_bike"}, {"bike_id": "f9fb09e8fb2629f350d3de761bd03f22", "is_reserved": 0, "fusion_lon": 0.0, "lat": 38.91922733333333, "is_disabled": 0, "name": "f9fb09e8fb2629f350d3de761bd03f22", "fusion_lat": 0.0, "rental_uris": {"ios": "https://dc.lft.to/lastmile_qr_scan", "android": "https://dc.lft.to/lastmile_qr_scan"}, "lon": -77.03212116666667, "type": "electric_scooter"}, {"bike_id": "130f6e99922fcbc4d2b023447996f3f2", "is_reserved": 0, "fusion_lon": 0.0, "lat": 38.87554183333334, "is_disabled": 0, "name": "130f6e99922fcbc4d2b023447996f3f2", "fusion_lat": 0.0, "rental_uris": {"ios": "https://dc.lft.to/lastmile_qr_scan", "android": "https://dc.lft.to/lastmile_qr_scan"}, "lon": -76.96489716666666, "type": "electric_scooter"}, {"bike_id": "898a88072c8fa1670f7f873a9af04d29", "is_reserved": 0, "fusion_lon": 0.0, "lat": 38.8951835, "is_disabled": 0, "name": "898a88072c8fa1670f7f873a9af04d29", "fusion_lat": 0.0, "rental_uris": {"ios": "https://dc.lft.to/lastmile_qr_scan", "android": "https://dc.lft.to/lastmile_qr_scan"}, "lon": -77.04840516666667, "type": "electric_scooter"}, {"bike_id": "a13840395244fd6fd3bbde857dac9397", "is_reserved": 0, "fusion_lon": 0.0, "lat": 38.936666333333335, "is_disabled": 0, "name": "a13840395244fd6fd3bbde857dac9397", "fusion_lat": 0.0, "rental_uris": {"ios": "https://dc.lft.to/lastmile_qr_scan", "android": "https://dc.lft.to/lastmile_qr_scan"}, "lon": -77.05926133333334, "type": "electric_scooter"}, {"bike_id": "2389026556c3eae17fb9e0093509dc48", "is_reserved": 0, "fusion_lon": 0.0, "lat": 38.894392333333336, "is_disabled": 0, "name": "2389026556c3eae17fb9e0093509dc48", "fusion_lat": 0.0, "rental_uris": {"ios": "https://dc.lft.to/lastmile_qr_scan", "android": "https://dc.lft.to/lastmile_qr_scan"}, "lon": -77.0262345, "type": "electric_scooter"}, {"bike_id": "35478b9ebb356469c2ff4e21a643631f", "is_reserved": 0, "fusion_lon": 0.0, "lat": 38.89553566666667, "is_disabled": 0, "name": "35478b9ebb356469c2ff4e21a643631f", "fusion_lat": 0.0, "rental_uris": {"ios": "https://dc.lft.to/lastmile_qr_scan", "android": "https://dc.lft.to/lastmile_qr_scan"}, "lon": -76.950244, "type": "electric_scooter"}, {"bike_id": "978a4df557e60b2b938dd696b80dce8a", "is_reserved": 0, "fusion_lon": 0.0, "lat": 38.93984116666667, "is_disabled": 0, "name": "978a4df557e60b2b938dd696b80dce8a", "fusion_lat": 0.0, "rental_uris": {"ios": "https://dc.lft.to/lastmile_qr_scan", "android": "https://dc.lft.to/lastmile_qr_scan"}, "lon": -77.02892633333333, "type": "electric_scooter"}, {"bike_id": "c12f52a57f9ff976af55e53d5f653fd4", "is_reserved": 0, "fusion_lon": 0.0, "lat": 38.859610833333335, "is_disabled": 0, "name": "c12f52a57f9ff976af55e53d5f653fd4", "fusion_lat": 0.0, "rental_uris": {"ios": "https://dc.lft.to/lastmile_qr_scan", "android": "https://dc.lft.to/lastmile_qr_scan"}, "lon": -76.9911045, "type": "electric_scooter"}, {"bike_id": "f35617566b9a33cc490a4313fbdb17f2", "is_reserved": 0, "fusion_lon": 0.0, "lat": 38.90801483333333, "is_disabled": 0, "name": "f35617566b9a33cc490a4313fbdb17f2", "fusion_lat": 0.0, "rental_uris": {"ios": "https://dc.lft.to/lastmile_qr_scan", "android": "https://dc.lft.to/lastmile_qr_scan"}, "lon": -77.03419983333333, "type": "electric_scooter"}, {"bike_id": "072d8e3e1e7c7d5603bb47bb6f65e518", "is_reserved": 0, "fusion_lon": 0.0, "lat": 38.813080166666666, "is_disabled": 0, "name": "072d8e3e1e7c7d5603bb47bb6f65e518", "fusion_lat": 0.0, "rental_uris": {"ios": "https://dc.lft.to/lastmile_qr_scan", "android": "https://dc.lft.to/lastmile_qr_scan"}, "lon": -77.05096833333333, "type": "electric_bike"}, {"bike_id": "32513864cd84742e2583f928ae5be748", "is_reserved": 0, "fusion_lon": 0.0, "lat": 38.921813666666665, "is_disabled": 0, "name": "32513864cd84742e2583f928ae5be748", "fusion_lat": 0.0, "rental_uris": {"ios": "https://dc.lft.to/lastmile_qr_scan", "android": "https://dc.lft.to/lastmile_qr_scan"}, "lon": -77.02528816666667, "type": "electric_scooter"}, {"bike_id": "60e51de545856dc14260a9275f937064", "is_reserved": 0, "fusion_lon": 0.0, "lat": 38.90793, "is_disabled": 0, "name": "60e51de545856dc14260a9275f937064", "fusion_lat": 0.0, "rental_uris": {"ios": "https://dc.lft.to/lastmile_qr_scan", "android": "https://dc.lft.to/lastmile_qr_scan"}, "lon": -77.04237166666667, "type": "electric_scooter"}, {"bike_id": "41ea70bf88cb16774c93a4e7ec0820e8", "is_reserved": 0, "fusion_lon": 0.0, "lat": 38.92038266666667, "is_disabled": 0, "name": "41ea70bf88cb16774c93a4e7ec0820e8", "fusion_lat": 0.0, "rental_uris": {"ios": "https://dc.lft.to/lastmile_qr_scan", "android": "https://dc.lft.to/lastmile_qr_scan"}, "lon": -77.02412683333333, "type": "electric_scooter"}, {"bike_id": "707642fdbb1f4278c38b2a83469a3554", "is_reserved": 0, "fusion_lon": 0.0, "lat": 38.9181005, "is_disabled": 0, "name": "707642fdbb1f4278c38b2a83469a3554", "fusion_lat": 0.0, "rental_uris": {"ios": "https://dc.lft.to/lastmile_qr_scan", "android": "https://dc.lft.to/lastmile_qr_scan"}, "lon": -77.03306483333333, "type": "electric_scooter"}, {"bike_id": "3a71366f149f7ef0b21734da9addf89b", "is_reserved": 0, "fusion_lon": 0.0, "lat": 38.913245333333336, "is_disabled": 0, "name": "3a71366f149f7ef0b21734da9addf89b", "fusion_lat": 0.0, "rental_uris": {"ios": "https://dc.lft.to/lastmile_qr_scan", "android": "https://dc.lft.to/lastmile_qr_scan"}, "lon": -77.03259883333334, "type": "electric_scooter"}, {"bike_id": "b151289db5e22c054eb9ebb6186cf403", "is_reserved": 0, "fusion_lon": 0.0, "lat": 38.907664833333335, "is_disabled": 0, "name": "b151289db5e22c054eb9ebb6186cf403", "fusion_lat": 0.0, "rental_uris": {"ios": "https://dc.lft.to/lastmile_qr_scan", "android": "https://dc.lft.to/lastmile_qr_scan"}, "lon": -77.069135, "type": "electric_scooter"}, {"bike_id": "e2795f8709397e733be5e0c74fa93f3c", "is_reserved": 0, "fusion_lon": 0.0, "lat": 38.9982865, "is_disabled": 0, "name": "e2795f8709397e733be5e0c74fa93f3c", "fusion_lat": 0.0, "rental_uris": {"ios": "https://dc.lft.to/lastmile_qr_scan", "android": "https://dc.lft.to/lastmile_qr_scan"}, "lon": -76.883677, "type": "electric_bike"}, {"bike_id": "ef25b61dab84632eb67a6bda0114a80e", "is_reserved": 0, "fusion_lon": 0.0, "lat": 38.931126666666664, "is_disabled": 0, "name": "ef25b61dab84632eb67a6bda0114a80e", "fusion_lat": 0.0, "rental_uris": {"ios": "https://dc.lft.to/lastmile_qr_scan", "android": "https://dc.lft.to/lastmile_qr_scan"}, "lon": -77.03841666666666, "type": "electric_scooter"}, {"bike_id": "b958829d0dbbcfb7c8c451198248d406", "is_reserved": 0, "fusion_lon": 0.0, "lat": 38.924806833333335, "is_disabled": 0, "name": "b958829d0dbbcfb7c8c451198248d406", "fusion_lat": 0.0, "rental_uris": {"ios": "https://dc.lft.to/lastmile_qr_scan", "android": "https://dc.lft.to/lastmile_qr_scan"}, "lon": -77.052138, "type": "electric_scooter"}, {"bike_id": "68dac254de60dccef007881a722af6c4", "is_reserved": 0, "fusion_lon": 0.0, "lat": 38.90451866666667, "is_disabled": 0, "name": "68dac254de60dccef007881a722af6c4", "fusion_lat": 0.0, "rental_uris": {"ios": "https://dc.lft.to/lastmile_qr_scan", "android": "https://dc.lft.to/lastmile_qr_scan"}, "lon": -77.01984333333333, "type": "electric_scooter"}, {"bike_id": "3bc55916f01985b98fdcf2b98e8e9788", "is_reserved": 0, "fusion_lon": 0.0, "lat": 38.904719, "is_disabled": 0, "name": "3bc55916f01985b98fdcf2b98e8e9788", "fusion_lat": 0.0, "rental_uris": {"ios": "https://dc.lft.to/lastmile_qr_scan", "android": "https://dc.lft.to/lastmile_qr_scan"}, "lon": -77.06013583333333, "type": "electric_scooter"}, {"bike_id": "00dbd9446049f91d4b26d8b4559d5d69", "is_reserved": 0, "fusion_lon": 0.0, "lat": 39.030458833333334, "is_disabled": 0, "name": "00dbd9446049f91d4b26d8b4559d5d69", "fusion_lat": 0.0, "rental_uris": {"ios": "https://dc.lft.to/lastmile_qr_scan", "android": "https://dc.lft.to/lastmile_qr_scan"}, "lon": -77.09477033333333, "type": "electric_bike"}, {"bike_id": "b8e7f42d3c034778171a72eecee990e3", "is_reserved": 0, "fusion_lon": 0.0, "lat": 38.90145583333333, "is_disabled": 0, "name": "b8e7f42d3c034778171a72eecee990e3", "fusion_lat": 0.0, "rental_uris": {"ios": "https://dc.lft.to/lastmile_qr_scan", "android": "https://dc.lft.to/lastmile_qr_scan"}, "lon": -76.99792216666667, "type": "electric_scooter"}, {"bike_id": "d7e52021b2c6f4da26b9c9021e9f851c", "is_reserved": 0, "fusion_lon": 0.0, "lat": 38.921078, "is_disabled": 0, "name": "d7e52021b2c6f4da26b9c9021e9f851c", "fusion_lat": 0.0, "rental_uris": {"ios": "https://dc.lft.to/lastmile_qr_scan", "android": "https://dc.lft.to/lastmile_qr_scan"}, "lon": -77.04216383333333, "type": "electric_scooter"}, {"bike_id": "be68d0643abb681fd105a05f6ffe68c3", "is_reserved": 0, "fusion_lon": 0.0, "lat": 38.84273316666667, "is_disabled": 0, "name": "be68d0643abb681fd105a05f6ffe68c3", "fusion_lat": 0.0, "rental_uris": {"ios": "https://dc.lft.to/lastmile_qr_scan", "android": "https://dc.lft.to/lastmile_qr_scan"}, "lon": -76.9884285, "type": "electric_bike"}, {"bike_id": "2df23b08b1709f801dce2b105ec86e46", "is_reserved": 0, "fusion_lon": 0.0, "lat": 38.91581433333333, "is_disabled": 0, "name": "2df23b08b1709f801dce2b105ec86e46", "fusion_lat": 0.0, "rental_uris": {"ios": "https://dc.lft.to/lastmile_qr_scan", "android": "https://dc.lft.to/lastmile_qr_scan"}, "lon": -77.03172016666667, "type": "electric_scooter"}, {"bike_id": "b9192f98f43c87e7eef55407bedb50ab", "is_reserved": 0, "fusion_lon": 0.0, "lat": 38.912480333333335, "is_disabled": 0, "name": "b9192f98f43c87e7eef55407bedb50ab", "fusion_lat": 0.0, "rental_uris": {"ios": "https://dc.lft.to/lastmile_qr_scan", "android": "https://dc.lft.to/lastmile_qr_scan"}, "lon": -77.01625216666666, "type": "electric_scooter"}, {"bike_id": "069ea349607edd14675c8c5823f65a5e", "is_reserved": 0, "fusion_lon": 0.0, "lat": 38.900265833333336, "is_disabled": 0, "name": "069ea349607edd14675c8c5823f65a5e", "fusion_lat": 0.0, "rental_uris": {"ios": "https://dc.lft.to/lastmile_qr_scan", "android": "https://dc.lft.to/lastmile_qr_scan"}, "lon": -77.011608, "type": "electric_scooter"}, {"bike_id": "7e2270e1fbada36443fec6c61a7c87ef", "is_reserved": 0, "fusion_lon": 0.0, "lat": 38.892278166666664, "is_disabled": 0, "name": "7e2270e1fbada36443fec6c61a7c87ef", "fusion_lat": 0.0, "rental_uris": {"ios": "https://dc.lft.to/lastmile_qr_scan", "android": "https://dc.lft.to/lastmile_qr_scan"}, "lon": -77.02204166666667, "type": "electric_scooter"}, {"bike_id": "2f0c1f6aac1dd9fd2be14d0cfa139961", "is_reserved": 0, "fusion_lon": 0.0, "lat": 38.880391833333334, "is_disabled": 0, "name": "2f0c1f6aac1dd9fd2be14d0cfa139961", "fusion_lat": 0.0, "rental_uris": {"ios": "https://dc.lft.to/lastmile_qr_scan", "android": "https://dc.lft.to/lastmile_qr_scan"}, "lon": -77.0132265, "type": "electric_bike"}, {"bike_id": "eecdbb6c225638428f454834b9f54dee", "is_reserved": 0, "fusion_lon": 0.0, "lat": 38.9142905, "is_disabled": 0, "name": "eecdbb6c225638428f454834b9f54dee", "fusion_lat": 0.0, "rental_uris": {"ios": "https://dc.lft.to/lastmile_qr_scan", "android": "https://dc.lft.to/lastmile_qr_scan"}, "lon": -77.0415845, "type": "electric_scooter"}, {"bike_id": "066141f94c661bd58dbaf7b3345a9e58", "is_reserved": 0, "fusion_lon": 0.0, "lat": 38.83933316666667, "is_disabled": 0, "name": "066141f94c661bd58dbaf7b3345a9e58", "fusion_lat": 0.0, "rental_uris": {"ios": "https://dc.lft.to/lastmile_qr_scan", "android": "https://dc.lft.to/lastmile_qr_scan"}, "lon": -77.07899766666667, "type": "electric_bike"}, {"bike_id": "74e2c314a76d72c28f080488aefeac81", "is_reserved": 0, "fusion_lon": 0.0, "lat": 38.884900333333334, "is_disabled": 0, "name": "74e2c314a76d72c28f080488aefeac81", "fusion_lat": 0.0, "rental_uris": {"ios": "https://dc.lft.to/lastmile_qr_scan", "android": "https://dc.lft.to/lastmile_qr_scan"}, "lon": -77.00726983333334, "type": "electric_scooter"}, {"bike_id": "d784eddd15202d880148b3dbc96a04f9", "is_reserved": 0, "fusion_lon": 0.0, "lat": 38.90315, "is_disabled": 0, "name": "d784eddd15202d880148b3dbc96a04f9", "fusion_lat": 0.0, "rental_uris": {"ios": "https://dc.lft.to/lastmile_qr_scan", "android": "https://dc.lft.to/lastmile_qr_scan"}, "lon": -77.03326483333333, "type": "electric_scooter"}, {"bike_id": "809518e958a0c1011473fa029d688939", "is_reserved": 0, "fusion_lon": 0.0, "lat": 38.89819333333333, "is_disabled": 0, "name": "809518e958a0c1011473fa029d688939", "fusion_lat": 0.0, "rental_uris": {"ios": "https://dc.lft.to/lastmile_qr_scan", "android": "https://dc.lft.to/lastmile_qr_scan"}, "lon": -77.03308683333333, "type": "electric_scooter"}, {"bike_id": "2b25cc0d1b32209964dd3a97bc9888fe", "is_reserved": 0, "fusion_lon": 0.0, "lat": 38.915589, "is_disabled": 0, "name": "2b25cc0d1b32209964dd3a97bc9888fe", "fusion_lat": 0.0, "rental_uris": {"ios": "https://dc.lft.to/lastmile_qr_scan", "android": "https://dc.lft.to/lastmile_qr_scan"}, "lon": -77.03938766666667, "type": "electric_scooter"}, {"bike_id": "fbfbf5761c51112513e6270cb2e43fe3", "is_reserved": 0, "fusion_lon": 0.0, "lat": 38.90365166666667, "is_disabled": 0, "name": "fbfbf5761c51112513e6270cb2e43fe3", "fusion_lat": 0.0, "rental_uris": {"ios": "https://dc.lft.to/lastmile_qr_scan", "android": "https://dc.lft.to/lastmile_qr_scan"}, "lon": -77.02984033333334, "type": "electric_scooter"}, {"bike_id": "cb50dc6b633df960066a27c22f45627d", "is_reserved": 0, "fusion_lon": 0.0, "lat": 38.909607333333334, "is_disabled": 0, "name": "cb50dc6b633df960066a27c22f45627d", "fusion_lat": 0.0, "rental_uris": {"ios": "https://dc.lft.to/lastmile_qr_scan", "android": "https://dc.lft.to/lastmile_qr_scan"}, "lon": -77.03445316666667, "type": "electric_scooter"}, {"bike_id": "5306b22f3cd7555b3f3d2438d1efefbc", "is_reserved": 0, "fusion_lon": 0.0, "lat": 38.9141665, "is_disabled": 0, "name": "5306b22f3cd7555b3f3d2438d1efefbc", "fusion_lat": 0.0, "rental_uris": {"ios": "https://dc.lft.to/lastmile_qr_scan", "android": "https://dc.lft.to/lastmile_qr_scan"}, "lon": -77.02676766666667, "type": "electric_scooter"}, {"bike_id": "da2cd6d63ec739c51d2e5972e54fceb6", "is_reserved": 0, "fusion_lon": 0.0, "lat": 38.916396166666665, "is_disabled": 0, "name": "da2cd6d63ec739c51d2e5972e54fceb6", "fusion_lat": 0.0, "rental_uris": {"ios": "https://dc.lft.to/lastmile_qr_scan", "android": "https://dc.lft.to/lastmile_qr_scan"}, "lon": -77.03203283333333, "type": "electric_scooter"}, {"bike_id": "59c8e9c34bd454ed2b938803e7ae6881", "is_reserved": 0, "fusion_lon": 0.0, "lat": 38.91665716666667, "is_disabled": 0, "name": "59c8e9c34bd454ed2b938803e7ae6881", "fusion_lat": 0.0, "rental_uris": {"ios": "https://dc.lft.to/lastmile_qr_scan", "android": "https://dc.lft.to/lastmile_qr_scan"}, "lon": -77.00497033333333, "type": "electric_scooter"}, {"bike_id": "0fff305658d7618b6efa2da54a373c2a", "is_reserved": 0, "fusion_lon": 0.0, "lat": 38.863564, "is_disabled": 0, "name": "0fff305658d7618b6efa2da54a373c2a", "fusion_lat": 0.0, "rental_uris": {"ios": "https://dc.lft.to/lastmile_qr_scan", "android": "https://dc.lft.to/lastmile_qr_scan"}, "lon": -76.99064116666666, "type": "electric_scooter"}, {"bike_id": "a90488c1aff2938ffcda6af772edb322", "is_reserved": 0, "fusion_lon": 0.0, "lat": 38.8783745, "is_disabled": 0, "name": "a90488c1aff2938ffcda6af772edb322", "fusion_lat": 0.0, "rental_uris": {"ios": "https://dc.lft.to/lastmile_qr_scan", "android": "https://dc.lft.to/lastmile_qr_scan"}, "lon": -76.9903305, "type": "electric_scooter"}, {"bike_id": "46938b8bba2c8145d655e63ef17ed43c", "is_reserved": 0, "fusion_lon": 0.0, "lat": 38.941764166666665, "is_disabled": 0, "name": "46938b8bba2c8145d655e63ef17ed43c", "fusion_lat": 0.0, "rental_uris": {"ios": "https://dc.lft.to/lastmile_qr_scan", "android": "https://dc.lft.to/lastmile_qr_scan"}, "lon": -77.0250605, "type": "electric_scooter"}, {"bike_id": "f52a69c43c3df8692c6c3529de946285", "is_reserved": 0, "fusion_lon": 0.0, "lat": 38.84292883333333, "is_disabled": 0, "name": "f52a69c43c3df8692c6c3529de946285", "fusion_lat": 0.0, "rental_uris": {"ios": "https://dc.lft.to/lastmile_qr_scan", "android": "https://dc.lft.to/lastmile_qr_scan"}, "lon": -76.999463, "type": "electric_scooter"}, {"bike_id": "cefab7f03389d045e2a70c52e61533e7", "is_reserved": 0, "fusion_lon": 0.0, "lat": 38.90574066666667, "is_disabled": 0, "name": "cefab7f03389d045e2a70c52e61533e7", "fusion_lat": 0.0, "rental_uris": {"ios": "https://dc.lft.to/lastmile_qr_scan", "android": "https://dc.lft.to/lastmile_qr_scan"}, "lon": -77.022021, "type": "electric_scooter"}, {"bike_id": "d596385d1862e1df1644ba5797fdc5e0", "is_reserved": 0, "fusion_lon": 0.0, "lat": 38.8763045, "is_disabled": 0, "name": "d596385d1862e1df1644ba5797fdc5e0", "fusion_lat": 0.0, "rental_uris": {"ios": "https://dc.lft.to/lastmile_qr_scan", "android": "https://dc.lft.to/lastmile_qr_scan"}, "lon": -76.96523783333333, "type": "electric_scooter"}, {"bike_id": "e8a610645fd52fd54bc01571c934c1ce", "is_reserved": 0, "fusion_lon": 0.0, "lat": 38.919319333333334, "is_disabled": 0, "name": "e8a610645fd52fd54bc01571c934c1ce", "fusion_lat": 0.0, "rental_uris": {"ios": "https://dc.lft.to/lastmile_qr_scan", "android": "https://dc.lft.to/lastmile_qr_scan"}, "lon": -77.03189483333334, "type": "electric_scooter"}, {"bike_id": "aea21e9d97d09b951e98171eb1b358ce", "is_reserved": 0, "fusion_lon": 0.0, "lat": 38.90777666666666, "is_disabled": 0, "name": "aea21e9d97d09b951e98171eb1b358ce", "fusion_lat": 0.0, "rental_uris": {"ios": "https://dc.lft.to/lastmile_qr_scan", "android": "https://dc.lft.to/lastmile_qr_scan"}, "lon": -77.0692515, "type": "electric_scooter"}, {"bike_id": "80da77f82a9d8f65b64b99ee73d34b36", "is_reserved": 0, "fusion_lon": 0.0, "lat": 38.9044745, "is_disabled": 0, "name": "80da77f82a9d8f65b64b99ee73d34b36", "fusion_lat": 0.0, "rental_uris": {"ios": "https://dc.lft.to/lastmile_qr_scan", "android": "https://dc.lft.to/lastmile_qr_scan"}, "lon": -76.99625083333333, "type": "electric_scooter"}, {"bike_id": "cfa83c3363fa08981c0d7f0f702cc3a7", "is_reserved": 0, "fusion_lon": 0.0, "lat": 38.922678833333336, "is_disabled": 0, "name": "cfa83c3363fa08981c0d7f0f702cc3a7", "fusion_lat": 0.0, "rental_uris": {"ios": "https://dc.lft.to/lastmile_qr_scan", "android": "https://dc.lft.to/lastmile_qr_scan"}, "lon": -77.01828416666666, "type": "electric_scooter"}, {"bike_id": "7f7ec9550aac8e427bdac1df62d52cca", "is_reserved": 0, "fusion_lon": 0.0, "lat": 38.9162615, "is_disabled": 0, "name": "7f7ec9550aac8e427bdac1df62d52cca", "fusion_lat": 0.0, "rental_uris": {"ios": "https://dc.lft.to/lastmile_qr_scan", "android": "https://dc.lft.to/lastmile_qr_scan"}, "lon": -77.03170233333333, "type": "electric_scooter"}, {"bike_id": "0d2252036cc838a7cc09e8373c38219c", "is_reserved": 0, "fusion_lon": 0.0, "lat": 38.9029295, "is_disabled": 0, "name": "0d2252036cc838a7cc09e8373c38219c", "fusion_lat": 0.0, "rental_uris": {"ios": "https://dc.lft.to/lastmile_qr_scan", "android": "https://dc.lft.to/lastmile_qr_scan"}, "lon": -76.99856016666666, "type": "electric_scooter"}, {"bike_id": "3de71f92c03ff5e513b80e2befa48ade", "is_reserved": 0, "fusion_lon": 0.0, "lat": 38.9285025, "is_disabled": 0, "name": "3de71f92c03ff5e513b80e2befa48ade", "fusion_lat": 0.0, "rental_uris": {"ios": "https://dc.lft.to/lastmile_qr_scan", "android": "https://dc.lft.to/lastmile_qr_scan"}, "lon": -77.05429333333333, "type": "electric_scooter"}, {"bike_id": "b9b8f03a2591b673a04f6d1a8071927a", "is_reserved": 0, "fusion_lon": 0.0, "lat": 38.900929, "is_disabled": 0, "name": "b9b8f03a2591b673a04f6d1a8071927a", "fusion_lat": 0.0, "rental_uris": {"ios": "https://dc.lft.to/lastmile_qr_scan", "android": "https://dc.lft.to/lastmile_qr_scan"}, "lon": -77.0492405, "type": "electric_scooter"}, {"bike_id": "501b7edc21dc997ee643bfff4d685b62", "is_reserved": 0, "fusion_lon": 0.0, "lat": 38.92316316666667, "is_disabled": 0, "name": "501b7edc21dc997ee643bfff4d685b62", "fusion_lat": 0.0, "rental_uris": {"ios": "https://dc.lft.to/lastmile_qr_scan", "android": "https://dc.lft.to/lastmile_qr_scan"}, "lon": -77.04483916666666, "type": "electric_scooter"}, {"bike_id": "348823627a143728cd84a6aed09d096c", "is_reserved": 0, "fusion_lon": 0.0, "lat": 38.86165416666667, "is_disabled": 0, "name": "348823627a143728cd84a6aed09d096c", "fusion_lat": 0.0, "rental_uris": {"ios": "https://dc.lft.to/lastmile_qr_scan", "android": "https://dc.lft.to/lastmile_qr_scan"}, "lon": -76.95062483333334, "type": "electric_bike"}, {"bike_id": "2936b51a8a2050a074180b63456274fa", "is_reserved": 0, "fusion_lon": 0.0, "lat": 38.923369666666666, "is_disabled": 0, "name": "2936b51a8a2050a074180b63456274fa", "fusion_lat": 0.0, "rental_uris": {"ios": "https://dc.lft.to/lastmile_qr_scan", "android": "https://dc.lft.to/lastmile_qr_scan"}, "lon": -77.0389495, "type": "electric_scooter"}, {"bike_id": "62e7eb893d0459a269d46ccacad39eb4", "is_reserved": 0, "fusion_lon": 0.0, "lat": 38.9248725, "is_disabled": 0, "name": "62e7eb893d0459a269d46ccacad39eb4", "fusion_lat": 0.0, "rental_uris": {"ios": "https://dc.lft.to/lastmile_qr_scan", "android": "https://dc.lft.to/lastmile_qr_scan"}, "lon": -77.02709533333334, "type": "electric_scooter"}, {"bike_id": "ff469fa3724f126e47a5dec1718bf4dc", "is_reserved": 0, "fusion_lon": 0.0, "lat": 38.92188216666667, "is_disabled": 0, "name": "ff469fa3724f126e47a5dec1718bf4dc", "fusion_lat": 0.0, "rental_uris": {"ios": "https://dc.lft.to/lastmile_qr_scan", "android": "https://dc.lft.to/lastmile_qr_scan"}, "lon": -77.04120583333334, "type": "electric_scooter"}, {"bike_id": "1972014aff6ee0ec2f16f3beeb6d789f", "is_reserved": 0, "fusion_lon": 0.0, "lat": 38.903079166666664, "is_disabled": 0, "name": "1972014aff6ee0ec2f16f3beeb6d789f", "fusion_lat": 0.0, "rental_uris": {"ios": "https://dc.lft.to/lastmile_qr_scan", "android": "https://dc.lft.to/lastmile_qr_scan"}, "lon": -77.0432575, "type": "electric_scooter"}, {"bike_id": "4ce0e9a721dd13f3ce076abfdd79f66c", "is_reserved": 0, "fusion_lon": 0.0, "lat": 38.923626, "is_disabled": 0, "name": "4ce0e9a721dd13f3ce076abfdd79f66c", "fusion_lat": 0.0, "rental_uris": {"ios": "https://dc.lft.to/lastmile_qr_scan", "android": "https://dc.lft.to/lastmile_qr_scan"}, "lon": -77.05030266666667, "type": "electric_scooter"}, {"bike_id": "8835420187cb8fef6bd2957cca200a4d", "is_reserved": 0, "fusion_lon": 0.0, "lat": 38.9012875, "is_disabled": 0, "name": "8835420187cb8fef6bd2957cca200a4d", "fusion_lat": 0.0, "rental_uris": {"ios": "https://dc.lft.to/lastmile_qr_scan", "android": "https://dc.lft.to/lastmile_qr_scan"}, "lon": -77.04468033333333, "type": "electric_scooter"}, {"bike_id": "7895642ba6f287c90497825c2aa24a57", "is_reserved": 0, "fusion_lon": 0.0, "lat": 38.91996066666667, "is_disabled": 0, "name": "7895642ba6f287c90497825c2aa24a57", "fusion_lat": 0.0, "rental_uris": {"ios": "https://dc.lft.to/lastmile_qr_scan", "android": "https://dc.lft.to/lastmile_qr_scan"}, "lon": -77.03226116666667, "type": "electric_scooter"}, {"bike_id": "ba77d4287d6a35d35727a5c76a1fe3eb", "is_reserved": 0, "fusion_lon": 0.0, "lat": 38.939042, "is_disabled": 0, "name": "ba77d4287d6a35d35727a5c76a1fe3eb", "fusion_lat": 0.0, "rental_uris": {"ios": "https://dc.lft.to/lastmile_qr_scan", "android": "https://dc.lft.to/lastmile_qr_scan"}, "lon": -77.07724716666667, "type": "electric_scooter"}, {"bike_id": "9bc52535aae7b1f2f1fc82ed3a042486", "is_reserved": 0, "fusion_lon": 0.0, "lat": 38.894819166666665, "is_disabled": 0, "name": "9bc52535aae7b1f2f1fc82ed3a042486", "fusion_lat": 0.0, "rental_uris": {"ios": "https://dc.lft.to/lastmile_qr_scan", "android": "https://dc.lft.to/lastmile_qr_scan"}, "lon": -77.03078066666667, "type": "electric_scooter"}, {"bike_id": "31d26d316a7728eb8a71ced4fe868ed9", "is_reserved": 0, "fusion_lon": 0.0, "lat": 38.905987833333334, "is_disabled": 0, "name": "31d26d316a7728eb8a71ced4fe868ed9", "fusion_lat": 0.0, "rental_uris": {"ios": "https://dc.lft.to/lastmile_qr_scan", "android": "https://dc.lft.to/lastmile_qr_scan"}, "lon": -77.04034016666667, "type": "electric_scooter"}, {"bike_id": "a184bbac30ca9ff333b152edc71efac1", "is_reserved": 0, "fusion_lon": 0.0, "lat": 38.922119333333335, "is_disabled": 0, "name": "a184bbac30ca9ff333b152edc71efac1", "fusion_lat": 0.0, "rental_uris": {"ios": "https://dc.lft.to/lastmile_qr_scan", "android": "https://dc.lft.to/lastmile_qr_scan"}, "lon": -77.04245566666667, "type": "electric_scooter"}, {"bike_id": "9f714998bc602ccbcccdc7cb20c00cab", "is_reserved": 0, "fusion_lon": 0.0, "lat": 38.94834566666667, "is_disabled": 0, "name": "9f714998bc602ccbcccdc7cb20c00cab", "fusion_lat": 0.0, "rental_uris": {"ios": "https://dc.lft.to/lastmile_qr_scan", "android": "https://dc.lft.to/lastmile_qr_scan"}, "lon": -77.03897916666666, "type": "electric_bike"}, {"bike_id": "98880cce47d1c66255b0993f155fb284", "is_reserved": 0, "fusion_lon": 0.0, "lat": 38.933771666666665, "is_disabled": 0, "name": "98880cce47d1c66255b0993f155fb284", "fusion_lat": 0.0, "rental_uris": {"ios": "https://dc.lft.to/lastmile_qr_scan", "android": "https://dc.lft.to/lastmile_qr_scan"}, "lon": -77.0346095, "type": "electric_scooter"}, {"bike_id": "db183cf01b876baf7f0a3fe769bbfc41", "is_reserved": 0, "fusion_lon": 0.0, "lat": 38.89217166666667, "is_disabled": 0, "name": "db183cf01b876baf7f0a3fe769bbfc41", "fusion_lat": 0.0, "rental_uris": {"ios": "https://dc.lft.to/lastmile_qr_scan", "android": "https://dc.lft.to/lastmile_qr_scan"}, "lon": -77.03158883333333, "type": "electric_scooter"}, {"bike_id": "6c53b76cfbd5c721614d52d82d6dc1d3", "is_reserved": 0, "fusion_lon": 0.0, "lat": 38.91721366666667, "is_disabled": 0, "name": "6c53b76cfbd5c721614d52d82d6dc1d3", "fusion_lat": 0.0, "rental_uris": {"ios": "https://dc.lft.to/lastmile_qr_scan", "android": "https://dc.lft.to/lastmile_qr_scan"}, "lon": -77.06829216666667, "type": "electric_scooter"}, {"bike_id": "2bbc05ae9aa70f5edeb436ec50b4a6bb", "is_reserved": 0, "fusion_lon": 0.0, "lat": 38.9285345, "is_disabled": 0, "name": "2bbc05ae9aa70f5edeb436ec50b4a6bb", "fusion_lat": 0.0, "rental_uris": {"ios": "https://dc.lft.to/lastmile_qr_scan", "android": "https://dc.lft.to/lastmile_qr_scan"}, "lon": -77.10676183333334, "type": "electric_bike"}, {"bike_id": "90bd9e359aa962db14b31d7feb1bf657", "is_reserved": 0, "fusion_lon": 0.0, "lat": 38.915614166666664, "is_disabled": 0, "name": "90bd9e359aa962db14b31d7feb1bf657", "fusion_lat": 0.0, "rental_uris": {"ios": "https://dc.lft.to/lastmile_qr_scan", "android": "https://dc.lft.to/lastmile_qr_scan"}, "lon": -77.04029383333334, "type": "electric_scooter"}, {"bike_id": "6fbafd373b1a734a2049bf86b1930b09", "is_reserved": 0, "fusion_lon": 0.0, "lat": 38.923598166666665, "is_disabled": 0, "name": "6fbafd373b1a734a2049bf86b1930b09", "fusion_lat": 0.0, "rental_uris": {"ios": "https://dc.lft.to/lastmile_qr_scan", "android": "https://dc.lft.to/lastmile_qr_scan"}, "lon": -77.0522505, "type": "electric_scooter"}, {"bike_id": "33c0b5d1ce5d07b3d259a06f6448d205", "is_reserved": 0, "fusion_lon": 0.0, "lat": 38.92560833333334, "is_disabled": 0, "name": "33c0b5d1ce5d07b3d259a06f6448d205", "fusion_lat": 0.0, "rental_uris": {"ios": "https://dc.lft.to/lastmile_qr_scan", "android": "https://dc.lft.to/lastmile_qr_scan"}, "lon": -77.04046383333333, "type": "electric_scooter"}, {"bike_id": "3124f057555ef2d685a6d79d9c14cd3a", "is_reserved": 0, "fusion_lon": 0.0, "lat": 38.948334833333334, "is_disabled": 0, "name": "3124f057555ef2d685a6d79d9c14cd3a", "fusion_lat": 0.0, "rental_uris": {"ios": "https://dc.lft.to/lastmile_qr_scan", "android": "https://dc.lft.to/lastmile_qr_scan"}, "lon": -77.024231, "type": "electric_scooter"}, {"bike_id": "6a8a4a78f99561801811ae08b7c563b2", "is_reserved": 0, "fusion_lon": 0.0, "lat": 38.92404033333333, "is_disabled": 0, "name": "6a8a4a78f99561801811ae08b7c563b2", "fusion_lat": 0.0, "rental_uris": {"ios": "https://dc.lft.to/lastmile_qr_scan", "android": "https://dc.lft.to/lastmile_qr_scan"}, "lon": -77.052492, "type": "electric_scooter"}, {"bike_id": "4e956d3308bfb5aafa5d146b610f9753", "is_reserved": 0, "fusion_lon": 0.0, "lat": 38.89878366666667, "is_disabled": 0, "name": "4e956d3308bfb5aafa5d146b610f9753", "fusion_lat": 0.0, "rental_uris": {"ios": "https://dc.lft.to/lastmile_qr_scan", "android": "https://dc.lft.to/lastmile_qr_scan"}, "lon": -76.93157166666667, "type": "electric_scooter"}, {"bike_id": "c67849e6e6ecac0c85c195e33b0ca85c", "is_reserved": 0, "fusion_lon": 0.0, "lat": 38.90727, "is_disabled": 0, "name": "c67849e6e6ecac0c85c195e33b0ca85c", "fusion_lat": 0.0, "rental_uris": {"ios": "https://dc.lft.to/lastmile_qr_scan", "android": "https://dc.lft.to/lastmile_qr_scan"}, "lon": -77.03204066666666, "type": "electric_scooter"}, {"bike_id": "1aa4687df5cbae3d2336edf1a46a3369", "is_reserved": 0, "fusion_lon": 0.0, "lat": 38.90963033333333, "is_disabled": 0, "name": "1aa4687df5cbae3d2336edf1a46a3369", "fusion_lat": 0.0, "rental_uris": {"ios": "https://dc.lft.to/lastmile_qr_scan", "android": "https://dc.lft.to/lastmile_qr_scan"}, "lon": -77.03680866666667, "type": "electric_scooter"}, {"bike_id": "fd776b923c3fddbc9941ad320dd0344d", "is_reserved": 0, "fusion_lon": 0.0, "lat": 38.884027833333334, "is_disabled": 0, "name": "fd776b923c3fddbc9941ad320dd0344d", "fusion_lat": 0.0, "rental_uris": {"ios": "https://dc.lft.to/lastmile_qr_scan", "android": "https://dc.lft.to/lastmile_qr_scan"}, "lon": -77.02515466666667, "type": "electric_scooter"}, {"bike_id": "9f9b164bbb8946fea6ebe6946a1ee66f", "is_reserved": 0, "fusion_lon": 0.0, "lat": 38.9244105, "is_disabled": 0, "name": "9f9b164bbb8946fea6ebe6946a1ee66f", "fusion_lat": 0.0, "rental_uris": {"ios": "https://dc.lft.to/lastmile_qr_scan", "android": "https://dc.lft.to/lastmile_qr_scan"}, "lon": -77.03357783333334, "type": "electric_scooter"}, {"bike_id": "0af04a56cfc391b54d9b23e3bc68b05a", "is_reserved": 0, "fusion_lon": 0.0, "lat": 38.90571, "is_disabled": 0, "name": "0af04a56cfc391b54d9b23e3bc68b05a", "fusion_lat": 0.0, "rental_uris": {"ios": "https://dc.lft.to/lastmile_qr_scan", "android": "https://dc.lft.to/lastmile_qr_scan"}, "lon": -77.00443066666666, "type": "electric_scooter"}, {"bike_id": "b942b36531de513f02064e55fb4269ec", "is_reserved": 0, "fusion_lon": 0.0, "lat": 38.923165166666664, "is_disabled": 0, "name": "b942b36531de513f02064e55fb4269ec", "fusion_lat": 0.0, "rental_uris": {"ios": "https://dc.lft.to/lastmile_qr_scan", "android": "https://dc.lft.to/lastmile_qr_scan"}, "lon": -77.0298075, "type": "electric_scooter"}, {"bike_id": "0577c92530267c534a3c43b7c843036e", "is_reserved": 0, "fusion_lon": 0.0, "lat": 38.925540833333336, "is_disabled": 0, "name": "0577c92530267c534a3c43b7c843036e", "fusion_lat": 0.0, "rental_uris": {"ios": "https://dc.lft.to/lastmile_qr_scan", "android": "https://dc.lft.to/lastmile_qr_scan"}, "lon": -77.001354, "type": "electric_bike"}, {"bike_id": "e2256e22709f29924b690d0e54ea9477", "is_reserved": 0, "fusion_lon": 0.0, "lat": 38.89192966666667, "is_disabled": 0, "name": "e2256e22709f29924b690d0e54ea9477", "fusion_lat": 0.0, "rental_uris": {"ios": "https://dc.lft.to/lastmile_qr_scan", "android": "https://dc.lft.to/lastmile_qr_scan"}, "lon": -77.12259216666666, "type": "electric_bike"}, {"bike_id": "77be1d6f283bd94e6ff6067d17f0b2fc", "is_reserved": 0, "fusion_lon": 0.0, "lat": 38.9342605, "is_disabled": 0, "name": "77be1d6f283bd94e6ff6067d17f0b2fc", "fusion_lat": 0.0, "rental_uris": {"ios": "https://dc.lft.to/lastmile_qr_scan", "android": "https://dc.lft.to/lastmile_qr_scan"}, "lon": -77.0340485, "type": "electric_scooter"}, {"bike_id": "22f5f0e1ec8714846646460b23e29bb5", "is_reserved": 0, "fusion_lon": 0.0, "lat": 38.924403166666664, "is_disabled": 0, "name": "22f5f0e1ec8714846646460b23e29bb5", "fusion_lat": 0.0, "rental_uris": {"ios": "https://dc.lft.to/lastmile_qr_scan", "android": "https://dc.lft.to/lastmile_qr_scan"}, "lon": -77.03396616666667, "type": "electric_scooter"}, {"bike_id": "57c84fea42b803c839084a3f50f231bf", "is_reserved": 0, "fusion_lon": 0.0, "lat": 38.92015, "is_disabled": 0, "name": "57c84fea42b803c839084a3f50f231bf", "fusion_lat": 0.0, "rental_uris": {"ios": "https://dc.lft.to/lastmile_qr_scan", "android": "https://dc.lft.to/lastmile_qr_scan"}, "lon": -77.04173383333334, "type": "electric_scooter"}, {"bike_id": "3b744c85391cb4b7caa09705737c24cc", "is_reserved": 0, "fusion_lon": 0.0, "lat": 38.935900333333336, "is_disabled": 0, "name": "3b744c85391cb4b7caa09705737c24cc", "fusion_lat": 0.0, "rental_uris": {"ios": "https://dc.lft.to/lastmile_qr_scan", "android": "https://dc.lft.to/lastmile_qr_scan"}, "lon": -77.02330283333333, "type": "electric_scooter"}, {"bike_id": "f3cade28442bdd1008ec2ff75a407eb0", "is_reserved": 0, "fusion_lon": 0.0, "lat": 38.906753, "is_disabled": 0, "name": "f3cade28442bdd1008ec2ff75a407eb0", "fusion_lat": 0.0, "rental_uris": {"ios": "https://dc.lft.to/lastmile_qr_scan", "android": "https://dc.lft.to/lastmile_qr_scan"}, "lon": -76.97807433333334, "type": "electric_scooter"}, {"bike_id": "e67471223481a2ce315fd6ad8a7bed18", "is_reserved": 0, "fusion_lon": 0.0, "lat": 38.91760216666667, "is_disabled": 0, "name": "e67471223481a2ce315fd6ad8a7bed18", "fusion_lat": 0.0, "rental_uris": {"ios": "https://dc.lft.to/lastmile_qr_scan", "android": "https://dc.lft.to/lastmile_qr_scan"}, "lon": -77.01495583333333, "type": "electric_scooter"}, {"bike_id": "92ae18e1cfd70805e6ee051e568a6676", "is_reserved": 0, "fusion_lon": 0.0, "lat": 38.924708833333334, "is_disabled": 0, "name": "92ae18e1cfd70805e6ee051e568a6676", "fusion_lat": 0.0, "rental_uris": {"ios": "https://dc.lft.to/lastmile_qr_scan", "android": "https://dc.lft.to/lastmile_qr_scan"}, "lon": -77.20839866666667, "type": "electric_bike"}, {"bike_id": "fe360febca8bf3e3776e130baefcd038", "is_reserved": 0, "fusion_lon": 0.0, "lat": 38.908642, "is_disabled": 0, "name": "fe360febca8bf3e3776e130baefcd038", "fusion_lat": 0.0, "rental_uris": {"ios": "https://dc.lft.to/lastmile_qr_scan", "android": "https://dc.lft.to/lastmile_qr_scan"}, "lon": -77.02585966666666, "type": "electric_scooter"}, {"bike_id": "4454c2844b98a9e069a802963f42753a", "is_reserved": 0, "fusion_lon": 0.0, "lat": 38.908313666666665, "is_disabled": 0, "name": "4454c2844b98a9e069a802963f42753a", "fusion_lat": 0.0, "rental_uris": {"ios": "https://dc.lft.to/lastmile_qr_scan", "android": "https://dc.lft.to/lastmile_qr_scan"}, "lon": -76.99694183333334, "type": "electric_scooter"}, {"bike_id": "430d3bce549717e88a4c8c891e7e8f93", "is_reserved": 0, "fusion_lon": 0.0, "lat": 38.909582666666665, "is_disabled": 0, "name": "430d3bce549717e88a4c8c891e7e8f93", "fusion_lat": 0.0, "rental_uris": {"ios": "https://dc.lft.to/lastmile_qr_scan", "android": "https://dc.lft.to/lastmile_qr_scan"}, "lon": -77.04825133333334, "type": "electric_scooter"}, {"bike_id": "3fc6b3afa67b5bf9fc95b0cf815776b1", "is_reserved": 0, "fusion_lon": 0.0, "lat": 38.880372333333334, "is_disabled": 0, "name": "3fc6b3afa67b5bf9fc95b0cf815776b1", "fusion_lat": 0.0, "rental_uris": {"ios": "https://dc.lft.to/lastmile_qr_scan", "android": "https://dc.lft.to/lastmile_qr_scan"}, "lon": -76.92720083333333, "type": "electric_scooter"}, {"bike_id": "d91a0ca04a843e25821dc36c8786c5e9", "is_reserved": 0, "fusion_lon": 0.0, "lat": 38.95548766666667, "is_disabled": 0, "name": "d91a0ca04a843e25821dc36c8786c5e9", "fusion_lat": 0.0, "rental_uris": {"ios": "https://dc.lft.to/lastmile_qr_scan", "android": "https://dc.lft.to/lastmile_qr_scan"}, "lon": -76.93532866666666, "type": "electric_bike"}, {"bike_id": "4bf6e04194a8007917e3e460be3786f4", "is_reserved": 0, "fusion_lon": 0.0, "lat": 38.89997816666666, "is_disabled": 0, "name": "4bf6e04194a8007917e3e460be3786f4", "fusion_lat": 0.0, "rental_uris": {"ios": "https://dc.lft.to/lastmile_qr_scan", "android": "https://dc.lft.to/lastmile_qr_scan"}, "lon": -77.05549183333333, "type": "electric_scooter"}, {"bike_id": "81eaeb05fa49582994082ca1277eaa7f", "is_reserved": 0, "fusion_lon": 0.0, "lat": 38.880179, "is_disabled": 0, "name": "81eaeb05fa49582994082ca1277eaa7f", "fusion_lat": 0.0, "rental_uris": {"ios": "https://dc.lft.to/lastmile_qr_scan", "android": "https://dc.lft.to/lastmile_qr_scan"}, "lon": -76.9312625, "type": "electric_scooter"}, {"bike_id": "d2e06ebeb62b095b4fcff42d90150a98", "is_reserved": 0, "fusion_lon": 0.0, "lat": 38.9280025, "is_disabled": 0, "name": "d2e06ebeb62b095b4fcff42d90150a98", "fusion_lat": 0.0, "rental_uris": {"ios": "https://dc.lft.to/lastmile_qr_scan", "android": "https://dc.lft.to/lastmile_qr_scan"}, "lon": -77.05357416666666, "type": "electric_scooter"}, {"bike_id": "8758222ba6ad7d80e55de3b151e454c5", "is_reserved": 0, "fusion_lon": 0.0, "lat": 38.91825, "is_disabled": 0, "name": "8758222ba6ad7d80e55de3b151e454c5", "fusion_lat": 0.0, "rental_uris": {"ios": "https://dc.lft.to/lastmile_qr_scan", "android": "https://dc.lft.to/lastmile_qr_scan"}, "lon": -77.01208283333334, "type": "electric_scooter"}, {"bike_id": "a1161b8b64e3ed5ace2975be72f7c698", "is_reserved": 0, "fusion_lon": 0.0, "lat": 38.88497916666667, "is_disabled": 0, "name": "a1161b8b64e3ed5ace2975be72f7c698", "fusion_lat": 0.0, "rental_uris": {"ios": "https://dc.lft.to/lastmile_qr_scan", "android": "https://dc.lft.to/lastmile_qr_scan"}, "lon": -77.00727033333334, "type": "electric_scooter"}, {"bike_id": "a7c7eb8e8c5c0871e6dd5402f84fddf7", "is_reserved": 0, "fusion_lon": 0.0, "lat": 38.908621, "is_disabled": 0, "name": "a7c7eb8e8c5c0871e6dd5402f84fddf7", "fusion_lat": 0.0, "rental_uris": {"ios": "https://dc.lft.to/lastmile_qr_scan", "android": "https://dc.lft.to/lastmile_qr_scan"}, "lon": -77.02730366666667, "type": "electric_scooter"}, {"bike_id": "b0c6482bbd5abcd37e56ed3abec16e46", "is_reserved": 0, "fusion_lon": 0.0, "lat": 38.908104, "is_disabled": 0, "name": "b0c6482bbd5abcd37e56ed3abec16e46", "fusion_lat": 0.0, "rental_uris": {"ios": "https://dc.lft.to/lastmile_qr_scan", "android": "https://dc.lft.to/lastmile_qr_scan"}, "lon": -77.03461683333333, "type": "electric_scooter"}, {"bike_id": "2df80ee10511e0580617077084f4357c", "is_reserved": 0, "fusion_lon": 0.0, "lat": 38.8922645, "is_disabled": 0, "name": "2df80ee10511e0580617077084f4357c", "fusion_lat": 0.0, "rental_uris": {"ios": "https://dc.lft.to/lastmile_qr_scan", "android": "https://dc.lft.to/lastmile_qr_scan"}, "lon": -77.022061, "type": "electric_scooter"}, {"bike_id": "1b96e3dca506538aef4de5c9b431b68d", "is_reserved": 0, "fusion_lon": 0.0, "lat": 38.8971045, "is_disabled": 0, "name": "1b96e3dca506538aef4de5c9b431b68d", "fusion_lat": 0.0, "rental_uris": {"ios": "https://dc.lft.to/lastmile_qr_scan", "android": "https://dc.lft.to/lastmile_qr_scan"}, "lon": -76.9177035, "type": "electric_scooter"}, {"bike_id": "c6a7dd84fc135273a9f73f212373974e", "is_reserved": 0, "fusion_lon": 0.0, "lat": 38.92108016666667, "is_disabled": 0, "name": "c6a7dd84fc135273a9f73f212373974e", "fusion_lat": 0.0, "rental_uris": {"ios": "https://dc.lft.to/lastmile_qr_scan", "android": "https://dc.lft.to/lastmile_qr_scan"}, "lon": -77.04568216666667, "type": "electric_scooter"}, {"bike_id": "67b68937fcbc91bd529b3aad1ac3722f", "is_reserved": 0, "fusion_lon": 0.0, "lat": 38.8272845, "is_disabled": 0, "name": "67b68937fcbc91bd529b3aad1ac3722f", "fusion_lat": 0.0, "rental_uris": {"ios": "https://dc.lft.to/lastmile_qr_scan", "android": "https://dc.lft.to/lastmile_qr_scan"}, "lon": -77.00859883333334, "type": "electric_bike"}, {"bike_id": "a79e18980f9b21370dccbbec8b5bc140", "is_reserved": 0, "fusion_lon": 0.0, "lat": 38.90972583333333, "is_disabled": 0, "name": "a79e18980f9b21370dccbbec8b5bc140", "fusion_lat": 0.0, "rental_uris": {"ios": "https://dc.lft.to/lastmile_qr_scan", "android": "https://dc.lft.to/lastmile_qr_scan"}, "lon": -77.0338665, "type": "electric_scooter"}, {"bike_id": "7f39bc7443883949f6bc0d1ea2aefadf", "is_reserved": 0, "fusion_lon": 0.0, "lat": 38.924092, "is_disabled": 0, "name": "7f39bc7443883949f6bc0d1ea2aefadf", "fusion_lat": 0.0, "rental_uris": {"ios": "https://dc.lft.to/lastmile_qr_scan", "android": "https://dc.lft.to/lastmile_qr_scan"}, "lon": -77.0194625, "type": "electric_scooter"}, {"bike_id": "8a379c9735cc3ba4cdad901107bd68e0", "is_reserved": 0, "fusion_lon": 0.0, "lat": 38.918843333333335, "is_disabled": 0, "name": "8a379c9735cc3ba4cdad901107bd68e0", "fusion_lat": 0.0, "rental_uris": {"ios": "https://dc.lft.to/lastmile_qr_scan", "android": "https://dc.lft.to/lastmile_qr_scan"}, "lon": -77.04309483333333, "type": "electric_scooter"}, {"bike_id": "12c1b3c018ded3c8e9664e2de8ea2035", "is_reserved": 0, "fusion_lon": 0.0, "lat": 38.953577, "is_disabled": 0, "name": "12c1b3c018ded3c8e9664e2de8ea2035", "fusion_lat": 0.0, "rental_uris": {"ios": "https://dc.lft.to/lastmile_qr_scan", "android": "https://dc.lft.to/lastmile_qr_scan"}, "lon": -76.98089583333334, "type": "electric_bike"}, {"bike_id": "394fd8dc8779766f2698772eccb00ab5", "is_reserved": 0, "fusion_lon": 0.0, "lat": 38.89848766666667, "is_disabled": 0, "name": "394fd8dc8779766f2698772eccb00ab5", "fusion_lat": 0.0, "rental_uris": {"ios": "https://dc.lft.to/lastmile_qr_scan", "android": "https://dc.lft.to/lastmile_qr_scan"}, "lon": -77.02896233333334, "type": "electric_scooter"}, {"bike_id": "14f9ef9d6f213d67e504924de69701b2", "is_reserved": 0, "fusion_lon": 0.0, "lat": 38.895563833333334, "is_disabled": 0, "name": "14f9ef9d6f213d67e504924de69701b2", "fusion_lat": 0.0, "rental_uris": {"ios": "https://dc.lft.to/lastmile_qr_scan", "android": "https://dc.lft.to/lastmile_qr_scan"}, "lon": -76.93043466666667, "type": "electric_scooter"}, {"bike_id": "2ca20e01fc385fdca3fa06100e32c636", "is_reserved": 0, "fusion_lon": 0.0, "lat": 38.910493833333334, "is_disabled": 0, "name": "2ca20e01fc385fdca3fa06100e32c636", "fusion_lat": 0.0, "rental_uris": {"ios": "https://dc.lft.to/lastmile_qr_scan", "android": "https://dc.lft.to/lastmile_qr_scan"}, "lon": -77.01507916666667, "type": "electric_scooter"}, {"bike_id": "0315f89542ee3c58de98038d715758f5", "is_reserved": 0, "fusion_lon": 0.0, "lat": 38.900246, "is_disabled": 0, "name": "0315f89542ee3c58de98038d715758f5", "fusion_lat": 0.0, "rental_uris": {"ios": "https://dc.lft.to/lastmile_qr_scan", "android": "https://dc.lft.to/lastmile_qr_scan"}, "lon": -77.01201283333333, "type": "electric_scooter"}, {"bike_id": "baf93caadc483804f763d4998e91f7a2", "is_reserved": 0, "fusion_lon": 0.0, "lat": 38.925004666666666, "is_disabled": 0, "name": "baf93caadc483804f763d4998e91f7a2", "fusion_lat": 0.0, "rental_uris": {"ios": "https://dc.lft.to/lastmile_qr_scan", "android": "https://dc.lft.to/lastmile_qr_scan"}, "lon": -77.02170233333334, "type": "electric_scooter"}, {"bike_id": "ac97341d793f69cf1f5b6799b4163476", "is_reserved": 0, "fusion_lon": 0.0, "lat": 38.9159095, "is_disabled": 0, "name": "ac97341d793f69cf1f5b6799b4163476", "fusion_lat": 0.0, "rental_uris": {"ios": "https://dc.lft.to/lastmile_qr_scan", "android": "https://dc.lft.to/lastmile_qr_scan"}, "lon": -76.98376283333333, "type": "electric_scooter"}, {"bike_id": "e5e8c9da6040b27ed8253a76a4501ad2", "is_reserved": 0, "fusion_lon": 0.0, "lat": 38.8460855, "is_disabled": 0, "name": "e5e8c9da6040b27ed8253a76a4501ad2", "fusion_lat": 0.0, "rental_uris": {"ios": "https://dc.lft.to/lastmile_qr_scan", "android": "https://dc.lft.to/lastmile_qr_scan"}, "lon": -76.97836283333334, "type": "electric_bike"}, {"bike_id": "8c600871f502dc577470bb6ada45f8f9", "is_reserved": 0, "fusion_lon": 0.0, "lat": 38.914753833333336, "is_disabled": 0, "name": "8c600871f502dc577470bb6ada45f8f9", "fusion_lat": 0.0, "rental_uris": {"ios": "https://dc.lft.to/lastmile_qr_scan", "android": "https://dc.lft.to/lastmile_qr_scan"}, "lon": -77.008371, "type": "electric_scooter"}, {"bike_id": "e55502e1e47749df5810b36496347703", "is_reserved": 0, "fusion_lon": 0.0, "lat": 39.05812816666667, "is_disabled": 0, "name": "e55502e1e47749df5810b36496347703", "fusion_lat": 0.0, "rental_uris": {"ios": "https://dc.lft.to/lastmile_qr_scan", "android": "https://dc.lft.to/lastmile_qr_scan"}, "lon": -77.1262345, "type": "electric_bike"}, {"bike_id": "a6ff2e89d4bbe4f32ac76c7c73ee4dc0", "is_reserved": 0, "fusion_lon": 0.0, "lat": 38.90241283333334, "is_disabled": 0, "name": "a6ff2e89d4bbe4f32ac76c7c73ee4dc0", "fusion_lat": 0.0, "rental_uris": {"ios": "https://dc.lft.to/lastmile_qr_scan", "android": "https://dc.lft.to/lastmile_qr_scan"}, "lon": -77.00200383333333, "type": "electric_scooter"}, {"bike_id": "c17e036048441be6a4db9b0164587569", "is_reserved": 0, "fusion_lon": 0.0, "lat": 38.90371916666667, "is_disabled": 0, "name": "c17e036048441be6a4db9b0164587569", "fusion_lat": 0.0, "rental_uris": {"ios": "https://dc.lft.to/lastmile_qr_scan", "android": "https://dc.lft.to/lastmile_qr_scan"}, "lon": -77.04355116666666, "type": "electric_scooter"}, {"bike_id": "314299bb3129f5090796b6287f6c2c35", "is_reserved": 0, "fusion_lon": 0.0, "lat": 38.879970666666665, "is_disabled": 0, "name": "314299bb3129f5090796b6287f6c2c35", "fusion_lat": 0.0, "rental_uris": {"ios": "https://dc.lft.to/lastmile_qr_scan", "android": "https://dc.lft.to/lastmile_qr_scan"}, "lon": -76.99507833333334, "type": "electric_scooter"}, {"bike_id": "2e9d5d7552bbeaccd26b023aeedf55ff", "is_reserved": 0, "fusion_lon": 0.0, "lat": 38.866287166666666, "is_disabled": 0, "name": "2e9d5d7552bbeaccd26b023aeedf55ff", "fusion_lat": 0.0, "rental_uris": {"ios": "https://dc.lft.to/lastmile_qr_scan", "android": "https://dc.lft.to/lastmile_qr_scan"}, "lon": -76.987178, "type": "electric_scooter"}, {"bike_id": "bfd1ef737ae519056156b3674fb83b83", "is_reserved": 0, "fusion_lon": 0.0, "lat": 38.92879283333333, "is_disabled": 0, "name": "bfd1ef737ae519056156b3674fb83b83", "fusion_lat": 0.0, "rental_uris": {"ios": "https://dc.lft.to/lastmile_qr_scan", "android": "https://dc.lft.to/lastmile_qr_scan"}, "lon": -77.05474666666667, "type": "electric_scooter"}, {"bike_id": "fd2b1eb8df51350ad443a2dc95f37e5f", "is_reserved": 0, "fusion_lon": 0.0, "lat": 38.908042, "is_disabled": 0, "name": "fd2b1eb8df51350ad443a2dc95f37e5f", "fusion_lat": 0.0, "rental_uris": {"ios": "https://dc.lft.to/lastmile_qr_scan", "android": "https://dc.lft.to/lastmile_qr_scan"}, "lon": -77.03449966666666, "type": "electric_scooter"}, {"bike_id": "96097eaba87e2ce222e24d6a14affbb1", "is_reserved": 0, "fusion_lon": 0.0, "lat": 38.900148333333334, "is_disabled": 0, "name": "96097eaba87e2ce222e24d6a14affbb1", "fusion_lat": 0.0, "rental_uris": {"ios": "https://dc.lft.to/lastmile_qr_scan", "android": "https://dc.lft.to/lastmile_qr_scan"}, "lon": -76.973094, "type": "electric_scooter"}, {"bike_id": "c1768038d5a639759faedad6d77f3919", "is_reserved": 0, "fusion_lon": 0.0, "lat": 38.89950283333334, "is_disabled": 0, "name": "c1768038d5a639759faedad6d77f3919", "fusion_lat": 0.0, "rental_uris": {"ios": "https://dc.lft.to/lastmile_qr_scan", "android": "https://dc.lft.to/lastmile_qr_scan"}, "lon": -77.00352, "type": "electric_scooter"}, {"bike_id": "8f08298175e07ad09498b34c8c6a8c9a", "is_reserved": 0, "fusion_lon": 0.0, "lat": 38.90502216666667, "is_disabled": 0, "name": "8f08298175e07ad09498b34c8c6a8c9a", "fusion_lat": 0.0, "rental_uris": {"ios": "https://dc.lft.to/lastmile_qr_scan", "android": "https://dc.lft.to/lastmile_qr_scan"}, "lon": -77.02964983333334, "type": "electric_scooter"}, {"bike_id": "2caad08113e0239dcf7c52e022938fa8", "is_reserved": 0, "fusion_lon": 0.0, "lat": 38.90207983333333, "is_disabled": 0, "name": "2caad08113e0239dcf7c52e022938fa8", "fusion_lat": 0.0, "rental_uris": {"ios": "https://dc.lft.to/lastmile_qr_scan", "android": "https://dc.lft.to/lastmile_qr_scan"}, "lon": -77.06054, "type": "electric_scooter"}, {"bike_id": "4ffd5dd07c385ac53a36eabe2fa04d19", "is_reserved": 0, "fusion_lon": 0.0, "lat": 38.89497766666667, "is_disabled": 0, "name": "4ffd5dd07c385ac53a36eabe2fa04d19", "fusion_lat": 0.0, "rental_uris": {"ios": "https://dc.lft.to/lastmile_qr_scan", "android": "https://dc.lft.to/lastmile_qr_scan"}, "lon": -77.0221665, "type": "electric_scooter"}, {"bike_id": "f74ff335330f6e5f3a608d2cd23d490c", "is_reserved": 0, "fusion_lon": 0.0, "lat": 38.9273235, "is_disabled": 0, "name": "f74ff335330f6e5f3a608d2cd23d490c", "fusion_lat": 0.0, "rental_uris": {"ios": "https://dc.lft.to/lastmile_qr_scan", "android": "https://dc.lft.to/lastmile_qr_scan"}, "lon": -77.0227995, "type": "electric_scooter"}, {"bike_id": "01c6c68c54ba6263b91ec79f54d9f362", "is_reserved": 0, "fusion_lon": 0.0, "lat": 38.912529666666664, "is_disabled": 0, "name": "01c6c68c54ba6263b91ec79f54d9f362", "fusion_lat": 0.0, "rental_uris": {"ios": "https://dc.lft.to/lastmile_qr_scan", "android": "https://dc.lft.to/lastmile_qr_scan"}, "lon": -77.02692316666666, "type": "electric_scooter"}, {"bike_id": "a09523b16cfbc4d0a0a157013c573a49", "is_reserved": 0, "fusion_lon": 0.0, "lat": 38.92088416666667, "is_disabled": 0, "name": "a09523b16cfbc4d0a0a157013c573a49", "fusion_lat": 0.0, "rental_uris": {"ios": "https://dc.lft.to/lastmile_qr_scan", "android": "https://dc.lft.to/lastmile_qr_scan"}, "lon": -77.02545266666667, "type": "electric_scooter"}, {"bike_id": "70ac6461d3fcd3f896d7d006d04b5e92", "is_reserved": 0, "fusion_lon": 0.0, "lat": 38.90848883333334, "is_disabled": 0, "name": "70ac6461d3fcd3f896d7d006d04b5e92", "fusion_lat": 0.0, "rental_uris": {"ios": "https://dc.lft.to/lastmile_qr_scan", "android": "https://dc.lft.to/lastmile_qr_scan"}, "lon": -77.085365, "type": "electric_scooter"}, {"bike_id": "2a738a7fdf75a5cca1b79103414fc717", "is_reserved": 0, "fusion_lon": 0.0, "lat": 38.906988166666665, "is_disabled": 0, "name": "2a738a7fdf75a5cca1b79103414fc717", "fusion_lat": 0.0, "rental_uris": {"ios": "https://dc.lft.to/lastmile_qr_scan", "android": "https://dc.lft.to/lastmile_qr_scan"}, "lon": -77.07544816666666, "type": "electric_scooter"}, {"bike_id": "26973b6e8bf72d767c3e543fa02539b2", "is_reserved": 0, "fusion_lon": 0.0, "lat": 38.91554466666667, "is_disabled": 0, "name": "26973b6e8bf72d767c3e543fa02539b2", "fusion_lat": 0.0, "rental_uris": {"ios": "https://dc.lft.to/lastmile_qr_scan", "android": "https://dc.lft.to/lastmile_qr_scan"}, "lon": -77.03933966666666, "type": "electric_scooter"}, {"bike_id": "ef2eeb9684e7feb76f38885012f31a72", "is_reserved": 0, "fusion_lon": 0.0, "lat": 38.9221335, "is_disabled": 0, "name": "ef2eeb9684e7feb76f38885012f31a72", "fusion_lat": 0.0, "rental_uris": {"ios": "https://dc.lft.to/lastmile_qr_scan", "android": "https://dc.lft.to/lastmile_qr_scan"}, "lon": -77.03660816666667, "type": "electric_scooter"}, {"bike_id": "fa9d6b9cc38890ff718eeb1d4ba777e1", "is_reserved": 0, "fusion_lon": 0.0, "lat": 38.914677833333336, "is_disabled": 0, "name": "fa9d6b9cc38890ff718eeb1d4ba777e1", "fusion_lat": 0.0, "rental_uris": {"ios": "https://dc.lft.to/lastmile_qr_scan", "android": "https://dc.lft.to/lastmile_qr_scan"}, "lon": -77.03199233333333, "type": "electric_scooter"}, {"bike_id": "371f61f17f0aacff0ef0dcbddc56c5d4", "is_reserved": 0, "fusion_lon": 0.0, "lat": 38.8922565, "is_disabled": 0, "name": "371f61f17f0aacff0ef0dcbddc56c5d4", "fusion_lat": 0.0, "rental_uris": {"ios": "https://dc.lft.to/lastmile_qr_scan", "android": "https://dc.lft.to/lastmile_qr_scan"}, "lon": -77.04334333333334, "type": "electric_scooter"}, {"bike_id": "c5f48903327394a4c56f70b1ddaa7c26", "is_reserved": 0, "fusion_lon": 0.0, "lat": 38.934268833333334, "is_disabled": 0, "name": "c5f48903327394a4c56f70b1ddaa7c26", "fusion_lat": 0.0, "rental_uris": {"ios": "https://dc.lft.to/lastmile_qr_scan", "android": "https://dc.lft.to/lastmile_qr_scan"}, "lon": -77.04318833333333, "type": "electric_scooter"}, {"bike_id": "27f3f98e5b512faeb4848dcba0d4ebe2", "is_reserved": 0, "fusion_lon": 0.0, "lat": 38.933331333333335, "is_disabled": 0, "name": "27f3f98e5b512faeb4848dcba0d4ebe2", "fusion_lat": 0.0, "rental_uris": {"ios": "https://dc.lft.to/lastmile_qr_scan", "android": "https://dc.lft.to/lastmile_qr_scan"}, "lon": -77.03272616666666, "type": "electric_scooter"}, {"bike_id": "a42baf71b5b4e26283ed732f3fbee6e4", "is_reserved": 0, "fusion_lon": 0.0, "lat": 38.91550183333333, "is_disabled": 0, "name": "a42baf71b5b4e26283ed732f3fbee6e4", "fusion_lat": 0.0, "rental_uris": {"ios": "https://dc.lft.to/lastmile_qr_scan", "android": "https://dc.lft.to/lastmile_qr_scan"}, "lon": -77.03850316666667, "type": "electric_scooter"}, {"bike_id": "4d4ba4941ce6af10887b4037a191d9f1", "is_reserved": 0, "fusion_lon": 0.0, "lat": 38.905664, "is_disabled": 0, "name": "4d4ba4941ce6af10887b4037a191d9f1", "fusion_lat": 0.0, "rental_uris": {"ios": "https://dc.lft.to/lastmile_qr_scan", "android": "https://dc.lft.to/lastmile_qr_scan"}, "lon": -77.00577433333333, "type": "electric_scooter"}, {"bike_id": "ad705a8b35f3ea7ebfa29d42fb021f6e", "is_reserved": 0, "fusion_lon": 0.0, "lat": 39.0520365, "is_disabled": 0, "name": "ad705a8b35f3ea7ebfa29d42fb021f6e", "fusion_lat": 0.0, "rental_uris": {"ios": "https://dc.lft.to/lastmile_qr_scan", "android": "https://dc.lft.to/lastmile_qr_scan"}, "lon": -77.10909033333333, "type": "electric_bike"}, {"bike_id": "331620f069584b17de992b2052e36db6", "is_reserved": 0, "fusion_lon": 0.0, "lat": 38.89621783333333, "is_disabled": 0, "name": "331620f069584b17de992b2052e36db6", "fusion_lat": 0.0, "rental_uris": {"ios": "https://dc.lft.to/lastmile_qr_scan", "android": "https://dc.lft.to/lastmile_qr_scan"}, "lon": -77.0092525, "type": "electric_scooter"}, {"bike_id": "ee5f1d0f5efd755c94960877dd9e9364", "is_reserved": 0, "fusion_lon": 0.0, "lat": 38.882099333333336, "is_disabled": 0, "name": "ee5f1d0f5efd755c94960877dd9e9364", "fusion_lat": 0.0, "rental_uris": {"ios": "https://dc.lft.to/lastmile_qr_scan", "android": "https://dc.lft.to/lastmile_qr_scan"}, "lon": -76.92694783333333, "type": "electric_scooter"},