{"data": {"bikes": [{"rental_uris": {"ios": "https://dc.lft.to/lastmile_qr_scan", "android": "https://dc.lft.to/lastmile_qr_scan"}, "lon": -77.00896683333333, "type": "electric_scooter", "fusion_lat": 0.0, "lat": 38.91239016666667, "name": "9e1f7b6a519f33f0b4d43d2b539c6992", "fusion_lon": 0.0, "bike_id": "9e1f7b6a519f33f0b4d43d2b539c6992", "is_disabled": 0, "is_reserved": 0}, {"rental_uris": {"ios": "https://dc.lft.to/lastmile_qr_scan", "android": "https://dc.lft.to/lastmile_qr_scan"}, "lon": -76.931751, "type": "electric_scooter", "fusion_lat": 0.0, "lat": 38.898876666666666, "name": "503424569f8790a250c968f61a07eb7a", "fusion_lon": 0.0, "bike_id": "503424569f8790a250c968f61a07eb7a", "is_disabled": 0, "is_reserved": 0}, {"rental_uris": {"ios": "https://dc.lft.to/lastmile_qr_scan", "android": "https://dc.lft.to/lastmile_qr_scan"}, "lon": -76.9270925, "type": "electric_scooter", "fusion_lat": 0.0, "lat": 38.887693166666665, "name": "b817265edab78287c227a9bfd0945559", "fusion_lon": 0.0, "bike_id": "b817265edab78287c227a9bfd0945559", "is_disabled": 0, "is_reserved": 0}, {"rental_uris": {"ios": "https://dc.lft.to/lastmile_qr_scan", "android": "https://dc.lft.to/lastmile_qr_scan"}, "lon": -77.015764, "type": "electric_scooter", "fusion_lat": 0.0, "lat": 38.9168485, "name": "20b502dde08c3ac81f2ced12643f2381", "fusion_lon": 0.0, "bike_id": "20b502dde08c3ac81f2ced12643f2381", "is_disabled": 0, "is_reserved": 0}, {"rental_uris": {"ios": "https://dc.lft.to/lastmile_qr_scan", "android": "https://dc.lft.to/lastmile_qr_scan"}, "lon": -77.03131116666667, "type": "electric_scooter", "fusion_lat": 0.0, "lat": 38.923771, "name": "dd78c8fea234a05555804a4c3c170ac7", "fusion_lon": 0.0, "bike_id": "dd78c8fea234a05555804a4c3c170ac7", "is_disabled": 0, "is_reserved": 0}, {"rental_uris": {"ios": "https://dc.lft.to/lastmile_qr_scan", "android": "https://dc.lft.to/lastmile_qr_scan"}, "lon": -76.98717683333334, "type": "electric_scooter", "fusion_lat": 0.0, "lat": 38.8670485, "name": "4a0b0b61efc4e058741e94cc9518e669", "fusion_lon": 0.0, "bike_id": "4a0b0b61efc4e058741e94cc9518e669", "is_disabled": 0, "is_reserved": 0}, {"rental_uris": {"ios": "https://dc.lft.to/lastmile_qr_scan", "android": "https://dc.lft.to/lastmile_qr_scan"}, "lon": -77.03181883333333, "type": "electric_scooter", "fusion_lat": 0.0, "lat": 38.895995666666664, "name": "8e8004d6bb2b842aeb82a471d953b8ee", "fusion_lon": 0.0, "bike_id": "8e8004d6bb2b842aeb82a471d953b8ee", "is_disabled": 0, "is_reserved": 0}, {"rental_uris": {"ios": "https://dc.lft.to/lastmile_qr_scan", "android": "https://dc.lft.to/lastmile_qr_scan"}, "lon": -77.050344, "type": "electric_scooter", "fusion_lat": 0.0, "lat": 38.8965595, "name": "b3846c49a83994ab9efb59a4fb1b18ad", "fusion_lon": 0.0, "bike_id": "b3846c49a83994ab9efb59a4fb1b18ad", "is_disabled": 0, "is_reserved": 0}, {"rental_uris": {"ios": "https://dc.lft.to/lastmile_qr_scan", "android": "https://dc.lft.to/lastmile_qr_scan"}, "lon": -77.0464145, "type": "electric_scooter", "fusion_lat": 0.0, "lat": 38.9028625, "name": "dfb6f2b498f488bf810c70db6ae30300", "fusion_lon": 0.0, "bike_id": "dfb6f2b498f488bf810c70db6ae30300", "is_disabled": 0, "is_reserved": 0}, {"rental_uris": {"ios": "https://dc.lft.to/lastmile_qr_scan", "android": "https://dc.lft.to/lastmile_qr_scan"}, "lon": -76.97330183333334, "type": "electric_bike", "fusion_lat": 0.0, "lat": 38.8506485, "name": "3021237b56eabbbaae2532aa36c4953a", "fusion_lon": 0.0, "bike_id": "3021237b56eabbbaae2532aa36c4953a", "is_disabled": 0, "is_reserved": 0}, {"rental_uris": {"ios": "https://dc.lft.to/lastmile_qr_scan", "android": "https://dc.lft.to/lastmile_qr_scan"}, "lon": -77.05281233333334, "type": "electric_scooter", "fusion_lat": 0.0, "lat": 38.910141333333335, "name": "fa242e5ef8e04cc6b611849e53d980cb", "fusion_lon": 0.0, "bike_id": "fa242e5ef8e04cc6b611849e53d980cb", "is_disabled": 0, "is_reserved": 0}, {"rental_uris": {"ios": "https://dc.lft.to/lastmile_qr_scan", "android": "https://dc.lft.to/lastmile_qr_scan"}, "lon": -77.038016, "type": "electric_scooter", "fusion_lat": 0.0, "lat": 38.9218975, "name": "fdcbaa957d90583f3d066ac49d98e13f", "fusion_lon": 0.0, "bike_id": "fdcbaa957d90583f3d066ac49d98e13f", "is_disabled": 0, "is_reserved": 0}, {"rental_uris": {"ios": "https://dc.lft.to/lastmile_qr_scan", "android": "https://dc.lft.to/lastmile_qr_scan"}, "lon": -77.039762, "type": "electric_scooter", "fusion_lat": 0.0, "lat": 38.9026505, "name": "7203df2d19cec7b87272e9f5cc737017", "fusion_lon": 0.0, "bike_id": "7203df2d19cec7b87272e9f5cc737017", "is_disabled": 0, "is_reserved": 0}, {"rental_uris": {"ios": "https://dc.lft.to/lastmile_qr_scan", "android": "https://dc.lft.to/lastmile_qr_scan"}, "lon": -77.03668883333333, "type": "electric_scooter", "fusion_lat": 0.0, "lat": 38.93000933333333, "name": "85109d95618628babac5f2c005fd877f", "fusion_lon": 0.0, "bike_id": "85109d95618628babac5f2c005fd877f", "is_disabled": 0, "is_reserved": 0}, {"rental_uris": {"ios": "https://dc.lft.to/lastmile_qr_scan", "android": "https://dc.lft.to/lastmile_qr_scan"}, "lon": -77.03110916666667, "type": "electric_scooter", "fusion_lat": 0.0, "lat": 38.904501333333336, "name": "77b150df8760fc401947fd9a9a2f8eca", "fusion_lon": 0.0, "bike_id": "77b150df8760fc401947fd9a9a2f8eca", "is_disabled": 0, "is_reserved": 0}, {"rental_uris": {"ios": "https://dc.lft.to/lastmile_qr_scan", "android": "https://dc.lft.to/lastmile_qr_scan"}, "lon": -77.02460083333334, "type": "electric_scooter", "fusion_lat": 0.0, "lat": 38.979397666666664, "name": "07c5ef65df6e1072afd16025a558c2ff", "fusion_lon": 0.0, "bike_id": "07c5ef65df6e1072afd16025a558c2ff", "is_disabled": 0, "is_reserved": 0}, {"rental_uris": {"ios": "https://dc.lft.to/lastmile_qr_scan", "android": "https://dc.lft.to/lastmile_qr_scan"}, "lon": -77.04798733333334, "type": "electric_scooter", "fusion_lat": 0.0, "lat": 38.907254333333334, "name": "46dfde63141cbbcbf4dcc8fca36a2276", "fusion_lon": 0.0, "bike_id": "46dfde63141cbbcbf4dcc8fca36a2276", "is_disabled": 0, "is_reserved": 0}, {"rental_uris": {"ios": "https://dc.lft.to/lastmile_qr_scan", "android": "https://dc.lft.to/lastmile_qr_scan"}, "lon": -77.024192, "type": "electric_scooter", "fusion_lat": 0.0, "lat": 38.91823683333333, "name": "03662942f2dd25ec794f912f13216c7f", "fusion_lon": 0.0, "bike_id": "03662942f2dd25ec794f912f13216c7f", "is_disabled": 0, "is_reserved": 0}, {"rental_uris": {"ios": "https://dc.lft.to/lastmile_qr_scan", "android": "https://dc.lft.to/lastmile_qr_scan"}, "lon": -77.0413665, "type": "electric_scooter", "fusion_lat": 0.0, "lat": 38.923522166666665, "name": "041c3fbb2f7b2f4d7730e201b602f977", "fusion_lon": 0.0, "bike_id": "041c3fbb2f7b2f4d7730e201b602f977", "is_disabled": 0, "is_reserved": 0}, {"rental_uris": {"ios": "https://dc.lft.to/lastmile_qr_scan", "android": "https://dc.lft.to/lastmile_qr_scan"}, "lon": -77.02334583333334, "type": "electric_scooter", "fusion_lat": 0.0, "lat": 38.93054, "name": "7028d1b3018481e8ddcb0ebb144d699e", "fusion_lon": 0.0, "bike_id": "7028d1b3018481e8ddcb0ebb144d699e", "is_disabled": 0, "is_reserved": 0}, {"rental_uris": {"ios": "https://dc.lft.to/lastmile_qr_scan", "android": "https://dc.lft.to/lastmile_qr_scan"}, "lon": -77.032391, "type": "electric_scooter", "fusion_lat": 0.0, "lat": 38.9276065, "name": "f927d892d52f7278bfd64e89d2046fff", "fusion_lon": 0.0, "bike_id": "f927d892d52f7278bfd64e89d2046fff", "is_disabled": 0, "is_reserved": 0}, {"rental_uris": {"ios": "https://dc.lft.to/lastmile_qr_scan", "android": "https://dc.lft.to/lastmile_qr_scan"}, "lon": -77.03335366666667, "type": "electric_bike", "fusion_lat": 0.0, "lat": 38.9613445, "name": "499333451e632f298fe00219d8b6ed43", "fusion_lon": 0.0, "bike_id": "499333451e632f298fe00219d8b6ed43", "is_disabled": 0, "is_reserved": 0}, {"rental_uris": {"ios": "https://dc.lft.to/lastmile_qr_scan", "android": "https://dc.lft.to/lastmile_qr_scan"}, "lon": -77.04171266666667, "type": "electric_scooter", "fusion_lat": 0.0, "lat": 38.913970666666664, "name": "3c136e1a4bfdd1426d9b76d76b8e5270", "fusion_lon": 0.0, "bike_id": "3c136e1a4bfdd1426d9b76d76b8e5270", "is_disabled": 0, "is_reserved": 0}, {"rental_uris": {"ios": "https://dc.lft.to/lastmile_qr_scan", "android": "https://dc.lft.to/lastmile_qr_scan"}, "lon": -77.03236066666666, "type": "electric_scooter", "fusion_lat": 0.0, "lat": 38.92761383333333, "name": "50f25c533d10c78658c8fbf4a679e53d", "fusion_lon": 0.0, "bike_id": "50f25c533d10c78658c8fbf4a679e53d", "is_disabled": 0, "is_reserved": 0}, {"rental_uris": {"ios": "https://dc.lft.to/lastmile_qr_scan", "android": "https://dc.lft.to/lastmile_qr_scan"}, "lon": -77.01431, "type": "electric_scooter", "fusion_lat": 0.0, "lat": 38.929901, "name": "d3933656fcd783d289727c863d255603", "fusion_lon": 0.0, "bike_id": "d3933656fcd783d289727c863d255603", "is_disabled": 0, "is_reserved": 0}, {"rental_uris": {"ios": "https://dc.lft.to/lastmile_qr_scan", "android": "https://dc.lft.to/lastmile_qr_scan"}, "lon": -77.00204416666666, "type": "electric_scooter", "fusion_lat": 0.0, "lat": 38.89989033333333, "name": "2e7b1ab21bb1a0d6ddcc189875b4d3d9", "fusion_lon": 0.0, "bike_id": "2e7b1ab21bb1a0d6ddcc189875b4d3d9", "is_disabled": 0, "is_reserved": 0}, {"rental_uris": {"ios": "https://dc.lft.to/lastmile_qr_scan", "android": "https://dc.lft.to/lastmile_qr_scan"}, "lon": -77.03203516666666, "type": "electric_scooter", "fusion_lat": 0.0, "lat": 38.916796833333336, "name": "bd3f5cfe9f744905cbedb3290a54ac2f", "fusion_lon": 0.0, "bike_id": "bd3f5cfe9f744905cbedb3290a54ac2f", "is_disabled": 0, "is_reserved": 0}, {"rental_uris": {"ios": "https://dc.lft.to/lastmile_qr_scan", "android": "https://dc.lft.to/lastmile_qr_scan"}, "lon": -77.042618, "type": "electric_scooter", "fusion_lat": 0.0, "lat": 38.905723, "name": "360642f5d58e9ce68fa5e118095668b3", "fusion_lon": 0.0, "bike_id": "360642f5d58e9ce68fa5e118095668b3", "is_disabled": 0, "is_reserved": 0}, {"rental_uris": {"ios": "https://dc.lft.to/lastmile_qr_scan", "android": "https://dc.lft.to/lastmile_qr_scan"}, "lon": -77.0550855, "type": "electric_scooter", "fusion_lat": 0.0, "lat": 38.8992715, "name": "843142629849084cf5be6b327f84f592", "fusion_lon": 0.0, "bike_id": "843142629849084cf5be6b327f84f592", "is_disabled": 0, "is_reserved": 0}, {"rental_uris": {"ios": "https://dc.lft.to/lastmile_qr_scan", "android": "https://dc.lft.to/lastmile_qr_scan"}, "lon": -77.02807183333333, "type": "electric_scooter", "fusion_lat": 0.0, "lat": 38.89624766666667, "name": "d16bdf881635b16f31cf04f10e22cff5", "fusion_lon": 0.0, "bike_id": "d16bdf881635b16f31cf04f10e22cff5", "is_disabled": 0, "is_reserved": 0}, {"rental_uris": {"ios": "https://dc.lft.to/lastmile_qr_scan", "android": "https://dc.lft.to/lastmile_qr_scan"}, "lon": -76.98899516666667, "type": "electric_scooter", "fusion_lat": 0.0, "lat": 38.866958833333335, "name": "44b4504b3c39d8e9c12a5dd9d00a17a9", "fusion_lon": 0.0, "bike_id": "44b4504b3c39d8e9c12a5dd9d00a17a9", "is_disabled": 0, "is_reserved": 0}, {"rental_uris": {"ios": "https://dc.lft.to/lastmile_qr_scan", "android": "https://dc.lft.to/lastmile_qr_scan"}, "lon": -77.04119516666667, "type": "electric_scooter", "fusion_lat": 0.0, "lat": 38.9235795, "name": "1d452facf3b7cf64e94babf89ff71ffc", "fusion_lon": 0.0, "bike_id": "1d452facf3b7cf64e94babf89ff71ffc", "is_disabled": 0, "is_reserved": 0}, {"rental_uris": {"ios": "https://dc.lft.to/lastmile_qr_scan", "android": "https://dc.lft.to/lastmile_qr_scan"}, "lon": -77.036346, "type": "electric_scooter", "fusion_lat": 0.0, "lat": 38.912764333333335, "name": "546dda3ffe6bc78a2743d8805869db61", "fusion_lon": 0.0, "bike_id": "546dda3ffe6bc78a2743d8805869db61", "is_disabled": 0, "is_reserved": 0}, {"rental_uris": {"ios": "https://dc.lft.to/lastmile_qr_scan", "android": "https://dc.lft.to/lastmile_qr_scan"}, "lon": -76.95361216666667, "type": "electric_bike", "fusion_lat": 0.0, "lat": 38.9395445, "name": "df94e6d01472838ef72594ec7a8a107f", "fusion_lon": 0.0, "bike_id": "df94e6d01472838ef72594ec7a8a107f", "is_disabled": 0, "is_reserved": 0}, {"rental_uris": {"ios": "https://dc.lft.to/lastmile_qr_scan", "android": "https://dc.lft.to/lastmile_qr_scan"}, "lon": -76.98711816666666, "type": "electric_scooter", "fusion_lat": 0.0, "lat": 38.86702366666667, "name": "bb26fb5db1461565a58619654d38d54f", "fusion_lon": 0.0, "bike_id": "bb26fb5db1461565a58619654d38d54f", "is_disabled": 0, "is_reserved": 0}, {"rental_uris": {"ios": "https://dc.lft.to/lastmile_qr_scan", "android": "https://dc.lft.to/lastmile_qr_scan"}, "lon": -77.04773216666666, "type": "electric_bike", "fusion_lat": 0.0, "lat": 39.0532265, "name": "d61c059847beefdbe763ee012319ca76", "fusion_lon": 0.0, "bike_id": "d61c059847beefdbe763ee012319ca76", "is_disabled": 0, "is_reserved": 0}, {"rental_uris": {"ios": "https://dc.lft.to/lastmile_qr_scan", "android": "https://dc.lft.to/lastmile_qr_scan"}, "lon": -77.1784245, "type": "electric_bike", "fusion_lat": 0.0, "lat": 39.08860933333333, "name": "afd9cc4bc75f0e03523cf16588b8089e", "fusion_lon": 0.0, "bike_id": "afd9cc4bc75f0e03523cf16588b8089e", "is_disabled": 0, "is_reserved": 0}, {"rental_uris": {"ios": "https://dc.lft.to/lastmile_qr_scan", "android": "https://dc.lft.to/lastmile_qr_scan"}, "lon": -77.03299566666666, "type": "electric_scooter", "fusion_lat": 0.0, "lat": 38.92851266666667, "name": "cc7b804cf8b56e2cde832781ead1c7be", "fusion_lon": 0.0, "bike_id": "cc7b804cf8b56e2cde832781ead1c7be", "is_disabled": 0, "is_reserved": 0}, {"rental_uris": {"ios": "https://dc.lft.to/lastmile_qr_scan", "android": "https://dc.lft.to/lastmile_qr_scan"}, "lon": -77.00126933333334, "type": "electric_scooter", "fusion_lat": 0.0, "lat": 38.87800383333333, "name": "cb736b5e0cbc09dac8f69ad06573e9a0", "fusion_lon": 0.0, "bike_id": "cb736b5e0cbc09dac8f69ad06573e9a0", "is_disabled": 0, "is_reserved": 0}, {"rental_uris": {"ios": "https://dc.lft.to/lastmile_qr_scan", "android": "https://dc.lft.to/lastmile_qr_scan"}, "lon": -77.056964, "type": "electric_scooter", "fusion_lat": 0.0, "lat": 38.90544916666666, "name": "0559a84b0637ae0bbceebf7b8f5c0772", "fusion_lon": 0.0, "bike_id": "0559a84b0637ae0bbceebf7b8f5c0772", "is_disabled": 0, "is_reserved": 0}, {"rental_uris": {"ios": "https://dc.lft.to/lastmile_qr_scan", "android": "https://dc.lft.to/lastmile_qr_scan"}, "lon": -77.042412, "type": "electric_scooter", "fusion_lat": 0.0, "lat": 38.921575, "name": "ead000fcf6f00a068c27534c30a05911", "fusion_lon": 0.0, "bike_id": "ead000fcf6f00a068c27534c30a05911", "is_disabled": 0, "is_reserved": 0}, {"rental_uris": {"ios": "https://dc.lft.to/lastmile_qr_scan", "android": "https://dc.lft.to/lastmile_qr_scan"}, "lon": -77.036706, "type": "electric_scooter", "fusion_lat": 0.0, "lat": 38.9171065, "name": "559e8ce74c17c439bd58bfce486cbe87", "fusion_lon": 0.0, "bike_id": "559e8ce74c17c439bd58bfce486cbe87", "is_disabled": 0, "is_reserved": 0}, {"rental_uris": {"ios": "https://dc.lft.to/lastmile_qr_scan", "android": "https://dc.lft.to/lastmile_qr_scan"}, "lon": -77.06118716666667, "type": "electric_scooter", "fusion_lat": 0.0, "lat": 38.91298316666666, "name": "3c296a6dba50e6d14ae7dba36bba6f2a", "fusion_lon": 0.0, "bike_id": "3c296a6dba50e6d14ae7dba36bba6f2a", "is_disabled": 0, "is_reserved": 0}, {"rental_uris": {"ios": "https://dc.lft.to/lastmile_qr_scan", "android": "https://dc.lft.to/lastmile_qr_scan"}, "lon": -77.003121, "type": "electric_scooter", "fusion_lat": 0.0, "lat": 38.894797833333335, "name": "ae8b43abb7a9d2485fd89f8d93204cbd", "fusion_lon": 0.0, "bike_id": "ae8b43abb7a9d2485fd89f8d93204cbd", "is_disabled": 0, "is_reserved": 0}, {"rental_uris": {"ios": "https://dc.lft.to/lastmile_qr_scan", "android": "https://dc.lft.to/lastmile_qr_scan"}, "lon": -77.03867466666667, "type": "electric_scooter", "fusion_lat": 0.0, "lat": 38.942011666666666, "name": "d73e4495ad0c7a724c4ee7ccbbc977b1", "fusion_lon": 0.0, "bike_id": "d73e4495ad0c7a724c4ee7ccbbc977b1", "is_disabled": 0, "is_reserved": 0}, {"rental_uris": {"ios": "https://dc.lft.to/lastmile_qr_scan", "android": "https://dc.lft.to/lastmile_qr_scan"}, "lon": -76.99002033333333, "type": "electric_scooter", "fusion_lat": 0.0, "lat": 38.8650415, "name": "42649e45de4835d9f7de97a0222fda61", "fusion_lon": 0.0, "bike_id": "42649e45de4835d9f7de97a0222fda61", "is_disabled": 0, "is_reserved": 0}, {"rental_uris": {"ios": "https://dc.lft.to/lastmile_qr_scan", "android": "https://dc.lft.to/lastmile_qr_scan"}, "lon": -77.0248655, "type": "electric_scooter", "fusion_lat": 0.0, "lat": 38.9418585, "name": "25aa0b0d906ee4a5fa684e7cce8ffe9d", "fusion_lon": 0.0, "bike_id": "25aa0b0d906ee4a5fa684e7cce8ffe9d", "is_disabled": 0, "is_reserved": 0}, {"rental_uris": {"ios": "https://dc.lft.to/lastmile_qr_scan", "android": "https://dc.lft.to/lastmile_qr_scan"}, "lon": -77.006145, "type": "electric_scooter", "fusion_lat": 0.0, "lat": 38.9058875, "name": "fd847d5ab988933f7cb4fba936f58f39", "fusion_lon": 0.0, "bike_id": "fd847d5ab988933f7cb4fba936f58f39", "is_disabled": 0, "is_reserved": 0}, {"rental_uris": {"ios": "https://dc.lft.to/lastmile_qr_scan", "android": "https://dc.lft.to/lastmile_qr_scan"}, "lon": -77.03250466666667, "type": "electric_scooter", "fusion_lat": 0.0, "lat": 38.9126775, "name": "35715a5a6cab122f96bcc15d7ab0b2c0", "fusion_lon": 0.0, "bike_id": "35715a5a6cab122f96bcc15d7ab0b2c0", "is_disabled": 0, "is_reserved": 0}, {"rental_uris": {"ios": "https://dc.lft.to/lastmile_qr_scan", "android": "https://dc.lft.to/lastmile_qr_scan"}, "lon": -77.048881, "type": "electric_scooter", "fusion_lat": 0.0, "lat": 38.90604483333333, "name": "bcf1421c1b0a0c790cddcf7c539931cf", "fusion_lon": 0.0, "bike_id": "bcf1421c1b0a0c790cddcf7c539931cf", "is_disabled": 0, "is_reserved": 0}, {"rental_uris": {"ios": "https://dc.lft.to/lastmile_qr_scan", "android": "https://dc.lft.to/lastmile_qr_scan"}, "lon": -77.038692, "type": "electric_scooter", "fusion_lat": 0.0, "lat": 38.91564433333333, "name": "231c83572775a1a0b3a1e0fd083abb1a", "fusion_lon": 0.0, "bike_id": "231c83572775a1a0b3a1e0fd083abb1a", "is_disabled": 0, "is_reserved": 0}, {"rental_uris": {"ios": "https://dc.lft.to/lastmile_qr_scan", "android": "https://dc.lft.to/lastmile_qr_scan"}, "lon": -77.04142133333333, "type": "electric_scooter", "fusion_lat": 0.0, "lat": 38.90012983333333, "name": "2ec2f073b5c4d59ccc08c66861634c36", "fusion_lon": 0.0, "bike_id": "2ec2f073b5c4d59ccc08c66861634c36", "is_disabled": 0, "is_reserved": 0}, {"rental_uris": {"ios": "https://dc.lft.to/lastmile_qr_scan", "android": "https://dc.lft.to/lastmile_qr_scan"}, "lon": -76.95762933333333, "type": "electric_scooter", "fusion_lat": 0.0, "lat": 38.88435316666666, "name": "7a91631228a1a1b6861fc9363ad297ee", "fusion_lon": 0.0, "bike_id": "7a91631228a1a1b6861fc9363ad297ee", "is_disabled": 0, "is_reserved": 0}, {"rental_uris": {"ios": "https://dc.lft.to/lastmile_qr_scan", "android": "https://dc.lft.to/lastmile_qr_scan"}, "lon": -77.12502, "type": "electric_bike", "fusion_lat": 0.0, "lat": 39.024263166666664, "name": "a8e8863f11048d14d07be0e161c2855f", "fusion_lon": 0.0, "bike_id": "a8e8863f11048d14d07be0e161c2855f", "is_disabled": 0, "is_reserved": 0}, {"rental_uris": {"ios": "https://dc.lft.to/lastmile_qr_scan", "android": "https://dc.lft.to/lastmile_qr_scan"}, "lon": -77.05214766666667, "type": "electric_scooter", "fusion_lat": 0.0, "lat": 38.92592533333333, "name": "c443422a64d270322b61272bfa190a6d", "fusion_lon": 0.0, "bike_id": "c443422a64d270322b61272bfa190a6d", "is_disabled": 0, "is_reserved": 0}, {"rental_uris": {"ios": "https://dc.lft.to/lastmile_qr_scan", "android": "https://dc.lft.to/lastmile_qr_scan"}, "lon": -77.0328965, "type": "electric_scooter", "fusion_lat": 0.0, "lat": 38.934914666666664, "name": "e969635e32d231a253f44be36618f642", "fusion_lon": 0.0, "bike_id": "e969635e32d231a253f44be36618f642", "is_disabled": 0, "is_reserved": 0}, {"rental_uris": {"ios": "https://dc.lft.to/lastmile_qr_scan", "android": "https://dc.lft.to/lastmile_qr_scan"}, "lon": -77.03404666666667, "type": "electric_scooter", "fusion_lat": 0.0, "lat": 38.922704833333334, "name": "c731c9a2883d798f69269ec2ff295865", "fusion_lon": 0.0, "bike_id": "c731c9a2883d798f69269ec2ff295865", "is_disabled": 0, "is_reserved": 0}, {"rental_uris": {"ios": "https://dc.lft.to/lastmile_qr_scan", "android": "https://dc.lft.to/lastmile_qr_scan"}, "lon": -77.01967983333333, "type": "electric_bike", "fusion_lat": 0.0, "lat": 38.87850183333333, "name": "5f4241920ca571c990a5c58550cc88b4", "fusion_lon": 0.0, "bike_id": "5f4241920ca571c990a5c58550cc88b4", "is_disabled": 0, "is_reserved": 0}, {"rental_uris": {"ios": "https://dc.lft.to/lastmile_qr_scan", "android": "https://dc.lft.to/lastmile_qr_scan"}, "lon": -77.040286, "type": "electric_scooter", "fusion_lat": 0.0, "lat": 38.9180785, "name": "4a2ea75f729527e97e0cd68e08a95b08", "fusion_lon": 0.0, "bike_id": "4a2ea75f729527e97e0cd68e08a95b08", "is_disabled": 0, "is_reserved": 0}, {"rental_uris": {"ios": "https://dc.lft.to/lastmile_qr_scan", "android": "https://dc.lft.to/lastmile_qr_scan"}, "lon": -77.04496383333333, "type": "electric_scooter", "fusion_lat": 0.0, "lat": 38.90872983333333, "name": "9abcc00bffa5f3f6dd0b6a516649c233", "fusion_lon": 0.0, "bike_id": "9abcc00bffa5f3f6dd0b6a516649c233", "is_disabled": 0, "is_reserved": 0}, {"rental_uris": {"ios": "https://dc.lft.to/lastmile_qr_scan", "android": "https://dc.lft.to/lastmile_qr_scan"}, "lon": -77.055044, "type": "electric_scooter", "fusion_lat": 0.0, "lat": 38.92975466666667, "name": "5142a0c56e69aae8bb22e9eae76990c4", "fusion_lon": 0.0, "bike_id": "5142a0c56e69aae8bb22e9eae76990c4", "is_disabled": 0, "is_reserved": 0}, {"rental_uris": {"ios": "https://dc.lft.to/lastmile_qr_scan", "android": "https://dc.lft.to/lastmile_qr_scan"}, "lon": -76.94652833333333, "type": "electric_scooter", "fusion_lat": 0.0, "lat": 38.898262833333334, "name": "b6fa803ee131a47819a48805b92ea298", "fusion_lon": 0.0, "bike_id": "b6fa803ee131a47819a48805b92ea298", "is_disabled": 0, "is_reserved": 0}, {"rental_uris": {"ios": "https://dc.lft.to/lastmile_qr_scan", "android": "https://dc.lft.to/lastmile_qr_scan"}, "lon": -77.033497, "type": "electric_scooter", "fusion_lat": 0.0, "lat": 38.906379333333334, "name": "5875099b13e5db348776cda698aaa75c", "fusion_lon": 0.0, "bike_id": "5875099b13e5db348776cda698aaa75c", "is_disabled": 0, "is_reserved": 0}, {"rental_uris": {"ios": "https://dc.lft.to/lastmile_qr_scan", "android": "https://dc.lft.to/lastmile_qr_scan"}, "lon": -77.02983266666666, "type": "electric_scooter", "fusion_lat": 0.0, "lat": 38.900477, "name": "0ee95afec211cf151dd56414adaaa230", "fusion_lon": 0.0, "bike_id": "0ee95afec211cf151dd56414adaaa230", "is_disabled": 0, "is_reserved": 0}, {"rental_uris": {"ios": "https://dc.lft.to/lastmile_qr_scan", "android": "https://dc.lft.to/lastmile_qr_scan"}, "lon": -77.0270305, "type": "electric_scooter", "fusion_lat": 0.0, "lat": 38.8992495, "name": "2a769d775f25deea27cb0e7c3a08b209", "fusion_lon": 0.0, "bike_id": "2a769d775f25deea27cb0e7c3a08b209", "is_disabled": 0, "is_reserved": 0}, {"rental_uris": {"ios": "https://dc.lft.to/lastmile_qr_scan", "android": "https://dc.lft.to/lastmile_qr_scan"}, "lon": -77.04449166666667, "type": "electric_scooter", "fusion_lat": 0.0, "lat": 38.918805666666664, "name": "cf0cdb194271f55e5feef662e8581bfa", "fusion_lon": 0.0, "bike_id": "cf0cdb194271f55e5feef662e8581bfa", "is_disabled": 0, "is_reserved": 0}, {"rental_uris": {"ios": "https://dc.lft.to/lastmile_qr_scan", "android": "https://dc.lft.to/lastmile_qr_scan"}, "lon": -77.0342385, "type": "electric_scooter", "fusion_lat": 0.0, "lat": 38.923225, "name": "c7e1bc560c6c84f545d75c35dab0eb49", "fusion_lon": 0.0, "bike_id": "c7e1bc560c6c84f545d75c35dab0eb49", "is_disabled": 0, "is_reserved": 0}, {"rental_uris": {"ios": "https://dc.lft.to/lastmile_qr_scan", "android": "https://dc.lft.to/lastmile_qr_scan"}, "lon": -77.0419095, "type": "electric_scooter", "fusion_lat": 0.0, "lat": 38.9205045, "name": "23d048639d708e181d324195de8bf1f4", "fusion_lon": 0.0, "bike_id": "23d048639d708e181d324195de8bf1f4", "is_disabled": 0, "is_reserved": 0}, {"rental_uris": {"ios": "https://dc.lft.to/lastmile_qr_scan", "android": "https://dc.lft.to/lastmile_qr_scan"}, "lon": -77.08065016666667, "type": "electric_scooter", "fusion_lat": 0.0, "lat": 38.959140833333336, "name": "c28ea1c746cc17ab03c915fd3f100ae5", "fusion_lon": 0.0, "bike_id": "c28ea1c746cc17ab03c915fd3f100ae5", "is_disabled": 0, "is_reserved": 0}, {"rental_uris": {"ios": "https://dc.lft.to/lastmile_qr_scan", "android": "https://dc.lft.to/lastmile_qr_scan"}, "lon": -77.01118, "type": "electric_scooter", "fusion_lat": 0.0, "lat": 38.895314166666665, "name": "3532508012d5eacf7b73d5f19be6e13c", "fusion_lon": 0.0, "bike_id": "3532508012d5eacf7b73d5f19be6e13c", "is_disabled": 0, "is_reserved": 0}, {"rental_uris": {"ios": "https://dc.lft.to/lastmile_qr_scan", "android": "https://dc.lft.to/lastmile_qr_scan"}, "lon": -77.01787883333333, "type": "electric_scooter", "fusion_lat": 0.0, "lat": 38.9082715, "name": "2dd958dca37c0ed6f13f3b235c7ccb51", "fusion_lon": 0.0, "bike_id": "2dd958dca37c0ed6f13f3b235c7ccb51", "is_disabled": 0, "is_reserved": 0}, {"rental_uris": {"ios": "https://dc.lft.to/lastmile_qr_scan", "android": "https://dc.lft.to/lastmile_qr_scan"}, "lon": -76.97669683333334, "type": "electric_bike", "fusion_lat": 0.0, "lat": 38.96626033333333, "name": "2745e900a20f57f9eae7c75ab891eae4", "fusion_lon": 0.0, "bike_id": "2745e900a20f57f9eae7c75ab891eae4", "is_disabled": 0, "is_reserved": 0}, {"rental_uris": {"ios": "https://dc.lft.to/lastmile_qr_scan", "android": "https://dc.lft.to/lastmile_qr_scan"}, "lon": -77.03236516666666, "type": "electric_scooter", "fusion_lat": 0.0, "lat": 38.92760083333334, "name": "e99ed10d51c3a7a09b09d75b7d93fa50", "fusion_lon": 0.0, "bike_id": "e99ed10d51c3a7a09b09d75b7d93fa50", "is_disabled": 0, "is_reserved": 0}, {"rental_uris": {"ios": "https://dc.lft.to/lastmile_qr_scan", "android": "https://dc.lft.to/lastmile_qr_scan"}, "lon": -76.98063533333334, "type": "electric_scooter", "fusion_lat": 0.0, "lat": 38.901588833333335, "name": "d188ecd72922fbc68be0b9a73aedd359", "fusion_lon": 0.0, "bike_id": "d188ecd72922fbc68be0b9a73aedd359", "is_disabled": 0, "is_reserved": 0}, {"rental_uris": {"ios": "https://dc.lft.to/lastmile_qr_scan", "android": "https://dc.lft.to/lastmile_qr_scan"}, "lon": -76.93928583333333, "type": "electric_scooter", "fusion_lat": 0.0, "lat": 38.89296433333333, "name": "8f0641f54e142622e8752f0f2e138fdf", "fusion_lon": 0.0, "bike_id": "8f0641f54e142622e8752f0f2e138fdf", "is_disabled": 0, "is_reserved": 0}, {"rental_uris": {"ios": "https://dc.lft.to/lastmile_qr_scan", "android": "https://dc.lft.to/lastmile_qr_scan"}, "lon": -77.014361, "type": "electric_scooter", "fusion_lat": 0.0, "lat": 38.90649916666667, "name": "5f0ec453bf84992b9051b538b15ade01", "fusion_lon": 0.0, "bike_id": "5f0ec453bf84992b9051b538b15ade01", "is_disabled": 0, "is_reserved": 0}, {"rental_uris": {"ios": "https://dc.lft.to/lastmile_qr_scan", "android": "https://dc.lft.to/lastmile_qr_scan"}, "lon": -76.9463, "type": "electric_bike", "fusion_lat": 0.0, "lat": 38.83234783333333, "name": "efa31eeee230f14d023912ae2b6b14b5", "fusion_lon": 0.0, "bike_id": "efa31eeee230f14d023912ae2b6b14b5", "is_disabled": 0, "is_reserved": 0}, {"rental_uris": {"ios": "https://dc.lft.to/lastmile_qr_scan", "android": "https://dc.lft.to/lastmile_qr_scan"}, "lon": -77.00711066666666, "type": "electric_scooter", "fusion_lat": 0.0, "lat": 38.884942, "name": "9262f32ce054252162687450a093b777", "fusion_lon": 0.0, "bike_id": "9262f32ce054252162687450a093b777", "is_disabled": 0, "is_reserved": 0}, {"rental_uris": {"ios": "https://dc.lft.to/lastmile_qr_scan", "android": "https://dc.lft.to/lastmile_qr_scan"}, "lon": -77.05470383333333, "type": "electric_scooter", "fusion_lat": 0.0, "lat": 38.896713166666665, "name": "669bc6d63f9855a65612a67b155ef8e6", "fusion_lon": 0.0, "bike_id": "669bc6d63f9855a65612a67b155ef8e6", "is_disabled": 0, "is_reserved": 0}, {"rental_uris": {"ios": "https://dc.lft.to/lastmile_qr_scan", "android": "https://dc.lft.to/lastmile_qr_scan"}, "lon": -77.01675933333334, "type": "electric_bike", "fusion_lat": 0.0, "lat": 38.8812585, "name": "6912b74f38bebd55d844b275eae34478", "fusion_lon": 0.0, "bike_id": "6912b74f38bebd55d844b275eae34478", "is_disabled": 0, "is_reserved": 0}, {"rental_uris": {"ios": "https://dc.lft.to/lastmile_qr_scan", "android": "https://dc.lft.to/lastmile_qr_scan"}, "lon": -77.029587, "type": "electric_scooter", "fusion_lat": 0.0, "lat": 38.887513, "name": "d6f8cf7031770f02c02c8a9604063834", "fusion_lon": 0.0, "bike_id": "d6f8cf7031770f02c02c8a9604063834", "is_disabled": 0, "is_reserved": 0}, {"rental_uris": {"ios": "https://dc.lft.to/lastmile_qr_scan", "android": "https://dc.lft.to/lastmile_qr_scan"}, "lon": -77.04367383333333, "type": "electric_scooter", "fusion_lat": 0.0, "lat": 38.93340766666667, "name": "6cd7edef62a6dea545811771cee18c37", "fusion_lon": 0.0, "bike_id": "6cd7edef62a6dea545811771cee18c37", "is_disabled": 0, "is_reserved": 0}, {"rental_uris": {"ios": "https://dc.lft.to/lastmile_qr_scan", "android": "https://dc.lft.to/lastmile_qr_scan"}, "lon": -76.98543133333334, "type": "electric_scooter", "fusion_lat": 0.0, "lat": 38.904218, "name": "5eca57910a0682c081b150dc76b0d0ca", "fusion_lon": 0.0, "bike_id": "5eca57910a0682c081b150dc76b0d0ca", "is_disabled": 0, "is_reserved": 0}, {"rental_uris": {"ios": "https://dc.lft.to/lastmile_qr_scan", "android": "https://dc.lft.to/lastmile_qr_scan"}, "lon": -77.010754, "type": "electric_bike", "fusion_lat": 0.0, "lat": 38.919143, "name": "d3fd7bff4431bd865b56388cd04be009", "fusion_lon": 0.0, "bike_id": "d3fd7bff4431bd865b56388cd04be009", "is_disabled": 0, "is_reserved": 0}, {"rental_uris": {"ios": "https://dc.lft.to/lastmile_qr_scan", "android": "https://dc.lft.to/lastmile_qr_scan"}, "lon": -77.00976533333333, "type": "electric_scooter", "fusion_lat": 0.0, "lat": 38.914143833333334, "name": "8987da614732f4eb34252b09cb9692f5", "fusion_lon": 0.0, "bike_id": "8987da614732f4eb34252b09cb9692f5", "is_disabled": 0, "is_reserved": 0}, {"rental_uris": {"ios": "https://dc.lft.to/lastmile_qr_scan", "android": "https://dc.lft.to/lastmile_qr_scan"}, "lon": -76.9486605, "type": "electric_scooter", "fusion_lat": 0.0, "lat": 38.89594616666667, "name": "95651909379dd3b49895078342f0b9f4", "fusion_lon": 0.0, "bike_id": "95651909379dd3b49895078342f0b9f4", "is_disabled": 0, "is_reserved": 0}, {"rental_uris": {"ios": "https://dc.lft.to/lastmile_qr_scan", "android": "https://dc.lft.to/lastmile_qr_scan"}, "lon": -77.02719416666666, "type": "electric_scooter", "fusion_lat": 0.0, "lat": 38.90688883333333, "name": "b94ed5f4ee7e26ba73ad0f07d99dd9e0", "fusion_lon": 0.0, "bike_id": "b94ed5f4ee7e26ba73ad0f07d99dd9e0", "is_disabled": 0, "is_reserved": 0}, {"rental_uris": {"ios": "https://dc.lft.to/lastmile_qr_scan", "android": "https://dc.lft.to/lastmile_qr_scan"}, "lon": -77.02800033333334, "type": "electric_scooter", "fusion_lat": 0.0, "lat": 38.91068033333333, "name": "b8b49846796dfc8a240565b6d187d3fc", "fusion_lon": 0.0, "bike_id": "b8b49846796dfc8a240565b6d187d3fc", "is_disabled": 0, "is_reserved": 0}, {"rental_uris": {"ios": "https://dc.lft.to/lastmile_qr_scan", "android": "https://dc.lft.to/lastmile_qr_scan"}, "lon": -77.02719466666667, "type": "electric_scooter", "fusion_lat": 0.0, "lat": 38.909068833333336, "name": "db440879139a011124a3e6531a007cf6", "fusion_lon": 0.0, "bike_id": "db440879139a011124a3e6531a007cf6", "is_disabled": 0, "is_reserved": 0}, {"rental_uris": {"ios": "https://dc.lft.to/lastmile_qr_scan", "android": "https://dc.lft.to/lastmile_qr_scan"}, "lon": -77.010691, "type": "electric_scooter", "fusion_lat": 0.0, "lat": 38.87479416666667, "name": "867b7d32137a26339513c576dffe1559", "fusion_lon": 0.0, "bike_id": "867b7d32137a26339513c576dffe1559", "is_disabled": 0, "is_reserved": 0}, {"rental_uris": {"ios": "https://dc.lft.to/lastmile_qr_scan", "android": "https://dc.lft.to/lastmile_qr_scan"}, "lon": -77.1273, "type": "electric_bike", "fusion_lat": 0.0, "lat": 38.89562983333333, "name": "7abfeab18905a8f9de492987d3bdd88d", "fusion_lon": 0.0, "bike_id": "7abfeab18905a8f9de492987d3bdd88d", "is_disabled": 0, "is_reserved": 0}, {"rental_uris": {"ios": "https://dc.lft.to/lastmile_qr_scan", "android": "https://dc.lft.to/lastmile_qr_scan"}, "lon": -76.91655133333333, "type": "electric_bike", "fusion_lat": 0.0, "lat": 38.868612166666665, "name": "8321dd2583ca75dc22302d0508e10f8c", "fusion_lon": 0.0, "bike_id": "8321dd2583ca75dc22302d0508e10f8c", "is_disabled": 0, "is_reserved": 0}, {"rental_uris": {"ios": "https://dc.lft.to/lastmile_qr_scan", "android": "https://dc.lft.to/lastmile_qr_scan"}, "lon": -76.99005016666666, "type": "electric_scooter", "fusion_lat": 0.0, "lat": 38.903886, "name": "06df20f52950efd6e859901b1624ddce", "fusion_lon": 0.0, "bike_id": "06df20f52950efd6e859901b1624ddce", "is_disabled": 0, "is_reserved": 0}, {"rental_uris": {"ios": "https://dc.lft.to/lastmile_qr_scan", "android": "https://dc.lft.to/lastmile_qr_scan"}, "lon": -77.04928816666667, "type": "electric_scooter", "fusion_lat": 0.0, "lat": 38.89609216666667, "name": "396d54d46ce12c70c75c9158e06e51c5", "fusion_lon": 0.0, "bike_id": "396d54d46ce12c70c75c9158e06e51c5", "is_disabled": 0, "is_reserved": 0}, {"rental_uris": {"ios": "https://dc.lft.to/lastmile_qr_scan", "android": "https://dc.lft.to/lastmile_qr_scan"}, "lon": -77.019838, "type": "electric_scooter", "fusion_lat": 0.0, "lat": 38.88564433333333, "name": "911a3531cbca9fbd272352fe02e9c1ac", "fusion_lon": 0.0, "bike_id": "911a3531cbca9fbd272352fe02e9c1ac", "is_disabled": 0, "is_reserved": 0}, {"rental_uris": {"ios": "https://dc.lft.to/lastmile_qr_scan", "android": "https://dc.lft.to/lastmile_qr_scan"}, "lon": -77.02717266666667, "type": "electric_scooter", "fusion_lat": 0.0, "lat": 38.90686016666667, "name": "93dd2bfe3d798bb9fe11c367d3818872", "fusion_lon": 0.0, "bike_id": "93dd2bfe3d798bb9fe11c367d3818872", "is_disabled": 0, "is_reserved": 0}, {"rental_uris": {"ios": "https://dc.lft.to/lastmile_qr_scan", "android": "https://dc.lft.to/lastmile_qr_scan"}, "lon": -77.078112, "type": "electric_scooter", "fusion_lat": 0.0, "lat": 38.94099716666667, "name": "a81533084f2443c58f4640a13a317979", "fusion_lon": 0.0, "bike_id": "a81533084f2443c58f4640a13a317979", "is_disabled": 0, "is_reserved": 0}, {"rental_uris": {"ios": "https://dc.lft.to/lastmile_qr_scan", "android": "https://dc.lft.to/lastmile_qr_scan"}, "lon": -76.9396005, "type": "electric_scooter", "fusion_lat": 0.0, "lat": 38.89419933333333, "name": "3973bda24a8b7cc6b7cac8ecbc36d425", "fusion_lon": 0.0, "bike_id": "3973bda24a8b7cc6b7cac8ecbc36d425", "is_disabled": 0, "is_reserved": 0}, {"rental_uris": {"ios": "https://dc.lft.to/lastmile_qr_scan", "android": "https://dc.lft.to/lastmile_qr_scan"}, "lon": -77.03284533333333, "type": "electric_scooter", "fusion_lat": 0.0, "lat": 38.93773133333333, "name": "2b4ac62296abeacd363d336f30ea7a11", "fusion_lon": 0.0, "bike_id": "2b4ac62296abeacd363d336f30ea7a11", "is_disabled": 0, "is_reserved": 0}, {"rental_uris": {"ios": "https://dc.lft.to/lastmile_qr_scan", "android": "https://dc.lft.to/lastmile_qr_scan"}, "lon": -77.0071265, "type": "electric_scooter", "fusion_lat": 0.0, "lat": 38.913468333333334, "name": "a2d8120f3db1181b99ba2b890bcff4a5", "fusion_lon": 0.0, "bike_id": "a2d8120f3db1181b99ba2b890bcff4a5", "is_disabled": 0, "is_reserved": 0}, {"rental_uris": {"ios": "https://dc.lft.to/lastmile_qr_scan", "android": "https://dc.lft.to/lastmile_qr_scan"}, "lon": -77.01598083333333, "type": "electric_scooter", "fusion_lat": 0.0, "lat": 38.896173, "name": "87a32510fc7dc3ca83351a03f5f923ca", "fusion_lon": 0.0, "bike_id": "87a32510fc7dc3ca83351a03f5f923ca", "is_disabled": 0, "is_reserved": 0}, {"rental_uris": {"ios": "https://dc.lft.to/lastmile_qr_scan", "android": "https://dc.lft.to/lastmile_qr_scan"}, "lon": -77.05276216666667, "type": "electric_scooter", "fusion_lat": 0.0, "lat": 38.91004433333333, "name": "bed952f3514e2efb7ec04b3236e407ce", "fusion_lon": 0.0, "bike_id": "bed952f3514e2efb7ec04b3236e407ce", "is_disabled": 0, "is_reserved": 0}, {"rental_uris": {"ios": "https://dc.lft.to/lastmile_qr_scan", "android": "https://dc.lft.to/lastmile_qr_scan"}, "lon": -77.00616733333334, "type": "electric_scooter", "fusion_lat": 0.0, "lat": 38.905911, "name": "05e2b22d6234542f85df52a6fb26312c", "fusion_lon": 0.0, "bike_id": "05e2b22d6234542f85df52a6fb26312c", "is_disabled": 0, "is_reserved": 0}, {"rental_uris": {"ios": "https://dc.lft.to/lastmile_qr_scan", "android": "https://dc.lft.to/lastmile_qr_scan"}, "lon": -77.03183516666667, "type": "electric_scooter", "fusion_lat": 0.0, "lat": 38.9180175, "name": "421f136e4fc97cf443c35229793886f6", "fusion_lon": 0.0, "bike_id": "421f136e4fc97cf443c35229793886f6", "is_disabled": 0, "is_reserved": 0}, {"rental_uris": {"ios": "https://dc.lft.to/lastmile_qr_scan", "android": "https://dc.lft.to/lastmile_qr_scan"}, "lon": -76.92995766666667, "type": "electric_bike", "fusion_lat": 0.0, "lat": 38.887978333333336, "name": "5dd8a7e16c3c1a4b0682e25b06ec345d", "fusion_lon": 0.0, "bike_id": "5dd8a7e16c3c1a4b0682e25b06ec345d", "is_disabled": 0, "is_reserved": 0}, {"rental_uris": {"ios": "https://dc.lft.to/lastmile_qr_scan", "android": "https://dc.lft.to/lastmile_qr_scan"}, "lon": -77.0273705, "type": "electric_scooter", "fusion_lat": 0.0, "lat": 38.88150683333333, "name": "cc0d030b842288d5d4db7bcbd68e5fe2", "fusion_lon": 0.0, "bike_id": "cc0d030b842288d5d4db7bcbd68e5fe2", "is_disabled": 0, "is_reserved": 0}, {"rental_uris": {"ios": "https://dc.lft.to/lastmile_qr_scan", "android": "https://dc.lft.to/lastmile_qr_scan"}, "lon": -77.0346595, "type": "electric_scooter", "fusion_lat": 0.0, "lat": 38.917125166666665, "name": "6882c056628bea1c3c6a5dd43fc39fed", "fusion_lon": 0.0, "bike_id": "6882c056628bea1c3c6a5dd43fc39fed", "is_disabled": 0, "is_reserved": 0}, {"rental_uris": {"ios": "https://dc.lft.to/lastmile_qr_scan", "android": "https://dc.lft.to/lastmile_qr_scan"}, "lon": -76.991848, "type": "electric_scooter", "fusion_lat": 0.0, "lat": 38.90456416666667, "name": "f9bb083a052c1e5a484fefebf6c31edf", "fusion_lon": 0.0, "bike_id": "f9bb083a052c1e5a484fefebf6c31edf", "is_disabled": 0, "is_reserved": 0}, {"rental_uris": {"ios": "https://dc.lft.to/lastmile_qr_scan", "android": "https://dc.lft.to/lastmile_qr_scan"}, "lon": -77.03929266666667, "type": "electric_scooter", "fusion_lat": 0.0, "lat": 38.92110266666667, "name": "952e1a694f70bdbf6e67ccaa32d42402", "fusion_lon": 0.0, "bike_id": "952e1a694f70bdbf6e67ccaa32d42402", "is_disabled": 0, "is_reserved": 0}, {"rental_uris": {"ios": "https://dc.lft.to/lastmile_qr_scan", "android": "https://dc.lft.to/lastmile_qr_scan"}, "lon": -77.11217566666667, "type": "electric_bike", "fusion_lat": 0.0, "lat": 38.82875583333333, "name": "f18dfeeba99e417d1c8cda9f73130a1e", "fusion_lon": 0.0, "bike_id": "f18dfeeba99e417d1c8cda9f73130a1e", "is_disabled": 0, "is_reserved": 0}, {"rental_uris": {"ios": "https://dc.lft.to/lastmile_qr_scan", "android": "https://dc.lft.to/lastmile_qr_scan"}, "lon": -77.02369233333333, "type": "electric_scooter", "fusion_lat": 0.0, "lat": 38.919981166666666, "name": "1e77585068cf2c920e30eea4e0a405fd", "fusion_lon": 0.0, "bike_id": "1e77585068cf2c920e30eea4e0a405fd", "is_disabled": 0, "is_reserved": 0}, {"rental_uris": {"ios": "https://dc.lft.to/lastmile_qr_scan", "android": "https://dc.lft.to/lastmile_qr_scan"}, "lon": -77.040104, "type": "electric_scooter", "fusion_lat": 0.0, "lat": 38.915633666666665, "name": "f16ffa3cf5162a7d16bc135ff190cb07", "fusion_lon": 0.0, "bike_id": "f16ffa3cf5162a7d16bc135ff190cb07", "is_disabled": 0, "is_reserved": 0}, {"rental_uris": {"ios": "https://dc.lft.to/lastmile_qr_scan", "android": "https://dc.lft.to/lastmile_qr_scan"}, "lon": -76.87495833333334, "type": "electric_bike", "fusion_lat": 0.0, "lat": 38.99092233333333, "name": "9a077008f76b9cd3cd48da92532e64f0", "fusion_lon": 0.0, "bike_id": "9a077008f76b9cd3cd48da92532e64f0", "is_disabled": 0, "is_reserved": 0}, {"rental_uris": {"ios": "https://dc.lft.to/lastmile_qr_scan", "android": "https://dc.lft.to/lastmile_qr_scan"}, "lon": -77.0246545, "type": "electric_scooter", "fusion_lat": 0.0, "lat": 38.938174, "name": "2d47e1f1980cae44208158cdb3f95f61", "fusion_lon": 0.0, "bike_id": "2d47e1f1980cae44208158cdb3f95f61", "is_disabled": 0, "is_reserved": 0}, {"rental_uris": {"ios": "https://dc.lft.to/lastmile_qr_scan", "android": "https://dc.lft.to/lastmile_qr_scan"}, "lon": -77.07166483333333, "type": "electric_scooter", "fusion_lat": 0.0, "lat": 38.914532333333334, "name": "18ee3b9a2dd84d45e8cd23883deaeb34", "fusion_lon": 0.0, "bike_id": "18ee3b9a2dd84d45e8cd23883deaeb34", "is_disabled": 0, "is_reserved": 0}, {"rental_uris": {"ios": "https://dc.lft.to/lastmile_qr_scan", "android": "https://dc.lft.to/lastmile_qr_scan"}, "lon": -77.02332183333333, "type": "electric_scooter", "fusion_lat": 0.0, "lat": 38.937848833333334, "name": "021e3b616e2cfee1f711bc409d80b7c0", "fusion_lon": 0.0, "bike_id": "021e3b616e2cfee1f711bc409d80b7c0", "is_disabled": 0, "is_reserved": 0}, {"rental_uris": {"ios": "https://dc.lft.to/lastmile_qr_scan", "android": "https://dc.lft.to/lastmile_qr_scan"}, "lon": -77.0694795, "type": "electric_scooter", "fusion_lat": 0.0, "lat": 38.9051435, "name": "916655dc87fa08f4cea87e946b5c57f9", "fusion_lon": 0.0, "bike_id": "916655dc87fa08f4cea87e946b5c57f9", "is_disabled": 0, "is_reserved": 0}, {"rental_uris": {"ios": "https://dc.lft.to/lastmile_qr_scan", "android": "https://dc.lft.to/lastmile_qr_scan"}, "lon": -77.036688, "type": "electric_scooter", "fusion_lat": 0.0, "lat": 38.9027355, "name": "9c824ac22e454e41fb63fe28dd91bb77", "fusion_lon": 0.0, "bike_id": "9c824ac22e454e41fb63fe28dd91bb77", "is_disabled": 0, "is_reserved": 0}, {"rental_uris": {"ios": "https://dc.lft.to/lastmile_qr_scan", "android": "https://dc.lft.to/lastmile_qr_scan"}, "lon": -77.0292425, "type": "electric_scooter", "fusion_lat": 0.0, "lat": 38.886091, "name": "a16c3f3c2242f40ebc9ebc73bb501180", "fusion_lon": 0.0, "bike_id": "a16c3f3c2242f40ebc9ebc73bb501180", "is_disabled": 0, "is_reserved": 0}, {"rental_uris": {"ios": "https://dc.lft.to/lastmile_qr_scan", "android": "https://dc.lft.to/lastmile_qr_scan"}, "lon": -77.00788966666667, "type": "electric_scooter", "fusion_lat": 0.0, "lat": 38.906578333333336, "name": "d61725bc8da657e235624ec575a2672b", "fusion_lon": 0.0, "bike_id": "d61725bc8da657e235624ec575a2672b", "is_disabled": 0, "is_reserved": 0}, {"rental_uris": {"ios": "https://dc.lft.to/lastmile_qr_scan", "android": "https://dc.lft.to/lastmile_qr_scan"}, "lon": -77.0136665, "type": "electric_scooter", "fusion_lat": 0.0, "lat": 38.86371716666667, "name": "5eaf7bc293b0fbae7603f260d648a037", "fusion_lon": 0.0, "bike_id": "5eaf7bc293b0fbae7603f260d648a037", "is_disabled": 0, "is_reserved": 0}, {"rental_uris": {"ios": "https://dc.lft.to/lastmile_qr_scan", "android": "https://dc.lft.to/lastmile_qr_scan"}, "lon": -77.04868566666667, "type": "electric_scooter", "fusion_lat": 0.0, "lat": 38.892261, "name": "3a0901f3b159e6a7e1cc60893762cea9", "fusion_lon": 0.0, "bike_id": "3a0901f3b159e6a7e1cc60893762cea9", "is_disabled": 0, "is_reserved": 0}, {"rental_uris": {"ios": "https://dc.lft.to/lastmile_qr_scan", "android": "https://dc.lft.to/lastmile_qr_scan"}, "lon": -77.04203416666667, "type": "electric_scooter", "fusion_lat": 0.0, "lat": 38.911064333333336, "name": "58ced62dd009fb0b782efe790d4cd1ea", "fusion_lon": 0.0, "bike_id": "58ced62dd009fb0b782efe790d4cd1ea", "is_disabled": 0, "is_reserved": 0}, {"rental_uris": {"ios": "https://dc.lft.to/lastmile_qr_scan", "android": "https://dc.lft.to/lastmile_qr_scan"}, "lon": -77.03564483333334, "type": "electric_scooter", "fusion_lat": 0.0, "lat": 38.91808916666667, "name": "dbebe5bbe97e2af02d2f9f7766b539b9", "fusion_lon": 0.0, "bike_id": "dbebe5bbe97e2af02d2f9f7766b539b9", "is_disabled": 0, "is_reserved": 0}, {"rental_uris": {"ios": "https://dc.lft.to/lastmile_qr_scan", "android": "https://dc.lft.to/lastmile_qr_scan"}, "lon": -77.03265316666666, "type": "electric_scooter", "fusion_lat": 0.0, "lat": 38.9276515, "name": "7aa995287920f3f457f9388993a8743b", "fusion_lon": 0.0, "bike_id": "7aa995287920f3f457f9388993a8743b", "is_disabled": 0, "is_reserved": 0}, {"rental_uris": {"ios": "https://dc.lft.to/lastmile_qr_scan", "android": "https://dc.lft.to/lastmile_qr_scan"}, "lon": -77.04363383333333, "type": "electric_scooter", "fusion_lat": 0.0, "lat": 38.89657666666667, "name": "cc873480805647f985a41e8c91246645", "fusion_lon": 0.0, "bike_id": "cc873480805647f985a41e8c91246645", "is_disabled": 0, "is_reserved": 0}, {"rental_uris": {"ios": "https://dc.lft.to/lastmile_qr_scan", "android": "https://dc.lft.to/lastmile_qr_scan"}, "lon": -77.02711466666666, "type": "electric_scooter", "fusion_lat": 0.0, "lat": 38.9345955, "name": "0e0d5b820a4cf8e83068c165bc4ed007", "fusion_lon": 0.0, "bike_id": "0e0d5b820a4cf8e83068c165bc4ed007", "is_disabled": 0, "is_reserved": 0}, {"rental_uris": {"ios": "https://dc.lft.to/lastmile_qr_scan", "android": "https://dc.lft.to/lastmile_qr_scan"}, "lon": -77.02987316666666, "type": "electric_scooter", "fusion_lat": 0.0, "lat": 38.907420333333334, "name": "1642bb7fec9edf78f2e4e14283f1ee95", "fusion_lon": 0.0, "bike_id": "1642bb7fec9edf78f2e4e14283f1ee95", "is_disabled": 0, "is_reserved": 0}, {"rental_uris": {"ios": "https://dc.lft.to/lastmile_qr_scan", "android": "https://dc.lft.to/lastmile_qr_scan"}, "lon": -76.98027883333333, "type": "electric_scooter", "fusion_lat": 0.0, "lat": 38.88772316666667, "name": "7c7cfa67cc54c916611e77b8dc99e850", "fusion_lon": 0.0, "bike_id": "7c7cfa67cc54c916611e77b8dc99e850", "is_disabled": 0, "is_reserved": 0}, {"rental_uris": {"ios": "https://dc.lft.to/lastmile_qr_scan", "android": "https://dc.lft.to/lastmile_qr_scan"}, "lon": -77.00740833333333, "type": "electric_scooter", "fusion_lat": 0.0, "lat": 38.9162645, "name": "7626f1ea1d54ec3591c745cb255199eb", "fusion_lon": 0.0, "bike_id": "7626f1ea1d54ec3591c745cb255199eb", "is_disabled": 0, "is_reserved": 0}, {"rental_uris": {"ios": "https://dc.lft.to/lastmile_qr_scan", "android": "https://dc.lft.to/lastmile_qr_scan"}, "lon": -77.00722133333333, "type": "electric_scooter", "fusion_lat": 0.0, "lat": 38.906061, "name": "293772b14a1b1bd648e2cca223623429", "fusion_lon": 0.0, "bike_id": "293772b14a1b1bd648e2cca223623429", "is_disabled": 0, "is_reserved": 0}, {"rental_uris": {"ios": "https://dc.lft.to/lastmile_qr_scan", "android": "https://dc.lft.to/lastmile_qr_scan"}, "lon": -77.01747616666667, "type": "electric_scooter", "fusion_lat": 0.0, "lat": 38.877053833333335, "name": "6614e8fb6b13f68da136448d95e10e96", "fusion_lon": 0.0, "bike_id": "6614e8fb6b13f68da136448d95e10e96", "is_disabled": 0, "is_reserved": 0}, {"rental_uris": {"ios": "https://dc.lft.to/lastmile_qr_scan", "android": "https://dc.lft.to/lastmile_qr_scan"}, "lon": -77.02234366666667, "type": "electric_bike", "fusion_lat": 0.0, "lat": 38.95687733333333, "name": "9516e566b30168c82bb0adc7be202761", "fusion_lon": 0.0, "bike_id": "9516e566b30168c82bb0adc7be202761", "is_disabled": 0, "is_reserved": 0}, {"rental_uris": {"ios": "https://dc.lft.to/lastmile_qr_scan", "android": "https://dc.lft.to/lastmile_qr_scan"}, "lon": -76.99253016666667, "type": "electric_bike", "fusion_lat": 0.0, "lat": 38.925481833333336, "name": "548f65ef99612e99f773850ebb62fb70", "fusion_lon": 0.0, "bike_id": "548f65ef99612e99f773850ebb62fb70", "is_disabled": 0, "is_reserved": 0}, {"rental_uris": {"ios": "https://dc.lft.to/lastmile_qr_scan", "android": "https://dc.lft.to/lastmile_qr_scan"}, "lon": -76.97274033333333, "type": "electric_bike", "fusion_lat": 0.0, "lat": 38.9196935, "name": "1d13af6fca4bb9786b96993e6416eef6", "fusion_lon": 0.0, "bike_id": "1d13af6fca4bb9786b96993e6416eef6", "is_disabled": 0, "is_reserved": 0}, {"rental_uris": {"ios": "https://dc.lft.to/lastmile_qr_scan", "android": "https://dc.lft.to/lastmile_qr_scan"}, "lon": -77.03187, "type": "electric_scooter", "fusion_lat": 0.0, "lat": 38.929598, "name": "ea39ef5ed793615ae08b47efc0d9439d", "fusion_lon": 0.0, "bike_id": "ea39ef5ed793615ae08b47efc0d9439d", "is_disabled": 0, "is_reserved": 0}, {"rental_uris": {"ios": "https://dc.lft.to/lastmile_qr_scan", "android": "https://dc.lft.to/lastmile_qr_scan"}, "lon": -77.03297733333333, "type": "electric_scooter", "fusion_lat": 0.0, "lat": 38.928824666666664, "name": "1bbfe738026aad1b9446b39110f263c0", "fusion_lon": 0.0, "bike_id": "1bbfe738026aad1b9446b39110f263c0", "is_disabled": 0, "is_reserved": 0}, {"rental_uris": {"ios": "https://dc.lft.to/lastmile_qr_scan", "android": "https://dc.lft.to/lastmile_qr_scan"}, "lon": -77.04039066666667, "type": "electric_scooter", "fusion_lat": 0.0, "lat": 38.92468916666667, "name": "42ed652ecb39670cf7c2418f13eba7b4", "fusion_lon": 0.0, "bike_id": "42ed652ecb39670cf7c2418f13eba7b4", "is_disabled": 0, "is_reserved": 0}, {"rental_uris": {"ios": "https://dc.lft.to/lastmile_qr_scan", "android": "https://dc.lft.to/lastmile_qr_scan"}, "lon": -77.03151016666666, "type": "electric_scooter", "fusion_lat": 0.0, "lat": 38.91566816666667, "name": "7bc3ed9e05baaf189bbeca5f6b584d6c", "fusion_lon": 0.0, "bike_id": "7bc3ed9e05baaf189bbeca5f6b584d6c", "is_disabled": 0, "is_reserved": 0}, {"rental_uris": {"ios": "https://dc.lft.to/lastmile_qr_scan", "android": "https://dc.lft.to/lastmile_qr_scan"}, "lon": -77.02373216666666, "type": "electric_scooter", "fusion_lat": 0.0, "lat": 38.9369745, "name": "2bfac1d5e663186b10bd0fb2b342549a", "fusion_lon": 0.0, "bike_id": "2bfac1d5e663186b10bd0fb2b342549a", "is_disabled": 0, "is_reserved": 0}, {"rental_uris": {"ios": "https://dc.lft.to/lastmile_qr_scan", "android": "https://dc.lft.to/lastmile_qr_scan"}, "lon": -77.11060133333334, "type": "electric_bike", "fusion_lat": 0.0, "lat": 38.8707105, "name": "0f242ccc92a6826a420f77e55444b49d", "fusion_lon": 0.0, "bike_id": "0f242ccc92a6826a420f77e55444b49d", "is_disabled": 0, "is_reserved": 0}, {"rental_uris": {"ios": "https://dc.lft.to/lastmile_qr_scan", "android": "https://dc.lft.to/lastmile_qr_scan"}, "lon": -76.99001416666667, "type": "electric_scooter", "fusion_lat": 0.0, "lat": 38.86503916666667, "name": "dc4458d4147444b9c42f2c8328f6e58b", "fusion_lon": 0.0, "bike_id": "dc4458d4147444b9c42f2c8328f6e58b", "is_disabled": 0, "is_reserved": 0}, {"rental_uris": {"ios": "https://dc.lft.to/lastmile_qr_scan", "android": "https://dc.lft.to/lastmile_qr_scan"}, "lon": -77.00656033333334, "type": "electric_scooter", "fusion_lat": 0.0, "lat": 38.91197583333334, "name": "f0cd78821e6a6c7bb05f79b44d6ef11b", "fusion_lon": 0.0, "bike_id": "f0cd78821e6a6c7bb05f79b44d6ef11b", "is_disabled": 0, "is_reserved": 0}, {"rental_uris": {"ios": "https://dc.lft.to/lastmile_qr_scan", "android": "https://dc.lft.to/lastmile_qr_scan"}, "lon": -77.06105033333333, "type": "electric_scooter", "fusion_lat": 0.0, "lat": 38.937075, "name": "8fcf7c012298e75a3d8c22095155a9c6", "fusion_lon": 0.0, "bike_id": "8fcf7c012298e75a3d8c22095155a9c6", "is_disabled": 0, "is_reserved": 0}, {"rental_uris": {"ios": "https://dc.lft.to/lastmile_qr_scan", "android": "https://dc.lft.to/lastmile_qr_scan"}, "lon": -76.99670216666667, "type": "electric_scooter", "fusion_lat": 0.0, "lat": 38.910154, "name": "cebb0e163ccf44e6de53295857c25f7c", "fusion_lon": 0.0, "bike_id": "cebb0e163ccf44e6de53295857c25f7c", "is_disabled": 0, "is_reserved": 0}, {"rental_uris": {"ios": "https://dc.lft.to/lastmile_qr_scan", "android": "https://dc.lft.to/lastmile_qr_scan"}, "lon": -76.99521616666667, "type": "electric_scooter", "fusion_lat": 0.0, "lat": 38.89489416666667, "name": "0e596cf446233f56116f8d4a7c59d085", "fusion_lon": 0.0, "bike_id": "0e596cf446233f56116f8d4a7c59d085", "is_disabled": 0, "is_reserved": 0}, {"rental_uris": {"ios": "https://dc.lft.to/lastmile_qr_scan", "android": "https://dc.lft.to/lastmile_qr_scan"}, "lon": -76.99566266666666, "type": "electric_scooter", "fusion_lat": 0.0, "lat": 38.9287925, "name": "a4180fcc1e976c66772e6f8bfb96c703", "fusion_lon": 0.0, "bike_id": "a4180fcc1e976c66772e6f8bfb96c703", "is_disabled": 0, "is_reserved": 0}, {"rental_uris": {"ios": "https://dc.lft.to/lastmile_qr_scan", "android": "https://dc.lft.to/lastmile_qr_scan"}, "lon": -77.0272765, "type": "electric_scooter", "fusion_lat": 0.0, "lat": 38.93430083333333, "name": "33323359cba7d906f2cfaba10de1cd82", "fusion_lon": 0.0, "bike_id": "33323359cba7d906f2cfaba10de1cd82", "is_disabled": 0, "is_reserved": 0}, {"rental_uris": {"ios": "https://dc.lft.to/lastmile_qr_scan", "android": "https://dc.lft.to/lastmile_qr_scan"}, "lon": -77.02616866666666, "type": "electric_scooter", "fusion_lat": 0.0, "lat": 38.916914, "name": "fa0f75d4a2a0e2e182ac5e5f50e65dc4", "fusion_lon": 0.0, "bike_id": "fa0f75d4a2a0e2e182ac5e5f50e65dc4", "is_disabled": 0, "is_reserved": 0}, {"rental_uris": {"ios": "https://dc.lft.to/lastmile_qr_scan", "android": "https://dc.lft.to/lastmile_qr_scan"}, "lon": -76.93865933333333, "type": "electric_scooter", "fusion_lat": 0.0, "lat": 38.90084216666666, "name": "45178794a708060113e56d0e2429fd31", "fusion_lon": 0.0, "bike_id": "45178794a708060113e56d0e2429fd31", "is_disabled": 0, "is_reserved": 0}, {"rental_uris": {"ios": "https://dc.lft.to/lastmile_qr_scan", "android": "https://dc.lft.to/lastmile_qr_scan"}, "lon": -76.9865485, "type": "electric_scooter", "fusion_lat": 0.0, "lat": 38.85805283333333, "name": "2a072e8bfcf4b8bf13888fb5c59c2581", "fusion_lon": 0.0, "bike_id": "2a072e8bfcf4b8bf13888fb5c59c2581", "is_disabled": 0, "is_reserved": 0}, {"rental_uris": {"ios": "https://dc.lft.to/lastmile_qr_scan", "android": "https://dc.lft.to/lastmile_qr_scan"}, "lon": -76.99612966666666, "type": "electric_scooter", "fusion_lat": 0.0, "lat": 38.897481, "name": "dfc93f7091ec46a0f1fd491bb497357e", "fusion_lon": 0.0, "bike_id": "dfc93f7091ec46a0f1fd491bb497357e", "is_disabled": 0, "is_reserved": 0}, {"rental_uris": {"ios": "https://dc.lft.to/lastmile_qr_scan", "android": "https://dc.lft.to/lastmile_qr_scan"}, "lon": -77.04670616666667, "type": "electric_scooter", "fusion_lat": 0.0, "lat": 38.90759416666667, "name": "7afcc703d967948b6add5ccf5e550c4e", "fusion_lon": 0.0, "bike_id": "7afcc703d967948b6add5ccf5e550c4e", "is_disabled": 0, "is_reserved": 0}, {"rental_uris": {"ios": "https://dc.lft.to/lastmile_qr_scan", "android": "https://dc.lft.to/lastmile_qr_scan"}, "lon": -77.04495183333333, "type": "electric_scooter", "fusion_lat": 0.0, "lat": 38.90019983333333, "name": "4d50bb343f96fdd8e31bd638882638c2", "fusion_lon": 0.0, "bike_id": "4d50bb343f96fdd8e31bd638882638c2", "is_disabled": 0, "is_reserved": 0}, {"rental_uris": {"ios": "https://dc.lft.to/lastmile_qr_scan", "android": "https://dc.lft.to/lastmile_qr_scan"}, "lon": -77.00575633333334, "type": "electric_scooter", "fusion_lat": 0.0, "lat": 38.905561666666664, "name": "4c896886b57e2e212d2dcd94099bc3ea", "fusion_lon": 0.0, "bike_id": "4c896886b57e2e212d2dcd94099bc3ea", "is_disabled": 0, "is_reserved": 0}, {"rental_uris": {"ios": "https://dc.lft.to/lastmile_qr_scan", "android": "https://dc.lft.to/lastmile_qr_scan"}, "lon": -77.04401733333333, "type": "electric_scooter", "fusion_lat": 0.0, "lat": 38.920191, "name": "86e4e3992b10d6fed1aa2d22eb9d1a33", "fusion_lon": 0.0, "bike_id": "86e4e3992b10d6fed1aa2d22eb9d1a33", "is_disabled": 0, "is_reserved": 0}, {"rental_uris": {"ios": "https://dc.lft.to/lastmile_qr_scan", "android": "https://dc.lft.to/lastmile_qr_scan"}, "lon": -76.98184216666667, "type": "electric_scooter", "fusion_lat": 0.0, "lat": 38.8957935, "name": "9dee3a4265f873533f5d2ebfc3fb4ee6", "fusion_lon": 0.0, "bike_id": "9dee3a4265f873533f5d2ebfc3fb4ee6", "is_disabled": 0, "is_reserved": 0}, {"rental_uris": {"ios": "https://dc.lft.to/lastmile_qr_scan", "android": "https://dc.lft.to/lastmile_qr_scan"}, "lon": -77.03501, "type": "electric_scooter", "fusion_lat": 0.0, "lat": 38.91697516666667, "name": "0d666f3a1340cc7bb668b7949630fe47", "fusion_lon": 0.0, "bike_id": "0d666f3a1340cc7bb668b7949630fe47", "is_disabled": 0, "is_reserved": 0}, {"rental_uris": {"ios": "https://dc.lft.to/lastmile_qr_scan", "android": "https://dc.lft.to/lastmile_qr_scan"}, "lon": -77.01305116666667, "type": "electric_scooter", "fusion_lat": 0.0, "lat": 38.921224, "name": "58a31ea4e1f03fb8108a70fb03d8ddec", "fusion_lon": 0.0, "bike_id": "58a31ea4e1f03fb8108a70fb03d8ddec", "is_disabled": 0, "is_reserved": 0}, {"rental_uris": {"ios": "https://dc.lft.to/lastmile_qr_scan", "android": "https://dc.lft.to/lastmile_qr_scan"}, "lon": -77.02357416666666, "type": "electric_scooter", "fusion_lat": 0.0, "lat": 38.9250565, "name": "86ef94a7f4334427ea3bb73ef5b88435", "fusion_lon": 0.0, "bike_id": "86ef94a7f4334427ea3bb73ef5b88435", "is_disabled": 0, "is_reserved": 0}, {"rental_uris": {"ios": "https://dc.lft.to/lastmile_qr_scan", "android": "https://dc.lft.to/lastmile_qr_scan"}, "lon": -76.94892383333334, "type": "electric_scooter", "fusion_lat": 0.0, "lat": 38.895298833333335, "name": "5cf3dd7893a9ba6e597ed291137faad0", "fusion_lon": 0.0, "bike_id": "5cf3dd7893a9ba6e597ed291137faad0", "is_disabled": 0, "is_reserved": 0}, {"rental_uris": {"ios": "https://dc.lft.to/lastmile_qr_scan", "android": "https://dc.lft.to/lastmile_qr_scan"}, "lon": -77.03680266666667, "type": "electric_scooter", "fusion_lat": 0.0, "lat": 38.939325833333335, "name": "3f1a8f76116389bfff30e81a04b013f0", "fusion_lon": 0.0, "bike_id": "3f1a8f76116389bfff30e81a04b013f0", "is_disabled": 0, "is_reserved": 0}, {"rental_uris": {"ios": "https://dc.lft.to/lastmile_qr_scan", "android": "https://dc.lft.to/lastmile_qr_scan"}, "lon": -77.03308033333333, "type": "electric_scooter", "fusion_lat": 0.0, "lat": 38.918125333333336, "name": "efb8e75eae8d730a3ae54d9bd816c246", "fusion_lon": 0.0, "bike_id": "efb8e75eae8d730a3ae54d9bd816c246", "is_disabled": 0, "is_reserved": 0}, {"rental_uris": {"ios": "https://dc.lft.to/lastmile_qr_scan", "android": "https://dc.lft.to/lastmile_qr_scan"}, "lon": -77.02737183333333, "type": "electric_scooter", "fusion_lat": 0.0, "lat": 38.916965833333336, "name": "9b56994f978db81d04dedc92dabf9de9", "fusion_lon": 0.0, "bike_id": "9b56994f978db81d04dedc92dabf9de9", "is_disabled": 0, "is_reserved": 0}, {"rental_uris": {"ios": "https://dc.lft.to/lastmile_qr_scan", "android": "https://dc.lft.to/lastmile_qr_scan"}, "lon": -76.90979783333333, "type": "electric_bike", "fusion_lat": 0.0, "lat": 38.85435866666667, "name": "dd84267075a5c6269e8c93cb83e0e4d0", "fusion_lon": 0.0, "bike_id": "dd84267075a5c6269e8c93cb83e0e4d0", "is_disabled": 0, "is_reserved": 0}, {"rental_uris": {"ios": "https://dc.lft.to/lastmile_qr_scan", "android": "https://dc.lft.to/lastmile_qr_scan"}, "lon": -77.03507783333333, "type": "electric_scooter", "fusion_lat": 0.0, "lat": 38.918794, "name": "ce500d88536eec9e56e2375b234cebde", "fusion_lon": 0.0, "bike_id": "ce500d88536eec9e56e2375b234cebde", "is_disabled": 0, "is_reserved": 0}, {"rental_uris": {"ios": "https://dc.lft.to/lastmile_qr_scan", "android": "https://dc.lft.to/lastmile_qr_scan"}, "lon": -77.02402866666667, "type": "electric_scooter", "fusion_lat": 0.0, "lat": 38.93489983333333, "name": "b03ffa1a657f3301119fe9b628905b63", "fusion_lon": 0.0, "bike_id": "b03ffa1a657f3301119fe9b628905b63", "is_disabled": 0, "is_reserved": 0}, {"rental_uris": {"ios": "https://dc.lft.to/lastmile_qr_scan", "android": "https://dc.lft.to/lastmile_qr_scan"}, "lon": -77.00589133333334, "type": "electric_scooter", "fusion_lat": 0.0, "lat": 38.915664666666665, "name": "0759a8cd4de0239447223ac511892250", "fusion_lon": 0.0, "bike_id": "0759a8cd4de0239447223ac511892250", "is_disabled": 0, "is_reserved": 0}, {"rental_uris": {"ios": "https://dc.lft.to/lastmile_qr_scan", "android": "https://dc.lft.to/lastmile_qr_scan"}, "lon": -77.02399466666667, "type": "electric_scooter", "fusion_lat": 0.0, "lat": 38.93107916666666, "name": "adf861b897992b9bff2f145fc17204a8", "fusion_lon": 0.0, "bike_id": "adf861b897992b9bff2f145fc17204a8", "is_disabled": 0, "is_reserved": 0}, {"rental_uris": {"ios": "https://dc.lft.to/lastmile_qr_scan", "android": "https://dc.lft.to/lastmile_qr_scan"}, "lon": -77.01543616666666, "type": "electric_scooter", "fusion_lat": 0.0, "lat": 38.892045333333336, "name": "40927577c17ee40a42d0d3260937e923", "fusion_lon": 0.0, "bike_id": "40927577c17ee40a42d0d3260937e923", "is_disabled": 0, "is_reserved": 0}, {"rental_uris": {"ios": "https://dc.lft.to/lastmile_qr_scan", "android": "https://dc.lft.to/lastmile_qr_scan"}, "lon": -77.046579, "type": "electric_scooter", "fusion_lat": 0.0, "lat": 38.90557333333334, "name": "df7b4a24e7766e2318727a1747854255", "fusion_lon": 0.0, "bike_id": "df7b4a24e7766e2318727a1747854255", "is_disabled": 0, "is_reserved": 0}, {"rental_uris": {"ios": "https://dc.lft.to/lastmile_qr_scan", "android": "https://dc.lft.to/lastmile_qr_scan"}, "lon": -77.12493033333334, "type": "electric_bike", "fusion_lat": 0.0, "lat": 39.024193333333336, "name": "31bb6208a9ffe230ddae33f681baf0d3", "fusion_lon": 0.0, "bike_id": "31bb6208a9ffe230ddae33f681baf0d3", "is_disabled": 0, "is_reserved": 0}, {"rental_uris": {"ios": "https://dc.lft.to/lastmile_qr_scan", "android": "https://dc.lft.to/lastmile_qr_scan"}, "lon": -77.02141966666667, "type": "electric_scooter", "fusion_lat": 0.0, "lat": 38.933044333333335, "name": "0552ff97b5bf2454183bdbde10edc347", "fusion_lon": 0.0, "bike_id": "0552ff97b5bf2454183bdbde10edc347", "is_disabled": 0, "is_reserved": 0}, {"rental_uris": {"ios": "https://dc.lft.to/lastmile_qr_scan", "android": "https://dc.lft.to/lastmile_qr_scan"}, "lon": -77.02468116666667, "type": "electric_scooter", "fusion_lat": 0.0, "lat": 38.93097683333333, "name": "58eec2c5250f43f3419ec2c87aeeaceb", "fusion_lon": 0.0, "bike_id": "58eec2c5250f43f3419ec2c87aeeaceb", "is_disabled": 0, "is_reserved": 0}, {"rental_uris": {"ios": "https://dc.lft.to/lastmile_qr_scan", "android": "https://dc.lft.to/lastmile_qr_scan"}, "lon": -77.04514733333333, "type": "electric_scooter", "fusion_lat": 0.0, "lat": 38.91289866666666, "name": "9c173ae4d8bd427a868bba5e430d42d5", "fusion_lon": 0.0, "bike_id": "9c173ae4d8bd427a868bba5e430d42d5", "is_disabled": 0, "is_reserved": 0}, {"rental_uris": {"ios": "https://dc.lft.to/lastmile_qr_scan", "android": "https://dc.lft.to/lastmile_qr_scan"}, "lon": -77.03194833333333, "type": "electric_scooter", "fusion_lat": 0.0, "lat": 38.922923833333336, "name": "b3453f484e079f48ddd50d706dde3b7b", "fusion_lon": 0.0, "bike_id": "b3453f484e079f48ddd50d706dde3b7b", "is_disabled": 0, "is_reserved": 0}, {"rental_uris": {"ios": "https://dc.lft.to/lastmile_qr_scan", "android": "https://dc.lft.to/lastmile_qr_scan"}, "lon": -77.0371725, "type": "electric_scooter", "fusion_lat": 0.0, "lat": 38.926279, "name": "e0d6badcdd0c15120ac4915c4f9a866a", "fusion_lon": 0.0, "bike_id": "e0d6badcdd0c15120ac4915c4f9a866a", "is_disabled": 0, "is_reserved": 0}, {"rental_uris": {"ios": "https://dc.lft.to/lastmile_qr_scan", "android": "https://dc.lft.to/lastmile_qr_scan"}, "lon": -77.02478533333333, "type": "electric_scooter", "fusion_lat": 0.0, "lat": 38.937706666666664, "name": "a0ee529fd514cb13cf5e74eb8e771e1a", "fusion_lon": 0.0, "bike_id": "a0ee529fd514cb13cf5e74eb8e771e1a", "is_disabled": 0, "is_reserved": 0}, {"rental_uris": {"ios": "https://dc.lft.to/lastmile_qr_scan", "android": "https://dc.lft.to/lastmile_qr_scan"}, "lon": -77.03665616666666, "type": "electric_scooter", "fusion_lat": 0.0, "lat": 38.90285, "name": "7bd3598e48f83cddc06be63fc35267d7", "fusion_lon": 0.0, "bike_id": "7bd3598e48f83cddc06be63fc35267d7", "is_disabled": 0, "is_reserved": 0}, {"rental_uris": {"ios": "https://dc.lft.to/lastmile_qr_scan", "android": "https://dc.lft.to/lastmile_qr_scan"}, "lon": -77.04646166666667, "type": "electric_bike", "fusion_lat": 0.0, "lat": 38.8521205, "name": "923400afc930f14be65c4287650d9777", "fusion_lon": 0.0, "bike_id": "923400afc930f14be65c4287650d9777", "is_disabled": 0, "is_reserved": 0}, {"rental_uris": {"ios": "https://dc.lft.to/lastmile_qr_scan", "android": "https://dc.lft.to/lastmile_qr_scan"}, "lon": -77.030283, "type": "electric_scooter", "fusion_lat": 0.0, "lat": 38.896085, "name": "4ef8c190f88d58f9086f1fc6a20e674d", "fusion_lon": 0.0, "bike_id": "4ef8c190f88d58f9086f1fc6a20e674d", "is_disabled": 0, "is_reserved": 0}, {"rental_uris": {"ios": "https://dc.lft.to/lastmile_qr_scan", "android": "https://dc.lft.to/lastmile_qr_scan"}, "lon": -77.04495616666667, "type": "electric_scooter", "fusion_lat": 0.0, "lat": 38.911037, "name": "ff66972dc5b14156980b978c3bed0243", "fusion_lon": 0.0, "bike_id": "ff66972dc5b14156980b978c3bed0243", "is_disabled": 0, "is_reserved": 0}, {"rental_uris": {"ios": "https://dc.lft.to/lastmile_qr_scan", "android": "https://dc.lft.to/lastmile_qr_scan"}, "lon": -77.04864016666667, "type": "electric_scooter", "fusion_lat": 0.0, "lat": 38.901943333333335, "name": "7d0e7a202a7486f651667c66cbdd7d3c", "fusion_lon": 0.0, "bike_id": "7d0e7a202a7486f651667c66cbdd7d3c", "is_disabled": 0, "is_reserved": 0}, {"rental_uris": {"ios": "https://dc.lft.to/lastmile_qr_scan", "android": "https://dc.lft.to/lastmile_qr_scan"}, "lon": -77.0392825, "type": "electric_scooter", "fusion_lat": 0.0, "lat": 38.92107466666667, "name": "2cd52f7c67cbff871d58d47a02884f94", "fusion_lon": 0.0, "bike_id": "2cd52f7c67cbff871d58d47a02884f94", "is_disabled": 0, "is_reserved": 0}, {"rental_uris": {"ios": "https://dc.lft.to/lastmile_qr_scan", "android": "https://dc.lft.to/lastmile_qr_scan"}, "lon": -77.0334955, "type": "electric_scooter", "fusion_lat": 0.0, "lat": 38.89535766666667, "name": "acca503b77afc82fddbd04ded36f2c3b", "fusion_lon": 0.0, "bike_id": "acca503b77afc82fddbd04ded36f2c3b", "is_disabled": 0, "is_reserved": 0}, {"rental_uris": {"ios": "https://dc.lft.to/lastmile_qr_scan", "android": "https://dc.lft.to/lastmile_qr_scan"}, "lon": -77.05526266666666, "type": "electric_scooter", "fusion_lat": 0.0, "lat": 38.8973255, "name": "e8ca416997ca524a10a358d455a5954d", "fusion_lon": 0.0, "bike_id": "e8ca416997ca524a10a358d455a5954d", "is_disabled": 0, "is_reserved": 0}, {"rental_uris": {"ios": "https://dc.lft.to/lastmile_qr_scan", "android": "https://dc.lft.to/lastmile_qr_scan"}, "lon": -77.12964083333334, "type": "electric_bike", "fusion_lat": 0.0, "lat": 38.80794266666667, "name": "5f02cea08fba8bcc335bc12f67e696a9", "fusion_lon": 0.0, "bike_id": "5f02cea08fba8bcc335bc12f67e696a9", "is_disabled": 0, "is_reserved": 0}, {"rental_uris": {"ios": "https://dc.lft.to/lastmile_qr_scan", "android": "https://dc.lft.to/lastmile_qr_scan"}, "lon": -77.01294166666666, "type": "electric_bike", "fusion_lat": 0.0, "lat": 39.00387533333333, "name": "f82fa968d69b249db92ade4841d39a3c", "fusion_lon": 0.0, "bike_id": "f82fa968d69b249db92ade4841d39a3c", "is_disabled": 0, "is_reserved": 0}, {"rental_uris": {"ios": "https://dc.lft.to/lastmile_qr_scan", "android": "https://dc.lft.to/lastmile_qr_scan"}, "lon": -77.046702, "type": "electric_scooter", "fusion_lat": 0.0, "lat": 38.932993333333336, "name": "9f33d03da6f494dc2ab1125689cdb3f0", "fusion_lon": 0.0, "bike_id": "9f33d03da6f494dc2ab1125689cdb3f0", "is_disabled": 0, "is_reserved": 0}, {"rental_uris": {"ios": "https://dc.lft.to/lastmile_qr_scan", "android": "https://dc.lft.to/lastmile_qr_scan"}, "lon": -76.93243433333333, "type": "electric_scooter", "fusion_lat": 0.0, "lat": 38.894073166666665, "name": "5b480fcabf85d58e3fa35679c570a728", "fusion_lon": 0.0, "bike_id": "5b480fcabf85d58e3fa35679c570a728", "is_disabled": 0, "is_reserved": 0}, {"rental_uris": {"ios": "https://dc.lft.to/lastmile_qr_scan", "android": "https://dc.lft.to/lastmile_qr_scan"}, "lon": -76.99066633333334, "type": "electric_scooter", "fusion_lat": 0.0, "lat": 38.8636025, "name": "3c3dc21c300345c7cf99f8a357d7b4af", "fusion_lon": 0.0, "bike_id": "3c3dc21c300345c7cf99f8a357d7b4af", "is_disabled": 0, "is_reserved": 0}, {"rental_uris": {"ios": "https://dc.lft.to/lastmile_qr_scan", "android": "https://dc.lft.to/lastmile_qr_scan"}, "lon": -77.024282, "type": "electric_scooter", "fusion_lat": 0.0, "lat": 38.915511, "name": "3fd73a18bb51816ef265ab1942af7150", "fusion_lon": 0.0, "bike_id": "3fd73a18bb51816ef265ab1942af7150", "is_disabled": 0, "is_reserved": 0}, {"rental_uris": {"ios": "https://dc.lft.to/lastmile_qr_scan", "android": "https://dc.lft.to/lastmile_qr_scan"}, "lon": -77.0839285, "type": "electric_scooter", "fusion_lat": 0.0, "lat": 38.96095866666667, "name": "bf3ba6ef521ca3db51eaf8b5708c0760", "fusion_lon": 0.0, "bike_id": "bf3ba6ef521ca3db51eaf8b5708c0760", "is_disabled": 0, "is_reserved": 0}, {"rental_uris": {"ios": "https://dc.lft.to/lastmile_qr_scan", "android": "https://dc.lft.to/lastmile_qr_scan"}, "lon": -77.01579333333333, "type": "electric_scooter", "fusion_lat": 0.0, "lat": 38.9017115, "name": "c3872ab2865848384380b92819916f8e", "fusion_lon": 0.0, "bike_id": "c3872ab2865848384380b92819916f8e", "is_disabled": 0, "is_reserved": 0}, {"rental_uris": {"ios": "https://dc.lft.to/lastmile_qr_scan", "android": "https://dc.lft.to/lastmile_qr_scan"}, "lon": -77.0771105, "type": "electric_scooter", "fusion_lat": 0.0, "lat": 38.95613016666667, "name": "957a3aef926516c2df979f8334ffe766", "fusion_lon": 0.0, "bike_id": "957a3aef926516c2df979f8334ffe766", "is_disabled": 0, "is_reserved": 0}, {"rental_uris": {"ios": "https://dc.lft.to/lastmile_qr_scan", "android": "https://dc.lft.to/lastmile_qr_scan"}, "lon": -77.02439016666666, "type": "electric_scooter", "fusion_lat": 0.0, "lat": 38.936837, "name": "f9b184a876609ecbbba5fba1ad2feecc", "fusion_lon": 0.0, "bike_id": "f9b184a876609ecbbba5fba1ad2feecc", "is_disabled": 0, "is_reserved": 0}, {"rental_uris": {"ios": "https://dc.lft.to/lastmile_qr_scan", "android": "https://dc.lft.to/lastmile_qr_scan"}, "lon": -77.03909066666667, "type": "electric_scooter", "fusion_lat": 0.0, "lat": 38.89910316666667, "name": "aba71e6043f032d6dc43fc327e2fbcec", "fusion_lon": 0.0, "bike_id": "aba71e6043f032d6dc43fc327e2fbcec", "is_disabled": 0, "is_reserved": 0}, {"rental_uris": {"ios": "https://dc.lft.to/lastmile_qr_scan", "android": "https://dc.lft.to/lastmile_qr_scan"}, "lon": -77.02712666666666, "type": "electric_scooter", "fusion_lat": 0.0, "lat": 38.917646833333336, "name": "f28d317e9f674f61ece9337fabf7877a", "fusion_lon": 0.0, "bike_id": "f28d317e9f674f61ece9337fabf7877a", "is_disabled": 0, "is_reserved": 0}, {"rental_uris": {"ios": "https://dc.lft.to/lastmile_qr_scan", "android": "https://dc.lft.to/lastmile_qr_scan"}, "lon": -77.03757783333333, "type": "electric_scooter", "fusion_lat": 0.0, "lat": 38.929125666666664, "name": "c44064ccbce91bbc4d3a308110c92ab4", "fusion_lon": 0.0, "bike_id": "c44064ccbce91bbc4d3a308110c92ab4", "is_disabled": 0, "is_reserved": 0}, {"rental_uris": {"ios": "https://dc.lft.to/lastmile_qr_scan", "android": "https://dc.lft.to/lastmile_qr_scan"}, "lon": -77.058585, "type": "electric_scooter", "fusion_lat": 0.0, "lat": 38.9342705, "name": "e0260e7c6120af117d96030029e831df", "fusion_lon": 0.0, "bike_id": "e0260e7c6120af117d96030029e831df", "is_disabled": 0, "is_reserved": 0}, {"rental_uris": {"ios": "https://dc.lft.to/lastmile_qr_scan", "android": "https://dc.lft.to/lastmile_qr_scan"}, "lon": -76.98706766666666, "type": "electric_scooter", "fusion_lat": 0.0, "lat": 38.865407833333336, "name": "e6687280eea5e0d56f7968baec6376f8", "fusion_lon": 0.0, "bike_id": "e6687280eea5e0d56f7968baec6376f8", "is_disabled": 0, "is_reserved": 0}, {"rental_uris": {"ios": "https://dc.lft.to/lastmile_qr_scan", "android": "https://dc.lft.to/lastmile_qr_scan"}, "lon": -77.05053533333333, "type": "electric_scooter", "fusion_lat": 0.0, "lat": 38.9008855, "name": "8903e7715ec018f8361735a289b9cac0", "fusion_lon": 0.0, "bike_id": "8903e7715ec018f8361735a289b9cac0", "is_disabled": 0, "is_reserved": 0}, {"rental_uris": {"ios": "https://dc.lft.to/lastmile_qr_scan", "android": "https://dc.lft.to/lastmile_qr_scan"}, "lon": -77.03153933333333, "type": "electric_scooter", "fusion_lat": 0.0, "lat": 38.899389, "name": "9a7fee5b8156da3f3dcf596bf5d454cc", "fusion_lon": 0.0, "bike_id": "9a7fee5b8156da3f3dcf596bf5d454cc", "is_disabled": 0, "is_reserved": 0}, {"rental_uris": {"ios": "https://dc.lft.to/lastmile_qr_scan", "android": "https://dc.lft.to/lastmile_qr_scan"}, "lon": -77.01188833333333, "type": "electric_scooter", "fusion_lat": 0.0, "lat": 38.9003185, "name": "7f2ca6de2444ee226e97148023a6f328", "fusion_lon": 0.0, "bike_id": "7f2ca6de2444ee226e97148023a6f328", "is_disabled": 0, "is_reserved": 0}, {"rental_uris": {"ios": "https://dc.lft.to/lastmile_qr_scan", "android": "https://dc.lft.to/lastmile_qr_scan"}, "lon": -77.04489266666667, "type": "electric_scooter", "fusion_lat": 0.0, "lat": 38.90860583333333, "name": "d75ae1d1c69b177d1ba910729d437d7a", "fusion_lon": 0.0, "bike_id": "d75ae1d1c69b177d1ba910729d437d7a", "is_disabled": 0, "is_reserved": 0}, {"rental_uris": {"ios": "https://dc.lft.to/lastmile_qr_scan", "android": "https://dc.lft.to/lastmile_qr_scan"}, "lon": -77.00517366666666, "type": "electric_scooter", "fusion_lat": 0.0, "lat": 38.9290335, "name": "f33ac76e3f33b7498572f1ed6d255294", "fusion_lon": 0.0, "bike_id": "f33ac76e3f33b7498572f1ed6d255294", "is_disabled": 0, "is_reserved": 0}, {"rental_uris": {"ios": "https://dc.lft.to/lastmile_qr_scan", "android": "https://dc.lft.to/lastmile_qr_scan"}, "lon": -77.13102683333334, "type": "electric_bike", "fusion_lat": 0.0, "lat": 38.876322333333334, "name": "f05cdc6e8dd4ee52a353a02f2c574441", "fusion_lon": 0.0, "bike_id": "f05cdc6e8dd4ee52a353a02f2c574441", "is_disabled": 0, "is_reserved": 0}, {"rental_uris": {"ios": "https://dc.lft.to/lastmile_qr_scan", "android": "https://dc.lft.to/lastmile_qr_scan"}, "lon": -77.03669416666666, "type": "electric_scooter", "fusion_lat": 0.0, "lat": 38.917057, "name": "c3126199fb162e278e1d94517dd38bb8", "fusion_lon": 0.0, "bike_id": "c3126199fb162e278e1d94517dd38bb8", "is_disabled": 0, "is_reserved": 0}, {"rental_uris": {"ios": "https://dc.lft.to/lastmile_qr_scan", "android": "https://dc.lft.to/lastmile_qr_scan"}, "lon": -77.042401, "type": "electric_scooter", "fusion_lat": 0.0, "lat": 38.9058315, "name": "1fd4a5417ddd024b690c2453bd313c3e", "fusion_lon": 0.0, "bike_id": "1fd4a5417ddd024b690c2453bd313c3e", "is_disabled": 0, "is_reserved": 0}, {"rental_uris": {"ios": "https://dc.lft.to/lastmile_qr_scan", "android": "https://dc.lft.to/lastmile_qr_scan"}, "lon": -77.028615, "type": "electric_scooter", "fusion_lat": 0.0, "lat": 38.92817566666667, "name": "f6a02e548849f1e12fc5aff4e50e941d", "fusion_lon": 0.0, "bike_id": "f6a02e548849f1e12fc5aff4e50e941d", "is_disabled": 0, "is_reserved": 0}, {"rental_uris": {"ios": "https://dc.lft.to/lastmile_qr_scan", "android": "https://dc.lft.to/lastmile_qr_scan"}, "lon": -77.02364933333334, "type": "electric_scooter", "fusion_lat": 0.0, "lat": 38.925116833333334, "name": "e6367ec5d1ebff6a054174ae75646624", "fusion_lon": 0.0, "bike_id": "e6367ec5d1ebff6a054174ae75646624", "is_disabled": 0, "is_reserved": 0}, {"rental_uris": {"ios": "https://dc.lft.to/lastmile_qr_scan", "android": "https://dc.lft.to/lastmile_qr_scan"}, "lon": -77.01700366666667, "type": "electric_scooter", "fusion_lat": 0.0, "lat": 38.920201, "name": "2bd611e126131378e6662e6073b7c0cc", "fusion_lon": 0.0, "bike_id": "2bd611e126131378e6662e6073b7c0cc", "is_disabled": 0, "is_reserved": 0}, {"rental_uris": {"ios": "https://dc.lft.to/lastmile_qr_scan", "android": "https://dc.lft.to/lastmile_qr_scan"}, "lon": -77.033519, "type": "electric_scooter", "fusion_lat": 0.0, "lat": 38.934209, "name": "7ea3152bd91ab06e975c972b8937f750", "fusion_lon": 0.0, "bike_id": "7ea3152bd91ab06e975c972b8937f750", "is_disabled": 0, "is_reserved": 0}, {"rental_uris": {"ios": "https://dc.lft.to/lastmile_qr_scan", "android": "https://dc.lft.to/lastmile_qr_scan"}, "lon": -77.02265016666666, "type": "electric_scooter", "fusion_lat": 0.0, "lat": 38.92455833333333, "name": "a23f554f0d855fae63c8cc1358a201dd", "fusion_lon": 0.0, "bike_id": "a23f554f0d855fae63c8cc1358a201dd", "is_disabled": 0, "is_reserved": 0}, {"rental_uris": {"ios": "https://dc.lft.to/lastmile_qr_scan", "android": "https://dc.lft.to/lastmile_qr_scan"}, "lon": -77.04820833333333, "type": "electric_scooter", "fusion_lat": 0.0, "lat": 38.92042083333333, "name": "edb4933dceb85cab8174f9912386c016", "fusion_lon": 0.0, "bike_id": "edb4933dceb85cab8174f9912386c016", "is_disabled": 0, "is_reserved": 0}, {"rental_uris": {"ios": "https://dc.lft.to/lastmile_qr_scan", "android": "https://dc.lft.to/lastmile_qr_scan"}, "lon": -77.0341725, "type": "electric_scooter", "fusion_lat": 0.0, "lat": 38.93544683333333, "name": "e3046b7d783353dab7a5a890c16f6abe", "fusion_lon": 0.0, "bike_id": "e3046b7d783353dab7a5a890c16f6abe", "is_disabled": 0, "is_reserved": 0}, {"rental_uris": {"ios": "https://dc.lft.to/lastmile_qr_scan", "android": "https://dc.lft.to/lastmile_qr_scan"}, "lon": -77.01288566666666, "type": "electric_scooter", "fusion_lat": 0.0, "lat": 38.900534, "name": "5f4007a4b9905427ceb69cac554dbeb5", "fusion_lon": 0.0, "bike_id": "5f4007a4b9905427ceb69cac554dbeb5", "is_disabled": 0, "is_reserved": 0}, {"rental_uris": {"ios": "https://dc.lft.to/lastmile_qr_scan", "android": "https://dc.lft.to/lastmile_qr_scan"}, "lon": -77.02713033333333, "type": "electric_scooter", "fusion_lat": 0.0, "lat": 38.92470933333333, "name": "bef23ae0566c7187b25a22a726ad2b3f", "fusion_lon": 0.0, "bike_id": "bef23ae0566c7187b25a22a726ad2b3f", "is_disabled": 0, "is_reserved": 0}, {"rental_uris": {"ios": "https://dc.lft.to/lastmile_qr_scan", "android": "https://dc.lft.to/lastmile_qr_scan"}, "lon": -77.01222466666667, "type": "electric_scooter", "fusion_lat": 0.0, "lat": 38.90977766666666, "name": "669e1b8812e443aa47bc48cde1e8a9c8", "fusion_lon": 0.0, "bike_id": "669e1b8812e443aa47bc48cde1e8a9c8", "is_disabled": 0, "is_reserved": 0}, {"rental_uris": {"ios": "https://dc.lft.to/lastmile_qr_scan", "android": "https://dc.lft.to/lastmile_qr_scan"}, "lon": -76.98582916666666, "type": "electric_scooter", "fusion_lat": 0.0, "lat": 38.906608166666665, "name": "ef467cf8981934aa4da9d64b46f9c685", "fusion_lon": 0.0, "bike_id": "ef467cf8981934aa4da9d64b46f9c685", "is_disabled": 0, "is_reserved": 0}, {"rental_uris": {"ios": "https://dc.lft.to/lastmile_qr_scan", "android": "https://dc.lft.to/lastmile_qr_scan"}, "lon": -77.0175685, "type": "electric_scooter", "fusion_lat": 0.0, "lat": 38.8768895, "name": "8507f3d921d7f5f19e591bb250cd5c03", "fusion_lon": 0.0, "bike_id": "8507f3d921d7f5f19e591bb250cd5c03", "is_disabled": 0, "is_reserved": 0}, {"rental_uris": {"ios": "https://dc.lft.to/lastmile_qr_scan", "android": "https://dc.lft.to/lastmile_qr_scan"}, "lon": -77.0216185, "type": "electric_scooter", "fusion_lat": 0.0, "lat": 38.897375833333335, "name": "28ea1c5d47f82ecb20dae5e5d9823549", "fusion_lon": 0.0, "bike_id": "28ea1c5d47f82ecb20dae5e5d9823549", "is_disabled": 0, "is_reserved": 0}, {"rental_uris": {"ios": "https://dc.lft.to/lastmile_qr_scan", "android": "https://dc.lft.to/lastmile_qr_scan"}, "lon": -77.053252, "type": "electric_scooter", "fusion_lat": 0.0, "lat": 38.939682, "name": "2f990daa48df15fd1488c1ac29db1f52", "fusion_lon": 0.0, "bike_id": "2f990daa48df15fd1488c1ac29db1f52", "is_disabled": 0, "is_reserved": 0}, {"rental_uris": {"ios": "https://dc.lft.to/lastmile_qr_scan", "android": "https://dc.lft.to/lastmile_qr_scan"}, "lon": -76.988196, "type": "electric_scooter", "fusion_lat": 0.0, "lat": 38.90341266666667, "name": "10c916aaee7c001285c6da6d777785e1", "fusion_lon": 0.0, "bike_id": "10c916aaee7c001285c6da6d777785e1", "is_disabled": 0, "is_reserved": 0}, {"rental_uris": {"ios": "https://dc.lft.to/lastmile_qr_scan", "android": "https://dc.lft.to/lastmile_qr_scan"}, "lon": -77.079816, "type": "electric_scooter", "fusion_lat": 0.0, "lat": 38.9195135, "name": "efbea3b33e1125fbc2d0242ec7177d64", "fusion_lon": 0.0, "bike_id": "efbea3b33e1125fbc2d0242ec7177d64", "is_disabled": 0, "is_reserved": 0}, {"rental_uris": {"ios": "https://dc.lft.to/lastmile_qr_scan", "android": "https://dc.lft.to/lastmile_qr_scan"}, "lon": -77.011818, "type": "electric_scooter", "fusion_lat": 0.0, "lat": 38.906529, "name": "214be21b1be7f89807a816279333f131", "fusion_lon": 0.0, "bike_id": "214be21b1be7f89807a816279333f131", "is_disabled": 0, "is_reserved": 0}, {"rental_uris": {"ios": "https://dc.lft.to/lastmile_qr_scan", "android": "https://dc.lft.to/lastmile_qr_scan"}, "lon": -77.02224216666667, "type": "electric_scooter", "fusion_lat": 0.0, "lat": 38.8935875, "name": "0fd7536c4beb210308996aca929a7b69", "fusion_lon": 0.0, "bike_id": "0fd7536c4beb210308996aca929a7b69", "is_disabled": 0, "is_reserved": 0}, {"rental_uris": {"ios": "https://dc.lft.to/lastmile_qr_scan", "android": "https://dc.lft.to/lastmile_qr_scan"}, "lon": -76.93299, "type": "electric_scooter", "fusion_lat": 0.0, "lat": 38.89898216666667, "name": "5c01fb8f4a8a52ad734336ec111eba96", "fusion_lon": 0.0, "bike_id": "5c01fb8f4a8a52ad734336ec111eba96", "is_disabled": 0, "is_reserved": 0}, {"rental_uris": {"ios": "https://dc.lft.to/lastmile_qr_scan", "android": "https://dc.lft.to/lastmile_qr_scan"}, "lon": -77.02755733333333, "type": "electric_scooter", "fusion_lat": 0.0, "lat": 38.92385633333333, "name": "8b91fd12d5d01d0bb9e58a2e3ee932be", "fusion_lon": 0.0, "bike_id": "8b91fd12d5d01d0bb9e58a2e3ee932be", "is_disabled": 0, "is_reserved": 0}, {"rental_uris": {"ios": "https://dc.lft.to/lastmile_qr_scan", "android": "https://dc.lft.to/lastmile_qr_scan"}, "lon": -77.09555866666666, "type": "electric_scooter", "fusion_lat": 0.0, "lat": 38.916584666666665, "name": "c453bcf3e7b16eed09e61490fcdda298", "fusion_lon": 0.0, "bike_id": "c453bcf3e7b16eed09e61490fcdda298", "is_disabled": 0, "is_reserved": 0}, {"rental_uris": {"ios": "https://dc.lft.to/lastmile_qr_scan", "android": "https://dc.lft.to/lastmile_qr_scan"}, "lon": -77.03043216666667, "type": "electric_scooter", "fusion_lat": 0.0, "lat": 38.922628, "name": "a941190f6b87ecb73fe2bd26ac3d30f5", "fusion_lon": 0.0, "bike_id": "a941190f6b87ecb73fe2bd26ac3d30f5", "is_disabled": 0, "is_reserved": 0}, {"rental_uris": {"ios": "https://dc.lft.to/lastmile_qr_scan", "android": "https://dc.lft.to/lastmile_qr_scan"}, "lon": -77.01785083333333, "type": "electric_scooter", "fusion_lat": 0.0, "lat": 38.9411165, "name": "154bba725381c3bd01973d6437603f7b", "fusion_lon": 0.0, "bike_id": "154bba725381c3bd01973d6437603f7b", "is_disabled": 0, "is_reserved": 0}, {"rental_uris": {"ios": "https://dc.lft.to/lastmile_qr_scan", "android": "https://dc.lft.to/lastmile_qr_scan"}, "lon": -77.0333315, "type": "electric_scooter", "fusion_lat": 0.0, "lat": 38.898501, "name": "55d157085b96ae6931d61d69102bc11e", "fusion_lon": 0.0, "bike_id": "55d157085b96ae6931d61d69102bc11e", "is_disabled": 0, "is_reserved": 0}, {"rental_uris": {"ios": "https://dc.lft.to/lastmile_qr_scan", "android": "https://dc.lft.to/lastmile_qr_scan"}, "lon": -77.06603816666667, "type": "electric_scooter", "fusion_lat": 0.0, "lat": 38.90526533333333, "name": "d590239938565c723122e0345fc64f52", "fusion_lon": 0.0, "bike_id": "d590239938565c723122e0345fc64f52", "is_disabled": 0, "is_reserved": 0}, {"rental_uris": {"ios": "https://dc.lft.to/lastmile_qr_scan", "android": "https://dc.lft.to/lastmile_qr_scan"}, "lon": -77.0326505, "type": "electric_scooter", "fusion_lat": 0.0, "lat": 38.944166333333335, "name": "86783bf3fc4a422ee37d76330015f4af", "fusion_lon": 0.0, "bike_id": "86783bf3fc4a422ee37d76330015f4af", "is_disabled": 0, "is_reserved": 0}, {"rental_uris": {"ios": "https://dc.lft.to/lastmile_qr_scan", "android": "https://dc.lft.to/lastmile_qr_scan"}, "lon": -77.04820566666666, "type": "electric_scooter", "fusion_lat": 0.0, "lat": 38.9164445, "name": "8769cd57ee00e3cd1f182d4326e7805f", "fusion_lon": 0.0, "bike_id": "8769cd57ee00e3cd1f182d4326e7805f", "is_disabled": 0, "is_reserved": 0}, {"rental_uris": {"ios": "https://dc.lft.to/lastmile_qr_scan", "android": "https://dc.lft.to/lastmile_qr_scan"}, "lon": -76.99778566666667, "type": "electric_scooter", "fusion_lat": 0.0, "lat": 38.844268666666665, "name": "f7f2b97f83c5f775d2bc2feba0d725cb", "fusion_lon": 0.0, "bike_id": "f7f2b97f83c5f775d2bc2feba0d725cb", "is_disabled": 0, "is_reserved": 0}, {"rental_uris": {"ios": "https://dc.lft.to/lastmile_qr_scan", "android": "https://dc.lft.to/lastmile_qr_scan"}, "lon": -77.04255466666666, "type": "electric_scooter", "fusion_lat": 0.0, "lat": 38.922041666666665, "name": "f962ab776781aa919da96689c74391cf", "fusion_lon": 0.0, "bike_id": "f962ab776781aa919da96689c74391cf", "is_disabled": 0, "is_reserved": 0}, {"rental_uris": {"ios": "https://dc.lft.to/lastmile_qr_scan", "android": "https://dc.lft.to/lastmile_qr_scan"}, "lon": -77.01282333333333, "type": "electric_scooter", "fusion_lat": 0.0, "lat": 38.90619316666667, "name": "5fdf6c7cc06d1ccc3d6289f3bd410e90", "fusion_lon": 0.0, "bike_id": "5fdf6c7cc06d1ccc3d6289f3bd410e90", "is_disabled": 0, "is_reserved": 0}, {"rental_uris": {"ios": "https://dc.lft.to/lastmile_qr_scan", "android": "https://dc.lft.to/lastmile_qr_scan"}, "lon": -77.03196616666666, "type": "electric_scooter", "fusion_lat": 0.0, "lat": 38.90762766666667, "name": "e470e9a6766eb789bb5f0853ef5e6885", "fusion_lon": 0.0, "bike_id": "e470e9a6766eb789bb5f0853ef5e6885", "is_disabled": 0, "is_reserved": 0}, {"rental_uris": {"ios": "https://dc.lft.to/lastmile_qr_scan", "android": "https://dc.lft.to/lastmile_qr_scan"}, "lon": -76.98840216666666, "type": "electric_bike", "fusion_lat": 0.0, "lat": 38.842794, "name": "09311265c0f5a99d606bec23976a9f94", "fusion_lon": 0.0, "bike_id": "09311265c0f5a99d606bec23976a9f94", "is_disabled": 0, "is_reserved": 0}, {"rental_uris": {"ios": "https://dc.lft.to/lastmile_qr_scan", "android": "https://dc.lft.to/lastmile_qr_scan"}, "lon": -77.01878616666667, "type": "electric_scooter", "fusion_lat": 0.0, "lat": 38.917450333333335, "name": "b6014391a4af67194d5f5a3770e64d84", "fusion_lon": 0.0, "bike_id": "b6014391a4af67194d5f5a3770e64d84", "is_disabled": 0, "is_reserved": 0}, {"rental_uris": {"ios": "https://dc.lft.to/lastmile_qr_scan", "android": "https://dc.lft.to/lastmile_qr_scan"}, "lon": -77.077778, "type": "electric_scooter", "fusion_lat": 0.0, "lat": 38.94564716666667, "name": "3536467b6ffeb75adb88262c53a1b03a", "fusion_lon": 0.0, "bike_id": "3536467b6ffeb75adb88262c53a1b03a", "is_disabled": 0, "is_reserved": 0}, {"rental_uris": {"ios": "https://dc.lft.to/lastmile_qr_scan", "android": "https://dc.lft.to/lastmile_qr_scan"}, "lon": -77.00558233333334, "type": "electric_scooter", "fusion_lat": 0.0, "lat": 38.879242166666664, "name": "b9c92dc5ffa8258ff565ad99a2401803", "fusion_lon": 0.0, "bike_id": "b9c92dc5ffa8258ff565ad99a2401803", "is_disabled": 0, "is_reserved": 0}, {"rental_uris": {"ios": "https://dc.lft.to/lastmile_qr_scan", "android": "https://dc.lft.to/lastmile_qr_scan"}, "lon": -77.032916, "type": "electric_scooter", "fusion_lat": 0.0, "lat": 38.9348875, "name": "8f8c920664528d12b21da803427ce30a", "fusion_lon": 0.0, "bike_id": "8f8c920664528d12b21da803427ce30a", "is_disabled": 0, "is_reserved": 0}, {"rental_uris": {"ios": "https://dc.lft.to/lastmile_qr_scan", "android": "https://dc.lft.to/lastmile_qr_scan"}, "lon": -77.00263683333333, "type": "electric_scooter", "fusion_lat": 0.0, "lat": 38.898961166666666, "name": "317b46bfa9097b4a51ac0e31941ab729", "fusion_lon": 0.0, "bike_id": "317b46bfa9097b4a51ac0e31941ab729", "is_disabled": 0, "is_reserved": 0}, {"rental_uris": {"ios": "https://dc.lft.to/lastmile_qr_scan", "android": "https://dc.lft.to/lastmile_qr_scan"}, "lon": -77.03787183333333, "type": "electric_scooter", "fusion_lat": 0.0, "lat": 38.92627183333333, "name": "0ca33f53af3bd0ed43b8b73cffc85709", "fusion_lon": 0.0, "bike_id": "0ca33f53af3bd0ed43b8b73cffc85709", "is_disabled": 0, "is_reserved": 0}, {"rental_uris": {"ios": "https://dc.lft.to/lastmile_qr_scan", "android": "https://dc.lft.to/lastmile_qr_scan"}, "lon": -77.01077216666667, "type": "electric_bike", "fusion_lat": 0.0, "lat": 38.95654866666667, "name": "276d3584670f36bee86ca25501b17f3d", "fusion_lon": 0.0, "bike_id": "276d3584670f36bee86ca25501b17f3d", "is_disabled": 0, "is_reserved": 0}, {"rental_uris": {"ios": "https://dc.lft.to/lastmile_qr_scan", "android": "https://dc.lft.to/lastmile_qr_scan"}, "lon": -76.99617883333333, "type": "electric_scooter", "fusion_lat": 0.0, "lat": 38.87735716666667, "name": "23da13be62fc67ff8a79cc9b8935f37b", "fusion_lon": 0.0, "bike_id": "23da13be62fc67ff8a79cc9b8935f37b", "is_disabled": 0, "is_reserved": 0}, {"rental_uris": {"ios": "https://dc.lft.to/lastmile_qr_scan", "android": "https://dc.lft.to/lastmile_qr_scan"}, "lon": -77.04835216666666, "type": "electric_scooter", "fusion_lat": 0.0, "lat": 38.9097505, "name": "2667a6db2697a10ed3a712a3a82edefc", "fusion_lon": 0.0, "bike_id": "2667a6db2697a10ed3a712a3a82edefc", "is_disabled": 0, "is_reserved": 0}, {"rental_uris": {"ios": "https://dc.lft.to/lastmile_qr_scan", "android": "https://dc.lft.to/lastmile_qr_scan"}, "lon": -77.03386, "type": "electric_scooter", "fusion_lat": 0.0, "lat": 38.90642183333333, "name": "deb5f0bf220b993892cbd5b3d5f5afc2", "fusion_lon": 0.0, "bike_id": "deb5f0bf220b993892cbd5b3d5f5afc2", "is_disabled": 0, "is_reserved": 0}, {"rental_uris": {"ios": "https://dc.lft.to/lastmile_qr_scan", "android": "https://dc.lft.to/lastmile_qr_scan"}, "lon": -76.98951966666667, "type": "electric_scooter", "fusion_lat": 0.0, "lat": 38.90138533333333, "name": "085e5b02798673dffd38f0acf3dfa9eb", "fusion_lon": 0.0, "bike_id": "085e5b02798673dffd38f0acf3dfa9eb", "is_disabled": 0, "is_reserved": 0}, {"rental_uris": {"ios": "https://dc.lft.to/lastmile_qr_scan", "android": "https://dc.lft.to/lastmile_qr_scan"}, "lon": -77.06889316666667, "type": "electric_scooter", "fusion_lat": 0.0, "lat": 38.94029116666667, "name": "03cd946fce4fbcf0b87db02101241949", "fusion_lon": 0.0, "bike_id": "03cd946fce4fbcf0b87db02101241949", "is_disabled": 0, "is_reserved": 0}, {"rental_uris": {"ios": "https://dc.lft.to/lastmile_qr_scan", "android": "https://dc.lft.to/lastmile_qr_scan"}, "lon": -77.016479, "type": "electric_scooter", "fusion_lat": 0.0, "lat": 38.903820833333334, "name": "d21f3c14d3a598c7cea67bbbc014508d", "fusion_lon": 0.0, "bike_id": "d21f3c14d3a598c7cea67bbbc014508d", "is_disabled": 0, "is_reserved": 0}, {"rental_uris": {"ios": "https://dc.lft.to/lastmile_qr_scan", "android": "https://dc.lft.to/lastmile_qr_scan"}, "lon": -77.070449, "type": "electric_bike", "fusion_lat": 0.0, "lat": 38.82451183333333, "name": "fa02820175336b3eb63f6b77ccbbe396", "fusion_lon": 0.0, "bike_id": "fa02820175336b3eb63f6b77ccbbe396", "is_disabled": 0, "is_reserved": 0}, {"rental_uris": {"ios": "https://dc.lft.to/lastmile_qr_scan", "android": "https://dc.lft.to/lastmile_qr_scan"}, "lon": -77.040603, "type": "electric_scooter", "fusion_lat": 0.0, "lat": 38.92649483333334, "name": "c9e26c8746fcf234e89e4421c33d8ae4", "fusion_lon": 0.0, "bike_id": "c9e26c8746fcf234e89e4421c33d8ae4", "is_disabled": 0, "is_reserved": 0}, {"rental_uris": {"ios": "https://dc.lft.to/lastmile_qr_scan", "android": "https://dc.lft.to/lastmile_qr_scan"}, "lon": -77.0093195, "type": "electric_scooter", "fusion_lat": 0.0, "lat": 38.871963666666666, "name": "e6ad511a8460ae99c27790bd60101ab2", "fusion_lon": 0.0, "bike_id": "e6ad511a8460ae99c27790bd60101ab2", "is_disabled": 0, "is_reserved": 0}, {"rental_uris": {"ios": "https://dc.lft.to/lastmile_qr_scan", "android": "https://dc.lft.to/lastmile_qr_scan"}, "lon": -77.00234783333333, "type": "electric_scooter", "fusion_lat": 0.0, "lat": 38.90837033333333, "name": "897bd7b197604e3481329b8a4f6ed860", "fusion_lon": 0.0, "bike_id": "897bd7b197604e3481329b8a4f6ed860", "is_disabled": 0, "is_reserved": 0}, {"rental_uris": {"ios": "https://dc.lft.to/lastmile_qr_scan", "android": "https://dc.lft.to/lastmile_qr_scan"}, "lon": -77.06366033333333, "type": "electric_scooter", "fusion_lat": 0.0, "lat": 38.90933033333334, "name": "83180b1484cfa89dc76c4e601e5d5eaa", "fusion_lon": 0.0, "bike_id": "83180b1484cfa89dc76c4e601e5d5eaa", "is_disabled": 0, "is_reserved": 0}, {"rental_uris": {"ios": "https://dc.lft.to/lastmile_qr_scan", "android": "https://dc.lft.to/lastmile_qr_scan"}, "lon": -77.04139016666667, "type": "electric_scooter", "fusion_lat": 0.0, "lat": 38.9220605, "name": "bce27fce255fa0dcac62ef860043ef6c", "fusion_lon": 0.0, "bike_id": "bce27fce255fa0dcac62ef860043ef6c", "is_disabled": 0, "is_reserved": 0}, {"rental_uris": {"ios": "https://dc.lft.to/lastmile_qr_scan", "android": "https://dc.lft.to/lastmile_qr_scan"}, "lon": -76.9994765, "type": "electric_scooter", "fusion_lat": 0.0, "lat": 38.84294516666667, "name": "bc37099218f11974479018a43455fdc3", "fusion_lon": 0.0, "bike_id": "bc37099218f11974479018a43455fdc3", "is_disabled": 0, "is_reserved": 0}, {"rental_uris": {"ios": "https://dc.lft.to/lastmile_qr_scan", "android": "https://dc.lft.to/lastmile_qr_scan"}, "lon": -77.0451325, "type": "electric_scooter", "fusion_lat": 0.0, "lat": 38.912956333333334, "name": "9d8fc11f9a9068e11cb629191b1df7f8", "fusion_lon": 0.0, "bike_id": "9d8fc11f9a9068e11cb629191b1df7f8", "is_disabled": 0, "is_reserved": 0}, {"rental_uris": {"ios": "https://dc.lft.to/lastmile_qr_scan", "android": "https://dc.lft.to/lastmile_qr_scan"}, "lon": -77.02366466666666, "type": "electric_bike", "fusion_lat": 0.0, "lat": 38.99447766666667, "name": "fdde4d78282d59170337ea259054f92b", "fusion_lon": 0.0, "bike_id": "fdde4d78282d59170337ea259054f92b", "is_disabled": 0, "is_reserved": 0}, {"rental_uris": {"ios": "https://dc.lft.to/lastmile_qr_scan", "android": "https://dc.lft.to/lastmile_qr_scan"}, "lon": -77.039942, "type": "electric_scooter", "fusion_lat": 0.0, "lat": 38.902815, "name": "6cec6d51077ff2b2dd64f798733ab03a", "fusion_lon": 0.0, "bike_id": "6cec6d51077ff2b2dd64f798733ab03a", "is_disabled": 0, "is_reserved": 0}, {"rental_uris": {"ios": "https://dc.lft.to/lastmile_qr_scan", "android": "https://dc.lft.to/lastmile_qr_scan"}, "lon": -77.04822633333333, "type": "electric_scooter", "fusion_lat": 0.0, "lat": 38.913365166666665, "name": "c531e6fddf60a3852c34ea68ef33ec99", "fusion_lon": 0.0, "bike_id": "c531e6fddf60a3852c34ea68ef33ec99", "is_disabled": 0, "is_reserved": 0}, {"rental_uris": {"ios": "https://dc.lft.to/lastmile_qr_scan", "android": "https://dc.lft.to/lastmile_qr_scan"}, "lon": -77.034733, "type": "electric_scooter", "fusion_lat": 0.0, "lat": 38.93042716666667, "name": "c24bfef7c1a7102a7a100936ce94fff8", "fusion_lon": 0.0, "bike_id": "c24bfef7c1a7102a7a100936ce94fff8", "is_disabled": 0, "is_reserved": 0}, {"rental_uris": {"ios": "https://dc.lft.to/lastmile_qr_scan", "android": "https://dc.lft.to/lastmile_qr_scan"}, "lon": -77.02159383333333, "type": "electric_scooter", "fusion_lat": 0.0, "lat": 38.897381, "name": "c2aee6b88d62a22af1e6d69ca8c07601", "fusion_lon": 0.0, "bike_id": "c2aee6b88d62a22af1e6d69ca8c07601", "is_disabled": 0, "is_reserved": 0}, {"rental_uris": {"ios": "https://dc.lft.to/lastmile_qr_scan", "android": "https://dc.lft.to/lastmile_qr_scan"}, "lon": -77.04552083333333, "type": "electric_scooter", "fusion_lat": 0.0, "lat": 38.903879333333336, "name": "4572f0fe859edd276ef02fed417c635a", "fusion_lon": 0.0, "bike_id": "4572f0fe859edd276ef02fed417c635a", "is_disabled": 0, "is_reserved": 0}, {"rental_uris": {"ios": "https://dc.lft.to/lastmile_qr_scan", "android": "https://dc.lft.to/lastmile_qr_scan"}, "lon": -77.00575916666666, "type": "electric_scooter", "fusion_lat": 0.0, "lat": 38.90341316666667, "name": "2785bb33b76732a23c1eec2e465a5ffc", "fusion_lon": 0.0, "bike_id": "2785bb33b76732a23c1eec2e465a5ffc", "is_disabled": 0, "is_reserved": 0}, {"rental_uris": {"ios": "https://dc.lft.to/lastmile_qr_scan", "android": "https://dc.lft.to/lastmile_qr_scan"}, "lon": -77.02694716666667, "type": "electric_scooter", "fusion_lat": 0.0, "lat": 38.925973666666664, "name": "872d67f9c3fffc535cd2c5b70f0b9f32", "fusion_lon": 0.0, "bike_id": "872d67f9c3fffc535cd2c5b70f0b9f32", "is_disabled": 0, "is_reserved": 0}, {"rental_uris": {"ios": "https://dc.lft.to/lastmile_qr_scan", "android": "https://dc.lft.to/lastmile_qr_scan"}, "lon": -77.028338, "type": "electric_scooter", "fusion_lat": 0.0, "lat": 38.93193216666667, "name": "7c2e35405366a06814839f598169dbf8", "fusion_lon": 0.0, "bike_id": "7c2e35405366a06814839f598169dbf8", "is_disabled": 0, "is_reserved": 0}, {"rental_uris": {"ios": "https://dc.lft.to/lastmile_qr_scan", "android": "https://dc.lft.to/lastmile_qr_scan"}, "lon": -77.02472583333333, "type": "electric_scooter", "fusion_lat": 0.0, "lat": 38.93099633333333, "name": "b90a04798f0280be54f8f74d267c5df4", "fusion_lon": 0.0, "bike_id": "b90a04798f0280be54f8f74d267c5df4", "is_disabled": 0, "is_reserved": 0}, {"rental_uris": {"ios": "https://dc.lft.to/lastmile_qr_scan", "android": "https://dc.lft.to/lastmile_qr_scan"}, "lon": -77.01125766666667, "type": "electric_scooter", "fusion_lat": 0.0, "lat": 38.895366833333334, "name": "3cd86bccfa5be9f89ad170adbafc541a", "fusion_lon": 0.0, "bike_id": "3cd86bccfa5be9f89ad170adbafc541a", "is_disabled": 0, "is_reserved": 0}, {"rental_uris": {"ios": "https://dc.lft.to/lastmile_qr_scan", "android": "https://dc.lft.to/lastmile_qr_scan"}, "lon": -76.9606035, "type": "electric_bike", "fusion_lat": 0.0, "lat": 38.884058333333336, "name": "7ad2bb9498accf25ef95abf6af668274", "fusion_lon": 0.0, "bike_id": "7ad2bb9498accf25ef95abf6af668274", "is_disabled": 0, "is_reserved": 0}, {"rental_uris": {"ios": "https://dc.lft.to/lastmile_qr_scan", "android": "https://dc.lft.to/lastmile_qr_scan"}, "lon": -76.90817816666667, "type": "electric_bike", "fusion_lat": 0.0, "lat": 38.994573333333335, "name": "850767c18e0b29d67109adec06cd9451", "fusion_lon": 0.0, "bike_id": "850767c18e0b29d67109adec06cd9451", "is_disabled": 0, "is_reserved": 0}, {"rental_uris": {"ios": "https://dc.lft.to/lastmile_qr_scan", "android": "https://dc.lft.to/lastmile_qr_scan"}, "lon": -76.9893805, "type": "electric_bike", "fusion_lat": 0.0, "lat": 38.928639, "name": "d3483d926c54ad48ed5054e7e1d634da", "fusion_lon": 0.0, "bike_id": "d3483d926c54ad48ed5054e7e1d634da", "is_disabled": 0, "is_reserved": 0}, {"rental_uris": {"ios": "https://dc.lft.to/lastmile_qr_scan", "android": "https://dc.lft.to/lastmile_qr_scan"}, "lon": -77.08194, "type": "electric_scooter", "fusion_lat": 0.0, "lat": 38.949288333333335, "name": "d6b76da31aecd118a1f50900a8be6f7c", "fusion_lon": 0.0, "bike_id": "d6b76da31aecd118a1f50900a8be6f7c", "is_disabled": 0, "is_reserved": 0}, {"rental_uris": {"ios": "https://dc.lft.to/lastmile_qr_scan", "android": "https://dc.lft.to/lastmile_qr_scan"}, "lon": -77.0367015, "type": "electric_scooter", "fusion_lat": 0.0, "lat": 38.917103833333336, "name": "6232101ee2b02abd531496b023830ab4", "fusion_lon": 0.0, "bike_id": "6232101ee2b02abd531496b023830ab4", "is_disabled": 0, "is_reserved": 0}, {"rental_uris": {"ios": "https://dc.lft.to/lastmile_qr_scan", "android": "https://dc.lft.to/lastmile_qr_scan"}, "lon": -77.03410966666667, "type": "electric_scooter", "fusion_lat": 0.0, "lat": 38.935451666666665, "name": "8ff13f52b2cb06a8eaaa8721e8093670", "fusion_lon": 0.0, "bike_id": "8ff13f52b2cb06a8eaaa8721e8093670", "is_disabled": 0, "is_reserved": 0}, {"rental_uris": {"ios": "https://dc.lft.to/lastmile_qr_scan", "android": "https://dc.lft.to/lastmile_qr_scan"}, "lon": -77.02716666666667, "type": "electric_scooter", "fusion_lat": 0.0, "lat": 38.924675, "name": "b3170c2dce748f5548a76da38df82464", "fusion_lon": 0.0, "bike_id": "b3170c2dce748f5548a76da38df82464", "is_disabled": 0, "is_reserved": 0}, {"rental_uris": {"ios": "https://dc.lft.to/lastmile_qr_scan", "android": "https://dc.lft.to/lastmile_qr_scan"}, "lon": -77.02982366666667, "type": "electric_scooter", "fusion_lat": 0.0, "lat": 38.90531566666667, "name": "94c5b654528965e2a1ca17288574e933", "fusion_lon": 0.0, "bike_id": "94c5b654528965e2a1ca17288574e933", "is_disabled": 0, "is_reserved": 0}, {"rental_uris": {"ios": "https://dc.lft.to/lastmile_qr_scan", "android": "https://dc.lft.to/lastmile_qr_scan"}, "lon": -77.05621866666667, "type": "electric_bike", "fusion_lat": 0.0, "lat": 38.92426183333333, "name": "b1bf6c65f03d40a980c8262a385bc2c1", "fusion_lon": 0.0, "bike_id": "b1bf6c65f03d40a980c8262a385bc2c1", "is_disabled": 0, "is_reserved": 0}, {"rental_uris": {"ios": "https://dc.lft.to/lastmile_qr_scan", "android": "https://dc.lft.to/lastmile_qr_scan"},