{"data": {"bikes": [{"is_disabled": 0, "type": "electric_scooter", "fusion_lon": 0.0, "is_reserved": 0, "fusion_lat": 0.0, "lon": -77.0207005, "rental_uris": {"ios": "https://dc.lft.to/lastmile_qr_scan", "android": "https://dc.lft.to/lastmile_qr_scan"}, "bike_id": "208e636ba071e64814cb826df61edec4", "lat": 38.92285183333333, "name": "208e636ba071e64814cb826df61edec4"}, {"is_disabled": 0, "type": "electric_scooter", "fusion_lon": 0.0, "is_reserved": 0, "fusion_lat": 0.0, "lon": -77.03790783333334, "rental_uris": {"ios": "https://dc.lft.to/lastmile_qr_scan", "android": "https://dc.lft.to/lastmile_qr_scan"}, "bike_id": "0b639f359a8249b89517c53162398915", "lat": 38.919813166666664, "name": "0b639f359a8249b89517c53162398915"}, {"is_disabled": 0, "type": "electric_bike", "fusion_lon": 0.0, "is_reserved": 0, "fusion_lat": 0.0, "lon": -76.98351916666667, "rental_uris": {"ios": "https://dc.lft.to/lastmile_qr_scan", "android": "https://dc.lft.to/lastmile_qr_scan"}, "bike_id": "4982da1b6b324bc1fb8ad8ea0da7d3a8", "lat": 38.862612166666665, "name": "4982da1b6b324bc1fb8ad8ea0da7d3a8"}, {"is_disabled": 0, "type": "electric_scooter", "fusion_lon": 0.0, "is_reserved": 0, "fusion_lat": 0.0, "lon": -77.022151, "rental_uris": {"ios": "https://dc.lft.to/lastmile_qr_scan", "android": "https://dc.lft.to/lastmile_qr_scan"}, "bike_id": "afb96556b09b4b5f56e347ead2e6cf3a", "lat": 38.92470633333333, "name": "afb96556b09b4b5f56e347ead2e6cf3a"}, {"is_disabled": 0, "type": "electric_scooter", "fusion_lon": 0.0, "is_reserved": 0, "fusion_lat": 0.0, "lon": -76.939776, "rental_uris": {"ios": "https://dc.lft.to/lastmile_qr_scan", "android": "https://dc.lft.to/lastmile_qr_scan"}, "bike_id": "a9d413f012c846e4089958bb337198a7", "lat": 38.89969416666667, "name": "a9d413f012c846e4089958bb337198a7"}, {"is_disabled": 0, "type": "electric_scooter", "fusion_lon": 0.0, "is_reserved": 0, "fusion_lat": 0.0, "lon": -77.02412866666667, "rental_uris": {"ios": "https://dc.lft.to/lastmile_qr_scan", "android": "https://dc.lft.to/lastmile_qr_scan"}, "bike_id": "823ba58a3cc9e68254a061f43cffc8ef", "lat": 38.89219216666667, "name": "823ba58a3cc9e68254a061f43cffc8ef"}, {"is_disabled": 0, "type": "electric_scooter", "fusion_lon": 0.0, "is_reserved": 0, "fusion_lat": 0.0, "lon": -77.024301, "rental_uris": {"ios": "https://dc.lft.to/lastmile_qr_scan", "android": "https://dc.lft.to/lastmile_qr_scan"}, "bike_id": "25e364bfb68585584583dc6f37fb36af", "lat": 38.91806316666667, "name": "25e364bfb68585584583dc6f37fb36af"}, {"is_disabled": 0, "type": "electric_scooter", "fusion_lon": 0.0, "is_reserved": 0, "fusion_lat": 0.0, "lon": -77.01506066666667, "rental_uris": {"ios": "https://dc.lft.to/lastmile_qr_scan", "android": "https://dc.lft.to/lastmile_qr_scan"}, "bike_id": "c61550ee2abf5e9187b03fb71dc58e64", "lat": 38.92676683333333, "name": "c61550ee2abf5e9187b03fb71dc58e64"}, {"is_disabled": 0, "type": "electric_bike", "fusion_lon": 0.0, "is_reserved": 0, "fusion_lat": 0.0, "lon": -77.12935, "rental_uris": {"ios": "https://dc.lft.to/lastmile_qr_scan", "android": "https://dc.lft.to/lastmile_qr_scan"}, "bike_id": "8e4b0ea0e50433d2231496b98dcc55b3", "lat": 38.86593, "name": "8e4b0ea0e50433d2231496b98dcc55b3"}, {"is_disabled": 0, "type": "electric_scooter", "fusion_lon": 0.0, "is_reserved": 0, "fusion_lat": 0.0, "lon": -77.02012966666666, "rental_uris": {"ios": "https://dc.lft.to/lastmile_qr_scan", "android": "https://dc.lft.to/lastmile_qr_scan"}, "bike_id": "73c03c45745e47b22a0e581db09f7efb", "lat": 38.89861466666667, "name": "73c03c45745e47b22a0e581db09f7efb"}, {"is_disabled": 0, "type": "electric_scooter", "fusion_lon": 0.0, "is_reserved": 0, "fusion_lat": 0.0, "lon": -76.98614716666667, "rental_uris": {"ios": "https://dc.lft.to/lastmile_qr_scan", "android": "https://dc.lft.to/lastmile_qr_scan"}, "bike_id": "5aaae6ce50557a6b3cc10f7d3f6a8d78", "lat": 38.9034835, "name": "5aaae6ce50557a6b3cc10f7d3f6a8d78"}, {"is_disabled": 0, "type": "electric_scooter", "fusion_lon": 0.0, "is_reserved": 0, "fusion_lat": 0.0, "lon": -76.97718516666667, "rental_uris": {"ios": "https://dc.lft.to/lastmile_qr_scan", "android": "https://dc.lft.to/lastmile_qr_scan"}, "bike_id": "cb95bc6e96dc3527387b1f6cb1c582aa", "lat": 38.888196666666666, "name": "cb95bc6e96dc3527387b1f6cb1c582aa"}, {"is_disabled": 0, "type": "electric_scooter", "fusion_lon": 0.0, "is_reserved": 0, "fusion_lat": 0.0, "lon": -77.00865283333333, "rental_uris": {"ios": "https://dc.lft.to/lastmile_qr_scan", "android": "https://dc.lft.to/lastmile_qr_scan"}, "bike_id": "00a4ad0cbe5313307214c1306d6b93bc", "lat": 38.89744966666667, "name": "00a4ad0cbe5313307214c1306d6b93bc"}, {"is_disabled": 0, "type": "electric_scooter", "fusion_lon": 0.0, "is_reserved": 0, "fusion_lat": 0.0, "lon": -77.02136866666666, "rental_uris": {"ios": "https://dc.lft.to/lastmile_qr_scan", "android": "https://dc.lft.to/lastmile_qr_scan"}, "bike_id": "2e19f58dea2887c175929bb7e8c48fee", "lat": 38.92490216666667, "name": "2e19f58dea2887c175929bb7e8c48fee"}, {"is_disabled": 0, "type": "electric_scooter", "fusion_lon": 0.0, "is_reserved": 0, "fusion_lat": 0.0, "lon": -77.00580483333333, "rental_uris": {"ios": "https://dc.lft.to/lastmile_qr_scan", "android": "https://dc.lft.to/lastmile_qr_scan"}, "bike_id": "ee68845ec1a789a6bb4dddd03e756cbb", "lat": 38.87637216666667, "name": "ee68845ec1a789a6bb4dddd03e756cbb"}, {"is_disabled": 0, "type": "electric_scooter", "fusion_lon": 0.0, "is_reserved": 0, "fusion_lat": 0.0, "lon": -77.06348483333333, "rental_uris": {"ios": "https://dc.lft.to/lastmile_qr_scan", "android": "https://dc.lft.to/lastmile_qr_scan"}, "bike_id": "7d72321fef5916d22951c6997eb5a55e", "lat": 38.944465, "name": "7d72321fef5916d22951c6997eb5a55e"}, {"is_disabled": 0, "type": "electric_scooter", "fusion_lon": 0.0, "is_reserved": 0, "fusion_lat": 0.0, "lon": -76.992781, "rental_uris": {"ios": "https://dc.lft.to/lastmile_qr_scan", "android": "https://dc.lft.to/lastmile_qr_scan"}, "bike_id": "9257a8b9198857444306b4c800c8f467", "lat": 38.9032015, "name": "9257a8b9198857444306b4c800c8f467"}, {"is_disabled": 0, "type": "electric_scooter", "fusion_lon": 0.0, "is_reserved": 0, "fusion_lat": 0.0, "lon": -77.01515316666666, "rental_uris": {"ios": "https://dc.lft.to/lastmile_qr_scan", "android": "https://dc.lft.to/lastmile_qr_scan"}, "bike_id": "03925be65397036d49c98eb6fc602d86", "lat": 38.8727695, "name": "03925be65397036d49c98eb6fc602d86"}, {"is_disabled": 0, "type": "electric_scooter", "fusion_lon": 0.0, "is_reserved": 0, "fusion_lat": 0.0, "lon": -77.071537, "rental_uris": {"ios": "https://dc.lft.to/lastmile_qr_scan", "android": "https://dc.lft.to/lastmile_qr_scan"}, "bike_id": "1200176e93c8a08bab1f8344b072787c", "lat": 38.908739833333335, "name": "1200176e93c8a08bab1f8344b072787c"}, {"is_disabled": 0, "type": "electric_scooter", "fusion_lon": 0.0, "is_reserved": 0, "fusion_lat": 0.0, "lon": -76.9923575, "rental_uris": {"ios": "https://dc.lft.to/lastmile_qr_scan", "android": "https://dc.lft.to/lastmile_qr_scan"}, "bike_id": "a2c42c7d56c22b9e845a6df9462597d4", "lat": 38.902076666666666, "name": "a2c42c7d56c22b9e845a6df9462597d4"}, {"is_disabled": 0, "type": "electric_scooter", "fusion_lon": 0.0, "is_reserved": 0, "fusion_lat": 0.0, "lon": -77.04243333333334, "rental_uris": {"ios": "https://dc.lft.to/lastmile_qr_scan", "android": "https://dc.lft.to/lastmile_qr_scan"}, "bike_id": "3c2c696e7f6367174322881b291db0eb", "lat": 38.92060933333333, "name": "3c2c696e7f6367174322881b291db0eb"}, {"is_disabled": 0, "type": "electric_scooter", "fusion_lon": 0.0, "is_reserved": 0, "fusion_lat": 0.0, "lon": -77.04611833333334, "rental_uris": {"ios": "https://dc.lft.to/lastmile_qr_scan", "android": "https://dc.lft.to/lastmile_qr_scan"}, "bike_id": "3c2fb6dd0b90a853971a53a9e8bb1035", "lat": 38.8980385, "name": "3c2fb6dd0b90a853971a53a9e8bb1035"}, {"is_disabled": 0, "type": "electric_scooter", "fusion_lon": 0.0, "is_reserved": 0, "fusion_lat": 0.0, "lon": -76.94884966666666, "rental_uris": {"ios": "https://dc.lft.to/lastmile_qr_scan", "android": "https://dc.lft.to/lastmile_qr_scan"}, "bike_id": "0e456cb01489a1b6dd566d9b8b38f5ad", "lat": 38.89509916666667, "name": "0e456cb01489a1b6dd566d9b8b38f5ad"}, {"is_disabled": 0, "type": "electric_bike", "fusion_lon": 0.0, "is_reserved": 0, "fusion_lat": 0.0, "lon": -77.0968675, "rental_uris": {"ios": "https://dc.lft.to/lastmile_qr_scan", "android": "https://dc.lft.to/lastmile_qr_scan"}, "bike_id": "f4369e800c6d7344011a8c337b05a2d2", "lat": 38.807356166666665, "name": "f4369e800c6d7344011a8c337b05a2d2"}, {"is_disabled": 0, "type": "electric_scooter", "fusion_lon": 0.0, "is_reserved": 0, "fusion_lat": 0.0, "lon": -77.0325595, "rental_uris": {"ios": "https://dc.lft.to/lastmile_qr_scan", "android": "https://dc.lft.to/lastmile_qr_scan"}, "bike_id": "6254e9cca85b4bdf86f170102359fd9e", "lat": 38.92103866666667, "name": "6254e9cca85b4bdf86f170102359fd9e"}, {"is_disabled": 0, "type": "electric_scooter", "fusion_lon": 0.0, "is_reserved": 0, "fusion_lat": 0.0, "lon": -77.02587683333333, "rental_uris": {"ios": "https://dc.lft.to/lastmile_qr_scan", "android": "https://dc.lft.to/lastmile_qr_scan"}, "bike_id": "16dab2eb9fe94af6782cc17eaa982987", "lat": 38.963951, "name": "16dab2eb9fe94af6782cc17eaa982987"}, {"is_disabled": 0, "type": "electric_scooter", "fusion_lon": 0.0, "is_reserved": 0, "fusion_lat": 0.0, "lon": -77.0212855, "rental_uris": {"ios": "https://dc.lft.to/lastmile_qr_scan", "android": "https://dc.lft.to/lastmile_qr_scan"}, "bike_id": "23e35e04b97a9b1f4c2ab0de5c7b5e31", "lat": 38.9211645, "name": "23e35e04b97a9b1f4c2ab0de5c7b5e31"}, {"is_disabled": 0, "type": "electric_bike", "fusion_lon": 0.0, "is_reserved": 0, "fusion_lat": 0.0, "lon": -77.2338935, "rental_uris": {"ios": "https://dc.lft.to/lastmile_qr_scan", "android": "https://dc.lft.to/lastmile_qr_scan"}, "bike_id": "521ce8169d90ac1d8d8268fedb81847a", "lat": 38.87170666666667, "name": "521ce8169d90ac1d8d8268fedb81847a"}, {"is_disabled": 0, "type": "electric_scooter", "fusion_lon": 0.0, "is_reserved": 0, "fusion_lat": 0.0, "lon": -77.00610166666667, "rental_uris": {"ios": "https://dc.lft.to/lastmile_qr_scan", "android": "https://dc.lft.to/lastmile_qr_scan"}, "bike_id": "62680e2e2a1d55c85a7419f27864b739", "lat": 38.90576733333333, "name": "62680e2e2a1d55c85a7419f27864b739"}, {"is_disabled": 0, "type": "electric_scooter", "fusion_lon": 0.0, "is_reserved": 0, "fusion_lat": 0.0, "lon": -77.03237933333334, "rental_uris": {"ios": "https://dc.lft.to/lastmile_qr_scan", "android": "https://dc.lft.to/lastmile_qr_scan"}, "bike_id": "e56314a6c76bb4295267fc553051012e", "lat": 38.912764, "name": "e56314a6c76bb4295267fc553051012e"}, {"is_disabled": 0, "type": "electric_scooter", "fusion_lon": 0.0, "is_reserved": 0, "fusion_lat": 0.0, "lon": -77.04230166666666, "rental_uris": {"ios": "https://dc.lft.to/lastmile_qr_scan", "android": "https://dc.lft.to/lastmile_qr_scan"}, "bike_id": "529d744b75a199d6deb136670922aaa6", "lat": 38.92158233333333, "name": "529d744b75a199d6deb136670922aaa6"}, {"is_disabled": 0, "type": "electric_bike", "fusion_lon": 0.0, "is_reserved": 0, "fusion_lat": 0.0, "lon": -77.103442, "rental_uris": {"ios": "https://dc.lft.to/lastmile_qr_scan", "android": "https://dc.lft.to/lastmile_qr_scan"}, "bike_id": "3920c4d46f4fbd8d82b13ad8ed1fd725", "lat": 38.836918833333335, "name": "3920c4d46f4fbd8d82b13ad8ed1fd725"}, {"is_disabled": 0, "type": "electric_scooter", "fusion_lon": 0.0, "is_reserved": 0, "fusion_lat": 0.0, "lon": -77.01705016666666, "rental_uris": {"ios": "https://dc.lft.to/lastmile_qr_scan", "android": "https://dc.lft.to/lastmile_qr_scan"}, "bike_id": "426fc7454da93c551b9bc9441ca068f3", "lat": 38.887485833333336, "name": "426fc7454da93c551b9bc9441ca068f3"}, {"is_disabled": 0, "type": "electric_scooter", "fusion_lon": 0.0, "is_reserved": 0, "fusion_lat": 0.0, "lon": -77.0221875, "rental_uris": {"ios": "https://dc.lft.to/lastmile_qr_scan", "android": "https://dc.lft.to/lastmile_qr_scan"}, "bike_id": "e6bc39678836c37e5bac1ed8a40bea8a", "lat": 38.924743666666664, "name": "e6bc39678836c37e5bac1ed8a40bea8a"}, {"is_disabled": 0, "type": "electric_scooter", "fusion_lon": 0.0, "is_reserved": 0, "fusion_lat": 0.0, "lon": -77.019695, "rental_uris": {"ios": "https://dc.lft.to/lastmile_qr_scan", "android": "https://dc.lft.to/lastmile_qr_scan"}, "bike_id": "e13eb357acb0af294b22ce2a9c102b2b", "lat": 38.9225565, "name": "e13eb357acb0af294b22ce2a9c102b2b"}, {"is_disabled": 0, "type": "electric_scooter", "fusion_lon": 0.0, "is_reserved": 0, "fusion_lat": 0.0, "lon": -77.00576233333334, "rental_uris": {"ios": "https://dc.lft.to/lastmile_qr_scan", "android": "https://dc.lft.to/lastmile_qr_scan"}, "bike_id": "67ae6cfd499d953a71d276242e65b007", "lat": 38.875169666666665, "name": "67ae6cfd499d953a71d276242e65b007"}, {"is_disabled": 0, "type": "electric_scooter", "fusion_lon": 0.0, "is_reserved": 0, "fusion_lat": 0.0, "lon": -77.00926933333334, "rental_uris": {"ios": "https://dc.lft.to/lastmile_qr_scan", "android": "https://dc.lft.to/lastmile_qr_scan"}, "bike_id": "fc6a5f0721bea5fb4f7e7d0fc5fc0614", "lat": 38.89605316666667, "name": "fc6a5f0721bea5fb4f7e7d0fc5fc0614"}, {"is_disabled": 0, "type": "electric_scooter", "fusion_lon": 0.0, "is_reserved": 0, "fusion_lat": 0.0, "lon": -77.00342533333334, "rental_uris": {"ios": "https://dc.lft.to/lastmile_qr_scan", "android": "https://dc.lft.to/lastmile_qr_scan"}, "bike_id": "f74184ff170ffa8f460bd90090bf2a5e", "lat": 38.87665616666666, "name": "f74184ff170ffa8f460bd90090bf2a5e"}, {"is_disabled": 0, "type": "electric_scooter", "fusion_lon": 0.0, "is_reserved": 0, "fusion_lat": 0.0, "lon": -77.01750083333333, "rental_uris": {"ios": "https://dc.lft.to/lastmile_qr_scan", "android": "https://dc.lft.to/lastmile_qr_scan"}, "bike_id": "9f0eacc17f85cd478ff4a792d3f92006", "lat": 38.913229666666666, "name": "9f0eacc17f85cd478ff4a792d3f92006"}, {"is_disabled": 0, "type": "electric_scooter", "fusion_lon": 0.0, "is_reserved": 0, "fusion_lat": 0.0, "lon": -76.9916705, "rental_uris": {"ios": "https://dc.lft.to/lastmile_qr_scan", "android": "https://dc.lft.to/lastmile_qr_scan"}, "bike_id": "45fdeccf44031bf7ea2b045401513e26", "lat": 38.873394, "name": "45fdeccf44031bf7ea2b045401513e26"}, {"is_disabled": 0, "type": "electric_scooter", "fusion_lon": 0.0, "is_reserved": 0, "fusion_lat": 0.0, "lon": -77.02514733333334, "rental_uris": {"ios": "https://dc.lft.to/lastmile_qr_scan", "android": "https://dc.lft.to/lastmile_qr_scan"}, "bike_id": "dd5d2e645af782d57ce2c426f3b7dd28", "lat": 38.919228833333335, "name": "dd5d2e645af782d57ce2c426f3b7dd28"}, {"is_disabled": 0, "type": "electric_scooter", "fusion_lon": 0.0, "is_reserved": 0, "fusion_lat": 0.0, "lon": -77.02009433333333, "rental_uris": {"ios": "https://dc.lft.to/lastmile_qr_scan", "android": "https://dc.lft.to/lastmile_qr_scan"}, "bike_id": "f4883c015e9b1621ae9720ba56c228cd", "lat": 38.924192833333336, "name": "f4883c015e9b1621ae9720ba56c228cd"}, {"is_disabled": 0, "type": "electric_scooter", "fusion_lon": 0.0, "is_reserved": 0, "fusion_lat": 0.0, "lon": -77.04656583333333, "rental_uris": {"ios": "https://dc.lft.to/lastmile_qr_scan", "android": "https://dc.lft.to/lastmile_qr_scan"}, "bike_id": "79b4b8db879a290701931afe42ce206c", "lat": 38.899901666666665, "name": "79b4b8db879a290701931afe42ce206c"}, {"is_disabled": 0, "type": "electric_scooter", "fusion_lon": 0.0, "is_reserved": 0, "fusion_lat": 0.0, "lon": -77.04669066666666, "rental_uris": {"ios": "https://dc.lft.to/lastmile_qr_scan", "android": "https://dc.lft.to/lastmile_qr_scan"}, "bike_id": "3f44bea5643b15a860027185b967a4e9", "lat": 38.89843116666667, "name": "3f44bea5643b15a860027185b967a4e9"}, {"is_disabled": 0, "type": "electric_scooter", "fusion_lon": 0.0, "is_reserved": 0, "fusion_lat": 0.0, "lon": -76.97830183333333, "rental_uris": {"ios": "https://dc.lft.to/lastmile_qr_scan", "android": "https://dc.lft.to/lastmile_qr_scan"}, "bike_id": "b6dc48380f55e9ab06d39385f1771798", "lat": 38.887663833333335, "name": "b6dc48380f55e9ab06d39385f1771798"}, {"is_disabled": 0, "type": "electric_scooter", "fusion_lon": 0.0, "is_reserved": 0, "fusion_lat": 0.0, "lon": -77.03768316666667, "rental_uris": {"ios": "https://dc.lft.to/lastmile_qr_scan", "android": "https://dc.lft.to/lastmile_qr_scan"}, "bike_id": "70ba6308f83181039e17729edbc38c8b", "lat": 38.91690083333334, "name": "70ba6308f83181039e17729edbc38c8b"}, {"is_disabled": 0, "type": "electric_scooter", "fusion_lon": 0.0, "is_reserved": 0, "fusion_lat": 0.0, "lon": -77.027941, "rental_uris": {"ios": "https://dc.lft.to/lastmile_qr_scan", "android": "https://dc.lft.to/lastmile_qr_scan"}, "bike_id": "77b5b29ef2537c2953ebe12ae0598f74", "lat": 38.92677366666667, "name": "77b5b29ef2537c2953ebe12ae0598f74"}, {"is_disabled": 0, "type": "electric_scooter", "fusion_lon": 0.0, "is_reserved": 0, "fusion_lat": 0.0, "lon": -77.0160615, "rental_uris": {"ios": "https://dc.lft.to/lastmile_qr_scan", "android": "https://dc.lft.to/lastmile_qr_scan"}, "bike_id": "6f618dac5a9489f257bb07493ba2f5eb", "lat": 38.88340733333333, "name": "6f618dac5a9489f257bb07493ba2f5eb"}, {"is_disabled": 0, "type": "electric_scooter", "fusion_lon": 0.0, "is_reserved": 0, "fusion_lat": 0.0, "lon": -77.04166333333333, "rental_uris": {"ios": "https://dc.lft.to/lastmile_qr_scan", "android": "https://dc.lft.to/lastmile_qr_scan"}, "bike_id": "8847356d0a7aac5d4f8d7f9d5302c7f3", "lat": 38.899258833333334, "name": "8847356d0a7aac5d4f8d7f9d5302c7f3"}, {"is_disabled": 0, "type": "electric_scooter", "fusion_lon": 0.0, "is_reserved": 0, "fusion_lat": 0.0, "lon": -77.04741033333333, "rental_uris": {"ios": "https://dc.lft.to/lastmile_qr_scan", "android": "https://dc.lft.to/lastmile_qr_scan"}, "bike_id": "6f0f2ca6902a449e4a955a6484c1d5c7", "lat": 38.901856333333335, "name": "6f0f2ca6902a449e4a955a6484c1d5c7"}, {"is_disabled": 0, "type": "electric_scooter", "fusion_lon": 0.0, "is_reserved": 0, "fusion_lat": 0.0, "lon": -76.97817233333333, "rental_uris": {"ios": "https://dc.lft.to/lastmile_qr_scan", "android": "https://dc.lft.to/lastmile_qr_scan"}, "bike_id": "356fe34107e19cecf8dcdd596fc8c386", "lat": 38.8939555, "name": "356fe34107e19cecf8dcdd596fc8c386"}, {"is_disabled": 0, "type": "electric_bike", "fusion_lon": 0.0, "is_reserved": 0, "fusion_lat": 0.0, "lon": -77.07658616666667, "rental_uris": {"ios": "https://dc.lft.to/lastmile_qr_scan", "android": "https://dc.lft.to/lastmile_qr_scan"}, "bike_id": "3c82b18f9e5901dfd94adc211403522f", "lat": 38.80976283333333, "name": "3c82b18f9e5901dfd94adc211403522f"}, {"is_disabled": 0, "type": "electric_scooter", "fusion_lon": 0.0, "is_reserved": 0, "fusion_lat": 0.0, "lon": -77.02142233333333, "rental_uris": {"ios": "https://dc.lft.to/lastmile_qr_scan", "android": "https://dc.lft.to/lastmile_qr_scan"}, "bike_id": "8f50933fb13ee776b750fdf549dc6b83", "lat": 38.924140333333334, "name": "8f50933fb13ee776b750fdf549dc6b83"}, {"is_disabled": 0, "type": "electric_scooter", "fusion_lon": 0.0, "is_reserved": 0, "fusion_lat": 0.0, "lon": -77.041766, "rental_uris": {"ios": "https://dc.lft.to/lastmile_qr_scan", "android": "https://dc.lft.to/lastmile_qr_scan"}, "bike_id": "853c0f365f01914949ee0e5a3028fa34", "lat": 38.89832666666667, "name": "853c0f365f01914949ee0e5a3028fa34"}, {"is_disabled": 0, "type": "electric_scooter", "fusion_lon": 0.0, "is_reserved": 0, "fusion_lat": 0.0, "lon": -76.98622216666666, "rental_uris": {"ios": "https://dc.lft.to/lastmile_qr_scan", "android": "https://dc.lft.to/lastmile_qr_scan"}, "bike_id": "839a849bfa721966f7614ac5779f6e3e", "lat": 38.905883333333335, "name": "839a849bfa721966f7614ac5779f6e3e"}, {"is_disabled": 0, "type": "electric_scooter", "fusion_lon": 0.0, "is_reserved": 0, "fusion_lat": 0.0, "lon": -77.054252, "rental_uris": {"ios": "https://dc.lft.to/lastmile_qr_scan", "android": "https://dc.lft.to/lastmile_qr_scan"}, "bike_id": "87dec76b1a926460da76f593556f78f8", "lat": 38.98522216666667, "name": "87dec76b1a926460da76f593556f78f8"}, {"is_disabled": 0, "type": "electric_scooter", "fusion_lon": 0.0, "is_reserved": 0, "fusion_lat": 0.0, "lon": -76.93731483333333, "rental_uris": {"ios": "https://dc.lft.to/lastmile_qr_scan", "android": "https://dc.lft.to/lastmile_qr_scan"}, "bike_id": "f437107b482a8414a65869640a54e3c4", "lat": 38.89015233333333, "name": "f437107b482a8414a65869640a54e3c4"}, {"is_disabled": 0, "type": "electric_scooter", "fusion_lon": 0.0, "is_reserved": 0, "fusion_lat": 0.0, "lon": -77.05243, "rental_uris": {"ios": "https://dc.lft.to/lastmile_qr_scan", "android": "https://dc.lft.to/lastmile_qr_scan"}, "bike_id": "d9d5b73676e3d0babbdaec1e8b88f3c9", "lat": 38.9097275, "name": "d9d5b73676e3d0babbdaec1e8b88f3c9"}, {"is_disabled": 0, "type": "electric_scooter", "fusion_lon": 0.0, "is_reserved": 0, "fusion_lat": 0.0, "lon": -77.06827383333334, "rental_uris": {"ios": "https://dc.lft.to/lastmile_qr_scan", "android": "https://dc.lft.to/lastmile_qr_scan"}, "bike_id": "f8a2c2a5aef27c603b2218be998c6b0e", "lat": 38.918051166666665, "name": "f8a2c2a5aef27c603b2218be998c6b0e"}, {"is_disabled": 0, "type": "electric_scooter", "fusion_lon": 0.0, "is_reserved": 0, "fusion_lat": 0.0, "lon": -77.01883233333334, "rental_uris": {"ios": "https://dc.lft.to/lastmile_qr_scan", "android": "https://dc.lft.to/lastmile_qr_scan"}, "bike_id": "22294481b264736b45263cfe24a05d71", "lat": 38.897495666666664, "name": "22294481b264736b45263cfe24a05d71"}, {"is_disabled": 0, "type": "electric_scooter", "fusion_lon": 0.0, "is_reserved": 0, "fusion_lat": 0.0, "lon": -77.0412185, "rental_uris": {"ios": "https://dc.lft.to/lastmile_qr_scan", "android": "https://dc.lft.to/lastmile_qr_scan"}, "bike_id": "704276ac0c01ff82e6f2eb1750b2bcaa", "lat": 38.93225, "name": "704276ac0c01ff82e6f2eb1750b2bcaa"}, {"is_disabled": 0, "type": "electric_scooter", "fusion_lon": 0.0, "is_reserved": 0, "fusion_lat": 0.0, "lon": -77.013759, "rental_uris": {"ios": "https://dc.lft.to/lastmile_qr_scan", "android": "https://dc.lft.to/lastmile_qr_scan"}, "bike_id": "e05f4a0a683ac278719ff75f123626de", "lat": 38.89840233333334, "name": "e05f4a0a683ac278719ff75f123626de"}, {"is_disabled": 0, "type": "electric_scooter", "fusion_lon": 0.0, "is_reserved": 0, "fusion_lat": 0.0, "lon": -77.08574316666666, "rental_uris": {"ios": "https://dc.lft.to/lastmile_qr_scan", "android": "https://dc.lft.to/lastmile_qr_scan"}, "bike_id": "d856a78b36bdc79da2d72c878dee2376", "lat": 38.93750433333334, "name": "d856a78b36bdc79da2d72c878dee2376"}, {"is_disabled": 0, "type": "electric_scooter", "fusion_lon": 0.0, "is_reserved": 0, "fusion_lat": 0.0, "lon": -76.99015633333333, "rental_uris": {"ios": "https://dc.lft.to/lastmile_qr_scan", "android": "https://dc.lft.to/lastmile_qr_scan"}, "bike_id": "895ca21b5ae99a7eb21bdc2bfa7b910f", "lat": 38.865146833333334, "name": "895ca21b5ae99a7eb21bdc2bfa7b910f"}, {"is_disabled": 0, "type": "electric_scooter", "fusion_lon": 0.0, "is_reserved": 0, "fusion_lat": 0.0, "lon": -76.93186916666667, "rental_uris": {"ios": "https://dc.lft.to/lastmile_qr_scan", "android": "https://dc.lft.to/lastmile_qr_scan"}, "bike_id": "6fb8a21c67991314886e4d70cdb8edb0", "lat": 38.898515833333335, "name": "6fb8a21c67991314886e4d70cdb8edb0"}, {"is_disabled": 0, "type": "electric_scooter", "fusion_lon": 0.0, "is_reserved": 0, "fusion_lat": 0.0, "lon": -77.02980316666667, "rental_uris": {"ios": "https://dc.lft.to/lastmile_qr_scan", "android": "https://dc.lft.to/lastmile_qr_scan"}, "bike_id": "9b0d82ee056654ff5ad7a086049b09f8", "lat": 38.899336166666664, "name": "9b0d82ee056654ff5ad7a086049b09f8"}, {"is_disabled": 0, "type": "electric_scooter", "fusion_lon": 0.0, "is_reserved": 0, "fusion_lat": 0.0, "lon": -77.05931966666667, "rental_uris": {"ios": "https://dc.lft.to/lastmile_qr_scan", "android": "https://dc.lft.to/lastmile_qr_scan"}, "bike_id": "383a64248ba562c1f06709bef2a90087", "lat": 38.94312216666667, "name": "383a64248ba562c1f06709bef2a90087"}, {"is_disabled": 0, "type": "electric_scooter", "fusion_lon": 0.0, "is_reserved": 0, "fusion_lat": 0.0, "lon": -76.99487916666666, "rental_uris": {"ios": "https://dc.lft.to/lastmile_qr_scan", "android": "https://dc.lft.to/lastmile_qr_scan"}, "bike_id": "05735bd236972f3a0f4b9a0baa41ae13", "lat": 38.883435666666664, "name": "05735bd236972f3a0f4b9a0baa41ae13"}, {"is_disabled": 0, "type": "electric_scooter", "fusion_lon": 0.0, "is_reserved": 0, "fusion_lat": 0.0, "lon": -77.02113116666666, "rental_uris": {"ios": "https://dc.lft.to/lastmile_qr_scan", "android": "https://dc.lft.to/lastmile_qr_scan"}, "bike_id": "eff4847d49c378000794f12396055929", "lat": 38.917393833333335, "name": "eff4847d49c378000794f12396055929"}, {"is_disabled": 0, "type": "electric_scooter", "fusion_lon": 0.0, "is_reserved": 0, "fusion_lat": 0.0, "lon": -77.03968116666667, "rental_uris": {"ios": "https://dc.lft.to/lastmile_qr_scan", "android": "https://dc.lft.to/lastmile_qr_scan"}, "bike_id": "717bb012708579f668dd8e55297cc65a", "lat": 38.905718, "name": "717bb012708579f668dd8e55297cc65a"}, {"is_disabled": 0, "type": "electric_scooter", "fusion_lon": 0.0, "is_reserved": 0, "fusion_lat": 0.0, "lon": -77.02388333333333, "rental_uris": {"ios": "https://dc.lft.to/lastmile_qr_scan", "android": "https://dc.lft.to/lastmile_qr_scan"}, "bike_id": "5da6cf6b75477cc38e6c1b9cd57d806e", "lat": 38.917125166666665, "name": "5da6cf6b75477cc38e6c1b9cd57d806e"}, {"is_disabled": 0, "type": "electric_scooter", "fusion_lon": 0.0, "is_reserved": 0, "fusion_lat": 0.0, "lon": -77.02022983333333, "rental_uris": {"ios": "https://dc.lft.to/lastmile_qr_scan", "android": "https://dc.lft.to/lastmile_qr_scan"}, "bike_id": "f3e7f12319d47fedbc6f5a3847362544", "lat": 38.92123483333334, "name": "f3e7f12319d47fedbc6f5a3847362544"}, {"is_disabled": 0, "type": "electric_scooter", "fusion_lon": 0.0, "is_reserved": 0, "fusion_lat": 0.0, "lon": -77.01955866666667, "rental_uris": {"ios": "https://dc.lft.to/lastmile_qr_scan", "android": "https://dc.lft.to/lastmile_qr_scan"}, "bike_id": "3edfb03e2e0fd98080076b39546fb32c", "lat": 38.884825166666666, "name": "3edfb03e2e0fd98080076b39546fb32c"}, {"is_disabled": 0, "type": "electric_scooter", "fusion_lon": 0.0, "is_reserved": 0, "fusion_lat": 0.0, "lon": -77.04069316666667, "rental_uris": {"ios": "https://dc.lft.to/lastmile_qr_scan", "android": "https://dc.lft.to/lastmile_qr_scan"}, "bike_id": "b4fd6d9420cdff92924870ea6b39a40a", "lat": 38.899271, "name": "b4fd6d9420cdff92924870ea6b39a40a"}, {"is_disabled": 0, "type": "electric_scooter", "fusion_lon": 0.0, "is_reserved": 0, "fusion_lat": 0.0, "lon": -77.02963016666666, "rental_uris": {"ios": "https://dc.lft.to/lastmile_qr_scan", "android": "https://dc.lft.to/lastmile_qr_scan"}, "bike_id": "815a65947c7971817999b9540cf42ca8", "lat": 38.90495283333333, "name": "815a65947c7971817999b9540cf42ca8"}, {"is_disabled": 0, "type": "electric_scooter", "fusion_lon": 0.0, "is_reserved": 0, "fusion_lat": 0.0, "lon": -77.00311983333333, "rental_uris": {"ios": "https://dc.lft.to/lastmile_qr_scan", "android": "https://dc.lft.to/lastmile_qr_scan"}, "bike_id": "12d19900d6611777f95bdb0833ae1c06", "lat": 38.876539, "name": "12d19900d6611777f95bdb0833ae1c06"}, {"is_disabled": 0, "type": "electric_scooter", "fusion_lon": 0.0, "is_reserved": 0, "fusion_lat": 0.0, "lon": -77.05021583333334, "rental_uris": {"ios": "https://dc.lft.to/lastmile_qr_scan", "android": "https://dc.lft.to/lastmile_qr_scan"}, "bike_id": "5f7d67cc3c24015b85162bd73191cbff", "lat": 38.896529666666666, "name": "5f7d67cc3c24015b85162bd73191cbff"}, {"is_disabled": 0, "type": "electric_scooter", "fusion_lon": 0.0, "is_reserved": 0, "fusion_lat": 0.0, "lon": -77.04335033333334, "rental_uris": {"ios": "https://dc.lft.to/lastmile_qr_scan", "android": "https://dc.lft.to/lastmile_qr_scan"}, "bike_id": "861652061e42a1e432d976b159a6f4d8", "lat": 38.89726816666666, "name": "861652061e42a1e432d976b159a6f4d8"}, {"is_disabled": 0, "type": "electric_bike", "fusion_lon": 0.0, "is_reserved": 0, "fusion_lat": 0.0, "lon": -76.97218533333333, "rental_uris": {"ios": "https://dc.lft.to/lastmile_qr_scan", "android": "https://dc.lft.to/lastmile_qr_scan"}, "bike_id": "73839498cf9bbc6b019a65ffe5ab6631", "lat": 38.9003825, "name": "73839498cf9bbc6b019a65ffe5ab6631"}, {"is_disabled": 0, "type": "electric_bike", "fusion_lon": 0.0, "is_reserved": 0, "fusion_lat": 0.0, "lon": -76.90747883333333, "rental_uris": {"ios": "https://dc.lft.to/lastmile_qr_scan", "android": "https://dc.lft.to/lastmile_qr_scan"}, "bike_id": "2391e4ee7968331393e58dcc037f7830", "lat": 38.89620083333333, "name": "2391e4ee7968331393e58dcc037f7830"}, {"is_disabled": 0, "type": "electric_scooter", "fusion_lon": 0.0, "is_reserved": 0, "fusion_lat": 0.0, "lon": -77.03192716666666, "rental_uris": {"ios": "https://dc.lft.to/lastmile_qr_scan", "android": "https://dc.lft.to/lastmile_qr_scan"}, "bike_id": "43ea61fa70bca11e811931639d2e9ec9", "lat": 38.9157305, "name": "43ea61fa70bca11e811931639d2e9ec9"}, {"is_disabled": 0, "type": "electric_scooter", "fusion_lon": 0.0, "is_reserved": 0, "fusion_lat": 0.0, "lon": -77.05606033333333, "rental_uris": {"ios": "https://dc.lft.to/lastmile_qr_scan", "android": "https://dc.lft.to/lastmile_qr_scan"}, "bike_id": "2f021e73f60d05c6d50ab4acbde28a4d", "lat": 38.931114666666666, "name": "2f021e73f60d05c6d50ab4acbde28a4d"}, {"is_disabled": 0, "type": "electric_scooter", "fusion_lon": 0.0, "is_reserved": 0, "fusion_lat": 0.0, "lon": -77.0401865, "rental_uris": {"ios": "https://dc.lft.to/lastmile_qr_scan", "android": "https://dc.lft.to/lastmile_qr_scan"}, "bike_id": "57bbf37c008f17d40c295cc0af5fe2de", "lat": 38.921640333333336, "name": "57bbf37c008f17d40c295cc0af5fe2de"}, {"is_disabled": 0, "type": "electric_scooter", "fusion_lon": 0.0, "is_reserved": 0, "fusion_lat": 0.0, "lon": -77.0126825, "rental_uris": {"ios": "https://dc.lft.to/lastmile_qr_scan", "android": "https://dc.lft.to/lastmile_qr_scan"}, "bike_id": "bfd519367c042117a543c84eed62390a", "lat": 38.897076166666665, "name": "bfd519367c042117a543c84eed62390a"}, {"is_disabled": 0, "type": "electric_scooter", "fusion_lon": 0.0, "is_reserved": 0, "fusion_lat": 0.0, "lon": -77.03162133333333, "rental_uris": {"ios": "https://dc.lft.to/lastmile_qr_scan", "android": "https://dc.lft.to/lastmile_qr_scan"}, "bike_id": "1a99136634587467dd0945cece2b5521", "lat": 38.89819333333333, "name": "1a99136634587467dd0945cece2b5521"}, {"is_disabled": 0, "type": "electric_scooter", "fusion_lon": 0.0, "is_reserved": 0, "fusion_lat": 0.0, "lon": -77.00887533333334, "rental_uris": {"ios": "https://dc.lft.to/lastmile_qr_scan", "android": "https://dc.lft.to/lastmile_qr_scan"}, "bike_id": "9a4c013f7b74e362375b743cd02bccce", "lat": 38.879174, "name": "9a4c013f7b74e362375b743cd02bccce"}, {"is_disabled": 0, "type": "electric_scooter", "fusion_lon": 0.0, "is_reserved": 0, "fusion_lat": 0.0, "lon": -76.9244095, "rental_uris": {"ios": "https://dc.lft.to/lastmile_qr_scan", "android": "https://dc.lft.to/lastmile_qr_scan"}, "bike_id": "70d29b005e1bf05004dbbfba9012d520", "lat": 38.885145, "name": "70d29b005e1bf05004dbbfba9012d520"}, {"is_disabled": 0, "type": "electric_scooter", "fusion_lon": 0.0, "is_reserved": 0, "fusion_lat": 0.0, "lon": -77.07831533333334, "rental_uris": {"ios": "https://dc.lft.to/lastmile_qr_scan", "android": "https://dc.lft.to/lastmile_qr_scan"}, "bike_id": "bef0fd29da8509387d821aaf10e9c501", "lat": 38.92670433333333, "name": "bef0fd29da8509387d821aaf10e9c501"}, {"is_disabled": 0, "type": "electric_scooter", "fusion_lon": 0.0, "is_reserved": 0, "fusion_lat": 0.0, "lon": -77.025138, "rental_uris": {"ios": "https://dc.lft.to/lastmile_qr_scan", "android": "https://dc.lft.to/lastmile_qr_scan"}, "bike_id": "f4471f93fd1f9d7f9da7decaddb60049", "lat": 38.90368616666667, "name": "f4471f93fd1f9d7f9da7decaddb60049"}, {"is_disabled": 0, "type": "electric_scooter", "fusion_lon": 0.0, "is_reserved": 0, "fusion_lat": 0.0, "lon": -77.03694216666666, "rental_uris": {"ios": "https://dc.lft.to/lastmile_qr_scan", "android": "https://dc.lft.to/lastmile_qr_scan"}, "bike_id": "def391104000ef328ce59989348bff09", "lat": 38.91270016666667, "name": "def391104000ef328ce59989348bff09"}, {"is_disabled": 0, "type": "electric_scooter", "fusion_lon": 0.0, "is_reserved": 0, "fusion_lat": 0.0, "lon": -77.027219, "rental_uris": {"ios": "https://dc.lft.to/lastmile_qr_scan", "android": "https://dc.lft.to/lastmile_qr_scan"}, "bike_id": "19301bfa465f34154cbdb25d7c4306b3", "lat": 38.89563966666667, "name": "19301bfa465f34154cbdb25d7c4306b3"}, {"is_disabled": 0, "type": "electric_scooter", "fusion_lon": 0.0, "is_reserved": 0, "fusion_lat": 0.0, "lon": -77.03194233333333, "rental_uris": {"ios": "https://dc.lft.to/lastmile_qr_scan", "android": "https://dc.lft.to/lastmile_qr_scan"}, "bike_id": "d00dae52daf0d6b874db091f72f86494", "lat": 38.893407, "name": "d00dae52daf0d6b874db091f72f86494"}, {"is_disabled": 0, "type": "electric_scooter", "fusion_lon": 0.0, "is_reserved": 0, "fusion_lat": 0.0, "lon": -77.03984766666666, "rental_uris": {"ios": "https://dc.lft.to/lastmile_qr_scan", "android": "https://dc.lft.to/lastmile_qr_scan"}, "bike_id": "414e0cba60d1b92f228c2c75acb4a427", "lat": 38.896358666666664, "name": "414e0cba60d1b92f228c2c75acb4a427"}, {"is_disabled": 0, "type": "electric_scooter", "fusion_lon": 0.0, "is_reserved": 0, "fusion_lat": 0.0, "lon": -77.043464, "rental_uris": {"ios": "https://dc.lft.to/lastmile_qr_scan", "android": "https://dc.lft.to/lastmile_qr_scan"}, "bike_id": "afd9b3fa032ee2baac6da7acc9fdb0f8", "lat": 38.9104755, "name": "afd9b3fa032ee2baac6da7acc9fdb0f8"}, {"is_disabled": 0, "type": "electric_scooter", "fusion_lon": 0.0, "is_reserved": 0, "fusion_lat": 0.0, "lon": -77.03351633333334, "rental_uris": {"ios": "https://dc.lft.to/lastmile_qr_scan", "android": "https://dc.lft.to/lastmile_qr_scan"}, "bike_id": "3ec10a0bc2b82df831913f1e14c6368f", "lat": 38.90018333333333, "name": "3ec10a0bc2b82df831913f1e14c6368f"}, {"is_disabled": 0, "type": "electric_scooter", "fusion_lon": 0.0, "is_reserved": 0, "fusion_lat": 0.0, "lon": -76.9373405, "rental_uris": {"ios": "https://dc.lft.to/lastmile_qr_scan", "android": "https://dc.lft.to/lastmile_qr_scan"}, "bike_id": "318bc985e5f0db4b9e9e141462fbe35a", "lat": 38.89017233333333, "name": "318bc985e5f0db4b9e9e141462fbe35a"}, {"is_disabled": 0, "type": "electric_scooter", "fusion_lon": 0.0, "is_reserved": 0, "fusion_lat": 0.0, "lon": -77.00064633333334, "rental_uris": {"ios": "https://dc.lft.to/lastmile_qr_scan", "android": "https://dc.lft.to/lastmile_qr_scan"}, "bike_id": "b94b40942f4bd599f63ef397a3a10271", "lat": 38.92433183333333, "name": "b94b40942f4bd599f63ef397a3a10271"}, {"is_disabled": 0, "type": "electric_scooter", "fusion_lon": 0.0, "is_reserved": 0, "fusion_lat": 0.0, "lon": -77.04865966666667, "rental_uris": {"ios": "https://dc.lft.to/lastmile_qr_scan", "android": "https://dc.lft.to/lastmile_qr_scan"}, "bike_id": "6993a5d3cf955b66a8f03e8ec162b564", "lat": 38.89869566666667, "name": "6993a5d3cf955b66a8f03e8ec162b564"}, {"is_disabled": 0, "type": "electric_scooter", "fusion_lon": 0.0, "is_reserved": 0, "fusion_lat": 0.0, "lon": -77.0022605, "rental_uris": {"ios": "https://dc.lft.to/lastmile_qr_scan", "android": "https://dc.lft.to/lastmile_qr_scan"}, "bike_id": "c0db514b5d45f36ffdb167d9a5648df9", "lat": 38.9133835, "name": "c0db514b5d45f36ffdb167d9a5648df9"}, {"is_disabled": 0, "type": "electric_scooter", "fusion_lon": 0.0, "is_reserved": 0, "fusion_lat": 0.0, "lon": -77.021274, "rental_uris": {"ios": "https://dc.lft.to/lastmile_qr_scan", "android": "https://dc.lft.to/lastmile_qr_scan"}, "bike_id": "59437f6374a2f7a3ff830341d08b9fe9", "lat": 38.9241665, "name": "59437f6374a2f7a3ff830341d08b9fe9"}, {"is_disabled": 0, "type": "electric_scooter", "fusion_lon": 0.0, "is_reserved": 0, "fusion_lat": 0.0, "lon": -76.99739883333334, "rental_uris": {"ios": "https://dc.lft.to/lastmile_qr_scan", "android": "https://dc.lft.to/lastmile_qr_scan"}, "bike_id": "9a406c4fa52f83cbaa29d3e63a93c457", "lat": 38.9105825, "name": "9a406c4fa52f83cbaa29d3e63a93c457"}, {"is_disabled": 0, "type": "electric_scooter", "fusion_lon": 0.0, "is_reserved": 0, "fusion_lat": 0.0, "lon": -77.0068835, "rental_uris": {"ios": "https://dc.lft.to/lastmile_qr_scan", "android": "https://dc.lft.to/lastmile_qr_scan"}, "bike_id": "dc9b9f08c0045d5cd4f92b62d1fcc239", "lat": 38.87720066666667, "name": "dc9b9f08c0045d5cd4f92b62d1fcc239"}, {"is_disabled": 0, "type": "electric_scooter", "fusion_lon": 0.0, "is_reserved": 0, "fusion_lat": 0.0, "lon": -77.01994566666667, "rental_uris": {"ios": "https://dc.lft.to/lastmile_qr_scan", "android": "https://dc.lft.to/lastmile_qr_scan"}, "bike_id": "dc14ec28af64de35ec6330c39c1fa170", "lat": 38.892882, "name": "dc14ec28af64de35ec6330c39c1fa170"}, {"is_disabled": 0, "type": "electric_scooter", "fusion_lon": 0.0, "is_reserved": 0, "fusion_lat": 0.0, "lon": -77.04195783333333, "rental_uris": {"ios": "https://dc.lft.to/lastmile_qr_scan", "android": "https://dc.lft.to/lastmile_qr_scan"}, "bike_id": "e1e9542cc3c7e65852977730d3c78058", "lat": 38.90684233333333, "name": "e1e9542cc3c7e65852977730d3c78058"}, {"is_disabled": 0, "type": "electric_scooter", "fusion_lon": 0.0, "is_reserved": 0, "fusion_lat": 0.0, "lon": -77.0070525, "rental_uris": {"ios": "https://dc.lft.to/lastmile_qr_scan", "android": "https://dc.lft.to/lastmile_qr_scan"}, "bike_id": "192aa8cfe94446be8aa24f612eee3861", "lat": 38.907314166666666, "name": "192aa8cfe94446be8aa24f612eee3861"}, {"is_disabled": 0, "type": "electric_scooter", "fusion_lon": 0.0, "is_reserved": 0, "fusion_lat": 0.0, "lon": -77.02879383333334, "rental_uris": {"ios": "https://dc.lft.to/lastmile_qr_scan", "android": "https://dc.lft.to/lastmile_qr_scan"}, "bike_id": "5dd8ec50082fab395718f9873a7f0b4e", "lat": 38.904276, "name": "5dd8ec50082fab395718f9873a7f0b4e"}, {"is_disabled": 0, "type": "electric_scooter", "fusion_lon": 0.0, "is_reserved": 0, "fusion_lat": 0.0, "lon": -77.02544783333333, "rental_uris": {"ios": "https://dc.lft.to/lastmile_qr_scan", "android": "https://dc.lft.to/lastmile_qr_scan"}, "bike_id": "b8cb59a80c180ffe06fcc014495b8d7c", "lat": 38.920596, "name": "b8cb59a80c180ffe06fcc014495b8d7c"}, {"is_disabled": 0, "type": "electric_scooter", "fusion_lon": 0.0, "is_reserved": 0, "fusion_lat": 0.0, "lon": -77.03101416666667, "rental_uris": {"ios": "https://dc.lft.to/lastmile_qr_scan", "android": "https://dc.lft.to/lastmile_qr_scan"}, "bike_id": "cd2b9f377412bcdf31aec305189ec6fa", "lat": 38.886059333333336, "name": "cd2b9f377412bcdf31aec305189ec6fa"}, {"is_disabled": 0, "type": "electric_scooter", "fusion_lon": 0.0, "is_reserved": 0, "fusion_lat": 0.0, "lon": -76.97344783333334, "rental_uris": {"ios": "https://dc.lft.to/lastmile_qr_scan", "android": "https://dc.lft.to/lastmile_qr_scan"}, "bike_id": "bf3d451dd996180a8bb7e558eb15cfc7", "lat": 38.865147666666665, "name": "bf3d451dd996180a8bb7e558eb15cfc7"}, {"is_disabled": 0, "type": "electric_scooter", "fusion_lon": 0.0, "is_reserved": 0, "fusion_lat": 0.0, "lon": -77.01373916666667, "rental_uris": {"ios": "https://dc.lft.to/lastmile_qr_scan", "android": "https://dc.lft.to/lastmile_qr_scan"}, "bike_id": "b47e8673caa252aea28764aa603ad3ab", "lat": 38.9285695, "name": "b47e8673caa252aea28764aa603ad3ab"}, {"is_disabled": 0, "type": "electric_scooter", "fusion_lon": 0.0, "is_reserved": 0, "fusion_lat": 0.0, "lon": -77.0422975, "rental_uris": {"ios": "https://dc.lft.to/lastmile_qr_scan", "android": "https://dc.lft.to/lastmile_qr_scan"}, "bike_id": "6128302b924e476b97f5e8a3443d54f1", "lat": 38.898534833333336, "name": "6128302b924e476b97f5e8a3443d54f1"}, {"is_disabled": 0, "type": "electric_scooter", "fusion_lon": 0.0, "is_reserved": 0, "fusion_lat": 0.0, "lon": -76.9996495, "rental_uris": {"ios": "https://dc.lft.to/lastmile_qr_scan", "android": "https://dc.lft.to/lastmile_qr_scan"}, "bike_id": "c0f9a8e75f2839cfb3c24f89b465f6f5", "lat": 38.918054166666664, "name": "c0f9a8e75f2839cfb3c24f89b465f6f5"}, {"is_disabled": 0, "type": "electric_scooter", "fusion_lon": 0.0, "is_reserved": 0, "fusion_lat": 0.0, "lon": -77.04348616666667, "rental_uris": {"ios": "https://dc.lft.to/lastmile_qr_scan", "android": "https://dc.lft.to/lastmile_qr_scan"}, "bike_id": "b926a3ed2f19ad08411edf6af51b7971", "lat": 38.89970183333333, "name": "b926a3ed2f19ad08411edf6af51b7971"}, {"is_disabled": 0, "type": "electric_scooter", "fusion_lon": 0.0, "is_reserved": 0, "fusion_lat": 0.0, "lon": -77.03364416666666, "rental_uris": {"ios": "https://dc.lft.to/lastmile_qr_scan", "android": "https://dc.lft.to/lastmile_qr_scan"}, "bike_id": "2173a1ae22846bdf831a059b5f6cc761", "lat": 38.9191085, "name": "2173a1ae22846bdf831a059b5f6cc761"}, {"is_disabled": 0, "type": "electric_scooter", "fusion_lon": 0.0, "is_reserved": 0, "fusion_lat": 0.0, "lon": -77.03363466666667, "rental_uris": {"ios": "https://dc.lft.to/lastmile_qr_scan", "android": "https://dc.lft.to/lastmile_qr_scan"}, "bike_id": "39bb1623b7e2f4c10f402c114e91a36d", "lat": 38.937749833333335, "name": "39bb1623b7e2f4c10f402c114e91a36d"}, {"is_disabled": 0, "type": "electric_scooter", "fusion_lon": 0.0, "is_reserved": 0, "fusion_lat": 0.0, "lon": -76.99567516666667, "rental_uris": {"ios": "https://dc.lft.to/lastmile_qr_scan", "android": "https://dc.lft.to/lastmile_qr_scan"}, "bike_id": "035db62ea56ec097a436b7d10e688423", "lat": 38.89213983333333, "name": "035db62ea56ec097a436b7d10e688423"}, {"is_disabled": 0, "type": "electric_scooter", "fusion_lon": 0.0, "is_reserved": 0, "fusion_lat": 0.0, "lon": -77.039215, "rental_uris": {"ios": "https://dc.lft.to/lastmile_qr_scan", "android": "https://dc.lft.to/lastmile_qr_scan"}, "bike_id": "f775bcbd587dedcd1792da37160fc229", "lat": 38.8989815, "name": "f775bcbd587dedcd1792da37160fc229"}, {"is_disabled": 0, "type": "electric_scooter", "fusion_lon": 0.0, "is_reserved": 0, "fusion_lat": 0.0, "lon": -77.00896833333333, "rental_uris": {"ios": "https://dc.lft.to/lastmile_qr_scan", "android": "https://dc.lft.to/lastmile_qr_scan"}, "bike_id": "799da2b0852d66e4744b38666018cd51", "lat": 38.9006855, "name": "799da2b0852d66e4744b38666018cd51"}, {"is_disabled": 0, "type": "electric_scooter", "fusion_lon": 0.0, "is_reserved": 0, "fusion_lat": 0.0, "lon": -77.02110516666667, "rental_uris": {"ios": "https://dc.lft.to/lastmile_qr_scan", "android": "https://dc.lft.to/lastmile_qr_scan"}, "bike_id": "8ce7c8ea35f120ecbcfde726b1089458", "lat": 38.90603, "name": "8ce7c8ea35f120ecbcfde726b1089458"}, {"is_disabled": 0, "type": "electric_scooter", "fusion_lon": 0.0, "is_reserved": 0, "fusion_lat": 0.0, "lon": -77.06502983333333, "rental_uris": {"ios": "https://dc.lft.to/lastmile_qr_scan", "android": "https://dc.lft.to/lastmile_qr_scan"}, "bike_id": "4d88569c30a399cdbdddb3b673ee98b7", "lat": 38.90395383333333, "name": "4d88569c30a399cdbdddb3b673ee98b7"}, {"is_disabled": 0, "type": "electric_scooter", "fusion_lon": 0.0, "is_reserved": 0, "fusion_lat": 0.0, "lon": -77.05911166666667, "rental_uris": {"ios": "https://dc.lft.to/lastmile_qr_scan", "android": "https://dc.lft.to/lastmile_qr_scan"}, "bike_id": "7c63d293ba80b9c6677445f6550b336c", "lat": 38.9054005, "name": "7c63d293ba80b9c6677445f6550b336c"}, {"is_disabled": 0, "type": "electric_scooter", "fusion_lon": 0.0, "is_reserved": 0, "fusion_lat": 0.0, "lon": -77.03349766666666, "rental_uris": {"ios": "https://dc.lft.to/lastmile_qr_scan", "android": "https://dc.lft.to/lastmile_qr_scan"}, "bike_id": "420fd9c60c7396cb804ae917dc0fc8f7", "lat": 38.884893166666664, "name": "420fd9c60c7396cb804ae917dc0fc8f7"}, {"is_disabled": 0, "type": "electric_scooter", "fusion_lon": 0.0, "is_reserved": 0, "fusion_lat": 0.0, "lon": -77.0356825, "rental_uris": {"ios": "https://dc.lft.to/lastmile_qr_scan", "android": "https://dc.lft.to/lastmile_qr_scan"}, "bike_id": "a974c2b32644ad3abbf2d725cb716bf2", "lat": 38.90571683333334, "name": "a974c2b32644ad3abbf2d725cb716bf2"}, {"is_disabled": 0, "type": "electric_scooter", "fusion_lon": 0.0, "is_reserved": 0, "fusion_lat": 0.0, "lon": -77.0431845, "rental_uris": {"ios": "https://dc.lft.to/lastmile_qr_scan", "android": "https://dc.lft.to/lastmile_qr_scan"}, "bike_id": "30be3db9fb767757d2cad2150aa3d429", "lat": 38.908939, "name": "30be3db9fb767757d2cad2150aa3d429"}, {"is_disabled": 0, "type": "electric_scooter", "fusion_lon": 0.0, "is_reserved": 0, "fusion_lat": 0.0, "lon": -77.04737316666667, "rental_uris": {"ios": "https://dc.lft.to/lastmile_qr_scan", "android": "https://dc.lft.to/lastmile_qr_scan"}, "bike_id": "a8185b47ce57937b8f244a7394c34e3e", "lat": 38.900734, "name": "a8185b47ce57937b8f244a7394c34e3e"}, {"is_disabled": 0, "type": "electric_scooter", "fusion_lon": 0.0, "is_reserved": 0, "fusion_lat": 0.0, "lon": -77.01032683333334, "rental_uris": {"ios": "https://dc.lft.to/lastmile_qr_scan", "android": "https://dc.lft.to/lastmile_qr_scan"}, "bike_id": "b1dcac6eedbb6985a7a0ca9c0f041a6a", "lat": 38.914860833333336, "name": "b1dcac6eedbb6985a7a0ca9c0f041a6a"}, {"is_disabled": 0, "type": "electric_scooter", "fusion_lon": 0.0, "is_reserved": 0, "fusion_lat": 0.0, "lon": -77.043864, "rental_uris": {"ios": "https://dc.lft.to/lastmile_qr_scan", "android": "https://dc.lft.to/lastmile_qr_scan"}, "bike_id": "184c846355a30be6bc87da7dad1885ad", "lat": 38.9015305, "name": "184c846355a30be6bc87da7dad1885ad"}, {"is_disabled": 0, "type": "electric_scooter", "fusion_lon": 0.0, "is_reserved": 0, "fusion_lat": 0.0, "lon": -77.0184005, "rental_uris": {"ios": "https://dc.lft.to/lastmile_qr_scan", "android": "https://dc.lft.to/lastmile_qr_scan"}, "bike_id": "b14101ba3afd46697bf95433e0775141", "lat": 38.87713983333333, "name": "b14101ba3afd46697bf95433e0775141"}, {"is_disabled": 0, "type": "electric_scooter", "fusion_lon": 0.0, "is_reserved": 0, "fusion_lat": 0.0, "lon": -77.000475, "rental_uris": {"ios": "https://dc.lft.to/lastmile_qr_scan", "android": "https://dc.lft.to/lastmile_qr_scan"}, "bike_id": "511862a5197cad534dacc482b1a3ead5", "lat": 38.8767035, "name": "511862a5197cad534dacc482b1a3ead5"}, {"is_disabled": 0, "type": "electric_scooter", "fusion_lon": 0.0, "is_reserved": 0, "fusion_lat": 0.0, "lon": -76.925047, "rental_uris": {"ios": "https://dc.lft.to/lastmile_qr_scan", "android": "https://dc.lft.to/lastmile_qr_scan"}, "bike_id": "dd37bd31ed55719d6568689f1cb89116", "lat": 38.88603483333333, "name": "dd37bd31ed55719d6568689f1cb89116"}, {"is_disabled": 0, "type": "electric_scooter", "fusion_lon": 0.0, "is_reserved": 0, "fusion_lat": 0.0, "lon": -77.00353883333334, "rental_uris": {"ios": "https://dc.lft.to/lastmile_qr_scan", "android": "https://dc.lft.to/lastmile_qr_scan"}, "bike_id": "db995aede44d51039ee29de4b3862acc", "lat": 38.8969675, "name": "db995aede44d51039ee29de4b3862acc"}, {"is_disabled": 0, "type": "electric_scooter", "fusion_lon": 0.0, "is_reserved": 0, "fusion_lat": 0.0, "lon": -76.99501266666667, "rental_uris": {"ios": "https://dc.lft.to/lastmile_qr_scan", "android": "https://dc.lft.to/lastmile_qr_scan"}, "bike_id": "93283c70acdfef276d05cbb8c8563f5f", "lat": 38.88082283333333, "name": "93283c70acdfef276d05cbb8c8563f5f"}, {"is_disabled": 0, "type": "electric_scooter", "fusion_lon": 0.0, "is_reserved": 0, "fusion_lat": 0.0, "lon": -76.99585033333334, "rental_uris": {"ios": "https://dc.lft.to/lastmile_qr_scan", "android": "https://dc.lft.to/lastmile_qr_scan"}, "bike_id": "911fd43f5931b41569c8338aed158160", "lat": 38.90032166666667, "name": "911fd43f5931b41569c8338aed158160"}, {"is_disabled": 0, "type": "electric_scooter", "fusion_lon": 0.0, "is_reserved": 0, "fusion_lat": 0.0, "lon": -77.0570075, "rental_uris": {"ios": "https://dc.lft.to/lastmile_qr_scan", "android": "https://dc.lft.to/lastmile_qr_scan"}, "bike_id": "99eef1513c0d25421be15046ba991c67", "lat": 38.91670766666667, "name": "99eef1513c0d25421be15046ba991c67"}, {"is_disabled": 0, "type": "electric_scooter", "fusion_lon": 0.0, "is_reserved": 0, "fusion_lat": 0.0, "lon": -77.0276105, "rental_uris": {"ios": "https://dc.lft.to/lastmile_qr_scan", "android": "https://dc.lft.to/lastmile_qr_scan"}, "bike_id": "0e337cf1de22bc3dcaf934e5a27a4548", "lat": 38.9561565, "name": "0e337cf1de22bc3dcaf934e5a27a4548"}, {"is_disabled": 0, "type": "electric_scooter", "fusion_lon": 0.0, "is_reserved": 0, "fusion_lat": 0.0, "lon": -77.043717, "rental_uris": {"ios": "https://dc.lft.to/lastmile_qr_scan", "android": "https://dc.lft.to/lastmile_qr_scan"}, "bike_id": "deb5748284c9342287de3eee3e11d38c", "lat": 38.8982955, "name": "deb5748284c9342287de3eee3e11d38c"}, {"is_disabled": 0, "type": "electric_scooter", "fusion_lon": 0.0, "is_reserved": 0, "fusion_lat": 0.0, "lon": -77.00030883333334, "rental_uris": {"ios": "https://dc.lft.to/lastmile_qr_scan", "android": "https://dc.lft.to/lastmile_qr_scan"}, "bike_id": "098db160ff4df4eff0b6937f1059ecc9", "lat": 38.874003333333334, "name": "098db160ff4df4eff0b6937f1059ecc9"}, {"is_disabled": 0, "type": "electric_scooter", "fusion_lon": 0.0, "is_reserved": 0, "fusion_lat": 0.0, "lon": -76.999624, "rental_uris": {"ios": "https://dc.lft.to/lastmile_qr_scan", "android": "https://dc.lft.to/lastmile_qr_scan"}, "bike_id": "7181e20111a73abd80b0725ee571340e", "lat": 38.90029366666667, "name": "7181e20111a73abd80b0725ee571340e"}, {"is_disabled": 0, "type": "electric_scooter", "fusion_lon": 0.0, "is_reserved": 0, "fusion_lat": 0.0, "lon": -76.9940565, "rental_uris": {"ios": "https://dc.lft.to/lastmile_qr_scan", "android": "https://dc.lft.to/lastmile_qr_scan"}, "bike_id": "7db7180a5e10f2087849226e713709ae", "lat": 38.91008333333333, "name": "7db7180a5e10f2087849226e713709ae"}, {"is_disabled": 0, "type": "electric_scooter", "fusion_lon": 0.0, "is_reserved": 0, "fusion_lat": 0.0, "lon": -77.02247933333334, "rental_uris": {"ios": "https://dc.lft.to/lastmile_qr_scan", "android": "https://dc.lft.to/lastmile_qr_scan"}, "bike_id": "9b47bee4a8d9df60d95832778d11e73c", "lat": 38.92478033333333, "name": "9b47bee4a8d9df60d95832778d11e73c"}, {"is_disabled": 0, "type": "electric_scooter", "fusion_lon": 0.0, "is_reserved": 0, "fusion_lat": 0.0, "lon": -77.0258315, "rental_uris": {"ios": "https://dc.lft.to/lastmile_qr_scan", "android": "https://dc.lft.to/lastmile_qr_scan"}, "bike_id": "5e7ad8c9bafa75183d5c9e59e25d8e38", "lat": 38.920354833333334, "name": "5e7ad8c9bafa75183d5c9e59e25d8e38"}, {"is_disabled": 0, "type": "electric_scooter", "fusion_lon": 0.0, "is_reserved": 0, "fusion_lat": 0.0, "lon": -77.032197, "rental_uris": {"ios": "https://dc.lft.to/lastmile_qr_scan", "android": "https://dc.lft.to/lastmile_qr_scan"}, "bike_id": "f91deb63d5cea0ead7f4696f899a88f1", "lat": 38.90255116666667, "name": "f91deb63d5cea0ead7f4696f899a88f1"}, {"is_disabled": 0, "type": "electric_scooter", "fusion_lon": 0.0, "is_reserved": 0, "fusion_lat": 0.0, "lon": -77.023655, "rental_uris": {"ios": "https://dc.lft.to/lastmile_qr_scan", "android": "https://dc.lft.to/lastmile_qr_scan"}, "bike_id": "dc485bd14e650375ccabcbb5b902fb3d", "lat": 38.9031185, "name": "dc485bd14e650375ccabcbb5b902fb3d"}, {"is_disabled": 0, "type": "electric_scooter", "fusion_lon": 0.0, "is_reserved": 0, "fusion_lat": 0.0, "lon": -77.01927316666666, "rental_uris": {"ios": "https://dc.lft.to/lastmile_qr_scan", "android": "https://dc.lft.to/lastmile_qr_scan"}, "bike_id": "a2765cf65a30346748033c7ec47e2aaa", "lat": 38.92418266666667, "name": "a2765cf65a30346748033c7ec47e2aaa"}, {"is_disabled": 0, "type": "electric_scooter", "fusion_lon": 0.0, "is_reserved": 0, "fusion_lat": 0.0, "lon": -77.01350766666667, "rental_uris": {"ios": "https://dc.lft.to/lastmile_qr_scan", "android": "https://dc.lft.to/lastmile_qr_scan"}, "bike_id": "3e5935e387672510669d7536691fec50", "lat": 38.908668, "name": "3e5935e387672510669d7536691fec50"}, {"is_disabled": 0, "type": "electric_scooter", "fusion_lon": 0.0, "is_reserved": 0, "fusion_lat": 0.0, "lon": -77.01546566666667, "rental_uris": {"ios": "https://dc.lft.to/lastmile_qr_scan", "android": "https://dc.lft.to/lastmile_qr_scan"}, "bike_id": "8296d4db1b9ea0d001aa78db3e8ce481", "lat": 38.8937295, "name": "8296d4db1b9ea0d001aa78db3e8ce481"}, {"is_disabled": 0, "type": "electric_scooter", "fusion_lon": 0.0, "is_reserved": 0, "fusion_lat": 0.0, "lon": -76.973199, "rental_uris": {"ios": "https://dc.lft.to/lastmile_qr_scan", "android": "https://dc.lft.to/lastmile_qr_scan"}, "bike_id": "282295d88e4d4a331372ef9ae2b0e50f", "lat": 38.9177645, "name": "282295d88e4d4a331372ef9ae2b0e50f"}, {"is_disabled": 0, "type": "electric_scooter", "fusion_lon": 0.0, "is_reserved": 0, "fusion_lat": 0.0, "lon": -77.01501666666667, "rental_uris": {"ios": "https://dc.lft.to/lastmile_qr_scan", "android": "https://dc.lft.to/lastmile_qr_scan"}, "bike_id": "1c0de54e07c758318ba6fc86541871f1", "lat": 38.89162866666667, "name": "1c0de54e07c758318ba6fc86541871f1"}, {"is_disabled": 0, "type": "electric_scooter", "fusion_lon": 0.0, "is_reserved": 0, "fusion_lat": 0.0, "lon": -77.00381783333333, "rental_uris": {"ios": "https://dc.lft.to/lastmile_qr_scan", "android": "https://dc.lft.to/lastmile_qr_scan"}, "bike_id": "90eed688b2da6d7ebd79910c4fa73b3f", "lat": 38.876326166666665, "name": "90eed688b2da6d7ebd79910c4fa73b3f"}, {"is_disabled": 0, "type": "electric_bike", "fusion_lon": 0.0, "is_reserved": 0, "fusion_lat": 0.0, "lon": -77.0287245, "rental_uris": {"ios": "https://dc.lft.to/lastmile_qr_scan", "android": "https://dc.lft.to/lastmile_qr_scan"}, "bike_id": "4784c073beb93676aaafd4c0aeb72d80", "lat": 38.995113, "name": "4784c073beb93676aaafd4c0aeb72d80"}, {"is_disabled": 0, "type": "electric_bike", "fusion_lon": 0.0, "is_reserved": 0, "fusion_lat": 0.0, "lon": -76.9029775, "rental_uris": {"ios": "https://dc.lft.to/lastmile_qr_scan", "android": "https://dc.lft.to/lastmile_qr_scan"}, "bike_id": "0c87f042a1590ff577b7c0cdfb257c21", "lat": 39.002936166666665, "name": "0c87f042a1590ff577b7c0cdfb257c21"}, {"is_disabled": 0, "type": "electric_scooter", "fusion_lon": 0.0, "is_reserved": 0, "fusion_lat": 0.0, "lon": -77.03173683333333, "rental_uris": {"ios": "https://dc.lft.to/lastmile_qr_scan", "android": "https://dc.lft.to/lastmile_qr_scan"}, "bike_id": "4a6feaae6b5e6c95b44557bb5ee16362", "lat": 38.90793516666667, "name": "4a6feaae6b5e6c95b44557bb5ee16362"}, {"is_disabled": 0, "type": "electric_scooter", "fusion_lon": 0.0, "is_reserved": 0, "fusion_lat": 0.0, "lon": -76.9370955, "rental_uris": {"ios": "https://dc.lft.to/lastmile_qr_scan", "android": "https://dc.lft.to/lastmile_qr_scan"}, "bike_id": "dbbf0cb14126b93d9a6b3bd3f4f5b96c", "lat": 38.88854716666667, "name": "dbbf0cb14126b93d9a6b3bd3f4f5b96c"}, {"is_disabled": 0, "type": "electric_scooter", "fusion_lon": 0.0, "is_reserved": 0, "fusion_lat": 0.0, "lon": -77.02980416666666, "rental_uris": {"ios": "https://dc.lft.to/lastmile_qr_scan", "android": "https://dc.lft.to/lastmile_qr_scan"}, "bike_id": "5973266831502da748d9a865c05aeb7d", "lat": 38.90491683333333, "name": "5973266831502da748d9a865c05aeb7d"}, {"is_disabled": 0, "type": "electric_scooter", "fusion_lon": 0.0, "is_reserved": 0, "fusion_lat": 0.0, "lon": -77.0216755, "rental_uris": {"ios": "https://dc.lft.to/lastmile_qr_scan", "android": "https://dc.lft.to/lastmile_qr_scan"}, "bike_id": "bd762e3f5883b676525a57ff2c03c8b5", "lat": 38.92636383333333, "name": "bd762e3f5883b676525a57ff2c03c8b5"}, {"is_disabled": 0, "type": "electric_scooter", "fusion_lon": 0.0, "is_reserved": 0, "fusion_lat": 0.0, "lon": -77.00756966666667, "rental_uris": {"ios": "https://dc.lft.to/lastmile_qr_scan", "android": "https://dc.lft.to/lastmile_qr_scan"}, "bike_id": "4b6b5da24651d00af648c78599aed4a3", "lat": 38.89733433333333, "name": "4b6b5da24651d00af648c78599aed4a3"}, {"is_disabled": 0, "type": "electric_scooter", "fusion_lon": 0.0, "is_reserved": 0, "fusion_lat": 0.0, "lon": -77.067684, "rental_uris": {"ios": "https://dc.lft.to/lastmile_qr_scan", "android": "https://dc.lft.to/lastmile_qr_scan"}, "bike_id": "461c5f68032775794b2558588fa5b316", "lat": 38.90406483333334, "name": "461c5f68032775794b2558588fa5b316"}, {"is_disabled": 0, "type": "electric_scooter", "fusion_lon": 0.0, "is_reserved": 0, "fusion_lat": 0.0, "lon": -77.05082116666667, "rental_uris": {"ios": "https://dc.lft.to/lastmile_qr_scan", "android": "https://dc.lft.to/lastmile_qr_scan"}, "bike_id": "71418d80c88b6b9f488cd7e3f7397a75", "lat": 38.901937, "name": "71418d80c88b6b9f488cd7e3f7397a75"}, {"is_disabled": 0, "type": "electric_scooter", "fusion_lon": 0.0, "is_reserved": 0, "fusion_lat": 0.0, "lon": -77.04514583333334, "rental_uris": {"ios": "https://dc.lft.to/lastmile_qr_scan", "android": "https://dc.lft.to/lastmile_qr_scan"}, "bike_id": "fdb606764eeecec569b4f5e759c77129", "lat": 38.92148516666666, "name": "fdb606764eeecec569b4f5e759c77129"}, {"is_disabled": 0, "type": "electric_scooter", "fusion_lon": 0.0, "is_reserved": 0, "fusion_lat": 0.0, "lon": -77.026921, "rental_uris": {"ios": "https://dc.lft.to/lastmile_qr_scan", "android": "https://dc.lft.to/lastmile_qr_scan"}, "bike_id": "d3900d4603eb42c396e988df9753e0a2", "lat": 38.89746016666667, "name": "d3900d4603eb42c396e988df9753e0a2"}, {"is_disabled": 0, "type": "electric_scooter", "fusion_lon": 0.0, "is_reserved": 0, "fusion_lat": 0.0, "lon": -77.02361466666666, "rental_uris": {"ios": "https://dc.lft.to/lastmile_qr_scan", "android": "https://dc.lft.to/lastmile_qr_scan"}, "bike_id": "6be7d89ddf6486fbeb90e1b4639ec0f5", "lat": 38.92068583333333, "name": "6be7d89ddf6486fbeb90e1b4639ec0f5"}, {"is_disabled": 0, "type": "electric_scooter", "fusion_lon": 0.0, "is_reserved": 0, "fusion_lat": 0.0, "lon": -77.03956466666666, "rental_uris": {"ios": "https://dc.lft.to/lastmile_qr_scan", "android": "https://dc.lft.to/lastmile_qr_scan"}, "bike_id": "386d95fc347d43c5a6dc7e730ad4734c", "lat": 38.90138683333333, "name": "386d95fc347d43c5a6dc7e730ad4734c"}, {"is_disabled": 0, "type": "electric_scooter", "fusion_lon": 0.0, "is_reserved": 0, "fusion_lat": 0.0, "lon": -77.03968733333333, "rental_uris": {"ios": "https://dc.lft.to/lastmile_qr_scan", "android": "https://dc.lft.to/lastmile_qr_scan"}, "bike_id": "fbffa637638b37f208428462949b698b", "lat": 38.893495, "name": "fbffa637638b37f208428462949b698b"}, {"is_disabled": 0, "type": "electric_scooter", "fusion_lon": 0.0, "is_reserved": 0, "fusion_lat": 0.0, "lon": -77.03951733333334, "rental_uris": {"ios": "https://dc.lft.to/lastmile_qr_scan", "android": "https://dc.lft.to/lastmile_qr_scan"}, "bike_id": "b1efa7f91c2af162c1e4ee418bae7a65", "lat": 38.90819533333333, "name": "b1efa7f91c2af162c1e4ee418bae7a65"}, {"is_disabled": 0, "type": "electric_scooter", "fusion_lon": 0.0, "is_reserved": 0, "fusion_lat": 0.0, "lon": -77.04884866666667, "rental_uris": {"ios": "https://dc.lft.to/lastmile_qr_scan", "android": "https://dc.lft.to/lastmile_qr_scan"}, "bike_id": "5e73bc697e9fb55b118190be89f4a194", "lat": 38.90027583333333, "name": "5e73bc697e9fb55b118190be89f4a194"}, {"is_disabled": 0, "type": "electric_scooter", "fusion_lon": 0.0, "is_reserved": 0, "fusion_lat": 0.0, "lon": -77.04210383333333, "rental_uris": {"ios": "https://dc.lft.to/lastmile_qr_scan", "android": "https://dc.lft.to/lastmile_qr_scan"}, "bike_id": "c097e904db77ab1ad1dd51dac278aa5b", "lat": 38.907057333333334, "name": "c097e904db77ab1ad1dd51dac278aa5b"}, {"is_disabled": 0, "type": "electric_bike", "fusion_lon": 0.0, "is_reserved": 0, "fusion_lat": 0.0, "lon": -76.98842016666667, "rental_uris": {"ios": "https://dc.lft.to/lastmile_qr_scan", "android": "https://dc.lft.to/lastmile_qr_scan"}, "bike_id": "e7447c50de0a6da86e72bb4ef738e3be", "lat": 38.842814, "name": "e7447c50de0a6da86e72bb4ef738e3be"}, {"is_disabled": 0, "type": "electric_scooter", "fusion_lon": 0.0, "is_reserved": 0, "fusion_lat": 0.0, "lon": -77.00918166666666, "rental_uris": {"ios": "https://dc.lft.to/lastmile_qr_scan", "android": "https://dc.lft.to/lastmile_qr_scan"}, "bike_id": "afa3221f86ade2e29bebccf4d8cdcd49", "lat": 38.92340033333333, "name": "afa3221f86ade2e29bebccf4d8cdcd49"}, {"is_disabled": 0, "type": "electric_scooter", "fusion_lon": 0.0, "is_reserved": 0, "fusion_lat": 0.0, "lon": -77.0316335, "rental_uris": {"ios": "https://dc.lft.to/lastmile_qr_scan", "android": "https://dc.lft.to/lastmile_qr_scan"}, "bike_id": "452402c3be88f85e50787965160a1690", "lat": 38.892185166666664, "name": "452402c3be88f85e50787965160a1690"}, {"is_disabled": 0, "type": "electric_scooter", "fusion_lon": 0.0, "is_reserved": 0, "fusion_lat": 0.0, "lon": -77.01888033333333, "rental_uris": {"ios": "https://dc.lft.to/lastmile_qr_scan", "android": "https://dc.lft.to/lastmile_qr_scan"}, "bike_id": "96448a05ea60f9498a682719c6d6d2b0", "lat": 38.923339666666664, "name": "96448a05ea60f9498a682719c6d6d2b0"}, {"is_disabled": 0, "type": "electric_scooter", "fusion_lon": 0.0, "is_reserved": 0, "fusion_lat": 0.0, "lon": -77.02058983333333, "rental_uris": {"ios": "https://dc.lft.to/lastmile_qr_scan", "android": "https://dc.lft.to/lastmile_qr_scan"}, "bike_id": "0e06354ed586ba9c7555f396c6a2cc5b", "lat": 38.92374566666667, "name": "0e06354ed586ba9c7555f396c6a2cc5b"}, {"is_disabled": 0, "type": "electric_scooter", "fusion_lon": 0.0, "is_reserved": 0, "fusion_lat": 0.0, "lon": -77.02440266666666, "rental_uris": {"ios": "https://dc.lft.to/lastmile_qr_scan", "android": "https://dc.lft.to/lastmile_qr_scan"}, "bike_id": "e8bb3e65eb9fb768010b8c92ffcb5fba", "lat": 38.933681666666665, "name": "e8bb3e65eb9fb768010b8c92ffcb5fba"}, {"is_disabled": 0, "type": "electric_scooter", "fusion_lon": 0.0, "is_reserved": 0, "fusion_lat": 0.0, "lon": -77.065689, "rental_uris": {"ios": "https://dc.lft.to/lastmile_qr_scan", "android": "https://dc.lft.to/lastmile_qr_scan"}, "bike_id": "670b673cb5829bf530a3f0c3f93086c6", "lat": 38.94846183333333, "name": "670b673cb5829bf530a3f0c3f93086c6"}, {"is_disabled": 0, "type": "electric_scooter", "fusion_lon": 0.0, "is_reserved": 0, "fusion_lat": 0.0, "lon": -77.02294833333333, "rental_uris": {"ios": "https://dc.lft.to/lastmile_qr_scan", "android": "https://dc.lft.to/lastmile_qr_scan"}, "bike_id": "7ea40f2d2e43e2c4f5709d1db507845b", "lat": 38.94081766666667, "name": "7ea40f2d2e43e2c4f5709d1db507845b"}, {"is_disabled": 0, "type": "electric_bike", "fusion_lon": 0.0, "is_reserved": 0, "fusion_lat": 0.0, "lon": -76.9893795, "rental_uris": {"ios": "https://dc.lft.to/lastmile_qr_scan", "android": "https://dc.lft.to/lastmile_qr_scan"}, "bike_id": "19824715ab8e4d68d9cf3246a7b8294e", "lat": 38.928628, "name": "19824715ab8e4d68d9cf3246a7b8294e"}, {"is_disabled": 0, "type": "electric_bike", "fusion_lon": 0.0, "is_reserved": 0, "fusion_lat": 0.0, "lon": -77.040764, "rental_uris": {"ios": "https://dc.lft.to/lastmile_qr_scan", "android": "https://dc.lft.to/lastmile_qr_scan"}, "bike_id": "95991ae84a2c6b28ff7c2eab85155450", "lat": 38.830666, "name": "95991ae84a2c6b28ff7c2eab85155450"}, {"is_disabled": 0, "type": "electric_scooter", "fusion_lon": 0.0, "is_reserved": 0, "fusion_lat": 0.0, "lon": -77.05210833333334, "rental_uris": {"ios": "https://dc.lft.to/lastmile_qr_scan", "android": "https://dc.lft.to/lastmile_qr_scan"}, "bike_id": "8dafa7e1c03852b878306e9467cbf59e", "lat": 38.9244255, "name": "8dafa7e1c03852b878306e9467cbf59e"}, {"is_disabled": 0, "type": "electric_scooter", "fusion_lon": 0.0, "is_reserved": 0, "fusion_lat": 0.0, "lon": -77.03663133333333, "rental_uris": {"ios": "https://dc.lft.to/lastmile_qr_scan", "android": "https://dc.lft.to/lastmile_qr_scan"}, "bike_id": "e5f3a347db5def417b300300eaef375f", "lat": 38.9029805, "name": "e5f3a347db5def417b300300eaef375f"}, {"is_disabled": 0, "type": "electric_scooter", "fusion_lon": 0.0, "is_reserved": 0, "fusion_lat": 0.0, "lon": -77.005853, "rental_uris": {"ios": "https://dc.lft.to/lastmile_qr_scan", "android": "https://dc.lft.to/lastmile_qr_scan"}, "bike_id": "b773f441009ccadd2ee7ba1bb28497b3", "lat": 38.875199333333335, "name": "b773f441009ccadd2ee7ba1bb28497b3"}, {"is_disabled": 0, "type": "electric_scooter", "fusion_lon": 0.0, "is_reserved": 0, "fusion_lat": 0.0, "lon": -77.04685916666666, "rental_uris": {"ios": "https://dc.lft.to/lastmile_qr_scan", "android": "https://dc.lft.to/lastmile_qr_scan"}, "bike_id": "6b78881af1f196944d04a4d82b7cebae", "lat": 38.892222333333336, "name": "6b78881af1f196944d04a4d82b7cebae"}, {"is_disabled": 0, "type": "electric_scooter", "fusion_lon": 0.0, "is_reserved": 0, "fusion_lat": 0.0, "lon": -77.02737133333333, "rental_uris": {"ios": "https://dc.lft.to/lastmile_qr_scan", "android": "https://dc.lft.to/lastmile_qr_scan"}, "bike_id": "44acb35dceec7fd17bd8edeebecf359a", "lat": 38.94005533333333, "name": "44acb35dceec7fd17bd8edeebecf359a"}, {"is_disabled": 0, "type": "electric_scooter", "fusion_lon": 0.0, "is_reserved": 0, "fusion_lat": 0.0, "lon": -77.03093783333334, "rental_uris": {"ios": "https://dc.lft.to/lastmile_qr_scan", "android": "https://dc.lft.to/lastmile_qr_scan"}, "bike_id": "a7ed3534b9ee31dafd6094e7ec5dd90e", "lat": 38.903377, "name": "a7ed3534b9ee31dafd6094e7ec5dd90e"}, {"is_disabled": 0, "type": "electric_scooter", "fusion_lon": 0.0, "is_reserved": 0, "fusion_lat": 0.0, "lon": -77.05132783333333, "rental_uris": {"ios": "https://dc.lft.to/lastmile_qr_scan", "android": "https://dc.lft.to/lastmile_qr_scan"}, "bike_id": "b4d06c1498e65bc4f1e02dc305a80c5c", "lat": 38.9059395, "name": "b4d06c1498e65bc4f1e02dc305a80c5c"}, {"is_disabled": 0, "type": "electric_scooter", "fusion_lon": 0.0, "is_reserved": 0, "fusion_lat": 0.0, "lon": -76.97484866666667, "rental_uris": {"ios": "https://dc.lft.to/lastmile_qr_scan", "android": "https://dc.lft.to/lastmile_qr_scan"}, "bike_id": "55b4970e4e3a6523935662b55e883a84", "lat": 38.871534833333335, "name": "55b4970e4e3a6523935662b55e883a84"}, {"is_disabled": 0, "type": "electric_scooter", "fusion_lon": 0.0, "is_reserved": 0, "fusion_lat": 0.0, "lon": -77.04320183333333, "rental_uris": {"ios": "https://dc.lft.to/lastmile_qr_scan", "android": "https://dc.lft.to/lastmile_qr_scan"}, "bike_id": "490876d90982bbf65362f4db9f9e612c", "lat": 38.906734166666666, "name": "490876d90982bbf65362f4db9f9e612c"}, {"is_disabled": 0, "type": "electric_scooter", "fusion_lon": 0.0, "is_reserved": 0, "fusion_lat": 0.0, "lon": -76.98859533333334, "rental_uris": {"ios": "https://dc.lft.to/lastmile_qr_scan", "android": "https://dc.lft.to/lastmile_qr_scan"}, "bike_id": "edaaa9eb857add6202a8284eafb10d21", "lat": 38.900277333333335, "name": "edaaa9eb857add6202a8284eafb10d21"}, {"is_disabled": 0, "type": "electric_scooter", "fusion_lon": 0.0, "is_reserved": 0, "fusion_lat": 0.0, "lon": -77.01254066666667, "rental_uris": {"ios": "https://dc.lft.to/lastmile_qr_scan", "android": "https://dc.lft.to/lastmile_qr_scan"}, "bike_id": "5a23cc703b94a222cf4bcb8d259ebaf8", "lat": 38.90856683333333, "name": "5a23cc703b94a222cf4bcb8d259ebaf8"}, {"is_disabled": 0, "type": "electric_scooter", "fusion_lon": 0.0, "is_reserved": 0, "fusion_lat": 0.0, "lon": -76.98601166666667, "rental_uris": {"ios": "https://dc.lft.to/lastmile_qr_scan", "android": "https://dc.lft.to/lastmile_qr_scan"}, "bike_id": "a55051f571de7e4ee24a86c3cbc6272c", "lat": 38.906512, "name": "a55051f571de7e4ee24a86c3cbc6272c"}, {"is_disabled": 0, "type": "electric_scooter", "fusion_lon": 0.0, "is_reserved": 0, "fusion_lat": 0.0, "lon": -77.0255935, "rental_uris": {"ios": "https://dc.lft.to/lastmile_qr_scan", "android": "https://dc.lft.to/lastmile_qr_scan"}, "bike_id": "71aaa4e7d32394c23a6b8bd22fa4e147", "lat": 38.92416083333333, "name": "71aaa4e7d32394c23a6b8bd22fa4e147"}, {"is_disabled": 0, "type": "electric_bike", "fusion_lon": 0.0, "is_reserved": 0, "fusion_lat": 0.0, "lon": -76.9978735, "rental_uris": {"ios": "https://dc.lft.to/lastmile_qr_scan", "android": "https://dc.lft.to/lastmile_qr_scan"}, "bike_id": "32c6b78a12acfcc9c3a59f00aad4f907", "lat": 38.9982815, "name": "32c6b78a12acfcc9c3a59f00aad4f907"}, {"is_disabled": 0, "type": "electric_scooter", "fusion_lon": 0.0, "is_reserved": 0, "fusion_lat": 0.0, "lon": -77.0217715, "rental_uris": {"ios": "https://dc.lft.to/lastmile_qr_scan", "android": "https://dc.lft.to/lastmile_qr_scan"}, "bike_id": "29a027505cdb1cac402548eb7707bb9d", "lat": 38.92494116666667, "name": "29a027505cdb1cac402548eb7707bb9d"}, {"is_disabled": 0, "type": "electric_scooter", "fusion_lon": 0.0, "is_reserved": 0, "fusion_lat": 0.0, "lon": -76.9905965, "rental_uris": {"ios": "https://dc.lft.to/lastmile_qr_scan", "android": "https://dc.lft.to/lastmile_qr_scan"}, "bike_id": "3d461273b4272bb55f945a6b9c9c591d", "lat": 38.863739833333334, "name": "3d461273b4272bb55f945a6b9c9c591d"}, {"is_disabled": 0, "type": "electric_scooter", "fusion_lon": 0.0, "is_reserved": 0, "fusion_lat": 0.0, "lon": -76.98379883333334, "rental_uris": {"ios": "https://dc.lft.to/lastmile_qr_scan", "android": "https://dc.lft.to/lastmile_qr_scan"}, "bike_id": "aae290dcf96d1b618dc129ca891cad3e", "lat": 38.90653866666667, "name": "aae290dcf96d1b618dc129ca891cad3e"}, {"is_disabled": 0, "type": "electric_scooter", "fusion_lon": 0.0, "is_reserved": 0, "fusion_lat": 0.0, "lon": -77.01816566666666, "rental_uris": {"ios": "https://dc.lft.to/lastmile_qr_scan", "android": "https://dc.lft.to/lastmile_qr_scan"}, "bike_id": "e5d20322ed3bf504db8de5c1c38b5f27", "lat": 38.920839666666666, "name": "e5d20322ed3bf504db8de5c1c38b5f27"}, {"is_disabled": 0, "type": "electric_scooter", "fusion_lon": 0.0, "is_reserved": 0, "fusion_lat": 0.0, "lon": -77.0216445, "rental_uris": {"ios": "https://dc.lft.to/lastmile_qr_scan", "android": "https://dc.lft.to/lastmile_qr_scan"}, "bike_id": "5647546581a60e71dede04d694520327", "lat": 38.89938133333333, "name": "5647546581a60e71dede04d694520327"}, {"is_disabled": 0, "type": "electric_scooter", "fusion_lon": 0.0, "is_reserved": 0, "fusion_lat": 0.0, "lon": -76.97718333333333, "rental_uris": {"ios": "https://dc.lft.to/lastmile_qr_scan", "android": "https://dc.lft.to/lastmile_qr_scan"}, "bike_id": "35f612088378a0bef97a567b5940bded", "lat": 38.8882255, "name": "35f612088378a0bef97a567b5940bded"}, {"is_disabled": 0, "type": "electric_scooter", "fusion_lon": 0.0, "is_reserved": 0, "fusion_lat": 0.0, "lon": -77.03268966666667, "rental_uris": {"ios": "https://dc.lft.to/lastmile_qr_scan", "android": "https://dc.lft.to/lastmile_qr_scan"}, "bike_id": "2c87b2b1ba3eb4294d7ed8ab17fd59af", "lat": 38.89880933333333, "name": "2c87b2b1ba3eb4294d7ed8ab17fd59af"}, {"is_disabled": 0, "type": "electric_scooter", "fusion_lon": 0.0, "is_reserved": 0, "fusion_lat": 0.0, "lon": -77.03497633333333, "rental_uris": {"ios": "https://dc.lft.to/lastmile_qr_scan", "android": "https://dc.lft.to/lastmile_qr_scan"}, "bike_id": "cdeca4be8d686b17e2d4c5fa3d6615de", "lat": 38.91686933333333, "name": "cdeca4be8d686b17e2d4c5fa3d6615de"}, {"is_disabled": 0, "type": "electric_scooter", "fusion_lon": 0.0, "is_reserved": 0, "fusion_lat": 0.0, "lon": -77.03441583333333, "rental_uris": {"ios": "https://dc.lft.to/lastmile_qr_scan", "android": "https://dc.lft.to/lastmile_qr_scan"}, "bike_id": "0411bc9b314788d34ccb3f145a94ddfc", "lat": 38.920526, "name": "0411bc9b314788d34ccb3f145a94ddfc"}, {"is_disabled": 0, "type": "electric_scooter", "fusion_lon": 0.0, "is_reserved": 0, "fusion_lat": 0.0, "lon": -77.01109283333334, "rental_uris": {"ios": "https://dc.lft.to/lastmile_qr_scan", "android": "https://dc.lft.to/lastmile_qr_scan"}, "bike_id": "1fddee4bce7ac5f50bdf3b080fb885d0", "lat": 38.8948035, "name": "1fddee4bce7ac5f50bdf3b080fb885d0"}, {"is_disabled": 0, "type": "electric_scooter", "fusion_lon": 0.0, "is_reserved": 0, "fusion_lat": 0.0, "lon": -77.04874216666667, "rental_uris": {"ios": "https://dc.lft.to/lastmile_qr_scan", "android": "https://dc.lft.to/lastmile_qr_scan"}, "bike_id": "a41fea2a511b1591f88bdcf7bb57a5c5", "lat": 38.899406666666664, "name": "a41fea2a511b1591f88bdcf7bb57a5c5"}, {"is_disabled": 0, "type": "electric_bike", "fusion_lon": 0.0, "is_reserved": 0, "fusion_lat": 0.0, "lon": -77.06270083333334, "rental_uris": {"ios": "https://dc.lft.to/lastmile_qr_scan", "android": "https://dc.lft.to/lastmile_qr_scan"}, "bike_id": "7324f7d5dc8b1c900f654b7171ef4882", "lat": 38.903755, "name": "7324f7d5dc8b1c900f654b7171ef4882"}, {"is_disabled": 0, "type": "electric_scooter", "fusion_lon": 0.0, "is_reserved": 0, "fusion_lat": 0.0, "lon": -77.02149483333334, "rental_uris": {"ios": "https://dc.lft.to/lastmile_qr_scan", "android": "https://dc.lft.to/lastmile_qr_scan"}, "bike_id": "1242569ba982df875e2de717fdadb4be", "lat": 38.924563, "name": "1242569ba982df875e2de717fdadb4be"}, {"is_disabled": 0, "type": "electric_scooter", "fusion_lon": 0.0, "is_reserved": 0, "fusion_lat": 0.0, "lon": -77.032204, "rental_uris": {"ios": "https://dc.lft.to/lastmile_qr_scan", "android": "https://dc.lft.to/lastmile_qr_scan"}, "bike_id": "0959db12dcba6164bead67d91e89735e", "lat": 38.911808666666666, "name": "0959db12dcba6164bead67d91e89735e"}, {"is_disabled": 0, "type": "electric_scooter", "fusion_lon": 0.0, "is_reserved": 0, "fusion_lat": 0.0, "lon": -77.01229666666667, "rental_uris": {"ios": "https://dc.lft.to/lastmile_qr_scan", "android": "https://dc.lft.to/lastmile_qr_scan"}, "bike_id": "f836a8e25bfd6f31c7fd849f7d5647a1", "lat": 38.93018883333333, "name": "f836a8e25bfd6f31c7fd849f7d5647a1"}, {"is_disabled": 0, "type": "electric_scooter", "fusion_lon": 0.0, "is_reserved": 0, "fusion_lat": 0.0, "lon": -77.05129283333333, "rental_uris": {"ios": "https://dc.lft.to/lastmile_qr_scan", "android": "https://dc.lft.to/lastmile_qr_scan"}, "bike_id": "c075120b39fffb4bc2a393a283133d0d", "lat": 38.906615, "name": "c075120b39fffb4bc2a393a283133d0d"}, {"is_disabled": 0, "type": "electric_scooter", "fusion_lon": 0.0, "is_reserved": 0, "fusion_lat": 0.0, "lon": -77.050719, "rental_uris": {"ios": "https://dc.lft.to/lastmile_qr_scan", "android": "https://dc.lft.to/lastmile_qr_scan"}, "bike_id": "38a197c676eff1ac64f90fafd101f8c6", "lat": 38.90156116666667, "name": "38a197c676eff1ac64f90fafd101f8c6"}, {"is_disabled": 0, "type": "electric_scooter", "fusion_lon": 0.0, "is_reserved": 0, "fusion_lat": 0.0, "lon": -77.04685466666666, "rental_uris": {"ios": "https://dc.lft.to/lastmile_qr_scan", "android": "https://dc.lft.to/lastmile_qr_scan"}, "bike_id": "a3109f691d5787547b80ca36681fcb13", "lat": 38.892223666666666, "name": "a3109f691d5787547b80ca36681fcb13"}, {"is_disabled": 0, "type": "electric_scooter", "fusion_lon": 0.0, "is_reserved": 0, "fusion_lat": 0.0, "lon": -77.003729, "rental_uris": {"ios": "https://dc.lft.to/lastmile_qr_scan", "android": "https://dc.lft.to/lastmile_qr_scan"}, "bike_id": "0a37a20d6ef633976a7f6aa2e9c8e154", "lat": 38.876412, "name": "0a37a20d6ef633976a7f6aa2e9c8e154"}, {"is_disabled": 0, "type": "electric_scooter", "fusion_lon": 0.0, "is_reserved": 0, "fusion_lat": 0.0, "lon": -76.92946883333333, "rental_uris": {"ios": "https://dc.lft.to/lastmile_qr_scan", "android": "https://dc.lft.to/lastmile_qr_scan"}, "bike_id": "7175ba23bac031f0f6c2bfebc0784981", "lat": 38.901800333333334, "name": "7175ba23bac031f0f6c2bfebc0784981"}, {"is_disabled": 0, "type": "electric_bike", "fusion_lon": 0.0, "is_reserved": 0, "fusion_lat": 0.0, "lon": -77.22565866666666, "rental_uris": {"ios": "https://dc.lft.to/lastmile_qr_scan", "android": "https://dc.lft.to/lastmile_qr_scan"}, "bike_id": "7b6d7d54d0949946a97d93bb79c98125", "lat": 38.92958866666667, "name": "7b6d7d54d0949946a97d93bb79c98125"}, {"is_disabled": 0, "type": "electric_scooter", "fusion_lon": 0.0, "is_reserved": 0, "fusion_lat": 0.0, "lon": -77.00713266666666, "rental_uris": {"ios": "https://dc.lft.to/lastmile_qr_scan", "android": "https://dc.lft.to/lastmile_qr_scan"}, "bike_id": "22bea6f8ff3f1f4abd79977d0c6b34e8", "lat": 38.917052, "name": "22bea6f8ff3f1f4abd79977d0c6b34e8"}, {"is_disabled": 0, "type": "electric_scooter", "fusion_lon": 0.0, "is_reserved": 0, "fusion_lat": 0.0, "lon": -77.02583583333333, "rental_uris": {"ios": "https://dc.lft.to/lastmile_qr_scan", "android": "https://dc.lft.to/lastmile_qr_scan"}, "bike_id": "de2d06dc98ac99036bdaeb233036de1b", "lat": 38.92034783333333, "name": "de2d06dc98ac99036bdaeb233036de1b"}, {"is_disabled": 0, "type": "electric_scooter", "fusion_lon": 0.0, "is_reserved": 0, "fusion_lat": 0.0, "lon": -77.02778166666667, "rental_uris": {"ios": "https://dc.lft.to/lastmile_qr_scan", "android": "https://dc.lft.to/lastmile_qr_scan"}, "bike_id": "fd8bce40add0f9c72954f1f0c0e23eae", "lat": 38.8985405, "name": "fd8bce40add0f9c72954f1f0c0e23eae"}, {"is_disabled": 0, "type": "electric_scooter", "fusion_lon": 0.0, "is_reserved": 0, "fusion_lat": 0.0, "lon": -76.97807016666667, "rental_uris": {"ios": "https://dc.lft.to/lastmile_qr_scan", "android": "https://dc.lft.to/lastmile_qr_scan"}, "bike_id": "2ea11568950884dc0b48ab3712c6e473", "lat": 38.92034666666667, "name": "2ea11568950884dc0b48ab3712c6e473"}, {"is_disabled": 0, "type": "electric_scooter", "fusion_lon": 0.0, "is_reserved": 0, "fusion_lat": 0.0, "lon": -77.008901, "rental_uris": {"ios": "https://dc.lft.to/lastmile_qr_scan", "android": "https://dc.lft.to/lastmile_qr_scan"}, "bike_id": "ec0112f89650277f883829ab0adb4aeb", "lat": 38.90982983333333, "name": "ec0112f89650277f883829ab0adb4aeb"}, {"is_disabled": 0, "type": "electric_scooter", "fusion_lon": 0.0, "is_reserved": 0, "fusion_lat": 0.0, "lon": -77.02568083333334, "rental_uris": {"ios": "https://dc.lft.to/lastmile_qr_scan", "android": "https://dc.lft.to/lastmile_qr_scan"}, "bike_id": "11b913a31c01dd3b90ac7ec8589090a5", "lat": 38.8976185, "name": "11b913a31c01dd3b90ac7ec8589090a5"}, {"is_disabled": 0, "type": "electric_scooter", "fusion_lon": 0.0, "is_reserved": 0, "fusion_lat": 0.0, "lon": -77.03622716666666, "rental_uris": {"ios": "https://dc.lft.to/lastmile_qr_scan", "android": "https://dc.lft.to/lastmile_qr_scan"}, "bike_id": "f2630db3465c1db3415b2add417b1302", "lat": 38.92329433333333, "name": "f2630db3465c1db3415b2add417b1302"}, {"is_disabled": 0, "type": "electric_scooter", "fusion_lon": 0.0, "is_reserved": 0, "fusion_lat": 0.0, "lon": -77.0209445, "rental_uris": {"ios": "https://dc.lft.to/lastmile_qr_scan", "android": "https://dc.lft.to/lastmile_qr_scan"}, "bike_id": "24170f20b94b5b91432704e55a5ad64f", "lat": 38.92154583333333, "name": "24170f20b94b5b91432704e55a5ad64f"}, {"is_disabled": 0, "type": "electric_scooter", "fusion_lon": 0.0, "is_reserved": 0, "fusion_lat": 0.0, "lon": -77.0284065, "rental_uris": {"ios": "https://dc.lft.to/lastmile_qr_scan", "android": "https://dc.lft.to/lastmile_qr_scan"}, "bike_id": "7a5c944be8cb033221ed648fd78d8afb", "lat": 38.898568, "name": "7a5c944be8cb033221ed648fd78d8afb"}, {"is_disabled": 0, "type": "electric_scooter", "fusion_lon": 0.0, "is_reserved": 0, "fusion_lat": 0.0, "lon": -77.04174916666666, "rental_uris": {"ios": "https://dc.lft.to/lastmile_qr_scan", "android": "https://dc.lft.to/lastmile_qr_scan"}, "bike_id": "df77362abcf2e6d0dd24afb34581e4ca", "lat": 38.905026166666666, "name": "df77362abcf2e6d0dd24afb34581e4ca"}, {"is_disabled": 0, "type": "electric_scooter", "fusion_lon": 0.0, "is_reserved": 0, "fusion_lat": 0.0, "lon": -77.04360133333333, "rental_uris": {"ios": "https://dc.lft.to/lastmile_qr_scan", "android": "https://dc.lft.to/lastmile_qr_scan"}, "bike_id": "c6de3979f5e4047c57814af688a1299a", "lat": 38.90399933333333, "name": "c6de3979f5e4047c57814af688a1299a"}, {"is_disabled": 0, "type": "electric_scooter", "fusion_lon": 0.0, "is_reserved": 0, "fusion_lat": 0.0, "lon": -77.02101116666667, "rental_uris": {"ios": "https://dc.lft.to/lastmile_qr_scan", "android": "https://dc.lft.to/lastmile_qr_scan"}, "bike_id": "8790897fb186c135c7215de0f82193ea", "lat": 38.931176666666666, "name": "8790897fb186c135c7215de0f82193ea"}, {"is_disabled": 0, "type": "electric_scooter", "fusion_lon": 0.0, "is_reserved": 0, "fusion_lat": 0.0, "lon": -77.00883966666666, "rental_uris": {"ios": "https://dc.lft.to/lastmile_qr_scan", "android": "https://dc.lft.to/lastmile_qr_scan"}, "bike_id": "ed57b5ae0f7d53081989483d43212ea6", "lat": 38.89510716666667, "name": "ed57b5ae0f7d53081989483d43212ea6"}, {"is_disabled": 0, "type": "electric_scooter", "fusion_lon": 0.0, "is_reserved": 0, "fusion_lat": 0.0, "lon": -76.99502533333333, "rental_uris": {"ios": "https://dc.lft.to/lastmile_qr_scan", "android": "https://dc.lft.to/lastmile_qr_scan"}, "bike_id": "08e5e5ba02df4a1314fd1df72ae372fa", "lat": 38.88078933333333, "name": "08e5e5ba02df4a1314fd1df72ae372fa"}, {"is_disabled": 0, "type": "electric_scooter", "fusion_lon": 0.0, "is_reserved": 0, "fusion_lat": 0.0, "lon": -77.08704283333333, "rental_uris": {"ios": "https://dc.lft.to/lastmile_qr_scan", "android": "https://dc.lft.to/lastmile_qr_scan"}, "bike_id": "356e0a174224bfdc581daf93f45b54f6", "lat": 38.93520483333333, "name": "356e0a174224bfdc581daf93f45b54f6"}, {"is_disabled": 0, "type": "electric_scooter", "fusion_lon": 0.0, "is_reserved": 0, "fusion_lat": 0.0, "lon": -77.05033933333333, "rental_uris": {"ios": "https://dc.lft.to/lastmile_qr_scan", "android": "https://dc.lft.to/lastmile_qr_scan"}, "bike_id": "8b207269c1b79e840485dca9ec97991a", "lat": 38.91115116666667, "name": "8b207269c1b79e840485dca9ec97991a"}, {"is_disabled": 0, "type": "electric_scooter", "fusion_lon": 0.0, "is_reserved": 0, "fusion_lat": 0.0, "lon": -77.06656616666666, "rental_uris": {"ios": "https://dc.lft.to/lastmile_qr_scan", "android": "https://dc.lft.to/lastmile_qr_scan"}, "bike_id": "88858ec72cf17c57abb36e2fa46b7f47", "lat": 38.91379383333334, "name": "88858ec72cf17c57abb36e2fa46b7f47"}, {"is_disabled": 0, "type": "electric_scooter", "fusion_lon": 0.0, "is_reserved": 0, "fusion_lat": 0.0, "lon": -77.03457333333333, "rental_uris": {"ios": "https://dc.lft.to/lastmile_qr_scan", "android": "https://dc.lft.to/lastmile_qr_scan"}, "bike_id": "e4a9f4b08dcab69f142298656777f747", "lat": 38.905605666666666, "name": "e4a9f4b08dcab69f142298656777f747"}, {"is_disabled": 0, "type": "electric_bike", "fusion_lon": 0.0, "is_reserved": 0, "fusion_lat": 0.0, "lon": -76.941489, "rental_uris": {"ios": "https://dc.lft.to/lastmile_qr_scan", "android": "https://dc.lft.to/lastmile_qr_scan"}, "bike_id": "fcf0436b0e54ab7e1a359789c40300a1", "lat": 38.86554683333333, "name": "fcf0436b0e54ab7e1a359789c40300a1"}, {"is_disabled": 0, "type": "electric_scooter", "fusion_lon": 0.0, "is_reserved": 0, "fusion_lat": 0.0, "lon": -77.04052433333334, "rental_uris": {"ios": "https://dc.lft.to/lastmile_qr_scan", "android": "https://dc.lft.to/lastmile_qr_scan"}, "bike_id": "e7c6d14dd60e5a7c20e9e62016dc77c2", "lat": 38.901451, "name": "e7c6d14dd60e5a7c20e9e62016dc77c2"}, {"is_disabled": 0, "type": "electric_scooter", "fusion_lon": 0.0, "is_reserved": 0, "fusion_lat": 0.0, "lon": -77.01388766666666, "rental_uris": {"ios": "https://dc.lft.to/lastmile_qr_scan", "android": "https://dc.lft.to/lastmile_qr_scan"}, "bike_id": "6b3a6361e99593eb2cb5cca86c439fce", "lat": 38.88733716666667, "name": "6b3a6361e99593eb2cb5cca86c439fce"}, {"is_disabled": 0, "type": "electric_scooter", "fusion_lon": 0.0, "is_reserved": 0, "fusion_lat": 0.0, "lon": -77.02160433333333, "rental_uris": {"ios": "https://dc.lft.to/lastmile_qr_scan", "android": "https://dc.lft.to/lastmile_qr_scan"}, "bike_id": "f691d4aed91596676bc436e2ccf53696", "lat": 38.926112333333336, "name": "f691d4aed91596676bc436e2ccf53696"}, {"is_disabled": 0, "type": "electric_bike", "fusion_lon": 0.0, "is_reserved": 0, "fusion_lat": 0.0, "lon": -77.08527116666667, "rental_uris": {"ios": "https://dc.lft.to/lastmile_qr_scan", "android": "https://dc.lft.to/lastmile_qr_scan"}, "bike_id": "a0baebaae346852b15ed5df48b08ae5d", "lat": 38.85649183333334, "name": "a0baebaae346852b15ed5df48b08ae5d"}, {"is_disabled": 0, "type": "electric_scooter", "fusion_lon": 0.0, "is_reserved": 0, "fusion_lat": 0.0, "lon": -77.02045166666667, "rental_uris": {"ios": "https://dc.lft.to/lastmile_qr_scan", "android": "https://dc.lft.to/lastmile_qr_scan"}, "bike_id": "d2163f357f6aa0f289e3e40e897911f1", "lat": 38.92177083333333, "name": "d2163f357f6aa0f289e3e40e897911f1"}, {"is_disabled": 0, "type": "electric_scooter", "fusion_lon": 0.0, "is_reserved": 0, "fusion_lat": 0.0, "lon": -77.02269733333333, "rental_uris": {"ios": "https://dc.lft.to/lastmile_qr_scan", "android": "https://dc.lft.to/lastmile_qr_scan"}, "bike_id": "fcbf207999a9df5cd978d4ed92d4de74", "lat": 38.92579633333333, "name": "fcbf207999a9df5cd978d4ed92d4de74"}, {"is_disabled": 0, "type": "electric_scooter", "fusion_lon": 0.0, "is_reserved": 0, "fusion_lat": 0.0, "lon": -77.04310883333333, "rental_uris": {"ios": "https://dc.lft.to/lastmile_qr_scan", "android": "https://dc.lft.to/lastmile_qr_scan"}, "bike_id": "fe6f81be13cc0bfa6b9e0015aa09dcbb", "lat": 38.9187825, "name": "fe6f81be13cc0bfa6b9e0015aa09dcbb"}, {"is_disabled": 0, "type": "electric_scooter", "fusion_lon": 0.0, "is_reserved": 0, "fusion_lat": 0.0, "lon": -77.062955, "rental_uris": {"ios": "https://dc.lft.to/lastmile_qr_scan", "android": "https://dc.lft.to/lastmile_qr_scan"}, "bike_id": "1bfbc294e68df5f3e453e434060b4324", "lat": 38.906060333333336, "name": "1bfbc294e68df5f3e453e434060b4324"}, {"is_disabled": 0, "type": "electric_scooter", "fusion_lon": 0.0, "is_reserved": 0, "fusion_lat": 0.0, "lon": -77.02709716666666, "rental_uris": {"ios": "https://dc.lft.to/lastmile_qr_scan", "android": "https://dc.lft.to/lastmile_qr_scan"}, "bike_id": "289490707533f36c7be713a98d595af3", "lat": 38.91665416666667, "name": "289490707533f36c7be713a98d595af3"}, {"is_disabled": 0, "type": "electric_scooter", "fusion_lon": 0.0, "is_reserved": 0, "fusion_lat": 0.0, "lon": -77.02197266666667, "rental_uris": {"ios": "https://dc.lft.to/lastmile_qr_scan", "android": "https://dc.lft.to/lastmile_qr_scan"}, "bike_id": "7b71255d4f97478f08ec7e0b3c83705e", "lat": 38.910123, "name": "7b71255d4f97478f08ec7e0b3c83705e"}, {"is_disabled": 0, "type": "electric_scooter", "fusion_lon": 0.0, "is_reserved": 0, "fusion_lat": 0.0, "lon": -77.01306216666667, "rental_uris": {"ios": "https://dc.lft.to/lastmile_qr_scan", "android": "https://dc.lft.to/lastmile_qr_scan"}, "bike_id": "e01441da68d1d43c8880c10ad7d873cc", "lat": 38.89707816666667, "name": "e01441da68d1d43c8880c10ad7d873cc"}, {"is_disabled": 0, "type": "electric_scooter", "fusion_lon": 0.0, "is_reserved": 0, "fusion_lat": 0.0, "lon": -77.0254895, "rental_uris": {"ios": "https://dc.lft.to/lastmile_qr_scan", "android": "https://dc.lft.to/lastmile_qr_scan"}, "bike_id": "215c9175db78a79225dbdd134ae6c1d0", "lat": 38.920697, "name": "215c9175db78a79225dbdd134ae6c1d0"}, {"is_disabled": 0, "type": "electric_bike", "fusion_lon": 0.0, "is_reserved": 0, "fusion_lat": 0.0, "lon": -77.03979016666666, "rental_uris": {"ios": "https://dc.lft.to/lastmile_qr_scan", "android": "https://dc.lft.to/lastmile_qr_scan"}, "bike_id": "c659a5774ca12871a6b8e46838a82b6e", "lat": 38.898565833333336, "name": "c659a5774ca12871a6b8e46838a82b6e"}, {"is_disabled": 0, "type": "electric_scooter", "fusion_lon": 0.0, "is_reserved": 0, "fusion_lat": 0.0, "lon": -77.02720416666666, "rental_uris": {"ios": "https://dc.lft.to/lastmile_qr_scan", "android": "https://dc.lft.to/lastmile_qr_scan"}, "bike_id": "6fb88ff311b892fe2eca0d689773bb57", "lat": 38.8971375, "name": "6fb88ff311b892fe2eca0d689773bb57"}, {"is_disabled": 0, "type": "electric_scooter", "fusion_lon": 0.0, "is_reserved": 0, "fusion_lat": 0.0, "lon": -77.02008333333333, "rental_uris": {"ios": "https://dc.lft.to/lastmile_qr_scan", "android": "https://dc.lft.to/lastmile_qr_scan"}, "bike_id": "0e71e0fbd1244c7df9dbc81967cf2e0c", "lat": 38.92425333333333, "name": "0e71e0fbd1244c7df9dbc81967cf2e0c"}, {"is_disabled": 0, "type": "electric_scooter", "fusion_lon": 0.0, "is_reserved": 0, "fusion_lat": 0.0, "lon": -77.00329966666666, "rental_uris": {"ios": "https://dc.lft.to/lastmile_qr_scan", "android": "https://dc.lft.to/lastmile_qr_scan"}, "bike_id": "bab17ccd30df917482e96953c3cd8e64", "lat": 38.89215983333333, "name": "bab17ccd30df917482e96953c3cd8e64"}, {"is_disabled": 0, "type": "electric_scooter", "fusion_lon": 0.0, "is_reserved": 0, "fusion_lat": 0.0, "lon": -77.01850366666666, "rental_uris": {"ios": "https://dc.lft.to/lastmile_qr_scan", "android": "https://dc.lft.to/lastmile_qr_scan"}, "bike_id": "51aa5ced43cfb9e87eb3636c041c4af8", "lat": 38.9214175, "name": "51aa5ced43cfb9e87eb3636c041c4af8"}, {"is_disabled": 0, "type": "electric_scooter", "fusion_lon": 0.0, "is_reserved": 0, "fusion_lat": 0.0, "lon": -77.00912033333333, "rental_uris": {"ios": "https://dc.lft.to/lastmile_qr_scan", "android": "https://dc.lft.to/lastmile_qr_scan"}, "bike_id": "eb659943fefb8038300d05786112c6f8", "lat": 38.89953633333333, "name": "eb659943fefb8038300d05786112c6f8"}, {"is_disabled": 0, "type": "electric_scooter", "fusion_lon": 0.0, "is_reserved": 0, "fusion_lat": 0.0, "lon": -77.03302433333333, "rental_uris": {"ios": "https://dc.lft.to/lastmile_qr_scan", "android": "https://dc.lft.to/lastmile_qr_scan"}, "bike_id": "eb2a5c9d7e5d5807cfdd5c89fbeb1acb", "lat": 38.9037645, "name": "eb2a5c9d7e5d5807cfdd5c89fbeb1acb"}, {"is_disabled": 0, "type": "electric_scooter", "fusion_lon": 0.0, "is_reserved": 0, "fusion_lat": 0.0, "lon": -77.02379966666666, "rental_uris": {"ios": "https://dc.lft.to/lastmile_qr_scan", "android": "https://dc.lft.to/lastmile_qr_scan"}, "bike_id": "6a1a9d5f545af4817eaf25d652350a80", "lat": 38.95271366666667, "name": "6a1a9d5f545af4817eaf25d652350a80"}, {"is_disabled": 0, "type": "electric_scooter", "fusion_lon": 0.0, "is_reserved": 0, "fusion_lat": 0.0, "lon": -77.00731883333333, "rental_uris": {"ios": "https://dc.lft.to/lastmile_qr_scan", "android": "https://dc.lft.to/lastmile_qr_scan"}, "bike_id": "c72d9657bceeb95239aa59373fc6c9ff", "lat": 38.9036265, "name": "c72d9657bceeb95239aa59373fc6c9ff"}, {"is_disabled": 0, "type": "electric_scooter", "fusion_lon": 0.0, "is_reserved": 0, "fusion_lat": 0.0, "lon": -77.035228, "rental_uris": {"ios": "https://dc.lft.to/lastmile_qr_scan", "android": "https://dc.lft.to/lastmile_qr_scan"}, "bike_id": "114846e6a4b817858b620dc66a280aa3", "lat": 38.902808, "name": "114846e6a4b817858b620dc66a280aa3"}, {"is_disabled": 0, "type": "electric_scooter", "fusion_lon": 0.0, "is_reserved": 0, "fusion_lat": 0.0, "lon": -77.05918583333333, "rental_uris": {"ios": "https://dc.lft.to/lastmile_qr_scan", "android": "https://dc.lft.to/lastmile_qr_scan"}, "bike_id": "a161c5bb4c5b63f5e3cace1a1f4b134c", "lat": 38.902309333333335, "name": "a161c5bb4c5b63f5e3cace1a1f4b134c"}, {"is_disabled": 0, "type": "electric_bike", "fusion_lon": 0.0, "is_reserved": 0, "fusion_lat": 0.0, "lon": -77.01054483333333, "rental_uris": {"ios": "https://dc.lft.to/lastmile_qr_scan", "android": "https://dc.lft.to/lastmile_qr_scan"}, "bike_id": "930f964a307bb72c0e80ae96dabef8b4", "lat": 38.966313166666666, "name": "930f964a307bb72c0e80ae96dabef8b4"}, {"is_disabled": 0, "type": "electric_scooter", "fusion_lon": 0.0, "is_reserved": 0, "fusion_lat": 0.0, "lon": -76.92587516666667, "rental_uris": {"ios": "https://dc.lft.to/lastmile_qr_scan", "android": "https://dc.lft.to/lastmile_qr_scan"}, "bike_id": "1aef1d4c684c1cdfe961bcb2f3cb2591", "lat": 38.89728566666667, "name": "1aef1d4c684c1cdfe961bcb2f3cb2591"}, {"is_disabled": 0, "type": "electric_scooter", "fusion_lon": 0.0, "is_reserved": 0, "fusion_lat": 0.0, "lon": -77.02583966666667, "rental_uris": {"ios": "https://dc.lft.to/lastmile_qr_scan", "android": "https://dc.lft.to/lastmile_qr_scan"}, "bike_id": "adde80b5ba191e5af5d12abdf26149ef", "lat": 38.920323333333336, "name": "adde80b5ba191e5af5d12abdf26149ef"}, {"is_disabled": 0, "type": "electric_scooter", "fusion_lon": 0.0, "is_reserved": 0, "fusion_lat": 0.0, "lon": -77.02139583333333, "rental_uris": {"ios": "https://dc.lft.to/lastmile_qr_scan", "android": "https://dc.lft.to/lastmile_qr_scan"}, "bike_id": "c097c53a6cc84c668d7d7ac4f8d0bdc1", "lat": 38.924866, "name": "c097c53a6cc84c668d7d7ac4f8d0bdc1"}, {"is_disabled": 0, "type": "electric_scooter", "fusion_lon": 0.0, "is_reserved": 0, "fusion_lat": 0.0, "lon": -77.0221625, "rental_uris": {"ios": "https://dc.lft.to/lastmile_qr_scan", "android": "https://dc.lft.to/lastmile_qr_scan"}, "bike_id": "5a25f8472b29eb4fd56bec57bf8c03b8", "lat": 38.916334166666665, "name": "5a25f8472b29eb4fd56bec57bf8c03b8"}, {"is_disabled": 0, "type": "electric_scooter", "fusion_lon": 0.0, "is_reserved": 0, "fusion_lat": 0.0, "lon": -77.00049916666667, "rental_uris": {"ios": "https://dc.lft.to/lastmile_qr_scan", "android": "https://dc.lft.to/lastmile_qr_scan"}, "bike_id": "49eacc16c2c478fd6ad9e174f98af487", "lat": 38.87880583333333, "name": "49eacc16c2c478fd6ad9e174f98af487"}, {"is_disabled": 0, "type": "electric_scooter", "fusion_lon": 0.0, "is_reserved": 0, "fusion_lat": 0.0, "lon": -77.05234183333333, "rental_uris": {"ios": "https://dc.lft.to/lastmile_qr_scan", "android": "https://dc.lft.to/lastmile_qr_scan"}, "bike_id": "236fc1847b3b165993a667d1cb48f4a3", "lat": 38.92467583333333, "name": "236fc1847b3b165993a667d1cb48f4a3"}, {"is_disabled": 0, "type": "electric_scooter", "fusion_lon": 0.0, "is_reserved": 0, "fusion_lat": 0.0, "lon": -77.0486565, "rental_uris": {"ios": "https://dc.lft.to/lastmile_qr_scan", "android": "https://dc.lft.to/lastmile_qr_scan"}, "bike_id": "a5ad593971f6c07a5bd8ec7f21e6383f", "lat": 38.916259333333336, "name": "a5ad593971f6c07a5bd8ec7f21e6383f"}, {"is_disabled": 0, "type": "electric_scooter", "fusion_lon": 0.0, "is_reserved": 0, "fusion_lat": 0.0, "lon": -77.042211, "rental_uris": {"ios": "https://dc.lft.to/lastmile_qr_scan", "android": "https://dc.lft.to/lastmile_qr_scan"}, "bike_id": "9cb4a7bb4bc75e23fae2c7a0c0468338", "lat": 38.921492, "name": "9cb4a7bb4bc75e23fae2c7a0c0468338"}, {"is_disabled": 0, "type": "electric_scooter", "fusion_lon": 0.0, "is_reserved": 0, "fusion_lat": 0.0, "lon": -77.001215, "rental_uris": {"ios": "https://dc.lft.to/lastmile_qr_scan", "android": "https://dc.lft.to/lastmile_qr_scan"}, "bike_id": "d847b6a06755a06d4d425643a87b4e7d", "lat": 38.87791333333333, "name": "d847b6a06755a06d4d425643a87b4e7d"}, {"is_disabled": 0, "type": "electric_scooter", "fusion_lon": 0.0, "is_reserved": 0, "fusion_lat": 0.0, "lon": -77.04816833333334, "rental_uris": {"ios": "https://dc.lft.to/lastmile_qr_scan", "android": "https://dc.lft.to/lastmile_qr_scan"}, "bike_id": "63394ed02828e50ea9a3e8ca83d7135c", "lat": 38.91334716666667, "name": "63394ed02828e50ea9a3e8ca83d7135c"}, {"is_disabled": 0, "type": "electric_scooter", "fusion_lon": 0.0, "is_reserved": 0, "fusion_lat": 0.0, "lon": -77.01789466666666, "rental_uris": {"ios": "https://dc.lft.to/lastmile_qr_scan", "android": "https://dc.lft.to/lastmile_qr_scan"}, "bike_id": "e4a428ad101f2c66cc79b3580c9b666b", "lat": 38.921371, "name": "e4a428ad101f2c66cc79b3580c9b666b"}, {"is_disabled": 0, "type": "electric_scooter", "fusion_lon": 0.0, "is_reserved": 0, "fusion_lat": 0.0, "lon": -77.0091425, "rental_uris": {"ios": "https://dc.lft.to/lastmile_qr_scan", "android": "https://dc.lft.to/lastmile_qr_scan"}, "bike_id": "ce8333b094a5f446e1686344b03905dc", "lat": 38.895438, "name": "ce8333b094a5f446e1686344b03905dc"}, {"is_disabled": 0, "type": "electric_scooter", "fusion_lon": 0.0, "is_reserved": 0, "fusion_lat": 0.0, "lon": -77.02081283333334, "rental_uris": {"ios": "https://dc.lft.to/lastmile_qr_scan", "android": "https://dc.lft.to/lastmile_qr_scan"}, "bike_id": "4d076d93e0a7503deebd269f1e77d5e4", "lat": 38.92731416666667, "name": "4d076d93e0a7503deebd269f1e77d5e4"}, {"is_disabled": 0, "type": "electric_scooter", "fusion_lon": 0.0, "is_reserved": 0, "fusion_lat": 0.0, "lon": -76.98082983333333, "rental_uris": {"ios": "https://dc.lft.to/lastmile_qr_scan", "android": "https://dc.lft.to/lastmile_qr_scan"}, "bike_id": "0c4d98c475661c83d98b496c5cce26fa", "lat": 38.8943625, "name": "0c4d98c475661c83d98b496c5cce26fa"}, {"is_disabled": 0, "type": "electric_scooter", "fusion_lon": 0.0, "is_reserved": 0, "fusion_lat": 0.0, "lon": -77.05724966666666, "rental_uris": {"ios": "https://dc.lft.to/lastmile_qr_scan", "android": "https://dc.lft.to/lastmile_qr_scan"}, "bike_id": "c934ec482e74bd09cc7b2e98c2eff835", "lat": 38.931324333333336, "name": "c934ec482e74bd09cc7b2e98c2eff835"}, {"is_disabled": 0, "type": "electric_scooter", "fusion_lon": 0.0, "is_reserved": 0, "fusion_lat": 0.0, "lon": -77.00131233333333, "rental_uris": {"ios": "https://dc.lft.to/lastmile_qr_scan", "android": "https://dc.lft.to/lastmile_qr_scan"}, "bike_id": "167116cd092446899feba7d8063abe2c", "lat": 38.873915, "name": "167116cd092446899feba7d8063abe2c"}, {"is_disabled": 0, "type": "electric_scooter", "fusion_lon": 0.0, "is_reserved": 0, "fusion_lat": 0.0, "lon": -77.04858016666667, "rental_uris": {"ios": "https://dc.lft.to/lastmile_qr_scan", "android": "https://dc.lft.to/lastmile_qr_scan"}, "bike_id": "722ed549af6328885661d54550470ee2", "lat": 38.9005465, "name": "722ed549af6328885661d54550470ee2"}, {"is_disabled": 0, "type": "electric_scooter", "fusion_lon": 0.0, "is_reserved": 0, "fusion_lat": 0.0, "lon": -77.02087033333333, "rental_uris": {"ios": "https://dc.lft.to/lastmile_qr_scan", "android": "https://dc.lft.to/lastmile_qr_scan"}, "bike_id": "d0b9a16b8427ad4377c242aaf5c3e673", "lat": 38.921472, "name": "d0b9a16b8427ad4377c242aaf5c3e673"}, {"is_disabled": 0, "type": "electric_scooter", "fusion_lon": 0.0, "is_reserved": 0, "fusion_lat": 0.0, "lon": -76.99621366666666, "rental_uris": {"ios": "https://dc.lft.to/lastmile_qr_scan", "android": "https://dc.lft.to/lastmile_qr_scan"}, "bike_id": "727101ae9709e2aba8d99c1b42b743f9", "lat": 38.877745833333336, "name": "727101ae9709e2aba8d99c1b42b743f9"}, {"is_disabled": 0, "type": "electric_scooter", "fusion_lon": 0.0, "is_reserved": 0, "fusion_lat": 0.0, "lon": -77.01362416666667, "rental_uris": {"ios": "https://dc.lft.to/lastmile_qr_scan", "android": "https://dc.lft.to/lastmile_qr_scan"}, "bike_id": "a2f9c4c472931385fa8f5db33492cc86", "lat": 38.91328466666667, "name": "a2f9c4c472931385fa8f5db33492cc86"}, {"is_disabled": 0, "type": "electric_scooter", "fusion_lon": 0.0, "is_reserved": 0, "fusion_lat": 0.0, "lon": -77.01889, "rental_uris": {"ios": "https://dc.lft.to/lastmile_qr_scan", "android": "https://dc.lft.to/lastmile_qr_scan"}, "bike_id": "04679745cb75341009dc4a015545a1fd", "lat": 38.897394, "name": "04679745cb75341009dc4a015545a1fd"}, {"is_disabled": 0, "type": "electric_scooter", "fusion_lon": 0.0, "is_reserved": 0, "fusion_lat": 0.0, "lon": -77.01509233333333, "rental_uris": {"ios": "https://dc.lft.to/lastmile_qr_scan", "android": "https://dc.lft.to/lastmile_qr_scan"}, "bike_id": "aea320e3bc322778402538e40d6b36bc", "lat": 38.887065666666665, "name": "aea320e3bc322778402538e40d6b36bc"}, {"is_disabled": 0, "type": "electric_scooter", "fusion_lon": 0.0, "is_reserved": 0, "fusion_lat": 0.0, "lon": -77.02979816666667, "rental_uris": {"ios": "https://dc.lft.to/lastmile_qr_scan", "android": "https://dc.lft.to/lastmile_qr_scan"}, "bike_id": "8b3980f8cf7f8d118dc3a18d0b2d6a49", "lat": 38.943486666666665, "name": "8b3980f8cf7f8d118dc3a18d0b2d6a49"}, {"is_disabled": 0, "type": "electric_scooter", "fusion_lon": 0.0, "is_reserved": 0, "fusion_lat": 0.0, "lon": -77.0089845, "rental_uris": {"ios": "https://dc.lft.to/lastmile_qr_scan", "android": "https://dc.lft.to/lastmile_qr_scan"}, "bike_id": "23e76b67c1d9b7d59c434e8bff693773", "lat": 38.9006095, "name": "23e76b67c1d9b7d59c434e8bff693773"}, {"is_disabled": 0, "type": "electric_scooter", "fusion_lon": 0.0, "is_reserved": 0, "fusion_lat": 0.0, "lon": -77.03175916666666, "rental_uris": {"ios": "https://dc.lft.to/lastmile_qr_scan", "android": "https://dc.lft.to/lastmile_qr_scan"}, "bike_id": "dda9b82723f2fbba5629739db987b5d8", "lat": 38.89984616666667, "name": "dda9b82723f2fbba5629739db987b5d8"}, {"is_disabled": 0, "type": "electric_scooter", "fusion_lon": 0.0, "is_reserved": 0, "fusion_lat": 0.0, "lon": -77.03832066666666, "rental_uris": {"ios": "https://dc.lft.to/lastmile_qr_scan", "android": "https://dc.lft.to/lastmile_qr_scan"}, "bike_id": "1ca06a1fa5e20b6c34ae3de1cd0e46cd", "lat": 38.918906166666666, "name": "1ca06a1fa5e20b6c34ae3de1cd0e46cd"}, {"is_disabled": 0, "type": "electric_scooter", "fusion_lon": 0.0, "is_reserved": 0, "fusion_lat": 0.0, "lon": -77.04146183333333, "rental_uris": {"ios": "https://dc.lft.to/lastmile_qr_scan", "android": "https://dc.lft.to/lastmile_qr_scan"}, "bike_id": "d45d9ca5263572dc3fac74b19f9fbf7c", "lat": 38.925574833333336, "name": "d45d9ca5263572dc3fac74b19f9fbf7c"}, {"is_disabled": 0, "type": "electric_scooter", "fusion_lon": 0.0, "is_reserved": 0, "fusion_lat": 0.0, "lon": -77.03184766666666, "rental_uris": {"ios": "https://dc.lft.to/lastmile_qr_scan", "android": "https://dc.lft.to/lastmile_qr_scan"}, "bike_id": "bc722c1bd584aafecf0a36a00f6ce64d", "lat": 38.91833916666667, "name": "bc722c1bd584aafecf0a36a00f6ce64d"},