{"data": {"bikes": [{"rental_uris": {"ios": "https://dc.lft.to/lastmile_qr_scan", "android": "https://dc.lft.to/lastmile_qr_scan"}, "type": "electric_scooter", "name": "bcee264d146900494efb0a02f725fd22", "is_reserved": 0, "lon": -77.03491666666666, "is_disabled": 0, "fusion_lat": 0.0, "lat": 38.93272266666666, "bike_id": "bcee264d146900494efb0a02f725fd22", "fusion_lon": 0.0}, {"rental_uris": {"ios": "https://dc.lft.to/lastmile_qr_scan", "android": "https://dc.lft.to/lastmile_qr_scan"}, "type": "electric_scooter", "name": "333f2ead194f8c7d0737c6e8b2290a3e", "is_reserved": 0, "lon": -77.02102033333334, "is_disabled": 0, "fusion_lat": 0.0, "lat": 38.91199733333333, "bike_id": "333f2ead194f8c7d0737c6e8b2290a3e", "fusion_lon": 0.0}, {"rental_uris": {"ios": "https://dc.lft.to/lastmile_qr_scan", "android": "https://dc.lft.to/lastmile_qr_scan"}, "type": "electric_scooter", "name": "7e0a27f7b968ffddb1aac17aa3f05197", "is_reserved": 0, "lon": -77.0552385, "is_disabled": 0, "fusion_lat": 0.0, "lat": 38.897238333333334, "bike_id": "7e0a27f7b968ffddb1aac17aa3f05197", "fusion_lon": 0.0}, {"rental_uris": {"ios": "https://dc.lft.to/lastmile_qr_scan", "android": "https://dc.lft.to/lastmile_qr_scan"}, "type": "electric_scooter", "name": "a91be1ad5d326782fe755fe87c940633", "is_reserved": 0, "lon": -77.0295995, "is_disabled": 0, "fusion_lat": 0.0, "lat": 38.922563333333336, "bike_id": "a91be1ad5d326782fe755fe87c940633", "fusion_lon": 0.0}, {"rental_uris": {"ios": "https://dc.lft.to/lastmile_qr_scan", "android": "https://dc.lft.to/lastmile_qr_scan"}, "type": "electric_scooter", "name": "b04627f0c28041f1139dc29fc86b5d26", "is_reserved": 0, "lon": -76.989401, "is_disabled": 0, "fusion_lat": 0.0, "lat": 38.9039585, "bike_id": "b04627f0c28041f1139dc29fc86b5d26", "fusion_lon": 0.0}, {"rental_uris": {"ios": "https://dc.lft.to/lastmile_qr_scan", "android": "https://dc.lft.to/lastmile_qr_scan"}, "type": "electric_scooter", "name": "447b35b0c6b5ffb9555cec5b4d31ed84", "is_reserved": 0, "lon": -77.041423, "is_disabled": 0, "fusion_lat": 0.0, "lat": 38.903762, "bike_id": "447b35b0c6b5ffb9555cec5b4d31ed84", "fusion_lon": 0.0}, {"rental_uris": {"ios": "https://dc.lft.to/lastmile_qr_scan", "android": "https://dc.lft.to/lastmile_qr_scan"}, "type": "electric_scooter", "name": "dcd20be1afaa31db606f1c29679a9669", "is_reserved": 0, "lon": -77.04857983333333, "is_disabled": 0, "fusion_lat": 0.0, "lat": 38.904648333333334, "bike_id": "dcd20be1afaa31db606f1c29679a9669", "fusion_lon": 0.0}, {"rental_uris": {"ios": "https://dc.lft.to/lastmile_qr_scan", "android": "https://dc.lft.to/lastmile_qr_scan"}, "type": "electric_scooter", "name": "a7861f39cabf0bb11a7aed1d726a426e", "is_reserved": 0, "lon": -77.04946933333333, "is_disabled": 0, "fusion_lat": 0.0, "lat": 38.9202045, "bike_id": "a7861f39cabf0bb11a7aed1d726a426e", "fusion_lon": 0.0}, {"rental_uris": {"ios": "https://dc.lft.to/lastmile_qr_scan", "android": "https://dc.lft.to/lastmile_qr_scan"}, "type": "electric_scooter", "name": "fba776cab79eca0804fcf29e96d93dfa", "is_reserved": 0, "lon": -77.03980216666666, "is_disabled": 0, "fusion_lat": 0.0, "lat": 38.924661, "bike_id": "fba776cab79eca0804fcf29e96d93dfa", "fusion_lon": 0.0}, {"rental_uris": {"ios": "https://dc.lft.to/lastmile_qr_scan", "android": "https://dc.lft.to/lastmile_qr_scan"}, "type": "electric_scooter", "name": "aecb961c149565ec9b0537da35bc2a39", "is_reserved": 0, "lon": -77.046424, "is_disabled": 0, "fusion_lat": 0.0, "lat": 38.8972895, "bike_id": "aecb961c149565ec9b0537da35bc2a39", "fusion_lon": 0.0}, {"rental_uris": {"ios": "https://dc.lft.to/lastmile_qr_scan", "android": "https://dc.lft.to/lastmile_qr_scan"}, "type": "electric_bike", "name": "7a6775a84e1c5692cce8b7e2643b6716", "is_reserved": 0, "lon": -77.23409633333333, "is_disabled": 0, "fusion_lat": 0.0, "lat": 38.87578966666667, "bike_id": "7a6775a84e1c5692cce8b7e2643b6716", "fusion_lon": 0.0}, {"rental_uris": {"ios": "https://dc.lft.to/lastmile_qr_scan", "android": "https://dc.lft.to/lastmile_qr_scan"}, "type": "electric_scooter", "name": "60d31e850201fe5d30198c2f7f33b8bc", "is_reserved": 0, "lon": -77.00060316666666, "is_disabled": 0, "fusion_lat": 0.0, "lat": 38.961340166666666, "bike_id": "60d31e850201fe5d30198c2f7f33b8bc", "fusion_lon": 0.0}, {"rental_uris": {"ios": "https://dc.lft.to/lastmile_qr_scan", "android": "https://dc.lft.to/lastmile_qr_scan"}, "type": "electric_scooter", "name": "c4524c987119ce863beb1fafb256b622", "is_reserved": 0, "lon": -76.97628983333334, "is_disabled": 0, "fusion_lat": 0.0, "lat": 38.905691166666664, "bike_id": "c4524c987119ce863beb1fafb256b622", "fusion_lon": 0.0}, {"rental_uris": {"ios": "https://dc.lft.to/lastmile_qr_scan", "android": "https://dc.lft.to/lastmile_qr_scan"}, "type": "electric_scooter", "name": "9c3969f408b9cddf9a2b1cb60585f7ad", "is_reserved": 0, "lon": -76.995892, "is_disabled": 0, "fusion_lat": 0.0, "lat": 38.909419, "bike_id": "9c3969f408b9cddf9a2b1cb60585f7ad", "fusion_lon": 0.0}, {"rental_uris": {"ios": "https://dc.lft.to/lastmile_qr_scan", "android": "https://dc.lft.to/lastmile_qr_scan"}, "type": "electric_scooter", "name": "2474c225085ba79e02bcca965d4ee63c", "is_reserved": 0, "lon": -76.9732765, "is_disabled": 0, "fusion_lat": 0.0, "lat": 38.90409566666666, "bike_id": "2474c225085ba79e02bcca965d4ee63c", "fusion_lon": 0.0}, {"rental_uris": {"ios": "https://dc.lft.to/lastmile_qr_scan", "android": "https://dc.lft.to/lastmile_qr_scan"}, "type": "electric_scooter", "name": "07cdda74ae17ec982076182696653b98", "is_reserved": 0, "lon": -77.039664, "is_disabled": 0, "fusion_lat": 0.0, "lat": 38.931513833333334, "bike_id": "07cdda74ae17ec982076182696653b98", "fusion_lon": 0.0}, {"rental_uris": {"ios": "https://dc.lft.to/lastmile_qr_scan", "android": "https://dc.lft.to/lastmile_qr_scan"}, "type": "electric_scooter", "name": "91ba96bd17905188dd7319fc463c64d2", "is_reserved": 0, "lon": -77.010762, "is_disabled": 0, "fusion_lat": 0.0, "lat": 38.911922833333335, "bike_id": "91ba96bd17905188dd7319fc463c64d2", "fusion_lon": 0.0}, {"rental_uris": {"ios": "https://dc.lft.to/lastmile_qr_scan", "android": "https://dc.lft.to/lastmile_qr_scan"}, "type": "electric_bike", "name": "86404a73e4e0cacedf3d6edca5e58aad", "is_reserved": 0, "lon": -77.06949716666666, "is_disabled": 0, "fusion_lat": 0.0, "lat": 38.83629966666667, "bike_id": "86404a73e4e0cacedf3d6edca5e58aad", "fusion_lon": 0.0}, {"rental_uris": {"ios": "https://dc.lft.to/lastmile_qr_scan", "android": "https://dc.lft.to/lastmile_qr_scan"}, "type": "electric_scooter", "name": "c6cbb9b4e47d693171b0c7d2e11f2f7d", "is_reserved": 0, "lon": -77.04561133333333, "is_disabled": 0, "fusion_lat": 0.0, "lat": 38.918288, "bike_id": "c6cbb9b4e47d693171b0c7d2e11f2f7d", "fusion_lon": 0.0}, {"rental_uris": {"ios": "https://dc.lft.to/lastmile_qr_scan", "android": "https://dc.lft.to/lastmile_qr_scan"}, "type": "electric_scooter", "name": "46385870ef8b62008f45209aa68e70cf", "is_reserved": 0, "lon": -77.04654783333334, "is_disabled": 0, "fusion_lat": 0.0, "lat": 38.896368833333334, "bike_id": "46385870ef8b62008f45209aa68e70cf", "fusion_lon": 0.0}, {"rental_uris": {"ios": "https://dc.lft.to/lastmile_qr_scan", "android": "https://dc.lft.to/lastmile_qr_scan"}, "type": "electric_bike", "name": "c59a9b536c32f7dbd82d129a443893f7", "is_reserved": 0, "lon": -76.99352116666667, "is_disabled": 0, "fusion_lat": 0.0, "lat": 38.845065, "bike_id": "c59a9b536c32f7dbd82d129a443893f7", "fusion_lon": 0.0}, {"rental_uris": {"ios": "https://dc.lft.to/lastmile_qr_scan", "android": "https://dc.lft.to/lastmile_qr_scan"}, "type": "electric_scooter", "name": "acbee2224794467ff6a9c2a7df05d722", "is_reserved": 0, "lon": -77.032553, "is_disabled": 0, "fusion_lat": 0.0, "lat": 38.91715, "bike_id": "acbee2224794467ff6a9c2a7df05d722", "fusion_lon": 0.0}, {"rental_uris": {"ios": "https://dc.lft.to/lastmile_qr_scan", "android": "https://dc.lft.to/lastmile_qr_scan"}, "type": "electric_scooter", "name": "bb4850f7cc0788de93b3bab406bc767d", "is_reserved": 0, "lon": -77.02415466666666, "is_disabled": 0, "fusion_lat": 0.0, "lat": 38.9300635, "bike_id": "bb4850f7cc0788de93b3bab406bc767d", "fusion_lon": 0.0}, {"rental_uris": {"ios": "https://dc.lft.to/lastmile_qr_scan", "android": "https://dc.lft.to/lastmile_qr_scan"}, "type": "electric_scooter", "name": "4a7c0415d6f0fd57783b096c0747f00f", "is_reserved": 0, "lon": -77.04822, "is_disabled": 0, "fusion_lat": 0.0, "lat": 38.9148915, "bike_id": "4a7c0415d6f0fd57783b096c0747f00f", "fusion_lon": 0.0}, {"rental_uris": {"ios": "https://dc.lft.to/lastmile_qr_scan", "android": "https://dc.lft.to/lastmile_qr_scan"}, "type": "electric_scooter", "name": "b116efbaf5dee86095061c9347ad5ee2", "is_reserved": 0, "lon": -77.00672183333333, "is_disabled": 0, "fusion_lat": 0.0, "lat": 38.87675566666667, "bike_id": "b116efbaf5dee86095061c9347ad5ee2", "fusion_lon": 0.0}, {"rental_uris": {"ios": "https://dc.lft.to/lastmile_qr_scan", "android": "https://dc.lft.to/lastmile_qr_scan"}, "type": "electric_scooter", "name": "9da55673f46ae2cb7aa88c6110a91487", "is_reserved": 0, "lon": -76.99182783333333, "is_disabled": 0, "fusion_lat": 0.0, "lat": 38.905049166666664, "bike_id": "9da55673f46ae2cb7aa88c6110a91487", "fusion_lon": 0.0}, {"rental_uris": {"ios": "https://dc.lft.to/lastmile_qr_scan", "android": "https://dc.lft.to/lastmile_qr_scan"}, "type": "electric_scooter", "name": "03e639698338c2fe76fc9d999f649233", "is_reserved": 0, "lon": -77.02178866666667, "is_disabled": 0, "fusion_lat": 0.0, "lat": 38.89910533333333, "bike_id": "03e639698338c2fe76fc9d999f649233", "fusion_lon": 0.0}, {"rental_uris": {"ios": "https://dc.lft.to/lastmile_qr_scan", "android": "https://dc.lft.to/lastmile_qr_scan"}, "type": "electric_scooter", "name": "56a5956ae42b8869bc69d9200c563dbd", "is_reserved": 0, "lon": -76.98885683333333, "is_disabled": 0, "fusion_lat": 0.0, "lat": 38.89954516666667, "bike_id": "56a5956ae42b8869bc69d9200c563dbd", "fusion_lon": 0.0}, {"rental_uris": {"ios": "https://dc.lft.to/lastmile_qr_scan", "android": "https://dc.lft.to/lastmile_qr_scan"}, "type": "electric_scooter", "name": "49c23a2e6de1bce3c8422e05a73b3f84", "is_reserved": 0, "lon": -77.0157715, "is_disabled": 0, "fusion_lat": 0.0, "lat": 38.91683666666667, "bike_id": "49c23a2e6de1bce3c8422e05a73b3f84", "fusion_lon": 0.0}, {"rental_uris": {"ios": "https://dc.lft.to/lastmile_qr_scan", "android": "https://dc.lft.to/lastmile_qr_scan"}, "type": "electric_scooter", "name": "4fa75e7220b08c336ac5790b18e96f4f", "is_reserved": 0, "lon": -76.991042, "is_disabled": 0, "fusion_lat": 0.0, "lat": 38.857358166666664, "bike_id": "4fa75e7220b08c336ac5790b18e96f4f", "fusion_lon": 0.0}, {"rental_uris": {"ios": "https://dc.lft.to/lastmile_qr_scan", "android": "https://dc.lft.to/lastmile_qr_scan"}, "type": "electric_scooter", "name": "b2bf631815896397060b350653227c1c", "is_reserved": 0, "lon": -77.02907433333333, "is_disabled": 0, "fusion_lat": 0.0, "lat": 38.933317833333334, "bike_id": "b2bf631815896397060b350653227c1c", "fusion_lon": 0.0}, {"rental_uris": {"ios": "https://dc.lft.to/lastmile_qr_scan", "android": "https://dc.lft.to/lastmile_qr_scan"}, "type": "electric_scooter", "name": "d8be5c861047a024a7e43494e5d54e00", "is_reserved": 0, "lon": -77.01768866666667, "is_disabled": 0, "fusion_lat": 0.0, "lat": 38.920587833333336, "bike_id": "d8be5c861047a024a7e43494e5d54e00", "fusion_lon": 0.0}, {"rental_uris": {"ios": "https://dc.lft.to/lastmile_qr_scan", "android": "https://dc.lft.to/lastmile_qr_scan"}, "type": "electric_scooter", "name": "ff7ff68f245280b59c6ea3b842ffb8c3", "is_reserved": 0, "lon": -77.00872466666667, "is_disabled": 0, "fusion_lat": 0.0, "lat": 38.89744316666667, "bike_id": "ff7ff68f245280b59c6ea3b842ffb8c3", "fusion_lon": 0.0}, {"rental_uris": {"ios": "https://dc.lft.to/lastmile_qr_scan", "android": "https://dc.lft.to/lastmile_qr_scan"}, "type": "electric_scooter", "name": "a0b7525fdf6a28a0cf6a3b30f1963913", "is_reserved": 0, "lon": -77.04182583333333, "is_disabled": 0, "fusion_lat": 0.0, "lat": 38.911236, "bike_id": "a0b7525fdf6a28a0cf6a3b30f1963913", "fusion_lon": 0.0}, {"rental_uris": {"ios": "https://dc.lft.to/lastmile_qr_scan", "android": "https://dc.lft.to/lastmile_qr_scan"}, "type": "electric_scooter", "name": "5ed4ef6d3e2b24bc2f8aaebea3e0dfd8", "is_reserved": 0, "lon": -77.03229833333333, "is_disabled": 0, "fusion_lat": 0.0, "lat": 38.9071695, "bike_id": "5ed4ef6d3e2b24bc2f8aaebea3e0dfd8", "fusion_lon": 0.0}, {"rental_uris": {"ios": "https://dc.lft.to/lastmile_qr_scan", "android": "https://dc.lft.to/lastmile_qr_scan"}, "type": "electric_scooter", "name": "340cf53b43316f1419e81a58bc599789", "is_reserved": 0, "lon": -77.07939883333333, "is_disabled": 0, "fusion_lat": 0.0, "lat": 38.91922816666667, "bike_id": "340cf53b43316f1419e81a58bc599789", "fusion_lon": 0.0}, {"rental_uris": {"ios": "https://dc.lft.to/lastmile_qr_scan", "android": "https://dc.lft.to/lastmile_qr_scan"}, "type": "electric_scooter", "name": "9b7951c5bcdaa64798466bd3dca98c47", "is_reserved": 0, "lon": -77.03179666666666, "is_disabled": 0, "fusion_lat": 0.0, "lat": 38.909486, "bike_id": "9b7951c5bcdaa64798466bd3dca98c47", "fusion_lon": 0.0}, {"rental_uris": {"ios": "https://dc.lft.to/lastmile_qr_scan", "android": "https://dc.lft.to/lastmile_qr_scan"}, "type": "electric_scooter", "name": "fb8971d5811485dad285e07a4b590c0a", "is_reserved": 0, "lon": -77.036513, "is_disabled": 0, "fusion_lat": 0.0, "lat": 38.913331666666664, "bike_id": "fb8971d5811485dad285e07a4b590c0a", "fusion_lon": 0.0}, {"rental_uris": {"ios": "https://dc.lft.to/lastmile_qr_scan", "android": "https://dc.lft.to/lastmile_qr_scan"}, "type": "electric_bike", "name": "aa547b57ddbeae8d78151948ef5ae94d", "is_reserved": 0, "lon": -76.90739516666666, "is_disabled": 0, "fusion_lat": 0.0, "lat": 38.896182833333334, "bike_id": "aa547b57ddbeae8d78151948ef5ae94d", "fusion_lon": 0.0}, {"rental_uris": {"ios": "https://dc.lft.to/lastmile_qr_scan", "android": "https://dc.lft.to/lastmile_qr_scan"}, "type": "electric_scooter", "name": "5429835a613e9618313eec39fadd5bfb", "is_reserved": 0, "lon": -77.03232416666667, "is_disabled": 0, "fusion_lat": 0.0, "lat": 38.89925516666667, "bike_id": "5429835a613e9618313eec39fadd5bfb", "fusion_lon": 0.0}, {"rental_uris": {"ios": "https://dc.lft.to/lastmile_qr_scan", "android": "https://dc.lft.to/lastmile_qr_scan"}, "type": "electric_scooter", "name": "0be97129d4deab3f92370d497cc49d93", "is_reserved": 0, "lon": -77.04571583333333, "is_disabled": 0, "fusion_lat": 0.0, "lat": 38.914114833333336, "bike_id": "0be97129d4deab3f92370d497cc49d93", "fusion_lon": 0.0}, {"rental_uris": {"ios": "https://dc.lft.to/lastmile_qr_scan", "android": "https://dc.lft.to/lastmile_qr_scan"}, "type": "electric_bike", "name": "df7e6a49f195aca3d3222afaf0a972d1", "is_reserved": 0, "lon": -76.99496333333333, "is_disabled": 0, "fusion_lat": 0.0, "lat": 38.86220216666667, "bike_id": "df7e6a49f195aca3d3222afaf0a972d1", "fusion_lon": 0.0}, {"rental_uris": {"ios": "https://dc.lft.to/lastmile_qr_scan", "android": "https://dc.lft.to/lastmile_qr_scan"}, "type": "electric_scooter", "name": "4e6d2ffb3d3aaa802c3a8abf14fa4d63", "is_reserved": 0, "lon": -77.0578705, "is_disabled": 0, "fusion_lat": 0.0, "lat": 38.934731666666664, "bike_id": "4e6d2ffb3d3aaa802c3a8abf14fa4d63", "fusion_lon": 0.0}, {"rental_uris": {"ios": "https://dc.lft.to/lastmile_qr_scan", "android": "https://dc.lft.to/lastmile_qr_scan"}, "type": "electric_scooter", "name": "8339f6effb6275de87d5af2d80f5a0c0", "is_reserved": 0, "lon": -77.02705083333333, "is_disabled": 0, "fusion_lat": 0.0, "lat": 38.93577483333333, "bike_id": "8339f6effb6275de87d5af2d80f5a0c0", "fusion_lon": 0.0}, {"rental_uris": {"ios": "https://dc.lft.to/lastmile_qr_scan", "android": "https://dc.lft.to/lastmile_qr_scan"}, "type": "electric_scooter", "name": "b79894a937d85dec7f017ac399bb23a3", "is_reserved": 0, "lon": -77.01820333333333, "is_disabled": 0, "fusion_lat": 0.0, "lat": 38.9221995, "bike_id": "b79894a937d85dec7f017ac399bb23a3", "fusion_lon": 0.0}, {"rental_uris": {"ios": "https://dc.lft.to/lastmile_qr_scan", "android": "https://dc.lft.to/lastmile_qr_scan"}, "type": "electric_scooter", "name": "aa537194416d6a7ecec392386413a8b1", "is_reserved": 0, "lon": -77.02277616666667, "is_disabled": 0, "fusion_lat": 0.0, "lat": 38.924233, "bike_id": "aa537194416d6a7ecec392386413a8b1", "fusion_lon": 0.0}, {"rental_uris": {"ios": "https://dc.lft.to/lastmile_qr_scan", "android": "https://dc.lft.to/lastmile_qr_scan"}, "type": "electric_scooter", "name": "c9c01d58e7fa0ebf859dda1d39528949", "is_reserved": 0, "lon": -77.01623066666667, "is_disabled": 0, "fusion_lat": 0.0, "lat": 38.90658, "bike_id": "c9c01d58e7fa0ebf859dda1d39528949", "fusion_lon": 0.0}, {"rental_uris": {"ios": "https://dc.lft.to/lastmile_qr_scan", "android": "https://dc.lft.to/lastmile_qr_scan"}, "type": "electric_scooter", "name": "5168181ae221c018875cc9c9709c00eb", "is_reserved": 0, "lon": -77.04339766666666, "is_disabled": 0, "fusion_lat": 0.0, "lat": 38.89221916666666, "bike_id": "5168181ae221c018875cc9c9709c00eb", "fusion_lon": 0.0}, {"rental_uris": {"ios": "https://dc.lft.to/lastmile_qr_scan", "android": "https://dc.lft.to/lastmile_qr_scan"}, "type": "electric_scooter", "name": "5cd263cc823a8bc6004f9c082d366551", "is_reserved": 0, "lon": -77.024167, "is_disabled": 0, "fusion_lat": 0.0, "lat": 38.923179, "bike_id": "5cd263cc823a8bc6004f9c082d366551", "fusion_lon": 0.0}, {"rental_uris": {"ios": "https://dc.lft.to/lastmile_qr_scan", "android": "https://dc.lft.to/lastmile_qr_scan"}, "type": "electric_scooter", "name": "f0960401a13478f337661d96554768a8", "is_reserved": 0, "lon": -76.979828, "is_disabled": 0, "fusion_lat": 0.0, "lat": 38.89734, "bike_id": "f0960401a13478f337661d96554768a8", "fusion_lon": 0.0}, {"rental_uris": {"ios": "https://dc.lft.to/lastmile_qr_scan", "android": "https://dc.lft.to/lastmile_qr_scan"}, "type": "electric_scooter", "name": "0379d81d04ebe868ee9365c1887a3a77", "is_reserved": 0, "lon": -76.92308566666667, "is_disabled": 0, "fusion_lat": 0.0, "lat": 38.89391116666667, "bike_id": "0379d81d04ebe868ee9365c1887a3a77", "fusion_lon": 0.0}, {"rental_uris": {"ios": "https://dc.lft.to/lastmile_qr_scan", "android": "https://dc.lft.to/lastmile_qr_scan"}, "type": "electric_scooter", "name": "53e791bf1c6df4f412e6eccfc66143bb", "is_reserved": 0, "lon": -77.004061, "is_disabled": 0, "fusion_lat": 0.0, "lat": 38.87940866666667, "bike_id": "53e791bf1c6df4f412e6eccfc66143bb", "fusion_lon": 0.0}, {"rental_uris": {"ios": "https://dc.lft.to/lastmile_qr_scan", "android": "https://dc.lft.to/lastmile_qr_scan"}, "type": "electric_scooter", "name": "8b5e4c6e133185d6aeefa1e4e6bfeead", "is_reserved": 0, "lon": -77.0269925, "is_disabled": 0, "fusion_lat": 0.0, "lat": 38.90537033333333, "bike_id": "8b5e4c6e133185d6aeefa1e4e6bfeead", "fusion_lon": 0.0}, {"rental_uris": {"ios": "https://dc.lft.to/lastmile_qr_scan", "android": "https://dc.lft.to/lastmile_qr_scan"}, "type": "electric_bike", "name": "d5e3ccaf54e43e23152cbe1c4484ec39", "is_reserved": 0, "lon": -77.07647033333333, "is_disabled": 0, "fusion_lat": 0.0, "lat": 38.845401333333335, "bike_id": "d5e3ccaf54e43e23152cbe1c4484ec39", "fusion_lon": 0.0}, {"rental_uris": {"ios": "https://dc.lft.to/lastmile_qr_scan", "android": "https://dc.lft.to/lastmile_qr_scan"}, "type": "electric_scooter", "name": "9e049d0f85d4bdb5acc707499007d36b", "is_reserved": 0, "lon": -77.03833216666666, "is_disabled": 0, "fusion_lat": 0.0, "lat": 38.91039833333333, "bike_id": "9e049d0f85d4bdb5acc707499007d36b", "fusion_lon": 0.0}, {"rental_uris": {"ios": "https://dc.lft.to/lastmile_qr_scan", "android": "https://dc.lft.to/lastmile_qr_scan"}, "type": "electric_bike", "name": "2bc0b7ab1e588b6a9778c97072630c8f", "is_reserved": 0, "lon": -77.0657795, "is_disabled": 0, "fusion_lat": 0.0, "lat": 38.911308166666664, "bike_id": "2bc0b7ab1e588b6a9778c97072630c8f", "fusion_lon": 0.0}, {"rental_uris": {"ios": "https://dc.lft.to/lastmile_qr_scan", "android": "https://dc.lft.to/lastmile_qr_scan"}, "type": "electric_scooter", "name": "6db653c366636eed3deccd52129da8d3", "is_reserved": 0, "lon": -77.026717, "is_disabled": 0, "fusion_lat": 0.0, "lat": 38.938635833333336, "bike_id": "6db653c366636eed3deccd52129da8d3", "fusion_lon": 0.0}, {"rental_uris": {"ios": "https://dc.lft.to/lastmile_qr_scan", "android": "https://dc.lft.to/lastmile_qr_scan"}, "type": "electric_scooter", "name": "2088a84cb708b6f130ade019a1c2b4ee", "is_reserved": 0, "lon": -77.02465416666666, "is_disabled": 0, "fusion_lat": 0.0, "lat": 38.957788666666666, "bike_id": "2088a84cb708b6f130ade019a1c2b4ee", "fusion_lon": 0.0}, {"rental_uris": {"ios": "https://dc.lft.to/lastmile_qr_scan", "android": "https://dc.lft.to/lastmile_qr_scan"}, "type": "electric_scooter", "name": "2285538a7002e6978308b001ab59ce49", "is_reserved": 0, "lon": -77.02029783333333, "is_disabled": 0, "fusion_lat": 0.0, "lat": 38.924352999999996, "bike_id": "2285538a7002e6978308b001ab59ce49", "fusion_lon": 0.0}, {"rental_uris": {"ios": "https://dc.lft.to/lastmile_qr_scan", "android": "https://dc.lft.to/lastmile_qr_scan"}, "type": "electric_scooter", "name": "0f9985be25c90b3814241b3a9f12d87f", "is_reserved": 0, "lon": -77.02448466666667, "is_disabled": 0, "fusion_lat": 0.0, "lat": 38.94976033333333, "bike_id": "0f9985be25c90b3814241b3a9f12d87f", "fusion_lon": 0.0}, {"rental_uris": {"ios": "https://dc.lft.to/lastmile_qr_scan", "android": "https://dc.lft.to/lastmile_qr_scan"}, "type": "electric_scooter", "name": "f8d6e267e4e1f9c4f289051a4a867302", "is_reserved": 0, "lon": -77.07407366666666, "is_disabled": 0, "fusion_lat": 0.0, "lat": 38.89725216666667, "bike_id": "f8d6e267e4e1f9c4f289051a4a867302", "fusion_lon": 0.0}, {"rental_uris": {"ios": "https://dc.lft.to/lastmile_qr_scan", "android": "https://dc.lft.to/lastmile_qr_scan"}, "type": "electric_scooter", "name": "0d289277d4aabd86df5be8a523461aee", "is_reserved": 0, "lon": -76.98871466666667, "is_disabled": 0, "fusion_lat": 0.0, "lat": 38.90024733333333, "bike_id": "0d289277d4aabd86df5be8a523461aee", "fusion_lon": 0.0}, {"rental_uris": {"ios": "https://dc.lft.to/lastmile_qr_scan", "android": "https://dc.lft.to/lastmile_qr_scan"}, "type": "electric_scooter", "name": "0bb28c8dbd9e1015c6993746e32a0204", "is_reserved": 0, "lon": -77.03492816666666, "is_disabled": 0, "fusion_lat": 0.0, "lat": 38.932649166666664, "bike_id": "0bb28c8dbd9e1015c6993746e32a0204", "fusion_lon": 0.0}, {"rental_uris": {"ios": "https://dc.lft.to/lastmile_qr_scan", "android": "https://dc.lft.to/lastmile_qr_scan"}, "type": "electric_bike", "name": "c1289559c0552736b0156f2ec65c9ea9", "is_reserved": 0, "lon": -77.10623866666667, "is_disabled": 0, "fusion_lat": 0.0, "lat": 38.8732395, "bike_id": "c1289559c0552736b0156f2ec65c9ea9", "fusion_lon": 0.0}, {"rental_uris": {"ios": "https://dc.lft.to/lastmile_qr_scan", "android": "https://dc.lft.to/lastmile_qr_scan"}, "type": "electric_scooter", "name": "88f214305c27f3378fd85e2c801f8b8f", "is_reserved": 0, "lon": -76.99014216666667, "is_disabled": 0, "fusion_lat": 0.0, "lat": 38.89887233333334, "bike_id": "88f214305c27f3378fd85e2c801f8b8f", "fusion_lon": 0.0}, {"rental_uris": {"ios": "https://dc.lft.to/lastmile_qr_scan", "android": "https://dc.lft.to/lastmile_qr_scan"}, "type": "electric_scooter", "name": "0f38c78242856f5f2c1aaeb41e211a37", "is_reserved": 0, "lon": -77.0245705, "is_disabled": 0, "fusion_lat": 0.0, "lat": 38.9000155, "bike_id": "0f38c78242856f5f2c1aaeb41e211a37", "fusion_lon": 0.0}, {"rental_uris": {"ios": "https://dc.lft.to/lastmile_qr_scan", "android": "https://dc.lft.to/lastmile_qr_scan"}, "type": "electric_scooter", "name": "fecfc67be2552820d69a8516a9d38826", "is_reserved": 0, "lon": -77.0251595, "is_disabled": 0, "fusion_lat": 0.0, "lat": 38.90414633333333, "bike_id": "fecfc67be2552820d69a8516a9d38826", "fusion_lon": 0.0}, {"rental_uris": {"ios": "https://dc.lft.to/lastmile_qr_scan", "android": "https://dc.lft.to/lastmile_qr_scan"}, "type": "electric_scooter", "name": "7fa6cbf6f3f5f569b0cb5e37e5a503c7", "is_reserved": 0, "lon": -76.98651766666667, "is_disabled": 0, "fusion_lat": 0.0, "lat": 38.9053815, "bike_id": "7fa6cbf6f3f5f569b0cb5e37e5a503c7", "fusion_lon": 0.0}, {"rental_uris": {"ios": "https://dc.lft.to/lastmile_qr_scan", "android": "https://dc.lft.to/lastmile_qr_scan"}, "type": "electric_bike", "name": "f1f9cd4cb2efb98ac1ec7b2a13b205da", "is_reserved": 0, "lon": -77.073879, "is_disabled": 0, "fusion_lat": 0.0, "lat": 38.914428666666666, "bike_id": "f1f9cd4cb2efb98ac1ec7b2a13b205da", "fusion_lon": 0.0}, {"rental_uris": {"ios": "https://dc.lft.to/lastmile_qr_scan", "android": "https://dc.lft.to/lastmile_qr_scan"}, "type": "electric_scooter", "name": "3080b0e71308f7a19c4976ec34db62a0", "is_reserved": 0, "lon": -77.02379466666666, "is_disabled": 0, "fusion_lat": 0.0, "lat": 38.93391466666667, "bike_id": "3080b0e71308f7a19c4976ec34db62a0", "fusion_lon": 0.0}, {"rental_uris": {"ios": "https://dc.lft.to/lastmile_qr_scan", "android": "https://dc.lft.to/lastmile_qr_scan"}, "type": "electric_scooter", "name": "debbbb7284448257a2214ae76b07d374", "is_reserved": 0, "lon": -77.04771666666667, "is_disabled": 0, "fusion_lat": 0.0, "lat": 38.900962666666665, "bike_id": "debbbb7284448257a2214ae76b07d374", "fusion_lon": 0.0}, {"rental_uris": {"ios": "https://dc.lft.to/lastmile_qr_scan", "android": "https://dc.lft.to/lastmile_qr_scan"}, "type": "electric_bike", "name": "c3a3958a2fef8f9f2b08c4fbbfa4594f", "is_reserved": 0, "lon": -77.07335716666667, "is_disabled": 0, "fusion_lat": 0.0, "lat": 38.925121833333336, "bike_id": "c3a3958a2fef8f9f2b08c4fbbfa4594f", "fusion_lon": 0.0}, {"rental_uris": {"ios": "https://dc.lft.to/lastmile_qr_scan", "android": "https://dc.lft.to/lastmile_qr_scan"}, "type": "electric_scooter", "name": "0b476c5e7fc3f12862d4827616eab05f", "is_reserved": 0, "lon": -77.03499, "is_disabled": 0, "fusion_lat": 0.0, "lat": 38.9073645, "bike_id": "0b476c5e7fc3f12862d4827616eab05f", "fusion_lon": 0.0}, {"rental_uris": {"ios": "https://dc.lft.to/lastmile_qr_scan", "android": "https://dc.lft.to/lastmile_qr_scan"}, "type": "electric_scooter", "name": "98fbee88a4f86a85a3dc9523b595ac34", "is_reserved": 0, "lon": -77.04883766666667, "is_disabled": 0, "fusion_lat": 0.0, "lat": 38.910200333333336, "bike_id": "98fbee88a4f86a85a3dc9523b595ac34", "fusion_lon": 0.0}, {"rental_uris": {"ios": "https://dc.lft.to/lastmile_qr_scan", "android": "https://dc.lft.to/lastmile_qr_scan"}, "type": "electric_scooter", "name": "72b7a3261846e671007464a091e25e33", "is_reserved": 0, "lon": -77.0221815, "is_disabled": 0, "fusion_lat": 0.0, "lat": 38.924698666666664, "bike_id": "72b7a3261846e671007464a091e25e33", "fusion_lon": 0.0}, {"rental_uris": {"ios": "https://dc.lft.to/lastmile_qr_scan", "android": "https://dc.lft.to/lastmile_qr_scan"}, "type": "electric_scooter", "name": "1d25781154d16cdc7ddffcfa6eaed2b9", "is_reserved": 0, "lon": -77.0404915, "is_disabled": 0, "fusion_lat": 0.0, "lat": 38.930137333333334, "bike_id": "1d25781154d16cdc7ddffcfa6eaed2b9", "fusion_lon": 0.0}, {"rental_uris": {"ios": "https://dc.lft.to/lastmile_qr_scan", "android": "https://dc.lft.to/lastmile_qr_scan"}, "type": "electric_scooter", "name": "2b00acbf416a63b5360f1a448def1940", "is_reserved": 0, "lon": -77.02473633333334, "is_disabled": 0, "fusion_lat": 0.0, "lat": 38.8974375, "bike_id": "2b00acbf416a63b5360f1a448def1940", "fusion_lon": 0.0}, {"rental_uris": {"ios": "https://dc.lft.to/lastmile_qr_scan", "android": "https://dc.lft.to/lastmile_qr_scan"}, "type": "electric_scooter", "name": "0dd1e64fdb3efa94585799d895fbb14f", "is_reserved": 0, "lon": -76.99509466666666, "is_disabled": 0, "fusion_lat": 0.0, "lat": 38.90329033333333, "bike_id": "0dd1e64fdb3efa94585799d895fbb14f", "fusion_lon": 0.0}, {"rental_uris": {"ios": "https://dc.lft.to/lastmile_qr_scan", "android": "https://dc.lft.to/lastmile_qr_scan"}, "type": "electric_scooter", "name": "498c063b0f9d08f89c7864afae87ea8e", "is_reserved": 0, "lon": -77.0451, "is_disabled": 0, "fusion_lat": 0.0, "lat": 38.914196, "bike_id": "498c063b0f9d08f89c7864afae87ea8e", "fusion_lon": 0.0}, {"rental_uris": {"ios": "https://dc.lft.to/lastmile_qr_scan", "android": "https://dc.lft.to/lastmile_qr_scan"}, "type": "electric_scooter", "name": "1987317eeadd101b916cb36305f90588", "is_reserved": 0, "lon": -77.041593, "is_disabled": 0, "fusion_lat": 0.0, "lat": 38.90569766666667, "bike_id": "1987317eeadd101b916cb36305f90588", "fusion_lon": 0.0}, {"rental_uris": {"ios": "https://dc.lft.to/lastmile_qr_scan", "android": "https://dc.lft.to/lastmile_qr_scan"}, "type": "electric_scooter", "name": "ed45d2c0498d96a6ce6f16d1e7be620a", "is_reserved": 0, "lon": -77.0254805, "is_disabled": 0, "fusion_lat": 0.0, "lat": 38.95171583333333, "bike_id": "ed45d2c0498d96a6ce6f16d1e7be620a", "fusion_lon": 0.0}, {"rental_uris": {"ios": "https://dc.lft.to/lastmile_qr_scan", "android": "https://dc.lft.to/lastmile_qr_scan"}, "type": "electric_scooter", "name": "22a6bb3036ed478ad7a1782c67df2f17", "is_reserved": 0, "lon": -77.03959933333333, "is_disabled": 0, "fusion_lat": 0.0, "lat": 38.9031025, "bike_id": "22a6bb3036ed478ad7a1782c67df2f17", "fusion_lon": 0.0}, {"rental_uris": {"ios": "https://dc.lft.to/lastmile_qr_scan", "android": "https://dc.lft.to/lastmile_qr_scan"}, "type": "electric_scooter", "name": "ab43063b0e3966d075d34d30f918bbff", "is_reserved": 0, "lon": -76.992299, "is_disabled": 0, "fusion_lat": 0.0, "lat": 38.887501666666665, "bike_id": "ab43063b0e3966d075d34d30f918bbff", "fusion_lon": 0.0}, {"rental_uris": {"ios": "https://dc.lft.to/lastmile_qr_scan", "android": "https://dc.lft.to/lastmile_qr_scan"}, "type": "electric_scooter", "name": "db70f08c27b3534f1a9008d7b5351d50", "is_reserved": 0, "lon": -77.02198233333333, "is_disabled": 0, "fusion_lat": 0.0, "lat": 38.91006633333333, "bike_id": "db70f08c27b3534f1a9008d7b5351d50", "fusion_lon": 0.0}, {"rental_uris": {"ios": "https://dc.lft.to/lastmile_qr_scan", "android": "https://dc.lft.to/lastmile_qr_scan"}, "type": "electric_scooter", "name": "6be5876bd511e5fecb914d65f4b05a05", "is_reserved": 0, "lon": -77.03356783333334, "is_disabled": 0, "fusion_lat": 0.0, "lat": 38.928855666666664, "bike_id": "6be5876bd511e5fecb914d65f4b05a05", "fusion_lon": 0.0}, {"rental_uris": {"ios": "https://dc.lft.to/lastmile_qr_scan", "android": "https://dc.lft.to/lastmile_qr_scan"}, "type": "electric_scooter", "name": "f9dba63962c9b758658c54e4cf7dc46c", "is_reserved": 0, "lon": -77.0132895, "is_disabled": 0, "fusion_lat": 0.0, "lat": 38.91251583333333, "bike_id": "f9dba63962c9b758658c54e4cf7dc46c", "fusion_lon": 0.0}, {"rental_uris": {"ios": "https://dc.lft.to/lastmile_qr_scan", "android": "https://dc.lft.to/lastmile_qr_scan"}, "type": "electric_scooter", "name": "b7034764297d8b0664e62f6a2d90e329", "is_reserved": 0, "lon": -77.03169516666667, "is_disabled": 0, "fusion_lat": 0.0, "lat": 38.887323, "bike_id": "b7034764297d8b0664e62f6a2d90e329", "fusion_lon": 0.0}, {"rental_uris": {"ios": "https://dc.lft.to/lastmile_qr_scan", "android": "https://dc.lft.to/lastmile_qr_scan"}, "type": "electric_scooter", "name": "166ef6bc10970a3b4354a218108223e3", "is_reserved": 0, "lon": -77.0246475, "is_disabled": 0, "fusion_lat": 0.0, "lat": 38.939544833333336, "bike_id": "166ef6bc10970a3b4354a218108223e3", "fusion_lon": 0.0}, {"rental_uris": {"ios": "https://dc.lft.to/lastmile_qr_scan", "android": "https://dc.lft.to/lastmile_qr_scan"}, "type": "electric_scooter", "name": "ab0b8cd6349dc50afee143ecb5c4fe7b", "is_reserved": 0, "lon": -76.97959183333333, "is_disabled": 0, "fusion_lat": 0.0, "lat": 38.89619533333333, "bike_id": "ab0b8cd6349dc50afee143ecb5c4fe7b", "fusion_lon": 0.0}, {"rental_uris": {"ios": "https://dc.lft.to/lastmile_qr_scan", "android": "https://dc.lft.to/lastmile_qr_scan"}, "type": "electric_scooter", "name": "e837fd4b9d9df0aec1b63f6dbd7c27ce", "is_reserved": 0, "lon": -77.00789116666667, "is_disabled": 0, "fusion_lat": 0.0, "lat": 38.90747616666667, "bike_id": "e837fd4b9d9df0aec1b63f6dbd7c27ce", "fusion_lon": 0.0}, {"rental_uris": {"ios": "https://dc.lft.to/lastmile_qr_scan", "android": "https://dc.lft.to/lastmile_qr_scan"}, "type": "electric_scooter", "name": "e3a6fdc88e79fca464b7e4fb6555a74d", "is_reserved": 0, "lon": -77.0562175, "is_disabled": 0, "fusion_lat": 0.0, "lat": 38.90681133333333, "bike_id": "e3a6fdc88e79fca464b7e4fb6555a74d", "fusion_lon": 0.0}, {"rental_uris": {"ios": "https://dc.lft.to/lastmile_qr_scan", "android": "https://dc.lft.to/lastmile_qr_scan"}, "type": "electric_bike", "name": "b6ebbdd13b285f25292c77cd5c7d8875", "is_reserved": 0, "lon": -76.90733516666667, "is_disabled": 0, "fusion_lat": 0.0, "lat": 38.896148, "bike_id": "b6ebbdd13b285f25292c77cd5c7d8875", "fusion_lon": 0.0}, {"rental_uris": {"ios": "https://dc.lft.to/lastmile_qr_scan", "android": "https://dc.lft.to/lastmile_qr_scan"}, "type": "electric_scooter", "name": "f9c0b231c5cbda39dc01484d2e30ff73", "is_reserved": 0, "lon": -76.998362, "is_disabled": 0, "fusion_lat": 0.0, "lat": 38.89191816666667, "bike_id": "f9c0b231c5cbda39dc01484d2e30ff73", "fusion_lon": 0.0}, {"rental_uris": {"ios": "https://dc.lft.to/lastmile_qr_scan", "android": "https://dc.lft.to/lastmile_qr_scan"}, "type": "electric_scooter", "name": "6276ac095939a680ccab1cbc33f9d856", "is_reserved": 0, "lon": -77.03195966666667, "is_disabled": 0, "fusion_lat": 0.0, "lat": 38.92886166666667, "bike_id": "6276ac095939a680ccab1cbc33f9d856", "fusion_lon": 0.0}, {"rental_uris": {"ios": "https://dc.lft.to/lastmile_qr_scan", "android": "https://dc.lft.to/lastmile_qr_scan"}, "type": "electric_scooter", "name": "14c2406c98381a573d7a183bad89b970", "is_reserved": 0, "lon": -77.03501983333334, "is_disabled": 0, "fusion_lat": 0.0, "lat": 38.93456716666667, "bike_id": "14c2406c98381a573d7a183bad89b970", "fusion_lon": 0.0}, {"rental_uris": {"ios": "https://dc.lft.to/lastmile_qr_scan", "android": "https://dc.lft.to/lastmile_qr_scan"}, "type": "electric_scooter", "name": "e1c62c4a4f9edfef068727774dc47267", "is_reserved": 0, "lon": -77.03958316666667, "is_disabled": 0, "fusion_lat": 0.0, "lat": 38.892423666666666, "bike_id": "e1c62c4a4f9edfef068727774dc47267", "fusion_lon": 0.0}, {"rental_uris": {"ios": "https://dc.lft.to/lastmile_qr_scan", "android": "https://dc.lft.to/lastmile_qr_scan"}, "type": "electric_scooter", "name": "ce76f9af6250723625766e90e264fe50", "is_reserved": 0, "lon": -77.0521635, "is_disabled": 0, "fusion_lat": 0.0, "lat": 38.900196666666666, "bike_id": "ce76f9af6250723625766e90e264fe50", "fusion_lon": 0.0}, {"rental_uris": {"ios": "https://dc.lft.to/lastmile_qr_scan", "android": "https://dc.lft.to/lastmile_qr_scan"}, "type": "electric_scooter", "name": "cd72c8bce793dcdb0a0f680a7d7a4082", "is_reserved": 0, "lon": -77.03328266666666, "is_disabled": 0, "fusion_lat": 0.0, "lat": 38.91326733333333, "bike_id": "cd72c8bce793dcdb0a0f680a7d7a4082", "fusion_lon": 0.0}, {"rental_uris": {"ios": "https://dc.lft.to/lastmile_qr_scan", "android": "https://dc.lft.to/lastmile_qr_scan"}, "type": "electric_scooter", "name": "d1369c277c814c2351bab3317e5a3c87", "is_reserved": 0, "lon": -77.00758416666666, "is_disabled": 0, "fusion_lat": 0.0, "lat": 38.9252235, "bike_id": "d1369c277c814c2351bab3317e5a3c87", "fusion_lon": 0.0}, {"rental_uris": {"ios": "https://dc.lft.to/lastmile_qr_scan", "android": "https://dc.lft.to/lastmile_qr_scan"}, "type": "electric_scooter", "name": "1eae8f6a44339eb5243d20e6e858b2b8", "is_reserved": 0, "lon": -77.06474733333333, "is_disabled": 0, "fusion_lat": 0.0, "lat": 38.91025666666667, "bike_id": "1eae8f6a44339eb5243d20e6e858b2b8", "fusion_lon": 0.0}, {"rental_uris": {"ios": "https://dc.lft.to/lastmile_qr_scan", "android": "https://dc.lft.to/lastmile_qr_scan"}, "type": "electric_scooter", "name": "ad1fd454528f53da32dd4a469225f679", "is_reserved": 0, "lon": -77.00897816666667, "is_disabled": 0, "fusion_lat": 0.0, "lat": 38.89880333333333, "bike_id": "ad1fd454528f53da32dd4a469225f679", "fusion_lon": 0.0}, {"rental_uris": {"ios": "https://dc.lft.to/lastmile_qr_scan", "android": "https://dc.lft.to/lastmile_qr_scan"}, "type": "electric_scooter", "name": "85be624793094efca130d4041db5d7b5", "is_reserved": 0, "lon": -77.04745866666667, "is_disabled": 0, "fusion_lat": 0.0, "lat": 38.90857066666667, "bike_id": "85be624793094efca130d4041db5d7b5", "fusion_lon": 0.0}, {"rental_uris": {"ios": "https://dc.lft.to/lastmile_qr_scan", "android": "https://dc.lft.to/lastmile_qr_scan"}, "type": "electric_scooter", "name": "dcbae15157b558b29edc04d3c4e33bf5", "is_reserved": 0, "lon": -77.00416833333334, "is_disabled": 0, "fusion_lat": 0.0, "lat": 38.90564833333333, "bike_id": "dcbae15157b558b29edc04d3c4e33bf5", "fusion_lon": 0.0}, {"rental_uris": {"ios": "https://dc.lft.to/lastmile_qr_scan", "android": "https://dc.lft.to/lastmile_qr_scan"}, "type": "electric_scooter", "name": "bdd9812baa2a6f7af16acd3bcb04e6a0", "is_reserved": 0, "lon": -76.97939283333334, "is_disabled": 0, "fusion_lat": 0.0, "lat": 38.9066065, "bike_id": "bdd9812baa2a6f7af16acd3bcb04e6a0", "fusion_lon": 0.0}, {"rental_uris": {"ios": "https://dc.lft.to/lastmile_qr_scan", "android": "https://dc.lft.to/lastmile_qr_scan"}, "type": "electric_bike", "name": "afc17d30a7efb79e8c00c63efa968991", "is_reserved": 0, "lon": -77.00135883333333, "is_disabled": 0, "fusion_lat": 0.0, "lat": 38.995030166666666, "bike_id": "afc17d30a7efb79e8c00c63efa968991", "fusion_lon": 0.0}, {"rental_uris": {"ios": "https://dc.lft.to/lastmile_qr_scan", "android": "https://dc.lft.to/lastmile_qr_scan"}, "type": "electric_scooter", "name": "fedc0ff4fb20c8b54c9e826a5e7c5a78", "is_reserved": 0, "lon": -77.03283433333333, "is_disabled": 0, "fusion_lat": 0.0, "lat": 38.93881533333333, "bike_id": "fedc0ff4fb20c8b54c9e826a5e7c5a78", "fusion_lon": 0.0}, {"rental_uris": {"ios": "https://dc.lft.to/lastmile_qr_scan", "android": "https://dc.lft.to/lastmile_qr_scan"}, "type": "electric_scooter", "name": "65adcd2ab2baebd46134e1f27dddefcf", "is_reserved": 0, "lon": -77.0580775, "is_disabled": 0, "fusion_lat": 0.0, "lat": 38.90591883333333, "bike_id": "65adcd2ab2baebd46134e1f27dddefcf", "fusion_lon": 0.0}, {"rental_uris": {"ios": "https://dc.lft.to/lastmile_qr_scan", "android": "https://dc.lft.to/lastmile_qr_scan"}, "type": "electric_scooter", "name": "99ff9800fc8555404a8370e88cb5d671", "is_reserved": 0, "lon": -77.023924, "is_disabled": 0, "fusion_lat": 0.0, "lat": 38.9218655, "bike_id": "99ff9800fc8555404a8370e88cb5d671", "fusion_lon": 0.0}, {"rental_uris": {"ios": "https://dc.lft.to/lastmile_qr_scan", "android": "https://dc.lft.to/lastmile_qr_scan"}, "type": "electric_scooter", "name": "6b89f40d43237888d6b2bbde227fba83", "is_reserved": 0, "lon": -77.04342833333334, "is_disabled": 0, "fusion_lat": 0.0, "lat": 38.8968665, "bike_id": "6b89f40d43237888d6b2bbde227fba83", "fusion_lon": 0.0}, {"rental_uris": {"ios": "https://dc.lft.to/lastmile_qr_scan", "android": "https://dc.lft.to/lastmile_qr_scan"}, "type": "electric_scooter", "name": "fcbe4253a60d5ccb0b56bb5913dcac2b", "is_reserved": 0, "lon": -77.0480425, "is_disabled": 0, "fusion_lat": 0.0, "lat": 38.909709166666666, "bike_id": "fcbe4253a60d5ccb0b56bb5913dcac2b", "fusion_lon": 0.0}, {"rental_uris": {"ios": "https://dc.lft.to/lastmile_qr_scan", "android": "https://dc.lft.to/lastmile_qr_scan"}, "type": "electric_scooter", "name": "7987e971b2ca45ccbe06bacaaad212f6", "is_reserved": 0, "lon": -77.04014616666667, "is_disabled": 0, "fusion_lat": 0.0, "lat": 38.92583833333333, "bike_id": "7987e971b2ca45ccbe06bacaaad212f6", "fusion_lon": 0.0}, {"rental_uris": {"ios": "https://dc.lft.to/lastmile_qr_scan", "android": "https://dc.lft.to/lastmile_qr_scan"}, "type": "electric_bike", "name": "84f0264dbb84e74dfabbf96c7b23f2d1", "is_reserved": 0, "lon": -76.96888666666666, "is_disabled": 0, "fusion_lat": 0.0, "lat": 38.86983216666667, "bike_id": "84f0264dbb84e74dfabbf96c7b23f2d1", "fusion_lon": 0.0}, {"rental_uris": {"ios": "https://dc.lft.to/lastmile_qr_scan", "android": "https://dc.lft.to/lastmile_qr_scan"}, "type": "electric_scooter", "name": "d7c8d9f98eee604c81d04b82b334ef37", "is_reserved": 0, "lon": -76.98563666666666, "is_disabled": 0, "fusion_lat": 0.0, "lat": 38.85999733333333, "bike_id": "d7c8d9f98eee604c81d04b82b334ef37", "fusion_lon": 0.0}, {"rental_uris": {"ios": "https://dc.lft.to/lastmile_qr_scan", "android": "https://dc.lft.to/lastmile_qr_scan"}, "type": "electric_scooter", "name": "369eff8a5dfb65700366530bf40d1d41", "is_reserved": 0, "lon": -77.0366035, "is_disabled": 0, "fusion_lat": 0.0, "lat": 38.913884833333334, "bike_id": "369eff8a5dfb65700366530bf40d1d41", "fusion_lon": 0.0}, {"rental_uris": {"ios": "https://dc.lft.to/lastmile_qr_scan", "android": "https://dc.lft.to/lastmile_qr_scan"}, "type": "electric_scooter", "name": "0170e26fc1da728659ce55dfb28ac638", "is_reserved": 0, "lon": -77.0320205, "is_disabled": 0, "fusion_lat": 0.0, "lat": 38.88707466666666, "bike_id": "0170e26fc1da728659ce55dfb28ac638", "fusion_lon": 0.0}, {"rental_uris": {"ios": "https://dc.lft.to/lastmile_qr_scan", "android": "https://dc.lft.to/lastmile_qr_scan"}, "type": "electric_scooter", "name": "61183f957f9b209e0c343193b9b88c0f", "is_reserved": 0, "lon": -77.04357183333333, "is_disabled": 0, "fusion_lat": 0.0, "lat": 38.90848616666667, "bike_id": "61183f957f9b209e0c343193b9b88c0f", "fusion_lon": 0.0}, {"rental_uris": {"ios": "https://dc.lft.to/lastmile_qr_scan", "android": "https://dc.lft.to/lastmile_qr_scan"}, "type": "electric_scooter", "name": "bd8a4de04db7415b8efa9bd7a1f5a092", "is_reserved": 0, "lon": -77.07879133333333, "is_disabled": 0, "fusion_lat": 0.0, "lat": 38.94611783333333, "bike_id": "bd8a4de04db7415b8efa9bd7a1f5a092", "fusion_lon": 0.0}, {"rental_uris": {"ios": "https://dc.lft.to/lastmile_qr_scan", "android": "https://dc.lft.to/lastmile_qr_scan"}, "type": "electric_scooter", "name": "3fbd33c3f525b30dda8fbf8b79d3f46f", "is_reserved": 0, "lon": -77.02396983333334, "is_disabled": 0, "fusion_lat": 0.0, "lat": 38.957043666666664, "bike_id": "3fbd33c3f525b30dda8fbf8b79d3f46f", "fusion_lon": 0.0}, {"rental_uris": {"ios": "https://dc.lft.to/lastmile_qr_scan", "android": "https://dc.lft.to/lastmile_qr_scan"}, "type": "electric_scooter", "name": "7e2c15af90d0e24331f9200b95b5caa0", "is_reserved": 0, "lon": -77.02154116666667, "is_disabled": 0, "fusion_lat": 0.0, "lat": 38.92604083333333, "bike_id": "7e2c15af90d0e24331f9200b95b5caa0", "fusion_lon": 0.0}, {"rental_uris": {"ios": "https://dc.lft.to/lastmile_qr_scan", "android": "https://dc.lft.to/lastmile_qr_scan"}, "type": "electric_scooter", "name": "18818b92bd990d5a79d2b0a2eed42057", "is_reserved": 0, "lon": -77.02564716666667, "is_disabled": 0, "fusion_lat": 0.0, "lat": 38.9238185, "bike_id": "18818b92bd990d5a79d2b0a2eed42057", "fusion_lon": 0.0}, {"rental_uris": {"ios": "https://dc.lft.to/lastmile_qr_scan", "android": "https://dc.lft.to/lastmile_qr_scan"}, "type": "electric_scooter", "name": "f6b209e61a12391a494ffcd2b6cb44c0", "is_reserved": 0, "lon": -77.00178933333333, "is_disabled": 0, "fusion_lat": 0.0, "lat": 38.87496733333333, "bike_id": "f6b209e61a12391a494ffcd2b6cb44c0", "fusion_lon": 0.0}, {"rental_uris": {"ios": "https://dc.lft.to/lastmile_qr_scan", "android": "https://dc.lft.to/lastmile_qr_scan"}, "type": "electric_bike", "name": "25d1d1779d5ee469cf6219be4cdb283a", "is_reserved": 0, "lon": -77.09455816666667, "is_disabled": 0, "fusion_lat": 0.0, "lat": 38.807529333333335, "bike_id": "25d1d1779d5ee469cf6219be4cdb283a", "fusion_lon": 0.0}, {"rental_uris": {"ios": "https://dc.lft.to/lastmile_qr_scan", "android": "https://dc.lft.to/lastmile_qr_scan"}, "type": "electric_scooter", "name": "f2b380d1e7dfb6a2a7b0bf3e11e6372d", "is_reserved": 0, "lon": -76.97799816666667, "is_disabled": 0, "fusion_lat": 0.0, "lat": 38.903130166666664, "bike_id": "f2b380d1e7dfb6a2a7b0bf3e11e6372d", "fusion_lon": 0.0}, {"rental_uris": {"ios": "https://dc.lft.to/lastmile_qr_scan", "android": "https://dc.lft.to/lastmile_qr_scan"}, "type": "electric_scooter", "name": "09ccad8e957aa49c22b9d614aec7efe3", "is_reserved": 0, "lon": -76.99012416666666, "is_disabled": 0, "fusion_lat": 0.0, "lat": 38.899984, "bike_id": "09ccad8e957aa49c22b9d614aec7efe3", "fusion_lon": 0.0}, {"rental_uris": {"ios": "https://dc.lft.to/lastmile_qr_scan", "android": "https://dc.lft.to/lastmile_qr_scan"}, "type": "electric_scooter", "name": "c1dd710d33909f9ee5ea296d22a6dc85", "is_reserved": 0, "lon": -77.04487283333333, "is_disabled": 0, "fusion_lat": 0.0, "lat": 38.919404666666665, "bike_id": "c1dd710d33909f9ee5ea296d22a6dc85", "fusion_lon": 0.0}, {"rental_uris": {"ios": "https://dc.lft.to/lastmile_qr_scan", "android": "https://dc.lft.to/lastmile_qr_scan"}, "type": "electric_scooter", "name": "cb4b58d6c3060ecdae3757320c2555a3", "is_reserved": 0, "lon": -77.0354025, "is_disabled": 0, "fusion_lat": 0.0, "lat": 38.9361235, "bike_id": "cb4b58d6c3060ecdae3757320c2555a3", "fusion_lon": 0.0}, {"rental_uris": {"ios": "https://dc.lft.to/lastmile_qr_scan", "android": "https://dc.lft.to/lastmile_qr_scan"}, "type": "electric_scooter", "name": "92cc6927ce54439b8c95ac98d9e2de30", "is_reserved": 0, "lon": -77.0230195, "is_disabled": 0, "fusion_lat": 0.0, "lat": 38.91394183333333, "bike_id": "92cc6927ce54439b8c95ac98d9e2de30", "fusion_lon": 0.0}, {"rental_uris": {"ios": "https://dc.lft.to/lastmile_qr_scan", "android": "https://dc.lft.to/lastmile_qr_scan"}, "type": "electric_scooter", "name": "9d6cd6482a18ce7fd6a2efb51f61c39c", "is_reserved": 0, "lon": -77.02553366666666, "is_disabled": 0, "fusion_lat": 0.0, "lat": 38.93091716666667, "bike_id": "9d6cd6482a18ce7fd6a2efb51f61c39c", "fusion_lon": 0.0}, {"rental_uris": {"ios": "https://dc.lft.to/lastmile_qr_scan", "android": "https://dc.lft.to/lastmile_qr_scan"}, "type": "electric_scooter", "name": "4ad27dab96b4fbadc0bc8db6e7c6fc9c", "is_reserved": 0, "lon": -77.014308, "is_disabled": 0, "fusion_lat": 0.0, "lat": 38.9146785, "bike_id": "4ad27dab96b4fbadc0bc8db6e7c6fc9c", "fusion_lon": 0.0}, {"rental_uris": {"ios": "https://dc.lft.to/lastmile_qr_scan", "android": "https://dc.lft.to/lastmile_qr_scan"}, "type": "electric_scooter", "name": "c411195616c8b767a6e0dae4bd312672", "is_reserved": 0, "lon": -77.03381433333334, "is_disabled": 0, "fusion_lat": 0.0, "lat": 38.90267266666667, "bike_id": "c411195616c8b767a6e0dae4bd312672", "fusion_lon": 0.0}, {"rental_uris": {"ios": "https://dc.lft.to/lastmile_qr_scan", "android": "https://dc.lft.to/lastmile_qr_scan"}, "type": "electric_scooter", "name": "300fb997cf8b96349c57dc18cc2f1d2c", "is_reserved": 0, "lon": -77.07250766666667, "is_disabled": 0, "fusion_lat": 0.0, "lat": 38.93329, "bike_id": "300fb997cf8b96349c57dc18cc2f1d2c", "fusion_lon": 0.0}, {"rental_uris": {"ios": "https://dc.lft.to/lastmile_qr_scan", "android": "https://dc.lft.to/lastmile_qr_scan"}, "type": "electric_scooter", "name": "1237cdcefe241ec693462327cd07dac0", "is_reserved": 0, "lon": -77.02226316666666, "is_disabled": 0, "fusion_lat": 0.0, "lat": 38.920853, "bike_id": "1237cdcefe241ec693462327cd07dac0", "fusion_lon": 0.0}, {"rental_uris": {"ios": "https://dc.lft.to/lastmile_qr_scan", "android": "https://dc.lft.to/lastmile_qr_scan"}, "type": "electric_scooter", "name": "1d25c24d605943fc13bb8321601fe9a4", "is_reserved": 0, "lon": -77.03403516666667, "is_disabled": 0, "fusion_lat": 0.0, "lat": 38.935398666666664, "bike_id": "1d25c24d605943fc13bb8321601fe9a4", "fusion_lon": 0.0}, {"rental_uris": {"ios": "https://dc.lft.to/lastmile_qr_scan", "android": "https://dc.lft.to/lastmile_qr_scan"}, "type": "electric_scooter", "name": "a653a1320da9603aec1bbd9d46342382", "is_reserved": 0, "lon": -77.0238045, "is_disabled": 0, "fusion_lat": 0.0, "lat": 38.919513333333335, "bike_id": "a653a1320da9603aec1bbd9d46342382", "fusion_lon": 0.0}, {"rental_uris": {"ios": "https://dc.lft.to/lastmile_qr_scan", "android": "https://dc.lft.to/lastmile_qr_scan"}, "type": "electric_scooter", "name": "73fc8d0dded1d5924d07ab8595d9253a", "is_reserved": 0, "lon": -77.03142483333333, "is_disabled": 0, "fusion_lat": 0.0, "lat": 38.91828433333333, "bike_id": "73fc8d0dded1d5924d07ab8595d9253a", "fusion_lon": 0.0}, {"rental_uris": {"ios": "https://dc.lft.to/lastmile_qr_scan", "android": "https://dc.lft.to/lastmile_qr_scan"}, "type": "electric_bike", "name": "09578bf7554f23f1fdf2b19bae867060", "is_reserved": 0, "lon": -76.8896925, "is_disabled": 0, "fusion_lat": 0.0, "lat": 39.00771966666667, "bike_id": "09578bf7554f23f1fdf2b19bae867060", "fusion_lon": 0.0}, {"rental_uris": {"ios": "https://dc.lft.to/lastmile_qr_scan", "android": "https://dc.lft.to/lastmile_qr_scan"}, "type": "electric_scooter", "name": "f8a258bc8fdc3e6b0f47b6c57f8da08b", "is_reserved": 0, "lon": -76.9840355, "is_disabled": 0, "fusion_lat": 0.0, "lat": 38.92519266666667, "bike_id": "f8a258bc8fdc3e6b0f47b6c57f8da08b", "fusion_lon": 0.0}, {"rental_uris": {"ios": "https://dc.lft.to/lastmile_qr_scan", "android": "https://dc.lft.to/lastmile_qr_scan"}, "type": "electric_scooter", "name": "53ac6d180bc2d985726e52e57bdea66b", "is_reserved": 0, "lon": -77.04742666666667, "is_disabled": 0, "fusion_lat": 0.0, "lat": 38.912657333333335, "bike_id": "53ac6d180bc2d985726e52e57bdea66b", "fusion_lon": 0.0}, {"rental_uris": {"ios": "https://dc.lft.to/lastmile_qr_scan", "android": "https://dc.lft.to/lastmile_qr_scan"}, "type": "electric_bike", "name": "838be0d9dd98b9597f6aecf24c74fdcb", "is_reserved": 0, "lon": -76.98348933333334, "is_disabled": 0, "fusion_lat": 0.0, "lat": 38.8625985, "bike_id": "838be0d9dd98b9597f6aecf24c74fdcb", "fusion_lon": 0.0}, {"rental_uris": {"ios": "https://dc.lft.to/lastmile_qr_scan", "android": "https://dc.lft.to/lastmile_qr_scan"}, "type": "electric_scooter", "name": "d5621b684005fc71758fcaf99ac0c3ca", "is_reserved": 0, "lon": -77.03470883333334, "is_disabled": 0, "fusion_lat": 0.0, "lat": 38.930231666666664, "bike_id": "d5621b684005fc71758fcaf99ac0c3ca", "fusion_lon": 0.0}, {"rental_uris": {"ios": "https://dc.lft.to/lastmile_qr_scan", "android": "https://dc.lft.to/lastmile_qr_scan"}, "type": "electric_scooter", "name": "2fad459d16760db594f4ef5c51655c07", "is_reserved": 0, "lon": -77.01938283333334, "is_disabled": 0, "fusion_lat": 0.0, "lat": 38.876638166666666, "bike_id": "2fad459d16760db594f4ef5c51655c07", "fusion_lon": 0.0}, {"rental_uris": {"ios": "https://dc.lft.to/lastmile_qr_scan", "android": "https://dc.lft.to/lastmile_qr_scan"}, "type": "electric_scooter", "name": "334a5ac5d1d7462222a47bf72c9f3b46", "is_reserved": 0, "lon": -76.98610783333334, "is_disabled": 0, "fusion_lat": 0.0, "lat": 38.878451, "bike_id": "334a5ac5d1d7462222a47bf72c9f3b46", "fusion_lon": 0.0}, {"rental_uris": {"ios": "https://dc.lft.to/lastmile_qr_scan", "android": "https://dc.lft.to/lastmile_qr_scan"}, "type": "electric_scooter", "name": "107408a1e947b8aefd63720e6d094a9a", "is_reserved": 0, "lon": -77.03454366666666, "is_disabled": 0, "fusion_lat": 0.0, "lat": 38.90727416666667, "bike_id": "107408a1e947b8aefd63720e6d094a9a", "fusion_lon": 0.0}, {"rental_uris": {"ios": "https://dc.lft.to/lastmile_qr_scan", "android": "https://dc.lft.to/lastmile_qr_scan"}, "type": "electric_scooter", "name": "90cb803120eaf2f2fcac84f3712c25a2", "is_reserved": 0, "lon": -77.00876666666667, "is_disabled": 0, "fusion_lat": 0.0, "lat": 38.91256533333333, "bike_id": "90cb803120eaf2f2fcac84f3712c25a2", "fusion_lon": 0.0}, {"rental_uris": {"ios": "https://dc.lft.to/lastmile_qr_scan", "android": "https://dc.lft.to/lastmile_qr_scan"}, "type": "electric_scooter", "name": "8df48b5b0e34a28a5ad9fe4f1e088d19", "is_reserved": 0, "lon": -77.024585, "is_disabled": 0, "fusion_lat": 0.0, "lat": 38.925035666666666, "bike_id": "8df48b5b0e34a28a5ad9fe4f1e088d19", "fusion_lon": 0.0}, {"rental_uris": {"ios": "https://dc.lft.to/lastmile_qr_scan", "android": "https://dc.lft.to/lastmile_qr_scan"}, "type": "electric_scooter", "name": "533e47429c355610411f6c5ec59c0beb", "is_reserved": 0, "lon": -77.02053133333334, "is_disabled": 0, "fusion_lat": 0.0, "lat": 38.92246016666667, "bike_id": "533e47429c355610411f6c5ec59c0beb", "fusion_lon": 0.0}, {"rental_uris": {"ios": "https://dc.lft.to/lastmile_qr_scan", "android": "https://dc.lft.to/lastmile_qr_scan"}, "type": "electric_scooter", "name": "65a1055f1314cd3230f26532383e85f4", "is_reserved": 0, "lon": -76.99409066666666, "is_disabled": 0, "fusion_lat": 0.0, "lat": 38.877838833333335, "bike_id": "65a1055f1314cd3230f26532383e85f4", "fusion_lon": 0.0}, {"rental_uris": {"ios": "https://dc.lft.to/lastmile_qr_scan", "android": "https://dc.lft.to/lastmile_qr_scan"}, "type": "electric_scooter", "name": "f52125c01854dec1a5405fb90e6b69b7", "is_reserved": 0, "lon": -77.039482, "is_disabled": 0, "fusion_lat": 0.0, "lat": 38.89245966666667, "bike_id": "f52125c01854dec1a5405fb90e6b69b7", "fusion_lon": 0.0}, {"rental_uris": {"ios": "https://dc.lft.to/lastmile_qr_scan", "android": "https://dc.lft.to/lastmile_qr_scan"}, "type": "electric_scooter", "name": "87563c1994f20db198d0e9a60ff48c77", "is_reserved": 0, "lon": -77.00938483333333, "is_disabled": 0, "fusion_lat": 0.0, "lat": 38.8767245, "bike_id": "87563c1994f20db198d0e9a60ff48c77", "fusion_lon": 0.0}, {"rental_uris": {"ios": "https://dc.lft.to/lastmile_qr_scan", "android": "https://dc.lft.to/lastmile_qr_scan"}, "type": "electric_bike", "name": "d65fe29e344bdfa4f3777bcf48c527bc", "is_reserved": 0, "lon": -77.07522466666667, "is_disabled": 0, "fusion_lat": 0.0, "lat": 38.842866, "bike_id": "d65fe29e344bdfa4f3777bcf48c527bc", "fusion_lon": 0.0}, {"rental_uris": {"ios": "https://dc.lft.to/lastmile_qr_scan", "android": "https://dc.lft.to/lastmile_qr_scan"}, "type": "electric_scooter", "name": "33baf25aff08de0e97c516e80bcf85fb", "is_reserved": 0, "lon": -77.00132383333333, "is_disabled": 0, "fusion_lat": 0.0, "lat": 38.873679, "bike_id": "33baf25aff08de0e97c516e80bcf85fb", "fusion_lon": 0.0}, {"rental_uris": {"ios": "https://dc.lft.to/lastmile_qr_scan", "android": "https://dc.lft.to/lastmile_qr_scan"}, "type": "electric_scooter", "name": "823702e37905e4115573de220f353fbd", "is_reserved": 0, "lon": -77.05229166666666, "is_disabled": 0, "fusion_lat": 0.0, "lat": 38.89847133333333, "bike_id": "823702e37905e4115573de220f353fbd", "fusion_lon": 0.0}, {"rental_uris": {"ios": "https://dc.lft.to/lastmile_qr_scan", "android": "https://dc.lft.to/lastmile_qr_scan"}, "type": "electric_scooter", "name": "56ce77b6097cb3105bb5a1140758543d", "is_reserved": 0, "lon": -77.04590933333333, "is_disabled": 0, "fusion_lat": 0.0, "lat": 38.918594, "bike_id": "56ce77b6097cb3105bb5a1140758543d", "fusion_lon": 0.0}, {"rental_uris": {"ios": "https://dc.lft.to/lastmile_qr_scan", "android": "https://dc.lft.to/lastmile_qr_scan"}, "type": "electric_bike", "name": "ef1a85dd809ec4b244c82e4f9c7cde9e", "is_reserved": 0, "lon": -77.023595, "is_disabled": 0, "fusion_lat": 0.0, "lat": 38.93587, "bike_id": "ef1a85dd809ec4b244c82e4f9c7cde9e", "fusion_lon": 0.0}, {"rental_uris": {"ios": "https://dc.lft.to/lastmile_qr_scan", "android": "https://dc.lft.to/lastmile_qr_scan"}, "type": "electric_scooter", "name": "0aafcb8c940b52be2262fec17ba90aae", "is_reserved": 0, "lon": -77.03222433333333, "is_disabled": 0, "fusion_lat": 0.0, "lat": 38.899007, "bike_id": "0aafcb8c940b52be2262fec17ba90aae", "fusion_lon": 0.0}, {"rental_uris": {"ios": "https://dc.lft.to/lastmile_qr_scan", "android": "https://dc.lft.to/lastmile_qr_scan"}, "type": "electric_bike", "name": "fbc48bdef9a42786fdf5aef50c8c5ae2", "is_reserved": 0, "lon": -76.9880615, "is_disabled": 0, "fusion_lat": 0.0, "lat": 38.8428135, "bike_id": "fbc48bdef9a42786fdf5aef50c8c5ae2", "fusion_lon": 0.0}, {"rental_uris": {"ios": "https://dc.lft.to/lastmile_qr_scan", "android": "https://dc.lft.to/lastmile_qr_scan"}, "type": "electric_scooter", "name": "157d9dab5f7a99a9ebeff9249c0e252f", "is_reserved": 0, "lon": -77.037012, "is_disabled": 0, "fusion_lat": 0.0, "lat": 38.932747, "bike_id": "157d9dab5f7a99a9ebeff9249c0e252f", "fusion_lon": 0.0}, {"rental_uris": {"ios": "https://dc.lft.to/lastmile_qr_scan", "android": "https://dc.lft.to/lastmile_qr_scan"}, "type": "electric_bike", "name": "5e3f45cfc92128fc29d13203281f5f4e", "is_reserved": 0, "lon": -76.93667533333333, "is_disabled": 0, "fusion_lat": 0.0, "lat": 38.894564, "bike_id": "5e3f45cfc92128fc29d13203281f5f4e", "fusion_lon": 0.0}, {"rental_uris": {"ios": "https://dc.lft.to/lastmile_qr_scan", "android": "https://dc.lft.to/lastmile_qr_scan"}, "type": "electric_scooter", "name": "42abf9befd4bced04e10984e8e2610f2", "is_reserved": 0, "lon": -77.02777883333333, "is_disabled": 0, "fusion_lat": 0.0, "lat": 38.962411, "bike_id": "42abf9befd4bced04e10984e8e2610f2", "fusion_lon": 0.0}, {"rental_uris": {"ios": "https://dc.lft.to/lastmile_qr_scan", "android": "https://dc.lft.to/lastmile_qr_scan"}, "type": "electric_scooter", "name": "9ec8849e9d2eb162bc7b5cc293f4acea", "is_reserved": 0, "lon": -77.01209316666667, "is_disabled": 0, "fusion_lat": 0.0, "lat": 38.91195466666667, "bike_id": "9ec8849e9d2eb162bc7b5cc293f4acea", "fusion_lon": 0.0}, {"rental_uris": {"ios": "https://dc.lft.to/lastmile_qr_scan", "android": "https://dc.lft.to/lastmile_qr_scan"}, "type": "electric_scooter", "name": "14825b2da34e55507a9ebfae78f5a7f6", "is_reserved": 0, "lon": -76.98508233333334, "is_disabled": 0, "fusion_lat": 0.0, "lat": 38.879962666666664, "bike_id": "14825b2da34e55507a9ebfae78f5a7f6", "fusion_lon": 0.0}, {"rental_uris": {"ios": "https://dc.lft.to/lastmile_qr_scan", "android": "https://dc.lft.to/lastmile_qr_scan"}, "type": "electric_scooter", "name": "ede0c9237428962aa76ed8c9c569a5ab", "is_reserved": 0, "lon": -77.01577766666666, "is_disabled": 0, "fusion_lat": 0.0, "lat": 38.91682866666667, "bike_id": "ede0c9237428962aa76ed8c9c569a5ab", "fusion_lon": 0.0}, {"rental_uris": {"ios": "https://dc.lft.to/lastmile_qr_scan", "android": "https://dc.lft.to/lastmile_qr_scan"}, "type": "electric_bike", "name": "30c1447d2f342858d30e3025493a96f2", "is_reserved": 0, "lon": -76.96264133333334, "is_disabled": 0, "fusion_lat": 0.0, "lat": 38.967856, "bike_id": "30c1447d2f342858d30e3025493a96f2", "fusion_lon": 0.0}, {"rental_uris": {"ios": "https://dc.lft.to/lastmile_qr_scan", "android": "https://dc.lft.to/lastmile_qr_scan"}, "type": "electric_scooter", "name": "0be426ea56ac8235676638d06503b226", "is_reserved": 0, "lon": -77.01211466666666, "is_disabled": 0, "fusion_lat": 0.0, "lat": 38.921163, "bike_id": "0be426ea56ac8235676638d06503b226", "fusion_lon": 0.0}, {"rental_uris": {"ios": "https://dc.lft.to/lastmile_qr_scan", "android": "https://dc.lft.to/lastmile_qr_scan"}, "type": "electric_scooter", "name": "cb7c7e562b7b0b210592bd395e2fcdb6", "is_reserved": 0, "lon": -77.04627283333333, "is_disabled": 0, "fusion_lat": 0.0, "lat": 38.902629833333336, "bike_id": "cb7c7e562b7b0b210592bd395e2fcdb6", "fusion_lon": 0.0}, {"rental_uris": {"ios": "https://dc.lft.to/lastmile_qr_scan", "android": "https://dc.lft.to/lastmile_qr_scan"}, "type": "electric_bike", "name": "8cbbb68cd33f45866894016bd58b3344", "is_reserved": 0, "lon": -76.98689333333333, "is_disabled": 0, "fusion_lat": 0.0, "lat": 38.944699666666665, "bike_id": "8cbbb68cd33f45866894016bd58b3344", "fusion_lon": 0.0}, {"rental_uris": {"ios": "https://dc.lft.to/lastmile_qr_scan", "android": "https://dc.lft.to/lastmile_qr_scan"}, "type": "electric_scooter", "name": "4474822eb2c6fab2ec17ac730d3f3ba0", "is_reserved": 0, "lon": -77.0452, "is_disabled": 0, "fusion_lat": 0.0, "lat": 38.90401083333333, "bike_id": "4474822eb2c6fab2ec17ac730d3f3ba0", "fusion_lon": 0.0}, {"rental_uris": {"ios": "https://dc.lft.to/lastmile_qr_scan", "android": "https://dc.lft.to/lastmile_qr_scan"}, "type": "electric_scooter", "name": "734ffbfbf6f1b36e4a795e4db3817f1b", "is_reserved": 0, "lon": -77.036582, "is_disabled": 0, "fusion_lat": 0.0, "lat": 38.92281933333334, "bike_id": "734ffbfbf6f1b36e4a795e4db3817f1b", "fusion_lon": 0.0}, {"rental_uris": {"ios": "https://dc.lft.to/lastmile_qr_scan", "android": "https://dc.lft.to/lastmile_qr_scan"}, "type": "electric_scooter", "name": "8ca5e14baf1f5c3d74beb4d4caf798b7", "is_reserved": 0, "lon": -77.02043666666667, "is_disabled": 0, "fusion_lat": 0.0, "lat": 38.92247533333333, "bike_id": "8ca5e14baf1f5c3d74beb4d4caf798b7", "fusion_lon": 0.0}, {"rental_uris": {"ios": "https://dc.lft.to/lastmile_qr_scan", "android": "https://dc.lft.to/lastmile_qr_scan"}, "type": "electric_scooter", "name": "079cc15deeae9d97ecfb17ce1b8044fc", "is_reserved": 0, "lon": -77.00102566666666, "is_disabled": 0, "fusion_lat": 0.0, "lat": 38.881190833333335, "bike_id": "079cc15deeae9d97ecfb17ce1b8044fc", "fusion_lon": 0.0}, {"rental_uris": {"ios": "https://dc.lft.to/lastmile_qr_scan", "android": "https://dc.lft.to/lastmile_qr_scan"}, "type": "electric_scooter", "name": "773a6c3d2afc5de16042f32622b7147b", "is_reserved": 0, "lon": -77.01981266666667, "is_disabled": 0, "fusion_lat": 0.0, "lat": 38.89936633333333, "bike_id": "773a6c3d2afc5de16042f32622b7147b", "fusion_lon": 0.0}, {"rental_uris": {"ios": "https://dc.lft.to/lastmile_qr_scan", "android": "https://dc.lft.to/lastmile_qr_scan"}, "type": "electric_scooter", "name": "4d73bccd7503544b5fb7c6c6f41d59d3", "is_reserved": 0, "lon": -77.018593, "is_disabled": 0, "fusion_lat": 0.0, "lat": 38.94890316666667, "bike_id": "4d73bccd7503544b5fb7c6c6f41d59d3", "fusion_lon": 0.0}, {"rental_uris": {"ios": "https://dc.lft.to/lastmile_qr_scan", "android": "https://dc.lft.to/lastmile_qr_scan"}, "type": "electric_scooter", "name": "4a42730534a20250796b694a0bd68a5a", "is_reserved": 0, "lon": -77.02338033333334, "is_disabled": 0, "fusion_lat": 0.0, "lat": 38.923013, "bike_id": "4a42730534a20250796b694a0bd68a5a", "fusion_lon": 0.0}, {"rental_uris": {"ios": "https://dc.lft.to/lastmile_qr_scan", "android": "https://dc.lft.to/lastmile_qr_scan"}, "type": "electric_bike", "name": "641335cfebf50b90132cccde7ea58e1f", "is_reserved": 0, "lon": -77.07945666666667, "is_disabled": 0, "fusion_lat": 0.0, "lat": 38.84902116666667, "bike_id": "641335cfebf50b90132cccde7ea58e1f", "fusion_lon": 0.0}, {"rental_uris": {"ios": "https://dc.lft.to/lastmile_qr_scan", "android": "https://dc.lft.to/lastmile_qr_scan"}, "type": "electric_scooter", "name": "59de7d21f0f4c39b94b3ff9b78dca980", "is_reserved": 0, "lon": -77.03056916666667, "is_disabled": 0, "fusion_lat": 0.0, "lat": 38.884207833333335, "bike_id": "59de7d21f0f4c39b94b3ff9b78dca980", "fusion_lon": 0.0}, {"rental_uris": {"ios": "https://dc.lft.to/lastmile_qr_scan", "android": "https://dc.lft.to/lastmile_qr_scan"}, "type": "electric_scooter", "name": "a3fe419792dc2db7d3a327fe71dc33da", "is_reserved": 0, "lon": -76.98257083333333, "is_disabled": 0, "fusion_lat": 0.0, "lat": 38.866305, "bike_id": "a3fe419792dc2db7d3a327fe71dc33da", "fusion_lon": 0.0}, {"rental_uris": {"ios": "https://dc.lft.to/lastmile_qr_scan", "android": "https://dc.lft.to/lastmile_qr_scan"}, "type": "electric_scooter", "name": "f667ee9ab063ecb0cb21d1b549c3d60e", "is_reserved": 0, "lon": -77.04217133333333, "is_disabled": 0, "fusion_lat": 0.0, "lat": 38.921268166666664, "bike_id": "f667ee9ab063ecb0cb21d1b549c3d60e", "fusion_lon": 0.0}, {"rental_uris": {"ios": "https://dc.lft.to/lastmile_qr_scan", "android": "https://dc.lft.to/lastmile_qr_scan"}, "type": "electric_bike", "name": "df44758e58ef89caccfbc08f8b4ccddf", "is_reserved": 0, "lon": -77.02008833333333, "is_disabled": 0, "fusion_lat": 0.0, "lat": 38.9644015, "bike_id": "df44758e58ef89caccfbc08f8b4ccddf", "fusion_lon": 0.0}, {"rental_uris": {"ios": "https://dc.lft.to/lastmile_qr_scan", "android": "https://dc.lft.to/lastmile_qr_scan"}, "type": "electric_scooter", "name": "970a07b78f0032cd8fdbe7cfefb98d9b", "is_reserved": 0, "lon": -77.03146583333333, "is_disabled": 0, "fusion_lat": 0.0, "lat": 38.8874095, "bike_id": "970a07b78f0032cd8fdbe7cfefb98d9b", "fusion_lon": 0.0}, {"rental_uris": {"ios": "https://dc.lft.to/lastmile_qr_scan", "android": "https://dc.lft.to/lastmile_qr_scan"}, "type": "electric_scooter", "name": "e9c48caf9b8cd4827dad39d137bd43e4", "is_reserved": 0, "lon": -77.0252885, "is_disabled": 0, "fusion_lat": 0.0, "lat": 38.94529816666667, "bike_id": "e9c48caf9b8cd4827dad39d137bd43e4", "fusion_lon": 0.0}, {"rental_uris": {"ios": "https://dc.lft.to/lastmile_qr_scan", "android": "https://dc.lft.to/lastmile_qr_scan"}, "type": "electric_scooter", "name": "002a7b4260cda172c08843faeb2c8aef", "is_reserved": 0, "lon": -77.01785866666667, "is_disabled": 0, "fusion_lat": 0.0, "lat": 38.8747865, "bike_id": "002a7b4260cda172c08843faeb2c8aef", "fusion_lon": 0.0}, {"rental_uris": {"ios": "https://dc.lft.to/lastmile_qr_scan", "android": "https://dc.lft.to/lastmile_qr_scan"}, "type": "electric_bike", "name": "08b5c93c18b595b3385496bf65d7c90c", "is_reserved": 0, "lon": -76.9957395, "is_disabled": 0, "fusion_lat": 0.0, "lat": 38.83158533333334, "bike_id": "08b5c93c18b595b3385496bf65d7c90c", "fusion_lon": 0.0}, {"rental_uris": {"ios": "https://dc.lft.to/lastmile_qr_scan", "android": "https://dc.lft.to/lastmile_qr_scan"}, "type": "electric_scooter", "name": "885bcf13b2c0d41c42d3d57b24c7cd28", "is_reserved": 0, "lon": -76.99712533333333, "is_disabled": 0, "fusion_lat": 0.0, "lat": 38.89749366666667, "bike_id": "885bcf13b2c0d41c42d3d57b24c7cd28", "fusion_lon": 0.0}, {"rental_uris": {"ios": "https://dc.lft.to/lastmile_qr_scan", "android": "https://dc.lft.to/lastmile_qr_scan"}, "type": "electric_scooter", "name": "961df8a02e36ec86a36e5ea0b9df47f2", "is_reserved": 0, "lon": -76.99663266666667, "is_disabled": 0, "fusion_lat": 0.0, "lat": 38.89230466666667, "bike_id": "961df8a02e36ec86a36e5ea0b9df47f2", "fusion_lon": 0.0}, {"rental_uris": {"ios": "https://dc.lft.to/lastmile_qr_scan", "android": "https://dc.lft.to/lastmile_qr_scan"}, "type": "electric_scooter", "name": "5b5c2fd08868bd61dd719520f299d136", "is_reserved": 0, "lon": -77.0024545, "is_disabled": 0, "fusion_lat": 0.0, "lat": 38.9085795, "bike_id": "5b5c2fd08868bd61dd719520f299d136", "fusion_lon": 0.0}, {"rental_uris": {"ios": "https://dc.lft.to/lastmile_qr_scan", "android": "https://dc.lft.to/lastmile_qr_scan"}, "type": "electric_scooter", "name": "d491b1c7b388802e2af0cebf8dc9beca", "is_reserved": 0, "lon": -77.03634533333333, "is_disabled": 0, "fusion_lat": 0.0, "lat": 38.93054883333333, "bike_id": "d491b1c7b388802e2af0cebf8dc9beca", "fusion_lon": 0.0}, {"rental_uris": {"ios": "https://dc.lft.to/lastmile_qr_scan", "android": "https://dc.lft.to/lastmile_qr_scan"}, "type": "electric_scooter", "name": "88ae7cc5995785a4526c83a73545460e", "is_reserved": 0, "lon": -77.03983966666667, "is_disabled": 0, "fusion_lat": 0.0, "lat": 38.90147616666667, "bike_id": "88ae7cc5995785a4526c83a73545460e", "fusion_lon": 0.0}, {"rental_uris": {"ios": "https://dc.lft.to/lastmile_qr_scan", "android": "https://dc.lft.to/lastmile_qr_scan"}, "type": "electric_scooter", "name": "9052c6d24fbe10852595e5cfc358c15c", "is_reserved": 0, "lon": -77.02696116666667, "is_disabled": 0, "fusion_lat": 0.0, "lat": 38.92401916666667, "bike_id": "9052c6d24fbe10852595e5cfc358c15c", "fusion_lon": 0.0}, {"rental_uris": {"ios": "https://dc.lft.to/lastmile_qr_scan", "android": "https://dc.lft.to/lastmile_qr_scan"}, "type": "electric_bike", "name": "0bed302c657824905bb511e7d3c3be4c", "is_reserved": 0, "lon": -76.98059583333334, "is_disabled": 0, "fusion_lat": 0.0, "lat": 38.972523333333335, "bike_id": "0bed302c657824905bb511e7d3c3be4c", "fusion_lon": 0.0}, {"rental_uris": {"ios": "https://dc.lft.to/lastmile_qr_scan", "android": "https://dc.lft.to/lastmile_qr_scan"}, "type": "electric_scooter", "name": "1855cfc73331c523b43a60c36572d22a", "is_reserved": 0, "lon": -77.024106, "is_disabled": 0, "fusion_lat": 0.0, "lat": 38.945048666666665, "bike_id": "1855cfc73331c523b43a60c36572d22a", "fusion_lon": 0.0}, {"rental_uris": {"ios": "https://dc.lft.to/lastmile_qr_scan", "android": "https://dc.lft.to/lastmile_qr_scan"}, "type": "electric_scooter", "name": "67dcdfb4b64efdfbf92b56c570ad2add", "is_reserved": 0, "lon": -77.01756583333334, "is_disabled": 0, "fusion_lat": 0.0, "lat": 38.88011816666667, "bike_id": "67dcdfb4b64efdfbf92b56c570ad2add", "fusion_lon": 0.0}, {"rental_uris": {"ios": "https://dc.lft.to/lastmile_qr_scan", "android": "https://dc.lft.to/lastmile_qr_scan"}, "type": "electric_scooter", "name": "b54d41550c119351c822eb1ef0e9273e", "is_reserved": 0, "lon": -76.9903475, "is_disabled": 0, "fusion_lat": 0.0, "lat": 38.888752333333336, "bike_id": "b54d41550c119351c822eb1ef0e9273e", "fusion_lon": 0.0}, {"rental_uris": {"ios": "https://dc.lft.to/lastmile_qr_scan", "android": "https://dc.lft.to/lastmile_qr_scan"}, "type": "electric_bike", "name": "80e3f5dda6d1e80ff29b78ba406494e3", "is_reserved": 0, "lon": -76.975362, "is_disabled": 0, "fusion_lat": 0.0, "lat": 38.90331716666667, "bike_id": "80e3f5dda6d1e80ff29b78ba406494e3", "fusion_lon": 0.0}, {"rental_uris": {"ios": "https://dc.lft.to/lastmile_qr_scan", "android": "https://dc.lft.to/lastmile_qr_scan"}, "type": "electric_scooter", "name": "e8f0b65730c05f3e7078002ce7d6909f", "is_reserved": 0, "lon": -77.00570416666666, "is_disabled": 0, "fusion_lat": 0.0, "lat": 38.87460166666666, "bike_id": "e8f0b65730c05f3e7078002ce7d6909f", "fusion_lon": 0.0}, {"rental_uris": {"ios": "https://dc.lft.to/lastmile_qr_scan", "android": "https://dc.lft.to/lastmile_qr_scan"}, "type": "electric_scooter", "name": "f758f7a9ccd44df1bf8e26cf2899e3a8", "is_reserved": 0, "lon": -77.01907433333334, "is_disabled": 0, "fusion_lat": 0.0, "lat": 38.9233675, "bike_id": "f758f7a9ccd44df1bf8e26cf2899e3a8", "fusion_lon": 0.0}, {"rental_uris": {"ios": "https://dc.lft.to/lastmile_qr_scan", "android": "https://dc.lft.to/lastmile_qr_scan"}, "type": "electric_scooter", "name": "23f17bbef48b60f305cf6a8df10c4ce0", "is_reserved": 0, "lon": -76.95700183333334, "is_disabled": 0, "fusion_lat": 0.0, "lat": 38.892018666666665, "bike_id": "23f17bbef48b60f305cf6a8df10c4ce0", "fusion_lon": 0.0}, {"rental_uris": {"ios": "https://dc.lft.to/lastmile_qr_scan", "android": "https://dc.lft.to/lastmile_qr_scan"}, "type": "electric_bike", "name": "a5628fde44e6dc44c3627cb5ffcd756d", "is_reserved": 0, "lon": -77.02197766666667, "is_disabled": 0, "fusion_lat": 0.0, "lat": 38.95152, "bike_id": "a5628fde44e6dc44c3627cb5ffcd756d", "fusion_lon": 0.0}, {"rental_uris": {"ios": "https://dc.lft.to/lastmile_qr_scan", "android": "https://dc.lft.to/lastmile_qr_scan"}, "type": "electric_scooter", "name": "ea721aeb5f586daa17f2459f4424998d", "is_reserved": 0, "lon": -77.01126783333333, "is_disabled": 0, "fusion_lat": 0.0, "lat": 38.91452966666667, "bike_id": "ea721aeb5f586daa17f2459f4424998d", "fusion_lon": 0.0}, {"rental_uris": {"ios": "https://dc.lft.to/lastmile_qr_scan", "android": "https://dc.lft.to/lastmile_qr_scan"}, "type": "electric_scooter", "name": "412a408b23720cfed14b044377785c88", "is_reserved": 0, "lon": -77.043623, "is_disabled": 0, "fusion_lat": 0.0, "lat": 38.90107883333334, "bike_id": "412a408b23720cfed14b044377785c88", "fusion_lon": 0.0}, {"rental_uris": {"ios": "https://dc.lft.to/lastmile_qr_scan", "android": "https://dc.lft.to/lastmile_qr_scan"}, "type": "electric_scooter", "name": "78efcb6b9dc82eeb467153ca8652012a", "is_reserved": 0, "lon": -77.01759833333334, "is_disabled": 0, "fusion_lat": 0.0, "lat": 38.87726, "bike_id": "78efcb6b9dc82eeb467153ca8652012a", "fusion_lon": 0.0}, {"rental_uris": {"ios": "https://dc.lft.to/lastmile_qr_scan", "android": "https://dc.lft.to/lastmile_qr_scan"}, "type": "electric_scooter", "name": "d7bb3064065b934f00e27be9b988e3ca", "is_reserved": 0, "lon": -77.01765766666666, "is_disabled": 0, "fusion_lat": 0.0, "lat": 38.9212365, "bike_id": "d7bb3064065b934f00e27be9b988e3ca", "fusion_lon": 0.0}, {"rental_uris": {"ios": "https://dc.lft.to/lastmile_qr_scan", "android": "https://dc.lft.to/lastmile_qr_scan"}, "type": "electric_scooter", "name": "72b28ce64e617169aaff9d31726d1e2e", "is_reserved": 0, "lon": -77.00926283333334, "is_disabled": 0, "fusion_lat": 0.0, "lat": 38.91254566666667, "bike_id": "72b28ce64e617169aaff9d31726d1e2e", "fusion_lon": 0.0}, {"rental_uris": {"ios": "https://dc.lft.to/lastmile_qr_scan", "android": "https://dc.lft.to/lastmile_qr_scan"}, "type": "electric_scooter", "name": "b0595fbf2935a07d15993144ec2b0995", "is_reserved": 0, "lon": -77.00424166666667, "is_disabled": 0, "fusion_lat": 0.0, "lat": 38.874640666666664, "bike_id": "b0595fbf2935a07d15993144ec2b0995", "fusion_lon": 0.0}, {"rental_uris": {"ios": "https://dc.lft.to/lastmile_qr_scan", "android": "https://dc.lft.to/lastmile_qr_scan"}, "type": "electric_scooter", "name": "4cc8620ed9aa31b91b17f7c3eaff1d07", "is_reserved": 0, "lon": -77.0381485, "is_disabled": 0, "fusion_lat": 0.0, "lat": 38.91553366666667, "bike_id": "4cc8620ed9aa31b91b17f7c3eaff1d07", "fusion_lon": 0.0}, {"rental_uris": {"ios": "https://dc.lft.to/lastmile_qr_scan", "android": "https://dc.lft.to/lastmile_qr_scan"}, "type": "electric_scooter", "name": "8a06f93eb52f4710e0bf69c75e8e2f29", "is_reserved": 0, "lon": -76.9850305, "is_disabled": 0, "fusion_lat": 0.0, "lat": 38.906934, "bike_id": "8a06f93eb52f4710e0bf69c75e8e2f29", "fusion_lon": 0.0}, {"rental_uris": {"ios": "https://dc.lft.to/lastmile_qr_scan", "android": "https://dc.lft.to/lastmile_qr_scan"}, "type": "electric_scooter", "name": "be031d929472ac7339548db5b420a79e", "is_reserved": 0, "lon": -77.0455085, "is_disabled": 0, "fusion_lat": 0.0, "lat": 38.932885166666665, "bike_id": "be031d929472ac7339548db5b420a79e", "fusion_lon": 0.0}, {"rental_uris": {"ios": "https://dc.lft.to/lastmile_qr_scan", "android": "https://dc.lft.to/lastmile_qr_scan"}, "type": "electric_scooter", "name": "8bbe9507bc3d277ed447428beb05d74d", "is_reserved": 0, "lon": -77.03641166666667, "is_disabled": 0, "fusion_lat": 0.0, "lat": 38.92437066666667, "bike_id": "8bbe9507bc3d277ed447428beb05d74d", "fusion_lon": 0.0}, {"rental_uris": {"ios": "https://dc.lft.to/lastmile_qr_scan", "android": "https://dc.lft.to/lastmile_qr_scan"}, "type": "electric_scooter", "name": "54e10321e959d72c30452bf8bcda13c9", "is_reserved": 0, "lon": -77.0406125, "is_disabled": 0, "fusion_lat": 0.0, "lat": 38.927707166666664, "bike_id": "54e10321e959d72c30452bf8bcda13c9", "fusion_lon": 0.0}, {"rental_uris": {"ios": "https://dc.lft.to/lastmile_qr_scan", "android": "https://dc.lft.to/lastmile_qr_scan"}, "type": "electric_scooter", "name": "7e83158bdb0bbeebe4ce7266f8c31a97", "is_reserved": 0, "lon": -77.03959283333333, "is_disabled": 0, "fusion_lat": 0.0, "lat": 38.908123333333336, "bike_id": "7e83158bdb0bbeebe4ce7266f8c31a97", "fusion_lon": 0.0}, {"rental_uris": {"ios": "https://dc.lft.to/lastmile_qr_scan", "android": "https://dc.lft.to/lastmile_qr_scan"}, "type": "electric_scooter", "name": "1ea83bf4e772bf53068b1174cd3c3205", "is_reserved": 0, "lon": -76.97408283333333, "is_disabled": 0, "fusion_lat": 0.0, "lat": 38.90138866666667, "bike_id": "1ea83bf4e772bf53068b1174cd3c3205", "fusion_lon": 0.0}, {"rental_uris": {"ios": "https://dc.lft.to/lastmile_qr_scan", "android": "https://dc.lft.to/lastmile_qr_scan"}, "type": "electric_scooter", "name": "fcf6049ae738b40a65fbb0a47950b20a", "is_reserved": 0, "lon": -76.993078, "is_disabled": 0, "fusion_lat": 0.0, "lat": 38.935718666666666, "bike_id": "fcf6049ae738b40a65fbb0a47950b20a", "fusion_lon": 0.0}, {"rental_uris": {"ios": "https://dc.lft.to/lastmile_qr_scan", "android": "https://dc.lft.to/lastmile_qr_scan"}, "type": "electric_scooter", "name": "a2a21260492cde52cd5ae6867ed3a244", "is_reserved": 0, "lon": -77.00578816666666, "is_disabled": 0, "fusion_lat": 0.0, "lat": 38.90560516666667, "bike_id": "a2a21260492cde52cd5ae6867ed3a244", "fusion_lon": 0.0}, {"rental_uris": {"ios": "https://dc.lft.to/lastmile_qr_scan", "android": "https://dc.lft.to/lastmile_qr_scan"}, "type": "electric_scooter", "name": "66514cd1062dd20b0376238cffebe15c", "is_reserved": 0, "lon": -77.0451165, "is_disabled": 0, "fusion_lat": 0.0, "lat": 38.91423666666667, "bike_id": "66514cd1062dd20b0376238cffebe15c", "fusion_lon": 0.0}, {"rental_uris": {"ios": "https://dc.lft.to/lastmile_qr_scan", "android": "https://dc.lft.to/lastmile_qr_scan"}, "type": "electric_scooter", "name": "a5ada69b5930941bb0d9f8c754b84c97", "is_reserved": 0, "lon": -76.92988183333334, "is_disabled": 0, "fusion_lat": 0.0, "lat": 38.8929205, "bike_id": "a5ada69b5930941bb0d9f8c754b84c97", "fusion_lon": 0.0}, {"rental_uris": {"ios": "https://dc.lft.to/lastmile_qr_scan", "android": "https://dc.lft.to/lastmile_qr_scan"}, "type": "electric_scooter", "name": "fed7768924a8f27d9a674744261d9c2a", "is_reserved": 0, "lon": -77.02216266666667, "is_disabled": 0, "fusion_lat": 0.0, "lat": 38.9247075, "bike_id": "fed7768924a8f27d9a674744261d9c2a", "fusion_lon": 0.0}, {"rental_uris": {"ios": "https://dc.lft.to/lastmile_qr_scan", "android": "https://dc.lft.to/lastmile_qr_scan"}, "type": "electric_scooter", "name": "3bd1368c2cc3a047a204b361520b5c18", "is_reserved": 0, "lon": -77.0505915, "is_disabled": 0, "fusion_lat": 0.0, "lat": 38.92582483333333, "bike_id": "3bd1368c2cc3a047a204b361520b5c18", "fusion_lon": 0.0}, {"rental_uris": {"ios": "https://dc.lft.to/lastmile_qr_scan", "android": "https://dc.lft.to/lastmile_qr_scan"}, "type": "electric_scooter", "name": "bae9a204e01cb035de53a036cfcacf87", "is_reserved": 0, "lon": -77.006536, "is_disabled": 0, "fusion_lat": 0.0, "lat": 38.89998516666667, "bike_id": "bae9a204e01cb035de53a036cfcacf87", "fusion_lon": 0.0}, {"rental_uris": {"ios": "https://dc.lft.to/lastmile_qr_scan", "android": "https://dc.lft.to/lastmile_qr_scan"}, "type": "electric_scooter", "name": "2dafe4cbd2e7947d1ca22fbb609fde83", "is_reserved": 0, "lon": -77.02221966666667, "is_disabled": 0, "fusion_lat": 0.0, "lat": 38.920362833333336, "bike_id": "2dafe4cbd2e7947d1ca22fbb609fde83", "fusion_lon": 0.0}, {"rental_uris": {"ios": "https://dc.lft.to/lastmile_qr_scan", "android": "https://dc.lft.to/lastmile_qr_scan"}, "type": "electric_scooter", "name": "d19ca5e9029833e51b4f84cd66ef7a6b", "is_reserved": 0, "lon": -76.98436833333334, "is_disabled": 0, "fusion_lat": 0.0, "lat": 38.91469133333333, "bike_id": "d19ca5e9029833e51b4f84cd66ef7a6b", "fusion_lon": 0.0}, {"rental_uris": {"ios": "https://dc.lft.to/lastmile_qr_scan", "android": "https://dc.lft.to/lastmile_qr_scan"}, "type": "electric_scooter", "name": "98ac059362a1fec8aa241c96661655be", "is_reserved": 0, "lon": -77.04102883333333, "is_disabled": 0, "fusion_lat": 0.0, "lat": 38.9184155, "bike_id": "98ac059362a1fec8aa241c96661655be", "fusion_lon": 0.0}, {"rental_uris": {"ios": "https://dc.lft.to/lastmile_qr_scan", "android": "https://dc.lft.to/lastmile_qr_scan"}, "type": "electric_scooter", "name": "6a2632cf5abe3107c04868b3a32901ee", "is_reserved": 0, "lon": -77.01757183333334, "is_disabled": 0, "fusion_lat": 0.0, "lat": 38.877191333333336, "bike_id": "6a2632cf5abe3107c04868b3a32901ee", "fusion_lon": 0.0}, {"rental_uris": {"ios": "https://dc.lft.to/lastmile_qr_scan", "android": "https://dc.lft.to/lastmile_qr_scan"}, "type": "electric_scooter", "name": "c108a3e2da22c702e608912a29a65fa8", "is_reserved": 0, "lon": -77.03441, "is_disabled": 0, "fusion_lat": 0.0, "lat": 38.917991666666666, "bike_id": "c108a3e2da22c702e608912a29a65fa8", "fusion_lon": 0.0}, {"rental_uris": {"ios": "https://dc.lft.to/lastmile_qr_scan", "android": "https://dc.lft.to/lastmile_qr_scan"}, "type": "electric_scooter", "name": "0b813c3324cf48bb2107f690d69ce546", "is_reserved": 0, "lon": -77.04489383333333, "is_disabled": 0, "fusion_lat": 0.0, "lat": 38.919460666666666, "bike_id": "0b813c3324cf48bb2107f690d69ce546", "fusion_lon": 0.0}, {"rental_uris": {"ios": "https://dc.lft.to/lastmile_qr_scan", "android": "https://dc.lft.to/lastmile_qr_scan"}, "type": "electric_scooter", "name": "2565311d95b206bd5b767eb61b1975d1", "is_reserved": 0, "lon": -77.04115683333333, "is_disabled": 0, "fusion_lat": 0.0, "lat": 38.93471983333333, "bike_id": "2565311d95b206bd5b767eb61b1975d1", "fusion_lon": 0.0}, {"rental_uris": {"ios": "https://dc.lft.to/lastmile_qr_scan", "android": "https://dc.lft.to/lastmile_qr_scan"}, "type": "electric_scooter", "name": "cbe8bcc774bdecd7bb92397c3379557d", "is_reserved": 0, "lon": -77.0161315, "is_disabled": 0, "fusion_lat": 0.0, "lat": 38.899606166666665, "bike_id": "cbe8bcc774bdecd7bb92397c3379557d", "fusion_lon": 0.0}, {"rental_uris": {"ios": "https://dc.lft.to/lastmile_qr_scan", "android": "https://dc.lft.to/lastmile_qr_scan"}, "type": "electric_scooter", "name": "3711ec69be23964ed55bfdab4732865f", "is_reserved": 0, "lon": -77.019966, "is_disabled": 0, "fusion_lat": 0.0, "lat": 38.900396666666666, "bike_id": "3711ec69be23964ed55bfdab4732865f", "fusion_lon": 0.0}, {"rental_uris": {"ios": "https://dc.lft.to/lastmile_qr_scan", "android": "https://dc.lft.to/lastmile_qr_scan"}, "type": "electric_bike", "name": "c34714377c6c8df94359fd0a0249a4c9", "is_reserved": 0, "lon": -76.9416435, "is_disabled": 0, "fusion_lat": 0.0, "lat": 38.865561, "bike_id": "c34714377c6c8df94359fd0a0249a4c9", "fusion_lon": 0.0}, {"rental_uris": {"ios": "https://dc.lft.to/lastmile_qr_scan", "android": "https://dc.lft.to/lastmile_qr_scan"}, "type": "electric_scooter", "name": "abed6f2f1c22e83c579449be1622e496", "is_reserved": 0, "lon": -77.04631283333333, "is_disabled": 0, "fusion_lat": 0.0, "lat": 38.91489966666666, "bike_id": "abed6f2f1c22e83c579449be1622e496", "fusion_lon": 0.0}, {"rental_uris": {"ios": "https://dc.lft.to/lastmile_qr_scan", "android": "https://dc.lft.to/lastmile_qr_scan"}, "type": "electric_scooter", "name": "5e2f8bd22cc71b3d10f8680f7476876e", "is_reserved": 0, "lon": -77.04876966666667, "is_disabled": 0, "fusion_lat": 0.0, "lat": 38.91337083333333, "bike_id": "5e2f8bd22cc71b3d10f8680f7476876e", "fusion_lon": 0.0}, {"rental_uris": {"ios": "https://dc.lft.to/lastmile_qr_scan", "android": "https://dc.lft.to/lastmile_qr_scan"}, "type": "electric_scooter", "name": "2411fe1e6db10913962e1c0fd81f8b92", "is_reserved": 0, "lon": -76.98032383333333, "is_disabled": 0, "fusion_lat": 0.0, "lat": 38.916810166666664, "bike_id": "2411fe1e6db10913962e1c0fd81f8b92", "fusion_lon": 0.0}, {"rental_uris": {"ios": "https://dc.lft.to/lastmile_qr_scan", "android": "https://dc.lft.to/lastmile_qr_scan"}, "type": "electric_scooter", "name": "ff9af7e6f284e4a66030b0a16e8d5a2f", "is_reserved": 0, "lon": -77.00318166666666, "is_disabled": 0, "fusion_lat": 0.0, "lat": 38.918966833333336, "bike_id": "ff9af7e6f284e4a66030b0a16e8d5a2f", "fusion_lon": 0.0}, {"rental_uris": {"ios": "https://dc.lft.to/lastmile_qr_scan", "android": "https://dc.lft.to/lastmile_qr_scan"}, "type": "electric_scooter", "name": "ae24d9339802d25a94cf34b856bd3384", "is_reserved": 0, "lon": -77.04962933333333, "is_disabled": 0, "fusion_lat": 0.0, "lat": 38.9132795, "bike_id": "ae24d9339802d25a94cf34b856bd3384", "fusion_lon": 0.0}, {"rental_uris": {"ios": "https://dc.lft.to/lastmile_qr_scan", "android": "https://dc.lft.to/lastmile_qr_scan"}, "type": "electric_scooter", "name": "8ff99ff96ba5d76ae79cb1ee04eebd17", "is_reserved": 0, "lon": -77.03953366666667, "is_disabled": 0, "fusion_lat": 0.0, "lat": 38.89249066666667, "bike_id": "8ff99ff96ba5d76ae79cb1ee04eebd17", "fusion_lon": 0.0}, {"rental_uris": {"ios": "https://dc.lft.to/lastmile_qr_scan", "android": "https://dc.lft.to/lastmile_qr_scan"}, "type": "electric_bike", "name": "a486599da5e0424da773b0c90abd9a3e", "is_reserved": 0, "lon": -76.918037, "is_disabled": 0, "fusion_lat": 0.0, "lat": 39.000048666666665, "bike_id": "a486599da5e0424da773b0c90abd9a3e", "fusion_lon": 0.0}, {"rental_uris": {"ios": "https://dc.lft.to/lastmile_qr_scan", "android": "https://dc.lft.to/lastmile_qr_scan"}, "type": "electric_scooter", "name": "3f1bb0ffca78e3fafdc275629089b766", "is_reserved": 0, "lon": -77.02693816666667, "is_disabled": 0, "fusion_lat": 0.0, "lat": 38.908688833333336, "bike_id": "3f1bb0ffca78e3fafdc275629089b766", "fusion_lon": 0.0}, {"rental_uris": {"ios": "https://dc.lft.to/lastmile_qr_scan", "android": "https://dc.lft.to/lastmile_qr_scan"}, "type": "electric_scooter", "name": "5bdc1e04670aaca8af6abe7213ccfd17", "is_reserved": 0, "lon": -76.9888915, "is_disabled": 0, "fusion_lat": 0.0, "lat": 38.86660466666667, "bike_id": "5bdc1e04670aaca8af6abe7213ccfd17", "fusion_lon": 0.0}, {"rental_uris": {"ios": "https://dc.lft.to/lastmile_qr_scan", "android": "https://dc.lft.to/lastmile_qr_scan"}, "type": "electric_scooter", "name": "556267b5a8470519e2fe7dccd51b16e3", "is_reserved": 0, "lon": -77.03612933333334, "is_disabled": 0, "fusion_lat": 0.0, "lat": 38.9233665, "bike_id": "556267b5a8470519e2fe7dccd51b16e3", "fusion_lon": 0.0}, {"rental_uris": {"ios": "https://dc.lft.to/lastmile_qr_scan", "android": "https://dc.lft.to/lastmile_qr_scan"}, "type": "electric_scooter", "name": "03557d27d2160e999bd9c702565c1244", "is_reserved": 0, "lon": -77.01780733333334, "is_disabled": 0, "fusion_lat": 0.0, "lat": 38.9442155, "bike_id": "03557d27d2160e999bd9c702565c1244", "fusion_lon": 0.0}, {"rental_uris": {"ios": "https://dc.lft.to/lastmile_qr_scan", "android": "https://dc.lft.to/lastmile_qr_scan"}, "type": "electric_scooter", "name": "1a08f748e6312a0ae592b7738cb522d8", "is_reserved": 0, "lon": -77.02929833333333, "is_disabled": 0, "fusion_lat": 0.0, "lat": 38.90042066666667, "bike_id": "1a08f748e6312a0ae592b7738cb522d8", "fusion_lon": 0.0}, {"rental_uris": {"ios": "https://dc.lft.to/lastmile_qr_scan", "android": "https://dc.lft.to/lastmile_qr_scan"}, "type": "electric_scooter", "name": "3405cf8e1eeaa076e8f4b4bacd4a54a3", "is_reserved": 0, "lon": -77.04556866666667, "is_disabled": 0, "fusion_lat": 0.0, "lat": 38.90975316666667, "bike_id": "3405cf8e1eeaa076e8f4b4bacd4a54a3", "fusion_lon": 0.0}, {"rental_uris": {"ios": "https://dc.lft.to/lastmile_qr_scan", "android": "https://dc.lft.to/lastmile_qr_scan"}, "type": "electric_scooter", "name": "d802a3db01c695feb6b4036fac9be877", "is_reserved": 0, "lon": -77.00550333333334, "is_disabled": 0, "fusion_lat": 0.0, "lat": 38.87531033333333, "bike_id": "d802a3db01c695feb6b4036fac9be877", "fusion_lon": 0.0}, {"rental_uris": {"ios": "https://dc.lft.to/lastmile_qr_scan", "android": "https://dc.lft.to/lastmile_qr_scan"}, "type": "electric_scooter", "name": "978c6bc8f08a95c5d39dabc0b5edd12b", "is_reserved": 0, "lon": -77.01793833333333, "is_disabled": 0, "fusion_lat": 0.0, "lat": 38.88599716666667, "bike_id": "978c6bc8f08a95c5d39dabc0b5edd12b", "fusion_lon": 0.0}, {"rental_uris": {"ios": "https://dc.lft.to/lastmile_qr_scan", "android": "https://dc.lft.to/lastmile_qr_scan"}, "type": "electric_scooter", "name": "94e7a8053312c61822ab51bc91ca73bd", "is_reserved": 0, "lon": -76.93299516666667, "is_disabled": 0, "fusion_lat": 0.0, "lat": 38.8969025, "bike_id": "94e7a8053312c61822ab51bc91ca73bd", "fusion_lon": 0.0}, {"rental_uris": {"ios": "https://dc.lft.to/lastmile_qr_scan", "android": "https://dc.lft.to/lastmile_qr_scan"}, "type": "electric_bike", "name": "e978537d5e685770bd660fb330c386b5", "is_reserved": 0, "lon": -77.1297505, "is_disabled": 0, "fusion_lat": 0.0, "lat": 38.79985116666667, "bike_id": "e978537d5e685770bd660fb330c386b5", "fusion_lon": 0.0}, {"rental_uris": {"ios": "https://dc.lft.to/lastmile_qr_scan", "android": "https://dc.lft.to/lastmile_qr_scan"}, "type": "electric_scooter", "name": "0e55840be1b285cdadce1cbb86bbd9d2", "is_reserved": 0, "lon": -76.99958766666667, "is_disabled": 0, "fusion_lat": 0.0, "lat": 38.89422583333333, "bike_id": "0e55840be1b285cdadce1cbb86bbd9d2", "fusion_lon": 0.0}, {"rental_uris": {"ios": "https://dc.lft.to/lastmile_qr_scan", "android": "https://dc.lft.to/lastmile_qr_scan"}, "type": "electric_bike", "name": "50b0175497605638e9462024d1abfd20", "is_reserved": 0, "lon": -76.98348533333333, "is_disabled": 0, "fusion_lat": 0.0, "lat": 38.86259533333333, "bike_id": "50b0175497605638e9462024d1abfd20", "fusion_lon": 0.0}, {"rental_uris": {"ios": "https://dc.lft.to/lastmile_qr_scan", "android": "https://dc.lft.to/lastmile_qr_scan"}, "type": "electric_scooter", "name": "0341f19a8b5938e172d24bb2b53a53ef", "is_reserved": 0, "lon": -77.0707955, "is_disabled": 0, "fusion_lat": 0.0, "lat": 38.8971935, "bike_id": "0341f19a8b5938e172d24bb2b53a53ef", "fusion_lon": 0.0}, {"rental_uris": {"ios": "https://dc.lft.to/lastmile_qr_scan", "android": "https://dc.lft.to/lastmile_qr_scan"}, "type": "electric_scooter", "name": "da01d83c9ec3d948c58b00db2047fa51", "is_reserved": 0, "lon": -76.96564483333333, "is_disabled": 0, "fusion_lat": 0.0, "lat": 38.8761, "bike_id": "da01d83c9ec3d948c58b00db2047fa51", "fusion_lon": 0.0}, {"rental_uris": {"ios": "https://dc.lft.to/lastmile_qr_scan", "android": "https://dc.lft.to/lastmile_qr_scan"}, "type": "electric_scooter", "name": "9e3ce66de1e3305e22389d6b4bcf6482", "is_reserved": 0, "lon": -77.0441575, "is_disabled": 0, "fusion_lat": 0.0, "lat": 38.92946766666667, "bike_id": "9e3ce66de1e3305e22389d6b4bcf6482", "fusion_lon": 0.0}, {"rental_uris": {"ios": "https://dc.lft.to/lastmile_qr_scan", "android": "https://dc.lft.to/lastmile_qr_scan"}, "type": "electric_scooter", "name": "9291980dd740ee722ca7c1a7e6a7fab7", "is_reserved": 0, "lon": -76.94385666666666, "is_disabled": 0, "fusion_lat": 0.0, "lat": 38.8911615, "bike_id": "9291980dd740ee722ca7c1a7e6a7fab7", "fusion_lon": 0.0}, {"rental_uris": {"ios": "https://dc.lft.to/lastmile_qr_scan", "android": "https://dc.lft.to/lastmile_qr_scan"}, "type": "electric_bike", "name": "dae20f9f4bc017233fd7b38a50dddf07", "is_reserved": 0, "lon": -77.07014983333333, "is_disabled": 0, "fusion_lat": 0.0, "lat": 38.841113666666665, "bike_id": "dae20f9f4bc017233fd7b38a50dddf07", "fusion_lon": 0.0}, {"rental_uris": {"ios": "https://dc.lft.to/lastmile_qr_scan", "android": "https://dc.lft.to/lastmile_qr_scan"}, "type": "electric_scooter", "name": "54e2b4c688639239ff96508afcb63e56", "is_reserved": 0, "lon": -76.96506933333333, "is_disabled": 0, "fusion_lat": 0.0, "lat": 38.87647033333333, "bike_id": "54e2b4c688639239ff96508afcb63e56", "fusion_lon": 0.0}, {"rental_uris": {"ios": "https://dc.lft.to/lastmile_qr_scan", "android": "https://dc.lft.to/lastmile_qr_scan"}, "type": "electric_scooter", "name": "a1ff810a1ea9d0b30275db9784fc314e", "is_reserved": 0, "lon": -77.03818366666667, "is_disabled": 0, "fusion_lat": 0.0, "lat": 38.91551333333334, "bike_id": "a1ff810a1ea9d0b30275db9784fc314e", "fusion_lon": 0.0}, {"rental_uris": {"ios": "https://dc.lft.to/lastmile_qr_scan", "android": "https://dc.lft.to/lastmile_qr_scan"}, "type": "electric_bike", "name": "a783652f9f479a42627263d3c9219c46", "is_reserved": 0, "lon": -76.98842583333334, "is_disabled": 0, "fusion_lat": 0.0, "lat": 38.842792, "bike_id": "a783652f9f479a42627263d3c9219c46", "fusion_lon": 0.0}, {"rental_uris": {"ios": "https://dc.lft.to/lastmile_qr_scan", "android": "https://dc.lft.to/lastmile_qr_scan"}, "type": "electric_scooter", "name": "efb7f9e5cc5021148744882f394934e2", "is_reserved": 0, "lon": -77.023723, "is_disabled": 0, "fusion_lat": 0.0, "lat": 38.919554, "bike_id": "efb7f9e5cc5021148744882f394934e2", "fusion_lon": 0.0}, {"rental_uris": {"ios": "https://dc.lft.to/lastmile_qr_scan", "android": "https://dc.lft.to/lastmile_qr_scan"}, "type": "electric_scooter", "name": "3b3ff1a6f3def1836004fc5ade8c9888", "is_reserved": 0, "lon": -77.03242033333333, "is_disabled": 0, "fusion_lat": 0.0, "lat": 38.907244, "bike_id": "3b3ff1a6f3def1836004fc5ade8c9888", "fusion_lon": 0.0}, {"rental_uris": {"ios": "https://dc.lft.to/lastmile_qr_scan", "android": "https://dc.lft.to/lastmile_qr_scan"}, "type": "electric_scooter", "name": "5cd5d03859f2e0d5a882f41742659e45", "is_reserved": 0, "lon": -77.03592816666666, "is_disabled": 0, "fusion_lat": 0.0, "lat": 38.927777666666664, "bike_id": "5cd5d03859f2e0d5a882f41742659e45", "fusion_lon": 0.0}, {"rental_uris": {"ios": "https://dc.lft.to/lastmile_qr_scan", "android": "https://dc.lft.to/lastmile_qr_scan"}, "type": "electric_scooter", "name": "4784b9fa62b7e9605e70c42fdf21ba99", "is_reserved": 0, "lon": -77.02459316666666, "is_disabled": 0, "fusion_lat": 0.0, "lat": 38.899983666666664, "bike_id": "4784b9fa62b7e9605e70c42fdf21ba99", "fusion_lon": 0.0}, {"rental_uris": {"ios": "https://dc.lft.to/lastmile_qr_scan", "android": "https://dc.lft.to/lastmile_qr_scan"}, "type": "electric_scooter", "name": "7b98715878097daeb4deb9e53b111042", "is_reserved": 0, "lon": -77.040098, "is_disabled": 0, "fusion_lat": 0.0, "lat": 38.911928333333336, "bike_id": "7b98715878097daeb4deb9e53b111042", "fusion_lon": 0.0}, {"rental_uris": {"ios": "https://dc.lft.to/lastmile_qr_scan", "android": "https://dc.lft.to/lastmile_qr_scan"}, "type": "electric_scooter", "name": "ba2f76d1b7a4e518ad2df5622dda3252", "is_reserved": 0, "lon": -77.04713333333333, "is_disabled": 0, "fusion_lat": 0.0, "lat": 38.90583133333333, "bike_id": "ba2f76d1b7a4e518ad2df5622dda3252", "fusion_lon": 0.0}, {"rental_uris": {"ios": "https://dc.lft.to/lastmile_qr_scan", "android": "https://dc.lft.to/lastmile_qr_scan"}, "type": "electric_scooter", "name": "54993eed17256b461dadb9e60d5c9f4a", "is_reserved": 0, "lon": -77.0213065, "is_disabled": 0, "fusion_lat": 0.0, "lat": 38.92695883333333, "bike_id": "54993eed17256b461dadb9e60d5c9f4a", "fusion_lon": 0.0}, {"rental_uris": {"ios": "https://dc.lft.to/lastmile_qr_scan", "android": "https://dc.lft.to/lastmile_qr_scan"}, "type": "electric_scooter", "name": "bf59fb1df183104be49b50664a1a9e1c", "is_reserved": 0, "lon": -77.02379383333333, "is_disabled": 0, "fusion_lat": 0.0, "lat": 38.90961733333333, "bike_id": "bf59fb1df183104be49b50664a1a9e1c", "fusion_lon": 0.0}, {"rental_uris": {"ios": "https://dc.lft.to/lastmile_qr_scan", "android": "https://dc.lft.to/lastmile_qr_scan"}, "type": "electric_scooter", "name": "fd13b3f481828b7dc6b3a90291084efe", "is_reserved": 0, "lon": -77.03258633333333, "is_disabled": 0, "fusion_lat": 0.0, "lat": 38.92739383333333, "bike_id": "fd13b3f481828b7dc6b3a90291084efe", "fusion_lon": 0.0}, {"rental_uris": {"ios": "https://dc.lft.to/lastmile_qr_scan", "android": "https://dc.lft.to/lastmile_qr_scan"}, "type": "electric_scooter", "name": "6c801bf489d979ce2df7bc2e9ca0ceb4", "is_reserved": 0, "lon": -77.03049233333333, "is_disabled": 0, "fusion_lat": 0.0, "lat": 38.924872, "bike_id": "6c801bf489d979ce2df7bc2e9ca0ceb4", "fusion_lon": 0.0}, {"rental_uris": {"ios": "https://dc.lft.to/lastmile_qr_scan", "android": "https://dc.lft.to/lastmile_qr_scan"}, "type": "electric_scooter", "name": "f248dee9d9325f57db133485b8eb5622", "is_reserved": 0, "lon": -77.04350116666667, "is_disabled": 0, "fusion_lat": 0.0, "lat": 38.908472, "bike_id": "f248dee9d9325f57db133485b8eb5622", "fusion_lon": 0.0}, {"rental_uris": {"ios": "https://dc.lft.to/lastmile_qr_scan", "android": "https://dc.lft.to/lastmile_qr_scan"}, "type": "electric_bike", "name": "128e43ca2ec5536d3664e5fb4e79cc4f", "is_reserved": 0, "lon": -76.99275016666667, "is_disabled": 0, "fusion_lat": 0.0, "lat": 38.9725925, "bike_id": "128e43ca2ec5536d3664e5fb4e79cc4f", "fusion_lon": 0.0}, {"rental_uris": {"ios": "https://dc.lft.to/lastmile_qr_scan", "android": "https://dc.lft.to/lastmile_qr_scan"}, "type": "electric_bike", "name": "b5e13386cfd12371528ea552d903c199", "is_reserved": 0, "lon": -76.99699116666666, "is_disabled": 0, "fusion_lat": 0.0, "lat": 38.838607833333334, "bike_id": "b5e13386cfd12371528ea552d903c199", "fusion_lon": 0.0}, {"rental_uris": {"ios": "https://dc.lft.to/lastmile_qr_scan", "android": "https://dc.lft.to/lastmile_qr_scan"}, "type": "electric_scooter", "name": "b869a99d318c282d32a527642e0b761c", "is_reserved": 0, "lon": -77.0185955, "is_disabled": 0, "fusion_lat": 0.0, "lat": 38.900857, "bike_id": "b869a99d318c282d32a527642e0b761c", "fusion_lon": 0.0}, {"rental_uris": {"ios": "https://dc.lft.to/lastmile_qr_scan", "android": "https://dc.lft.to/lastmile_qr_scan"}, "type": "electric_scooter", "name": "606f29c473ad4db0598964f03eea07ee", "is_reserved": 0, "lon": -77.0382885, "is_disabled": 0, "fusion_lat": 0.0, "lat": 38.91268133333333, "bike_id": "606f29c473ad4db0598964f03eea07ee", "fusion_lon": 0.0}, {"rental_uris": {"ios": "https://dc.lft.to/lastmile_qr_scan", "android": "https://dc.lft.to/lastmile_qr_scan"}, "type": "electric_scooter", "name": "80e2097e508dee0253a7a66fa7a17f59", "is_reserved": 0, "lon": -77.04228883333333, "is_disabled": 0, "fusion_lat": 0.0, "lat": 38.92178833333333, "bike_id": "80e2097e508dee0253a7a66fa7a17f59", "fusion_lon": 0.0}, {"rental_uris": {"ios": "https://dc.lft.to/lastmile_qr_scan", "android": "https://dc.lft.to/lastmile_qr_scan"}, "type": "electric_scooter", "name": "5448a90e9c7c3a77a5f62b38b2361f7d", "is_reserved": 0, "lon": -77.01576283333333, "is_disabled": 0, "fusion_lat": 0.0, "lat": 38.902564, "bike_id": "5448a90e9c7c3a77a5f62b38b2361f7d", "fusion_lon": 0.0}, {"rental_uris": {"ios": "https://dc.lft.to/lastmile_qr_scan", "android": "https://dc.lft.to/lastmile_qr_scan"}, "type": "electric_scooter", "name": "dd18e52957b44563b1fd4a0953a303d3", "is_reserved": 0, "lon": -77.04835033333333, "is_disabled": 0, "fusion_lat": 0.0, "lat": 38.8984145, "bike_id": "dd18e52957b44563b1fd4a0953a303d3", "fusion_lon": 0.0}, {"rental_uris": {"ios": "https://dc.lft.to/lastmile_qr_scan", "android": "https://dc.lft.to/lastmile_qr_scan"}, "type": "electric_scooter", "name": "513144f8e0562b96f932e95c4b607240", "is_reserved": 0, "lon": -77.02583283333334, "is_disabled": 0, "fusion_lat": 0.0, "lat": 38.896271166666665, "bike_id": "513144f8e0562b96f932e95c4b607240", "fusion_lon": 0.0}, {"rental_uris": {"ios": "https://dc.lft.to/lastmile_qr_scan", "android": "https://dc.lft.to/lastmile_qr_scan"}, "type": "electric_bike", "name": "a243b29bb77f5856453baa7f2515e53d", "is_reserved": 0, "lon": -76.99547733333333, "is_disabled": 0, "fusion_lat": 0.0, "lat": 38.908176833333336, "bike_id": "a243b29bb77f5856453baa7f2515e53d", "fusion_lon": 0.0}, {"rental_uris": {"ios": "https://dc.lft.to/lastmile_qr_scan", "android": "https://dc.lft.to/lastmile_qr_scan"}, "type": "electric_scooter", "name": "e53e3d48702f7caae00be70e262d24b3", "is_reserved": 0, "lon": -77.04735466666666, "is_disabled": 0, "fusion_lat": 0.0, "lat": 38.905147, "bike_id": "e53e3d48702f7caae00be70e262d24b3", "fusion_lon": 0.0}, {"rental_uris": {"ios": "https://dc.lft.to/lastmile_qr_scan", "android": "https://dc.lft.to/lastmile_qr_scan"}, "type": "electric_bike", "name": "188fc1d6d2739a1499f4a7a32610a62c", "is_reserved": 0, "lon": -76.979757, "is_disabled": 0, "fusion_lat": 0.0, "lat": 38.92047016666667, "bike_id": "188fc1d6d2739a1499f4a7a32610a62c", "fusion_lon": 0.0}, {"rental_uris": {"ios": "https://dc.lft.to/lastmile_qr_scan", "android": "https://dc.lft.to/lastmile_qr_scan"}, "type": "electric_scooter", "name": "e990874a75fc665867e3d7a5296262a2", "is_reserved": 0, "lon": -77.0333635, "is_disabled": 0, "fusion_lat": 0.0, "lat": 38.8963215, "bike_id": "e990874a75fc665867e3d7a5296262a2", "fusion_lon": 0.0}, {"rental_uris": {"ios": "https://dc.lft.to/lastmile_qr_scan", "android": "https://dc.lft.to/lastmile_qr_scan"}, "type": "electric_scooter", "name": "08ad933085d7c91308db4ce0c2ccc9fa", "is_reserved": 0, "lon": -76.96988616666667, "is_disabled": 0, "fusion_lat": 0.0, "lat": 38.8739995, "bike_id": "08ad933085d7c91308db4ce0c2ccc9fa", "fusion_lon": 0.0}, {"rental_uris": {"ios": "https://dc.lft.to/lastmile_qr_scan", "android": "https://dc.lft.to/lastmile_qr_scan"}, "type": "electric_scooter", "name": "d9baca0a7e090186292a3d856b25e0e5", "is_reserved": 0, "lon": -76.9615615, "is_disabled": 0, "fusion_lat": 0.0, "lat": 38.88363366666667, "bike_id": "d9baca0a7e090186292a3d856b25e0e5", "fusion_lon": 0.0}, {"rental_uris": {"ios": "https://dc.lft.to/lastmile_qr_scan", "android": "https://dc.lft.to/lastmile_qr_scan"}, "type": "electric_scooter", "name": "d5a1c1a584439c6c1b72285170dd99b1", "is_reserved": 0, "lon": -77.03085266666666, "is_disabled": 0, "fusion_lat": 0.0, "lat": 38.93165716666667, "bike_id": "d5a1c1a584439c6c1b72285170dd99b1", "fusion_lon": 0.0}, {"rental_uris": {"ios": "https://dc.lft.to/lastmile_qr_scan", "android": "https://dc.lft.to/lastmile_qr_scan"}, "type": "electric_scooter", "name": "08ef90d1bbbce7e2b55835ce535c75d9", "is_reserved": 0, "lon": -77.04389133333333, "is_disabled": 0, "fusion_lat": 0.0, "lat": 38.916666166666666, "bike_id": "08ef90d1bbbce7e2b55835ce535c75d9", "fusion_lon": 0.0}, {"rental_uris": {"ios": "https://dc.lft.to/lastmile_qr_scan", "android": "https://dc.lft.to/lastmile_qr_scan"}, "type": "electric_scooter", "name": "47669ef07e0dbdcf564a17d1fab24926", "is_reserved": 0, "lon": -76.97800616666666, "is_disabled": 0, "fusion_lat": 0.0, "lat": 38.90310983333333, "bike_id": "47669ef07e0dbdcf564a17d1fab24926", "fusion_lon": 0.0},