{"data": {"bikes": [{"fusion_lat": 0.0, "name": "f6fc647bfdaa8e9a3cb458edd085ee1c", "is_disabled": 0, "rental_uris": {"android": "https://dc.lft.to/lastmile_qr_scan", "ios": "https://dc.lft.to/lastmile_qr_scan"}, "fusion_lon": 0.0, "lat": 38.927072833333334, "bike_id": "f6fc647bfdaa8e9a3cb458edd085ee1c", "type": "electric_scooter", "is_reserved": 0, "lon": -77.02077516666667}, {"fusion_lat": 0.0, "name": "9e5f18adb2618e04c00c16c81460fd24", "is_disabled": 0, "rental_uris": {"android": "https://dc.lft.to/lastmile_qr_scan", "ios": "https://dc.lft.to/lastmile_qr_scan"}, "fusion_lon": 0.0, "lat": 38.9085015, "bike_id": "9e5f18adb2618e04c00c16c81460fd24", "type": "electric_scooter", "is_reserved": 0, "lon": -77.0453715}, {"fusion_lat": 0.0, "name": "c177f11b7e33589abab7922f28cc97aa", "is_disabled": 0, "rental_uris": {"android": "https://dc.lft.to/lastmile_qr_scan", "ios": "https://dc.lft.to/lastmile_qr_scan"}, "fusion_lon": 0.0, "lat": 38.885132, "bike_id": "c177f11b7e33589abab7922f28cc97aa", "type": "electric_scooter", "is_reserved": 0, "lon": -76.92948983333334}, {"fusion_lat": 0.0, "name": "9c70c1841bc2153abf0fd6bbb34212cb", "is_disabled": 0, "rental_uris": {"android": "https://dc.lft.to/lastmile_qr_scan", "ios": "https://dc.lft.to/lastmile_qr_scan"}, "fusion_lon": 0.0, "lat": 38.9154595, "bike_id": "9c70c1841bc2153abf0fd6bbb34212cb", "type": "electric_scooter", "is_reserved": 0, "lon": -77.02199483333334}, {"fusion_lat": 0.0, "name": "4739619f8f5eb4653c57892ca51199d4", "is_disabled": 0, "rental_uris": {"android": "https://dc.lft.to/lastmile_qr_scan", "ios": "https://dc.lft.to/lastmile_qr_scan"}, "fusion_lon": 0.0, "lat": 38.873722, "bike_id": "4739619f8f5eb4653c57892ca51199d4", "type": "electric_scooter", "is_reserved": 0, "lon": -77.00091466666667}, {"fusion_lat": 0.0, "name": "f5c0abb209845d1d80ef3f7bb87f23b9", "is_disabled": 0, "rental_uris": {"android": "https://dc.lft.to/lastmile_qr_scan", "ios": "https://dc.lft.to/lastmile_qr_scan"}, "fusion_lon": 0.0, "lat": 38.9039175, "bike_id": "f5c0abb209845d1d80ef3f7bb87f23b9", "type": "electric_scooter", "is_reserved": 0, "lon": -77.05121966666667}, {"fusion_lat": 0.0, "name": "c6320be9cc2ac2fc59858a4c2d5be504", "is_disabled": 0, "rental_uris": {"android": "https://dc.lft.to/lastmile_qr_scan", "ios": "https://dc.lft.to/lastmile_qr_scan"}, "fusion_lon": 0.0, "lat": 38.9613095, "bike_id": "c6320be9cc2ac2fc59858a4c2d5be504", "type": "electric_bike", "is_reserved": 0, "lon": -77.03276766666667}, {"fusion_lat": 0.0, "name": "d360a34dc333692da3240e0f4b0c7a56", "is_disabled": 0, "rental_uris": {"android": "https://dc.lft.to/lastmile_qr_scan", "ios": "https://dc.lft.to/lastmile_qr_scan"}, "fusion_lon": 0.0, "lat": 38.94443966666667, "bike_id": "d360a34dc333692da3240e0f4b0c7a56", "type": "electric_scooter", "is_reserved": 0, "lon": -77.06170066666667}, {"fusion_lat": 0.0, "name": "46b0ec76cdba7e72fd6d3e2925dbf8e1", "is_disabled": 0, "rental_uris": {"android": "https://dc.lft.to/lastmile_qr_scan", "ios": "https://dc.lft.to/lastmile_qr_scan"}, "fusion_lon": 0.0, "lat": 38.9397945, "bike_id": "46b0ec76cdba7e72fd6d3e2925dbf8e1", "type": "electric_scooter", "is_reserved": 0, "lon": -77.03560533333334}, {"fusion_lat": 0.0, "name": "ca508d9b348cfaff7fa31cbb8a45dc09", "is_disabled": 0, "rental_uris": {"android": "https://dc.lft.to/lastmile_qr_scan", "ios": "https://dc.lft.to/lastmile_qr_scan"}, "fusion_lon": 0.0, "lat": 38.89892433333333, "bike_id": "ca508d9b348cfaff7fa31cbb8a45dc09", "type": "electric_scooter", "is_reserved": 0, "lon": -77.0328475}, {"fusion_lat": 0.0, "name": "3ab780b096a64a3bfdde9abea9592030", "is_disabled": 0, "rental_uris": {"android": "https://dc.lft.to/lastmile_qr_scan", "ios": "https://dc.lft.to/lastmile_qr_scan"}, "fusion_lon": 0.0, "lat": 38.87866283333334, "bike_id": "3ab780b096a64a3bfdde9abea9592030", "type": "electric_scooter", "is_reserved": 0, "lon": -77.00586783333334}, {"fusion_lat": 0.0, "name": "6806e7c60890d0c3b4705234dbb48651", "is_disabled": 0, "rental_uris": {"android": "https://dc.lft.to/lastmile_qr_scan", "ios": "https://dc.lft.to/lastmile_qr_scan"}, "fusion_lon": 0.0, "lat": 38.88472066666667, "bike_id": "6806e7c60890d0c3b4705234dbb48651", "type": "electric_scooter", "is_reserved": 0, "lon": -76.94978016666667}, {"fusion_lat": 0.0, "name": "8dae8f3b827ff5726f97589a4a916ed8", "is_disabled": 0, "rental_uris": {"android": "https://dc.lft.to/lastmile_qr_scan", "ios": "https://dc.lft.to/lastmile_qr_scan"}, "fusion_lon": 0.0, "lat": 38.87643816666667, "bike_id": "8dae8f3b827ff5726f97589a4a916ed8", "type": "electric_scooter", "is_reserved": 0, "lon": -77.00104883333333}, {"fusion_lat": 0.0, "name": "f3fe303c46b642c11c5a4e8b9b3c49de", "is_disabled": 0, "rental_uris": {"android": "https://dc.lft.to/lastmile_qr_scan", "ios": "https://dc.lft.to/lastmile_qr_scan"}, "fusion_lon": 0.0, "lat": 38.89877033333333, "bike_id": "f3fe303c46b642c11c5a4e8b9b3c49de", "type": "electric_scooter", "is_reserved": 0, "lon": -76.93185466666667}, {"fusion_lat": 0.0, "name": "ab46792d2f00d17305f934851bdea889", "is_disabled": 0, "rental_uris": {"android": "https://dc.lft.to/lastmile_qr_scan", "ios": "https://dc.lft.to/lastmile_qr_scan"}, "fusion_lon": 0.0, "lat": 38.92450783333334, "bike_id": "ab46792d2f00d17305f934851bdea889", "type": "electric_scooter", "is_reserved": 0, "lon": -77.02404816666666}, {"fusion_lat": 0.0, "name": "6653180b74dec768323f68e52d1a18bd", "is_disabled": 0, "rental_uris": {"android": "https://dc.lft.to/lastmile_qr_scan", "ios": "https://dc.lft.to/lastmile_qr_scan"}, "fusion_lon": 0.0, "lat": 38.953748, "bike_id": "6653180b74dec768323f68e52d1a18bd", "type": "electric_bike", "is_reserved": 0, "lon": -76.9796045}, {"fusion_lat": 0.0, "name": "e0a3e079b147f79c9ef024b6ac2e34fb", "is_disabled": 0, "rental_uris": {"android": "https://dc.lft.to/lastmile_qr_scan", "ios": "https://dc.lft.to/lastmile_qr_scan"}, "fusion_lon": 0.0, "lat": 38.921415, "bike_id": "e0a3e079b147f79c9ef024b6ac2e34fb", "type": "electric_scooter", "is_reserved": 0, "lon": -77.04700966666667}, {"fusion_lat": 0.0, "name": "845fc2e252ddd8d390245536a99bf462", "is_disabled": 0, "rental_uris": {"android": "https://dc.lft.to/lastmile_qr_scan", "ios": "https://dc.lft.to/lastmile_qr_scan"}, "fusion_lon": 0.0, "lat": 38.90274016666667, "bike_id": "845fc2e252ddd8d390245536a99bf462", "type": "electric_scooter", "is_reserved": 0, "lon": -76.976715}, {"fusion_lat": 0.0, "name": "0c57755549d019148b2d89eae5f6716f", "is_disabled": 0, "rental_uris": {"android": "https://dc.lft.to/lastmile_qr_scan", "ios": "https://dc.lft.to/lastmile_qr_scan"}, "fusion_lon": 0.0, "lat": 38.871806666666664, "bike_id": "0c57755549d019148b2d89eae5f6716f", "type": "electric_scooter", "is_reserved": 0, "lon": -77.0062015}, {"fusion_lat": 0.0, "name": "f9b6165045acfadd9a5aa4f43e80ebcf", "is_disabled": 0, "rental_uris": {"android": "https://dc.lft.to/lastmile_qr_scan", "ios": "https://dc.lft.to/lastmile_qr_scan"}, "fusion_lon": 0.0, "lat": 38.927057166666664, "bike_id": "f9b6165045acfadd9a5aa4f43e80ebcf", "type": "electric_scooter", "is_reserved": 0, "lon": -77.02071483333333}, {"fusion_lat": 0.0, "name": "c5e6b17d4d050297a1fbbda3f66866a7", "is_disabled": 0, "rental_uris": {"android": "https://dc.lft.to/lastmile_qr_scan", "ios": "https://dc.lft.to/lastmile_qr_scan"}, "fusion_lon": 0.0, "lat": 38.900306, "bike_id": "c5e6b17d4d050297a1fbbda3f66866a7", "type": "electric_scooter", "is_reserved": 0, "lon": -76.99748216666667}, {"fusion_lat": 0.0, "name": "da84d0b050574add8bc5246e143a5339", "is_disabled": 0, "rental_uris": {"android": "https://dc.lft.to/lastmile_qr_scan", "ios": "https://dc.lft.to/lastmile_qr_scan"}, "fusion_lon": 0.0, "lat": 38.9152975, "bike_id": "da84d0b050574add8bc5246e143a5339", "type": "electric_scooter", "is_reserved": 0, "lon": -77.07271233333333}, {"fusion_lat": 0.0, "name": "8b65448fd058b42c86e7f187abb763d1", "is_disabled": 0, "rental_uris": {"android": "https://dc.lft.to/lastmile_qr_scan", "ios": "https://dc.lft.to/lastmile_qr_scan"}, "fusion_lon": 0.0, "lat": 38.93489566666667, "bike_id": "8b65448fd058b42c86e7f187abb763d1", "type": "electric_scooter", "is_reserved": 0, "lon": -77.0453235}, {"fusion_lat": 0.0, "name": "64d5af8f44eb83c0d116c6bb28967594", "is_disabled": 0, "rental_uris": {"android": "https://dc.lft.to/lastmile_qr_scan", "ios": "https://dc.lft.to/lastmile_qr_scan"}, "fusion_lon": 0.0, "lat": 38.92350033333334, "bike_id": "64d5af8f44eb83c0d116c6bb28967594", "type": "electric_scooter", "is_reserved": 0, "lon": -77.02015483333334}, {"fusion_lat": 0.0, "name": "fc0ed224f31fac58eeb25ea6c2123b07", "is_disabled": 0, "rental_uris": {"android": "https://dc.lft.to/lastmile_qr_scan", "ios": "https://dc.lft.to/lastmile_qr_scan"}, "fusion_lon": 0.0, "lat": 38.892214833333334, "bike_id": "fc0ed224f31fac58eeb25ea6c2123b07", "type": "electric_scooter", "is_reserved": 0, "lon": -77.04400383333333}, {"fusion_lat": 0.0, "name": "b856a5d0e69501680a9a4cb5d8b55f39", "is_disabled": 0, "rental_uris": {"android": "https://dc.lft.to/lastmile_qr_scan", "ios": "https://dc.lft.to/lastmile_qr_scan"}, "fusion_lon": 0.0, "lat": 38.884255, "bike_id": "b856a5d0e69501680a9a4cb5d8b55f39", "type": "electric_bike", "is_reserved": 0, "lon": -76.95410466666667}, {"fusion_lat": 0.0, "name": "c671e5e1422890274f24ad784d05a288", "is_disabled": 0, "rental_uris": {"android": "https://dc.lft.to/lastmile_qr_scan", "ios": "https://dc.lft.to/lastmile_qr_scan"}, "fusion_lon": 0.0, "lat": 38.90759416666667, "bike_id": "c671e5e1422890274f24ad784d05a288", "type": "electric_scooter", "is_reserved": 0, "lon": -77.03853883333333}, {"fusion_lat": 0.0, "name": "e77eec473e4430be8f4e4f666fda6e2d", "is_disabled": 0, "rental_uris": {"android": "https://dc.lft.to/lastmile_qr_scan", "ios": "https://dc.lft.to/lastmile_qr_scan"}, "fusion_lon": 0.0, "lat": 38.89231633333333, "bike_id": "e77eec473e4430be8f4e4f666fda6e2d", "type": "electric_scooter", "is_reserved": 0, "lon": -77.028294}, {"fusion_lat": 0.0, "name": "1eb140121bdbef83c4bbbedba189acc2", "is_disabled": 0, "rental_uris": {"android": "https://dc.lft.to/lastmile_qr_scan", "ios": "https://dc.lft.to/lastmile_qr_scan"}, "fusion_lon": 0.0, "lat": 38.929838833333335, "bike_id": "1eb140121bdbef83c4bbbedba189acc2", "type": "electric_scooter", "is_reserved": 0, "lon": -77.0197725}, {"fusion_lat": 0.0, "name": "41626541fa17d97c20f09a5b5b517405", "is_disabled": 0, "rental_uris": {"android": "https://dc.lft.to/lastmile_qr_scan", "ios": "https://dc.lft.to/lastmile_qr_scan"}, "fusion_lon": 0.0, "lat": 38.91606483333333, "bike_id": "41626541fa17d97c20f09a5b5b517405", "type": "electric_scooter", "is_reserved": 0, "lon": -77.02202616666666}, {"fusion_lat": 0.0, "name": "acc4fc8c4dd21509e9c07d1fa9a805af", "is_disabled": 0, "rental_uris": {"android": "https://dc.lft.to/lastmile_qr_scan", "ios": "https://dc.lft.to/lastmile_qr_scan"}, "fusion_lon": 0.0, "lat": 38.89211733333333, "bike_id": "acc4fc8c4dd21509e9c07d1fa9a805af", "type": "electric_scooter", "is_reserved": 0, "lon": -76.9971465}, {"fusion_lat": 0.0, "name": "42092909c5b105edb68be3deb13fa296", "is_disabled": 0, "rental_uris": {"android": "https://dc.lft.to/lastmile_qr_scan", "ios": "https://dc.lft.to/lastmile_qr_scan"}, "fusion_lon": 0.0, "lat": 38.92054383333333, "bike_id": "42092909c5b105edb68be3deb13fa296", "type": "electric_scooter", "is_reserved": 0, "lon": -77.02197166666667}, {"fusion_lat": 0.0, "name": "3699fc7de08da07744fa3702c7d3df8d", "is_disabled": 0, "rental_uris": {"android": "https://dc.lft.to/lastmile_qr_scan", "ios": "https://dc.lft.to/lastmile_qr_scan"}, "fusion_lon": 0.0, "lat": 38.95186733333333, "bike_id": "3699fc7de08da07744fa3702c7d3df8d", "type": "electric_scooter", "is_reserved": 0, "lon": -77.02727533333334}, {"fusion_lat": 0.0, "name": "f724454464da3f3c55bf69784dcf37b8", "is_disabled": 0, "rental_uris": {"android": "https://dc.lft.to/lastmile_qr_scan", "ios": "https://dc.lft.to/lastmile_qr_scan"}, "fusion_lon": 0.0, "lat": 38.87942866666667, "bike_id": "f724454464da3f3c55bf69784dcf37b8", "type": "electric_scooter", "is_reserved": 0, "lon": -77.00892533333334}, {"fusion_lat": 0.0, "name": "0ac25bd2f2d39dbf8c57251e1c1a5e0d", "is_disabled": 0, "rental_uris": {"android": "https://dc.lft.to/lastmile_qr_scan", "ios": "https://dc.lft.to/lastmile_qr_scan"}, "fusion_lon": 0.0, "lat": 38.90786033333333, "bike_id": "0ac25bd2f2d39dbf8c57251e1c1a5e0d", "type": "electric_scooter", "is_reserved": 0, "lon": -77.0386025}, {"fusion_lat": 0.0, "name": "3768e12d32ef6c8177368ea11d958ce0", "is_disabled": 0, "rental_uris": {"android": "https://dc.lft.to/lastmile_qr_scan", "ios": "https://dc.lft.to/lastmile_qr_scan"}, "fusion_lon": 0.0, "lat": 38.878014, "bike_id": "3768e12d32ef6c8177368ea11d958ce0", "type": "electric_scooter", "is_reserved": 0, "lon": -77.00125183333333}, {"fusion_lat": 0.0, "name": "d40bb3447e86aaecc4b088f70cc0e976", "is_disabled": 0, "rental_uris": {"android": "https://dc.lft.to/lastmile_qr_scan", "ios": "https://dc.lft.to/lastmile_qr_scan"}, "fusion_lon": 0.0, "lat": 38.8973125, "bike_id": "d40bb3447e86aaecc4b088f70cc0e976", "type": "electric_scooter", "is_reserved": 0, "lon": -77.04428833333333}, {"fusion_lat": 0.0, "name": "c179f1fe788d6af36ff1dd7c4021b634", "is_disabled": 0, "rental_uris": {"android": "https://dc.lft.to/lastmile_qr_scan", "ios": "https://dc.lft.to/lastmile_qr_scan"}, "fusion_lon": 0.0, "lat": 38.91057083333333, "bike_id": "c179f1fe788d6af36ff1dd7c4021b634", "type": "electric_scooter", "is_reserved": 0, "lon": -77.040891}, {"fusion_lat": 0.0, "name": "08fda71d6876d4cbd9b81410634568b8", "is_disabled": 0, "rental_uris": {"android": "https://dc.lft.to/lastmile_qr_scan", "ios": "https://dc.lft.to/lastmile_qr_scan"}, "fusion_lon": 0.0, "lat": 38.87308266666667, "bike_id": "08fda71d6876d4cbd9b81410634568b8", "type": "electric_scooter", "is_reserved": 0, "lon": -77.00047866666667}, {"fusion_lat": 0.0, "name": "de34f0929c42d5924e214657cfc70939", "is_disabled": 0, "rental_uris": {"android": "https://dc.lft.to/lastmile_qr_scan", "ios": "https://dc.lft.to/lastmile_qr_scan"}, "fusion_lon": 0.0, "lat": 38.897273166666665, "bike_id": "de34f0929c42d5924e214657cfc70939", "type": "electric_scooter", "is_reserved": 0, "lon": -77.02329033333334}, {"fusion_lat": 0.0, "name": "4d61106ac50639c8668a879392817c62", "is_disabled": 0, "rental_uris": {"android": "https://dc.lft.to/lastmile_qr_scan", "ios": "https://dc.lft.to/lastmile_qr_scan"}, "fusion_lon": 0.0, "lat": 38.86452833333333, "bike_id": "4d61106ac50639c8668a879392817c62", "type": "electric_bike", "is_reserved": 0, "lon": -77.10686883333334}, {"fusion_lat": 0.0, "name": "5f2563001ec967c92c7162e2a949f4de", "is_disabled": 0, "rental_uris": {"android": "https://dc.lft.to/lastmile_qr_scan", "ios": "https://dc.lft.to/lastmile_qr_scan"}, "fusion_lon": 0.0, "lat": 38.87646616666667, "bike_id": "5f2563001ec967c92c7162e2a949f4de", "type": "electric_scooter", "is_reserved": 0, "lon": -77.0157355}, {"fusion_lat": 0.0, "name": "762188d6fe25e0ae59f083bd146776f5", "is_disabled": 0, "rental_uris": {"android": "https://dc.lft.to/lastmile_qr_scan", "ios": "https://dc.lft.to/lastmile_qr_scan"}, "fusion_lon": 0.0, "lat": 38.91500666666666, "bike_id": "762188d6fe25e0ae59f083bd146776f5", "type": "electric_scooter", "is_reserved": 0, "lon": -77.03209933333333}, {"fusion_lat": 0.0, "name": "8669ef07fa8b41dd5051eceb7771528b", "is_disabled": 0, "rental_uris": {"android": "https://dc.lft.to/lastmile_qr_scan", "ios": "https://dc.lft.to/lastmile_qr_scan"}, "fusion_lon": 0.0, "lat": 38.923976833333334, "bike_id": "8669ef07fa8b41dd5051eceb7771528b", "type": "electric_scooter", "is_reserved": 0, "lon": -77.02493783333334}, {"fusion_lat": 0.0, "name": "f00887e441f27ef5fa21a7c5aa11b3db", "is_disabled": 0, "rental_uris": {"android": "https://dc.lft.to/lastmile_qr_scan", "ios": "https://dc.lft.to/lastmile_qr_scan"}, "fusion_lon": 0.0, "lat": 38.909731666666666, "bike_id": "f00887e441f27ef5fa21a7c5aa11b3db", "type": "electric_scooter", "is_reserved": 0, "lon": -77.04545333333333}, {"fusion_lat": 0.0, "name": "2dc0ab9adf834e7f4b319a518e252c69", "is_disabled": 0, "rental_uris": {"android": "https://dc.lft.to/lastmile_qr_scan", "ios": "https://dc.lft.to/lastmile_qr_scan"}, "fusion_lon": 0.0, "lat": 38.91921966666666, "bike_id": "2dc0ab9adf834e7f4b319a518e252c69", "type": "electric_scooter", "is_reserved": 0, "lon": -77.00981633333333}, {"fusion_lat": 0.0, "name": "ae8d2f8936f87729a5f1694249cbb136", "is_disabled": 0, "rental_uris": {"android": "https://dc.lft.to/lastmile_qr_scan", "ios": "https://dc.lft.to/lastmile_qr_scan"}, "fusion_lon": 0.0, "lat": 38.906329, "bike_id": "ae8d2f8936f87729a5f1694249cbb136", "type": "electric_scooter", "is_reserved": 0, "lon": -77.0103585}, {"fusion_lat": 0.0, "name": "185d3884e8596058458a399007e83581", "is_disabled": 0, "rental_uris": {"android": "https://dc.lft.to/lastmile_qr_scan", "ios": "https://dc.lft.to/lastmile_qr_scan"}, "fusion_lon": 0.0, "lat": 38.930993666666666, "bike_id": "185d3884e8596058458a399007e83581", "type": "electric_scooter", "is_reserved": 0, "lon": -77.02351383333334}, {"fusion_lat": 0.0, "name": "da6aec4910a2af273f3bb1db5a9c3c6e", "is_disabled": 0, "rental_uris": {"android": "https://dc.lft.to/lastmile_qr_scan", "ios": "https://dc.lft.to/lastmile_qr_scan"}, "fusion_lon": 0.0, "lat": 38.90028133333333, "bike_id": "da6aec4910a2af273f3bb1db5a9c3c6e", "type": "electric_scooter", "is_reserved": 0, "lon": -77.0118785}, {"fusion_lat": 0.0, "name": "854c7b2d155eb881c11ee1f3a0eafc32", "is_disabled": 0, "rental_uris": {"android": "https://dc.lft.to/lastmile_qr_scan", "ios": "https://dc.lft.to/lastmile_qr_scan"}, "fusion_lon": 0.0, "lat": 38.9055705, "bike_id": "854c7b2d155eb881c11ee1f3a0eafc32", "type": "electric_scooter", "is_reserved": 0, "lon": -77.00550433333333}, {"fusion_lat": 0.0, "name": "4a62f08a140fb30823a332d861cc3032", "is_disabled": 0, "rental_uris": {"android": "https://dc.lft.to/lastmile_qr_scan", "ios": "https://dc.lft.to/lastmile_qr_scan"}, "fusion_lon": 0.0, "lat": 38.87571366666667, "bike_id": "4a62f08a140fb30823a332d861cc3032", "type": "electric_scooter", "is_reserved": 0, "lon": -77.00935583333333}, {"fusion_lat": 0.0, "name": "95afeb43de40f9a6bb79bd0f2dadf9b4", "is_disabled": 0, "rental_uris": {"android": "https://dc.lft.to/lastmile_qr_scan", "ios": "https://dc.lft.to/lastmile_qr_scan"}, "fusion_lon": 0.0, "lat": 38.92267283333334, "bike_id": "95afeb43de40f9a6bb79bd0f2dadf9b4", "type": "electric_scooter", "is_reserved": 0, "lon": -77.04247016666666}, {"fusion_lat": 0.0, "name": "b6cdc9dc7d5017ec098a2ae612037a9b", "is_disabled": 0, "rental_uris": {"android": "https://dc.lft.to/lastmile_qr_scan", "ios": "https://dc.lft.to/lastmile_qr_scan"}, "fusion_lon": 0.0, "lat": 38.91653983333333, "bike_id": "b6cdc9dc7d5017ec098a2ae612037a9b", "type": "electric_scooter", "is_reserved": 0, "lon": -77.03439033333333}, {"fusion_lat": 0.0, "name": "0ad6c59310790e80d7efcb6b39c6c3ad", "is_disabled": 0, "rental_uris": {"android": "https://dc.lft.to/lastmile_qr_scan", "ios": "https://dc.lft.to/lastmile_qr_scan"}, "fusion_lon": 0.0, "lat": 38.893097833333336, "bike_id": "0ad6c59310790e80d7efcb6b39c6c3ad", "type": "electric_scooter", "is_reserved": 0, "lon": -77.021448}, {"fusion_lat": 0.0, "name": "52c6878480a4b56636319d0e77573565", "is_disabled": 0, "rental_uris": {"android": "https://dc.lft.to/lastmile_qr_scan", "ios": "https://dc.lft.to/lastmile_qr_scan"}, "fusion_lon": 0.0, "lat": 38.92449216666667, "bike_id": "52c6878480a4b56636319d0e77573565", "type": "electric_scooter", "is_reserved": 0, "lon": -77.05250983333333}, {"fusion_lat": 0.0, "name": "24ac313bdadd9d0c894439f8449bac31", "is_disabled": 0, "rental_uris": {"android": "https://dc.lft.to/lastmile_qr_scan", "ios": "https://dc.lft.to/lastmile_qr_scan"}, "fusion_lon": 0.0, "lat": 38.820984833333334, "bike_id": "24ac313bdadd9d0c894439f8449bac31", "type": "electric_bike", "is_reserved": 0, "lon": -77.0530105}, {"fusion_lat": 0.0, "name": "a49de1623163ae3033bed1fc0c245ee4", "is_disabled": 0, "rental_uris": {"android": "https://dc.lft.to/lastmile_qr_scan", "ios": "https://dc.lft.to/lastmile_qr_scan"}, "fusion_lon": 0.0, "lat": 38.882505, "bike_id": "a49de1623163ae3033bed1fc0c245ee4", "type": "electric_bike", "is_reserved": 0, "lon": -76.96261833333334}, {"fusion_lat": 0.0, "name": "92488ae38e60757f8adf575e0456c4ff", "is_disabled": 0, "rental_uris": {"android": "https://dc.lft.to/lastmile_qr_scan", "ios": "https://dc.lft.to/lastmile_qr_scan"}, "fusion_lon": 0.0, "lat": 38.90485266666666, "bike_id": "92488ae38e60757f8adf575e0456c4ff", "type": "electric_scooter", "is_reserved": 0, "lon": -76.94952216666667}, {"fusion_lat": 0.0, "name": "6773e8636d0c4ac1d1ff092d9cd39583", "is_disabled": 0, "rental_uris": {"android": "https://dc.lft.to/lastmile_qr_scan", "ios": "https://dc.lft.to/lastmile_qr_scan"}, "fusion_lon": 0.0, "lat": 38.9279785, "bike_id": "6773e8636d0c4ac1d1ff092d9cd39583", "type": "electric_scooter", "is_reserved": 0, "lon": -76.95554966666667}, {"fusion_lat": 0.0, "name": "b9d9853c305e99d660aaef11f7e82500", "is_disabled": 0, "rental_uris": {"android": "https://dc.lft.to/lastmile_qr_scan", "ios": "https://dc.lft.to/lastmile_qr_scan"}, "fusion_lon": 0.0, "lat": 38.897424, "bike_id": "b9d9853c305e99d660aaef11f7e82500", "type": "electric_scooter", "is_reserved": 0, "lon": -77.02219583333333}, {"fusion_lat": 0.0, "name": "cebab34d99e34940a17e29b603bba61a", "is_disabled": 0, "rental_uris": {"android": "https://dc.lft.to/lastmile_qr_scan", "ios": "https://dc.lft.to/lastmile_qr_scan"}, "fusion_lon": 0.0, "lat": 38.949209833333335, "bike_id": "cebab34d99e34940a17e29b603bba61a", "type": "electric_scooter", "is_reserved": 0, "lon": -77.01859}, {"fusion_lat": 0.0, "name": "57af22644412d189d2b04cceaf51089e", "is_disabled": 0, "rental_uris": {"android": "https://dc.lft.to/lastmile_qr_scan", "ios": "https://dc.lft.to/lastmile_qr_scan"}, "fusion_lon": 0.0, "lat": 38.897512666666664, "bike_id": "57af22644412d189d2b04cceaf51089e", "type": "electric_scooter", "is_reserved": 0, "lon": -77.03213016666666}, {"fusion_lat": 0.0, "name": "30b315ccb2a1d863ff86c0a6c2df285e", "is_disabled": 0, "rental_uris": {"android": "https://dc.lft.to/lastmile_qr_scan", "ios": "https://dc.lft.to/lastmile_qr_scan"}, "fusion_lon": 0.0, "lat": 38.98819866666667, "bike_id": "30b315ccb2a1d863ff86c0a6c2df285e", "type": "electric_bike", "is_reserved": 0, "lon": -77.0266235}, {"fusion_lat": 0.0, "name": "0aaa42e9c973e58906230a1387d2705c", "is_disabled": 0, "rental_uris": {"android": "https://dc.lft.to/lastmile_qr_scan", "ios": "https://dc.lft.to/lastmile_qr_scan"}, "fusion_lon": 0.0, "lat": 38.920468666666665, "bike_id": "0aaa42e9c973e58906230a1387d2705c", "type": "electric_scooter", "is_reserved": 0, "lon": -77.03403466666667}, {"fusion_lat": 0.0, "name": "0303dc5d4fabfd524e3c3e8242254af9", "is_disabled": 0, "rental_uris": {"android": "https://dc.lft.to/lastmile_qr_scan", "ios": "https://dc.lft.to/lastmile_qr_scan"}, "fusion_lon": 0.0, "lat": 38.89240916666667, "bike_id": "0303dc5d4fabfd524e3c3e8242254af9", "type": "electric_scooter", "is_reserved": 0, "lon": -77.04674516666667}, {"fusion_lat": 0.0, "name": "08b5346c99d2f79f9b5d52026bbc594d", "is_disabled": 0, "rental_uris": {"android": "https://dc.lft.to/lastmile_qr_scan", "ios": "https://dc.lft.to/lastmile_qr_scan"}, "fusion_lon": 0.0, "lat": 38.913454333333334, "bike_id": "08b5346c99d2f79f9b5d52026bbc594d", "type": "electric_scooter", "is_reserved": 0, "lon": -77.04346283333334}, {"fusion_lat": 0.0, "name": "500637458fc772ee9e597a95445710ec", "is_disabled": 0, "rental_uris": {"android": "https://dc.lft.to/lastmile_qr_scan", "ios": "https://dc.lft.to/lastmile_qr_scan"}, "fusion_lon": 0.0, "lat": 38.900643333333335, "bike_id": "500637458fc772ee9e597a95445710ec", "type": "electric_scooter", "is_reserved": 0, "lon": -76.933843}, {"fusion_lat": 0.0, "name": "81d3e11f8ae5004335b6e0e68562db75", "is_disabled": 0, "rental_uris": {"android": "https://dc.lft.to/lastmile_qr_scan", "ios": "https://dc.lft.to/lastmile_qr_scan"}, "fusion_lon": 0.0, "lat": 38.917131833333336, "bike_id": "81d3e11f8ae5004335b6e0e68562db75", "type": "electric_scooter", "is_reserved": 0, "lon": -77.02741616666667}, {"fusion_lat": 0.0, "name": "4f1af6c76eae1ba43d76077dfe96856f", "is_disabled": 0, "rental_uris": {"android": "https://dc.lft.to/lastmile_qr_scan", "ios": "https://dc.lft.to/lastmile_qr_scan"}, "fusion_lon": 0.0, "lat": 38.9354975, "bike_id": "4f1af6c76eae1ba43d76077dfe96856f", "type": "electric_scooter", "is_reserved": 0, "lon": -77.03262433333333}, {"fusion_lat": 0.0, "name": "45126b6c78aa05b5eb9e07e91d2c075c", "is_disabled": 0, "rental_uris": {"android": "https://dc.lft.to/lastmile_qr_scan", "ios": "https://dc.lft.to/lastmile_qr_scan"}, "fusion_lon": 0.0, "lat": 38.89242183333333, "bike_id": "45126b6c78aa05b5eb9e07e91d2c075c", "type": "electric_scooter", "is_reserved": 0, "lon": -77.02205316666667}, {"fusion_lat": 0.0, "name": "91e1b8baefb7351152f9ce46ee684d29", "is_disabled": 0, "rental_uris": {"android": "https://dc.lft.to/lastmile_qr_scan", "ios": "https://dc.lft.to/lastmile_qr_scan"}, "fusion_lon": 0.0, "lat": 38.9192055, "bike_id": "91e1b8baefb7351152f9ce46ee684d29", "type": "electric_scooter", "is_reserved": 0, "lon": -77.0357585}, {"fusion_lat": 0.0, "name": "f145e614613f93e9a7e288e10e5649dc", "is_disabled": 0, "rental_uris": {"android": "https://dc.lft.to/lastmile_qr_scan", "ios": "https://dc.lft.to/lastmile_qr_scan"}, "fusion_lon": 0.0, "lat": 38.918873833333336, "bike_id": "f145e614613f93e9a7e288e10e5649dc", "type": "electric_scooter", "is_reserved": 0, "lon": -76.965628}, {"fusion_lat": 0.0, "name": "a82fbee771a7011f60922187e82b86fa", "is_disabled": 0, "rental_uris": {"android": "https://dc.lft.to/lastmile_qr_scan", "ios": "https://dc.lft.to/lastmile_qr_scan"}, "fusion_lon": 0.0, "lat": 38.896126833333334, "bike_id": "a82fbee771a7011f60922187e82b86fa", "type": "electric_scooter", "is_reserved": 0, "lon": -77.04490333333334}, {"fusion_lat": 0.0, "name": "a57fe88163b8e6e59a12c2ff0f37a637", "is_disabled": 0, "rental_uris": {"android": "https://dc.lft.to/lastmile_qr_scan", "ios": "https://dc.lft.to/lastmile_qr_scan"}, "fusion_lon": 0.0, "lat": 38.95796333333333, "bike_id": "a57fe88163b8e6e59a12c2ff0f37a637", "type": "electric_bike", "is_reserved": 0, "lon": -76.9997055}, {"fusion_lat": 0.0, "name": "af9c898a43cd417eac617f093f126a6b", "is_disabled": 0, "rental_uris": {"android": "https://dc.lft.to/lastmile_qr_scan", "ios": "https://dc.lft.to/lastmile_qr_scan"}, "fusion_lon": 0.0, "lat": 38.84508566666667, "bike_id": "af9c898a43cd417eac617f093f126a6b", "type": "electric_bike", "is_reserved": 0, "lon": -76.9935255}, {"fusion_lat": 0.0, "name": "a4a9638713df683c3e1525f51a9978a5", "is_disabled": 0, "rental_uris": {"android": "https://dc.lft.to/lastmile_qr_scan", "ios": "https://dc.lft.to/lastmile_qr_scan"}, "fusion_lon": 0.0, "lat": 38.9039275, "bike_id": "a4a9638713df683c3e1525f51a9978a5", "type": "electric_scooter", "is_reserved": 0, "lon": -77.0614565}, {"fusion_lat": 0.0, "name": "caf80ba2d7230b00afca40abb8ba37ea", "is_disabled": 0, "rental_uris": {"android": "https://dc.lft.to/lastmile_qr_scan", "ios": "https://dc.lft.to/lastmile_qr_scan"}, "fusion_lon": 0.0, "lat": 38.900147, "bike_id": "caf80ba2d7230b00afca40abb8ba37ea", "type": "electric_scooter", "is_reserved": 0, "lon": -77.0394065}, {"fusion_lat": 0.0, "name": "eeee3a4180e82d4de6359ab654afd676", "is_disabled": 0, "rental_uris": {"android": "https://dc.lft.to/lastmile_qr_scan", "ios": "https://dc.lft.to/lastmile_qr_scan"}, "fusion_lon": 0.0, "lat": 38.85780183333333, "bike_id": "eeee3a4180e82d4de6359ab654afd676", "type": "electric_scooter", "is_reserved": 0, "lon": -76.97299783333334}, {"fusion_lat": 0.0, "name": "3328fdf6217446faf12018459fe78b4a", "is_disabled": 0, "rental_uris": {"android": "https://dc.lft.to/lastmile_qr_scan", "ios": "https://dc.lft.to/lastmile_qr_scan"}, "fusion_lon": 0.0, "lat": 38.91783433333333, "bike_id": "3328fdf6217446faf12018459fe78b4a", "type": "electric_scooter", "is_reserved": 0, "lon": -77.0230605}, {"fusion_lat": 0.0, "name": "c3d4e51ca746d2f43698008e0cacc3d9", "is_disabled": 0, "rental_uris": {"android": "https://dc.lft.to/lastmile_qr_scan", "ios": "https://dc.lft.to/lastmile_qr_scan"}, "fusion_lon": 0.0, "lat": 38.92547033333334, "bike_id": "c3d4e51ca746d2f43698008e0cacc3d9", "type": "electric_scooter", "is_reserved": 0, "lon": -77.0558145}, {"fusion_lat": 0.0, "name": "02d6afc4a18491f1b0f6629e19d16c8f", "is_disabled": 0, "rental_uris": {"android": "https://dc.lft.to/lastmile_qr_scan", "ios": "https://dc.lft.to/lastmile_qr_scan"}, "fusion_lon": 0.0, "lat": 38.956346, "bike_id": "02d6afc4a18491f1b0f6629e19d16c8f", "type": "electric_scooter", "is_reserved": 0, "lon": -77.02829366666667}, {"fusion_lat": 0.0, "name": "557e1d2be080278336957aa31b43aed0", "is_disabled": 0, "rental_uris": {"android": "https://dc.lft.to/lastmile_qr_scan", "ios": "https://dc.lft.to/lastmile_qr_scan"}, "fusion_lon": 0.0, "lat": 38.915524166666664, "bike_id": "557e1d2be080278336957aa31b43aed0", "type": "electric_scooter", "is_reserved": 0, "lon": -77.034764}, {"fusion_lat": 0.0, "name": "ac4a7c0fcf6046e829f0d8083d8c0f3c", "is_disabled": 0, "rental_uris": {"android": "https://dc.lft.to/lastmile_qr_scan", "ios": "https://dc.lft.to/lastmile_qr_scan"}, "fusion_lon": 0.0, "lat": 38.8662975, "bike_id": "ac4a7c0fcf6046e829f0d8083d8c0f3c", "type": "electric_scooter", "is_reserved": 0, "lon": -76.98714566666666}, {"fusion_lat": 0.0, "name": "245eaa91457487bd145e1c3c26e8537f", "is_disabled": 0, "rental_uris": {"android": "https://dc.lft.to/lastmile_qr_scan", "ios": "https://dc.lft.to/lastmile_qr_scan"}, "fusion_lon": 0.0, "lat": 38.932831, "bike_id": "245eaa91457487bd145e1c3c26e8537f", "type": "electric_scooter", "is_reserved": 0, "lon": -77.04081983333333}, {"fusion_lat": 0.0, "name": "149a557f522b4510ed8cadeb7a753adf", "is_disabled": 0, "rental_uris": {"android": "https://dc.lft.to/lastmile_qr_scan", "ios": "https://dc.lft.to/lastmile_qr_scan"}, "fusion_lon": 0.0, "lat": 38.95057383333334, "bike_id": "149a557f522b4510ed8cadeb7a753adf", "type": "electric_scooter", "is_reserved": 0, "lon": -77.08027316666667}, {"fusion_lat": 0.0, "name": "bc4771fd8d8126d04ae126aa8488b3c0", "is_disabled": 0, "rental_uris": {"android": "https://dc.lft.to/lastmile_qr_scan", "ios": "https://dc.lft.to/lastmile_qr_scan"}, "fusion_lon": 0.0, "lat": 38.9031085, "bike_id": "bc4771fd8d8126d04ae126aa8488b3c0", "type": "electric_scooter", "is_reserved": 0, "lon": -77.0602465}, {"fusion_lat": 0.0, "name": "1aa4808c6399bb2ce571ed61f3109e91", "is_disabled": 0, "rental_uris": {"android": "https://dc.lft.to/lastmile_qr_scan", "ios": "https://dc.lft.to/lastmile_qr_scan"}, "fusion_lon": 0.0, "lat": 38.89222183333333, "bike_id": "1aa4808c6399bb2ce571ed61f3109e91", "type": "electric_scooter", "is_reserved": 0, "lon": -77.04526566666667}, {"fusion_lat": 0.0, "name": "5cf851b42cd9ee774b878715e495518f", "is_disabled": 0, "rental_uris": {"android": "https://dc.lft.to/lastmile_qr_scan", "ios": "https://dc.lft.to/lastmile_qr_scan"}, "fusion_lon": 0.0, "lat": 38.8763685, "bike_id": "5cf851b42cd9ee774b878715e495518f", "type": "electric_scooter", "is_reserved": 0, "lon": -77.00642383333333}, {"fusion_lat": 0.0, "name": "8b2319e5d8b1507d4478a0dcc159eadc", "is_disabled": 0, "rental_uris": {"android": "https://dc.lft.to/lastmile_qr_scan", "ios": "https://dc.lft.to/lastmile_qr_scan"}, "fusion_lon": 0.0, "lat": 38.951864666666665, "bike_id": "8b2319e5d8b1507d4478a0dcc159eadc", "type": "electric_scooter", "is_reserved": 0, "lon": -77.02615716666666}, {"fusion_lat": 0.0, "name": "ca17ead6cc02c15b095a389b71d717cd", "is_disabled": 0, "rental_uris": {"android": "https://dc.lft.to/lastmile_qr_scan", "ios": "https://dc.lft.to/lastmile_qr_scan"}, "fusion_lon": 0.0, "lat": 38.909793, "bike_id": "ca17ead6cc02c15b095a389b71d717cd", "type": "electric_scooter", "is_reserved": 0, "lon": -77.02694633333333}, {"fusion_lat": 0.0, "name": "77fb48f5f4776daf3c4ee427ab7ce8eb", "is_disabled": 0, "rental_uris": {"android": "https://dc.lft.to/lastmile_qr_scan", "ios": "https://dc.lft.to/lastmile_qr_scan"}, "fusion_lon": 0.0, "lat": 38.908770833333335, "bike_id": "77fb48f5f4776daf3c4ee427ab7ce8eb", "type": "electric_scooter", "is_reserved": 0, "lon": -77.002645}, {"fusion_lat": 0.0, "name": "7c542555dd35f3e789b4b6995fc8f322", "is_disabled": 0, "rental_uris": {"android": "https://dc.lft.to/lastmile_qr_scan", "ios": "https://dc.lft.to/lastmile_qr_scan"}, "fusion_lon": 0.0, "lat": 38.88668033333333, "bike_id": "7c542555dd35f3e789b4b6995fc8f322", "type": "electric_scooter", "is_reserved": 0, "lon": -77.02823066666667}, {"fusion_lat": 0.0, "name": "0b63ead85bc2ad25d8ceb4be80793806", "is_disabled": 0, "rental_uris": {"android": "https://dc.lft.to/lastmile_qr_scan", "ios": "https://dc.lft.to/lastmile_qr_scan"}, "fusion_lon": 0.0, "lat": 38.922399166666665, "bike_id": "0b63ead85bc2ad25d8ceb4be80793806", "type": "electric_bike", "is_reserved": 0, "lon": -77.0226365}, {"fusion_lat": 0.0, "name": "85a9d2931f5f035c18d4535634de5e29", "is_disabled": 0, "rental_uris": {"android": "https://dc.lft.to/lastmile_qr_scan", "ios": "https://dc.lft.to/lastmile_qr_scan"}, "fusion_lon": 0.0, "lat": 38.819894833333336, "bike_id": "85a9d2931f5f035c18d4535634de5e29", "type": "electric_bike", "is_reserved": 0, "lon": -76.9980935}, {"fusion_lat": 0.0, "name": "30a63e54746d1b7005c8bd8917cb2436", "is_disabled": 0, "rental_uris": {"android": "https://dc.lft.to/lastmile_qr_scan", "ios": "https://dc.lft.to/lastmile_qr_scan"}, "fusion_lon": 0.0, "lat": 38.949758833333334, "bike_id": "30a63e54746d1b7005c8bd8917cb2436", "type": "electric_scooter", "is_reserved": 0, "lon": -77.06642183333334}, {"fusion_lat": 0.0, "name": "334726e8531e8b8105c1ba6c49be434e", "is_disabled": 0, "rental_uris": {"android": "https://dc.lft.to/lastmile_qr_scan", "ios": "https://dc.lft.to/lastmile_qr_scan"}, "fusion_lon": 0.0, "lat": 38.8160995, "bike_id": "334726e8531e8b8105c1ba6c49be434e", "type": "electric_bike", "is_reserved": 0, "lon": -76.99657866666666}, {"fusion_lat": 0.0, "name": "ab42fcdf2e8f951f9e9ef373cae1dd0c", "is_disabled": 0, "rental_uris": {"android": "https://dc.lft.to/lastmile_qr_scan", "ios": "https://dc.lft.to/lastmile_qr_scan"}, "fusion_lon": 0.0, "lat": 38.90602416666667, "bike_id": "ab42fcdf2e8f951f9e9ef373cae1dd0c", "type": "electric_scooter", "is_reserved": 0, "lon": -77.04495416666667}, {"fusion_lat": 0.0, "name": "a198b2f6962f796269fabd8f6afc1fdd", "is_disabled": 0, "rental_uris": {"android": "https://dc.lft.to/lastmile_qr_scan", "ios": "https://dc.lft.to/lastmile_qr_scan"}, "fusion_lon": 0.0, "lat": 39.01415883333333, "bike_id": "a198b2f6962f796269fabd8f6afc1fdd", "type": "electric_bike", "is_reserved": 0, "lon": -77.04497533333333}, {"fusion_lat": 0.0, "name": "528f61cd067ae209133157f852c5747e", "is_disabled": 0, "rental_uris": {"android": "https://dc.lft.to/lastmile_qr_scan", "ios": "https://dc.lft.to/lastmile_qr_scan"}, "fusion_lon": 0.0, "lat": 38.93193933333333, "bike_id": "528f61cd067ae209133157f852c5747e", "type": "electric_scooter", "is_reserved": 0, "lon": -77.02978066666667}, {"fusion_lat": 0.0, "name": "dc25a65581b19b62068a890f9f53c094", "is_disabled": 0, "rental_uris": {"android": "https://dc.lft.to/lastmile_qr_scan", "ios": "https://dc.lft.to/lastmile_qr_scan"}, "fusion_lon": 0.0, "lat": 38.927072, "bike_id": "dc25a65581b19b62068a890f9f53c094", "type": "electric_scooter", "is_reserved": 0, "lon": -77.02080833333333}, {"fusion_lat": 0.0, "name": "afb76ca4c526a987fc92300ca706f95c", "is_disabled": 0, "rental_uris": {"android": "https://dc.lft.to/lastmile_qr_scan", "ios": "https://dc.lft.to/lastmile_qr_scan"}, "fusion_lon": 0.0, "lat": 38.90065216666667, "bike_id": "afb76ca4c526a987fc92300ca706f95c", "type": "electric_scooter", "is_reserved": 0, "lon": -76.98714733333334}, {"fusion_lat": 0.0, "name": "de340f9b5359bf0db24deabaf9967a98", "is_disabled": 0, "rental_uris": {"android": "https://dc.lft.to/lastmile_qr_scan", "ios": "https://dc.lft.to/lastmile_qr_scan"}, "fusion_lon": 0.0, "lat": 38.88519866666667, "bike_id": "de340f9b5359bf0db24deabaf9967a98", "type": "electric_scooter", "is_reserved": 0, "lon": -76.99750983333334}, {"fusion_lat": 0.0, "name": "b8c71bcaf55eebfb17666d78ee8847c4", "is_disabled": 0, "rental_uris": {"android": "https://dc.lft.to/lastmile_qr_scan", "ios": "https://dc.lft.to/lastmile_qr_scan"}, "fusion_lon": 0.0, "lat": 38.88724883333333, "bike_id": "b8c71bcaf55eebfb17666d78ee8847c4", "type": "electric_scooter", "is_reserved": 0, "lon": -77.021865}, {"fusion_lat": 0.0, "name": "5f3a580c447898f4cc256195034c8a81", "is_disabled": 0, "rental_uris": {"android": "https://dc.lft.to/lastmile_qr_scan", "ios": "https://dc.lft.to/lastmile_qr_scan"}, "fusion_lon": 0.0, "lat": 38.849176166666666, "bike_id": "5f3a580c447898f4cc256195034c8a81", "type": "electric_bike", "is_reserved": 0, "lon": -77.07930183333333}, {"fusion_lat": 0.0, "name": "5e5c93fc78d1457a4c70b4760920c78c", "is_disabled": 0, "rental_uris": {"android": "https://dc.lft.to/lastmile_qr_scan", "ios": "https://dc.lft.to/lastmile_qr_scan"}, "fusion_lon": 0.0, "lat": 38.9243915, "bike_id": "5e5c93fc78d1457a4c70b4760920c78c", "type": "electric_scooter", "is_reserved": 0, "lon": -77.03404666666667}, {"fusion_lat": 0.0, "name": "72fb2e8e29369173fbd43c52a326b150", "is_disabled": 0, "rental_uris": {"android": "https://dc.lft.to/lastmile_qr_scan", "ios": "https://dc.lft.to/lastmile_qr_scan"}, "fusion_lon": 0.0, "lat": 38.92617283333333, "bike_id": "72fb2e8e29369173fbd43c52a326b150", "type": "electric_scooter", "is_reserved": 0, "lon": -77.021647}, {"fusion_lat": 0.0, "name": "d4887e8a235a15b757fb1f21d8f9ab61", "is_disabled": 0, "rental_uris": {"android": "https://dc.lft.to/lastmile_qr_scan", "ios": "https://dc.lft.to/lastmile_qr_scan"}, "fusion_lon": 0.0, "lat": 38.932609166666666, "bike_id": "d4887e8a235a15b757fb1f21d8f9ab61", "type": "electric_scooter", "is_reserved": 0, "lon": -77.06621816666667}, {"fusion_lat": 0.0, "name": "9e5a7f3c86e90815a76eae441a3dfef8", "is_disabled": 0, "rental_uris": {"android": "https://dc.lft.to/lastmile_qr_scan", "ios": "https://dc.lft.to/lastmile_qr_scan"}, "fusion_lon": 0.0, "lat": 38.905784, "bike_id": "9e5a7f3c86e90815a76eae441a3dfef8", "type": "electric_scooter", "is_reserved": 0, "lon": -77.02202033333333}, {"fusion_lat": 0.0, "name": "6a9c9d78177bf2793d7f4f2fa366b979", "is_disabled": 0, "rental_uris": {"android": "https://dc.lft.to/lastmile_qr_scan", "ios": "https://dc.lft.to/lastmile_qr_scan"}, "fusion_lon": 0.0, "lat": 38.8924345, "bike_id": "6a9c9d78177bf2793d7f4f2fa366b979", "type": "electric_scooter", "is_reserved": 0, "lon": -77.03350333333333}, {"fusion_lat": 0.0, "name": "765ed9a260dd57f663d4e99cb602df56", "is_disabled": 0, "rental_uris": {"android": "https://dc.lft.to/lastmile_qr_scan", "ios": "https://dc.lft.to/lastmile_qr_scan"}, "fusion_lon": 0.0, "lat": 38.92290033333333, "bike_id": "765ed9a260dd57f663d4e99cb602df56", "type": "electric_scooter", "is_reserved": 0, "lon": -77.03662666666666}, {"fusion_lat": 0.0, "name": "d33fe823fed712f74228fee15886866b", "is_disabled": 0, "rental_uris": {"android": "https://dc.lft.to/lastmile_qr_scan", "ios": "https://dc.lft.to/lastmile_qr_scan"}, "fusion_lon": 0.0, "lat": 38.93706366666667, "bike_id": "d33fe823fed712f74228fee15886866b", "type": "electric_scooter", "is_reserved": 0, "lon": -77.06106516666667}, {"fusion_lat": 0.0, "name": "1936ea23f33a31b2b84606e823fb9c3c", "is_disabled": 0, "rental_uris": {"android": "https://dc.lft.to/lastmile_qr_scan", "ios": "https://dc.lft.to/lastmile_qr_scan"}, "fusion_lon": 0.0, "lat": 38.890048, "bike_id": "1936ea23f33a31b2b84606e823fb9c3c", "type": "electric_scooter", "is_reserved": 0, "lon": -76.937459}, {"fusion_lat": 0.0, "name": "af43d6e1eac8accc08d6aa99808d8be9", "is_disabled": 0, "rental_uris": {"android": "https://dc.lft.to/lastmile_qr_scan", "ios": "https://dc.lft.to/lastmile_qr_scan"}, "fusion_lon": 0.0, "lat": 38.932623666666665, "bike_id": "af43d6e1eac8accc08d6aa99808d8be9", "type": "electric_scooter", "is_reserved": 0, "lon": -77.032705}, {"fusion_lat": 0.0, "name": "a55326ee9e4487bf14c736c75d4bc203", "is_disabled": 0, "rental_uris": {"android": "https://dc.lft.to/lastmile_qr_scan", "ios": "https://dc.lft.to/lastmile_qr_scan"}, "fusion_lon": 0.0, "lat": 38.88669983333333, "bike_id": "a55326ee9e4487bf14c736c75d4bc203", "type": "electric_scooter", "is_reserved": 0, "lon": -77.028236}, {"fusion_lat": 0.0, "name": "bea7643926af411334e72fa2543df11f", "is_disabled": 0, "rental_uris": {"android": "https://dc.lft.to/lastmile_qr_scan", "ios": "https://dc.lft.to/lastmile_qr_scan"}, "fusion_lon": 0.0, "lat": 38.924431, "bike_id": "bea7643926af411334e72fa2543df11f", "type": "electric_scooter", "is_reserved": 0, "lon": -77.05176616666667}, {"fusion_lat": 0.0, "name": "c39ced47310aa3741226fc2de1a35598", "is_disabled": 0, "rental_uris": {"android": "https://dc.lft.to/lastmile_qr_scan", "ios": "https://dc.lft.to/lastmile_qr_scan"}, "fusion_lon": 0.0, "lat": 38.887255, "bike_id": "c39ced47310aa3741226fc2de1a35598", "type": "electric_scooter", "is_reserved": 0, "lon": -76.9968635}, {"fusion_lat": 0.0, "name": "ddf5c01254f4cd2fdd9377dafe940dbb", "is_disabled": 0, "rental_uris": {"android": "https://dc.lft.to/lastmile_qr_scan", "ios": "https://dc.lft.to/lastmile_qr_scan"}, "fusion_lon": 0.0, "lat": 38.939691833333335, "bike_id": "ddf5c01254f4cd2fdd9377dafe940dbb", "type": "electric_scooter", "is_reserved": 0, "lon": -77.03257216666667}, {"fusion_lat": 0.0, "name": "9bc3d963191c041feb1455a7ac95111c", "is_disabled": 0, "rental_uris": {"android": "https://dc.lft.to/lastmile_qr_scan", "ios": "https://dc.lft.to/lastmile_qr_scan"}, "fusion_lon": 0.0, "lat": 38.89945633333333, "bike_id": "9bc3d963191c041feb1455a7ac95111c", "type": "electric_scooter", "is_reserved": 0, "lon": -76.981554}, {"fusion_lat": 0.0, "name": "3daf064e13de0135c4113176c12effd3", "is_disabled": 0, "rental_uris": {"android": "https://dc.lft.to/lastmile_qr_scan", "ios": "https://dc.lft.to/lastmile_qr_scan"}, "fusion_lon": 0.0, "lat": 38.88409033333333, "bike_id": "3daf064e13de0135c4113176c12effd3", "type": "electric_scooter", "is_reserved": 0, "lon": -76.98613683333333}, {"fusion_lat": 0.0, "name": "f0c4b4ca3291429092cbbc4ddfc6d230", "is_disabled": 0, "rental_uris": {"android": "https://dc.lft.to/lastmile_qr_scan", "ios": "https://dc.lft.to/lastmile_qr_scan"}, "fusion_lon": 0.0, "lat": 38.892267333333336, "bike_id": "f0c4b4ca3291429092cbbc4ddfc6d230", "type": "electric_scooter", "is_reserved": 0, "lon": -77.0317655}, {"fusion_lat": 0.0, "name": "17ed567524136d4dc1d12bdaa075035e", "is_disabled": 0, "rental_uris": {"android": "https://dc.lft.to/lastmile_qr_scan", "ios": "https://dc.lft.to/lastmile_qr_scan"}, "fusion_lon": 0.0, "lat": 38.862538666666666, "bike_id": "17ed567524136d4dc1d12bdaa075035e", "type": "electric_scooter", "is_reserved": 0, "lon": -76.99511283333334}, {"fusion_lat": 0.0, "name": "62c9a750daf6f25dbef125321b44e969", "is_disabled": 0, "rental_uris": {"android": "https://dc.lft.to/lastmile_qr_scan", "ios": "https://dc.lft.to/lastmile_qr_scan"}, "fusion_lon": 0.0, "lat": 38.900241, "bike_id": "62c9a750daf6f25dbef125321b44e969", "type": "electric_scooter", "is_reserved": 0, "lon": -77.0118705}, {"fusion_lat": 0.0, "name": "dbab2a6409bc80fcaf9876d7d470c89e", "is_disabled": 0, "rental_uris": {"android": "https://dc.lft.to/lastmile_qr_scan", "ios": "https://dc.lft.to/lastmile_qr_scan"}, "fusion_lon": 0.0, "lat": 38.92072866666667, "bike_id": "dbab2a6409bc80fcaf9876d7d470c89e", "type": "electric_scooter", "is_reserved": 0, "lon": -77.024525}, {"fusion_lat": 0.0, "name": "f3d9bba896f336f7c28a1cf704b825f5", "is_disabled": 0, "rental_uris": {"android": "https://dc.lft.to/lastmile_qr_scan", "ios": "https://dc.lft.to/lastmile_qr_scan"}, "fusion_lon": 0.0, "lat": 38.919165, "bike_id": "f3d9bba896f336f7c28a1cf704b825f5", "type": "electric_scooter", "is_reserved": 0, "lon": -77.025093}, {"fusion_lat": 0.0, "name": "3363044370ae4aa57a8adb35c27812b7", "is_disabled": 0, "rental_uris": {"android": "https://dc.lft.to/lastmile_qr_scan", "ios": "https://dc.lft.to/lastmile_qr_scan"}, "fusion_lon": 0.0, "lat": 38.907827833333336, "bike_id": "3363044370ae4aa57a8adb35c27812b7", "type": "electric_scooter", "is_reserved": 0, "lon": -77.03852233333333}, {"fusion_lat": 0.0, "name": "41a63956a729c3b0f892f19c87f0ac14", "is_disabled": 0, "rental_uris": {"android": "https://dc.lft.to/lastmile_qr_scan", "ios": "https://dc.lft.to/lastmile_qr_scan"}, "fusion_lon": 0.0, "lat": 38.90153683333333, "bike_id": "41a63956a729c3b0f892f19c87f0ac14", "type": "electric_scooter", "is_reserved": 0, "lon": -77.0092835}, {"fusion_lat": 0.0, "name": "32821ca3200813ba8983127f631fdd2d", "is_disabled": 0, "rental_uris": {"android": "https://dc.lft.to/lastmile_qr_scan", "ios": "https://dc.lft.to/lastmile_qr_scan"}, "fusion_lon": 0.0, "lat": 38.918839166666665, "bike_id": "32821ca3200813ba8983127f631fdd2d", "type": "electric_scooter", "is_reserved": 0, "lon": -76.96561983333334}, {"fusion_lat": 0.0, "name": "b415c801693767bae73ed88c600ceee5", "is_disabled": 0, "rental_uris": {"android": "https://dc.lft.to/lastmile_qr_scan", "ios": "https://dc.lft.to/lastmile_qr_scan"}, "fusion_lon": 0.0, "lat": 38.933977, "bike_id": "b415c801693767bae73ed88c600ceee5", "type": "electric_scooter", "is_reserved": 0, "lon": -77.05768716666667}, {"fusion_lat": 0.0, "name": "ef455dcc660302b7595bf5eea7699453", "is_disabled": 0, "rental_uris": {"android": "https://dc.lft.to/lastmile_qr_scan", "ios": "https://dc.lft.to/lastmile_qr_scan"}, "fusion_lon": 0.0, "lat": 38.9286315, "bike_id": "ef455dcc660302b7595bf5eea7699453", "type": "electric_scooter", "is_reserved": 0, "lon": -77.03222466666666}, {"fusion_lat": 0.0, "name": "53337aff63fb489bf1899abe804650b3", "is_disabled": 0, "rental_uris": {"android": "https://dc.lft.to/lastmile_qr_scan", "ios": "https://dc.lft.to/lastmile_qr_scan"}, "fusion_lon": 0.0, "lat": 38.892255166666665, "bike_id": "53337aff63fb489bf1899abe804650b3", "type": "electric_scooter", "is_reserved": 0, "lon": -77.0412665}, {"fusion_lat": 0.0, "name": "6342e2172496684f96172d4034dfef09", "is_disabled": 0, "rental_uris": {"android": "https://dc.lft.to/lastmile_qr_scan", "ios": "https://dc.lft.to/lastmile_qr_scan"}, "fusion_lon": 0.0, "lat": 38.90225183333333, "bike_id": "6342e2172496684f96172d4034dfef09", "type": "electric_scooter", "is_reserved": 0, "lon": -76.9950805}, {"fusion_lat": 0.0, "name": "e9c2bcc6d577f7e9706a82e8fe98cb1f", "is_disabled": 0, "rental_uris": {"android": "https://dc.lft.to/lastmile_qr_scan", "ios": "https://dc.lft.to/lastmile_qr_scan"}, "fusion_lon": 0.0, "lat": 38.904499, "bike_id": "e9c2bcc6d577f7e9706a82e8fe98cb1f", "type": "electric_scooter", "is_reserved": 0, "lon": -76.97428116666667}, {"fusion_lat": 0.0, "name": "1e01394cb1c8562153e6537407e230f1", "is_disabled": 0, "rental_uris": {"android": "https://dc.lft.to/lastmile_qr_scan", "ios": "https://dc.lft.to/lastmile_qr_scan"}, "fusion_lon": 0.0, "lat": 38.9249905, "bike_id": "1e01394cb1c8562153e6537407e230f1", "type": "electric_scooter", "is_reserved": 0, "lon": -77.05109866666666}, {"fusion_lat": 0.0, "name": "83683eff0d55f55d8bd3a17fa0946497", "is_disabled": 0, "rental_uris": {"android": "https://dc.lft.to/lastmile_qr_scan", "ios": "https://dc.lft.to/lastmile_qr_scan"}, "fusion_lon": 0.0, "lat": 38.9156675, "bike_id": "83683eff0d55f55d8bd3a17fa0946497", "type": "electric_scooter", "is_reserved": 0, "lon": -77.03151733333333}, {"fusion_lat": 0.0, "name": "d84f61e39527cda44a6c1ac3804bd162", "is_disabled": 0, "rental_uris": {"android": "https://dc.lft.to/lastmile_qr_scan", "ios": "https://dc.lft.to/lastmile_qr_scan"}, "fusion_lon": 0.0, "lat": 38.938121833333334, "bike_id": "d84f61e39527cda44a6c1ac3804bd162", "type": "electric_scooter", "is_reserved": 0, "lon": -77.06017466666667}, {"fusion_lat": 0.0, "name": "f863e9a1ab6b2e243c8a1abd8934a6dd", "is_disabled": 0, "rental_uris": {"android": "https://dc.lft.to/lastmile_qr_scan", "ios": "https://dc.lft.to/lastmile_qr_scan"}, "fusion_lon": 0.0, "lat": 38.919954, "bike_id": "f863e9a1ab6b2e243c8a1abd8934a6dd", "type": "electric_scooter", "is_reserved": 0, "lon": -77.0719155}, {"fusion_lat": 0.0, "name": "2fcbe89c308674ccdf3330bc4390a33e", "is_disabled": 0, "rental_uris": {"android": "https://dc.lft.to/lastmile_qr_scan", "ios": "https://dc.lft.to/lastmile_qr_scan"}, "fusion_lon": 0.0, "lat": 38.887776333333335, "bike_id": "2fcbe89c308674ccdf3330bc4390a33e", "type": "electric_scooter", "is_reserved": 0, "lon": -77.03299}, {"fusion_lat": 0.0, "name": "69464a8092fe6c3c8ad33b2349165606", "is_disabled": 0, "rental_uris": {"android": "https://dc.lft.to/lastmile_qr_scan", "ios": "https://dc.lft.to/lastmile_qr_scan"}, "fusion_lon": 0.0, "lat": 38.85427683333333, "bike_id": "69464a8092fe6c3c8ad33b2349165606", "type": "electric_bike", "is_reserved": 0, "lon": -77.12083666666666}, {"fusion_lat": 0.0, "name": "5b0aebd20d786dfee34edcbb7f50643d", "is_disabled": 0, "rental_uris": {"android": "https://dc.lft.to/lastmile_qr_scan", "ios": "https://dc.lft.to/lastmile_qr_scan"}, "fusion_lon": 0.0, "lat": 38.87849833333333, "bike_id": "5b0aebd20d786dfee34edcbb7f50643d", "type": "electric_bike", "is_reserved": 0, "lon": -77.03021233333334}, {"fusion_lat": 0.0, "name": "eaa85c99b30a974a81a2d123a9abae1e", "is_disabled": 0, "rental_uris": {"android": "https://dc.lft.to/lastmile_qr_scan", "ios": "https://dc.lft.to/lastmile_qr_scan"}, "fusion_lon": 0.0, "lat": 38.94296933333333, "bike_id": "eaa85c99b30a974a81a2d123a9abae1e", "type": "electric_scooter", "is_reserved": 0, "lon": -77.02167266666666}, {"fusion_lat": 0.0, "name": "d7f056b3c17a2a405fde41b105aebe9e", "is_disabled": 0, "rental_uris": {"android": "https://dc.lft.to/lastmile_qr_scan", "ios": "https://dc.lft.to/lastmile_qr_scan"}, "fusion_lon": 0.0, "lat": 38.900286666666666, "bike_id": "d7f056b3c17a2a405fde41b105aebe9e", "type": "electric_scooter", "is_reserved": 0, "lon": -77.03511233333333}, {"fusion_lat": 0.0, "name": "60d8ab5e8099cd00e105621cba51c8a0", "is_disabled": 0, "rental_uris": {"android": "https://dc.lft.to/lastmile_qr_scan", "ios": "https://dc.lft.to/lastmile_qr_scan"}, "fusion_lon": 0.0, "lat": 38.8830305, "bike_id": "60d8ab5e8099cd00e105621cba51c8a0", "type": "electric_scooter", "is_reserved": 0, "lon": -76.94856616666667}, {"fusion_lat": 0.0, "name": "8268db39b7caaee69087de7e1f26510f", "is_disabled": 0, "rental_uris": {"android": "https://dc.lft.to/lastmile_qr_scan", "ios": "https://dc.lft.to/lastmile_qr_scan"}, "fusion_lon": 0.0, "lat": 38.92415833333333, "bike_id": "8268db39b7caaee69087de7e1f26510f", "type": "electric_scooter", "is_reserved": 0, "lon": -76.99625233333333}, {"fusion_lat": 0.0, "name": "bdf77e968ad77fb6567fec68ffbbd166", "is_disabled": 0, "rental_uris": {"android": "https://dc.lft.to/lastmile_qr_scan", "ios": "https://dc.lft.to/lastmile_qr_scan"}, "fusion_lon": 0.0, "lat": 38.8984265, "bike_id": "bdf77e968ad77fb6567fec68ffbbd166", "type": "electric_scooter", "is_reserved": 0, "lon": -77.01338916666667}, {"fusion_lat": 0.0, "name": "b73786d072d6aada01b618b6f0da0281", "is_disabled": 0, "rental_uris": {"android": "https://dc.lft.to/lastmile_qr_scan", "ios": "https://dc.lft.to/lastmile_qr_scan"}, "fusion_lon": 0.0, "lat": 38.8842625, "bike_id": "b73786d072d6aada01b618b6f0da0281", "type": "electric_scooter", "is_reserved": 0, "lon": -76.9575705}, {"fusion_lat": 0.0, "name": "eee9ed84258abd5855300db438a6311f", "is_disabled": 0, "rental_uris": {"android": "https://dc.lft.to/lastmile_qr_scan", "ios": "https://dc.lft.to/lastmile_qr_scan"}, "fusion_lon": 0.0, "lat": 38.893414, "bike_id": "eee9ed84258abd5855300db438a6311f", "type": "electric_scooter", "is_reserved": 0, "lon": -77.04673866666667}, {"fusion_lat": 0.0, "name": "2590362fe2ba788a076f62c7ced6153e", "is_disabled": 0, "rental_uris": {"android": "https://dc.lft.to/lastmile_qr_scan", "ios": "https://dc.lft.to/lastmile_qr_scan"}, "fusion_lon": 0.0, "lat": 38.916202, "bike_id": "2590362fe2ba788a076f62c7ced6153e", "type": "electric_scooter", "is_reserved": 0, "lon": -77.02296666666666}, {"fusion_lat": 0.0, "name": "96693712c29846e267c63ed4b8bd0a85", "is_disabled": 0, "rental_uris": {"android": "https://dc.lft.to/lastmile_qr_scan", "ios": "https://dc.lft.to/lastmile_qr_scan"}, "fusion_lon": 0.0, "lat": 38.98550983333333, "bike_id": "96693712c29846e267c63ed4b8bd0a85", "type": "electric_bike", "is_reserved": 0, "lon": -77.00404}, {"fusion_lat": 0.0, "name": "fdb3e3e5cdb437b59771a5651f022e4a", "is_disabled": 0, "rental_uris": {"android": "https://dc.lft.to/lastmile_qr_scan", "ios": "https://dc.lft.to/lastmile_qr_scan"}, "fusion_lon": 0.0, "lat": 38.925184333333334, "bike_id": "fdb3e3e5cdb437b59771a5651f022e4a", "type": "electric_scooter", "is_reserved": 0, "lon": -77.022858}, {"fusion_lat": 0.0, "name": "12e872f068402edffa5146f3e5772b68", "is_disabled": 0, "rental_uris": {"android": "https://dc.lft.to/lastmile_qr_scan", "ios": "https://dc.lft.to/lastmile_qr_scan"}, "fusion_lon": 0.0, "lat": 38.907778666666665, "bike_id": "12e872f068402edffa5146f3e5772b68", "type": "electric_scooter", "is_reserved": 0, "lon": -77.0559965}, {"fusion_lat": 0.0, "name": "e95faa340a687a830dab8d5a6270b198", "is_disabled": 0, "rental_uris": {"android": "https://dc.lft.to/lastmile_qr_scan", "ios": "https://dc.lft.to/lastmile_qr_scan"}, "fusion_lon": 0.0, "lat": 38.935793833333335, "bike_id": "e95faa340a687a830dab8d5a6270b198", "type": "electric_scooter", "is_reserved": 0, "lon": -77.02846266666667}, {"fusion_lat": 0.0, "name": "5f63beceec3602166344737f73f8d0b0", "is_disabled": 0, "rental_uris": {"android": "https://dc.lft.to/lastmile_qr_scan", "ios": "https://dc.lft.to/lastmile_qr_scan"}, "fusion_lon": 0.0, "lat": 38.95221083333333, "bike_id": "5f63beceec3602166344737f73f8d0b0", "type": "electric_scooter", "is_reserved": 0, "lon": -77.08215933333334}, {"fusion_lat": 0.0, "name": "0cdf8fd044209db357c4d848ee59132a", "is_disabled": 0, "rental_uris": {"android": "https://dc.lft.to/lastmile_qr_scan", "ios": "https://dc.lft.to/lastmile_qr_scan"}, "fusion_lon": 0.0, "lat": 38.920853666666666, "bike_id": "0cdf8fd044209db357c4d848ee59132a", "type": "electric_scooter", "is_reserved": 0, "lon": -76.99449933333334}, {"fusion_lat": 0.0, "name": "f042c5625d2e85405ea4e2ed3bca26da", "is_disabled": 0, "rental_uris": {"android": "https://dc.lft.to/lastmile_qr_scan", "ios": "https://dc.lft.to/lastmile_qr_scan"}, "fusion_lon": 0.0, "lat": 38.89727883333333, "bike_id": "f042c5625d2e85405ea4e2ed3bca26da", "type": "electric_scooter", "is_reserved": 0, "lon": -77.04635933333333}, {"fusion_lat": 0.0, "name": "a9f6224937ae913f18e8c0e8ccb984d3", "is_disabled": 0, "rental_uris": {"android": "https://dc.lft.to/lastmile_qr_scan", "ios": "https://dc.lft.to/lastmile_qr_scan"}, "fusion_lon": 0.0, "lat": 38.8450795, "bike_id": "a9f6224937ae913f18e8c0e8ccb984d3", "type": "electric_bike", "is_reserved": 0, "lon": -76.99353433333333}, {"fusion_lat": 0.0, "name": "6a4aacb8f1b0dda532536b4d072d0ab4", "is_disabled": 0, "rental_uris": {"android": "https://dc.lft.to/lastmile_qr_scan", "ios": "https://dc.lft.to/lastmile_qr_scan"}, "fusion_lon": 0.0, "lat": 38.923837, "bike_id": "6a4aacb8f1b0dda532536b4d072d0ab4", "type": "electric_scooter", "is_reserved": 0, "lon": -77.07533383333333}, {"fusion_lat": 0.0, "name": "4a87e38cd1eed6c25983a480429aae38", "is_disabled": 0, "rental_uris": {"android": "https://dc.lft.to/lastmile_qr_scan", "ios": "https://dc.lft.to/lastmile_qr_scan"}, "fusion_lon": 0.0, "lat": 38.907257666666666, "bike_id": "4a87e38cd1eed6c25983a480429aae38", "type": "electric_scooter", "is_reserved": 0, "lon": -77.04336733333334}, {"fusion_lat": 0.0, "name": "832c1c25097949634d1623e599b52664", "is_disabled": 0, "rental_uris": {"android": "https://dc.lft.to/lastmile_qr_scan", "ios": "https://dc.lft.to/lastmile_qr_scan"}, "fusion_lon": 0.0, "lat": 38.90422783333333, "bike_id": "832c1c25097949634d1623e599b52664", "type": "electric_scooter", "is_reserved": 0, "lon": -77.02397833333333}, {"fusion_lat": 0.0, "name": "65463d1a8464c60f44a8403e19b096f0", "is_disabled": 0, "rental_uris": {"android": "https://dc.lft.to/lastmile_qr_scan", "ios": "https://dc.lft.to/lastmile_qr_scan"}, "fusion_lon": 0.0, "lat": 38.916979166666664, "bike_id": "65463d1a8464c60f44a8403e19b096f0", "type": "electric_scooter", "is_reserved": 0, "lon": -77.0116525}, {"fusion_lat": 0.0, "name": "0534a5d0aa20e77645e3b95f50026128", "is_disabled": 0, "rental_uris": {"android": "https://dc.lft.to/lastmile_qr_scan", "ios": "https://dc.lft.to/lastmile_qr_scan"}, "fusion_lon": 0.0, "lat": 38.90379033333333, "bike_id": "0534a5d0aa20e77645e3b95f50026128", "type": "electric_scooter", "is_reserved": 0, "lon": -77.032029}, {"fusion_lat": 0.0, "name": "450e5190323e65977b8fd48b5e1b0906", "is_disabled": 0, "rental_uris": {"android": "https://dc.lft.to/lastmile_qr_scan", "ios": "https://dc.lft.to/lastmile_qr_scan"}, "fusion_lon": 0.0, "lat": 38.89726316666667, "bike_id": "450e5190323e65977b8fd48b5e1b0906", "type": "electric_scooter", "is_reserved": 0, "lon": -77.03174383333334}, {"fusion_lat": 0.0, "name": "2cde785c2ac104b93d4d89fad649e826", "is_disabled": 0, "rental_uris": {"android": "https://dc.lft.to/lastmile_qr_scan", "ios": "https://dc.lft.to/lastmile_qr_scan"}, "fusion_lon": 0.0, "lat": 38.93243066666667, "bike_id": "2cde785c2ac104b93d4d89fad649e826", "type": "electric_scooter", "is_reserved": 0, "lon": -77.028371}, {"fusion_lat": 0.0, "name": "0ca29d1fae95a21b02b76efde5882634", "is_disabled": 0, "rental_uris": {"android": "https://dc.lft.to/lastmile_qr_scan", "ios": "https://dc.lft.to/lastmile_qr_scan"}, "fusion_lon": 0.0, "lat": 38.9075185, "bike_id": "0ca29d1fae95a21b02b76efde5882634", "type": "electric_scooter", "is_reserved": 0, "lon": -77.03849716666667}, {"fusion_lat": 0.0, "name": "d6513de4ff49e5e33ee63fbe77b07ae5", "is_disabled": 0, "rental_uris": {"android": "https://dc.lft.to/lastmile_qr_scan", "ios": "https://dc.lft.to/lastmile_qr_scan"}, "fusion_lon": 0.0, "lat": 38.897548666666665, "bike_id": "d6513de4ff49e5e33ee63fbe77b07ae5", "type": "electric_scooter", "is_reserved": 0, "lon": -77.04394683333334}, {"fusion_lat": 0.0, "name": "63d678147a2fcde47c5a85259c3ff8e0", "is_disabled": 0, "rental_uris": {"android": "https://dc.lft.to/lastmile_qr_scan", "ios": "https://dc.lft.to/lastmile_qr_scan"}, "fusion_lon": 0.0, "lat": 38.94155283333333, "bike_id": "63d678147a2fcde47c5a85259c3ff8e0", "type": "electric_bike", "is_reserved": 0, "lon": -77.00196633333333}, {"fusion_lat": 0.0, "name": "bc5d350b8ccb909b9818f31e4d84150a", "is_disabled": 0, "rental_uris": {"android": "https://dc.lft.to/lastmile_qr_scan", "ios": "https://dc.lft.to/lastmile_qr_scan"}, "fusion_lon": 0.0, "lat": 38.917018666666664, "bike_id": "bc5d350b8ccb909b9818f31e4d84150a", "type": "electric_scooter", "is_reserved": 0, "lon": -77.03585383333333}, {"fusion_lat": 0.0, "name": "ad4fc23e3fa027432ea73dc10fe485cf", "is_disabled": 0, "rental_uris": {"android": "https://dc.lft.to/lastmile_qr_scan", "ios": "https://dc.lft.to/lastmile_qr_scan"}, "fusion_lon": 0.0, "lat": 38.87250483333333, "bike_id": "ad4fc23e3fa027432ea73dc10fe485cf", "type": "electric_scooter", "is_reserved": 0, "lon": -76.9772715}, {"fusion_lat": 0.0, "name": "6516c9fdfd8c927556c2df32c5b57c41", "is_disabled": 0, "rental_uris": {"android": "https://dc.lft.to/lastmile_qr_scan", "ios": "https://dc.lft.to/lastmile_qr_scan"}, "fusion_lon": 0.0, "lat": 38.98773116666667, "bike_id": "6516c9fdfd8c927556c2df32c5b57c41", "type": "electric_bike", "is_reserved": 0, "lon": -77.14057416666667}, {"fusion_lat": 0.0, "name": "bddcb3e6679b58541e74fc708edf5b72", "is_disabled": 0, "rental_uris": {"android": "https://dc.lft.to/lastmile_qr_scan", "ios": "https://dc.lft.to/lastmile_qr_scan"}, "fusion_lon": 0.0, "lat": 38.9141495, "bike_id": "bddcb3e6679b58541e74fc708edf5b72", "type": "electric_scooter", "is_reserved": 0, "lon": -77.02211516666667}, {"fusion_lat": 0.0, "name": "2946733dd5ee50ab3e7d291cae80c24f", "is_disabled": 0, "rental_uris": {"android": "https://dc.lft.to/lastmile_qr_scan", "ios": "https://dc.lft.to/lastmile_qr_scan"}, "fusion_lon": 0.0, "lat": 38.90714166666667, "bike_id": "2946733dd5ee50ab3e7d291cae80c24f", "type": "electric_scooter", "is_reserved": 0, "lon": -77.023973}, {"fusion_lat": 0.0, "name": "cc5401751ca78d1153b960053f6ed129", "is_disabled": 0, "rental_uris": {"android": "https://dc.lft.to/lastmile_qr_scan", "ios": "https://dc.lft.to/lastmile_qr_scan"}, "fusion_lon": 0.0, "lat": 38.91054166666667, "bike_id": "cc5401751ca78d1153b960053f6ed129", "type": "electric_scooter", "is_reserved": 0, "lon": -77.05322616666666}, {"fusion_lat": 0.0, "name": "caf19a3a149cbfc317198bbd801f3bac", "is_disabled": 0, "rental_uris": {"android": "https://dc.lft.to/lastmile_qr_scan", "ios": "https://dc.lft.to/lastmile_qr_scan"}, "fusion_lon": 0.0, "lat": 38.904103666666664, "bike_id": "caf19a3a149cbfc317198bbd801f3bac", "type": "electric_scooter", "is_reserved": 0, "lon": -76.9732935}, {"fusion_lat": 0.0, "name": "8b827351d24366a7a4e5c35fc15a7133", "is_disabled": 0, "rental_uris": {"android": "https://dc.lft.to/lastmile_qr_scan", "ios": "https://dc.lft.to/lastmile_qr_scan"}, "fusion_lon": 0.0, "lat": 38.95602183333333, "bike_id": "8b827351d24366a7a4e5c35fc15a7133", "type": "electric_bike", "is_reserved": 0, "lon": -77.01015716666667}, {"fusion_lat": 0.0, "name": "e0f4dda4839ca3c004f96761d43d0103", "is_disabled": 0, "rental_uris": {"android": "https://dc.lft.to/lastmile_qr_scan", "ios": "https://dc.lft.to/lastmile_qr_scan"}, "fusion_lon": 0.0, "lat": 38.920957333333334, "bike_id": "e0f4dda4839ca3c004f96761d43d0103", "type": "electric_scooter", "is_reserved": 0, "lon": -76.99479866666667}, {"fusion_lat": 0.0, "name": "3b152fdb8679131b6283f203d5f01bdd", "is_disabled": 0, "rental_uris": {"android": "https://dc.lft.to/lastmile_qr_scan", "ios": "https://dc.lft.to/lastmile_qr_scan"}, "fusion_lon": 0.0, "lat": 38.890103333333336, "bike_id": "3b152fdb8679131b6283f203d5f01bdd", "type": "electric_scooter", "is_reserved": 0, "lon": -76.93738}, {"fusion_lat": 0.0, "name": "8cedb53180f5e9f53bce93c5ec3ad80d", "is_disabled": 0, "rental_uris": {"android": "https://dc.lft.to/lastmile_qr_scan", "ios": "https://dc.lft.to/lastmile_qr_scan"}, "fusion_lon": 0.0, "lat": 38.898991, "bike_id": "8cedb53180f5e9f53bce93c5ec3ad80d", "type": "electric_bike", "is_reserved": 0, "lon": -77.09622733333333}, {"fusion_lat": 0.0, "name": "c3433ca850ad5ab3d54ba93a5d974919", "is_disabled": 0, "rental_uris": {"android": "https://dc.lft.to/lastmile_qr_scan", "ios": "https://dc.lft.to/lastmile_qr_scan"}, "fusion_lon": 0.0, "lat": 38.99101733333333, "bike_id": "c3433ca850ad5ab3d54ba93a5d974919", "type": "electric_bike", "is_reserved": 0, "lon": -76.993742}, {"fusion_lat": 0.0, "name": "e93d962b26ada87dc984f0b598954dd1", "is_disabled": 0, "rental_uris": {"android": "https://dc.lft.to/lastmile_qr_scan", "ios": "https://dc.lft.to/lastmile_qr_scan"}, "fusion_lon": 0.0, "lat": 38.9289575, "bike_id": "e93d962b26ada87dc984f0b598954dd1", "type": "electric_scooter", "is_reserved": 0, "lon": -77.03255183333333}, {"fusion_lat": 0.0, "name": "a57f0bf3e6dec44b5d150fdbd8218f88", "is_disabled": 0, "rental_uris": {"android": "https://dc.lft.to/lastmile_qr_scan", "ios": "https://dc.lft.to/lastmile_qr_scan"}, "fusion_lon": 0.0, "lat": 38.90042283333333, "bike_id": "a57f0bf3e6dec44b5d150fdbd8218f88", "type": "electric_scooter", "is_reserved": 0, "lon": -77.00199483333333}, {"fusion_lat": 0.0, "name": "9150638c5f564d92d0f926ae42c71cd8", "is_disabled": 0, "rental_uris": {"android": "https://dc.lft.to/lastmile_qr_scan", "ios": "https://dc.lft.to/lastmile_qr_scan"}, "fusion_lon": 0.0, "lat": 38.8971025, "bike_id": "9150638c5f564d92d0f926ae42c71cd8", "type": "electric_scooter", "is_reserved": 0, "lon": -77.0072375}, {"fusion_lat": 0.0, "name": "d9d895a96a6f80e2e6379d19deffbafe", "is_disabled": 0, "rental_uris": {"android": "https://dc.lft.to/lastmile_qr_scan", "ios": "https://dc.lft.to/lastmile_qr_scan"}, "fusion_lon": 0.0, "lat": 38.846132, "bike_id": "d9d895a96a6f80e2e6379d19deffbafe", "type": "electric_bike", "is_reserved": 0, "lon": -76.96909983333333}, {"fusion_lat": 0.0, "name": "34b2e8c8c31b455abc50a95e6a05683d", "is_disabled": 0, "rental_uris": {"android": "https://dc.lft.to/lastmile_qr_scan", "ios": "https://dc.lft.to/lastmile_qr_scan"}, "fusion_lon": 0.0, "lat": 38.89617833333333, "bike_id": "34b2e8c8c31b455abc50a95e6a05683d", "type": "electric_bike", "is_reserved": 0, "lon": -76.90742133333333}, {"fusion_lat": 0.0, "name": "072c6f908e5f678da5734aa4f27f19a6", "is_disabled": 0, "rental_uris": {"android": "https://dc.lft.to/lastmile_qr_scan", "ios": "https://dc.lft.to/lastmile_qr_scan"}, "fusion_lon": 0.0, "lat": 38.95897133333333, "bike_id": "072c6f908e5f678da5734aa4f27f19a6", "type": "electric_bike", "is_reserved": 0, "lon": -76.9247535}, {"fusion_lat": 0.0, "name": "e56b1be7b396537817237a445fc540ef", "is_disabled": 0, "rental_uris": {"android": "https://dc.lft.to/lastmile_qr_scan", "ios": "https://dc.lft.to/lastmile_qr_scan"}, "fusion_lon": 0.0, "lat": 38.92861166666667, "bike_id": "e56b1be7b396537817237a445fc540ef", "type": "electric_scooter", "is_reserved": 0, "lon": -77.0562595}, {"fusion_lat": 0.0, "name": "5d7387ca796a976a2e2e320818a4d095", "is_disabled": 0, "rental_uris": {"android": "https://dc.lft.to/lastmile_qr_scan", "ios": "https://dc.lft.to/lastmile_qr_scan"}, "fusion_lon": 0.0, "lat": 38.91749816666667, "bike_id": "5d7387ca796a976a2e2e320818a4d095", "type": "electric_scooter", "is_reserved": 0, "lon": -77.02286333333333}, {"fusion_lat": 0.0, "name": "b7a16c6d3bf6bb5eee54b95361f1dde8", "is_disabled": 0, "rental_uris": {"android": "https://dc.lft.to/lastmile_qr_scan", "ios": "https://dc.lft.to/lastmile_qr_scan"}, "fusion_lon": 0.0, "lat": 38.94834616666667, "bike_id": "b7a16c6d3bf6bb5eee54b95361f1dde8", "type": "electric_scooter", "is_reserved": 0, "lon": -77.08001633333333}, {"fusion_lat": 0.0, "name": "c4cb166fc1901e5ba5abe73b8a175e2d", "is_disabled": 0, "rental_uris": {"android": "https://dc.lft.to/lastmile_qr_scan", "ios": "https://dc.lft.to/lastmile_qr_scan"}, "fusion_lon": 0.0, "lat": 38.946227666666665, "bike_id": "c4cb166fc1901e5ba5abe73b8a175e2d", "type": "electric_scooter", "is_reserved": 0, "lon": -77.08017216666667}, {"fusion_lat": 0.0, "name": "630a54493fab3e334a8ab664f32c9758", "is_disabled": 0, "rental_uris": {"android": "https://dc.lft.to/lastmile_qr_scan", "ios": "https://dc.lft.to/lastmile_qr_scan"}, "fusion_lon": 0.0, "lat": 38.9267955, "bike_id": "630a54493fab3e334a8ab664f32c9758", "type": "electric_scooter", "is_reserved": 0, "lon": -77.03634583333333}, {"fusion_lat": 0.0, "name": "e8ba2a2ec47fa624166c1f49550628fe", "is_disabled": 0, "rental_uris": {"android": "https://dc.lft.to/lastmile_qr_scan", "ios": "https://dc.lft.to/lastmile_qr_scan"}, "fusion_lon": 0.0, "lat": 38.922777833333335, "bike_id": "e8ba2a2ec47fa624166c1f49550628fe", "type": "electric_scooter", "is_reserved": 0, "lon": -77.02967683333334}, {"fusion_lat": 0.0, "name": "43bd5952b903e898f341e37d5ee0eb4a", "is_disabled": 0, "rental_uris": {"android": "https://dc.lft.to/lastmile_qr_scan", "ios": "https://dc.lft.to/lastmile_qr_scan"}, "fusion_lon": 0.0, "lat": 38.91623833333333, "bike_id": "43bd5952b903e898f341e37d5ee0eb4a", "type": "electric_scooter", "is_reserved": 0, "lon": -77.03174616666666}, {"fusion_lat": 0.0, "name": "534197b114af4d1d6922de3c2e3033a1", "is_disabled": 0, "rental_uris": {"android": "https://dc.lft.to/lastmile_qr_scan", "ios": "https://dc.lft.to/lastmile_qr_scan"}, "fusion_lon": 0.0, "lat": 38.874946333333334, "bike_id": "534197b114af4d1d6922de3c2e3033a1", "type": "electric_bike", "is_reserved": 0, "lon": -77.21123016666667}, {"fusion_lat": 0.0, "name": "bfad6e183d88ece3ddb410c74db8bdd2", "is_disabled": 0, "rental_uris": {"android": "https://dc.lft.to/lastmile_qr_scan", "ios": "https://dc.lft.to/lastmile_qr_scan"}, "fusion_lon": 0.0, "lat": 38.896847, "bike_id": "bfad6e183d88ece3ddb410c74db8bdd2", "type": "electric_scooter", "is_reserved": 0, "lon": -77.04332533333333}, {"fusion_lat": 0.0, "name": "685d3d73fb84450f2addc6ef706fdea1", "is_disabled": 0, "rental_uris": {"android": "https://dc.lft.to/lastmile_qr_scan", "ios": "https://dc.lft.to/lastmile_qr_scan"}, "fusion_lon": 0.0, "lat": 38.890034, "bike_id": "685d3d73fb84450f2addc6ef706fdea1", "type": "electric_scooter", "is_reserved": 0, "lon": -76.93743733333334}, {"fusion_lat": 0.0, "name": "b803b70c6f10806252514b5d631f0e69", "is_disabled": 0, "rental_uris": {"android": "https://dc.lft.to/lastmile_qr_scan", "ios": "https://dc.lft.to/lastmile_qr_scan"}, "fusion_lon": 0.0, "lat": 38.9619275, "bike_id": "b803b70c6f10806252514b5d631f0e69", "type": "electric_bike", "is_reserved": 0, "lon": -77.05268266666667}, {"fusion_lat": 0.0, "name": "e96d9a7c5db47a6b41c79e7f096f63a9", "is_disabled": 0, "rental_uris": {"android": "https://dc.lft.to/lastmile_qr_scan", "ios": "https://dc.lft.to/lastmile_qr_scan"}, "fusion_lon": 0.0, "lat": 38.8777025, "bike_id": "e96d9a7c5db47a6b41c79e7f096f63a9", "type": "electric_scooter", "is_reserved": 0, "lon": -77.00263966666667}, {"fusion_lat": 0.0, "name": "3251d9fca8197c37dd1c1a5419b1b951", "is_disabled": 0, "rental_uris": {"android": "https://dc.lft.to/lastmile_qr_scan", "ios": "https://dc.lft.to/lastmile_qr_scan"}, "fusion_lon": 0.0, "lat": 38.9228805, "bike_id": "3251d9fca8197c37dd1c1a5419b1b951", "type": "electric_scooter", "is_reserved": 0, "lon": -77.0199615}, {"fusion_lat": 0.0, "name": "c0d7914cb4885873e51a744cce2d74ee", "is_disabled": 0, "rental_uris": {"android": "https://dc.lft.to/lastmile_qr_scan", "ios": "https://dc.lft.to/lastmile_qr_scan"}, "fusion_lon": 0.0, "lat": 38.941604833333336, "bike_id": "c0d7914cb4885873e51a744cce2d74ee", "type": "electric_scooter", "is_reserved": 0, "lon": -77.02628066666666}, {"fusion_lat": 0.0, "name": "ad0dfd72f0f2fa5f26ce000f2e26e279", "is_disabled": 0, "rental_uris": {"android": "https://dc.lft.to/lastmile_qr_scan", "ios": "https://dc.lft.to/lastmile_qr_scan"}, "fusion_lon": 0.0, "lat": 38.918248166666665, "bike_id": "ad0dfd72f0f2fa5f26ce000f2e26e279", "type": "electric_scooter", "is_reserved": 0, "lon": -77.03643233333334}, {"fusion_lat": 0.0, "name": "11fa0b7e7fc846215ac5b2dfc97b80d4", "is_disabled": 0, "rental_uris": {"android": "https://dc.lft.to/lastmile_qr_scan", "ios": "https://dc.lft.to/lastmile_qr_scan"}, "fusion_lon": 0.0, "lat": 38.902733833333336, "bike_id": "11fa0b7e7fc846215ac5b2dfc97b80d4", "type": "electric_scooter", "is_reserved": 0, "lon": -77.039443}, {"fusion_lat": 0.0, "name": "44aac9fa40dbf0525d4a473ef10b0d8f", "is_disabled": 0, "rental_uris": {"android": "https://dc.lft.to/lastmile_qr_scan", "ios": "https://dc.lft.to/lastmile_qr_scan"}, "fusion_lon": 0.0, "lat": 38.96206166666666, "bike_id": "44aac9fa40dbf0525d4a473ef10b0d8f", "type": "electric_scooter", "is_reserved": 0, "lon": -77.02230266666666}, {"fusion_lat": 0.0, "name": "ca39b95bae8dbfbc16d33533e49cc7ef", "is_disabled": 0, "rental_uris": {"android": "https://dc.lft.to/lastmile_qr_scan", "ios": "https://dc.lft.to/lastmile_qr_scan"}, "fusion_lon": 0.0, "lat": 38.997809833333335, "bike_id": "ca39b95bae8dbfbc16d33533e49cc7ef", "type": "electric_bike", "is_reserved": 0, "lon": -77.04715883333333}, {"fusion_lat": 0.0, "name": "fa1208932b31f89256563a9a221aaef2", "is_disabled": 0, "rental_uris": {"android": "https://dc.lft.to/lastmile_qr_scan", "ios": "https://dc.lft.to/lastmile_qr_scan"}, "fusion_lon": 0.0, "lat": 38.884091, "bike_id": "fa1208932b31f89256563a9a221aaef2", "type": "electric_scooter", "is_reserved": 0, "lon": -77.02189666666666}, {"fusion_lat": 0.0, "name": "fd9bf17e4661b06b52950a9b61275acf", "is_disabled": 0, "rental_uris": {"android": "https://dc.lft.to/lastmile_qr_scan", "ios": "https://dc.lft.to/lastmile_qr_scan"}, "fusion_lon": 0.0, "lat": 38.89242216666667, "bike_id": "fd9bf17e4661b06b52950a9b61275acf", "type": "electric_scooter", "is_reserved": 0, "lon": -77.02207616666666}, {"fusion_lat": 0.0, "name": "93c521e875ce8db556c6e3839fcd5f07", "is_disabled": 0, "rental_uris": {"android": "https://dc.lft.to/lastmile_qr_scan", "ios": "https://dc.lft.to/lastmile_qr_scan"}, "fusion_lon": 0.0, "lat": 38.9031095, "bike_id": "93c521e875ce8db556c6e3839fcd5f07", "type": "electric_bike", "is_reserved": 0, "lon": -76.97652016666666}, {"fusion_lat": 0.0, "name": "5cbae3308f043eabacaae66c7d739548", "is_disabled": 0, "rental_uris": {"android": "https://dc.lft.to/lastmile_qr_scan", "ios": "https://dc.lft.to/lastmile_qr_scan"}, "fusion_lon": 0.0, "lat": 38.92417233333333, "bike_id": "5cbae3308f043eabacaae66c7d739548", "type": "electric_scooter", "is_reserved": 0, "lon": -77.02074533333334}, {"fusion_lat": 0.0, "name": "0be2add54e7bbb350bcfcd7e9a851b1a", "is_disabled": 0, "rental_uris": {"android": "https://dc.lft.to/lastmile_qr_scan", "ios": "https://dc.lft.to/lastmile_qr_scan"}, "fusion_lon": 0.0, "lat": 38.93397183333333, "bike_id": "0be2add54e7bbb350bcfcd7e9a851b1a", "type": "electric_scooter", "is_reserved": 0, "lon": -77.05744866666667}, {"fusion_lat": 0.0, "name": "094d50e37a1c34994f48f2acd7e7848d", "is_disabled": 0, "rental_uris": {"android": "https://dc.lft.to/lastmile_qr_scan", "ios": "https://dc.lft.to/lastmile_qr_scan"}, "fusion_lon": 0.0, "lat": 38.90589816666667, "bike_id": "094d50e37a1c34994f48f2acd7e7848d", "type": "electric_scooter", "is_reserved": 0, "lon": -77.03869516666667}, {"fusion_lat": 0.0, "name": "3eae04d0647173ee2b2525d432d1babc", "is_disabled": 0, "rental_uris": {"android": "https://dc.lft.to/lastmile_qr_scan", "ios": "https://dc.lft.to/lastmile_qr_scan"}, "fusion_lon": 0.0, "lat": 38.938616, "bike_id": "3eae04d0647173ee2b2525d432d1babc", "type": "electric_scooter", "is_reserved": 0, "lon": -77.023265}, {"fusion_lat": 0.0, "name": "04a3bb53211a17c8007b19bd939005c8", "is_disabled": 0, "rental_uris": {"android": "https://dc.lft.to/lastmile_qr_scan", "ios": "https://dc.lft.to/lastmile_qr_scan"}, "fusion_lon": 0.0, "lat": 38.89621533333333, "bike_id": "04a3bb53211a17c8007b19bd939005c8", "type": "electric_scooter", "is_reserved": 0, "lon": -77.0316205}, {"fusion_lat": 0.0, "name": "6c9c20c2d886315bc4ba1f2678aebe36", "is_disabled": 0, "rental_uris": {"android": "https://dc.lft.to/lastmile_qr_scan", "ios": "https://dc.lft.to/lastmile_qr_scan"}, "fusion_lon": 0.0, "lat": 38.90288983333333, "bike_id": "6c9c20c2d886315bc4ba1f2678aebe36", "type": "electric_scooter", "is_reserved": 0, "lon": -76.97635533333333}, {"fusion_lat": 0.0, "name": "6158610b82b5613feca2c070e516f529", "is_disabled": 0, "rental_uris": {"android": "https://dc.lft.to/lastmile_qr_scan", "ios": "https://dc.lft.to/lastmile_qr_scan"}, "fusion_lon": 0.0, "lat": 38.931773166666666, "bike_id": "6158610b82b5613feca2c070e516f529", "type": "electric_scooter", "is_reserved": 0, "lon": -77.0379815}, {"fusion_lat": 0.0, "name": "f8958eab51b0942038d67508f6bf97f4", "is_disabled": 0, "rental_uris": {"android": "https://dc.lft.to/lastmile_qr_scan", "ios": "https://dc.lft.to/lastmile_qr_scan"}, "fusion_lon": 0.0, "lat": 38.93863183333333, "bike_id": "f8958eab51b0942038d67508f6bf97f4", "type": "electric_scooter", "is_reserved": 0, "lon": -77.02647466666667}, {"fusion_lat": 0.0, "name": "8fb28e8616d22edd01fe6c94697536df", "is_disabled": 0, "rental_uris": {"android": "https://dc.lft.to/lastmile_qr_scan", "ios": "https://dc.lft.to/lastmile_qr_scan"}, "fusion_lon": 0.0, "lat": 38.92477916666667, "bike_id": "8fb28e8616d22edd01fe6c94697536df", "type": "electric_scooter", "is_reserved": 0, "lon": -77.022713}, {"fusion_lat": 0.0, "name": "b62ab47e6906dac53ba91af995e2afd0", "is_disabled": 0, "rental_uris": {"android": "https://dc.lft.to/lastmile_qr_scan", "ios": "https://dc.lft.to/lastmile_qr_scan"}, "fusion_lon": 0.0, "lat": 38.923373, "bike_id": "b62ab47e6906dac53ba91af995e2afd0", "type": "electric_scooter", "is_reserved": 0, "lon": -77.035177}, {"fusion_lat": 0.0, "name": "c89af470d6e81f57c8c1c723b3826bca", "is_disabled": 0, "rental_uris": {"android": "https://dc.lft.to/lastmile_qr_scan", "ios": "https://dc.lft.to/lastmile_qr_scan"}, "fusion_lon": 0.0, "lat": 38.877016, "bike_id": "c89af470d6e81f57c8c1c723b3826bca", "type": "electric_scooter", "is_reserved": 0, "lon": -77.00412233333333}, {"fusion_lat": 0.0, "name": "142f5febf457ca252a42fe1e97ba9acc", "is_disabled": 0, "rental_uris": {"android": "https://dc.lft.to/lastmile_qr_scan", "ios": "https://dc.lft.to/lastmile_qr_scan"}, "fusion_lon": 0.0, "lat": 38.966818833333335, "bike_id": "142f5febf457ca252a42fe1e97ba9acc", "type": "electric_bike", "is_reserved": 0, "lon": -77.023029}, {"fusion_lat": 0.0, "name": "f8ed7c447d3001f79ca274d3cc15b197", "is_disabled": 0, "rental_uris": {"android": "https://dc.lft.to/lastmile_qr_scan", "ios": "https://dc.lft.to/lastmile_qr_scan"}, "fusion_lon": 0.0, "lat": 38.832094833333336, "bike_id": "f8ed7c447d3001f79ca274d3cc15b197", "type": "electric_bike", "is_reserved": 0, "lon": -76.99673466666667}, {"fusion_lat": 0.0, "name": "dbd120ef973c8744b75e7aeea53519b6", "is_disabled": 0, "rental_uris": {"android": "https://dc.lft.to/lastmile_qr_scan", "ios": "https://dc.lft.to/lastmile_qr_scan"}, "fusion_lon": 0.0, "lat": 38.91436383333333, "bike_id": "dbd120ef973c8744b75e7aeea53519b6", "type": "electric_scooter", "is_reserved": 0, "lon": -76.993549}, {"fusion_lat": 0.0, "name": "0f393694f983afbb018973d8efa20c47", "is_disabled": 0, "rental_uris": {"android": "https://dc.lft.to/lastmile_qr_scan", "ios": "https://dc.lft.to/lastmile_qr_scan"}, "fusion_lon": 0.0, "lat": 38.9024285, "bike_id": "0f393694f983afbb018973d8efa20c47", "type": "electric_scooter", "is_reserved": 0, "lon": -77.02691883333334}, {"fusion_lat": 0.0, "name": "37c6ebb49c92e34adf7fada37faa8098", "is_disabled": 0, "rental_uris": {"android": "https://dc.lft.to/lastmile_qr_scan", "ios": "https://dc.lft.to/lastmile_qr_scan"}, "fusion_lon": 0.0, "lat": 38.90736366666667, "bike_id": "37c6ebb49c92e34adf7fada37faa8098", "type": "electric_scooter", "is_reserved": 0, "lon": -77.03447133333333}, {"fusion_lat": 0.0, "name": "5ad1165d18a591b7586ec0a5ed49efe2", "is_disabled": 0, "rental_uris": {"android": "https://dc.lft.to/lastmile_qr_scan", "ios": "https://dc.lft.to/lastmile_qr_scan"}, "fusion_lon": 0.0, "lat": 38.918854833333334, "bike_id": "5ad1165d18a591b7586ec0a5ed49efe2", "type": "electric_scooter", "is_reserved": 0, "lon": -76.9656}, {"fusion_lat": 0.0, "name": "68950de37c72267cfb36ecef74046f29", "is_disabled": 0, "rental_uris": {"android": "https://dc.lft.to/lastmile_qr_scan", "ios": "https://dc.lft.to/lastmile_qr_scan"}, "fusion_lon": 0.0, "lat": 38.9225195, "bike_id": "68950de37c72267cfb36ecef74046f29", "type": "electric_scooter", "is_reserved": 0, "lon": -77.00912283333334}, {"fusion_lat": 0.0, "name": "c522e0e4e739f4602c045a81e5757780", "is_disabled": 0, "rental_uris": {"android": "https://dc.lft.to/lastmile_qr_scan", "ios": "https://dc.lft.to/lastmile_qr_scan"}, "fusion_lon": 0.0, "lat": 38.92963366666667, "bike_id": "c522e0e4e739f4602c045a81e5757780", "type": "electric_scooter", "is_reserved": 0, "lon": -76.99172033333333}, {"fusion_lat": 0.0, "name": "cd2f0fce4b592db9ed5e3571b9f71144", "is_disabled": 0, "rental_uris": {"android": "https://dc.lft.to/lastmile_qr_scan", "ios": "https://dc.lft.to/lastmile_qr_scan"}, "fusion_lon": 0.0, "lat": 38.91121966666667, "bike_id": "cd2f0fce4b592db9ed5e3571b9f71144", "type": "electric_scooter", "is_reserved": 0, "lon": -77.03834283333333}, {"fusion_lat": 0.0, "name": "397103f7e2a6590a64345a10bf3be4c5", "is_disabled": 0, "rental_uris": {"android": "https://dc.lft.to/lastmile_qr_scan", "ios": "https://dc.lft.to/lastmile_qr_scan"}, "fusion_lon": 0.0, "lat": 38.9076785, "bike_id": "397103f7e2a6590a64345a10bf3be4c5", "type": "electric_scooter", "is_reserved": 0, "lon": -77.03839783333333}, {"fusion_lat": 0.0, "name": "bca10c32a576f4a3ca6b4eaa9e9b5ea6", "is_disabled": 0, "rental_uris": {"android": "https://dc.lft.to/lastmile_qr_scan", "ios": "https://dc.lft.to/lastmile_qr_scan"}, "fusion_lon": 0.0, "lat": 38.9038325, "bike_id": "bca10c32a576f4a3ca6b4eaa9e9b5ea6", "type": "electric_scooter", "is_reserved": 0, "lon": -77.05341766666666}, {"fusion_lat": 0.0, "name": "39bdbac2ea99db980f76e31614bb615c", "is_disabled": 0, "rental_uris": {"android": "https://dc.lft.to/lastmile_qr_scan", "ios": "https://dc.lft.to/lastmile_qr_scan"}, "fusion_lon": 0.0, "lat": 38.9002015, "bike_id": "39bdbac2ea99db980f76e31614bb615c", "type": "electric_scooter", "is_reserved": 0, "lon": -77.01976266666667}, {"fusion_lat": 0.0, "name": "9b06996fefb7daf599d7c1b96c8ef928", "is_disabled": 0, "rental_uris": {"android": "https://dc.lft.to/lastmile_qr_scan", "ios": "https://dc.lft.to/lastmile_qr_scan"}, "fusion_lon": 0.0, "lat": 38.915279, "bike_id": "9b06996fefb7daf599d7c1b96c8ef928", "type": "electric_scooter", "is_reserved": 0, "lon": -76.98385433333334}, {"fusion_lat": 0.0, "name": "1d2c2c5157dd84228d90bd03b37997d8", "is_disabled": 0, "rental_uris": {"android": "https://dc.lft.to/lastmile_qr_scan", "ios": "https://dc.lft.to/lastmile_qr_scan"}, "fusion_lon": 0.0, "lat": 38.90034883333333, "bike_id": "1d2c2c5157dd84228d90bd03b37997d8", "type": "electric_bike", "is_reserved": 0, "lon": -76.97222683333334}, {"fusion_lat": 0.0, "name": "61500c3a0494961ae885ae45ce537201", "is_disabled": 0, "rental_uris": {"android": "https://dc.lft.to/lastmile_qr_scan", "ios": "https://dc.lft.to/lastmile_qr_scan"}, "fusion_lon": 0.0, "lat": 38.90524633333333, "bike_id": "61500c3a0494961ae885ae45ce537201", "type": "electric_scooter", "is_reserved": 0, "lon": -77.029474}, {"fusion_lat": 0.0, "name": "8f6ba54ab04fd4a1bdb85a008089b1f7", "is_disabled": 0, "rental_uris": {"android": "https://dc.lft.to/lastmile_qr_scan", "ios": "https://dc.lft.to/lastmile_qr_scan"}, "fusion_lon": 0.0, "lat": 38.897391999999996, "bike_id": "8f6ba54ab04fd4a1bdb85a008089b1f7", "type": "electric_scooter", "is_reserved": 0, "lon": -77.0463265}, {"fusion_lat": 0.0, "name": "e92278ddd53c0b9b326fecd7d629d551", "is_disabled": 0, "rental_uris": {"android": "https://dc.lft.to/lastmile_qr_scan", "ios": "https://dc.lft.to/lastmile_qr_scan"}, "fusion_lon": 0.0, "lat": 38.9136375, "bike_id": "e92278ddd53c0b9b326fecd7d629d551", "type": "electric_scooter", "is_reserved": 0, "lon": -77.04874616666666}, {"fusion_lat": 0.0, "name": "3bf36ffa22d95b774054950e0828f789", "is_disabled": 0, "rental_uris": {"android": "https://dc.lft.to/lastmile_qr_scan", "ios": "https://dc.lft.to/lastmile_qr_scan"}, "fusion_lon": 0.0, "lat": 38.9338695, "bike_id": "3bf36ffa22d95b774054950e0828f789", "type": "electric_scooter", "is_reserved": 0, "lon": -77.026755}, {"fusion_lat": 0.0, "name": "9261679123d3d4149895db2bd795e466", "is_disabled": 0, "rental_uris": {"android": "https://dc.lft.to/lastmile_qr_scan", "ios": "https://dc.lft.to/lastmile_qr_scan"}, "fusion_lon": 0.0, "lat": 38.9197525, "bike_id": "9261679123d3d4149895db2bd795e466", "type": "electric_scooter", "is_reserved": 0, "lon": -77.02503066666667}, {"fusion_lat": 0.0, "name": "f4ff5c357d4a3b03d46a85bee1d69606", "is_disabled": 0, "rental_uris": {"android": "https://dc.lft.to/lastmile_qr_scan", "ios": "https://dc.lft.to/lastmile_qr_scan"}, "fusion_lon": 0.0, "lat": 38.898637, "bike_id": "f4ff5c357d4a3b03d46a85bee1d69606", "type": "electric_scooter", "is_reserved": 0, "lon": -76.94640783333334}, {"fusion_lat": 0.0, "name": "9d69065fc4a7f8eed058ddc35f3cc298", "is_disabled": 0, "rental_uris": {"android": "https://dc.lft.to/lastmile_qr_scan", "ios": "https://dc.lft.to/lastmile_qr_scan"}, "fusion_lon": 0.0, "lat": 38.91717, "bike_id": "9d69065fc4a7f8eed058ddc35f3cc298", "type": "electric_scooter", "is_reserved": 0, "lon": -77.02752266666667}, {"fusion_lat": 0.0, "name": "4192b8b825d14b0e7843b8cf00fc969a", "is_disabled": 0, "rental_uris": {"android": "https://dc.lft.to/lastmile_qr_scan", "ios": "https://dc.lft.to/lastmile_qr_scan"}, "fusion_lon": 0.0, "lat": 38.89005083333333, "bike_id": "4192b8b825d14b0e7843b8cf00fc969a", "type": "electric_scooter", "is_reserved": 0, "lon": -76.93742766666666}, {"fusion_lat": 0.0, "name": "b08c737f904902d67ce4c8dbeafe3ee6", "is_disabled": 0, "rental_uris": {"android": "https://dc.lft.to/lastmile_qr_scan", "ios": "https://dc.lft.to/lastmile_qr_scan"}, "fusion_lon": 0.0, "lat": 38.912576, "bike_id": "b08c737f904902d67ce4c8dbeafe3ee6", "type": "electric_scooter", "is_reserved": 0, "lon": -77.049214}, {"fusion_lat": 0.0, "name": "060726f7d67b73102099ec6074839468", "is_disabled": 0, "rental_uris": {"android": "https://dc.lft.to/lastmile_qr_scan", "ios": "https://dc.lft.to/lastmile_qr_scan"}, "fusion_lon": 0.0, "lat": 39.056353666666666, "bike_id": "060726f7d67b73102099ec6074839468", "type": "electric_bike", "is_reserved": 0, "lon": -77.12527916666667}, {"fusion_lat": 0.0, "name": "e2b5f7c4011c71153c94c0fc0b5dbb03", "is_disabled": 0, "rental_uris": {"android": "https://dc.lft.to/lastmile_qr_scan", "ios": "https://dc.lft.to/lastmile_qr_scan"}, "fusion_lon": 0.0, "lat": 38.918944833333335, "bike_id": "e2b5f7c4011c71153c94c0fc0b5dbb03", "type": "electric_scooter", "is_reserved": 0, "lon": -76.9655405}, {"fusion_lat": 0.0, "name": "246d4a141d0638499c0139c94969f48b", "is_disabled": 0, "rental_uris": {"android": "https://dc.lft.to/lastmile_qr_scan", "ios": "https://dc.lft.to/lastmile_qr_scan"}, "fusion_lon": 0.0, "lat": 38.91030383333333, "bike_id": "246d4a141d0638499c0139c94969f48b", "type": "electric_scooter", "is_reserved": 0, "lon": -77.01511216666667}, {"fusion_lat": 0.0, "name": "5bc568702ce3b6c944e7796a07588b64", "is_disabled": 0, "rental_uris": {"android": "https://dc.lft.to/lastmile_qr_scan", "ios": "https://dc.lft.to/lastmile_qr_scan"}, "fusion_lon": 0.0, "lat": 38.89859516666667, "bike_id": "5bc568702ce3b6c944e7796a07588b64", "type": "electric_scooter", "is_reserved": 0, "lon": -77.02829833333334}, {"fusion_lat": 0.0, "name": "28d1e81138c79ba493b7dd5b885e727c", "is_disabled": 0, "rental_uris": {"android": "https://dc.lft.to/lastmile_qr_scan", "ios": "https://dc.lft.to/lastmile_qr_scan"}, "fusion_lon": 0.0, "lat": 38.923936166666664, "bike_id": "28d1e81138c79ba493b7dd5b885e727c", "type": "electric_scooter", "is_reserved": 0, "lon": -77.02412683333333}, {"fusion_lat": 0.0, "name": "c8ae8c5220cd2662bd50817099c95b1f", "is_disabled": 0, "rental_uris": {"android": "https://dc.lft.to/lastmile_qr_scan", "ios": "https://dc.lft.to/lastmile_qr_scan"}, "fusion_lon": 0.0, "lat": 38.904676, "bike_id": "c8ae8c5220cd2662bd50817099c95b1f", "type": "electric_scooter", "is_reserved": 0, "lon": -77.033775}, {"fusion_lat": 0.0, "name": "9df808bcf89f25b04fff11ea87fa4d07", "is_disabled": 0, "rental_uris": {"android": "https://dc.lft.to/lastmile_qr_scan", "ios": "https://dc.lft.to/lastmile_qr_scan"}, "fusion_lon": 0.0, "lat": 38.9326935, "bike_id": "9df808bcf89f25b04fff11ea87fa4d07", "type": "electric_scooter", "is_reserved": 0, "lon": -77.02097616666667}, {"fusion_lat": 0.0, "name": "c53ef2eaf637847a4c6cdae34301e26a", "is_disabled": 0, "rental_uris": {"android": "https://dc.lft.to/lastmile_qr_scan", "ios": "https://dc.lft.to/lastmile_qr_scan"}, "fusion_lon": 0.0, "lat": 38.91714666666667, "bike_id": "c53ef2eaf637847a4c6cdae34301e26a", "type": "electric_scooter", "is_reserved": 0, "lon": -77.03662416666667}, {"fusion_lat": 0.0, "name": "c5db706e140edb286c770187b1fa2b4e", "is_disabled": 0, "rental_uris": {"android": "https://dc.lft.to/lastmile_qr_scan", "ios": "https://dc.lft.to/lastmile_qr_scan"}, "fusion_lon": 0.0, "lat": 38.884289833333334, "bike_id": "c5db706e140edb286c770187b1fa2b4e", "type": "electric_scooter", "is_reserved": 0, "lon": -77.025674}, {"fusion_lat": 0.0, "name": "dab32601672a4d10ba8f519f1f553af0", "is_disabled": 0, "rental_uris": {"android": "https://dc.lft.to/lastmile_qr_scan", "ios": "https://dc.lft.to/lastmile_qr_scan"}, "fusion_lon": 0.0, "lat": 38.9052155, "bike_id": "dab32601672a4d10ba8f519f1f553af0", "type": "electric_scooter", "is_reserved": 0, "lon": -77.06877066666667}, {"fusion_lat": 0.0, "name": "35ac41f438b751745dc592c708253826", "is_disabled": 0, "rental_uris": {"android": "https://dc.lft.to/lastmile_qr_scan", "ios": "https://dc.lft.to/lastmile_qr_scan"}, "fusion_lon": 0.0, "lat": 38.9136095, "bike_id": "35ac41f438b751745dc592c708253826", "type": "electric_scooter", "is_reserved": 0, "lon": -77.0457325}, {"fusion_lat": 0.0, "name": "209184f52124ff39b616dff40ea7e461", "is_disabled": 0, "rental_uris": {"android": "https://dc.lft.to/lastmile_qr_scan", "ios": "https://dc.lft.to/lastmile_qr_scan"}, "fusion_lon": 0.0, "lat": 38.923989166666665, "bike_id": "209184f52124ff39b616dff40ea7e461", "type": "electric_scooter", "is_reserved": 0, "lon": -77.03659283333333}, {"fusion_lat": 0.0, "name": "242274fa32012445c06fafd43771e17d", "is_disabled": 0, "rental_uris": {"android": "https://dc.lft.to/lastmile_qr_scan", "ios": "https://dc.lft.to/lastmile_qr_scan"}, "fusion_lon": 0.0, "lat": 38.902791666666666, "bike_id": "242274fa32012445c06fafd43771e17d", "type": "electric_scooter", "is_reserved": 0, "lon": -77.039376}, {"fusion_lat": 0.0, "name": "badb64f44e15ca444b696543c4a4c988", "is_disabled": 0, "rental_uris": {"android": "https://dc.lft.to/lastmile_qr_scan", "ios": "https://dc.lft.to/lastmile_qr_scan"}, "fusion_lon": 0.0, "lat": 38.91189983333334, "bike_id": "badb64f44e15ca444b696543c4a4c988", "type": "electric_scooter", "is_reserved": 0, "lon": -77.042418}, {"fusion_lat": 0.0, "name": "84fe4390f55360a1967273c105efdca1", "is_disabled": 0, "rental_uris": {"android": "https://dc.lft.to/lastmile_qr_scan", "ios": "https://dc.lft.to/lastmile_qr_scan"}, "fusion_lon": 0.0, "lat": 38.87682216666666, "bike_id": "84fe4390f55360a1967273c105efdca1", "type": "electric_scooter", "is_reserved": 0, "lon": -77.00752533333333}, {"fusion_lat": 0.0, "name": "7a60065ab62eaf58912769fbc0d73b8a", "is_disabled": 0, "rental_uris": {"android": "https://dc.lft.to/lastmile_qr_scan", "ios": "https://dc.lft.to/lastmile_qr_scan"}, "fusion_lon": 0.0, "lat": 38.9130295, "bike_id": "7a60065ab62eaf58912769fbc0d73b8a", "type": "electric_scooter", "is_reserved": 0, "lon": -76.98472683333334}, {"fusion_lat": 0.0, "name": "e3e5ca477901b369f47e91e79d2294ac", "is_disabled": 0, "rental_uris": {"android": "https://dc.lft.to/lastmile_qr_scan", "ios": "https://dc.lft.to/lastmile_qr_scan"}, "fusion_lon": 0.0, "lat": 38.90869383333333, "bike_id": "e3e5ca477901b369f47e91e79d2294ac", "type": "electric_scooter", "is_reserved": 0, "lon": -77.08591633333333}, {"fusion_lat": 0.0, "name": "79c1bcc8250b3f07cf105749123297b0", "is_disabled": 0, "rental_uris": {"android": "https://dc.lft.to/lastmile_qr_scan", "ios": "https://dc.lft.to/lastmile_qr_scan"}, "fusion_lon": 0.0, "lat": 38.89613133333334, "bike_id": "79c1bcc8250b3f07cf105749123297b0", "type": "electric_scooter", "is_reserved": 0, "lon": -76.94813666666667}, {"fusion_lat": 0.0, "name": "7435fc6f93c9915f093d3121af92a846", "is_disabled": 0, "rental_uris": {"android": "https://dc.lft.to/lastmile_qr_scan", "ios": "https://dc.lft.to/lastmile_qr_scan"}, "fusion_lon": 0.0, "lat": 38.9254135, "bike_id": "7435fc6f93c9915f093d3121af92a846", "type": "electric_scooter", "is_reserved": 0, "lon": -77.03476483333333}, {"fusion_lat": 0.0, "name": "59ddc9e073a926a921341633af1a6256", "is_disabled": 0, "rental_uris": {"android": "https://dc.lft.to/lastmile_qr_scan", "ios": "https://dc.lft.to/lastmile_qr_scan"}, "fusion_lon": 0.0, "lat": 38.824592, "bike_id": "59ddc9e073a926a921341633af1a6256", "type": "electric_bike", "is_reserved": 0, "lon": -77.00793233333333}, {"fusion_lat": 0.0, "name": "a31a0d681fd67228bff4bd61d54aa969", "is_disabled": 0, "rental_uris": {"android": "https://dc.lft.to/lastmile_qr_scan", "ios": "https://dc.lft.to/lastmile_qr_scan"}, "fusion_lon": 0.0, "lat": 38.917133666666665, "bike_id": "a31a0d681fd67228bff4bd61d54aa969", "type": "electric_scooter", "is_reserved": 0, "lon": -77.03216883333333}, {"fusion_lat": 0.0, "name": "dbe9865b100706ca7035c678988429bb", "is_disabled": 0, "rental_uris": {"android": "https://dc.lft.to/lastmile_qr_scan", "ios": "https://dc.lft.to/lastmile_qr_scan"}, "fusion_lon": 0.0, "lat": 38.923046166666666, "bike_id": "dbe9865b100706ca7035c678988429bb", "type": "electric_scooter", "is_reserved": 0, "lon": -77.04108833333333}, {"fusion_lat": 0.0, "name": "d186afc92ff382efe8b3d384aabd4b43", "is_disabled": 0, "rental_uris": {"android": "https://dc.lft.to/lastmile_qr_scan", "ios": "https://dc.lft.to/lastmile_qr_scan"}, "fusion_lon": 0.0, "lat": 38.96172, "bike_id": "d186afc92ff382efe8b3d384aabd4b43", "type": "electric_scooter", "is_reserved": 0, "lon": -77.07363583333333}, {"fusion_lat": 0.0, "name": "8de5413c1ec412bc6565983f95581e23", "is_disabled": 0, "rental_uris": {"android": "https://dc.lft.to/lastmile_qr_scan", "ios": "https://dc.lft.to/lastmile_qr_scan"}, "fusion_lon": 0.0, "lat": 38.904319666666666, "bike_id": "8de5413c1ec412bc6565983f95581e23", "type": "electric_scooter", "is_reserved": 0, "lon": -77.00128616666667}, {"fusion_lat": 0.0, "name": "bcf75b8a9aea951c2e2a00e1c1b07d63", "is_disabled": 0, "rental_uris": {"android": "https://dc.lft.to/lastmile_qr_scan", "ios": "https://dc.lft.to/lastmile_qr_scan"}, "fusion_lon": 0.0, "lat": 38.898835, "bike_id": "bcf75b8a9aea951c2e2a00e1c1b07d63", "type": "electric_scooter", "is_reserved": 0, "lon": -77.03322666666666}, {"fusion_lat": 0.0, "name": "d2eddcebab604a9b671f5ee086e9c20d", "is_disabled": 0, "rental_uris": {"android": "https://dc.lft.to/lastmile_qr_scan", "ios": "https://dc.lft.to/lastmile_qr_scan"}, "fusion_lon": 0.0, "lat": 38.9170565, "bike_id": "d2eddcebab604a9b671f5ee086e9c20d", "type": "electric_scooter", "is_reserved": 0, "lon": -77.04212683333333}, {"fusion_lat": 0.0, "name": "5c20ab02ed4dc970625019dbc2c649db", "is_disabled": 0, "rental_uris": {"android": "https://dc.lft.to/lastmile_qr_scan", "ios": "https://dc.lft.to/lastmile_qr_scan"}, "fusion_lon": 0.0, "lat": 38.900393, "bike_id": "5c20ab02ed4dc970625019dbc2c649db", "type": "electric_scooter", "is_reserved": 0, "lon": -77.0070235}, {"fusion_lat": 0.0, "name": "1a3cd2be0e04a8bf08889f8be14c20ca", "is_disabled": 0, "rental_uris": {"android": "https://dc.lft.to/lastmile_qr_scan", "ios": "https://dc.lft.to/lastmile_qr_scan"}, "fusion_lon": 0.0, "lat": 38.9095675, "bike_id": "1a3cd2be0e04a8bf08889f8be14c20ca", "type": "electric_scooter", "is_reserved": 0, "lon": -76.985395}, {"fusion_lat": 0.0, "name": "4a105ef6ff00621acd9deff0ecc1be44", "is_disabled": 0, "rental_uris": {"android": "https://dc.lft.to/lastmile_qr_scan", "ios": "https://dc.lft.to/lastmile_qr_scan"}, "fusion_lon": 0.0, "lat": 38.8876955, "bike_id": "4a105ef6ff00621acd9deff0ecc1be44", "type": "electric_scooter", "is_reserved": 0, "lon": -76.977529}, {"fusion_lat": 0.0, "name": "1db40b4e69c0b079df99bcb47a631529", "is_disabled": 0, "rental_uris": {"android": "https://dc.lft.to/lastmile_qr_scan", "ios": "https://dc.lft.to/lastmile_qr_scan"}, "fusion_lon": 0.0, "lat": 38.897481666666664, "bike_id": "1db40b4e69c0b079df99bcb47a631529", "type": "electric_scooter", "is_reserved": 0, "lon": -77.04614466666666}, {"fusion_lat": 0.0, "name": "ba55c5788cb8c1c04be479194e2c3514", "is_disabled": 0, "rental_uris": {"android": "https://dc.lft.to/lastmile_qr_scan", "ios": "https://dc.lft.to/lastmile_qr_scan"}, "fusion_lon": 0.0, "lat": 38.9306805, "bike_id": "ba55c5788cb8c1c04be479194e2c3514", "type": "electric_scooter", "is_reserved": 0, "lon": -77.029715}, {"fusion_lat": 0.0, "name": "eab9dfa4a4dd12c766734e9019a65f2c", "is_disabled": 0, "rental_uris": {"android": "https://dc.lft.to/lastmile_qr_scan", "ios": "https://dc.lft.to/lastmile_qr_scan"}, "fusion_lon": 0.0, "lat": 38.930476666666664, "bike_id": "eab9dfa4a4dd12c766734e9019a65f2c", "type": "electric_scooter", "is_reserved": 0, "lon": -77.036108}, {"fusion_lat": 0.0, "name": "aa0c4ec1159975489589c10951c9e91d", "is_disabled": 0, "rental_uris": {"android": "https://dc.lft.to/lastmile_qr_scan", "ios": "https://dc.lft.to/lastmile_qr_scan"}, "fusion_lon": 0.0, "lat": 38.931848333333335, "bike_id": "aa0c4ec1159975489589c10951c9e91d", "type": "electric_scooter", "is_reserved": 0, "lon": -77.04296616666667}, {"fusion_lat": 0.0, "name": "644000c59d277aa5d9e0e64c8681bc0c", "is_disabled": 0, "rental_uris": {"android": "https://dc.lft.to/lastmile_qr_scan", "ios": "https://dc.lft.to/lastmile_qr_scan"}, "fusion_lon": 0.0, "lat": 38.93142983333333, "bike_id": "644000c59d277aa5d9e0e64c8681bc0c", "type": "electric_scooter", "is_reserved": 0, "lon": -77.03831816666667}, {"fusion_lat": 0.0, "name": "11a1f203a141f986daa6107a81c648ab", "is_disabled": 0, "rental_uris": {"android": "https://dc.lft.to/lastmile_qr_scan", "ios": "https://dc.lft.to/lastmile_qr_scan"}, "fusion_lon": 0.0, "lat": 38.93529683333333, "bike_id": "11a1f203a141f986daa6107a81c648ab", "type": "electric_scooter", "is_reserved": 0, "lon": -77.03083866666667}, {"fusion_lat": 0.0, "name": "8a9b8a4798fc5437e11877994d99c02b", "is_disabled": 0, "rental_uris": {"android": "https://dc.lft.to/lastmile_qr_scan", "ios": "https://dc.lft.to/lastmile_qr_scan"}, "fusion_lon": 0.0, "lat": 38.9167245, "bike_id": "8a9b8a4798fc5437e11877994d99c02b", "type": "electric_scooter", "is_reserved": 0, "lon": -77.02976566666666}, {"fusion_lat": 0.0, "name": "c4bd9635b91313f8e9d2994895b56ac1", "is_disabled": 0, "rental_uris": {"android": "https://dc.lft.to/lastmile_qr_scan", "ios": "https://dc.lft.to/lastmile_qr_scan"}, "fusion_lon": 0.0, "lat": 38.911114166666664, "bike_id": "c4bd9635b91313f8e9d2994895b56ac1", "type": "electric_scooter", "is_reserved": 0, "lon": -77.02167416666667}, {"fusion_lat": 0.0, "name": "78e77d5545684558ee8a8d1cfdd19070", "is_disabled": 0, "rental_uris": {"android": "https://dc.lft.to/lastmile_qr_scan", "ios": "https://dc.lft.to/lastmile_qr_scan"}, "fusion_lon": 0.0, "lat": 38.90303933333333, "bike_id": "78e77d5545684558ee8a8d1cfdd19070", "type": "electric_scooter", "is_reserved": 0, "lon": -77.06526766666667}, {"fusion_lat": 0.0, "name": "03937bb6c8e78bbf7290cb967441b516", "is_disabled": 0, "rental_uris": {"android": "https://dc.lft.to/lastmile_qr_scan", "ios": "https://dc.lft.to/lastmile_qr_scan"}, "fusion_lon": 0.0, "lat": 38.857969, "bike_id": "03937bb6c8e78bbf7290cb967441b516", "type": "electric_bike", "is_reserved": 0, "lon": -77.1201185}, {"fusion_lat": 0.0, "name": "4ca039d9ee5ddf5c8e60beb6d7459322", "is_disabled": 0, "rental_uris": {"android": "https://dc.lft.to/lastmile_qr_scan", "ios": "https://dc.lft.to/lastmile_qr_scan"}, "fusion_lon": 0.0, "lat": 38.905610333333335, "bike_id": "4ca039d9ee5ddf5c8e60beb6d7459322", "type": "electric_scooter", "is_reserved": 0, "lon": -77.01312083333333}, {"fusion_lat": 0.0, "name": "e07c68c47fb7fa631b68a806ec0f8d2c", "is_disabled": 0, "rental_uris": {"android": "https://dc.lft.to/lastmile_qr_scan", "ios": "https://dc.lft.to/lastmile_qr_scan"}, "fusion_lon": 0.0, "lat": 38.87181533333333, "bike_id": "e07c68c47fb7fa631b68a806ec0f8d2c", "type": "electric_scooter", "is_reserved": 0, "lon": -77.00617783333334}, {"fusion_lat": 0.0, "name": "6e2dfe5ffd8341a4c74a278e55ecff73", "is_disabled": 0, "rental_uris": {"android": "https://dc.lft.to/lastmile_qr_scan", "ios": "https://dc.lft.to/lastmile_qr_scan"}, "fusion_lon": 0.0, "lat": 38.915428, "bike_id": "6e2dfe5ffd8341a4c74a278e55ecff73", "type": "electric_scooter", "is_reserved": 0, "lon": -77.03210283333334}, {"fusion_lat": 0.0, "name": "a3c10fbb94fd3a3700e04526b93fb631", "is_disabled": 0, "rental_uris": {"android": "https://dc.lft.to/lastmile_qr_scan", "ios": "https://dc.lft.to/lastmile_qr_scan"}, "fusion_lon": 0.0, "lat": 38.92458716666667, "bike_id": "a3c10fbb94fd3a3700e04526b93fb631", "type": "electric_scooter", "is_reserved": 0, "lon": -77.02408716666666}, {"fusion_lat": 0.0, "name": "5f3f0d7f28a883c856bb8ee4ae0332b6", "is_disabled": 0, "rental_uris": {"android": "https://dc.lft.to/lastmile_qr_scan", "ios": "https://dc.lft.to/lastmile_qr_scan"}, "fusion_lon": 0.0, "lat": 38.9123905, "bike_id": "5f3f0d7f28a883c856bb8ee4ae0332b6", "type": "electric_scooter", "is_reserved": 0, "lon": -77.04881466666667},