{"data": {"bikes": [{"fusion_lat": 0.0, "bike_id": "93f2d8189fed7fe756ffb910452bce9e", "fusion_lon": 0.0, "lon": -76.97765533333333, "lat": 38.95153666666667, "is_reserved": 0, "is_disabled": 0, "rental_uris": {"android": "https://dc.lft.to/lastmile_qr_scan", "ios": "https://dc.lft.to/lastmile_qr_scan"}, "name": "93f2d8189fed7fe756ffb910452bce9e", "type": "electric_bike"}, {"fusion_lat": 0.0, "bike_id": "0c5f714ff0f9795e50ca4fab6c6df688", "fusion_lon": 0.0, "lon": -77.00417966666667, "lat": 38.92901533333333, "is_reserved": 0, "is_disabled": 0, "rental_uris": {"android": "https://dc.lft.to/lastmile_qr_scan", "ios": "https://dc.lft.to/lastmile_qr_scan"}, "name": "0c5f714ff0f9795e50ca4fab6c6df688", "type": "electric_scooter"}, {"fusion_lat": 0.0, "bike_id": "3299e2b456ffad8df14edc0424d0d22d", "fusion_lon": 0.0, "lon": -77.02590633333334, "lat": 38.9420105, "is_reserved": 0, "is_disabled": 0, "rental_uris": {"android": "https://dc.lft.to/lastmile_qr_scan", "ios": "https://dc.lft.to/lastmile_qr_scan"}, "name": "3299e2b456ffad8df14edc0424d0d22d", "type": "electric_scooter"}, {"fusion_lat": 0.0, "bike_id": "975a7e95402561ed4626dca28b0f41b2", "fusion_lon": 0.0, "lon": -77.00727216666667, "lat": 38.884955, "is_reserved": 0, "is_disabled": 0, "rental_uris": {"android": "https://dc.lft.to/lastmile_qr_scan", "ios": "https://dc.lft.to/lastmile_qr_scan"}, "name": "975a7e95402561ed4626dca28b0f41b2", "type": "electric_scooter"}, {"fusion_lat": 0.0, "bike_id": "b2447bf053150f5155561b747f673122", "fusion_lon": 0.0, "lon": -77.03634233333334, "lat": 38.927434, "is_reserved": 0, "is_disabled": 0, "rental_uris": {"android": "https://dc.lft.to/lastmile_qr_scan", "ios": "https://dc.lft.to/lastmile_qr_scan"}, "name": "b2447bf053150f5155561b747f673122", "type": "electric_scooter"}, {"fusion_lat": 0.0, "bike_id": "ff3b824253cd0c22811d1535c931e2a6", "fusion_lon": 0.0, "lon": -77.03329033333333, "lat": 38.9095815, "is_reserved": 0, "is_disabled": 0, "rental_uris": {"android": "https://dc.lft.to/lastmile_qr_scan", "ios": "https://dc.lft.to/lastmile_qr_scan"}, "name": "ff3b824253cd0c22811d1535c931e2a6", "type": "electric_scooter"}, {"fusion_lat": 0.0, "bike_id": "8b77f6a3e4a10e49f573dd833ac36544", "fusion_lon": 0.0, "lon": -77.02952533333334, "lat": 38.916849666666664, "is_reserved": 0, "is_disabled": 0, "rental_uris": {"android": "https://dc.lft.to/lastmile_qr_scan", "ios": "https://dc.lft.to/lastmile_qr_scan"}, "name": "8b77f6a3e4a10e49f573dd833ac36544", "type": "electric_scooter"}, {"fusion_lat": 0.0, "bike_id": "a618cd85ff5501ba55a90b6cc0c864eb", "fusion_lon": 0.0, "lon": -77.04377083333334, "lat": 38.9209755, "is_reserved": 0, "is_disabled": 0, "rental_uris": {"android": "https://dc.lft.to/lastmile_qr_scan", "ios": "https://dc.lft.to/lastmile_qr_scan"}, "name": "a618cd85ff5501ba55a90b6cc0c864eb", "type": "electric_scooter"}, {"fusion_lat": 0.0, "bike_id": "a8edad284ebe99b539b6c49e5c4aa3d4", "fusion_lon": 0.0, "lon": -77.02678916666666, "lat": 38.89545316666667, "is_reserved": 0, "is_disabled": 0, "rental_uris": {"android": "https://dc.lft.to/lastmile_qr_scan", "ios": "https://dc.lft.to/lastmile_qr_scan"}, "name": "a8edad284ebe99b539b6c49e5c4aa3d4", "type": "electric_scooter"}, {"fusion_lat": 0.0, "bike_id": "3ef81b71b1f82ab85411abb5dacffc1f", "fusion_lon": 0.0, "lon": -77.03309816666666, "lat": 38.89811233333333, "is_reserved": 0, "is_disabled": 0, "rental_uris": {"android": "https://dc.lft.to/lastmile_qr_scan", "ios": "https://dc.lft.to/lastmile_qr_scan"}, "name": "3ef81b71b1f82ab85411abb5dacffc1f", "type": "electric_scooter"}, {"fusion_lat": 0.0, "bike_id": "b2a72573aaf964195b30f5feb39a07f4", "fusion_lon": 0.0, "lon": -77.04644866666666, "lat": 38.90657366666667, "is_reserved": 0, "is_disabled": 0, "rental_uris": {"android": "https://dc.lft.to/lastmile_qr_scan", "ios": "https://dc.lft.to/lastmile_qr_scan"}, "name": "b2a72573aaf964195b30f5feb39a07f4", "type": "electric_scooter"}, {"fusion_lat": 0.0, "bike_id": "01ba5191407b2cc45e4b855ff333f9be", "fusion_lon": 0.0, "lon": -77.02691716666666, "lat": 38.91810783333333, "is_reserved": 0, "is_disabled": 0, "rental_uris": {"android": "https://dc.lft.to/lastmile_qr_scan", "ios": "https://dc.lft.to/lastmile_qr_scan"}, "name": "01ba5191407b2cc45e4b855ff333f9be", "type": "electric_scooter"}, {"fusion_lat": 0.0, "bike_id": "fa0045506de1f7624ec89d91c12fb557", "fusion_lon": 0.0, "lon": -77.1083785, "lat": 38.81201316666667, "is_reserved": 0, "is_disabled": 0, "rental_uris": {"android": "https://dc.lft.to/lastmile_qr_scan", "ios": "https://dc.lft.to/lastmile_qr_scan"}, "name": "fa0045506de1f7624ec89d91c12fb557", "type": "electric_bike"}, {"fusion_lat": 0.0, "bike_id": "f9342d5b036d0e4a2eec7707dd29439b", "fusion_lon": 0.0, "lon": -77.02547983333334, "lat": 38.93090816666667, "is_reserved": 0, "is_disabled": 0, "rental_uris": {"android": "https://dc.lft.to/lastmile_qr_scan", "ios": "https://dc.lft.to/lastmile_qr_scan"}, "name": "f9342d5b036d0e4a2eec7707dd29439b", "type": "electric_scooter"}, {"fusion_lat": 0.0, "bike_id": "87c315b50ba2f5cf6543eef3b94b0c45", "fusion_lon": 0.0, "lon": -77.04646433333333, "lat": 38.89827983333333, "is_reserved": 0, "is_disabled": 0, "rental_uris": {"android": "https://dc.lft.to/lastmile_qr_scan", "ios": "https://dc.lft.to/lastmile_qr_scan"}, "name": "87c315b50ba2f5cf6543eef3b94b0c45", "type": "electric_scooter"}, {"fusion_lat": 0.0, "bike_id": "2d043aab473439d436d35960acb666c3", "fusion_lon": 0.0, "lon": -76.99001916666667, "lat": 38.86504466666667, "is_reserved": 0, "is_disabled": 0, "rental_uris": {"android": "https://dc.lft.to/lastmile_qr_scan", "ios": "https://dc.lft.to/lastmile_qr_scan"}, "name": "2d043aab473439d436d35960acb666c3", "type": "electric_scooter"}, {"fusion_lat": 0.0, "bike_id": "cd449a3218116f313565f52ab34b7170", "fusion_lon": 0.0, "lon": -76.989042, "lat": 38.86667083333333, "is_reserved": 0, "is_disabled": 0, "rental_uris": {"android": "https://dc.lft.to/lastmile_qr_scan", "ios": "https://dc.lft.to/lastmile_qr_scan"}, "name": "cd449a3218116f313565f52ab34b7170", "type": "electric_scooter"}, {"fusion_lat": 0.0, "bike_id": "414e3b7b2fb19f9e0067fb82591b67ec", "fusion_lon": 0.0, "lon": -77.02994416666667, "lat": 38.90116016666666, "is_reserved": 0, "is_disabled": 0, "rental_uris": {"android": "https://dc.lft.to/lastmile_qr_scan", "ios": "https://dc.lft.to/lastmile_qr_scan"}, "name": "414e3b7b2fb19f9e0067fb82591b67ec", "type": "electric_scooter"}, {"fusion_lat": 0.0, "bike_id": "615d969b60a2b2b55e698059ee23f6e0", "fusion_lon": 0.0, "lon": -77.04899833333333, "lat": 38.89731283333333, "is_reserved": 0, "is_disabled": 0, "rental_uris": {"android": "https://dc.lft.to/lastmile_qr_scan", "ios": "https://dc.lft.to/lastmile_qr_scan"}, "name": "615d969b60a2b2b55e698059ee23f6e0", "type": "electric_scooter"}, {"fusion_lat": 0.0, "bike_id": "5a2687be748bf41f5c340fa53e2814db", "fusion_lon": 0.0, "lon": -76.98082316666667, "lat": 38.907114, "is_reserved": 0, "is_disabled": 0, "rental_uris": {"android": "https://dc.lft.to/lastmile_qr_scan", "ios": "https://dc.lft.to/lastmile_qr_scan"}, "name": "5a2687be748bf41f5c340fa53e2814db", "type": "electric_scooter"}, {"fusion_lat": 0.0, "bike_id": "d1e282f5c656f74ff939a9feee347ad8", "fusion_lon": 0.0, "lon": -77.02668683333333, "lat": 38.91693883333333, "is_reserved": 0, "is_disabled": 0, "rental_uris": {"android": "https://dc.lft.to/lastmile_qr_scan", "ios": "https://dc.lft.to/lastmile_qr_scan"}, "name": "d1e282f5c656f74ff939a9feee347ad8", "type": "electric_scooter"}, {"fusion_lat": 0.0, "bike_id": "c1337c2305d0fd803d92c19ba44e344e", "fusion_lon": 0.0, "lon": -76.92913133333333, "lat": 38.892937333333336, "is_reserved": 0, "is_disabled": 0, "rental_uris": {"android": "https://dc.lft.to/lastmile_qr_scan", "ios": "https://dc.lft.to/lastmile_qr_scan"}, "name": "c1337c2305d0fd803d92c19ba44e344e", "type": "electric_scooter"}, {"fusion_lat": 0.0, "bike_id": "81903d00b874e73c41777a6b3ed25461", "fusion_lon": 0.0, "lon": -77.00857816666667, "lat": 38.90525683333333, "is_reserved": 0, "is_disabled": 0, "rental_uris": {"android": "https://dc.lft.to/lastmile_qr_scan", "ios": "https://dc.lft.to/lastmile_qr_scan"}, "name": "81903d00b874e73c41777a6b3ed25461", "type": "electric_bike"}, {"fusion_lat": 0.0, "bike_id": "761e30ce50eaacb4df3b35c14025a059", "fusion_lon": 0.0, "lon": -76.93727466666667, "lat": 38.89018566666667, "is_reserved": 0, "is_disabled": 0, "rental_uris": {"android": "https://dc.lft.to/lastmile_qr_scan", "ios": "https://dc.lft.to/lastmile_qr_scan"}, "name": "761e30ce50eaacb4df3b35c14025a059", "type": "electric_scooter"}, {"fusion_lat": 0.0, "bike_id": "eeabc05faddb1586e67f629708639545", "fusion_lon": 0.0, "lon": -77.00193383333334, "lat": 38.90036833333333, "is_reserved": 0, "is_disabled": 0, "rental_uris": {"android": "https://dc.lft.to/lastmile_qr_scan", "ios": "https://dc.lft.to/lastmile_qr_scan"}, "name": "eeabc05faddb1586e67f629708639545", "type": "electric_scooter"}, {"fusion_lat": 0.0, "bike_id": "466c780465d3700f03d5fa4c90f61485", "fusion_lon": 0.0, "lon": -77.03280666666667, "lat": 38.9274425, "is_reserved": 0, "is_disabled": 0, "rental_uris": {"android": "https://dc.lft.to/lastmile_qr_scan", "ios": "https://dc.lft.to/lastmile_qr_scan"}, "name": "466c780465d3700f03d5fa4c90f61485", "type": "electric_scooter"}, {"fusion_lat": 0.0, "bike_id": "14023752d7d27e473e240e50c305acc6", "fusion_lon": 0.0, "lon": -77.024742, "lat": 38.91814883333333, "is_reserved": 0, "is_disabled": 0, "rental_uris": {"android": "https://dc.lft.to/lastmile_qr_scan", "ios": "https://dc.lft.to/lastmile_qr_scan"}, "name": "14023752d7d27e473e240e50c305acc6", "type": "electric_scooter"}, {"fusion_lat": 0.0, "bike_id": "5c9084adfe3b35c2e32f6e03eaf61a89", "fusion_lon": 0.0, "lon": -77.02481183333333, "lat": 38.917006666666666, "is_reserved": 0, "is_disabled": 0, "rental_uris": {"android": "https://dc.lft.to/lastmile_qr_scan", "ios": "https://dc.lft.to/lastmile_qr_scan"}, "name": "5c9084adfe3b35c2e32f6e03eaf61a89", "type": "electric_scooter"}, {"fusion_lat": 0.0, "bike_id": "65f4c4f94585557606af01138a5fadbf", "fusion_lon": 0.0, "lon": -77.03518166666667, "lat": 38.92723083333333, "is_reserved": 0, "is_disabled": 0, "rental_uris": {"android": "https://dc.lft.to/lastmile_qr_scan", "ios": "https://dc.lft.to/lastmile_qr_scan"}, "name": "65f4c4f94585557606af01138a5fadbf", "type": "electric_scooter"}, {"fusion_lat": 0.0, "bike_id": "e321f47e694f5db92a4171196239b158", "fusion_lon": 0.0, "lon": -77.0255085, "lat": 38.91629366666667, "is_reserved": 0, "is_disabled": 0, "rental_uris": {"android": "https://dc.lft.to/lastmile_qr_scan", "ios": "https://dc.lft.to/lastmile_qr_scan"}, "name": "e321f47e694f5db92a4171196239b158", "type": "electric_scooter"}, {"fusion_lat": 0.0, "bike_id": "54fec019b1a0a2333a818efefeb07806", "fusion_lon": 0.0, "lon": -77.03043866666667, "lat": 38.887400666666665, "is_reserved": 0, "is_disabled": 0, "rental_uris": {"android": "https://dc.lft.to/lastmile_qr_scan", "ios": "https://dc.lft.to/lastmile_qr_scan"}, "name": "54fec019b1a0a2333a818efefeb07806", "type": "electric_scooter"}, {"fusion_lat": 0.0, "bike_id": "32d48b5f2dec39eb54682be21eb6bc95", "fusion_lon": 0.0, "lon": -76.988841, "lat": 38.8665895, "is_reserved": 0, "is_disabled": 0, "rental_uris": {"android": "https://dc.lft.to/lastmile_qr_scan", "ios": "https://dc.lft.to/lastmile_qr_scan"}, "name": "32d48b5f2dec39eb54682be21eb6bc95", "type": "electric_scooter"}, {"fusion_lat": 0.0, "bike_id": "b1ce694ce1a9f1f88a0c24b3d85fc4f8", "fusion_lon": 0.0, "lon": -77.044899, "lat": 38.90005166666667, "is_reserved": 0, "is_disabled": 0, "rental_uris": {"android": "https://dc.lft.to/lastmile_qr_scan", "ios": "https://dc.lft.to/lastmile_qr_scan"}, "name": "b1ce694ce1a9f1f88a0c24b3d85fc4f8", "type": "electric_scooter"}, {"fusion_lat": 0.0, "bike_id": "9e279d51d98326b17cfb3f74334d54e1", "fusion_lon": 0.0, "lon": -76.98710866666667, "lat": 38.866957666666664, "is_reserved": 0, "is_disabled": 0, "rental_uris": {"android": "https://dc.lft.to/lastmile_qr_scan", "ios": "https://dc.lft.to/lastmile_qr_scan"}, "name": "9e279d51d98326b17cfb3f74334d54e1", "type": "electric_scooter"}, {"fusion_lat": 0.0, "bike_id": "dcff7645751d274cd4ba844b7286a9ce", "fusion_lon": 0.0, "lon": -76.979095, "lat": 38.863559, "is_reserved": 0, "is_disabled": 0, "rental_uris": {"android": "https://dc.lft.to/lastmile_qr_scan", "ios": "https://dc.lft.to/lastmile_qr_scan"}, "name": "dcff7645751d274cd4ba844b7286a9ce", "type": "electric_scooter"}, {"fusion_lat": 0.0, "bike_id": "b089a62e24488a17519d076416c23e84", "fusion_lon": 0.0, "lon": -77.00746833333334, "lat": 38.90367916666667, "is_reserved": 0, "is_disabled": 0, "rental_uris": {"android": "https://dc.lft.to/lastmile_qr_scan", "ios": "https://dc.lft.to/lastmile_qr_scan"}, "name": "b089a62e24488a17519d076416c23e84", "type": "electric_scooter"}, {"fusion_lat": 0.0, "bike_id": "d36fa45c0827747c8961e0ff9881df96", "fusion_lon": 0.0, "lon": -76.97204166666667, "lat": 38.8928625, "is_reserved": 0, "is_disabled": 0, "rental_uris": {"android": "https://dc.lft.to/lastmile_qr_scan", "ios": "https://dc.lft.to/lastmile_qr_scan"}, "name": "d36fa45c0827747c8961e0ff9881df96", "type": "electric_bike"}, {"fusion_lat": 0.0, "bike_id": "b5cfaed66936c3dea0b3d417ef21db71", "fusion_lon": 0.0, "lon": -77.038161, "lat": 38.93106483333333, "is_reserved": 0, "is_disabled": 0, "rental_uris": {"android": "https://dc.lft.to/lastmile_qr_scan", "ios": "https://dc.lft.to/lastmile_qr_scan"}, "name": "b5cfaed66936c3dea0b3d417ef21db71", "type": "electric_scooter"}, {"fusion_lat": 0.0, "bike_id": "9a47191577fda1a8bbc43be810573433", "fusion_lon": 0.0, "lon": -77.13926683333334, "lat": 38.872956333333335, "is_reserved": 0, "is_disabled": 0, "rental_uris": {"android": "https://dc.lft.to/lastmile_qr_scan", "ios": "https://dc.lft.to/lastmile_qr_scan"}, "name": "9a47191577fda1a8bbc43be810573433", "type": "electric_bike"}, {"fusion_lat": 0.0, "bike_id": "76dadaf7d7d89ade290215680ed396ea", "fusion_lon": 0.0, "lon": -77.03654533333334, "lat": 38.921218333333336, "is_reserved": 0, "is_disabled": 0, "rental_uris": {"android": "https://dc.lft.to/lastmile_qr_scan", "ios": "https://dc.lft.to/lastmile_qr_scan"}, "name": "76dadaf7d7d89ade290215680ed396ea", "type": "electric_scooter"}, {"fusion_lat": 0.0, "bike_id": "c97de79d9d24ab1a7a6595916af18c98", "fusion_lon": 0.0, "lon": -77.021909, "lat": 38.91084383333333, "is_reserved": 0, "is_disabled": 0, "rental_uris": {"android": "https://dc.lft.to/lastmile_qr_scan", "ios": "https://dc.lft.to/lastmile_qr_scan"}, "name": "c97de79d9d24ab1a7a6595916af18c98", "type": "electric_scooter"}, {"fusion_lat": 0.0, "bike_id": "e6946f8e613d1b58ea6ec8e95bd60046", "fusion_lon": 0.0, "lon": -77.048848, "lat": 38.900731, "is_reserved": 0, "is_disabled": 0, "rental_uris": {"android": "https://dc.lft.to/lastmile_qr_scan", "ios": "https://dc.lft.to/lastmile_qr_scan"}, "name": "e6946f8e613d1b58ea6ec8e95bd60046", "type": "electric_scooter"}, {"fusion_lat": 0.0, "bike_id": "913ccc7e6547845c978ad2ca0cfef132", "fusion_lon": 0.0, "lon": -77.03205216666667, "lat": 38.897632, "is_reserved": 0, "is_disabled": 0, "rental_uris": {"android": "https://dc.lft.to/lastmile_qr_scan", "ios": "https://dc.lft.to/lastmile_qr_scan"}, "name": "913ccc7e6547845c978ad2ca0cfef132", "type": "electric_scooter"}, {"fusion_lat": 0.0, "bike_id": "b60e3e33b17fc16f9450d7d5a8d6c8e5", "fusion_lon": 0.0, "lon": -77.12466183333333, "lat": 38.853766666666665, "is_reserved": 0, "is_disabled": 0, "rental_uris": {"android": "https://dc.lft.to/lastmile_qr_scan", "ios": "https://dc.lft.to/lastmile_qr_scan"}, "name": "b60e3e33b17fc16f9450d7d5a8d6c8e5", "type": "electric_bike"}, {"fusion_lat": 0.0, "bike_id": "5001e40f95d5a45761a0a1da7c0d8d05", "fusion_lon": 0.0, "lon": -77.04688183333333, "lat": 38.902423166666665, "is_reserved": 0, "is_disabled": 0, "rental_uris": {"android": "https://dc.lft.to/lastmile_qr_scan", "ios": "https://dc.lft.to/lastmile_qr_scan"}, "name": "5001e40f95d5a45761a0a1da7c0d8d05", "type": "electric_scooter"}, {"fusion_lat": 0.0, "bike_id": "e7f2dc88f58b98dbca39906147d6daf5", "fusion_lon": 0.0, "lon": -77.00006516666667, "lat": 38.89302966666666, "is_reserved": 0, "is_disabled": 0, "rental_uris": {"android": "https://dc.lft.to/lastmile_qr_scan", "ios": "https://dc.lft.to/lastmile_qr_scan"}, "name": "e7f2dc88f58b98dbca39906147d6daf5", "type": "electric_scooter"}, {"fusion_lat": 0.0, "bike_id": "2a454961d7710803ba81d24034a0221d", "fusion_lon": 0.0, "lon": -77.05569316666667, "lat": 38.9305505, "is_reserved": 0, "is_disabled": 0, "rental_uris": {"android": "https://dc.lft.to/lastmile_qr_scan", "ios": "https://dc.lft.to/lastmile_qr_scan"}, "name": "2a454961d7710803ba81d24034a0221d", "type": "electric_scooter"}, {"fusion_lat": 0.0, "bike_id": "a1f78c930d83ce62e301b9fb4380e024", "fusion_lon": 0.0, "lon": -76.99269933333333, "lat": 38.860321166666665, "is_reserved": 0, "is_disabled": 0, "rental_uris": {"android": "https://dc.lft.to/lastmile_qr_scan", "ios": "https://dc.lft.to/lastmile_qr_scan"}, "name": "a1f78c930d83ce62e301b9fb4380e024", "type": "electric_scooter"}, {"fusion_lat": 0.0, "bike_id": "e886e91587e191c05e04088ea396506a", "fusion_lon": 0.0, "lon": -77.00495416666666, "lat": 38.89568583333333, "is_reserved": 0, "is_disabled": 0, "rental_uris": {"android": "https://dc.lft.to/lastmile_qr_scan", "ios": "https://dc.lft.to/lastmile_qr_scan"}, "name": "e886e91587e191c05e04088ea396506a", "type": "electric_scooter"}, {"fusion_lat": 0.0, "bike_id": "7c2b6fb467aca29e22f3e23206fd7ca8", "fusion_lon": 0.0, "lon": -77.04492416666666, "lat": 38.9133655, "is_reserved": 0, "is_disabled": 0, "rental_uris": {"android": "https://dc.lft.to/lastmile_qr_scan", "ios": "https://dc.lft.to/lastmile_qr_scan"}, "name": "7c2b6fb467aca29e22f3e23206fd7ca8", "type": "electric_scooter"}, {"fusion_lat": 0.0, "bike_id": "cde9f059c15d08cfdb0caaaa06bc251e", "fusion_lon": 0.0, "lon": -77.02708733333333, "lat": 38.94985916666667, "is_reserved": 0, "is_disabled": 0, "rental_uris": {"android": "https://dc.lft.to/lastmile_qr_scan", "ios": "https://dc.lft.to/lastmile_qr_scan"}, "name": "cde9f059c15d08cfdb0caaaa06bc251e", "type": "electric_scooter"}, {"fusion_lat": 0.0, "bike_id": "49ea736ecdeccaeb4e6d5cc19d863f7e", "fusion_lon": 0.0, "lon": -77.0052455, "lat": 38.9097925, "is_reserved": 0, "is_disabled": 0, "rental_uris": {"android": "https://dc.lft.to/lastmile_qr_scan", "ios": "https://dc.lft.to/lastmile_qr_scan"}, "name": "49ea736ecdeccaeb4e6d5cc19d863f7e", "type": "electric_scooter"}, {"fusion_lat": 0.0, "bike_id": "1e9dde312f4bd9c4a7063e4e15551956", "fusion_lon": 0.0, "lon": -77.0262175, "lat": 38.9333945, "is_reserved": 0, "is_disabled": 0, "rental_uris": {"android": "https://dc.lft.to/lastmile_qr_scan", "ios": "https://dc.lft.to/lastmile_qr_scan"}, "name": "1e9dde312f4bd9c4a7063e4e15551956", "type": "electric_scooter"}, {"fusion_lat": 0.0, "bike_id": "bf02e6b5a268c09ec069ab87bf287c98", "fusion_lon": 0.0, "lon": -77.0365845, "lat": 38.931363833333336, "is_reserved": 0, "is_disabled": 0, "rental_uris": {"android": "https://dc.lft.to/lastmile_qr_scan", "ios": "https://dc.lft.to/lastmile_qr_scan"}, "name": "bf02e6b5a268c09ec069ab87bf287c98", "type": "electric_scooter"}, {"fusion_lat": 0.0, "bike_id": "92b322dce634d878650f37ded76db866", "fusion_lon": 0.0, "lon": -77.009745, "lat": 38.917019333333336, "is_reserved": 0, "is_disabled": 0, "rental_uris": {"android": "https://dc.lft.to/lastmile_qr_scan", "ios": "https://dc.lft.to/lastmile_qr_scan"}, "name": "92b322dce634d878650f37ded76db866", "type": "electric_scooter"}, {"fusion_lat": 0.0, "bike_id": "997a7fa246625ec104025c9115e8a9dd", "fusion_lon": 0.0, "lon": -76.90740666666667, "lat": 38.896154, "is_reserved": 0, "is_disabled": 0, "rental_uris": {"android": "https://dc.lft.to/lastmile_qr_scan", "ios": "https://dc.lft.to/lastmile_qr_scan"}, "name": "997a7fa246625ec104025c9115e8a9dd", "type": "electric_bike"}, {"fusion_lat": 0.0, "bike_id": "b62997c2b14c075f5733f74243512ae3", "fusion_lon": 0.0, "lon": -76.992707, "lat": 38.89604716666667, "is_reserved": 0, "is_disabled": 0, "rental_uris": {"android": "https://dc.lft.to/lastmile_qr_scan", "ios": "https://dc.lft.to/lastmile_qr_scan"}, "name": "b62997c2b14c075f5733f74243512ae3", "type": "electric_scooter"}, {"fusion_lat": 0.0, "bike_id": "2c43b87e782049bce2e5a9a6463abf0d", "fusion_lon": 0.0, "lon": -76.98527066666666, "lat": 38.86683883333333, "is_reserved": 0, "is_disabled": 0, "rental_uris": {"android": "https://dc.lft.to/lastmile_qr_scan", "ios": "https://dc.lft.to/lastmile_qr_scan"}, "name": "2c43b87e782049bce2e5a9a6463abf0d", "type": "electric_scooter"}, {"fusion_lat": 0.0, "bike_id": "4daeeab73ce882fee39dfc0d67a61658", "fusion_lon": 0.0, "lon": -77.022029, "lat": 38.9246845, "is_reserved": 0, "is_disabled": 0, "rental_uris": {"android": "https://dc.lft.to/lastmile_qr_scan", "ios": "https://dc.lft.to/lastmile_qr_scan"}, "name": "4daeeab73ce882fee39dfc0d67a61658", "type": "electric_scooter"}, {"fusion_lat": 0.0, "bike_id": "e133d57c22f96cfc74b45e08bdd5cbc3", "fusion_lon": 0.0, "lon": -77.05469566666666, "lat": 38.897783833333335, "is_reserved": 0, "is_disabled": 0, "rental_uris": {"android": "https://dc.lft.to/lastmile_qr_scan", "ios": "https://dc.lft.to/lastmile_qr_scan"}, "name": "e133d57c22f96cfc74b45e08bdd5cbc3", "type": "electric_scooter"}, {"fusion_lat": 0.0, "bike_id": "0c2c649a26539a6409afaf79b42d6ecb", "fusion_lon": 0.0, "lon": -77.04674333333334, "lat": 38.89560483333333, "is_reserved": 0, "is_disabled": 0, "rental_uris": {"android": "https://dc.lft.to/lastmile_qr_scan", "ios": "https://dc.lft.to/lastmile_qr_scan"}, "name": "0c2c649a26539a6409afaf79b42d6ecb", "type": "electric_scooter"}, {"fusion_lat": 0.0, "bike_id": "cb411ed743507c1cc007f7375049327e", "fusion_lon": 0.0, "lon": -77.01765533333334, "lat": 38.874791333333334, "is_reserved": 0, "is_disabled": 0, "rental_uris": {"android": "https://dc.lft.to/lastmile_qr_scan", "ios": "https://dc.lft.to/lastmile_qr_scan"}, "name": "cb411ed743507c1cc007f7375049327e", "type": "electric_scooter"}, {"fusion_lat": 0.0, "bike_id": "7c1a8b8e6c762c92b9bf086c2f3e7ae2", "fusion_lon": 0.0, "lon": -76.99773866666666, "lat": 38.844283, "is_reserved": 0, "is_disabled": 0, "rental_uris": {"android": "https://dc.lft.to/lastmile_qr_scan", "ios": "https://dc.lft.to/lastmile_qr_scan"}, "name": "7c1a8b8e6c762c92b9bf086c2f3e7ae2", "type": "electric_scooter"}, {"fusion_lat": 0.0, "bike_id": "c39b4ba629b514f09025644228bd5659", "fusion_lon": 0.0, "lon": -77.0674435, "lat": 38.903383166666664, "is_reserved": 0, "is_disabled": 0, "rental_uris": {"android": "https://dc.lft.to/lastmile_qr_scan", "ios": "https://dc.lft.to/lastmile_qr_scan"}, "name": "c39b4ba629b514f09025644228bd5659", "type": "electric_scooter"}, {"fusion_lat": 0.0, "bike_id": "0fcc54f73997ad9239b29d7b3d020ec6", "fusion_lon": 0.0, "lon": -77.03020216666667, "lat": 38.91810616666667, "is_reserved": 0, "is_disabled": 0, "rental_uris": {"android": "https://dc.lft.to/lastmile_qr_scan", "ios": "https://dc.lft.to/lastmile_qr_scan"}, "name": "0fcc54f73997ad9239b29d7b3d020ec6", "type": "electric_scooter"}, {"fusion_lat": 0.0, "bike_id": "884126d10bd028027855ef0d9455a873", "fusion_lon": 0.0, "lon": -77.04441283333334, "lat": 38.91550816666667, "is_reserved": 0, "is_disabled": 0, "rental_uris": {"android": "https://dc.lft.to/lastmile_qr_scan", "ios": "https://dc.lft.to/lastmile_qr_scan"}, "name": "884126d10bd028027855ef0d9455a873", "type": "electric_bike"}, {"fusion_lat": 0.0, "bike_id": "aa73093cbed91cce6772a59f313afd5a", "fusion_lon": 0.0, "lon": -77.00093966666667, "lat": 38.90746033333333, "is_reserved": 0, "is_disabled": 0, "rental_uris": {"android": "https://dc.lft.to/lastmile_qr_scan", "ios": "https://dc.lft.to/lastmile_qr_scan"}, "name": "aa73093cbed91cce6772a59f313afd5a", "type": "electric_scooter"}, {"fusion_lat": 0.0, "bike_id": "c03835561e2e238dec5cc08a296ea2a4", "fusion_lon": 0.0, "lon": -77.02417716666666, "lat": 38.90858583333333, "is_reserved": 0, "is_disabled": 0, "rental_uris": {"android": "https://dc.lft.to/lastmile_qr_scan", "ios": "https://dc.lft.to/lastmile_qr_scan"}, "name": "c03835561e2e238dec5cc08a296ea2a4", "type": "electric_scooter"}, {"fusion_lat": 0.0, "bike_id": "5250379ea2e80bec1871e62bdc9b49e4", "fusion_lon": 0.0, "lon": -76.975909, "lat": 38.90336333333333, "is_reserved": 0, "is_disabled": 0, "rental_uris": {"android": "https://dc.lft.to/lastmile_qr_scan", "ios": "https://dc.lft.to/lastmile_qr_scan"}, "name": "5250379ea2e80bec1871e62bdc9b49e4", "type": "electric_scooter"}, {"fusion_lat": 0.0, "bike_id": "f2b88eefe5b3393fddd74badc224179f", "fusion_lon": 0.0, "lon": -77.062799, "lat": 38.90498566666667, "is_reserved": 0, "is_disabled": 0, "rental_uris": {"android": "https://dc.lft.to/lastmile_qr_scan", "ios": "https://dc.lft.to/lastmile_qr_scan"}, "name": "f2b88eefe5b3393fddd74badc224179f", "type": "electric_scooter"}, {"fusion_lat": 0.0, "bike_id": "f3214b7b3d1caf5c9813ad317955cdc0", "fusion_lon": 0.0, "lon": -77.0296175, "lat": 38.93063383333333, "is_reserved": 0, "is_disabled": 0, "rental_uris": {"android": "https://dc.lft.to/lastmile_qr_scan", "ios": "https://dc.lft.to/lastmile_qr_scan"}, "name": "f3214b7b3d1caf5c9813ad317955cdc0", "type": "electric_scooter"}, {"fusion_lat": 0.0, "bike_id": "11dda8e7be0a81978a91c961a1746cab", "fusion_lon": 0.0, "lon": -77.0385425, "lat": 38.9026155, "is_reserved": 0, "is_disabled": 0, "rental_uris": {"android": "https://dc.lft.to/lastmile_qr_scan", "ios": "https://dc.lft.to/lastmile_qr_scan"}, "name": "11dda8e7be0a81978a91c961a1746cab", "type": "electric_scooter"}, {"fusion_lat": 0.0, "bike_id": "cda416f77da29491a66e596f21f9260a", "fusion_lon": 0.0, "lon": -77.03446483333333, "lat": 38.93092933333333, "is_reserved": 0, "is_disabled": 0, "rental_uris": {"android": "https://dc.lft.to/lastmile_qr_scan", "ios": "https://dc.lft.to/lastmile_qr_scan"}, "name": "cda416f77da29491a66e596f21f9260a", "type": "electric_scooter"}, {"fusion_lat": 0.0, "bike_id": "24b109752fbe275e920f66dd69aadb5c", "fusion_lon": 0.0, "lon": -77.03094383333334, "lat": 38.931040333333335, "is_reserved": 0, "is_disabled": 0, "rental_uris": {"android": "https://dc.lft.to/lastmile_qr_scan", "ios": "https://dc.lft.to/lastmile_qr_scan"}, "name": "24b109752fbe275e920f66dd69aadb5c", "type": "electric_scooter"}, {"fusion_lat": 0.0, "bike_id": "c360adf85feab2eb028cc619a320c54b", "fusion_lon": 0.0, "lon": -77.04146216666666, "lat": 38.92655883333333, "is_reserved": 0, "is_disabled": 0, "rental_uris": {"android": "https://dc.lft.to/lastmile_qr_scan", "ios": "https://dc.lft.to/lastmile_qr_scan"}, "name": "c360adf85feab2eb028cc619a320c54b", "type": "electric_scooter"}, {"fusion_lat": 0.0, "bike_id": "d6eb38a57d10a9e29fc13318dc3bb01e", "fusion_lon": 0.0, "lon": -77.03642533333333, "lat": 38.923024166666664, "is_reserved": 0, "is_disabled": 0, "rental_uris": {"android": "https://dc.lft.to/lastmile_qr_scan", "ios": "https://dc.lft.to/lastmile_qr_scan"}, "name": "d6eb38a57d10a9e29fc13318dc3bb01e", "type": "electric_scooter"}, {"fusion_lat": 0.0, "bike_id": "668b0e2e985c704171f60cf03dc325a7", "fusion_lon": 0.0, "lon": -76.9953425, "lat": 38.883753666666664, "is_reserved": 0, "is_disabled": 0, "rental_uris": {"android": "https://dc.lft.to/lastmile_qr_scan", "ios": "https://dc.lft.to/lastmile_qr_scan"}, "name": "668b0e2e985c704171f60cf03dc325a7", "type": "electric_scooter"}, {"fusion_lat": 0.0, "bike_id": "54d7d92582a3443640f06be67b62a44a", "fusion_lon": 0.0, "lon": -77.07101516666667, "lat": 38.919854666666666, "is_reserved": 0, "is_disabled": 0, "rental_uris": {"android": "https://dc.lft.to/lastmile_qr_scan", "ios": "https://dc.lft.to/lastmile_qr_scan"}, "name": "54d7d92582a3443640f06be67b62a44a", "type": "electric_scooter"}, {"fusion_lat": 0.0, "bike_id": "8d6676042f23196af361a1f19b96728d", "fusion_lon": 0.0, "lon": -77.037198, "lat": 38.93058116666667, "is_reserved": 0, "is_disabled": 0, "rental_uris": {"android": "https://dc.lft.to/lastmile_qr_scan", "ios": "https://dc.lft.to/lastmile_qr_scan"}, "name": "8d6676042f23196af361a1f19b96728d", "type": "electric_scooter"}, {"fusion_lat": 0.0, "bike_id": "cd3708ecb15b05eaa19bc7cfc7d73172", "fusion_lon": 0.0, "lon": -77.02214083333334, "lat": 38.91417883333333, "is_reserved": 0, "is_disabled": 0, "rental_uris": {"android": "https://dc.lft.to/lastmile_qr_scan", "ios": "https://dc.lft.to/lastmile_qr_scan"}, "name": "cd3708ecb15b05eaa19bc7cfc7d73172", "type": "electric_scooter"}, {"fusion_lat": 0.0, "bike_id": "3a79c9c6752a378cdde18cc1068c8871", "fusion_lon": 0.0, "lon": -76.991203, "lat": 38.9013715, "is_reserved": 0, "is_disabled": 0, "rental_uris": {"android": "https://dc.lft.to/lastmile_qr_scan", "ios": "https://dc.lft.to/lastmile_qr_scan"}, "name": "3a79c9c6752a378cdde18cc1068c8871", "type": "electric_scooter"}, {"fusion_lat": 0.0, "bike_id": "e4c42fb2b505a5c20134edb8742bf857", "fusion_lon": 0.0, "lon": -77.04004766666667, "lat": 38.897927833333334, "is_reserved": 0, "is_disabled": 0, "rental_uris": {"android": "https://dc.lft.to/lastmile_qr_scan", "ios": "https://dc.lft.to/lastmile_qr_scan"}, "name": "e4c42fb2b505a5c20134edb8742bf857", "type": "electric_scooter"}, {"fusion_lat": 0.0, "bike_id": "e1d12d7a8fd428f200193df99f69b8ba", "fusion_lon": 0.0, "lon": -77.021348, "lat": 38.915551, "is_reserved": 0, "is_disabled": 0, "rental_uris": {"android": "https://dc.lft.to/lastmile_qr_scan", "ios": "https://dc.lft.to/lastmile_qr_scan"}, "name": "e1d12d7a8fd428f200193df99f69b8ba", "type": "electric_scooter"}, {"fusion_lat": 0.0, "bike_id": "625c17582c26ce8c622ac4465da638f0", "fusion_lon": 0.0, "lon": -77.0523945, "lat": 38.92546016666667, "is_reserved": 0, "is_disabled": 0, "rental_uris": {"android": "https://dc.lft.to/lastmile_qr_scan", "ios": "https://dc.lft.to/lastmile_qr_scan"}, "name": "625c17582c26ce8c622ac4465da638f0", "type": "electric_scooter"}, {"fusion_lat": 0.0, "bike_id": "266e9726fc59f7af7d3f8984af9aff29", "fusion_lon": 0.0, "lon": -77.025132, "lat": 38.9264645, "is_reserved": 0, "is_disabled": 0, "rental_uris": {"android": "https://dc.lft.to/lastmile_qr_scan", "ios": "https://dc.lft.to/lastmile_qr_scan"}, "name": "266e9726fc59f7af7d3f8984af9aff29", "type": "electric_scooter"}, {"fusion_lat": 0.0, "bike_id": "c8c1702059d5aee79c1e143ee22de04e", "fusion_lon": 0.0, "lon": -76.89534133333333, "lat": 38.945483833333334, "is_reserved": 0, "is_disabled": 0, "rental_uris": {"android": "https://dc.lft.to/lastmile_qr_scan", "ios": "https://dc.lft.to/lastmile_qr_scan"}, "name": "c8c1702059d5aee79c1e143ee22de04e", "type": "electric_bike"}, {"fusion_lat": 0.0, "bike_id": "1ac2fc9cc41edc58696e4a7c1ecf9eff", "fusion_lon": 0.0, "lon": -77.02557833333333, "lat": 38.94169633333333, "is_reserved": 0, "is_disabled": 0, "rental_uris": {"android": "https://dc.lft.to/lastmile_qr_scan", "ios": "https://dc.lft.to/lastmile_qr_scan"}, "name": "1ac2fc9cc41edc58696e4a7c1ecf9eff", "type": "electric_scooter"}, {"fusion_lat": 0.0, "bike_id": "cb93269cf7faea0baa9fa326c114e8c3", "fusion_lon": 0.0, "lon": -77.032828, "lat": 38.89219833333333, "is_reserved": 0, "is_disabled": 0, "rental_uris": {"android": "https://dc.lft.to/lastmile_qr_scan", "ios": "https://dc.lft.to/lastmile_qr_scan"}, "name": "cb93269cf7faea0baa9fa326c114e8c3", "type": "electric_scooter"}, {"fusion_lat": 0.0, "bike_id": "5063a345f23cbcb488ef4a40a16a8cf8", "fusion_lon": 0.0, "lon": -77.02639083333334, "lat": 38.881036333333334, "is_reserved": 0, "is_disabled": 0, "rental_uris": {"android": "https://dc.lft.to/lastmile_qr_scan", "ios": "https://dc.lft.to/lastmile_qr_scan"}, "name": "5063a345f23cbcb488ef4a40a16a8cf8", "type": "electric_scooter"}, {"fusion_lat": 0.0, "bike_id": "3dcbc12ed05daa60d09aebb079d7ec95", "fusion_lon": 0.0, "lon": -77.04388083333333, "lat": 38.92113416666667, "is_reserved": 0, "is_disabled": 0, "rental_uris": {"android": "https://dc.lft.to/lastmile_qr_scan", "ios": "https://dc.lft.to/lastmile_qr_scan"}, "name": "3dcbc12ed05daa60d09aebb079d7ec95", "type": "electric_scooter"}, {"fusion_lat": 0.0, "bike_id": "b50aadf327fa573d4f5953aee60e0028", "fusion_lon": 0.0, "lon": -76.9867005, "lat": 38.899651166666665, "is_reserved": 0, "is_disabled": 0, "rental_uris": {"android": "https://dc.lft.to/lastmile_qr_scan", "ios": "https://dc.lft.to/lastmile_qr_scan"}, "name": "b50aadf327fa573d4f5953aee60e0028", "type": "electric_bike"}, {"fusion_lat": 0.0, "bike_id": "e5e0e7bd4cc280f9060ffd2c18931da8", "fusion_lon": 0.0, "lon": -77.0004435, "lat": 38.8740775, "is_reserved": 0, "is_disabled": 0, "rental_uris": {"android": "https://dc.lft.to/lastmile_qr_scan", "ios": "https://dc.lft.to/lastmile_qr_scan"}, "name": "e5e0e7bd4cc280f9060ffd2c18931da8", "type": "electric_scooter"}, {"fusion_lat": 0.0, "bike_id": "8ffa7c4276f559a3b9f2f3a3b3da8c51", "fusion_lon": 0.0, "lon": -76.978064, "lat": 38.906039166666666, "is_reserved": 0, "is_disabled": 0, "rental_uris": {"android": "https://dc.lft.to/lastmile_qr_scan", "ios": "https://dc.lft.to/lastmile_qr_scan"}, "name": "8ffa7c4276f559a3b9f2f3a3b3da8c51", "type": "electric_scooter"}, {"fusion_lat": 0.0, "bike_id": "86542de4f61356bcab1ffa9ef8780499", "fusion_lon": 0.0, "lon": -76.99701033333334, "lat": 38.90833166666667, "is_reserved": 0, "is_disabled": 0, "rental_uris": {"android": "https://dc.lft.to/lastmile_qr_scan", "ios": "https://dc.lft.to/lastmile_qr_scan"}, "name": "86542de4f61356bcab1ffa9ef8780499", "type": "electric_scooter"}, {"fusion_lat": 0.0, "bike_id": "7959f33f6a584162d94e7c6f17dd6d04", "fusion_lon": 0.0, "lon": -77.00768416666666, "lat": 38.875974, "is_reserved": 0, "is_disabled": 0, "rental_uris": {"android": "https://dc.lft.to/lastmile_qr_scan", "ios": "https://dc.lft.to/lastmile_qr_scan"}, "name": "7959f33f6a584162d94e7c6f17dd6d04", "type": "electric_bike"}, {"fusion_lat": 0.0, "bike_id": "1755620a747d15775056103d9da14d38", "fusion_lon": 0.0, "lon": -77.04330366666667, "lat": 38.9133645, "is_reserved": 0, "is_disabled": 0, "rental_uris": {"android": "https://dc.lft.to/lastmile_qr_scan", "ios": "https://dc.lft.to/lastmile_qr_scan"}, "name": "1755620a747d15775056103d9da14d38", "type": "electric_scooter"}, {"fusion_lat": 0.0, "bike_id": "6210d226a3239e0fe05000aa9a96ed6f", "fusion_lon": 0.0, "lon": -77.0467035, "lat": 38.89803583333333, "is_reserved": 0, "is_disabled": 0, "rental_uris": {"android": "https://dc.lft.to/lastmile_qr_scan", "ios": "https://dc.lft.to/lastmile_qr_scan"}, "name": "6210d226a3239e0fe05000aa9a96ed6f", "type": "electric_scooter"}, {"fusion_lat": 0.0, "bike_id": "08f3946132d697adef897f2f909b0b67", "fusion_lon": 0.0, "lon": -77.03529466666667, "lat": 38.918876166666664, "is_reserved": 0, "is_disabled": 0, "rental_uris": {"android": "https://dc.lft.to/lastmile_qr_scan", "ios": "https://dc.lft.to/lastmile_qr_scan"}, "name": "08f3946132d697adef897f2f909b0b67", "type": "electric_scooter"}, {"fusion_lat": 0.0, "bike_id": "648512f235a0a329d769923fcfbcd3b7", "fusion_lon": 0.0, "lon": -77.032203, "lat": 38.90866416666667, "is_reserved": 0, "is_disabled": 0, "rental_uris": {"android": "https://dc.lft.to/lastmile_qr_scan", "ios": "https://dc.lft.to/lastmile_qr_scan"}, "name": "648512f235a0a329d769923fcfbcd3b7", "type": "electric_scooter"}, {"fusion_lat": 0.0, "bike_id": "9bbf608c6da440df7372863e2dd44f15", "fusion_lon": 0.0, "lon": -77.02567966666666, "lat": 38.91491033333333, "is_reserved": 0, "is_disabled": 0, "rental_uris": {"android": "https://dc.lft.to/lastmile_qr_scan", "ios": "https://dc.lft.to/lastmile_qr_scan"}, "name": "9bbf608c6da440df7372863e2dd44f15", "type": "electric_scooter"}, {"fusion_lat": 0.0, "bike_id": "38fd0d33108b5eaf1274f1d6bcc66233", "fusion_lon": 0.0, "lon": -77.03232283333334, "lat": 38.92476166666667, "is_reserved": 0, "is_disabled": 0, "rental_uris": {"android": "https://dc.lft.to/lastmile_qr_scan", "ios": "https://dc.lft.to/lastmile_qr_scan"}, "name": "38fd0d33108b5eaf1274f1d6bcc66233", "type": "electric_scooter"}, {"fusion_lat": 0.0, "bike_id": "ed7eae6bd73bfedce04b12bafe0f054b", "fusion_lon": 0.0, "lon": -77.02691233333333, "lat": 38.90665466666667, "is_reserved": 0, "is_disabled": 0, "rental_uris": {"android": "https://dc.lft.to/lastmile_qr_scan", "ios": "https://dc.lft.to/lastmile_qr_scan"}, "name": "ed7eae6bd73bfedce04b12bafe0f054b", "type": "electric_scooter"}, {"fusion_lat": 0.0, "bike_id": "237f04e5b763399c467b23d67ab4e292", "fusion_lon": 0.0, "lon": -77.02454783333333, "lat": 38.91401783333333, "is_reserved": 0, "is_disabled": 0, "rental_uris": {"android": "https://dc.lft.to/lastmile_qr_scan", "ios": "https://dc.lft.to/lastmile_qr_scan"}, "name": "237f04e5b763399c467b23d67ab4e292", "type": "electric_scooter"}, {"fusion_lat": 0.0, "bike_id": "56215f29322b2e49e5e1d1b93643a978", "fusion_lon": 0.0, "lon": -77.02384366666666, "lat": 38.90346, "is_reserved": 0, "is_disabled": 0, "rental_uris": {"android": "https://dc.lft.to/lastmile_qr_scan", "ios": "https://dc.lft.to/lastmile_qr_scan"}, "name": "56215f29322b2e49e5e1d1b93643a978", "type": "electric_scooter"}, {"fusion_lat": 0.0, "bike_id": "172727800d7cebce3a5a599aa05bd43b", "fusion_lon": 0.0, "lon": -77.04160816666666, "lat": 38.914835333333336, "is_reserved": 0, "is_disabled": 0, "rental_uris": {"android": "https://dc.lft.to/lastmile_qr_scan", "ios": "https://dc.lft.to/lastmile_qr_scan"}, "name": "172727800d7cebce3a5a599aa05bd43b", "type": "electric_scooter"}, {"fusion_lat": 0.0, "bike_id": "5da6ecea250f793a48a3c5ec7d514954", "fusion_lon": 0.0, "lon": -77.02445116666667, "lat": 38.91422083333333, "is_reserved": 0, "is_disabled": 0, "rental_uris": {"android": "https://dc.lft.to/lastmile_qr_scan", "ios": "https://dc.lft.to/lastmile_qr_scan"}, "name": "5da6ecea250f793a48a3c5ec7d514954", "type": "electric_scooter"}, {"fusion_lat": 0.0, "bike_id": "75957c8648875dba94ecf8fa59410ecc", "fusion_lon": 0.0, "lon": -77.044164, "lat": 38.89726183333333, "is_reserved": 0, "is_disabled": 0, "rental_uris": {"android": "https://dc.lft.to/lastmile_qr_scan", "ios": "https://dc.lft.to/lastmile_qr_scan"}, "name": "75957c8648875dba94ecf8fa59410ecc", "type": "electric_scooter"}, {"fusion_lat": 0.0, "bike_id": "ae19b6b2b4aac952a1378476183428f1", "fusion_lon": 0.0, "lon": -77.04336783333333, "lat": 38.892197333333336, "is_reserved": 0, "is_disabled": 0, "rental_uris": {"android": "https://dc.lft.to/lastmile_qr_scan", "ios": "https://dc.lft.to/lastmile_qr_scan"}, "name": "ae19b6b2b4aac952a1378476183428f1", "type": "electric_scooter"}, {"fusion_lat": 0.0, "bike_id": "85486bb2b2132fd6901983feb6fc2ea8", "fusion_lon": 0.0, "lon": -77.01886533333334, "lat": 38.93084783333333, "is_reserved": 0, "is_disabled": 0, "rental_uris": {"android": "https://dc.lft.to/lastmile_qr_scan", "ios": "https://dc.lft.to/lastmile_qr_scan"}, "name": "85486bb2b2132fd6901983feb6fc2ea8", "type": "electric_scooter"}, {"fusion_lat": 0.0, "bike_id": "4c967da2f3f0abd32751c534136bddbe", "fusion_lon": 0.0, "lon": -77.02382416666667, "lat": 38.892380833333334, "is_reserved": 0, "is_disabled": 0, "rental_uris": {"android": "https://dc.lft.to/lastmile_qr_scan", "ios": "https://dc.lft.to/lastmile_qr_scan"}, "name": "4c967da2f3f0abd32751c534136bddbe", "type": "electric_scooter"}, {"fusion_lat": 0.0, "bike_id": "a8457b65b6d68beeacc41b88a351a28f", "fusion_lon": 0.0, "lon": -76.99052066666667, "lat": 38.863769833333336, "is_reserved": 0, "is_disabled": 0, "rental_uris": {"android": "https://dc.lft.to/lastmile_qr_scan", "ios": "https://dc.lft.to/lastmile_qr_scan"}, "name": "a8457b65b6d68beeacc41b88a351a28f", "type": "electric_scooter"}, {"fusion_lat": 0.0, "bike_id": "60747cd7a7201df9ade85daf677ef5a6", "fusion_lon": 0.0, "lon": -77.00556233333333, "lat": 38.87552616666667, "is_reserved": 0, "is_disabled": 0, "rental_uris": {"android": "https://dc.lft.to/lastmile_qr_scan", "ios": "https://dc.lft.to/lastmile_qr_scan"}, "name": "60747cd7a7201df9ade85daf677ef5a6", "type": "electric_scooter"}, {"fusion_lat": 0.0, "bike_id": "2d64b0c7b8e5265a6cc1febab7700371", "fusion_lon": 0.0, "lon": -77.03208183333334, "lat": 38.912498666666664, "is_reserved": 0, "is_disabled": 0, "rental_uris": {"android": "https://dc.lft.to/lastmile_qr_scan", "ios": "https://dc.lft.to/lastmile_qr_scan"}, "name": "2d64b0c7b8e5265a6cc1febab7700371", "type": "electric_scooter"}, {"fusion_lat": 0.0, "bike_id": "4e8bc3bd3ca347020500fb4452bff31f", "fusion_lon": 0.0, "lon": -77.0450345, "lat": 38.8922455, "is_reserved": 0, "is_disabled": 0, "rental_uris": {"android": "https://dc.lft.to/lastmile_qr_scan", "ios": "https://dc.lft.to/lastmile_qr_scan"}, "name": "4e8bc3bd3ca347020500fb4452bff31f", "type": "electric_scooter"}, {"fusion_lat": 0.0, "bike_id": "6bea19b516078f36eedefe7f9bf818be", "fusion_lon": 0.0, "lon": -76.92946083333334, "lat": 38.8844975, "is_reserved": 0, "is_disabled": 0, "rental_uris": {"android": "https://dc.lft.to/lastmile_qr_scan", "ios": "https://dc.lft.to/lastmile_qr_scan"}, "name": "6bea19b516078f36eedefe7f9bf818be", "type": "electric_scooter"}, {"fusion_lat": 0.0, "bike_id": "f33794cb8759a207bd501195e8d5355d", "fusion_lon": 0.0, "lon": -77.0358465, "lat": 38.992260333333334, "is_reserved": 0, "is_disabled": 0, "rental_uris": {"android": "https://dc.lft.to/lastmile_qr_scan", "ios": "https://dc.lft.to/lastmile_qr_scan"}, "name": "f33794cb8759a207bd501195e8d5355d", "type": "electric_scooter"}, {"fusion_lat": 0.0, "bike_id": "03acbaaa7012c9587d98638474e36304", "fusion_lon": 0.0, "lon": -76.97826466666666, "lat": 38.843715333333336, "is_reserved": 0, "is_disabled": 0, "rental_uris": {"android": "https://dc.lft.to/lastmile_qr_scan", "ios": "https://dc.lft.to/lastmile_qr_scan"}, "name": "03acbaaa7012c9587d98638474e36304", "type": "electric_bike"}, {"fusion_lat": 0.0, "bike_id": "1f10c1fc091ae5546ea2308f2ce79ab1", "fusion_lon": 0.0, "lon": -77.08334883333333, "lat": 38.854425, "is_reserved": 0, "is_disabled": 0, "rental_uris": {"android": "https://dc.lft.to/lastmile_qr_scan", "ios": "https://dc.lft.to/lastmile_qr_scan"}, "name": "1f10c1fc091ae5546ea2308f2ce79ab1", "type": "electric_bike"}, {"fusion_lat": 0.0, "bike_id": "f3e4fcd23074a611feb11a522d3cf9d2", "fusion_lon": 0.0, "lon": -77.03841916666667, "lat": 38.903788, "is_reserved": 0, "is_disabled": 0, "rental_uris": {"android": "https://dc.lft.to/lastmile_qr_scan", "ios": "https://dc.lft.to/lastmile_qr_scan"}, "name": "f3e4fcd23074a611feb11a522d3cf9d2", "type": "electric_scooter"}, {"fusion_lat": 0.0, "bike_id": "8da07a56466ac7e6908f37794d9e49ae", "fusion_lon": 0.0, "lon": -77.020182, "lat": 38.914065666666666, "is_reserved": 0, "is_disabled": 0, "rental_uris": {"android": "https://dc.lft.to/lastmile_qr_scan", "ios": "https://dc.lft.to/lastmile_qr_scan"}, "name": "8da07a56466ac7e6908f37794d9e49ae", "type": "electric_scooter"}, {"fusion_lat": 0.0, "bike_id": "7cf417e2a4d6e397a7172026fe0dc5ba", "fusion_lon": 0.0, "lon": -77.03466483333334, "lat": 38.926357333333335, "is_reserved": 0, "is_disabled": 0, "rental_uris": {"android": "https://dc.lft.to/lastmile_qr_scan", "ios": "https://dc.lft.to/lastmile_qr_scan"}, "name": "7cf417e2a4d6e397a7172026fe0dc5ba", "type": "electric_scooter"}, {"fusion_lat": 0.0, "bike_id": "208dbfd7e7fad67aeca464a7b263ff24", "fusion_lon": 0.0, "lon": -76.998787, "lat": 38.90742916666667, "is_reserved": 0, "is_disabled": 0, "rental_uris": {"android": "https://dc.lft.to/lastmile_qr_scan", "ios": "https://dc.lft.to/lastmile_qr_scan"}, "name": "208dbfd7e7fad67aeca464a7b263ff24", "type": "electric_scooter"}, {"fusion_lat": 0.0, "bike_id": "d7bb1d47649a7e2261d19277f701354b", "fusion_lon": 0.0, "lon": -77.04349033333334, "lat": 38.90152, "is_reserved": 0, "is_disabled": 0, "rental_uris": {"android": "https://dc.lft.to/lastmile_qr_scan", "ios": "https://dc.lft.to/lastmile_qr_scan"}, "name": "d7bb1d47649a7e2261d19277f701354b", "type": "electric_scooter"}, {"fusion_lat": 0.0, "bike_id": "94df4fdcc46dc7f26a9c04dc1d28f057", "fusion_lon": 0.0, "lon": -77.03293533333333, "lat": 38.909738833333336, "is_reserved": 0, "is_disabled": 0, "rental_uris": {"android": "https://dc.lft.to/lastmile_qr_scan", "ios": "https://dc.lft.to/lastmile_qr_scan"}, "name": "94df4fdcc46dc7f26a9c04dc1d28f057", "type": "electric_scooter"}, {"fusion_lat": 0.0, "bike_id": "739a1a59a1ee53fe8c6301b6f7ddcec3", "fusion_lon": 0.0, "lon": -77.03248516666666, "lat": 38.929114166666665, "is_reserved": 0, "is_disabled": 0, "rental_uris": {"android": "https://dc.lft.to/lastmile_qr_scan", "ios": "https://dc.lft.to/lastmile_qr_scan"}, "name": "739a1a59a1ee53fe8c6301b6f7ddcec3", "type": "electric_scooter"}, {"fusion_lat": 0.0, "bike_id": "66497b2f61538104fa3bf2fe56ae2c1a", "fusion_lon": 0.0, "lon": -77.03189483333334, "lat": 38.908670666666666, "is_reserved": 0, "is_disabled": 0, "rental_uris": {"android": "https://dc.lft.to/lastmile_qr_scan", "ios": "https://dc.lft.to/lastmile_qr_scan"}, "name": "66497b2f61538104fa3bf2fe56ae2c1a", "type": "electric_scooter"}, {"fusion_lat": 0.0, "bike_id": "1a04a9e6d33acce9661011ea0f529c84", "fusion_lon": 0.0, "lon": -76.98759533333333, "lat": 38.85771483333333, "is_reserved": 0, "is_disabled": 0, "rental_uris": {"android": "https://dc.lft.to/lastmile_qr_scan", "ios": "https://dc.lft.to/lastmile_qr_scan"}, "name": "1a04a9e6d33acce9661011ea0f529c84", "type": "electric_bike"}, {"fusion_lat": 0.0, "bike_id": "b0e99b3baf1ccfa47265abdb7d8663c0", "fusion_lon": 0.0, "lon": -77.04694316666667, "lat": 38.902218166666664, "is_reserved": 0, "is_disabled": 0, "rental_uris": {"android": "https://dc.lft.to/lastmile_qr_scan", "ios": "https://dc.lft.to/lastmile_qr_scan"}, "name": "b0e99b3baf1ccfa47265abdb7d8663c0", "type": "electric_scooter"}, {"fusion_lat": 0.0, "bike_id": "67a7198e2f66e8a8ba250c0228d4c2ff", "fusion_lon": 0.0, "lon": -76.96525183333333, "lat": 38.87627416666667, "is_reserved": 0, "is_disabled": 0, "rental_uris": {"android": "https://dc.lft.to/lastmile_qr_scan", "ios": "https://dc.lft.to/lastmile_qr_scan"}, "name": "67a7198e2f66e8a8ba250c0228d4c2ff", "type": "electric_scooter"}, {"fusion_lat": 0.0, "bike_id": "6bc8e2535d941159690046ba987703ef", "fusion_lon": 0.0, "lon": -76.926202, "lat": 38.88480633333333, "is_reserved": 0, "is_disabled": 0, "rental_uris": {"android": "https://dc.lft.to/lastmile_qr_scan", "ios": "https://dc.lft.to/lastmile_qr_scan"}, "name": "6bc8e2535d941159690046ba987703ef", "type": "electric_scooter"}, {"fusion_lat": 0.0, "bike_id": "659b95d1b41c434432e38712f24fb273", "fusion_lon": 0.0, "lon": -77.0564035, "lat": 38.9263195, "is_reserved": 0, "is_disabled": 0, "rental_uris": {"android": "https://dc.lft.to/lastmile_qr_scan", "ios": "https://dc.lft.to/lastmile_qr_scan"}, "name": "659b95d1b41c434432e38712f24fb273", "type": "electric_scooter"}, {"fusion_lat": 0.0, "bike_id": "8a4d5ce6e366d7425d1349c447e78311", "fusion_lon": 0.0, "lon": -77.02950983333334, "lat": 38.9166785, "is_reserved": 0, "is_disabled": 0, "rental_uris": {"android": "https://dc.lft.to/lastmile_qr_scan", "ios": "https://dc.lft.to/lastmile_qr_scan"}, "name": "8a4d5ce6e366d7425d1349c447e78311", "type": "electric_scooter"}, {"fusion_lat": 0.0, "bike_id": "aff0c48b872b5b1d37748d4e72449ea1", "fusion_lon": 0.0, "lon": -77.08011333333333, "lat": 38.950591, "is_reserved": 0, "is_disabled": 0, "rental_uris": {"android": "https://dc.lft.to/lastmile_qr_scan", "ios": "https://dc.lft.to/lastmile_qr_scan"}, "name": "aff0c48b872b5b1d37748d4e72449ea1", "type": "electric_scooter"}, {"fusion_lat": 0.0, "bike_id": "335240868b96c33c0abb3fe1c637416f", "fusion_lon": 0.0, "lon": -77.03820416666667, "lat": 38.915584, "is_reserved": 0, "is_disabled": 0, "rental_uris": {"android": "https://dc.lft.to/lastmile_qr_scan", "ios": "https://dc.lft.to/lastmile_qr_scan"}, "name": "335240868b96c33c0abb3fe1c637416f", "type": "electric_scooter"}, {"fusion_lat": 0.0, "bike_id": "f3c76b5f230311d0a80b547135f2e99f", "fusion_lon": 0.0, "lon": -77.036305, "lat": 38.94494316666667, "is_reserved": 0, "is_disabled": 0, "rental_uris": {"android": "https://dc.lft.to/lastmile_qr_scan", "ios": "https://dc.lft.to/lastmile_qr_scan"}, "name": "f3c76b5f230311d0a80b547135f2e99f", "type": "electric_scooter"}, {"fusion_lat": 0.0, "bike_id": "a8a80d93e2ac8cb4c6ac3ffb1f1128ee", "fusion_lon": 0.0, "lon": -76.93190283333334, "lat": 38.89878816666667, "is_reserved": 0, "is_disabled": 0, "rental_uris": {"android": "https://dc.lft.to/lastmile_qr_scan", "ios": "https://dc.lft.to/lastmile_qr_scan"}, "name": "a8a80d93e2ac8cb4c6ac3ffb1f1128ee", "type": "electric_scooter"}, {"fusion_lat": 0.0, "bike_id": "eca7492531862d42c71e15456fc6faf8", "fusion_lon": 0.0, "lon": -76.97305183333333, "lat": 38.916433, "is_reserved": 0, "is_disabled": 0, "rental_uris": {"android": "https://dc.lft.to/lastmile_qr_scan", "ios": "https://dc.lft.to/lastmile_qr_scan"}, "name": "eca7492531862d42c71e15456fc6faf8", "type": "electric_bike"}, {"fusion_lat": 0.0, "bike_id": "c54c73e269c5218c07d26eef00a0bf54", "fusion_lon": 0.0, "lon": -77.0487355, "lat": 38.8927345, "is_reserved": 0, "is_disabled": 0, "rental_uris": {"android": "https://dc.lft.to/lastmile_qr_scan", "ios": "https://dc.lft.to/lastmile_qr_scan"}, "name": "c54c73e269c5218c07d26eef00a0bf54", "type": "electric_scooter"}, {"fusion_lat": 0.0, "bike_id": "f3e26811280ef8e57942348ec5962bb0", "fusion_lon": 0.0, "lon": -77.022071, "lat": 38.899906666666666, "is_reserved": 0, "is_disabled": 0, "rental_uris": {"android": "https://dc.lft.to/lastmile_qr_scan", "ios": "https://dc.lft.to/lastmile_qr_scan"}, "name": "f3e26811280ef8e57942348ec5962bb0", "type": "electric_scooter"}, {"fusion_lat": 0.0, "bike_id": "a234aa40c4a64a85ef99eee4591b1f9d", "fusion_lon": 0.0, "lon": -77.0258015, "lat": 38.943988833333336, "is_reserved": 0, "is_disabled": 0, "rental_uris": {"android": "https://dc.lft.to/lastmile_qr_scan", "ios": "https://dc.lft.to/lastmile_qr_scan"}, "name": "a234aa40c4a64a85ef99eee4591b1f9d", "type": "electric_scooter"}, {"fusion_lat": 0.0, "bike_id": "41d5e75fe8946091d43919b122aa3e8a", "fusion_lon": 0.0, "lon": -77.07293333333334, "lat": 38.935408333333335, "is_reserved": 0, "is_disabled": 0, "rental_uris": {"android": "https://dc.lft.to/lastmile_qr_scan", "ios": "https://dc.lft.to/lastmile_qr_scan"}, "name": "41d5e75fe8946091d43919b122aa3e8a", "type": "electric_scooter"}, {"fusion_lat": 0.0, "bike_id": "e488c8b6f67fc9eef2f9489ba6b97e65", "fusion_lon": 0.0, "lon": -77.02343933333333, "lat": 38.91764116666667, "is_reserved": 0, "is_disabled": 0, "rental_uris": {"android": "https://dc.lft.to/lastmile_qr_scan", "ios": "https://dc.lft.to/lastmile_qr_scan"}, "name": "e488c8b6f67fc9eef2f9489ba6b97e65", "type": "electric_scooter"}, {"fusion_lat": 0.0, "bike_id": "e8cfc4c5c3b5a24bdd23833e4d903b97", "fusion_lon": 0.0, "lon": -77.01451766666666, "lat": 38.92979883333334, "is_reserved": 0, "is_disabled": 0, "rental_uris": {"android": "https://dc.lft.to/lastmile_qr_scan", "ios": "https://dc.lft.to/lastmile_qr_scan"}, "name": "e8cfc4c5c3b5a24bdd23833e4d903b97", "type": "electric_scooter"}, {"fusion_lat": 0.0, "bike_id": "15585c5ad092cee41428689e07c1594b", "fusion_lon": 0.0, "lon": -77.02737333333333, "lat": 38.917087, "is_reserved": 0, "is_disabled": 0, "rental_uris": {"android": "https://dc.lft.to/lastmile_qr_scan", "ios": "https://dc.lft.to/lastmile_qr_scan"}, "name": "15585c5ad092cee41428689e07c1594b", "type": "electric_scooter"}, {"fusion_lat": 0.0, "bike_id": "0d76c620a79eb8c76e6123571eaab7cf", "fusion_lon": 0.0, "lon": -77.0279805, "lat": 38.916936166666666, "is_reserved": 0, "is_disabled": 0, "rental_uris": {"android": "https://dc.lft.to/lastmile_qr_scan", "ios": "https://dc.lft.to/lastmile_qr_scan"}, "name": "0d76c620a79eb8c76e6123571eaab7cf", "type": "electric_scooter"}, {"fusion_lat": 0.0, "bike_id": "fc6ebe22c050fdcbcf2a853d3b64fe51", "fusion_lon": 0.0, "lon": -76.994925, "lat": 38.8355615, "is_reserved": 0, "is_disabled": 0, "rental_uris": {"android": "https://dc.lft.to/lastmile_qr_scan", "ios": "https://dc.lft.to/lastmile_qr_scan"}, "name": "fc6ebe22c050fdcbcf2a853d3b64fe51", "type": "electric_scooter"}, {"fusion_lat": 0.0, "bike_id": "27eef1018986aafc6976023f664a8a46", "fusion_lon": 0.0, "lon": -76.933528, "lat": 38.887984333333335, "is_reserved": 0, "is_disabled": 0, "rental_uris": {"android": "https://dc.lft.to/lastmile_qr_scan", "ios": "https://dc.lft.to/lastmile_qr_scan"}, "name": "27eef1018986aafc6976023f664a8a46", "type": "electric_scooter"}, {"fusion_lat": 0.0, "bike_id": "e7ccd6f65515b317d7010b8bb3375c60", "fusion_lon": 0.0, "lon": -77.04138866666666, "lat": 38.916836833333335, "is_reserved": 0, "is_disabled": 0, "rental_uris": {"android": "https://dc.lft.to/lastmile_qr_scan", "ios": "https://dc.lft.to/lastmile_qr_scan"}, "name": "e7ccd6f65515b317d7010b8bb3375c60", "type": "electric_scooter"}, {"fusion_lat": 0.0, "bike_id": "e28fbe9e8cba7408505c1d000a31bc42", "fusion_lon": 0.0, "lon": -77.02611833333333, "lat": 38.919175, "is_reserved": 0, "is_disabled": 0, "rental_uris": {"android": "https://dc.lft.to/lastmile_qr_scan", "ios": "https://dc.lft.to/lastmile_qr_scan"}, "name": "e28fbe9e8cba7408505c1d000a31bc42", "type": "electric_scooter"}, {"fusion_lat": 0.0, "bike_id": "7b1f509471d080738e4f0678343b4c7a", "fusion_lon": 0.0, "lon": -77.033487, "lat": 38.917109333333336, "is_reserved": 0, "is_disabled": 0, "rental_uris": {"android": "https://dc.lft.to/lastmile_qr_scan", "ios": "https://dc.lft.to/lastmile_qr_scan"}, "name": "7b1f509471d080738e4f0678343b4c7a", "type": "electric_scooter"}, {"fusion_lat": 0.0, "bike_id": "bdb9fdf5f362a4c28314776f11ab71c4", "fusion_lon": 0.0, "lon": -77.0325395, "lat": 38.94843066666667, "is_reserved": 0, "is_disabled": 0, "rental_uris": {"android": "https://dc.lft.to/lastmile_qr_scan", "ios": "https://dc.lft.to/lastmile_qr_scan"}, "name": "bdb9fdf5f362a4c28314776f11ab71c4", "type": "electric_scooter"}, {"fusion_lat": 0.0, "bike_id": "7911dd7a3bf3e9750352452dcf68db3f", "fusion_lon": 0.0, "lon": -77.04268266666666, "lat": 38.904163, "is_reserved": 0, "is_disabled": 0, "rental_uris": {"android": "https://dc.lft.to/lastmile_qr_scan", "ios": "https://dc.lft.to/lastmile_qr_scan"}, "name": "7911dd7a3bf3e9750352452dcf68db3f", "type": "electric_scooter"}, {"fusion_lat": 0.0, "bike_id": "59c40b993304885a5be103ba0683d1c2", "fusion_lon": 0.0, "lon": -76.99284283333333, "lat": 38.857607, "is_reserved": 0, "is_disabled": 0, "rental_uris": {"android": "https://dc.lft.to/lastmile_qr_scan", "ios": "https://dc.lft.to/lastmile_qr_scan"}, "name": "59c40b993304885a5be103ba0683d1c2", "type": "electric_scooter"}, {"fusion_lat": 0.0, "bike_id": "4125e721504d467ace920ac94137c8c6", "fusion_lon": 0.0, "lon": -77.0327875, "lat": 38.92753116666667, "is_reserved": 0, "is_disabled": 0, "rental_uris": {"android": "https://dc.lft.to/lastmile_qr_scan", "ios": "https://dc.lft.to/lastmile_qr_scan"}, "name": "4125e721504d467ace920ac94137c8c6", "type": "electric_scooter"}, {"fusion_lat": 0.0, "bike_id": "b9a7cbdd9ba88a502eab6ad94b32433e", "fusion_lon": 0.0, "lon": -77.03286016666667, "lat": 38.9274655, "is_reserved": 0, "is_disabled": 0, "rental_uris": {"android": "https://dc.lft.to/lastmile_qr_scan", "ios": "https://dc.lft.to/lastmile_qr_scan"}, "name": "b9a7cbdd9ba88a502eab6ad94b32433e", "type": "electric_scooter"}, {"fusion_lat": 0.0, "bike_id": "ad9260ff47453ce0540138a1a0a6568f", "fusion_lon": 0.0, "lon": -77.03197666666667, "lat": 38.916826, "is_reserved": 0, "is_disabled": 0, "rental_uris": {"android": "https://dc.lft.to/lastmile_qr_scan", "ios": "https://dc.lft.to/lastmile_qr_scan"}, "name": "ad9260ff47453ce0540138a1a0a6568f", "type": "electric_scooter"}, {"fusion_lat": 0.0, "bike_id": "940ae6f7aea0e0be79309880eee896ad", "fusion_lon": 0.0, "lon": -77.03212966666666, "lat": 38.9072875, "is_reserved": 0, "is_disabled": 0, "rental_uris": {"android": "https://dc.lft.to/lastmile_qr_scan", "ios": "https://dc.lft.to/lastmile_qr_scan"}, "name": "940ae6f7aea0e0be79309880eee896ad", "type": "electric_scooter"}, {"fusion_lat": 0.0, "bike_id": "fe4df714821bdb0b1195611e0a776fdb", "fusion_lon": 0.0, "lon": -77.1662465, "lat": 38.88835683333333, "is_reserved": 0, "is_disabled": 0, "rental_uris": {"android": "https://dc.lft.to/lastmile_qr_scan", "ios": "https://dc.lft.to/lastmile_qr_scan"}, "name": "fe4df714821bdb0b1195611e0a776fdb", "type": "electric_bike"}, {"fusion_lat": 0.0, "bike_id": "cbf1b3c736652538a6aaa1adb5131532", "fusion_lon": 0.0, "lon": -77.03843983333333, "lat": 38.92165716666667, "is_reserved": 0, "is_disabled": 0, "rental_uris": {"android": "https://dc.lft.to/lastmile_qr_scan", "ios": "https://dc.lft.to/lastmile_qr_scan"}, "name": "cbf1b3c736652538a6aaa1adb5131532", "type": "electric_scooter"}, {"fusion_lat": 0.0, "bike_id": "9e8b586e2ac84aaa2fa4372d66942f56", "fusion_lon": 0.0, "lon": -77.02533883333334, "lat": 38.94096, "is_reserved": 0, "is_disabled": 0, "rental_uris": {"android": "https://dc.lft.to/lastmile_qr_scan", "ios": "https://dc.lft.to/lastmile_qr_scan"}, "name": "9e8b586e2ac84aaa2fa4372d66942f56", "type": "electric_scooter"}, {"fusion_lat": 0.0, "bike_id": "3f1138d2a42f70a9708368076ff9b17d", "fusion_lon": 0.0, "lon": -77.031892, "lat": 38.90949883333333, "is_reserved": 0, "is_disabled": 0, "rental_uris": {"android": "https://dc.lft.to/lastmile_qr_scan", "ios": "https://dc.lft.to/lastmile_qr_scan"}, "name": "3f1138d2a42f70a9708368076ff9b17d", "type": "electric_scooter"}, {"fusion_lat": 0.0, "bike_id": "acdb71b0d01f1c186057a495ad2a52d7", "fusion_lon": 0.0, "lon": -77.0281275, "lat": 38.896972, "is_reserved": 0, "is_disabled": 0, "rental_uris": {"android": "https://dc.lft.to/lastmile_qr_scan", "ios": "https://dc.lft.to/lastmile_qr_scan"}, "name": "acdb71b0d01f1c186057a495ad2a52d7", "type": "electric_scooter"}, {"fusion_lat": 0.0, "bike_id": "32a84b09ca871e6d8592b758440cad8f", "fusion_lon": 0.0, "lon": -77.10719966666667, "lat": 38.964869666666665, "is_reserved": 0, "is_disabled": 0, "rental_uris": {"android": "https://dc.lft.to/lastmile_qr_scan", "ios": "https://dc.lft.to/lastmile_qr_scan"}, "name": "32a84b09ca871e6d8592b758440cad8f", "type": "electric_bike"}, {"fusion_lat": 0.0, "bike_id": "f3d5f513112cdeca10eda768f1232503", "fusion_lon": 0.0, "lon": -77.01568033333334, "lat": 38.8764905, "is_reserved": 0, "is_disabled": 0, "rental_uris": {"android": "https://dc.lft.to/lastmile_qr_scan", "ios": "https://dc.lft.to/lastmile_qr_scan"}, "name": "f3d5f513112cdeca10eda768f1232503", "type": "electric_scooter"}, {"fusion_lat": 0.0, "bike_id": "7229064f9af2549ecb4060ba0dfb705d", "fusion_lon": 0.0, "lon": -77.04172966666667, "lat": 38.89946616666667, "is_reserved": 0, "is_disabled": 0, "rental_uris": {"android": "https://dc.lft.to/lastmile_qr_scan", "ios": "https://dc.lft.to/lastmile_qr_scan"}, "name": "7229064f9af2549ecb4060ba0dfb705d", "type": "electric_scooter"}, {"fusion_lat": 0.0, "bike_id": "88f12fd9700beb0ba38337e128057a9a", "fusion_lon": 0.0, "lon": -77.030745, "lat": 38.9224605, "is_reserved": 0, "is_disabled": 0, "rental_uris": {"android": "https://dc.lft.to/lastmile_qr_scan", "ios": "https://dc.lft.to/lastmile_qr_scan"}, "name": "88f12fd9700beb0ba38337e128057a9a", "type": "electric_scooter"}, {"fusion_lat": 0.0, "bike_id": "fd4ca722e20af1ffa4346483365f28d6", "fusion_lon": 0.0, "lon": -76.975294, "lat": 38.92228716666666, "is_reserved": 0, "is_disabled": 0, "rental_uris": {"android": "https://dc.lft.to/lastmile_qr_scan", "ios": "https://dc.lft.to/lastmile_qr_scan"}, "name": "fd4ca722e20af1ffa4346483365f28d6", "type": "electric_scooter"}, {"fusion_lat": 0.0, "bike_id": "48817596a8e4ccb27b413c3c6ab5efb9", "fusion_lon": 0.0, "lon": -77.02262033333334, "lat": 38.92676683333333, "is_reserved": 0, "is_disabled": 0, "rental_uris": {"android": "https://dc.lft.to/lastmile_qr_scan", "ios": "https://dc.lft.to/lastmile_qr_scan"}, "name": "48817596a8e4ccb27b413c3c6ab5efb9", "type": "electric_scooter"}, {"fusion_lat": 0.0, "bike_id": "5466043cb236418a1e6163c8d06b466d", "fusion_lon": 0.0, "lon": -77.03076566666667, "lat": 38.880373, "is_reserved": 0, "is_disabled": 0, "rental_uris": {"android": "https://dc.lft.to/lastmile_qr_scan", "ios": "https://dc.lft.to/lastmile_qr_scan"}, "name": "5466043cb236418a1e6163c8d06b466d", "type": "electric_scooter"}, {"fusion_lat": 0.0, "bike_id": "cb1c19d0f71f937620c6b2049c09cdb2", "fusion_lon": 0.0, "lon": -76.98955966666666, "lat": 38.86553416666667, "is_reserved": 0, "is_disabled": 0, "rental_uris": {"android": "https://dc.lft.to/lastmile_qr_scan", "ios": "https://dc.lft.to/lastmile_qr_scan"}, "name": "cb1c19d0f71f937620c6b2049c09cdb2", "type": "electric_scooter"}, {"fusion_lat": 0.0, "bike_id": "1fd93d969256a53d3e6d9d1df587e4c8", "fusion_lon": 0.0, "lon": -77.013262, "lat": 38.929654666666664, "is_reserved": 0, "is_disabled": 0, "rental_uris": {"android": "https://dc.lft.to/lastmile_qr_scan", "ios": "https://dc.lft.to/lastmile_qr_scan"}, "name": "1fd93d969256a53d3e6d9d1df587e4c8", "type": "electric_scooter"}, {"fusion_lat": 0.0, "bike_id": "cf7de7658b067e39376d7f3eca3e2671", "fusion_lon": 0.0, "lon": -77.00041666666667, "lat": 38.90803566666666, "is_reserved": 0, "is_disabled": 0, "rental_uris": {"android": "https://dc.lft.to/lastmile_qr_scan", "ios": "https://dc.lft.to/lastmile_qr_scan"}, "name": "cf7de7658b067e39376d7f3eca3e2671", "type": "electric_scooter"}, {"fusion_lat": 0.0, "bike_id": "866f9acc8ce07989cae7f60f31172883", "fusion_lon": 0.0, "lon": -77.02727333333333, "lat": 38.9436945, "is_reserved": 0, "is_disabled": 0, "rental_uris": {"android": "https://dc.lft.to/lastmile_qr_scan", "ios": "https://dc.lft.to/lastmile_qr_scan"}, "name": "866f9acc8ce07989cae7f60f31172883", "type": "electric_scooter"}, {"fusion_lat": 0.0, "bike_id": "b11664b20250d9fc3a3234dadc8ef2ef", "fusion_lon": 0.0, "lon": -77.04344733333333, "lat": 38.9333075, "is_reserved": 0, "is_disabled": 0, "rental_uris": {"android": "https://dc.lft.to/lastmile_qr_scan", "ios": "https://dc.lft.to/lastmile_qr_scan"}, "name": "b11664b20250d9fc3a3234dadc8ef2ef", "type": "electric_scooter"}, {"fusion_lat": 0.0, "bike_id": "e3bf7ffc01b2fb0582998bead6580fef", "fusion_lon": 0.0, "lon": -77.04980133333333, "lat": 39.035527, "is_reserved": 0, "is_disabled": 0, "rental_uris": {"android": "https://dc.lft.to/lastmile_qr_scan", "ios": "https://dc.lft.to/lastmile_qr_scan"}, "name": "e3bf7ffc01b2fb0582998bead6580fef", "type": "electric_bike"}, {"fusion_lat": 0.0, "bike_id": "38dd0b9cb193e4f18f99d77bb00d4a63", "fusion_lon": 0.0, "lon": -77.01547483333333, "lat": 38.941263166666666, "is_reserved": 0, "is_disabled": 0, "rental_uris": {"android": "https://dc.lft.to/lastmile_qr_scan", "ios": "https://dc.lft.to/lastmile_qr_scan"}, "name": "38dd0b9cb193e4f18f99d77bb00d4a63", "type": "electric_scooter"}, {"fusion_lat": 0.0, "bike_id": "43f256817fbe56573bda12c743b63d64", "fusion_lon": 0.0, "lon": -77.03613983333334, "lat": 38.9233195, "is_reserved": 0, "is_disabled": 0, "rental_uris": {"android": "https://dc.lft.to/lastmile_qr_scan", "ios": "https://dc.lft.to/lastmile_qr_scan"}, "name": "43f256817fbe56573bda12c743b63d64", "type": "electric_scooter"}, {"fusion_lat": 0.0, "bike_id": "0709a77dd26b571cda135458bf24d6ea", "fusion_lon": 0.0, "lon": -77.01204916666667, "lat": 38.885532833333336, "is_reserved": 0, "is_disabled": 0, "rental_uris": {"android": "https://dc.lft.to/lastmile_qr_scan", "ios": "https://dc.lft.to/lastmile_qr_scan"}, "name": "0709a77dd26b571cda135458bf24d6ea", "type": "electric_scooter"}, {"fusion_lat": 0.0, "bike_id": "35db0518ea72e3f134003a53351fc427", "fusion_lon": 0.0, "lon": -77.04669633333333, "lat": 38.90874433333333, "is_reserved": 0, "is_disabled": 0, "rental_uris": {"android": "https://dc.lft.to/lastmile_qr_scan", "ios": "https://dc.lft.to/lastmile_qr_scan"}, "name": "35db0518ea72e3f134003a53351fc427", "type": "electric_scooter"}, {"fusion_lat": 0.0, "bike_id": "9a6aa479e38c908cdd0324ba8c5cbfaf", "fusion_lon": 0.0, "lon": -77.03001566666667, "lat": 39.0419295, "is_reserved": 0, "is_disabled": 0, "rental_uris": {"android": "https://dc.lft.to/lastmile_qr_scan", "ios": "https://dc.lft.to/lastmile_qr_scan"}, "name": "9a6aa479e38c908cdd0324ba8c5cbfaf", "type": "electric_bike"}, {"fusion_lat": 0.0, "bike_id": "350925f09e0645049e97b2b86e9d82c1", "fusion_lon": 0.0, "lon": -77.02421683333333, "lat": 38.9182305, "is_reserved": 0, "is_disabled": 0, "rental_uris": {"android": "https://dc.lft.to/lastmile_qr_scan", "ios": "https://dc.lft.to/lastmile_qr_scan"}, "name": "350925f09e0645049e97b2b86e9d82c1", "type": "electric_scooter"}, {"fusion_lat": 0.0, "bike_id": "e83553f6824584d76a2c76ffd60e7a34", "fusion_lon": 0.0, "lon": -77.04220033333333, "lat": 38.9211855, "is_reserved": 0, "is_disabled": 0, "rental_uris": {"android": "https://dc.lft.to/lastmile_qr_scan", "ios": "https://dc.lft.to/lastmile_qr_scan"}, "name": "e83553f6824584d76a2c76ffd60e7a34", "type": "electric_scooter"}, {"fusion_lat": 0.0, "bike_id": "07418f6577075042c41d8854b5429811", "fusion_lon": 0.0, "lon": -77.02472516666667, "lat": 38.9181675, "is_reserved": 0, "is_disabled": 0, "rental_uris": {"android": "https://dc.lft.to/lastmile_qr_scan", "ios": "https://dc.lft.to/lastmile_qr_scan"}, "name": "07418f6577075042c41d8854b5429811", "type": "electric_scooter"}, {"fusion_lat": 0.0, "bike_id": "db6b52aad903c8c02bf07892094c7f79", "fusion_lon": 0.0, "lon": -76.96502066666666, "lat": 38.87641683333333, "is_reserved": 0, "is_disabled": 0, "rental_uris": {"android": "https://dc.lft.to/lastmile_qr_scan", "ios": "https://dc.lft.to/lastmile_qr_scan"}, "name": "db6b52aad903c8c02bf07892094c7f79", "type": "electric_scooter"}, {"fusion_lat": 0.0, "bike_id": "87998e4bf8c8dcfc098b2bc484184706", "fusion_lon": 0.0, "lon": -77.03019616666667, "lat": 38.934808333333336, "is_reserved": 0, "is_disabled": 0, "rental_uris": {"android": "https://dc.lft.to/lastmile_qr_scan", "ios": "https://dc.lft.to/lastmile_qr_scan"}, "name": "87998e4bf8c8dcfc098b2bc484184706", "type": "electric_bike"}, {"fusion_lat": 0.0, "bike_id": "0d747a6d391155347e0d05976fd33a46", "fusion_lon": 0.0, "lon": -77.04198116666667, "lat": 38.920486, "is_reserved": 0, "is_disabled": 0, "rental_uris": {"android": "https://dc.lft.to/lastmile_qr_scan", "ios": "https://dc.lft.to/lastmile_qr_scan"}, "name": "0d747a6d391155347e0d05976fd33a46", "type": "electric_scooter"}, {"fusion_lat": 0.0, "bike_id": "01688e0622bff8a65f49ccdaf6815ae3", "fusion_lon": 0.0, "lon": -77.0268925, "lat": 38.91866383333333, "is_reserved": 0, "is_disabled": 0, "rental_uris": {"android": "https://dc.lft.to/lastmile_qr_scan", "ios": "https://dc.lft.to/lastmile_qr_scan"}, "name": "01688e0622bff8a65f49ccdaf6815ae3", "type": "electric_scooter"}, {"fusion_lat": 0.0, "bike_id": "857240a488002094d25cf5065e9133aa", "fusion_lon": 0.0, "lon": -77.077946, "lat": 38.99603416666667, "is_reserved": 0, "is_disabled": 0, "rental_uris": {"android": "https://dc.lft.to/lastmile_qr_scan", "ios": "https://dc.lft.to/lastmile_qr_scan"}, "name": "857240a488002094d25cf5065e9133aa", "type": "electric_bike"}, {"fusion_lat": 0.0, "bike_id": "c7ac26042a6e02843f9df879b49c82f2", "fusion_lon": 0.0, "lon": -77.02657683333334, "lat": 38.9218055, "is_reserved": 0, "is_disabled": 0, "rental_uris": {"android": "https://dc.lft.to/lastmile_qr_scan", "ios": "https://dc.lft.to/lastmile_qr_scan"}, "name": "c7ac26042a6e02843f9df879b49c82f2", "type": "electric_scooter"}, {"fusion_lat": 0.0, "bike_id": "08bf2c61bbc71dade56f5691c0822f8a", "fusion_lon": 0.0, "lon": -77.03242816666666, "lat": 38.9148085, "is_reserved": 0, "is_disabled": 0, "rental_uris": {"android": "https://dc.lft.to/lastmile_qr_scan", "ios": "https://dc.lft.to/lastmile_qr_scan"}, "name": "08bf2c61bbc71dade56f5691c0822f8a", "type": "electric_scooter"}, {"fusion_lat": 0.0, "bike_id": "0df714b5ffc98fc86818815c122c64f2", "fusion_lon": 0.0, "lon": -77.03108366666666, "lat": 38.892206, "is_reserved": 0, "is_disabled": 0, "rental_uris": {"android": "https://dc.lft.to/lastmile_qr_scan", "ios": "https://dc.lft.to/lastmile_qr_scan"}, "name": "0df714b5ffc98fc86818815c122c64f2", "type": "electric_scooter"}, {"fusion_lat": 0.0, "bike_id": "91dcc3d7b07e38aec1b7b5c047ad94aa", "fusion_lon": 0.0, "lon": -76.93060483333333, "lat": 38.88382816666667, "is_reserved": 0, "is_disabled": 0, "rental_uris": {"android": "https://dc.lft.to/lastmile_qr_scan", "ios": "https://dc.lft.to/lastmile_qr_scan"}, "name": "91dcc3d7b07e38aec1b7b5c047ad94aa", "type": "electric_scooter"}, {"fusion_lat": 0.0, "bike_id": "2e0d25c4afad1271a3a887581cd6df88", "fusion_lon": 0.0, "lon": -77.0451255, "lat": 38.89226083333333, "is_reserved": 0, "is_disabled": 0, "rental_uris": {"android": "https://dc.lft.to/lastmile_qr_scan", "ios": "https://dc.lft.to/lastmile_qr_scan"}, "name": "2e0d25c4afad1271a3a887581cd6df88", "type": "electric_scooter"}, {"fusion_lat": 0.0, "bike_id": "87f7fe2513801eb9eb396c23a2487c85", "fusion_lon": 0.0, "lon": -77.026589, "lat": 38.91694783333333, "is_reserved": 0, "is_disabled": 0, "rental_uris": {"android": "https://dc.lft.to/lastmile_qr_scan", "ios": "https://dc.lft.to/lastmile_qr_scan"}, "name": "87f7fe2513801eb9eb396c23a2487c85", "type": "electric_scooter"}, {"fusion_lat": 0.0, "bike_id": "7602caf939ae2a1290262733032aa85d", "fusion_lon": 0.0, "lon": -77.00523466666667, "lat": 38.929769666666665, "is_reserved": 0, "is_disabled": 0, "rental_uris": {"android": "https://dc.lft.to/lastmile_qr_scan", "ios": "https://dc.lft.to/lastmile_qr_scan"}, "name": "7602caf939ae2a1290262733032aa85d", "type": "electric_scooter"}, {"fusion_lat": 0.0, "bike_id": "d59e7a33a7c42ef8ae0f15a5e2da026b", "fusion_lon": 0.0, "lon": -77.02259483333333, "lat": 38.93765916666667, "is_reserved": 0, "is_disabled": 0, "rental_uris": {"android": "https://dc.lft.to/lastmile_qr_scan", "ios": "https://dc.lft.to/lastmile_qr_scan"}, "name": "d59e7a33a7c42ef8ae0f15a5e2da026b", "type": "electric_scooter"}, {"fusion_lat": 0.0, "bike_id": "74b87b8d6bfa9bfd9ea10d67eb4e4eef", "fusion_lon": 0.0, "lon": -77.03188016666667, "lat": 38.910443666666666, "is_reserved": 0, "is_disabled": 0, "rental_uris": {"android": "https://dc.lft.to/lastmile_qr_scan", "ios": "https://dc.lft.to/lastmile_qr_scan"}, "name": "74b87b8d6bfa9bfd9ea10d67eb4e4eef", "type": "electric_scooter"}, {"fusion_lat": 0.0, "bike_id": "153eb725112976bf9c732963adde86c0", "fusion_lon": 0.0, "lon": -77.04619266666667, "lat": 38.91542966666667, "is_reserved": 0, "is_disabled": 0, "rental_uris": {"android": "https://dc.lft.to/lastmile_qr_scan", "ios": "https://dc.lft.to/lastmile_qr_scan"}, "name": "153eb725112976bf9c732963adde86c0", "type": "electric_scooter"}, {"fusion_lat": 0.0, "bike_id": "b6d6294412cff62f9735c991e4a720b8", "fusion_lon": 0.0, "lon": -77.043144, "lat": 38.922172, "is_reserved": 0, "is_disabled": 0, "rental_uris": {"android": "https://dc.lft.to/lastmile_qr_scan", "ios": "https://dc.lft.to/lastmile_qr_scan"}, "name": "b6d6294412cff62f9735c991e4a720b8", "type": "electric_scooter"}, {"fusion_lat": 0.0, "bike_id": "6b20088370a4e21b18e64992f25dfacb", "fusion_lon": 0.0, "lon": -77.022707, "lat": 38.898376999999996, "is_reserved": 0, "is_disabled": 0, "rental_uris": {"android": "https://dc.lft.to/lastmile_qr_scan", "ios": "https://dc.lft.to/lastmile_qr_scan"}, "name": "6b20088370a4e21b18e64992f25dfacb", "type": "electric_scooter"}, {"fusion_lat": 0.0, "bike_id": "46e408bd5f87ff5a49a3775f7c7c6066", "fusion_lon": 0.0, "lon": -77.04351733333333, "lat": 38.921698666666664, "is_reserved": 0, "is_disabled": 0, "rental_uris": {"android": "https://dc.lft.to/lastmile_qr_scan", "ios": "https://dc.lft.to/lastmile_qr_scan"}, "name": "46e408bd5f87ff5a49a3775f7c7c6066", "type": "electric_scooter"}, {"fusion_lat": 0.0, "bike_id": "cf4992bcc6c4c8e15a1bb46a03674c83", "fusion_lon": 0.0, "lon": -76.98524416666666, "lat": 38.86686016666667, "is_reserved": 0, "is_disabled": 0, "rental_uris": {"android": "https://dc.lft.to/lastmile_qr_scan", "ios": "https://dc.lft.to/lastmile_qr_scan"}, "name": "cf4992bcc6c4c8e15a1bb46a03674c83", "type": "electric_scooter"}, {"fusion_lat": 0.0, "bike_id": "ebe598f76be820e44985c8bd95ab6968", "fusion_lon": 0.0, "lon": -77.18739783333334, "lat": 38.89349766666667, "is_reserved": 0, "is_disabled": 0, "rental_uris": {"android": "https://dc.lft.to/lastmile_qr_scan", "ios": "https://dc.lft.to/lastmile_qr_scan"}, "name": "ebe598f76be820e44985c8bd95ab6968", "type": "electric_bike"}, {"fusion_lat": 0.0, "bike_id": "4bae0b91c7dbfbc6cfdd58f419f7535f", "fusion_lon": 0.0, "lon": -77.00278833333333, "lat": 38.9116375, "is_reserved": 0, "is_disabled": 0, "rental_uris": {"android": "https://dc.lft.to/lastmile_qr_scan", "ios": "https://dc.lft.to/lastmile_qr_scan"}, "name": "4bae0b91c7dbfbc6cfdd58f419f7535f", "type": "electric_bike"}, {"fusion_lat": 0.0, "bike_id": "d69eca15e36eeeb678afc5f0c5d2e35d", "fusion_lon": 0.0, "lon": -77.03328266666666, "lat": 38.903785, "is_reserved": 0, "is_disabled": 0, "rental_uris": {"android": "https://dc.lft.to/lastmile_qr_scan", "ios": "https://dc.lft.to/lastmile_qr_scan"}, "name": "d69eca15e36eeeb678afc5f0c5d2e35d", "type": "electric_scooter"}, {"fusion_lat": 0.0, "bike_id": "9dd57ca02177d27aa612ab603c388b35", "fusion_lon": 0.0, "lon": -77.024662, "lat": 38.94195933333334, "is_reserved": 0, "is_disabled": 0, "rental_uris": {"android": "https://dc.lft.to/lastmile_qr_scan", "ios": "https://dc.lft.to/lastmile_qr_scan"}, "name": "9dd57ca02177d27aa612ab603c388b35", "type": "electric_scooter"}, {"fusion_lat": 0.0, "bike_id": "1bccc19337aa7dfcd22c8a707cc4f320", "fusion_lon": 0.0, "lon": -77.18563433333334, "lat": 38.92967, "is_reserved": 0, "is_disabled": 0, "rental_uris": {"android": "https://dc.lft.to/lastmile_qr_scan", "ios": "https://dc.lft.to/lastmile_qr_scan"}, "name": "1bccc19337aa7dfcd22c8a707cc4f320", "type": "electric_bike"}, {"fusion_lat": 0.0, "bike_id": "39c7f8dce17164a68e21f7e2443feaf2", "fusion_lon": 0.0, "lon": -77.0247105, "lat": 38.91698233333334, "is_reserved": 0, "is_disabled": 0, "rental_uris": {"android": "https://dc.lft.to/lastmile_qr_scan", "ios": "https://dc.lft.to/lastmile_qr_scan"}, "name": "39c7f8dce17164a68e21f7e2443feaf2", "type": "electric_scooter"}, {"fusion_lat": 0.0, "bike_id": "33e38b4ef380d9b0e106f9aa6e47cc1c", "fusion_lon": 0.0, "lon": -77.04646083333333, "lat": 39.05500466666667, "is_reserved": 0, "is_disabled": 0, "rental_uris": {"android": "https://dc.lft.to/lastmile_qr_scan", "ios": "https://dc.lft.to/lastmile_qr_scan"}, "name": "33e38b4ef380d9b0e106f9aa6e47cc1c", "type": "electric_bike"}, {"fusion_lat": 0.0, "bike_id": "bfa032fac72451e1cd765d0f076e4724", "fusion_lon": 0.0, "lon": -76.88400116666666, "lat": 38.9317, "is_reserved": 0, "is_disabled": 0, "rental_uris": {"android": "https://dc.lft.to/lastmile_qr_scan", "ios": "https://dc.lft.to/lastmile_qr_scan"}, "name": "bfa032fac72451e1cd765d0f076e4724", "type": "electric_bike"}, {"fusion_lat": 0.0, "bike_id": "ef7f00c0afafcd9bbcfdb549ae3df9c7", "fusion_lon": 0.0, "lon": -77.05252116666666, "lat": 38.9272935, "is_reserved": 0, "is_disabled": 0, "rental_uris": {"android": "https://dc.lft.to/lastmile_qr_scan", "ios": "https://dc.lft.to/lastmile_qr_scan"}, "name": "ef7f00c0afafcd9bbcfdb549ae3df9c7", "type": "electric_scooter"}, {"fusion_lat": 0.0, "bike_id": "569b9b515bf887a2768611ae899e90e0", "fusion_lon": 0.0, "lon": -77.06037566666667, "lat": 38.93344866666666, "is_reserved": 0, "is_disabled": 0, "rental_uris": {"android": "https://dc.lft.to/lastmile_qr_scan", "ios": "https://dc.lft.to/lastmile_qr_scan"}, "name": "569b9b515bf887a2768611ae899e90e0", "type": "electric_scooter"}, {"fusion_lat": 0.0, "bike_id": "f32620d99c10775896d803129d4f3b83", "fusion_lon": 0.0, "lon": -77.03881933333334, "lat": 38.948664, "is_reserved": 0, "is_disabled": 0, "rental_uris": {"android": "https://dc.lft.to/lastmile_qr_scan", "ios": "https://dc.lft.to/lastmile_qr_scan"}, "name": "f32620d99c10775896d803129d4f3b83", "type": "electric_scooter"}, {"fusion_lat": 0.0, "bike_id": "efffbbe50fcae3e6e006906983957e82", "fusion_lon": 0.0, "lon": -77.02944633333334, "lat": 38.88504833333333, "is_reserved": 0, "is_disabled": 0, "rental_uris": {"android": "https://dc.lft.to/lastmile_qr_scan", "ios": "https://dc.lft.to/lastmile_qr_scan"}, "name": "efffbbe50fcae3e6e006906983957e82", "type": "electric_scooter"}, {"fusion_lat": 0.0, "bike_id": "6ccd0260dc1836977e602d6856ec8648", "fusion_lon": 0.0, "lon": -76.95652, "lat": 38.896227333333336, "is_reserved": 0, "is_disabled": 0, "rental_uris": {"android": "https://dc.lft.to/lastmile_qr_scan", "ios": "https://dc.lft.to/lastmile_qr_scan"}, "name": "6ccd0260dc1836977e602d6856ec8648", "type": "electric_scooter"}, {"fusion_lat": 0.0, "bike_id": "db03797a391e402de12992a2f2619f16", "fusion_lon": 0.0, "lon": -77.0376105, "lat": 38.9077315, "is_reserved": 0, "is_disabled": 0, "rental_uris": {"android": "https://dc.lft.to/lastmile_qr_scan", "ios": "https://dc.lft.to/lastmile_qr_scan"}, "name": "db03797a391e402de12992a2f2619f16", "type": "electric_scooter"}, {"fusion_lat": 0.0, "bike_id": "d0eb10e4d4db84f903b6e3bcb03710e7", "fusion_lon": 0.0, "lon": -77.03388966666667, "lat": 38.90727483333333, "is_reserved": 0, "is_disabled": 0, "rental_uris": {"android": "https://dc.lft.to/lastmile_qr_scan", "ios": "https://dc.lft.to/lastmile_qr_scan"}, "name": "d0eb10e4d4db84f903b6e3bcb03710e7", "type": "electric_scooter"}, {"fusion_lat": 0.0, "bike_id": "2b1c1881f1a4cc2f3a43b844f10ae63f", "fusion_lon": 0.0, "lon": -77.02767166666666, "lat": 38.8919175, "is_reserved": 0, "is_disabled": 0, "rental_uris": {"android": "https://dc.lft.to/lastmile_qr_scan", "ios": "https://dc.lft.to/lastmile_qr_scan"}, "name": "2b1c1881f1a4cc2f3a43b844f10ae63f", "type": "electric_scooter"}, {"fusion_lat": 0.0, "bike_id": "8c8d0a9264741f73c178c0af0bb89ecc", "fusion_lon": 0.0, "lon": -77.02214033333334, "lat": 38.914156166666665, "is_reserved": 0, "is_disabled": 0, "rental_uris": {"android": "https://dc.lft.to/lastmile_qr_scan", "ios": "https://dc.lft.to/lastmile_qr_scan"}, "name": "8c8d0a9264741f73c178c0af0bb89ecc", "type": "electric_scooter"}, {"fusion_lat": 0.0, "bike_id": "4b2d4802189b7d0978c45d62c99733a3", "fusion_lon": 0.0, "lon": -77.066388, "lat": 38.90587716666667, "is_reserved": 0, "is_disabled": 0, "rental_uris": {"android": "https://dc.lft.to/lastmile_qr_scan", "ios": "https://dc.lft.to/lastmile_qr_scan"}, "name": "4b2d4802189b7d0978c45d62c99733a3", "type": "electric_scooter"}, {"fusion_lat": 0.0, "bike_id": "9f49a86f90412950c4f388db5a379a05", "fusion_lon": 0.0, "lon": -76.98190016666666, "lat": 38.96742533333333, "is_reserved": 0, "is_disabled": 0, "rental_uris": {"android": "https://dc.lft.to/lastmile_qr_scan", "ios": "https://dc.lft.to/lastmile_qr_scan"}, "name": "9f49a86f90412950c4f388db5a379a05", "type": "electric_bike"}, {"fusion_lat": 0.0, "bike_id": "94e844388e528a77f4e5d5d9d93e48d6", "fusion_lon": 0.0, "lon": -77.03189616666667, "lat": 38.917455, "is_reserved": 0, "is_disabled": 0, "rental_uris": {"android": "https://dc.lft.to/lastmile_qr_scan", "ios": "https://dc.lft.to/lastmile_qr_scan"}, "name": "94e844388e528a77f4e5d5d9d93e48d6", "type": "electric_scooter"}, {"fusion_lat": 0.0, "bike_id": "d0be254027403df3ee637a8e4687cbdf", "fusion_lon": 0.0, "lon": -77.01337966666667, "lat": 38.87813033333333, "is_reserved": 0, "is_disabled": 0, "rental_uris": {"android": "https://dc.lft.to/lastmile_qr_scan", "ios": "https://dc.lft.to/lastmile_qr_scan"}, "name": "d0be254027403df3ee637a8e4687cbdf", "type": "electric_scooter"}, {"fusion_lat": 0.0, "bike_id": "12bc1a99eec1029dc210bcbcd0c455b3", "fusion_lon": 0.0, "lon": -77.028685, "lat": 38.91688833333333, "is_reserved": 0, "is_disabled": 0, "rental_uris": {"android": "https://dc.lft.to/lastmile_qr_scan", "ios": "https://dc.lft.to/lastmile_qr_scan"}, "name": "12bc1a99eec1029dc210bcbcd0c455b3", "type": "electric_scooter"}, {"fusion_lat": 0.0, "bike_id": "97e13259ce53ac115172b92897cc5ace", "fusion_lon": 0.0, "lon": -77.020875, "lat": 38.8818645, "is_reserved": 0, "is_disabled": 0, "rental_uris": {"android": "https://dc.lft.to/lastmile_qr_scan", "ios": "https://dc.lft.to/lastmile_qr_scan"}, "name": "97e13259ce53ac115172b92897cc5ace", "type": "electric_scooter"}, {"fusion_lat": 0.0, "bike_id": "6dd0d24a7567099a92ef7cd6507f612e", "fusion_lon": 0.0, "lon": -76.99853566666667, "lat": 38.89196616666667, "is_reserved": 0, "is_disabled": 0, "rental_uris": {"android": "https://dc.lft.to/lastmile_qr_scan", "ios": "https://dc.lft.to/lastmile_qr_scan"}, "name": "6dd0d24a7567099a92ef7cd6507f612e", "type": "electric_scooter"}, {"fusion_lat": 0.0, "bike_id": "ef8b079baf1c30718876512b17b1e118", "fusion_lon": 0.0, "lon": -77.024501, "lat": 38.935127666666666, "is_reserved": 0, "is_disabled": 0, "rental_uris": {"android": "https://dc.lft.to/lastmile_qr_scan", "ios": "https://dc.lft.to/lastmile_qr_scan"}, "name": "ef8b079baf1c30718876512b17b1e118", "type": "electric_scooter"}, {"fusion_lat": 0.0, "bike_id": "788a20c7ed8d2d5e1e8d0438ba78b876", "fusion_lon": 0.0, "lon": -77.0284765, "lat": 38.93414833333333, "is_reserved": 0, "is_disabled": 0, "rental_uris": {"android": "https://dc.lft.to/lastmile_qr_scan", "ios": "https://dc.lft.to/lastmile_qr_scan"}, "name": "788a20c7ed8d2d5e1e8d0438ba78b876", "type": "electric_scooter"}, {"fusion_lat": 0.0, "bike_id": "8c781e168532f60f650d6c1e1f525a1a", "fusion_lon": 0.0, "lon": -77.02280366666666, "lat": 38.90785483333333, "is_reserved": 0, "is_disabled": 0, "rental_uris": {"android": "https://dc.lft.to/lastmile_qr_scan", "ios": "https://dc.lft.to/lastmile_qr_scan"}, "name": "8c781e168532f60f650d6c1e1f525a1a", "type": "electric_scooter"}, {"fusion_lat": 0.0, "bike_id": "c0f056c2805040cf1f985d573a38269f", "fusion_lon": 0.0, "lon": -76.96910133333333, "lat": 38.846111666666665, "is_reserved": 0, "is_disabled": 0, "rental_uris": {"android": "https://dc.lft.to/lastmile_qr_scan", "ios": "https://dc.lft.to/lastmile_qr_scan"}, "name": "c0f056c2805040cf1f985d573a38269f", "type": "electric_bike"}, {"fusion_lat": 0.0, "bike_id": "f89a3f2cdec5fac0ff523ad26279310a", "fusion_lon": 0.0, "lon": -77.028507, "lat": 38.93169783333333, "is_reserved": 0, "is_disabled": 0, "rental_uris": {"android": "https://dc.lft.to/lastmile_qr_scan", "ios": "https://dc.lft.to/lastmile_qr_scan"}, "name": "f89a3f2cdec5fac0ff523ad26279310a", "type": "electric_scooter"}, {"fusion_lat": 0.0, "bike_id": "a862b032a7e9e3b2c9ce400bcd8ec67d", "fusion_lon": 0.0, "lon": -77.02421666666666, "lat": 38.91816766666667, "is_reserved": 0, "is_disabled": 0, "rental_uris": {"android": "https://dc.lft.to/lastmile_qr_scan", "ios": "https://dc.lft.to/lastmile_qr_scan"}, "name": "a862b032a7e9e3b2c9ce400bcd8ec67d", "type": "electric_scooter"}, {"fusion_lat": 0.0, "bike_id": "4b0842b164f3ff9c4c619c3e5f4ae996", "fusion_lon": 0.0, "lon": -77.0448295, "lat": 38.905743, "is_reserved": 0, "is_disabled": 0, "rental_uris": {"android": "https://dc.lft.to/lastmile_qr_scan", "ios": "https://dc.lft.to/lastmile_qr_scan"}, "name": "4b0842b164f3ff9c4c619c3e5f4ae996", "type": "electric_scooter"}, {"fusion_lat": 0.0, "bike_id": "bfb34c882a8baeb2179b91a8f496725f", "fusion_lon": 0.0, "lon": -77.0364075, "lat": 38.913424, "is_reserved": 0, "is_disabled": 0, "rental_uris": {"android": "https://dc.lft.to/lastmile_qr_scan", "ios": "https://dc.lft.to/lastmile_qr_scan"}, "name": "bfb34c882a8baeb2179b91a8f496725f", "type": "electric_scooter"}, {"fusion_lat": 0.0, "bike_id": "6b78903ed011ad27691024ca52b268d4", "fusion_lon": 0.0, "lon": -77.03401133333334, "lat": 38.908022333333335, "is_reserved": 0, "is_disabled": 0, "rental_uris": {"android": "https://dc.lft.to/lastmile_qr_scan", "ios": "https://dc.lft.to/lastmile_qr_scan"}, "name": "6b78903ed011ad27691024ca52b268d4", "type": "electric_scooter"}, {"fusion_lat": 0.0, "bike_id": "58539f81fd0f641a44cbef45fec8e0d2", "fusion_lon": 0.0, "lon": -76.96148116666667, "lat": 38.8836185, "is_reserved": 0, "is_disabled": 0, "rental_uris": {"android": "https://dc.lft.to/lastmile_qr_scan", "ios": "https://dc.lft.to/lastmile_qr_scan"}, "name": "58539f81fd0f641a44cbef45fec8e0d2", "type": "electric_scooter"}, {"fusion_lat": 0.0, "bike_id": "fb3f5d8ae876264b01a7a25a66f7b4cc", "fusion_lon": 0.0, "lon": -77.05055033333333, "lat": 38.90222416666667, "is_reserved": 0, "is_disabled": 0, "rental_uris": {"android": "https://dc.lft.to/lastmile_qr_scan", "ios": "https://dc.lft.to/lastmile_qr_scan"}, "name": "fb3f5d8ae876264b01a7a25a66f7b4cc", "type": "electric_scooter"}, {"fusion_lat": 0.0, "bike_id": "82e4668d2bb62c6fc19f1334d9eab866", "fusion_lon": 0.0, "lon": -77.022653, "lat": 38.9267755, "is_reserved": 0, "is_disabled": 0, "rental_uris": {"android": "https://dc.lft.to/lastmile_qr_scan", "ios": "https://dc.lft.to/lastmile_qr_scan"}, "name": "82e4668d2bb62c6fc19f1334d9eab866", "type": "electric_scooter"}, {"fusion_lat": 0.0, "bike_id": "534cee530b0074a4812b303f427252f6", "fusion_lon": 0.0, "lon": -77.06773916666667, "lat": 38.9036055, "is_reserved": 0, "is_disabled": 0, "rental_uris": {"android": "https://dc.lft.to/lastmile_qr_scan", "ios": "https://dc.lft.to/lastmile_qr_scan"}, "name": "534cee530b0074a4812b303f427252f6", "type": "electric_scooter"}, {"fusion_lat": 0.0, "bike_id": "8ee0a761dba50e4dcdce5e0d64ace695", "fusion_lon": 0.0, "lon": -77.02162583333333, "lat": 38.8934285, "is_reserved": 0, "is_disabled": 0, "rental_uris": {"android": "https://dc.lft.to/lastmile_qr_scan", "ios": "https://dc.lft.to/lastmile_qr_scan"}, "name": "8ee0a761dba50e4dcdce5e0d64ace695", "type": "electric_scooter"}, {"fusion_lat": 0.0, "bike_id": "f6d03ecf184c8b509c0d377ea2a9913c", "fusion_lon": 0.0, "lon": -77.03715033333333, "lat": 38.914797666666665, "is_reserved": 0, "is_disabled": 0, "rental_uris": {"android": "https://dc.lft.to/lastmile_qr_scan", "ios": "https://dc.lft.to/lastmile_qr_scan"}, "name": "f6d03ecf184c8b509c0d377ea2a9913c", "type": "electric_scooter"}, {"fusion_lat": 0.0, "bike_id": "fc9ec5c76c70cd86edb4b9f286201dd2", "fusion_lon": 0.0, "lon": -77.0512195, "lat": 38.89772083333333, "is_reserved": 0, "is_disabled": 0, "rental_uris": {"android": "https://dc.lft.to/lastmile_qr_scan", "ios": "https://dc.lft.to/lastmile_qr_scan"}, "name": "fc9ec5c76c70cd86edb4b9f286201dd2", "type": "electric_scooter"}, {"fusion_lat": 0.0, "bike_id": "a07462bb08e1fce3b1076cab3c783c9b", "fusion_lon": 0.0, "lon": -77.02176966666667, "lat": 38.8947535, "is_reserved": 0, "is_disabled": 0, "rental_uris": {"android": "https://dc.lft.to/lastmile_qr_scan", "ios": "https://dc.lft.to/lastmile_qr_scan"}, "name": "a07462bb08e1fce3b1076cab3c783c9b", "type": "electric_scooter"}, {"fusion_lat": 0.0, "bike_id": "518c36dea9c58a9f03d787d482fa5626", "fusion_lon": 0.0, "lon": -77.04483866666666, "lat": 38.9004025, "is_reserved": 0, "is_disabled": 0, "rental_uris": {"android": "https://dc.lft.to/lastmile_qr_scan", "ios": "https://dc.lft.to/lastmile_qr_scan"}, "name": "518c36dea9c58a9f03d787d482fa5626", "type": "electric_scooter"}, {"fusion_lat": 0.0, "bike_id": "7d35c322983b704565045a94fbaf0933", "fusion_lon": 0.0, "lon": -76.99127366666667, "lat": 38.901354, "is_reserved": 0, "is_disabled": 0, "rental_uris": {"android": "https://dc.lft.to/lastmile_qr_scan", "ios": "https://dc.lft.to/lastmile_qr_scan"}, "name": "7d35c322983b704565045a94fbaf0933", "type": "electric_scooter"}, {"fusion_lat": 0.0, "bike_id": "3e6be88aa8abc86d117fab7123086b57", "fusion_lon": 0.0, "lon": -77.03267633333333, "lat": 38.89824316666667, "is_reserved": 0, "is_disabled": 0, "rental_uris": {"android": "https://dc.lft.to/lastmile_qr_scan", "ios": "https://dc.lft.to/lastmile_qr_scan"}, "name": "3e6be88aa8abc86d117fab7123086b57", "type": "electric_scooter"}, {"fusion_lat": 0.0, "bike_id": "169bb091984a78acd5b286739dc1a605", "fusion_lon": 0.0, "lon": -77.02780383333334, "lat": 38.88745933333333, "is_reserved": 0, "is_disabled": 0, "rental_uris": {"android": "https://dc.lft.to/lastmile_qr_scan", "ios": "https://dc.lft.to/lastmile_qr_scan"}, "name": "169bb091984a78acd5b286739dc1a605", "type": "electric_scooter"}, {"fusion_lat": 0.0, "bike_id": "813f435d213aa6a8deafba71e5b26150", "fusion_lon": 0.0, "lon": -77.024499, "lat": 38.914037, "is_reserved": 0, "is_disabled": 0, "rental_uris": {"android": "https://dc.lft.to/lastmile_qr_scan", "ios": "https://dc.lft.to/lastmile_qr_scan"}, "name": "813f435d213aa6a8deafba71e5b26150", "type": "electric_scooter"}, {"fusion_lat": 0.0, "bike_id": "f5380ac2cba1cda33dffb4fff99f0e34", "fusion_lon": 0.0, "lon": -77.04725633333334, "lat": 38.903074333333336, "is_reserved": 0, "is_disabled": 0, "rental_uris": {"android": "https://dc.lft.to/lastmile_qr_scan", "ios": "https://dc.lft.to/lastmile_qr_scan"}, "name": "f5380ac2cba1cda33dffb4fff99f0e34", "type": "electric_scooter"}, {"fusion_lat": 0.0, "bike_id": "718132ff002fa3f734af4f46fa55ca0f", "fusion_lon": 0.0, "lon": -77.01605216666667, "lat": 38.876864166666664, "is_reserved": 0, "is_disabled": 0, "rental_uris": {"android": "https://dc.lft.to/lastmile_qr_scan", "ios": "https://dc.lft.to/lastmile_qr_scan"}, "name": "718132ff002fa3f734af4f46fa55ca0f", "type": "electric_scooter"}, {"fusion_lat": 0.0, "bike_id": "afbc5bffe213a0776df19ca38d326c1d", "fusion_lon": 0.0, "lon": -77.025924, "lat": 38.94202216666667, "is_reserved": 0, "is_disabled": 0, "rental_uris": {"android": "https://dc.lft.to/lastmile_qr_scan", "ios": "https://dc.lft.to/lastmile_qr_scan"}, "name": "afbc5bffe213a0776df19ca38d326c1d", "type": "electric_scooter"}, {"fusion_lat": 0.0, "bike_id": "b6d90f5c8320e9b07034858d778b0116", "fusion_lon": 0.0, "lon": -77.03330966666667, "lat": 38.9012515, "is_reserved": 0, "is_disabled": 0, "rental_uris": {"android": "https://dc.lft.to/lastmile_qr_scan", "ios": "https://dc.lft.to/lastmile_qr_scan"}, "name": "b6d90f5c8320e9b07034858d778b0116", "type": "electric_scooter"}, {"fusion_lat": 0.0, "bike_id": "8f1ac0293ad28b8af7a489b19c8b5a98", "fusion_lon": 0.0, "lon": -77.03263516666667, "lat": 38.93080283333333, "is_reserved": 0, "is_disabled": 0, "rental_uris": {"android": "https://dc.lft.to/lastmile_qr_scan", "ios": "https://dc.lft.to/lastmile_qr_scan"}, "name": "8f1ac0293ad28b8af7a489b19c8b5a98", "type": "electric_scooter"}, {"fusion_lat": 0.0, "bike_id": "ea025107219f17300aded98585211329", "fusion_lon": 0.0, "lon": -77.04407983333333, "lat": 38.921081666666666, "is_reserved": 0, "is_disabled": 0, "rental_uris": {"android": "https://dc.lft.to/lastmile_qr_scan", "ios": "https://dc.lft.to/lastmile_qr_scan"}, "name": "ea025107219f17300aded98585211329", "type": "electric_scooter"}, {"fusion_lat": 0.0, "bike_id": "7b96c02b0cf62750d41b8d193242f8be", "fusion_lon": 0.0, "lon": -77.0087835, "lat": 38.9611855, "is_reserved": 0, "is_disabled": 0, "rental_uris": {"android": "https://dc.lft.to/lastmile_qr_scan", "ios": "https://dc.lft.to/lastmile_qr_scan"}, "name": "7b96c02b0cf62750d41b8d193242f8be", "type": "electric_scooter"}, {"fusion_lat": 0.0, "bike_id": "a138edd91a18f58d87a0c35f0732fc8f", "fusion_lon": 0.0, "lon": -77.0282435, "lat": 38.887322833333336, "is_reserved": 0, "is_disabled": 0, "rental_uris": {"android": "https://dc.lft.to/lastmile_qr_scan", "ios": "https://dc.lft.to/lastmile_qr_scan"}, "name": "a138edd91a18f58d87a0c35f0732fc8f", "type": "electric_scooter"}, {"fusion_lat": 0.0, "bike_id": "f619096193fbf31d9faf1256a3af9d60", "fusion_lon": 0.0, "lon": -77.0218025, "lat": 38.894793, "is_reserved": 0, "is_disabled": 0, "rental_uris": {"android": "https://dc.lft.to/lastmile_qr_scan", "ios": "https://dc.lft.to/lastmile_qr_scan"}, "name": "f619096193fbf31d9faf1256a3af9d60", "type": "electric_scooter"}, {"fusion_lat": 0.0, "bike_id": "7b4cab99fd3327a2096f3a846b71c403", "fusion_lon": 0.0, "lon": -77.0322265, "lat": 38.91403316666667, "is_reserved": 0, "is_disabled": 0, "rental_uris": {"android": "https://dc.lft.to/lastmile_qr_scan", "ios": "https://dc.lft.to/lastmile_qr_scan"}, "name": "7b4cab99fd3327a2096f3a846b71c403", "type": "electric_scooter"}, {"fusion_lat": 0.0, "bike_id": "f08b65e6217e36f94b0b1b423ea21421", "fusion_lon": 0.0, "lon": -77.02654933333334, "lat": 38.916934, "is_reserved": 0, "is_disabled": 0, "rental_uris": {"android": "https://dc.lft.to/lastmile_qr_scan", "ios": "https://dc.lft.to/lastmile_qr_scan"}, "name": "f08b65e6217e36f94b0b1b423ea21421", "type": "electric_scooter"}, {"fusion_lat": 0.0, "bike_id": "9d229515d1e2c9e4b165808f6312285f", "fusion_lon": 0.0, "lon": -76.93322133333334, "lat": 38.90054033333333, "is_reserved": 0, "is_disabled": 0, "rental_uris": {"android": "https://dc.lft.to/lastmile_qr_scan", "ios": "https://dc.lft.to/lastmile_qr_scan"}, "name": "9d229515d1e2c9e4b165808f6312285f", "type": "electric_scooter"}, {"fusion_lat": 0.0, "bike_id": "f35b838394925daa2bede5a905d957a2", "fusion_lon": 0.0, "lon": -77.0464905, "lat": 38.914244, "is_reserved": 0, "is_disabled": 0, "rental_uris": {"android": "https://dc.lft.to/lastmile_qr_scan", "ios": "https://dc.lft.to/lastmile_qr_scan"}, "name": "f35b838394925daa2bede5a905d957a2", "type": "electric_scooter"}, {"fusion_lat": 0.0, "bike_id": "6e2cbc3427aa001f0db3543c806e86ef", "fusion_lon": 0.0, "lon": -77.020709, "lat": 38.92406066666667, "is_reserved": 0, "is_disabled": 0, "rental_uris": {"android": "https://dc.lft.to/lastmile_qr_scan", "ios": "https://dc.lft.to/lastmile_qr_scan"}, "name": "6e2cbc3427aa001f0db3543c806e86ef", "type": "electric_scooter"}, {"fusion_lat": 0.0, "bike_id": "2e7bd650b4ed261e8448144297d9ef1d", "fusion_lon": 0.0, "lon": -76.98065216666667, "lat": 38.88953383333333, "is_reserved": 0, "is_disabled": 0, "rental_uris": {"android": "https://dc.lft.to/lastmile_qr_scan", "ios": "https://dc.lft.to/lastmile_qr_scan"}, "name": "2e7bd650b4ed261e8448144297d9ef1d", "type": "electric_scooter"}, {"fusion_lat": 0.0, "bike_id": "47a0c1675e5e8a4883d4f475631eea5e", "fusion_lon": 0.0, "lon": -77.00612416666667, "lat": 38.904170666666666, "is_reserved": 0, "is_disabled": 0, "rental_uris": {"android": "https://dc.lft.to/lastmile_qr_scan", "ios": "https://dc.lft.to/lastmile_qr_scan"}, "name": "47a0c1675e5e8a4883d4f475631eea5e", "type": "electric_scooter"}, {"fusion_lat": 0.0, "bike_id": "7e7ae7def4201eb855d11f5e1e19cd56", "fusion_lon": 0.0, "lon": -77.0574115, "lat": 38.933468500000004, "is_reserved": 0, "is_disabled": 0, "rental_uris": {"android": "https://dc.lft.to/lastmile_qr_scan", "ios": "https://dc.lft.to/lastmile_qr_scan"}, "name": "7e7ae7def4201eb855d11f5e1e19cd56", "type": "electric_scooter"}, {"fusion_lat": 0.0, "bike_id": "a518d4708ba8c3dc9c821c61cf166cfa", "fusion_lon": 0.0, "lon": -77.03530066666667, "lat": 38.924817166666664, "is_reserved": 0, "is_disabled": 0, "rental_uris": {"android": "https://dc.lft.to/lastmile_qr_scan", "ios": "https://dc.lft.to/lastmile_qr_scan"}, "name": "a518d4708ba8c3dc9c821c61cf166cfa", "type": "electric_scooter"}, {"fusion_lat": 0.0, "bike_id": "69771c7017ba174d2978fdf5311ed265", "fusion_lon": 0.0, "lon": -77.00378433333333, "lat": 38.87635616666667, "is_reserved": 0, "is_disabled": 0, "rental_uris": {"android": "https://dc.lft.to/lastmile_qr_scan", "ios": "https://dc.lft.to/lastmile_qr_scan"}, "name": "69771c7017ba174d2978fdf5311ed265", "type": "electric_scooter"}, {"fusion_lat": 0.0, "bike_id": "db5f0386d3e1811f67dfa395356c3c65", "fusion_lon": 0.0, "lon": -76.93734433333333, "lat": 38.890186666666665, "is_reserved": 0, "is_disabled": 0, "rental_uris": {"android": "https://dc.lft.to/lastmile_qr_scan", "ios": "https://dc.lft.to/lastmile_qr_scan"}, "name": "db5f0386d3e1811f67dfa395356c3c65", "type": "electric_scooter"}, {"fusion_lat": 0.0, "bike_id": "233c8c98b15201454c1d5fe916072f20", "fusion_lon": 0.0, "lon": -76.94881416666666, "lat": 38.8951135, "is_reserved": 0, "is_disabled": 0, "rental_uris": {"android": "https://dc.lft.to/lastmile_qr_scan", "ios": "https://dc.lft.to/lastmile_qr_scan"}, "name": "233c8c98b15201454c1d5fe916072f20", "type": "electric_scooter"}, {"fusion_lat": 0.0, "bike_id": "3ee446eb8e0cc23445acce2e375ed61f", "fusion_lon": 0.0, "lon": -77.02007866666666, "lat": 38.924185, "is_reserved": 0, "is_disabled": 0, "rental_uris": {"android": "https://dc.lft.to/lastmile_qr_scan", "ios": "https://dc.lft.to/lastmile_qr_scan"}, "name": "3ee446eb8e0cc23445acce2e375ed61f", "type": "electric_scooter"}, {"fusion_lat": 0.0, "bike_id": "236236f5b01802a031edfbd773d6ff58", "fusion_lon": 0.0, "lon": -76.980194, "lat": 38.853253333333335, "is_reserved": 0, "is_disabled": 0, "rental_uris": {"android": "https://dc.lft.to/lastmile_qr_scan", "ios": "https://dc.lft.to/lastmile_qr_scan"}, "name": "236236f5b01802a031edfbd773d6ff58", "type": "electric_bike"}, {"fusion_lat": 0.0, "bike_id": "5ab4c8e30bd502a836c7fd508dcbeb5f", "fusion_lon": 0.0, "lon": -77.03509916666667, "lat": 38.923456333333334, "is_reserved": 0, "is_disabled": 0, "rental_uris": {"android": "https://dc.lft.to/lastmile_qr_scan", "ios": "https://dc.lft.to/lastmile_qr_scan"}, "name": "5ab4c8e30bd502a836c7fd508dcbeb5f", "type": "electric_scooter"}, {"fusion_lat": 0.0, "bike_id": "1f09b3450d5cab4fa284ddcf320c4600", "fusion_lon": 0.0, "lon": -77.00792833333334, "lat": 38.897177, "is_reserved": 0, "is_disabled": 0, "rental_uris": {"android": "https://dc.lft.to/lastmile_qr_scan", "ios": "https://dc.lft.to/lastmile_qr_scan"}, "name": "1f09b3450d5cab4fa284ddcf320c4600", "type": "electric_scooter"}, {"fusion_lat": 0.0, "bike_id": "3918a769af1de3b32653106e090ada95", "fusion_lon": 0.0, "lon": -77.03187933333334, "lat": 38.917433, "is_reserved": 0, "is_disabled": 0, "rental_uris": {"android": "https://dc.lft.to/lastmile_qr_scan", "ios": "https://dc.lft.to/lastmile_qr_scan"}, "name": "3918a769af1de3b32653106e090ada95", "type": "electric_scooter"}, {"fusion_lat": 0.0, "bike_id": "2d0f67201c5ae6a02b608d6252f1781e", "fusion_lon": 0.0, "lon": -77.0321445, "lat": 38.897350833333334, "is_reserved": 0, "is_disabled": 0, "rental_uris": {"android": "https://dc.lft.to/lastmile_qr_scan", "ios": "https://dc.lft.to/lastmile_qr_scan"}, "name": "2d0f67201c5ae6a02b608d6252f1781e", "type": "electric_scooter"}, {"fusion_lat": 0.0, "bike_id": "90af2e0096667af5483fe0ff929498fb", "fusion_lon": 0.0, "lon": -77.0226915, "lat": 38.9241955, "is_reserved": 0, "is_disabled": 0, "rental_uris": {"android": "https://dc.lft.to/lastmile_qr_scan", "ios": "https://dc.lft.to/lastmile_qr_scan"}, "name": "90af2e0096667af5483fe0ff929498fb", "type": "electric_scooter"}, {"fusion_lat": 0.0, "bike_id": "a4ee06909404c8a9570d716a86c66e30", "fusion_lon": 0.0, "lon": -77.02165833333333, "lat": 38.89563116666667, "is_reserved": 0, "is_disabled": 0, "rental_uris": {"android": "https://dc.lft.to/lastmile_qr_scan", "ios": "https://dc.lft.to/lastmile_qr_scan"}, "name": "a4ee06909404c8a9570d716a86c66e30", "type": "electric_scooter"}, {"fusion_lat": 0.0, "bike_id": "b97919e35f914bb7c57759a9c752c035", "fusion_lon": 0.0, "lon": -76.96924983333334, "lat": 38.930297833333334, "is_reserved": 0, "is_disabled": 0, "rental_uris": {"android": "https://dc.lft.to/lastmile_qr_scan", "ios": "https://dc.lft.to/lastmile_qr_scan"}, "name": "b97919e35f914bb7c57759a9c752c035", "type": "electric_scooter"}, {"fusion_lat": 0.0, "bike_id": "878d74cd93b72740356f850eeac8d946", "fusion_lon": 0.0, "lon": -76.99812416666667, "lat": 38.9085945, "is_reserved": 0, "is_disabled": 0, "rental_uris": {"android": "https://dc.lft.to/lastmile_qr_scan", "ios": "https://dc.lft.to/lastmile_qr_scan"}, "name": "878d74cd93b72740356f850eeac8d946", "type": "electric_scooter"}, {"fusion_lat": 0.0, "bike_id": "ee7ec4e16c5d4ae880d87b3867bea828", "fusion_lon": 0.0, "lon": -77.02736466666667, "lat": 38.916996166666664, "is_reserved": 0, "is_disabled": 0, "rental_uris": {"android": "https://dc.lft.to/lastmile_qr_scan", "ios": "https://dc.lft.to/lastmile_qr_scan"}, "name": "ee7ec4e16c5d4ae880d87b3867bea828", "type": "electric_scooter"}, {"fusion_lat": 0.0, "bike_id": "c1f4f0b3f8385ebea8f0ef10d5dc1ef6", "fusion_lon": 0.0, "lon": -77.0316455, "lat": 38.89736083333333, "is_reserved": 0, "is_disabled": 0, "rental_uris": {"android": "https://dc.lft.to/lastmile_qr_scan", "ios": "https://dc.lft.to/lastmile_qr_scan"}, "name": "c1f4f0b3f8385ebea8f0ef10d5dc1ef6", "type": "electric_scooter"}, {"fusion_lat": 0.0, "bike_id": "c9931834199b705f1aac67a7066125d8", "fusion_lon": 0.0, "lon": -77.03330483333333, "lat": 38.901193166666665, "is_reserved": 0, "is_disabled": 0, "rental_uris": {"android": "https://dc.lft.to/lastmile_qr_scan", "ios": "https://dc.lft.to/lastmile_qr_scan"}, "name": "c9931834199b705f1aac67a7066125d8", "type": "electric_scooter"},