{"data": {"bikes": [{"is_disabled": 0, "fusion_lat": 0.0, "lat": 38.911245666666666, "type": "electric_scooter", "lon": -77.03833316666666, "is_reserved": 0, "fusion_lon": 0.0, "bike_id": "ef6f0c30e3c3e73f5eb5a44849bee087", "name": "ef6f0c30e3c3e73f5eb5a44849bee087", "rental_uris": {"ios": "https://dc.lft.to/lastmile_qr_scan", "android": "https://dc.lft.to/lastmile_qr_scan"}}, {"is_disabled": 0, "fusion_lat": 0.0, "lat": 38.92067383333333, "type": "electric_scooter", "lon": -77.03142133333333, "is_reserved": 0, "fusion_lon": 0.0, "bike_id": "d44ce219dfe48ba04a29bfa64e4b6dd3", "name": "d44ce219dfe48ba04a29bfa64e4b6dd3", "rental_uris": {"ios": "https://dc.lft.to/lastmile_qr_scan", "android": "https://dc.lft.to/lastmile_qr_scan"}}, {"is_disabled": 0, "fusion_lat": 0.0, "lat": 38.899196833333335, "type": "electric_scooter", "lon": -76.93380883333333, "is_reserved": 0, "fusion_lon": 0.0, "bike_id": "178df272d67ba4a31cc8f949a8fabb3b", "name": "178df272d67ba4a31cc8f949a8fabb3b", "rental_uris": {"ios": "https://dc.lft.to/lastmile_qr_scan", "android": "https://dc.lft.to/lastmile_qr_scan"}}, {"is_disabled": 0, "fusion_lat": 0.0, "lat": 38.92834083333333, "type": "electric_scooter", "lon": -77.03293166666667, "is_reserved": 0, "fusion_lon": 0.0, "bike_id": "23b4fae6d9bcaecd1502e1c06e5d0da2", "name": "23b4fae6d9bcaecd1502e1c06e5d0da2", "rental_uris": {"ios": "https://dc.lft.to/lastmile_qr_scan", "android": "https://dc.lft.to/lastmile_qr_scan"}}, {"is_disabled": 0, "fusion_lat": 0.0, "lat": 38.92330783333333, "type": "electric_scooter", "lon": -77.03801733333333, "is_reserved": 0, "fusion_lon": 0.0, "bike_id": "b4b032fa0560a409c424764553fdb27c", "name": "b4b032fa0560a409c424764553fdb27c", "rental_uris": {"ios": "https://dc.lft.to/lastmile_qr_scan", "android": "https://dc.lft.to/lastmile_qr_scan"}}, {"is_disabled": 0, "fusion_lat": 0.0, "lat": 38.9105045, "type": "electric_scooter", "lon": -77.0150975, "is_reserved": 0, "fusion_lon": 0.0, "bike_id": "aa9b315a01523e0624a9e0eef4ca63bd", "name": "aa9b315a01523e0624a9e0eef4ca63bd", "rental_uris": {"ios": "https://dc.lft.to/lastmile_qr_scan", "android": "https://dc.lft.to/lastmile_qr_scan"}}, {"is_disabled": 0, "fusion_lat": 0.0, "lat": 38.91671016666667, "type": "electric_scooter", "lon": -77.03841416666667, "is_reserved": 0, "fusion_lon": 0.0, "bike_id": "fca49b79f85a9253d7fd50fdccf49226", "name": "fca49b79f85a9253d7fd50fdccf49226", "rental_uris": {"ios": "https://dc.lft.to/lastmile_qr_scan", "android": "https://dc.lft.to/lastmile_qr_scan"}}, {"is_disabled": 0, "fusion_lat": 0.0, "lat": 38.933544166666664, "type": "electric_scooter", "lon": -77.058622, "is_reserved": 0, "fusion_lon": 0.0, "bike_id": "5395577f4339f6549f4f187d4346dda1", "name": "5395577f4339f6549f4f187d4346dda1", "rental_uris": {"ios": "https://dc.lft.to/lastmile_qr_scan", "android": "https://dc.lft.to/lastmile_qr_scan"}}, {"is_disabled": 0, "fusion_lat": 0.0, "lat": 38.912724833333336, "type": "electric_scooter", "lon": -77.038672, "is_reserved": 0, "fusion_lon": 0.0, "bike_id": "7cab1e9041055d924bafc0a2a84b3337", "name": "7cab1e9041055d924bafc0a2a84b3337", "rental_uris": {"ios": "https://dc.lft.to/lastmile_qr_scan", "android": "https://dc.lft.to/lastmile_qr_scan"}}, {"is_disabled": 0, "fusion_lat": 0.0, "lat": 38.861051833333335, "type": "electric_scooter", "lon": -76.983428, "is_reserved": 0, "fusion_lon": 0.0, "bike_id": "19a3e5366d90532591d1ae60a3926782", "name": "19a3e5366d90532591d1ae60a3926782", "rental_uris": {"ios": "https://dc.lft.to/lastmile_qr_scan", "android": "https://dc.lft.to/lastmile_qr_scan"}}, {"is_disabled": 0, "fusion_lat": 0.0, "lat": 38.919162, "type": "electric_scooter", "lon": -77.0319655, "is_reserved": 0, "fusion_lon": 0.0, "bike_id": "a9068ce622f05320dbb386f2bb5d05ab", "name": "a9068ce622f05320dbb386f2bb5d05ab", "rental_uris": {"ios": "https://dc.lft.to/lastmile_qr_scan", "android": "https://dc.lft.to/lastmile_qr_scan"}}, {"is_disabled": 0, "fusion_lat": 0.0, "lat": 38.9319605, "type": "electric_scooter", "lon": -77.02835666666667, "is_reserved": 0, "fusion_lon": 0.0, "bike_id": "d0b74db2ac004255cf6ee58abc1de0a5", "name": "d0b74db2ac004255cf6ee58abc1de0a5", "rental_uris": {"ios": "https://dc.lft.to/lastmile_qr_scan", "android": "https://dc.lft.to/lastmile_qr_scan"}}, {"is_disabled": 0, "fusion_lat": 0.0, "lat": 38.887719, "type": "electric_scooter", "lon": -77.02229366666667, "is_reserved": 0, "fusion_lon": 0.0, "bike_id": "a2178a4962976d06af0f877b7de057e3", "name": "a2178a4962976d06af0f877b7de057e3", "rental_uris": {"ios": "https://dc.lft.to/lastmile_qr_scan", "android": "https://dc.lft.to/lastmile_qr_scan"}}, {"is_disabled": 0, "fusion_lat": 0.0, "lat": 38.88432783333333, "type": "electric_scooter", "lon": -76.95751633333333, "is_reserved": 0, "fusion_lon": 0.0, "bike_id": "dcaa9067846558d0ae306e451b2169d0", "name": "dcaa9067846558d0ae306e451b2169d0", "rental_uris": {"ios": "https://dc.lft.to/lastmile_qr_scan", "android": "https://dc.lft.to/lastmile_qr_scan"}}, {"is_disabled": 0, "fusion_lat": 0.0, "lat": 38.91566483333333, "type": "electric_scooter", "lon": -77.03064333333333, "is_reserved": 0, "fusion_lon": 0.0, "bike_id": "96afb684ba7c47214775a1002c19ec67", "name": "96afb684ba7c47214775a1002c19ec67", "rental_uris": {"ios": "https://dc.lft.to/lastmile_qr_scan", "android": "https://dc.lft.to/lastmile_qr_scan"}}, {"is_disabled": 0, "fusion_lat": 0.0, "lat": 38.900644, "type": "electric_scooter", "lon": -76.93387366666667, "is_reserved": 0, "fusion_lon": 0.0, "bike_id": "af072c05311a586e44034af3b4d85668", "name": "af072c05311a586e44034af3b4d85668", "rental_uris": {"ios": "https://dc.lft.to/lastmile_qr_scan", "android": "https://dc.lft.to/lastmile_qr_scan"}}, {"is_disabled": 0, "fusion_lat": 0.0, "lat": 38.990764666666664, "type": "electric_bike", "lon": -76.87469966666667, "is_reserved": 0, "fusion_lon": 0.0, "bike_id": "fb3f1d7a2c201ba0d9fd5f34ab899582", "name": "fb3f1d7a2c201ba0d9fd5f34ab899582", "rental_uris": {"ios": "https://dc.lft.to/lastmile_qr_scan", "android": "https://dc.lft.to/lastmile_qr_scan"}}, {"is_disabled": 0, "fusion_lat": 0.0, "lat": 38.92289133333333, "type": "electric_scooter", "lon": -77.020728, "is_reserved": 0, "fusion_lon": 0.0, "bike_id": "9591efdb3d35695c52675a1bf1b0d077", "name": "9591efdb3d35695c52675a1bf1b0d077", "rental_uris": {"ios": "https://dc.lft.to/lastmile_qr_scan", "android": "https://dc.lft.to/lastmile_qr_scan"}}, {"is_disabled": 0, "fusion_lat": 0.0, "lat": 38.908012666666664, "type": "electric_scooter", "lon": -77.02399866666667, "is_reserved": 0, "fusion_lon": 0.0, "bike_id": "aa70f6ac3cd969e94c825164e6197884", "name": "aa70f6ac3cd969e94c825164e6197884", "rental_uris": {"ios": "https://dc.lft.to/lastmile_qr_scan", "android": "https://dc.lft.to/lastmile_qr_scan"}}, {"is_disabled": 0, "fusion_lat": 0.0, "lat": 38.91937883333333, "type": "electric_scooter", "lon": -77.08133666666667, "is_reserved": 0, "fusion_lon": 0.0, "bike_id": "3f7cbb6cc49ebe33a8de69833760da14", "name": "3f7cbb6cc49ebe33a8de69833760da14", "rental_uris": {"ios": "https://dc.lft.to/lastmile_qr_scan", "android": "https://dc.lft.to/lastmile_qr_scan"}}, {"is_disabled": 0, "fusion_lat": 0.0, "lat": 38.98462216666667, "type": "electric_bike", "lon": -76.95530816666667, "is_reserved": 0, "fusion_lon": 0.0, "bike_id": "25ee4145e157c2d61a0833e6f05342dd", "name": "25ee4145e157c2d61a0833e6f05342dd", "rental_uris": {"ios": "https://dc.lft.to/lastmile_qr_scan", "android": "https://dc.lft.to/lastmile_qr_scan"}}, {"is_disabled": 0, "fusion_lat": 0.0, "lat": 38.89228083333333, "type": "electric_scooter", "lon": -77.0465345, "is_reserved": 0, "fusion_lon": 0.0, "bike_id": "9408cbe2063989a68d6d67933264bd93", "name": "9408cbe2063989a68d6d67933264bd93", "rental_uris": {"ios": "https://dc.lft.to/lastmile_qr_scan", "android": "https://dc.lft.to/lastmile_qr_scan"}}, {"is_disabled": 0, "fusion_lat": 0.0, "lat": 38.902839666666665, "type": "electric_scooter", "lon": -77.040711, "is_reserved": 0, "fusion_lon": 0.0, "bike_id": "bb81da66736557c63d378f6d930d4f53", "name": "bb81da66736557c63d378f6d930d4f53", "rental_uris": {"ios": "https://dc.lft.to/lastmile_qr_scan", "android": "https://dc.lft.to/lastmile_qr_scan"}}, {"is_disabled": 0, "fusion_lat": 0.0, "lat": 38.921731666666666, "type": "electric_scooter", "lon": -77.051357, "is_reserved": 0, "fusion_lon": 0.0, "bike_id": "1ba760dee83b1ccbb2de2eb3baabbc40", "name": "1ba760dee83b1ccbb2de2eb3baabbc40", "rental_uris": {"ios": "https://dc.lft.to/lastmile_qr_scan", "android": "https://dc.lft.to/lastmile_qr_scan"}}, {"is_disabled": 0, "fusion_lat": 0.0, "lat": 38.900433666666665, "type": "electric_scooter", "lon": -76.988364, "is_reserved": 0, "fusion_lon": 0.0, "bike_id": "64d0d49479a4c35aae322204822188bb", "name": "64d0d49479a4c35aae322204822188bb", "rental_uris": {"ios": "https://dc.lft.to/lastmile_qr_scan", "android": "https://dc.lft.to/lastmile_qr_scan"}}, {"is_disabled": 0, "fusion_lat": 0.0, "lat": 38.9111625, "type": "electric_scooter", "lon": -77.045029, "is_reserved": 0, "fusion_lon": 0.0, "bike_id": "8e30d22b6e3d04dcc7d9f1a8a89cbbe6", "name": "8e30d22b6e3d04dcc7d9f1a8a89cbbe6", "rental_uris": {"ios": "https://dc.lft.to/lastmile_qr_scan", "android": "https://dc.lft.to/lastmile_qr_scan"}}, {"is_disabled": 0, "fusion_lat": 0.0, "lat": 38.85227, "type": "electric_bike", "lon": -77.12952866666667, "is_reserved": 0, "fusion_lon": 0.0, "bike_id": "fa9861197efc4b8f156948de5bcdf51d", "name": "fa9861197efc4b8f156948de5bcdf51d", "rental_uris": {"ios": "https://dc.lft.to/lastmile_qr_scan", "android": "https://dc.lft.to/lastmile_qr_scan"}}, {"is_disabled": 0, "fusion_lat": 0.0, "lat": 38.90050333333333, "type": "electric_scooter", "lon": -77.00758416666666, "is_reserved": 0, "fusion_lon": 0.0, "bike_id": "4b42c32210ad6ed337c3f19b41a6a3b7", "name": "4b42c32210ad6ed337c3f19b41a6a3b7", "rental_uris": {"ios": "https://dc.lft.to/lastmile_qr_scan", "android": "https://dc.lft.to/lastmile_qr_scan"}}, {"is_disabled": 0, "fusion_lat": 0.0, "lat": 38.86593583333333, "type": "electric_bike", "lon": -76.93232116666667, "is_reserved": 0, "fusion_lon": 0.0, "bike_id": "0936a81775842dc64c04a6c594b6c7fd", "name": "0936a81775842dc64c04a6c594b6c7fd", "rental_uris": {"ios": "https://dc.lft.to/lastmile_qr_scan", "android": "https://dc.lft.to/lastmile_qr_scan"}}, {"is_disabled": 0, "fusion_lat": 0.0, "lat": 38.9859915, "type": "electric_bike", "lon": -77.0375445, "is_reserved": 0, "fusion_lon": 0.0, "bike_id": "e94d7808acb145262a02bb980dd2e34e", "name": "e94d7808acb145262a02bb980dd2e34e", "rental_uris": {"ios": "https://dc.lft.to/lastmile_qr_scan", "android": "https://dc.lft.to/lastmile_qr_scan"}}, {"is_disabled": 0, "fusion_lat": 0.0, "lat": 38.94279183333333, "type": "electric_scooter", "lon": -77.03257333333333, "is_reserved": 0, "fusion_lon": 0.0, "bike_id": "f2efefcb7adbbe3bca9ecdc5e5eb131d", "name": "f2efefcb7adbbe3bca9ecdc5e5eb131d", "rental_uris": {"ios": "https://dc.lft.to/lastmile_qr_scan", "android": "https://dc.lft.to/lastmile_qr_scan"}}, {"is_disabled": 0, "fusion_lat": 0.0, "lat": 38.89411716666667, "type": "electric_scooter", "lon": -76.95668133333334, "is_reserved": 0, "fusion_lon": 0.0, "bike_id": "d1643db04de1579f7ce1f773d605a7d4", "name": "d1643db04de1579f7ce1f773d605a7d4", "rental_uris": {"ios": "https://dc.lft.to/lastmile_qr_scan", "android": "https://dc.lft.to/lastmile_qr_scan"}}, {"is_disabled": 0, "fusion_lat": 0.0, "lat": 38.92127716666667, "type": "electric_scooter", "lon": -77.0179395, "is_reserved": 0, "fusion_lon": 0.0, "bike_id": "ab5fadc1988b680198d99ea306f11240", "name": "ab5fadc1988b680198d99ea306f11240", "rental_uris": {"ios": "https://dc.lft.to/lastmile_qr_scan", "android": "https://dc.lft.to/lastmile_qr_scan"}}, {"is_disabled": 0, "fusion_lat": 0.0, "lat": 38.91550733333333, "type": "electric_scooter", "lon": -77.03840183333334, "is_reserved": 0, "fusion_lon": 0.0, "bike_id": "294664ec3f5caee029102537389553ae", "name": "294664ec3f5caee029102537389553ae", "rental_uris": {"ios": "https://dc.lft.to/lastmile_qr_scan", "android": "https://dc.lft.to/lastmile_qr_scan"}}, {"is_disabled": 0, "fusion_lat": 0.0, "lat": 38.936324166666665, "type": "electric_bike", "lon": -77.03650666666667, "is_reserved": 0, "fusion_lon": 0.0, "bike_id": "760f7926e85def214f1426d985af8284", "name": "760f7926e85def214f1426d985af8284", "rental_uris": {"ios": "https://dc.lft.to/lastmile_qr_scan", "android": "https://dc.lft.to/lastmile_qr_scan"}}, {"is_disabled": 0, "fusion_lat": 0.0, "lat": 38.916305, "type": "electric_scooter", "lon": -77.03178716666666, "is_reserved": 0, "fusion_lon": 0.0, "bike_id": "92c598351dece1debc464d6d2cf6b188", "name": "92c598351dece1debc464d6d2cf6b188", "rental_uris": {"ios": "https://dc.lft.to/lastmile_qr_scan", "android": "https://dc.lft.to/lastmile_qr_scan"}}, {"is_disabled": 0, "fusion_lat": 0.0, "lat": 38.927931, "type": "electric_scooter", "lon": -77.03154383333333, "is_reserved": 0, "fusion_lon": 0.0, "bike_id": "61896483fce609f58848621e72e90399", "name": "61896483fce609f58848621e72e90399", "rental_uris": {"ios": "https://dc.lft.to/lastmile_qr_scan", "android": "https://dc.lft.to/lastmile_qr_scan"}}, {"is_disabled": 0, "fusion_lat": 0.0, "lat": 38.912740166666666, "type": "electric_scooter", "lon": -77.0386835, "is_reserved": 0, "fusion_lon": 0.0, "bike_id": "1cd7dfa04f991adbf06561b83962f19b", "name": "1cd7dfa04f991adbf06561b83962f19b", "rental_uris": {"ios": "https://dc.lft.to/lastmile_qr_scan", "android": "https://dc.lft.to/lastmile_qr_scan"}}, {"is_disabled": 0, "fusion_lat": 0.0, "lat": 38.92302, "type": "electric_scooter", "lon": -77.0421655, "is_reserved": 0, "fusion_lon": 0.0, "bike_id": "1cbc7fe2165e1cd714dd862ed6c6de8b", "name": "1cbc7fe2165e1cd714dd862ed6c6de8b", "rental_uris": {"ios": "https://dc.lft.to/lastmile_qr_scan", "android": "https://dc.lft.to/lastmile_qr_scan"}}, {"is_disabled": 0, "fusion_lat": 0.0, "lat": 38.9012975, "type": "electric_scooter", "lon": -76.99705066666667, "is_reserved": 0, "fusion_lon": 0.0, "bike_id": "84bde993956e89dbe7228c54c384b510", "name": "84bde993956e89dbe7228c54c384b510", "rental_uris": {"ios": "https://dc.lft.to/lastmile_qr_scan", "android": "https://dc.lft.to/lastmile_qr_scan"}}, {"is_disabled": 0, "fusion_lat": 0.0, "lat": 38.91162466666667, "type": "electric_scooter", "lon": -76.98659866666667, "is_reserved": 0, "fusion_lon": 0.0, "bike_id": "b0e85710506bae6a48c181fbb2c8b352", "name": "b0e85710506bae6a48c181fbb2c8b352", "rental_uris": {"ios": "https://dc.lft.to/lastmile_qr_scan", "android": "https://dc.lft.to/lastmile_qr_scan"}}, {"is_disabled": 0, "fusion_lat": 0.0, "lat": 38.95282816666667, "type": "electric_scooter", "lon": -77.0688265, "is_reserved": 0, "fusion_lon": 0.0, "bike_id": "87c4222ce0e1ef40166ccf229b9f277d", "name": "87c4222ce0e1ef40166ccf229b9f277d", "rental_uris": {"ios": "https://dc.lft.to/lastmile_qr_scan", "android": "https://dc.lft.to/lastmile_qr_scan"}}, {"is_disabled": 0, "fusion_lat": 0.0, "lat": 38.92707766666667, "type": "electric_scooter", "lon": -77.040455, "is_reserved": 0, "fusion_lon": 0.0, "bike_id": "be6b4cb45370af38b0941f8eabfa3f24", "name": "be6b4cb45370af38b0941f8eabfa3f24", "rental_uris": {"ios": "https://dc.lft.to/lastmile_qr_scan", "android": "https://dc.lft.to/lastmile_qr_scan"}}, {"is_disabled": 0, "fusion_lat": 0.0, "lat": 38.9201865, "type": "electric_scooter", "lon": -77.04072033333334, "is_reserved": 0, "fusion_lon": 0.0, "bike_id": "36bfb3ce2bfd2709281973ef1e179ba9", "name": "36bfb3ce2bfd2709281973ef1e179ba9", "rental_uris": {"ios": "https://dc.lft.to/lastmile_qr_scan", "android": "https://dc.lft.to/lastmile_qr_scan"}}, {"is_disabled": 0, "fusion_lat": 0.0, "lat": 38.920114166666664, "type": "electric_scooter", "lon": -77.02183933333333, "is_reserved": 0, "fusion_lon": 0.0, "bike_id": "6f937ff2025ea7c807a23189cd32b733", "name": "6f937ff2025ea7c807a23189cd32b733", "rental_uris": {"ios": "https://dc.lft.to/lastmile_qr_scan", "android": "https://dc.lft.to/lastmile_qr_scan"}}, {"is_disabled": 0, "fusion_lat": 0.0, "lat": 38.914182, "type": "electric_scooter", "lon": -77.012837, "is_reserved": 0, "fusion_lon": 0.0, "bike_id": "bee40f5b3d06ac4e8da6c1199a631640", "name": "bee40f5b3d06ac4e8da6c1199a631640", "rental_uris": {"ios": "https://dc.lft.to/lastmile_qr_scan", "android": "https://dc.lft.to/lastmile_qr_scan"}}, {"is_disabled": 0, "fusion_lat": 0.0, "lat": 38.892272, "type": "electric_scooter", "lon": -77.046526, "is_reserved": 0, "fusion_lon": 0.0, "bike_id": "cf484540eb140cdac62492a9dc9907c4", "name": "cf484540eb140cdac62492a9dc9907c4", "rental_uris": {"ios": "https://dc.lft.to/lastmile_qr_scan", "android": "https://dc.lft.to/lastmile_qr_scan"}}, {"is_disabled": 0, "fusion_lat": 0.0, "lat": 38.92256416666667, "type": "electric_scooter", "lon": -77.0340555, "is_reserved": 0, "fusion_lon": 0.0, "bike_id": "632a39d07181b303e382dd7821ce0934", "name": "632a39d07181b303e382dd7821ce0934", "rental_uris": {"ios": "https://dc.lft.to/lastmile_qr_scan", "android": "https://dc.lft.to/lastmile_qr_scan"}}, {"is_disabled": 0, "fusion_lat": 0.0, "lat": 38.9232125, "type": "electric_scooter", "lon": -77.03577983333334, "is_reserved": 0, "fusion_lon": 0.0, "bike_id": "edfe4b3942a00fe1f61c7caf3bd6de04", "name": "edfe4b3942a00fe1f61c7caf3bd6de04", "rental_uris": {"ios": "https://dc.lft.to/lastmile_qr_scan", "android": "https://dc.lft.to/lastmile_qr_scan"}}, {"is_disabled": 0, "fusion_lat": 0.0, "lat": 38.87482383333333, "type": "electric_scooter", "lon": -77.01070733333333, "is_reserved": 0, "fusion_lon": 0.0, "bike_id": "1d8c50583f844d45c750e9f29b6d1cd3", "name": "1d8c50583f844d45c750e9f29b6d1cd3", "rental_uris": {"ios": "https://dc.lft.to/lastmile_qr_scan", "android": "https://dc.lft.to/lastmile_qr_scan"}}, {"is_disabled": 0, "fusion_lat": 0.0, "lat": 38.87660183333333, "type": "electric_scooter", "lon": -77.00433183333334, "is_reserved": 0, "fusion_lon": 0.0, "bike_id": "d042491d9b64367e9ed302cadb3f66a7", "name": "d042491d9b64367e9ed302cadb3f66a7", "rental_uris": {"ios": "https://dc.lft.to/lastmile_qr_scan", "android": "https://dc.lft.to/lastmile_qr_scan"}}, {"is_disabled": 0, "fusion_lat": 0.0, "lat": 38.8945685, "type": "electric_bike", "lon": -76.97031366666667, "is_reserved": 0, "fusion_lon": 0.0, "bike_id": "251e5a6b86326927260f61438c00d1bf", "name": "251e5a6b86326927260f61438c00d1bf", "rental_uris": {"ios": "https://dc.lft.to/lastmile_qr_scan", "android": "https://dc.lft.to/lastmile_qr_scan"}}, {"is_disabled": 0, "fusion_lat": 0.0, "lat": 38.86444566666667, "type": "electric_scooter", "lon": -76.97375366666667, "is_reserved": 0, "fusion_lon": 0.0, "bike_id": "20d57ee3cd40d8ed17e4819149bbee6d", "name": "20d57ee3cd40d8ed17e4819149bbee6d", "rental_uris": {"ios": "https://dc.lft.to/lastmile_qr_scan", "android": "https://dc.lft.to/lastmile_qr_scan"}}, {"is_disabled": 0, "fusion_lat": 0.0, "lat": 38.908174833333334, "type": "electric_scooter", "lon": -76.99855366666667, "is_reserved": 0, "fusion_lon": 0.0, "bike_id": "99b7896020cfc689006dd908e2a7fc05", "name": "99b7896020cfc689006dd908e2a7fc05", "rental_uris": {"ios": "https://dc.lft.to/lastmile_qr_scan", "android": "https://dc.lft.to/lastmile_qr_scan"}}, {"is_disabled": 0, "fusion_lat": 0.0, "lat": 38.82262566666667, "type": "electric_bike", "lon": -77.00552533333334, "is_reserved": 0, "fusion_lon": 0.0, "bike_id": "00bce027aea0dd2c893c2e869a517bc7", "name": "00bce027aea0dd2c893c2e869a517bc7", "rental_uris": {"ios": "https://dc.lft.to/lastmile_qr_scan", "android": "https://dc.lft.to/lastmile_qr_scan"}}, {"is_disabled": 0, "fusion_lat": 0.0, "lat": 38.92383483333333, "type": "electric_scooter", "lon": -77.03065533333333, "is_reserved": 0, "fusion_lon": 0.0, "bike_id": "3f0b9a5338d1cee38721844b266c5edd", "name": "3f0b9a5338d1cee38721844b266c5edd", "rental_uris": {"ios": "https://dc.lft.to/lastmile_qr_scan", "android": "https://dc.lft.to/lastmile_qr_scan"}}, {"is_disabled": 0, "fusion_lat": 0.0, "lat": 38.911128833333336, "type": "electric_scooter", "lon": -77.024168, "is_reserved": 0, "fusion_lon": 0.0, "bike_id": "0347fde47a267b00f3d3a49974e2ed6e", "name": "0347fde47a267b00f3d3a49974e2ed6e", "rental_uris": {"ios": "https://dc.lft.to/lastmile_qr_scan", "android": "https://dc.lft.to/lastmile_qr_scan"}}, {"is_disabled": 0, "fusion_lat": 0.0, "lat": 38.8995355, "type": "electric_scooter", "lon": -77.051722, "is_reserved": 0, "fusion_lon": 0.0, "bike_id": "f643ea0ce92dec6add8f0138ae3a7672", "name": "f643ea0ce92dec6add8f0138ae3a7672", "rental_uris": {"ios": "https://dc.lft.to/lastmile_qr_scan", "android": "https://dc.lft.to/lastmile_qr_scan"}}, {"is_disabled": 0, "fusion_lat": 0.0, "lat": 38.90813133333333, "type": "electric_scooter", "lon": -77.04343833333333, "is_reserved": 0, "fusion_lon": 0.0, "bike_id": "b1aea3f6f55a849c945b73adf9da5043", "name": "b1aea3f6f55a849c945b73adf9da5043", "rental_uris": {"ios": "https://dc.lft.to/lastmile_qr_scan", "android": "https://dc.lft.to/lastmile_qr_scan"}}, {"is_disabled": 0, "fusion_lat": 0.0, "lat": 38.905741166666665, "type": "electric_scooter", "lon": -77.02975683333334, "is_reserved": 0, "fusion_lon": 0.0, "bike_id": "ba5faa2111c7c5c98d0475013cf9a3cd", "name": "ba5faa2111c7c5c98d0475013cf9a3cd", "rental_uris": {"ios": "https://dc.lft.to/lastmile_qr_scan", "android": "https://dc.lft.to/lastmile_qr_scan"}}, {"is_disabled": 0, "fusion_lat": 0.0, "lat": 38.892230166666664, "type": "electric_scooter", "lon": -77.02647466666667, "is_reserved": 0, "fusion_lon": 0.0, "bike_id": "b34ed1b625bbd97af367a9bc11657bb6", "name": "b34ed1b625bbd97af367a9bc11657bb6", "rental_uris": {"ios": "https://dc.lft.to/lastmile_qr_scan", "android": "https://dc.lft.to/lastmile_qr_scan"}}, {"is_disabled": 0, "fusion_lat": 0.0, "lat": 38.8926715, "type": "electric_scooter", "lon": -76.94157033333333, "is_reserved": 0, "fusion_lon": 0.0, "bike_id": "28d73931e9efc39f9c4a54a61e782148", "name": "28d73931e9efc39f9c4a54a61e782148", "rental_uris": {"ios": "https://dc.lft.to/lastmile_qr_scan", "android": "https://dc.lft.to/lastmile_qr_scan"}}, {"is_disabled": 0, "fusion_lat": 0.0, "lat": 38.926284333333335, "type": "electric_scooter", "lon": -77.03780216666667, "is_reserved": 0, "fusion_lon": 0.0, "bike_id": "fbad704f9096d4da1f72ef0b6d79090d", "name": "fbad704f9096d4da1f72ef0b6d79090d", "rental_uris": {"ios": "https://dc.lft.to/lastmile_qr_scan", "android": "https://dc.lft.to/lastmile_qr_scan"}}, {"is_disabled": 0, "fusion_lat": 0.0, "lat": 38.902071166666666, "type": "electric_scooter", "lon": -77.0437215, "is_reserved": 0, "fusion_lon": 0.0, "bike_id": "c06f8495e3342ce42c284eb8e8a502b9", "name": "c06f8495e3342ce42c284eb8e8a502b9", "rental_uris": {"ios": "https://dc.lft.to/lastmile_qr_scan", "android": "https://dc.lft.to/lastmile_qr_scan"}}, {"is_disabled": 0, "fusion_lat": 0.0, "lat": 38.9592555, "type": "electric_scooter", "lon": -77.03324583333334, "is_reserved": 0, "fusion_lon": 0.0, "bike_id": "6926c3f8c92ed131feaf402b2b5cfba6", "name": "6926c3f8c92ed131feaf402b2b5cfba6", "rental_uris": {"ios": "https://dc.lft.to/lastmile_qr_scan", "android": "https://dc.lft.to/lastmile_qr_scan"}}, {"is_disabled": 0, "fusion_lat": 0.0, "lat": 38.917607, "type": "electric_scooter", "lon": -77.032062, "is_reserved": 0, "fusion_lon": 0.0, "bike_id": "0c2b33fecc442e7646813c75d469b7b1", "name": "0c2b33fecc442e7646813c75d469b7b1", "rental_uris": {"ios": "https://dc.lft.to/lastmile_qr_scan", "android": "https://dc.lft.to/lastmile_qr_scan"}}, {"is_disabled": 0, "fusion_lat": 0.0, "lat": 38.90801716666667, "type": "electric_scooter", "lon": -77.01864533333334, "is_reserved": 0, "fusion_lon": 0.0, "bike_id": "34dd349d6ed1854ca84eb47d8b6a6143", "name": "34dd349d6ed1854ca84eb47d8b6a6143", "rental_uris": {"ios": "https://dc.lft.to/lastmile_qr_scan", "android": "https://dc.lft.to/lastmile_qr_scan"}}, {"is_disabled": 0, "fusion_lat": 0.0, "lat": 38.948357666666666, "type": "electric_scooter", "lon": -77.02558516666667, "is_reserved": 0, "fusion_lon": 0.0, "bike_id": "c93aa87631325db8965055cd54604942", "name": "c93aa87631325db8965055cd54604942", "rental_uris": {"ios": "https://dc.lft.to/lastmile_qr_scan", "android": "https://dc.lft.to/lastmile_qr_scan"}}, {"is_disabled": 0, "fusion_lat": 0.0, "lat": 38.86567616666667, "type": "electric_scooter", "lon": -76.98951533333333, "is_reserved": 0, "fusion_lon": 0.0, "bike_id": "5149e3d0947d48db01e8f431e5f8e537", "name": "5149e3d0947d48db01e8f431e5f8e537", "rental_uris": {"ios": "https://dc.lft.to/lastmile_qr_scan", "android": "https://dc.lft.to/lastmile_qr_scan"}}, {"is_disabled": 0, "fusion_lat": 0.0, "lat": 38.90051783333333, "type": "electric_scooter", "lon": -77.00213083333334, "is_reserved": 0, "fusion_lon": 0.0, "bike_id": "9f6ba4bd6b1a527feddbe5aa3d19609b", "name": "9f6ba4bd6b1a527feddbe5aa3d19609b", "rental_uris": {"ios": "https://dc.lft.to/lastmile_qr_scan", "android": "https://dc.lft.to/lastmile_qr_scan"}}, {"is_disabled": 0, "fusion_lat": 0.0, "lat": 38.896136, "type": "electric_scooter", "lon": -77.04409316666667, "is_reserved": 0, "fusion_lon": 0.0, "bike_id": "575617724f4b98f742b3e5ec4319b673", "name": "575617724f4b98f742b3e5ec4319b673", "rental_uris": {"ios": "https://dc.lft.to/lastmile_qr_scan", "android": "https://dc.lft.to/lastmile_qr_scan"}}, {"is_disabled": 0, "fusion_lat": 0.0, "lat": 38.90717083333333, "type": "electric_scooter", "lon": -77.02966683333334, "is_reserved": 0, "fusion_lon": 0.0, "bike_id": "9ce5be314eaf1c9d7134d1603349252e", "name": "9ce5be314eaf1c9d7134d1603349252e", "rental_uris": {"ios": "https://dc.lft.to/lastmile_qr_scan", "android": "https://dc.lft.to/lastmile_qr_scan"}}, {"is_disabled": 0, "fusion_lat": 0.0, "lat": 38.90248483333333, "type": "electric_scooter", "lon": -77.01746183333333, "is_reserved": 0, "fusion_lon": 0.0, "bike_id": "6ba53d248726b088d877261d4e695875", "name": "6ba53d248726b088d877261d4e695875", "rental_uris": {"ios": "https://dc.lft.to/lastmile_qr_scan", "android": "https://dc.lft.to/lastmile_qr_scan"}}, {"is_disabled": 0, "fusion_lat": 0.0, "lat": 38.918985, "type": "electric_scooter", "lon": -77.03910333333333, "is_reserved": 0, "fusion_lon": 0.0, "bike_id": "443c8763615bea9760a61762f35834a1", "name": "443c8763615bea9760a61762f35834a1", "rental_uris": {"ios": "https://dc.lft.to/lastmile_qr_scan", "android": "https://dc.lft.to/lastmile_qr_scan"}}, {"is_disabled": 0, "fusion_lat": 0.0, "lat": 38.921532, "type": "electric_scooter", "lon": -77.04217933333334, "is_reserved": 0, "fusion_lon": 0.0, "bike_id": "5899f8c09568408757be417a54ac1d77", "name": "5899f8c09568408757be417a54ac1d77", "rental_uris": {"ios": "https://dc.lft.to/lastmile_qr_scan", "android": "https://dc.lft.to/lastmile_qr_scan"}}, {"is_disabled": 0, "fusion_lat": 0.0, "lat": 38.905614, "type": "electric_scooter", "lon": -77.03482816666667, "is_reserved": 0, "fusion_lon": 0.0, "bike_id": "212c6647cca24fb4cfcbd0e0c8aef413", "name": "212c6647cca24fb4cfcbd0e0c8aef413", "rental_uris": {"ios": "https://dc.lft.to/lastmile_qr_scan", "android": "https://dc.lft.to/lastmile_qr_scan"}}, {"is_disabled": 0, "fusion_lat": 0.0, "lat": 38.930967833333334, "type": "electric_scooter", "lon": -77.02508683333333, "is_reserved": 0, "fusion_lon": 0.0, "bike_id": "a6f1c5444a7065d39b5761bb21b46d22", "name": "a6f1c5444a7065d39b5761bb21b46d22", "rental_uris": {"ios": "https://dc.lft.to/lastmile_qr_scan", "android": "https://dc.lft.to/lastmile_qr_scan"}}, {"is_disabled": 0, "fusion_lat": 0.0, "lat": 38.89561166666667, "type": "electric_bike", "lon": -77.1273485, "is_reserved": 0, "fusion_lon": 0.0, "bike_id": "288e44c7f111a76cea7b88f97c5a66b3", "name": "288e44c7f111a76cea7b88f97c5a66b3", "rental_uris": {"ios": "https://dc.lft.to/lastmile_qr_scan", "android": "https://dc.lft.to/lastmile_qr_scan"}}, {"is_disabled": 0, "fusion_lat": 0.0, "lat": 38.91874033333333, "type": "electric_scooter", "lon": -77.02608883333333, "is_reserved": 0, "fusion_lon": 0.0, "bike_id": "dd3a7470e9c6f0be4935b350c0df4d4e", "name": "dd3a7470e9c6f0be4935b350c0df4d4e", "rental_uris": {"ios": "https://dc.lft.to/lastmile_qr_scan", "android": "https://dc.lft.to/lastmile_qr_scan"}}, {"is_disabled": 0, "fusion_lat": 0.0, "lat": 38.921577166666665, "type": "electric_scooter", "lon": -77.02420816666667, "is_reserved": 0, "fusion_lon": 0.0, "bike_id": "edba300d9cc9caf0541d267adf45c149", "name": "edba300d9cc9caf0541d267adf45c149", "rental_uris": {"ios": "https://dc.lft.to/lastmile_qr_scan", "android": "https://dc.lft.to/lastmile_qr_scan"}}, {"is_disabled": 0, "fusion_lat": 0.0, "lat": 38.914182833333335, "type": "electric_scooter", "lon": -77.01961233333333, "is_reserved": 0, "fusion_lon": 0.0, "bike_id": "977f84c72232f6348ea2b2ffa18e746f", "name": "977f84c72232f6348ea2b2ffa18e746f", "rental_uris": {"ios": "https://dc.lft.to/lastmile_qr_scan", "android": "https://dc.lft.to/lastmile_qr_scan"}}, {"is_disabled": 0, "fusion_lat": 0.0, "lat": 38.89616216666667, "type": "electric_scooter", "lon": -76.95590516666667, "is_reserved": 0, "fusion_lon": 0.0, "bike_id": "8902eed301984e4b649e02642a5f7495", "name": "8902eed301984e4b649e02642a5f7495", "rental_uris": {"ios": "https://dc.lft.to/lastmile_qr_scan", "android": "https://dc.lft.to/lastmile_qr_scan"}}, {"is_disabled": 0, "fusion_lat": 0.0, "lat": 38.92318, "type": "electric_scooter", "lon": -77.0395925, "is_reserved": 0, "fusion_lon": 0.0, "bike_id": "8a475cb8bac603c563cb253e7f618bc3", "name": "8a475cb8bac603c563cb253e7f618bc3", "rental_uris": {"ios": "https://dc.lft.to/lastmile_qr_scan", "android": "https://dc.lft.to/lastmile_qr_scan"}}, {"is_disabled": 0, "fusion_lat": 0.0, "lat": 38.903804, "type": "electric_scooter", "lon": -77.044794, "is_reserved": 0, "fusion_lon": 0.0, "bike_id": "6fc843883cf5ec597f12c83992ecebb7", "name": "6fc843883cf5ec597f12c83992ecebb7", "rental_uris": {"ios": "https://dc.lft.to/lastmile_qr_scan", "android": "https://dc.lft.to/lastmile_qr_scan"}}, {"is_disabled": 0, "fusion_lat": 0.0, "lat": 38.911096, "type": "electric_scooter", "lon": -77.00212016666667, "is_reserved": 0, "fusion_lon": 0.0, "bike_id": "7720a884fbef660818d3903abde36b44", "name": "7720a884fbef660818d3903abde36b44", "rental_uris": {"ios": "https://dc.lft.to/lastmile_qr_scan", "android": "https://dc.lft.to/lastmile_qr_scan"}}, {"is_disabled": 0, "fusion_lat": 0.0, "lat": 38.917655, "type": "electric_scooter", "lon": -77.0040745, "is_reserved": 0, "fusion_lon": 0.0, "bike_id": "504cc5c1f5bc1e4d341555fcee1ad8b3", "name": "504cc5c1f5bc1e4d341555fcee1ad8b3", "rental_uris": {"ios": "https://dc.lft.to/lastmile_qr_scan", "android": "https://dc.lft.to/lastmile_qr_scan"}}, {"is_disabled": 0, "fusion_lat": 0.0, "lat": 38.9078855, "type": "electric_scooter", "lon": -77.03859033333333, "is_reserved": 0, "fusion_lon": 0.0, "bike_id": "83eb009dc5ec7ea8982320da0bd256a4", "name": "83eb009dc5ec7ea8982320da0bd256a4", "rental_uris": {"ios": "https://dc.lft.to/lastmile_qr_scan", "android": "https://dc.lft.to/lastmile_qr_scan"}}, {"is_disabled": 0, "fusion_lat": 0.0, "lat": 38.92365733333333, "type": "electric_scooter", "lon": -77.05128466666666, "is_reserved": 0, "fusion_lon": 0.0, "bike_id": "c9faffbdf36c310e96f43abbc3028c4e", "name": "c9faffbdf36c310e96f43abbc3028c4e", "rental_uris": {"ios": "https://dc.lft.to/lastmile_qr_scan", "android": "https://dc.lft.to/lastmile_qr_scan"}}, {"is_disabled": 0, "fusion_lat": 0.0, "lat": 38.913995166666666, "type": "electric_scooter", "lon": -77.0393585, "is_reserved": 0, "fusion_lon": 0.0, "bike_id": "a15851d02eabd3f4d835959c36cb9632", "name": "a15851d02eabd3f4d835959c36cb9632", "rental_uris": {"ios": "https://dc.lft.to/lastmile_qr_scan", "android": "https://dc.lft.to/lastmile_qr_scan"}}, {"is_disabled": 0, "fusion_lat": 0.0, "lat": 38.87248, "type": "electric_scooter", "lon": -76.97727, "is_reserved": 0, "fusion_lon": 0.0, "bike_id": "26697dd48e2230815544dd0b14b463d3", "name": "26697dd48e2230815544dd0b14b463d3", "rental_uris": {"ios": "https://dc.lft.to/lastmile_qr_scan", "android": "https://dc.lft.to/lastmile_qr_scan"}}, {"is_disabled": 0, "fusion_lat": 0.0, "lat": 38.9213845, "type": "electric_scooter", "lon": -77.01794583333333, "is_reserved": 0, "fusion_lon": 0.0, "bike_id": "c4283ba8fea895b8e0e9e793bd19de16", "name": "c4283ba8fea895b8e0e9e793bd19de16", "rental_uris": {"ios": "https://dc.lft.to/lastmile_qr_scan", "android": "https://dc.lft.to/lastmile_qr_scan"}}, {"is_disabled": 0, "fusion_lat": 0.0, "lat": 38.901742166666665, "type": "electric_scooter", "lon": -76.9807385, "is_reserved": 0, "fusion_lon": 0.0, "bike_id": "ed4357894ac40a58e508c4b8963eadd0", "name": "ed4357894ac40a58e508c4b8963eadd0", "rental_uris": {"ios": "https://dc.lft.to/lastmile_qr_scan", "android": "https://dc.lft.to/lastmile_qr_scan"}}, {"is_disabled": 0, "fusion_lat": 0.0, "lat": 38.895406666666666, "type": "electric_scooter", "lon": -76.9489025, "is_reserved": 0, "fusion_lon": 0.0, "bike_id": "fea1ba413a9f1a6218a2a5ddf79ab611", "name": "fea1ba413a9f1a6218a2a5ddf79ab611", "rental_uris": {"ios": "https://dc.lft.to/lastmile_qr_scan", "android": "https://dc.lft.to/lastmile_qr_scan"}}, {"is_disabled": 0, "fusion_lat": 0.0, "lat": 38.8553205, "type": "electric_scooter", "lon": -76.96917583333334, "is_reserved": 0, "fusion_lon": 0.0, "bike_id": "9d432c4eb6a350c2d7cda1c936c7f101", "name": "9d432c4eb6a350c2d7cda1c936c7f101", "rental_uris": {"ios": "https://dc.lft.to/lastmile_qr_scan", "android": "https://dc.lft.to/lastmile_qr_scan"}}, {"is_disabled": 0, "fusion_lat": 0.0, "lat": 38.892315333333336, "type": "electric_scooter", "lon": -77.0444385, "is_reserved": 0, "fusion_lon": 0.0, "bike_id": "bc22b721adfa0e98ff600937537c8c63", "name": "bc22b721adfa0e98ff600937537c8c63", "rental_uris": {"ios": "https://dc.lft.to/lastmile_qr_scan", "android": "https://dc.lft.to/lastmile_qr_scan"}}, {"is_disabled": 0, "fusion_lat": 0.0, "lat": 38.91434233333333, "type": "electric_scooter", "lon": -77.03198383333333, "is_reserved": 0, "fusion_lon": 0.0, "bike_id": "4504ddae14ccc5128cb69154f673bf0b", "name": "4504ddae14ccc5128cb69154f673bf0b", "rental_uris": {"ios": "https://dc.lft.to/lastmile_qr_scan", "android": "https://dc.lft.to/lastmile_qr_scan"}}, {"is_disabled": 0, "fusion_lat": 0.0, "lat": 38.90967466666667, "type": "electric_scooter", "lon": -77.01440466666666, "is_reserved": 0, "fusion_lon": 0.0, "bike_id": "e407045500473e42933fdb42b29eb210", "name": "e407045500473e42933fdb42b29eb210", "rental_uris": {"ios": "https://dc.lft.to/lastmile_qr_scan", "android": "https://dc.lft.to/lastmile_qr_scan"}}, {"is_disabled": 0, "fusion_lat": 0.0, "lat": 38.923879666666664, "type": "electric_scooter", "lon": -77.02557483333334, "is_reserved": 0, "fusion_lon": 0.0, "bike_id": "95337f50fffa6354f57af8288bc7b564", "name": "95337f50fffa6354f57af8288bc7b564", "rental_uris": {"ios": "https://dc.lft.to/lastmile_qr_scan", "android": "https://dc.lft.to/lastmile_qr_scan"}}, {"is_disabled": 0, "fusion_lat": 0.0, "lat": 38.94170533333333, "type": "electric_scooter", "lon": -77.0253315, "is_reserved": 0, "fusion_lon": 0.0, "bike_id": "2ffe96a1a5af7109e195e3cab6eeca79", "name": "2ffe96a1a5af7109e195e3cab6eeca79", "rental_uris": {"ios": "https://dc.lft.to/lastmile_qr_scan", "android": "https://dc.lft.to/lastmile_qr_scan"}}, {"is_disabled": 0, "fusion_lat": 0.0, "lat": 38.920792166666665, "type": "electric_scooter", "lon": -77.023813, "is_reserved": 0, "fusion_lon": 0.0, "bike_id": "2fd0c76a832c0a81e6952a85e5dd0287", "name": "2fd0c76a832c0a81e6952a85e5dd0287", "rental_uris": {"ios": "https://dc.lft.to/lastmile_qr_scan", "android": "https://dc.lft.to/lastmile_qr_scan"}}, {"is_disabled": 0, "fusion_lat": 0.0, "lat": 38.90500816666667, "type": "electric_scooter", "lon": -77.06284083333334, "is_reserved": 0, "fusion_lon": 0.0, "bike_id": "aff1be186ecd12f9e5c5c5667f7b4f1d", "name": "aff1be186ecd12f9e5c5c5667f7b4f1d", "rental_uris": {"ios": "https://dc.lft.to/lastmile_qr_scan", "android": "https://dc.lft.to/lastmile_qr_scan"}}, {"is_disabled": 0, "fusion_lat": 0.0, "lat": 38.92448666666667, "type": "electric_scooter", "lon": -77.03273016666667, "is_reserved": 0, "fusion_lon": 0.0, "bike_id": "becf2b37c9a617ae9e25a7f4235f30fd", "name": "becf2b37c9a617ae9e25a7f4235f30fd", "rental_uris": {"ios": "https://dc.lft.to/lastmile_qr_scan", "android": "https://dc.lft.to/lastmile_qr_scan"}}, {"is_disabled": 0, "fusion_lat": 0.0, "lat": 38.89618683333333, "type": "electric_scooter", "lon": -77.02790433333334, "is_reserved": 0, "fusion_lon": 0.0, "bike_id": "77207481f1c14ffd7019b0b6fb576cee", "name": "77207481f1c14ffd7019b0b6fb576cee", "rental_uris": {"ios": "https://dc.lft.to/lastmile_qr_scan", "android": "https://dc.lft.to/lastmile_qr_scan"}}, {"is_disabled": 0, "fusion_lat": 0.0, "lat": 38.86284933333334, "type": "electric_scooter", "lon": -76.99235716666666, "is_reserved": 0, "fusion_lon": 0.0, "bike_id": "b364d5f272835fc15117e60791a0d0ce", "name": "b364d5f272835fc15117e60791a0d0ce", "rental_uris": {"ios": "https://dc.lft.to/lastmile_qr_scan", "android": "https://dc.lft.to/lastmile_qr_scan"}}, {"is_disabled": 0, "fusion_lat": 0.0, "lat": 38.941782833333335, "type": "electric_scooter", "lon": -77.02342016666667, "is_reserved": 0, "fusion_lon": 0.0, "bike_id": "45f2c7df1074ade4aee7b41a640486db", "name": "45f2c7df1074ade4aee7b41a640486db", "rental_uris": {"ios": "https://dc.lft.to/lastmile_qr_scan", "android": "https://dc.lft.to/lastmile_qr_scan"}}, {"is_disabled": 0, "fusion_lat": 0.0, "lat": 38.92985483333333, "type": "electric_scooter", "lon": -77.03657666666666, "is_reserved": 0, "fusion_lon": 0.0, "bike_id": "ef905e1b8b97f904e36668478b569470", "name": "ef905e1b8b97f904e36668478b569470", "rental_uris": {"ios": "https://dc.lft.to/lastmile_qr_scan", "android": "https://dc.lft.to/lastmile_qr_scan"}}, {"is_disabled": 0, "fusion_lat": 0.0, "lat": 38.85805766666667, "type": "electric_scooter", "lon": -76.98656033333333, "is_reserved": 0, "fusion_lon": 0.0, "bike_id": "099b80434d11111ca2dffa1b23eb0385", "name": "099b80434d11111ca2dffa1b23eb0385", "rental_uris": {"ios": "https://dc.lft.to/lastmile_qr_scan", "android": "https://dc.lft.to/lastmile_qr_scan"}}, {"is_disabled": 0, "fusion_lat": 0.0, "lat": 38.89016066666667, "type": "electric_scooter", "lon": -76.9374475, "is_reserved": 0, "fusion_lon": 0.0, "bike_id": "edfabb46d4446f17d889c00ada98dd7f", "name": "edfabb46d4446f17d889c00ada98dd7f", "rental_uris": {"ios": "https://dc.lft.to/lastmile_qr_scan", "android": "https://dc.lft.to/lastmile_qr_scan"}}, {"is_disabled": 0, "fusion_lat": 0.0, "lat": 38.9086985, "type": "electric_scooter", "lon": -77.08594333333333, "is_reserved": 0, "fusion_lon": 0.0, "bike_id": "80e2e76e1e27b61b88122bd8c1082211", "name": "80e2e76e1e27b61b88122bd8c1082211", "rental_uris": {"ios": "https://dc.lft.to/lastmile_qr_scan", "android": "https://dc.lft.to/lastmile_qr_scan"}}, {"is_disabled": 0, "fusion_lat": 0.0, "lat": 38.9016155, "type": "electric_scooter", "lon": -77.0403695, "is_reserved": 0, "fusion_lon": 0.0, "bike_id": "1b60030864ed07c0fabdc02b4d3bf4c6", "name": "1b60030864ed07c0fabdc02b4d3bf4c6", "rental_uris": {"ios": "https://dc.lft.to/lastmile_qr_scan", "android": "https://dc.lft.to/lastmile_qr_scan"}}, {"is_disabled": 0, "fusion_lat": 0.0, "lat": 38.90106166666666, "type": "electric_scooter", "lon": -77.051323, "is_reserved": 0, "fusion_lon": 0.0, "bike_id": "1d901808c893508f7dcd770a6903163a", "name": "1d901808c893508f7dcd770a6903163a", "rental_uris": {"ios": "https://dc.lft.to/lastmile_qr_scan", "android": "https://dc.lft.to/lastmile_qr_scan"}}, {"is_disabled": 0, "fusion_lat": 0.0, "lat": 38.930431166666665, "type": "electric_scooter", "lon": -77.03221083333334, "is_reserved": 0, "fusion_lon": 0.0, "bike_id": "cebf91de60a42620df4de308a0853057", "name": "cebf91de60a42620df4de308a0853057", "rental_uris": {"ios": "https://dc.lft.to/lastmile_qr_scan", "android": "https://dc.lft.to/lastmile_qr_scan"}}, {"is_disabled": 0, "fusion_lat": 0.0, "lat": 38.91621466666667, "type": "electric_scooter", "lon": -77.031719, "is_reserved": 0, "fusion_lon": 0.0, "bike_id": "da16fa50f263083d2fe257078b60fa69", "name": "da16fa50f263083d2fe257078b60fa69", "rental_uris": {"ios": "https://dc.lft.to/lastmile_qr_scan", "android": "https://dc.lft.to/lastmile_qr_scan"}}, {"is_disabled": 0, "fusion_lat": 0.0, "lat": 38.893410333333335, "type": "electric_scooter", "lon": -76.92888633333334, "is_reserved": 0, "fusion_lon": 0.0, "bike_id": "e5f684ec3e243c108ffd3c593caf4f23", "name": "e5f684ec3e243c108ffd3c593caf4f23", "rental_uris": {"ios": "https://dc.lft.to/lastmile_qr_scan", "android": "https://dc.lft.to/lastmile_qr_scan"}}, {"is_disabled": 0, "fusion_lat": 0.0, "lat": 38.920515, "type": "electric_scooter", "lon": -77.04174283333333, "is_reserved": 0, "fusion_lon": 0.0, "bike_id": "49e3deb4a2d56b8d36ae2da71c5a07a4", "name": "49e3deb4a2d56b8d36ae2da71c5a07a4", "rental_uris": {"ios": "https://dc.lft.to/lastmile_qr_scan", "android": "https://dc.lft.to/lastmile_qr_scan"}}, {"is_disabled": 0, "fusion_lat": 0.0, "lat": 38.907993, "type": "electric_scooter", "lon": -76.99702533333334, "is_reserved": 0, "fusion_lon": 0.0, "bike_id": "3a55e2a1c8123ae5d5231d2db4e5d4d4", "name": "3a55e2a1c8123ae5d5231d2db4e5d4d4", "rental_uris": {"ios": "https://dc.lft.to/lastmile_qr_scan", "android": "https://dc.lft.to/lastmile_qr_scan"}}, {"is_disabled": 0, "fusion_lat": 0.0, "lat": 38.92050033333334, "type": "electric_scooter", "lon": -77.033698, "is_reserved": 0, "fusion_lon": 0.0, "bike_id": "310302c56e2cdd40249808db6dba0fb8", "name": "310302c56e2cdd40249808db6dba0fb8", "rental_uris": {"ios": "https://dc.lft.to/lastmile_qr_scan", "android": "https://dc.lft.to/lastmile_qr_scan"}}, {"is_disabled": 0, "fusion_lat": 0.0, "lat": 38.874758166666666, "type": "electric_scooter", "lon": -77.00933433333333, "is_reserved": 0, "fusion_lon": 0.0, "bike_id": "165f99a89097b1ea302022029d9416bd", "name": "165f99a89097b1ea302022029d9416bd", "rental_uris": {"ios": "https://dc.lft.to/lastmile_qr_scan", "android": "https://dc.lft.to/lastmile_qr_scan"}}, {"is_disabled": 0, "fusion_lat": 0.0, "lat": 38.930665833333336, "type": "electric_scooter", "lon": -77.04178383333333, "is_reserved": 0, "fusion_lon": 0.0, "bike_id": "98b30bdea7c3e6cb3e1038b22299b871", "name": "98b30bdea7c3e6cb3e1038b22299b871", "rental_uris": {"ios": "https://dc.lft.to/lastmile_qr_scan", "android": "https://dc.lft.to/lastmile_qr_scan"}}, {"is_disabled": 0, "fusion_lat": 0.0, "lat": 38.917196833333335, "type": "electric_scooter", "lon": -77.03839983333333, "is_reserved": 0, "fusion_lon": 0.0, "bike_id": "838d4ce1dc138177ee3cef3744c5a8a3", "name": "838d4ce1dc138177ee3cef3744c5a8a3", "rental_uris": {"ios": "https://dc.lft.to/lastmile_qr_scan", "android": "https://dc.lft.to/lastmile_qr_scan"}}, {"is_disabled": 0, "fusion_lat": 0.0, "lat": 38.902569, "type": "electric_scooter", "lon": -77.01730033333334, "is_reserved": 0, "fusion_lon": 0.0, "bike_id": "379cfd35b2b07d80629d50e1b04079c8", "name": "379cfd35b2b07d80629d50e1b04079c8", "rental_uris": {"ios": "https://dc.lft.to/lastmile_qr_scan", "android": "https://dc.lft.to/lastmile_qr_scan"}}, {"is_disabled": 0, "fusion_lat": 0.0, "lat": 38.94181416666667, "type": "electric_scooter", "lon": -77.0309445, "is_reserved": 0, "fusion_lon": 0.0, "bike_id": "9a33cc8e706b99ca445f06008ec8ea0d", "name": "9a33cc8e706b99ca445f06008ec8ea0d", "rental_uris": {"ios": "https://dc.lft.to/lastmile_qr_scan", "android": "https://dc.lft.to/lastmile_qr_scan"}}, {"is_disabled": 0, "fusion_lat": 0.0, "lat": 38.8991265, "type": "electric_scooter", "lon": -76.93347466666667, "is_reserved": 0, "fusion_lon": 0.0, "bike_id": "ca595f84dd0a6dadedc5e1fff4cea342", "name": "ca595f84dd0a6dadedc5e1fff4cea342", "rental_uris": {"ios": "https://dc.lft.to/lastmile_qr_scan", "android": "https://dc.lft.to/lastmile_qr_scan"}}, {"is_disabled": 0, "fusion_lat": 0.0, "lat": 38.9092535, "type": "electric_scooter", "lon": -77.04383916666667, "is_reserved": 0, "fusion_lon": 0.0, "bike_id": "1b411a62449dc6a28fb54ba22804d411", "name": "1b411a62449dc6a28fb54ba22804d411", "rental_uris": {"ios": "https://dc.lft.to/lastmile_qr_scan", "android": "https://dc.lft.to/lastmile_qr_scan"}}, {"is_disabled": 0, "fusion_lat": 0.0, "lat": 38.91111633333333, "type": "electric_scooter", "lon": -77.044966, "is_reserved": 0, "fusion_lon": 0.0, "bike_id": "d19459c88db08ad836fe1589c8c5db11", "name": "d19459c88db08ad836fe1589c8c5db11", "rental_uris": {"ios": "https://dc.lft.to/lastmile_qr_scan", "android": "https://dc.lft.to/lastmile_qr_scan"}}, {"is_disabled": 0, "fusion_lat": 0.0, "lat": 38.9059485, "type": "electric_scooter", "lon": -77.03252316666666, "is_reserved": 0, "fusion_lon": 0.0, "bike_id": "9cfe32bd32fa747f4dae2900017a67b6", "name": "9cfe32bd32fa747f4dae2900017a67b6", "rental_uris": {"ios": "https://dc.lft.to/lastmile_qr_scan", "android": "https://dc.lft.to/lastmile_qr_scan"}}, {"is_disabled": 0, "fusion_lat": 0.0, "lat": 38.88995766666667, "type": "electric_scooter", "lon": -76.94701966666666, "is_reserved": 0, "fusion_lon": 0.0, "bike_id": "4cf68fffcbebd557634018bc1a385697", "name": "4cf68fffcbebd557634018bc1a385697", "rental_uris": {"ios": "https://dc.lft.to/lastmile_qr_scan", "android": "https://dc.lft.to/lastmile_qr_scan"}}, {"is_disabled": 0, "fusion_lat": 0.0, "lat": 38.90553383333334, "type": "electric_bike", "lon": -77.002179, "is_reserved": 0, "fusion_lon": 0.0, "bike_id": "7e897b618b2c95a3c6d9f8af9e216c95", "name": "7e897b618b2c95a3c6d9f8af9e216c95", "rental_uris": {"ios": "https://dc.lft.to/lastmile_qr_scan", "android": "https://dc.lft.to/lastmile_qr_scan"}}, {"is_disabled": 0, "fusion_lat": 0.0, "lat": 38.832348833333334, "type": "electric_bike", "lon": -76.94629483333334, "is_reserved": 0, "fusion_lon": 0.0, "bike_id": "477b10857ccf5eb56ca02fb32c3be531", "name": "477b10857ccf5eb56ca02fb32c3be531", "rental_uris": {"ios": "https://dc.lft.to/lastmile_qr_scan", "android": "https://dc.lft.to/lastmile_qr_scan"}}, {"is_disabled": 0, "fusion_lat": 0.0, "lat": 38.91668883333333, "type": "electric_scooter", "lon": -77.04156183333333, "is_reserved": 0, "fusion_lon": 0.0, "bike_id": "709468a4587caad1a2db73d1111424c6", "name": "709468a4587caad1a2db73d1111424c6", "rental_uris": {"ios": "https://dc.lft.to/lastmile_qr_scan", "android": "https://dc.lft.to/lastmile_qr_scan"}}, {"is_disabled": 0, "fusion_lat": 0.0, "lat": 38.92539383333333, "type": "electric_scooter", "lon": -77.03362516666667, "is_reserved": 0, "fusion_lon": 0.0, "bike_id": "d23148e085c4a67c5d76849d99dc27f4", "name": "d23148e085c4a67c5d76849d99dc27f4", "rental_uris": {"ios": "https://dc.lft.to/lastmile_qr_scan", "android": "https://dc.lft.to/lastmile_qr_scan"}}, {"is_disabled": 0, "fusion_lat": 0.0, "lat": 38.92446666666667, "type": "electric_scooter", "lon": -77.02030066666667, "is_reserved": 0, "fusion_lon": 0.0, "bike_id": "616afa61feb0b2ba5fc0c3427bee4cc2", "name": "616afa61feb0b2ba5fc0c3427bee4cc2", "rental_uris": {"ios": "https://dc.lft.to/lastmile_qr_scan", "android": "https://dc.lft.to/lastmile_qr_scan"}}, {"is_disabled": 0, "fusion_lat": 0.0, "lat": 38.91121716666667, "type": "electric_scooter", "lon": -77.03832733333333, "is_reserved": 0, "fusion_lon": 0.0, "bike_id": "ed27e97502ba7af110260a2e37fdd2d6", "name": "ed27e97502ba7af110260a2e37fdd2d6", "rental_uris": {"ios": "https://dc.lft.to/lastmile_qr_scan", "android": "https://dc.lft.to/lastmile_qr_scan"}}, {"is_disabled": 0, "fusion_lat": 0.0, "lat": 38.915826, "type": "electric_scooter", "lon": -77.04692283333333, "is_reserved": 0, "fusion_lon": 0.0, "bike_id": "d939b3d4c85e29208e71c649e6040220", "name": "d939b3d4c85e29208e71c649e6040220", "rental_uris": {"ios": "https://dc.lft.to/lastmile_qr_scan", "android": "https://dc.lft.to/lastmile_qr_scan"}}, {"is_disabled": 0, "fusion_lat": 0.0, "lat": 38.8646235, "type": "electric_scooter", "lon": -76.98243416666666, "is_reserved": 0, "fusion_lon": 0.0, "bike_id": "7b91e434f300e783641ba0297df7a139", "name": "7b91e434f300e783641ba0297df7a139", "rental_uris": {"ios": "https://dc.lft.to/lastmile_qr_scan", "android": "https://dc.lft.to/lastmile_qr_scan"}}, {"is_disabled": 0, "fusion_lat": 0.0, "lat": 38.91757783333333, "type": "electric_scooter", "lon": -77.03187083333333, "is_reserved": 0, "fusion_lon": 0.0, "bike_id": "1148467ec843cc63ddaf0d46b3d43e15", "name": "1148467ec843cc63ddaf0d46b3d43e15", "rental_uris": {"ios": "https://dc.lft.to/lastmile_qr_scan", "android": "https://dc.lft.to/lastmile_qr_scan"}}, {"is_disabled": 0, "fusion_lat": 0.0, "lat": 38.92743333333333, "type": "electric_scooter", "lon": -77.0355925, "is_reserved": 0, "fusion_lon": 0.0, "bike_id": "5d841ac3c3bc78861a9c5e6673a385ea", "name": "5d841ac3c3bc78861a9c5e6673a385ea", "rental_uris": {"ios": "https://dc.lft.to/lastmile_qr_scan", "android": "https://dc.lft.to/lastmile_qr_scan"}}, {"is_disabled": 0, "fusion_lat": 0.0, "lat": 38.97880883333333, "type": "electric_scooter", "lon": -77.0254915, "is_reserved": 0, "fusion_lon": 0.0, "bike_id": "e26cad656a02421d5eccba0a04853c7e", "name": "e26cad656a02421d5eccba0a04853c7e", "rental_uris": {"ios": "https://dc.lft.to/lastmile_qr_scan", "android": "https://dc.lft.to/lastmile_qr_scan"}}, {"is_disabled": 0, "fusion_lat": 0.0, "lat": 38.86421333333333, "type": "electric_scooter", "lon": -76.98043783333334, "is_reserved": 0, "fusion_lon": 0.0, "bike_id": "56467a7509d4a269786f55096f3449bb", "name": "56467a7509d4a269786f55096f3449bb", "rental_uris": {"ios": "https://dc.lft.to/lastmile_qr_scan", "android": "https://dc.lft.to/lastmile_qr_scan"}}, {"is_disabled": 0, "fusion_lat": 0.0, "lat": 38.940424666666665, "type": "electric_scooter", "lon": -77.02906333333334, "is_reserved": 0, "fusion_lon": 0.0, "bike_id": "095c6663595a5250043204811829aa0f", "name": "095c6663595a5250043204811829aa0f", "rental_uris": {"ios": "https://dc.lft.to/lastmile_qr_scan", "android": "https://dc.lft.to/lastmile_qr_scan"}}, {"is_disabled": 0, "fusion_lat": 0.0, "lat": 38.93543566666666, "type": "electric_scooter", "lon": -77.0726855, "is_reserved": 0, "fusion_lon": 0.0, "bike_id": "357416488736fdd7ed4af1335d0bf578", "name": "357416488736fdd7ed4af1335d0bf578", "rental_uris": {"ios": "https://dc.lft.to/lastmile_qr_scan", "android": "https://dc.lft.to/lastmile_qr_scan"}}, {"is_disabled": 0, "fusion_lat": 0.0, "lat": 38.86625166666666, "type": "electric_scooter", "lon": -76.98668633333334, "is_reserved": 0, "fusion_lon": 0.0, "bike_id": "17a0d9dca86f807de3f5856ef432d8ae", "name": "17a0d9dca86f807de3f5856ef432d8ae", "rental_uris": {"ios": "https://dc.lft.to/lastmile_qr_scan", "android": "https://dc.lft.to/lastmile_qr_scan"}}, {"is_disabled": 0, "fusion_lat": 0.0, "lat": 38.845964, "type": "electric_bike", "lon": -77.0767695, "is_reserved": 0, "fusion_lon": 0.0, "bike_id": "ba0de93e8bce2da4f39941d1c7215979", "name": "ba0de93e8bce2da4f39941d1c7215979", "rental_uris": {"ios": "https://dc.lft.to/lastmile_qr_scan", "android": "https://dc.lft.to/lastmile_qr_scan"}}, {"is_disabled": 0, "fusion_lat": 0.0, "lat": 38.89816866666666, "type": "electric_scooter", "lon": -77.03301733333333, "is_reserved": 0, "fusion_lon": 0.0, "bike_id": "41b475dc41b0b72b7f255604e0199ffb", "name": "41b475dc41b0b72b7f255604e0199ffb", "rental_uris": {"ios": "https://dc.lft.to/lastmile_qr_scan", "android": "https://dc.lft.to/lastmile_qr_scan"}}, {"is_disabled": 0, "fusion_lat": 0.0, "lat": 38.8427125, "type": "electric_bike", "lon": -76.98843016666666, "is_reserved": 0, "fusion_lon": 0.0, "bike_id": "9d2806353e1e9722ef6575f21c6863b5", "name": "9d2806353e1e9722ef6575f21c6863b5", "rental_uris": {"ios": "https://dc.lft.to/lastmile_qr_scan", "android": "https://dc.lft.to/lastmile_qr_scan"}}, {"is_disabled": 0, "fusion_lat": 0.0, "lat": 38.88131466666667, "type": "electric_scooter", "lon": -77.00094, "is_reserved": 0, "fusion_lon": 0.0, "bike_id": "7120800ccf3b22555d3abd98a357446f", "name": "7120800ccf3b22555d3abd98a357446f", "rental_uris": {"ios": "https://dc.lft.to/lastmile_qr_scan", "android": "https://dc.lft.to/lastmile_qr_scan"}}, {"is_disabled": 0, "fusion_lat": 0.0, "lat": 38.884958, "type": "electric_scooter", "lon": -77.0072325, "is_reserved": 0, "fusion_lon": 0.0, "bike_id": "27b8722455baaee5f3dded332133f6c3", "name": "27b8722455baaee5f3dded332133f6c3", "rental_uris": {"ios": "https://dc.lft.to/lastmile_qr_scan", "android": "https://dc.lft.to/lastmile_qr_scan"}}, {"is_disabled": 0, "fusion_lat": 0.0, "lat": 38.917140333333336, "type": "electric_scooter", "lon": -77.0320875, "is_reserved": 0, "fusion_lon": 0.0, "bike_id": "0b854908c4efef003bbc88f31f9e9d87", "name": "0b854908c4efef003bbc88f31f9e9d87", "rental_uris": {"ios": "https://dc.lft.to/lastmile_qr_scan", "android": "https://dc.lft.to/lastmile_qr_scan"}}, {"is_disabled": 0, "fusion_lat": 0.0, "lat": 38.90213383333333, "type": "electric_scooter", "lon": -77.03365416666666, "is_reserved": 0, "fusion_lon": 0.0, "bike_id": "8e58685017ddd24bb2f2a9ee77b46c09", "name": "8e58685017ddd24bb2f2a9ee77b46c09", "rental_uris": {"ios": "https://dc.lft.to/lastmile_qr_scan", "android": "https://dc.lft.to/lastmile_qr_scan"}}, {"is_disabled": 0, "fusion_lat": 0.0, "lat": 38.91678433333333, "type": "electric_scooter", "lon": -77.031902, "is_reserved": 0, "fusion_lon": 0.0, "bike_id": "abbc305380f48357f7bbccaed87e0c14", "name": "abbc305380f48357f7bbccaed87e0c14", "rental_uris": {"ios": "https://dc.lft.to/lastmile_qr_scan", "android": "https://dc.lft.to/lastmile_qr_scan"}}, {"is_disabled": 0, "fusion_lat": 0.0, "lat": 38.91929183333333, "type": "electric_scooter", "lon": -77.03057216666667, "is_reserved": 0, "fusion_lon": 0.0, "bike_id": "8e7a5f1c3fa85fa812ff67665b2b8676", "name": "8e7a5f1c3fa85fa812ff67665b2b8676", "rental_uris": {"ios": "https://dc.lft.to/lastmile_qr_scan", "android": "https://dc.lft.to/lastmile_qr_scan"}}, {"is_disabled": 0, "fusion_lat": 0.0, "lat": 38.894579666666665, "type": "electric_bike", "lon": -76.97038266666667, "is_reserved": 0, "fusion_lon": 0.0, "bike_id": "a762edaa6391855d734ad82041fbeaf7", "name": "a762edaa6391855d734ad82041fbeaf7", "rental_uris": {"ios": "https://dc.lft.to/lastmile_qr_scan", "android": "https://dc.lft.to/lastmile_qr_scan"}}, {"is_disabled": 0, "fusion_lat": 0.0, "lat": 38.872930333333336, "type": "electric_scooter", "lon": -76.97730116666666, "is_reserved": 0, "fusion_lon": 0.0, "bike_id": "b02da178292a0966481f5f97328c0a61", "name": "b02da178292a0966481f5f97328c0a61", "rental_uris": {"ios": "https://dc.lft.to/lastmile_qr_scan", "android": "https://dc.lft.to/lastmile_qr_scan"}}, {"is_disabled": 0, "fusion_lat": 0.0, "lat": 38.9200995, "type": "electric_scooter", "lon": -77.021885, "is_reserved": 0, "fusion_lon": 0.0, "bike_id": "fe7b6de62686ed5012ded769a86d7bc3", "name": "fe7b6de62686ed5012ded769a86d7bc3", "rental_uris": {"ios": "https://dc.lft.to/lastmile_qr_scan", "android": "https://dc.lft.to/lastmile_qr_scan"}}, {"is_disabled": 0, "fusion_lat": 0.0, "lat": 38.927243, "type": "electric_scooter", "lon": -77.03660966666666, "is_reserved": 0, "fusion_lon": 0.0, "bike_id": "2a2fa2ce7b64d50c76eff177abc82124", "name": "2a2fa2ce7b64d50c76eff177abc82124", "rental_uris": {"ios": "https://dc.lft.to/lastmile_qr_scan", "android": "https://dc.lft.to/lastmile_qr_scan"}}, {"is_disabled": 0, "fusion_lat": 0.0, "lat": 38.902918166666666, "type": "electric_scooter", "lon": -77.04027583333334, "is_reserved": 0, "fusion_lon": 0.0, "bike_id": "1d6e5bef712cb1217bf31509db410b32", "name": "1d6e5bef712cb1217bf31509db410b32", "rental_uris": {"ios": "https://dc.lft.to/lastmile_qr_scan", "android": "https://dc.lft.to/lastmile_qr_scan"}}, {"is_disabled": 0, "fusion_lat": 0.0, "lat": 38.9155795, "type": "electric_scooter", "lon": -77.02156583333333, "is_reserved": 0, "fusion_lon": 0.0, "bike_id": "7d40017c4b6b9bdc34b0c5558b5af5c4", "name": "7d40017c4b6b9bdc34b0c5558b5af5c4", "rental_uris": {"ios": "https://dc.lft.to/lastmile_qr_scan", "android": "https://dc.lft.to/lastmile_qr_scan"}}, {"is_disabled": 0, "fusion_lat": 0.0, "lat": 38.932534833333335, "type": "electric_scooter", "lon": -77.02948166666667, "is_reserved": 0, "fusion_lon": 0.0, "bike_id": "42e9a5d7d578c0f03ca1fc0163c75933", "name": "42e9a5d7d578c0f03ca1fc0163c75933", "rental_uris": {"ios": "https://dc.lft.to/lastmile_qr_scan", "android": "https://dc.lft.to/lastmile_qr_scan"}}, {"is_disabled": 0, "fusion_lat": 0.0, "lat": 38.917402, "type": "electric_scooter", "lon": -77.03440416666666, "is_reserved": 0, "fusion_lon": 0.0, "bike_id": "8a4372dc92f68bed05b4e9fe45584ee6", "name": "8a4372dc92f68bed05b4e9fe45584ee6", "rental_uris": {"ios": "https://dc.lft.to/lastmile_qr_scan", "android": "https://dc.lft.to/lastmile_qr_scan"}}, {"is_disabled": 0, "fusion_lat": 0.0, "lat": 38.924611666666664, "type": "electric_bike", "lon": -76.97560166666666, "is_reserved": 0, "fusion_lon": 0.0, "bike_id": "ebd97ffa1fc435fcda31df410dcc1060", "name": "ebd97ffa1fc435fcda31df410dcc1060", "rental_uris": {"ios": "https://dc.lft.to/lastmile_qr_scan", "android": "https://dc.lft.to/lastmile_qr_scan"}}, {"is_disabled": 0, "fusion_lat": 0.0, "lat": 38.855622, "type": "electric_scooter", "lon": -76.99498566666666, "is_reserved": 0, "fusion_lon": 0.0, "bike_id": "98d3d5ac423db06f883606a13540aeb7", "name": "98d3d5ac423db06f883606a13540aeb7", "rental_uris": {"ios": "https://dc.lft.to/lastmile_qr_scan", "android": "https://dc.lft.to/lastmile_qr_scan"}}, {"is_disabled": 0, "fusion_lat": 0.0, "lat": 38.8750335, "type": "electric_bike", "lon": -77.02592, "is_reserved": 0, "fusion_lon": 0.0, "bike_id": "f2cf021da000959b8291de754937d7ea", "name": "f2cf021da000959b8291de754937d7ea", "rental_uris": {"ios": "https://dc.lft.to/lastmile_qr_scan", "android": "https://dc.lft.to/lastmile_qr_scan"}}, {"is_disabled": 0, "fusion_lat": 0.0, "lat": 38.919649166666666, "type": "electric_scooter", "lon": -77.0431375, "is_reserved": 0, "fusion_lon": 0.0, "bike_id": "1f53683d4f74c9a57a2b1a02663e8c54", "name": "1f53683d4f74c9a57a2b1a02663e8c54", "rental_uris": {"ios": "https://dc.lft.to/lastmile_qr_scan", "android": "https://dc.lft.to/lastmile_qr_scan"}}, {"is_disabled": 0, "fusion_lat": 0.0, "lat": 38.90840016666667, "type": "electric_scooter", "lon": -77.08507733333333, "is_reserved": 0, "fusion_lon": 0.0, "bike_id": "e6235ec95a46355d5c59b0159c59b7e1", "name": "e6235ec95a46355d5c59b0159c59b7e1", "rental_uris": {"ios": "https://dc.lft.to/lastmile_qr_scan", "android": "https://dc.lft.to/lastmile_qr_scan"}}, {"is_disabled": 0, "fusion_lat": 0.0, "lat": 38.90728883333333, "type": "electric_scooter", "lon": -77.010714, "is_reserved": 0, "fusion_lon": 0.0, "bike_id": "28606fcab161c11bbd23a16a96c21c97", "name": "28606fcab161c11bbd23a16a96c21c97", "rental_uris": {"ios": "https://dc.lft.to/lastmile_qr_scan", "android": "https://dc.lft.to/lastmile_qr_scan"}}, {"is_disabled": 0, "fusion_lat": 0.0, "lat": 38.905756833333335, "type": "electric_scooter", "lon": -77.048846, "is_reserved": 0, "fusion_lon": 0.0, "bike_id": "d8d590cd2844e852b47091b454a3ba5f", "name": "d8d590cd2844e852b47091b454a3ba5f", "rental_uris": {"ios": "https://dc.lft.to/lastmile_qr_scan", "android": "https://dc.lft.to/lastmile_qr_scan"}}, {"is_disabled": 0, "fusion_lat": 0.0, "lat": 38.911257666666664, "type": "electric_scooter", "lon": -77.03750333333333, "is_reserved": 0, "fusion_lon": 0.0, "bike_id": "a50cfa8bf6426c9d6bfe73343ad52b6f", "name": "a50cfa8bf6426c9d6bfe73343ad52b6f", "rental_uris": {"ios": "https://dc.lft.to/lastmile_qr_scan", "android": "https://dc.lft.to/lastmile_qr_scan"}}, {"is_disabled": 0, "fusion_lat": 0.0, "lat": 39.01602, "type": "electric_bike", "lon": -77.0442715, "is_reserved": 0, "fusion_lon": 0.0, "bike_id": "dc4cd1a24fd569a1f87db7808618e0bc", "name": "dc4cd1a24fd569a1f87db7808618e0bc", "rental_uris": {"ios": "https://dc.lft.to/lastmile_qr_scan", "android": "https://dc.lft.to/lastmile_qr_scan"}}, {"is_disabled": 0, "fusion_lat": 0.0, "lat": 38.881519833333336, "type": "electric_scooter", "lon": -77.0267425, "is_reserved": 0, "fusion_lon": 0.0, "bike_id": "76cb2925bb00b68ebff96fbc54be34ce", "name": "76cb2925bb00b68ebff96fbc54be34ce", "rental_uris": {"ios": "https://dc.lft.to/lastmile_qr_scan", "android": "https://dc.lft.to/lastmile_qr_scan"}}, {"is_disabled": 0, "fusion_lat": 0.0, "lat": 38.89124783333333, "type": "electric_scooter", "lon": -76.940884, "is_reserved": 0, "fusion_lon": 0.0, "bike_id": "e49696febeae423a150a543615922847", "name": "e49696febeae423a150a543615922847", "rental_uris": {"ios": "https://dc.lft.to/lastmile_qr_scan", "android": "https://dc.lft.to/lastmile_qr_scan"}}, {"is_disabled": 0, "fusion_lat": 0.0, "lat": 38.910472166666665, "type": "electric_scooter", "lon": -77.0222545, "is_reserved": 0, "fusion_lon": 0.0, "bike_id": "cd70f957b99a81cdebe998a2d4e24638", "name": "cd70f957b99a81cdebe998a2d4e24638", "rental_uris": {"ios": "https://dc.lft.to/lastmile_qr_scan", "android": "https://dc.lft.to/lastmile_qr_scan"}}, {"is_disabled": 0, "fusion_lat": 0.0, "lat": 38.92052833333333, "type": "electric_scooter", "lon": -77.03462766666667, "is_reserved": 0, "fusion_lon": 0.0, "bike_id": "a8fc0f86ce7b158843324084a0774603", "name": "a8fc0f86ce7b158843324084a0774603", "rental_uris": {"ios": "https://dc.lft.to/lastmile_qr_scan", "android": "https://dc.lft.to/lastmile_qr_scan"}}, {"is_disabled": 0, "fusion_lat": 0.0, "lat": 38.9285805, "type": "electric_scooter", "lon": -77.054143, "is_reserved": 0, "fusion_lon": 0.0, "bike_id": "5c4772db8e365bc923ddf1ef4cc67a08", "name": "5c4772db8e365bc923ddf1ef4cc67a08", "rental_uris": {"ios": "https://dc.lft.to/lastmile_qr_scan", "android": "https://dc.lft.to/lastmile_qr_scan"}}, {"is_disabled": 0, "fusion_lat": 0.0, "lat": 38.923331166666664, "type": "electric_scooter", "lon": -77.05678983333334, "is_reserved": 0, "fusion_lon": 0.0, "bike_id": "355f5bde051128151757b9e27bb86ebd", "name": "355f5bde051128151757b9e27bb86ebd", "rental_uris": {"ios": "https://dc.lft.to/lastmile_qr_scan", "android": "https://dc.lft.to/lastmile_qr_scan"}}, {"is_disabled": 0, "fusion_lat": 0.0, "lat": 38.923812166666664, "type": "electric_scooter", "lon": -77.03545666666666, "is_reserved": 0, "fusion_lon": 0.0, "bike_id": "5197ae25dc2fbfb761198113e2b32638", "name": "5197ae25dc2fbfb761198113e2b32638", "rental_uris": {"ios": "https://dc.lft.to/lastmile_qr_scan", "android": "https://dc.lft.to/lastmile_qr_scan"}}, {"is_disabled": 0, "fusion_lat": 0.0, "lat": 38.896125833333336, "type": "electric_scooter", "lon": -77.0479035, "is_reserved": 0, "fusion_lon": 0.0, "bike_id": "aa63b7588cff9d89e5ce3c31e7a0e06e", "name": "aa63b7588cff9d89e5ce3c31e7a0e06e", "rental_uris": {"ios": "https://dc.lft.to/lastmile_qr_scan", "android": "https://dc.lft.to/lastmile_qr_scan"}}, {"is_disabled": 0, "fusion_lat": 0.0, "lat": 38.92319766666667, "type": "electric_scooter", "lon": -77.0475845, "is_reserved": 0, "fusion_lon": 0.0, "bike_id": "b6e8b6bb2dd1942f65fc289233f580f1", "name": "b6e8b6bb2dd1942f65fc289233f580f1", "rental_uris": {"ios": "https://dc.lft.to/lastmile_qr_scan", "android": "https://dc.lft.to/lastmile_qr_scan"}}, {"is_disabled": 0, "fusion_lat": 0.0, "lat": 38.924519, "type": "electric_scooter", "lon": -77.0411315, "is_reserved": 0, "fusion_lon": 0.0, "bike_id": "48d0694ae41e604a41c66db215866e44", "name": "48d0694ae41e604a41c66db215866e44", "rental_uris": {"ios": "https://dc.lft.to/lastmile_qr_scan", "android": "https://dc.lft.to/lastmile_qr_scan"}}, {"is_disabled": 0, "fusion_lat": 0.0, "lat": 38.895368166666664, "type": "electric_scooter", "lon": -76.94888366666666, "is_reserved": 0, "fusion_lon": 0.0, "bike_id": "9a76936a72478a057a928f4a5dfe29b9", "name": "9a76936a72478a057a928f4a5dfe29b9", "rental_uris": {"ios": "https://dc.lft.to/lastmile_qr_scan", "android": "https://dc.lft.to/lastmile_qr_scan"}}, {"is_disabled": 0, "fusion_lat": 0.0, "lat": 38.91704333333333, "type": "electric_scooter", "lon": -77.03122766666667, "is_reserved": 0, "fusion_lon": 0.0, "bike_id": "04494268f7ba5603002ba10df92af9eb", "name": "04494268f7ba5603002ba10df92af9eb", "rental_uris": {"ios": "https://dc.lft.to/lastmile_qr_scan", "android": "https://dc.lft.to/lastmile_qr_scan"}}, {"is_disabled": 0, "fusion_lat": 0.0, "lat": 38.892526333333336, "type": "electric_scooter", "lon": -77.03958516666667, "is_reserved": 0, "fusion_lon": 0.0, "bike_id": "3d5e4ffd9e1f2f0ef3032dd30fb21c52", "name": "3d5e4ffd9e1f2f0ef3032dd30fb21c52", "rental_uris": {"ios": "https://dc.lft.to/lastmile_qr_scan", "android": "https://dc.lft.to/lastmile_qr_scan"}}, {"is_disabled": 0, "fusion_lat": 0.0, "lat": 38.8616885, "type": "electric_bike", "lon": -76.950669, "is_reserved": 0, "fusion_lon": 0.0, "bike_id": "58046761448ade4306a90e2c7cbf0581", "name": "58046761448ade4306a90e2c7cbf0581", "rental_uris": {"ios": "https://dc.lft.to/lastmile_qr_scan", "android": "https://dc.lft.to/lastmile_qr_scan"}}, {"is_disabled": 0, "fusion_lat": 0.0, "lat": 38.956453, "type": "electric_bike", "lon": -77.02252283333333, "is_reserved": 0, "fusion_lon": 0.0, "bike_id": "9c5de4f1534b8b19ff42c2b8b8c325db", "name": "9c5de4f1534b8b19ff42c2b8b8c325db", "rental_uris": {"ios": "https://dc.lft.to/lastmile_qr_scan", "android": "https://dc.lft.to/lastmile_qr_scan"}}, {"is_disabled": 0, "fusion_lat": 0.0, "lat": 38.90222466666667, "type": "electric_bike", "lon": -76.95051283333333, "is_reserved": 0, "fusion_lon": 0.0, "bike_id": "08ba0d7a76e659e6bf6cfc8eed8bc4d4", "name": "08ba0d7a76e659e6bf6cfc8eed8bc4d4", "rental_uris": {"ios": "https://dc.lft.to/lastmile_qr_scan", "android": "https://dc.lft.to/lastmile_qr_scan"}}, {"is_disabled": 0, "fusion_lat": 0.0, "lat": 38.932516666666665, "type": "electric_scooter", "lon": -77.03288733333333, "is_reserved": 0, "fusion_lon": 0.0, "bike_id": "8a8f8183de985a3dc4c2c14b03baf92e", "name": "8a8f8183de985a3dc4c2c14b03baf92e", "rental_uris": {"ios": "https://dc.lft.to/lastmile_qr_scan", "android": "https://dc.lft.to/lastmile_qr_scan"}}, {"is_disabled": 0, "fusion_lat": 0.0, "lat": 38.92202616666667, "type": "electric_scooter", "lon": -77.0402125, "is_reserved": 0, "fusion_lon": 0.0, "bike_id": "246e8ea5b96243aa912ce18609ac6207", "name": "246e8ea5b96243aa912ce18609ac6207", "rental_uris": {"ios": "https://dc.lft.to/lastmile_qr_scan", "android": "https://dc.lft.to/lastmile_qr_scan"}}, {"is_disabled": 0, "fusion_lat": 0.0, "lat": 38.9314065, "type": "electric_scooter", "lon": -77.0561505, "is_reserved": 0, "fusion_lon": 0.0, "bike_id": "e9987031d1ee1ea4f728a0fc5f75b517", "name": "e9987031d1ee1ea4f728a0fc5f75b517", "rental_uris": {"ios": "https://dc.lft.to/lastmile_qr_scan", "android": "https://dc.lft.to/lastmile_qr_scan"}}, {"is_disabled": 0, "fusion_lat": 0.0, "lat": 38.911408, "type": "electric_bike", "lon": -77.04884933333334, "is_reserved": 0, "fusion_lon": 0.0, "bike_id": "14020931c6a1bb24adbaf69f03bfec69", "name": "14020931c6a1bb24adbaf69f03bfec69", "rental_uris": {"ios": "https://dc.lft.to/lastmile_qr_scan", "android": "https://dc.lft.to/lastmile_qr_scan"}}, {"is_disabled": 0, "fusion_lat": 0.0, "lat": 38.9037425, "type": "electric_scooter", "lon": -77.0425005, "is_reserved": 0, "fusion_lon": 0.0, "bike_id": "cc4a8fd278e07d195e09e210d1f13fa3", "name": "cc4a8fd278e07d195e09e210d1f13fa3", "rental_uris": {"ios": "https://dc.lft.to/lastmile_qr_scan", "android": "https://dc.lft.to/lastmile_qr_scan"}}, {"is_disabled": 0, "fusion_lat": 0.0, "lat": 38.901079833333334, "type": "electric_scooter", "lon": -77.04302016666666, "is_reserved": 0, "fusion_lon": 0.0, "bike_id": "6a6e3c2c90a326e00eba98fbf92ee7be", "name": "6a6e3c2c90a326e00eba98fbf92ee7be", "rental_uris": {"ios": "https://dc.lft.to/lastmile_qr_scan", "android": "https://dc.lft.to/lastmile_qr_scan"}}, {"is_disabled": 0, "fusion_lat": 0.0, "lat": 38.898337, "type": "electric_scooter", "lon": -77.0502615, "is_reserved": 0, "fusion_lon": 0.0, "bike_id": "75f2eadeb3268fc9c419acb347c7298b", "name": "75f2eadeb3268fc9c419acb347c7298b", "rental_uris": {"ios": "https://dc.lft.to/lastmile_qr_scan", "android": "https://dc.lft.to/lastmile_qr_scan"}}, {"is_disabled": 0, "fusion_lat": 0.0, "lat": 38.88274533333333, "type": "electric_scooter", "lon": -76.99582566666666, "is_reserved": 0, "fusion_lon": 0.0, "bike_id": "6c149fe669ff4c177fa5ec0fbb75a7e6", "name": "6c149fe669ff4c177fa5ec0fbb75a7e6", "rental_uris": {"ios": "https://dc.lft.to/lastmile_qr_scan", "android": "https://dc.lft.to/lastmile_qr_scan"}}, {"is_disabled": 0, "fusion_lat": 0.0, "lat": 38.92114883333333, "type": "electric_scooter", "lon": -77.04226966666667, "is_reserved": 0, "fusion_lon": 0.0, "bike_id": "fb729b046b8ce6f15407b0f2e4c88654", "name": "fb729b046b8ce6f15407b0f2e4c88654", "rental_uris": {"ios": "https://dc.lft.to/lastmile_qr_scan", "android": "https://dc.lft.to/lastmile_qr_scan"}}, {"is_disabled": 0, "fusion_lat": 0.0, "lat": 38.96493066666667, "type": "electric_bike", "lon": -77.0879005, "is_reserved": 0, "fusion_lon": 0.0, "bike_id": "32147e096e48cf5faecabf7ce1cc5f10", "name": "32147e096e48cf5faecabf7ce1cc5f10", "rental_uris": {"ios": "https://dc.lft.to/lastmile_qr_scan", "android": "https://dc.lft.to/lastmile_qr_scan"}}, {"is_disabled": 0, "fusion_lat": 0.0, "lat": 38.966165333333336, "type": "electric_scooter", "lon": -77.02311566666667, "is_reserved": 0, "fusion_lon": 0.0, "bike_id": "7478628a0957213598764db0a02255c1", "name": "7478628a0957213598764db0a02255c1", "rental_uris": {"ios": "https://dc.lft.to/lastmile_qr_scan", "android": "https://dc.lft.to/lastmile_qr_scan"}}, {"is_disabled": 0, "fusion_lat": 0.0, "lat": 38.9110985, "type": "electric_scooter", "lon": -77.0483405, "is_reserved": 0, "fusion_lon": 0.0, "bike_id": "371202dd5e12fe2bcb586b03cbc43467", "name": "371202dd5e12fe2bcb586b03cbc43467", "rental_uris": {"ios": "https://dc.lft.to/lastmile_qr_scan", "android": "https://dc.lft.to/lastmile_qr_scan"}}, {"is_disabled": 0, "fusion_lat": 0.0, "lat": 38.90100133333333, "type": "electric_scooter", "lon": -77.048119, "is_reserved": 0, "fusion_lon": 0.0, "bike_id": "0a0b2ac0758675828932259d5ccb4f4f", "name": "0a0b2ac0758675828932259d5ccb4f4f", "rental_uris": {"ios": "https://dc.lft.to/lastmile_qr_scan", "android": "https://dc.lft.to/lastmile_qr_scan"}}, {"is_disabled": 0, "fusion_lat": 0.0, "lat": 38.98437366666667, "type": "electric_scooter", "lon": -77.02675216666667, "is_reserved": 0, "fusion_lon": 0.0, "bike_id": "0f45845fe381ade63854acfb1a8d43f5", "name": "0f45845fe381ade63854acfb1a8d43f5", "rental_uris": {"ios": "https://dc.lft.to/lastmile_qr_scan", "android": "https://dc.lft.to/lastmile_qr_scan"}}, {"is_disabled": 0, "fusion_lat": 0.0, "lat": 38.89019966666667, "type": "electric_scooter", "lon": -76.93741083333333, "is_reserved": 0, "fusion_lon": 0.0, "bike_id": "daf2dfdd82fb64ce8d77c8a464fb4776", "name": "daf2dfdd82fb64ce8d77c8a464fb4776", "rental_uris": {"ios": "https://dc.lft.to/lastmile_qr_scan", "android": "https://dc.lft.to/lastmile_qr_scan"}}, {"is_disabled": 0, "fusion_lat": 0.0, "lat": 38.82787033333334, "type": "electric_bike", "lon": -77.00914966666667, "is_reserved": 0, "fusion_lon": 0.0, "bike_id": "0a853f033dea8ee16e89aa101ba42ec8", "name": "0a853f033dea8ee16e89aa101ba42ec8", "rental_uris": {"ios": "https://dc.lft.to/lastmile_qr_scan", "android": "https://dc.lft.to/lastmile_qr_scan"}}, {"is_disabled": 0, "fusion_lat": 0.0, "lat": 38.80443233333333, "type": "electric_bike", "lon": -77.04236016666667, "is_reserved": 0, "fusion_lon": 0.0, "bike_id": "86b7e462ef75870f74cdd58b4b09fa84", "name": "86b7e462ef75870f74cdd58b4b09fa84", "rental_uris": {"ios": "https://dc.lft.to/lastmile_qr_scan", "android": "https://dc.lft.to/lastmile_qr_scan"}}, {"is_disabled": 0, "fusion_lat": 0.0, "lat": 38.90050516666667, "type": "electric_scooter", "lon": -77.00752783333333, "is_reserved": 0, "fusion_lon": 0.0, "bike_id": "4d4f781e464104719f5148c8549c8f96", "name": "4d4f781e464104719f5148c8549c8f96", "rental_uris": {"ios": "https://dc.lft.to/lastmile_qr_scan", "android": "https://dc.lft.to/lastmile_qr_scan"}}, {"is_disabled": 0, "fusion_lat": 0.0, "lat": 38.9283925, "type": "electric_scooter", "lon": -77.0138935, "is_reserved": 0, "fusion_lon": 0.0, "bike_id": "3ede2766c9d198c8a5b0a619d44af29a", "name": "3ede2766c9d198c8a5b0a619d44af29a", "rental_uris": {"ios": "https://dc.lft.to/lastmile_qr_scan", "android": "https://dc.lft.to/lastmile_qr_scan"}}, {"is_disabled": 0, "fusion_lat": 0.0, "lat": 38.884976333333334, "type": "electric_scooter", "lon": -77.003452, "is_reserved": 0, "fusion_lon": 0.0, "bike_id": "872cbbb4cf340e8a6366c2f6ed6c86f6", "name": "872cbbb4cf340e8a6366c2f6ed6c86f6", "rental_uris": {"ios": "https://dc.lft.to/lastmile_qr_scan", "android": "https://dc.lft.to/lastmile_qr_scan"}}, {"is_disabled": 0, "fusion_lat": 0.0, "lat": 38.897552833333336, "type": "electric_scooter", "lon": -77.00778166666667, "is_reserved": 0, "fusion_lon": 0.0, "bike_id": "80b240ae221e73c2f179d5f409cc1882", "name": "80b240ae221e73c2f179d5f409cc1882", "rental_uris": {"ios": "https://dc.lft.to/lastmile_qr_scan", "android": "https://dc.lft.to/lastmile_qr_scan"}}, {"is_disabled": 0, "fusion_lat": 0.0, "lat": 38.95792516666667, "type": "electric_bike", "lon": -77.001921, "is_reserved": 0, "fusion_lon": 0.0, "bike_id": "7db5d1ec6d2e4ec1da683fb871f47248", "name": "7db5d1ec6d2e4ec1da683fb871f47248", "rental_uris": {"ios": "https://dc.lft.to/lastmile_qr_scan", "android": "https://dc.lft.to/lastmile_qr_scan"}}, {"is_disabled": 0, "fusion_lat": 0.0, "lat": 38.85518583333333, "type": "electric_bike", "lon": -76.98419333333334, "is_reserved": 0, "fusion_lon": 0.0, "bike_id": "107f28f7b1545cc64a75abbdb4889314", "name": "107f28f7b1545cc64a75abbdb4889314", "rental_uris": {"ios": "https://dc.lft.to/lastmile_qr_scan", "android": "https://dc.lft.to/lastmile_qr_scan"}}, {"is_disabled": 0, "fusion_lat": 0.0, "lat": 38.890004833333336, "type": "electric_scooter", "lon": -76.95566966666667, "is_reserved": 0, "fusion_lon": 0.0, "bike_id": "2e188be7225877b7e595e97611e432e8", "name": "2e188be7225877b7e595e97611e432e8", "rental_uris": {"ios": "https://dc.lft.to/lastmile_qr_scan", "android": "https://dc.lft.to/lastmile_qr_scan"}}, {"is_disabled": 0, "fusion_lat": 0.0, "lat": 38.921797, "type": "electric_scooter", "lon": -77.0401215, "is_reserved": 0, "fusion_lon": 0.0, "bike_id": "a903e24c2c1ecc09b1e427c79ed4a473", "name": "a903e24c2c1ecc09b1e427c79ed4a473", "rental_uris": {"ios": "https://dc.lft.to/lastmile_qr_scan", "android": "https://dc.lft.to/lastmile_qr_scan"}}, {"is_disabled": 0, "fusion_lat": 0.0, "lat": 38.89295333333333, "type": "electric_scooter", "lon": -76.99854083333334, "is_reserved": 0, "fusion_lon": 0.0, "bike_id": "bce76961bb11af8e3e0f3d2619090351", "name": "bce76961bb11af8e3e0f3d2619090351", "rental_uris": {"ios": "https://dc.lft.to/lastmile_qr_scan", "android": "https://dc.lft.to/lastmile_qr_scan"}}, {"is_disabled": 0, "fusion_lat": 0.0, "lat": 38.8984005, "type": "electric_scooter", "lon": -77.00725966666667, "is_reserved": 0, "fusion_lon": 0.0, "bike_id": "7a244d7556ab0584751ce20d0f683e59", "name": "7a244d7556ab0584751ce20d0f683e59", "rental_uris": {"ios": "https://dc.lft.to/lastmile_qr_scan", "android": "https://dc.lft.to/lastmile_qr_scan"}}, {"is_disabled": 0, "fusion_lat": 0.0, "lat": 38.912742333333334, "type": "electric_scooter", "lon": -77.02265933333334, "is_reserved": 0, "fusion_lon": 0.0, "bike_id": "1b8f6809220e7422e1c21cb5f678bfb5", "name": "1b8f6809220e7422e1c21cb5f678bfb5", "rental_uris": {"ios": "https://dc.lft.to/lastmile_qr_scan", "android": "https://dc.lft.to/lastmile_qr_scan"}}, {"is_disabled": 0, "fusion_lat": 0.0, "lat": 38.83725833333333, "type": "electric_bike", "lon": -76.99761566666666, "is_reserved": 0, "fusion_lon": 0.0, "bike_id": "c51778c5c5cfa0c59e4eed00a6310909", "name": "c51778c5c5cfa0c59e4eed00a6310909", "rental_uris": {"ios": "https://dc.lft.to/lastmile_qr_scan", "android": "https://dc.lft.to/lastmile_qr_scan"}}, {"is_disabled": 0, "fusion_lat": 0.0, "lat": 38.93438366666667, "type": "electric_scooter", "lon": -77.040011, "is_reserved": 0, "fusion_lon": 0.0, "bike_id": "cb543ebcf4e2fea671609c2f1959c719", "name": "cb543ebcf4e2fea671609c2f1959c719", "rental_uris": {"ios": "https://dc.lft.to/lastmile_qr_scan", "android": "https://dc.lft.to/lastmile_qr_scan"}}, {"is_disabled": 0, "fusion_lat": 0.0, "lat": 38.9160585, "type": "electric_scooter", "lon": -77.01175933333333, "is_reserved": 0, "fusion_lon": 0.0, "bike_id": "04b92def906935967ac9c17fcb96e42b", "name": "04b92def906935967ac9c17fcb96e42b", "rental_uris": {"ios": "https://dc.lft.to/lastmile_qr_scan", "android": "https://dc.lft.to/lastmile_qr_scan"}}, {"is_disabled": 0, "fusion_lat": 0.0, "lat": 38.90248233333333, "type": "electric_scooter", "lon": -77.041697, "is_reserved": 0, "fusion_lon": 0.0, "bike_id": "f6476dd513023c73e794a7b6a0449230", "name": "f6476dd513023c73e794a7b6a0449230", "rental_uris": {"ios": "https://dc.lft.to/lastmile_qr_scan", "android": "https://dc.lft.to/lastmile_qr_scan"}}, {"is_disabled": 0, "fusion_lat": 0.0, "lat": 38.887459, "type": "electric_scooter", "lon": -77.00325966666666, "is_reserved": 0, "fusion_lon": 0.0, "bike_id": "75d6cd4ff59ea7f441ff271873295af8", "name": "75d6cd4ff59ea7f441ff271873295af8", "rental_uris": {"ios": "https://dc.lft.to/lastmile_qr_scan", "android": "https://dc.lft.to/lastmile_qr_scan"}}, {"is_disabled": 0, "fusion_lat": 0.0, "lat": 38.917655333333336, "type": "electric_scooter", "lon": -77.04050366666667, "is_reserved": 0, "fusion_lon": 0.0, "bike_id": "9da38a3aea082cf1b2cc61090179ff05", "name": "9da38a3aea082cf1b2cc61090179ff05", "rental_uris": {"ios": "https://dc.lft.to/lastmile_qr_scan", "android": "https://dc.lft.to/lastmile_qr_scan"}}, {"is_disabled": 0, "fusion_lat": 0.0, "lat": 38.94718966666667, "type": "electric_scooter", "lon": -77.03345233333333, "is_reserved": 0, "fusion_lon": 0.0, "bike_id": "1c540511b6942b6d4187b3405782b43b", "name": "1c540511b6942b6d4187b3405782b43b", "rental_uris": {"ios": "https://dc.lft.to/lastmile_qr_scan", "android": "https://dc.lft.to/lastmile_qr_scan"}}, {"is_disabled": 0, "fusion_lat": 0.0, "lat": 38.807588833333334, "type": "electric_bike", "lon": -77.09453733333334, "is_reserved": 0, "fusion_lon": 0.0, "bike_id": "07e86525ebe5965ace544df07cf1b7a8", "name": "07e86525ebe5965ace544df07cf1b7a8", "rental_uris": {"ios": "https://dc.lft.to/lastmile_qr_scan", "android": "https://dc.lft.to/lastmile_qr_scan"}}, {"is_disabled": 0, "fusion_lat": 0.0, "lat": 38.93715533333334, "type": "electric_scooter", "lon": -77.02936183333334, "is_reserved": 0, "fusion_lon": 0.0, "bike_id": "3ccab413dc1745e0ca14c109ae67e32e", "name": "3ccab413dc1745e0ca14c109ae67e32e", "rental_uris": {"ios": "https://dc.lft.to/lastmile_qr_scan", "android": "https://dc.lft.to/lastmile_qr_scan"}}, {"is_disabled": 0, "fusion_lat": 0.0, "lat": 38.9050385, "type": "electric_scooter", "lon": -77.02599183333334, "is_reserved": 0, "fusion_lon": 0.0, "bike_id": "446963ba2cf9ada93c0a0c96e26db4c2", "name": "446963ba2cf9ada93c0a0c96e26db4c2", "rental_uris": {"ios": "https://dc.lft.to/lastmile_qr_scan", "android": "https://dc.lft.to/lastmile_qr_scan"}}, {"is_disabled": 0, "fusion_lat": 0.0, "lat": 38.918237833333336, "type": "electric_scooter", "lon": -77.03526166666667, "is_reserved": 0, "fusion_lon": 0.0, "bike_id": "ab01c9e138108638892c4990dde1ad3e", "name": "ab01c9e138108638892c4990dde1ad3e", "rental_uris": {"ios": "https://dc.lft.to/lastmile_qr_scan", "android": "https://dc.lft.to/lastmile_qr_scan"}}, {"is_disabled": 0, "fusion_lat": 0.0, "lat": 38.950916, "type": "electric_scooter", "lon": -77.02827633333334, "is_reserved": 0, "fusion_lon": 0.0, "bike_id": "52e9ab51bd82ad9eda0e1ea5face32e3", "name": "52e9ab51bd82ad9eda0e1ea5face32e3", "rental_uris": {"ios": "https://dc.lft.to/lastmile_qr_scan", "android": "https://dc.lft.to/lastmile_qr_scan"}}, {"is_disabled": 0, "fusion_lat": 0.0, "lat": 38.94085533333333, "type": "electric_scooter", "lon": -77.027237, "is_reserved": 0, "fusion_lon": 0.0, "bike_id": "7e7e64e156fbdc8444dd70f6a2599249", "name": "7e7e64e156fbdc8444dd70f6a2599249", "rental_uris": {"ios": "https://dc.lft.to/lastmile_qr_scan", "android": "https://dc.lft.to/lastmile_qr_scan"}}, {"is_disabled": 0, "fusion_lat": 0.0, "lat": 38.909783166666664, "type": "electric_scooter", "lon": -77.0386995, "is_reserved": 0, "fusion_lon": 0.0, "bike_id": "628b23f98d143139edf9d01697af9326", "name": "628b23f98d143139edf9d01697af9326", "rental_uris": {"ios": "https://dc.lft.to/lastmile_qr_scan", "android": "https://dc.lft.to/lastmile_qr_scan"}}, {"is_disabled": 0, "fusion_lat": 0.0, "lat": 38.919654333333334, "type": "electric_scooter", "lon": -77.03213733333334, "is_reserved": 0, "fusion_lon": 0.0, "bike_id": "5bc03a276882f2c34bc803d9d3e34a49", "name": "5bc03a276882f2c34bc803d9d3e34a49", "rental_uris": {"ios": "https://dc.lft.to/lastmile_qr_scan", "android": "https://dc.lft.to/lastmile_qr_scan"}}, {"is_disabled": 0, "fusion_lat": 0.0, "lat": 38.9067225, "type": "electric_scooter", "lon": -77.02711983333333, "is_reserved": 0, "fusion_lon": 0.0, "bike_id": "9bb02e6ac7d738ec8bb6f2c0a0750d30", "name": "9bb02e6ac7d738ec8bb6f2c0a0750d30", "rental_uris": {"ios": "https://dc.lft.to/lastmile_qr_scan", "android": "https://dc.lft.to/lastmile_qr_scan"}}, {"is_disabled": 0, "fusion_lat": 0.0, "lat": 38.889358666666666, "type": "electric_scooter", "lon": -77.020595, "is_reserved": 0, "fusion_lon": 0.0, "bike_id": "e468c0fe144560b8b7f6367dc4df935d", "name": "e468c0fe144560b8b7f6367dc4df935d", "rental_uris": {"ios": "https://dc.lft.to/lastmile_qr_scan", "android": "https://dc.lft.to/lastmile_qr_scan"}}, {"is_disabled": 0, "fusion_lat": 0.0, "lat": 38.9353525, "type": "electric_scooter", "lon": -77.02351416666667, "is_reserved": 0, "fusion_lon": 0.0, "bike_id": "c323f800595e35d383a34cd07bf1c84b", "name": "c323f800595e35d383a34cd07bf1c84b", "rental_uris": {"ios": "https://dc.lft.to/lastmile_qr_scan", "android": "https://dc.lft.to/lastmile_qr_scan"}}, {"is_disabled": 0, "fusion_lat": 0.0, "lat": 38.919591833333335, "type": "electric_scooter", "lon": -77.03194216666667, "is_reserved": 0, "fusion_lon": 0.0, "bike_id": "37d63eea6a5753f8b38b813f971bc615", "name": "37d63eea6a5753f8b38b813f971bc615", "rental_uris": {"ios": "https://dc.lft.to/lastmile_qr_scan", "android": "https://dc.lft.to/lastmile_qr_scan"}}, {"is_disabled": 0, "fusion_lat": 0.0, "lat": 38.89905066666667, "type": "electric_scooter", "lon": -77.0072195, "is_reserved": 0, "fusion_lon": 0.0, "bike_id": "9045ce517d41957578ac95d73c97f64a", "name": "9045ce517d41957578ac95d73c97f64a", "rental_uris": {"ios": "https://dc.lft.to/lastmile_qr_scan", "android": "https://dc.lft.to/lastmile_qr_scan"}}, {"is_disabled": 0, "fusion_lat": 0.0, "lat": 38.9080295, "type": "electric_scooter", "lon": -77.044531, "is_reserved": 0, "fusion_lon": 0.0, "bike_id": "42cc93e0218c9d358b43ce37b35ba15e", "name": "42cc93e0218c9d358b43ce37b35ba15e", "rental_uris": {"ios": "https://dc.lft.to/lastmile_qr_scan", "android": "https://dc.lft.to/lastmile_qr_scan"}}, {"is_disabled": 0, "fusion_lat": 0.0, "lat": 38.95265116666667, "type": "electric_bike", "lon": -77.06989466666667, "is_reserved": 0, "fusion_lon": 0.0, "bike_id": "0999549330d4ed4e5218440970c52c49", "name": "0999549330d4ed4e5218440970c52c49", "rental_uris": {"ios": "https://dc.lft.to/lastmile_qr_scan", "android": "https://dc.lft.to/lastmile_qr_scan"}}, {"is_disabled": 0, "fusion_lat": 0.0, "lat": 38.92642133333333, "type": "electric_scooter", "lon": -77.01345116666667, "is_reserved": 0, "fusion_lon": 0.0, "bike_id": "1fa302684c413cddbec864bcc84dc9fd", "name": "1fa302684c413cddbec864bcc84dc9fd", "rental_uris": {"ios": "https://dc.lft.to/lastmile_qr_scan", "android": "https://dc.lft.to/lastmile_qr_scan"}}, {"is_disabled": 0, "fusion_lat": 0.0, "lat": 38.82091533333333, "type": "electric_bike", "lon": -77.05363216666667, "is_reserved": 0, "fusion_lon": 0.0, "bike_id": "8922a03751abcef7fb04b3f251bf61e4", "name": "8922a03751abcef7fb04b3f251bf61e4", "rental_uris": {"ios": "https://dc.lft.to/lastmile_qr_scan", "android": "https://dc.lft.to/lastmile_qr_scan"}}, {"is_disabled": 0, "fusion_lat": 0.0, "lat": 38.92603733333333, "type": "electric_scooter", "lon": -77.056951, "is_reserved": 0, "fusion_lon": 0.0, "bike_id": "8f40c13f8e7a140831388da3b6626dd9", "name": "8f40c13f8e7a140831388da3b6626dd9", "rental_uris": {"ios": "https://dc.lft.to/lastmile_qr_scan", "android": "https://dc.lft.to/lastmile_qr_scan"}}, {"is_disabled": 0, "fusion_lat": 0.0, "lat": 38.923285166666666, "type": "electric_scooter", "lon": -77.03889333333333, "is_reserved": 0, "fusion_lon": 0.0, "bike_id": "52f20664474d867d03ca0c64c2d5ea41", "name": "52f20664474d867d03ca0c64c2d5ea41", "rental_uris": {"ios": "https://dc.lft.to/lastmile_qr_scan", "android": "https://dc.lft.to/lastmile_qr_scan"}}, {"is_disabled": 0, "fusion_lat": 0.0, "lat": 38.937658166666665, "type": "electric_scooter", "lon": -77.0211155, "is_reserved": 0, "fusion_lon": 0.0, "bike_id": "77ae7901aaff812f92164d4b8f4c140f", "name": "77ae7901aaff812f92164d4b8f4c140f", "rental_uris": {"ios": "https://dc.lft.to/lastmile_qr_scan", "android": "https://dc.lft.to/lastmile_qr_scan"}}, {"is_disabled": 0, "fusion_lat": 0.0, "lat": 38.93098166666667, "type": "electric_scooter", "lon": -77.036735, "is_reserved": 0, "fusion_lon": 0.0, "bike_id": "3e4688715f88c3139feae7c1ac24f036", "name": "3e4688715f88c3139feae7c1ac24f036", "rental_uris": {"ios": "https://dc.lft.to/lastmile_qr_scan", "android": "https://dc.lft.to/lastmile_qr_scan"}}, {"is_disabled": 0, "fusion_lat": 0.0, "lat": 38.90672983333333, "type": "electric_scooter", "lon": -76.98786166666666, "is_reserved": 0, "fusion_lon": 0.0, "bike_id": "c1b932126656e031e007261a8b09446c", "name": "c1b932126656e031e007261a8b09446c", "rental_uris": {"ios": "https://dc.lft.to/lastmile_qr_scan", "android": "https://dc.lft.to/lastmile_qr_scan"}}, {"is_disabled": 0, "fusion_lat": 0.0, "lat": 38.924855666666666, "type": "electric_scooter", "lon": -77.03773783333334, "is_reserved": 0, "fusion_lon": 0.0, "bike_id": "243d797cf281af6c8d8a5b36b813593c", "name": "243d797cf281af6c8d8a5b36b813593c", "rental_uris": {"ios": "https://dc.lft.to/lastmile_qr_scan", "android": "https://dc.lft.to/lastmile_qr_scan"}}, {"is_disabled": 0, "fusion_lat": 0.0, "lat": 38.9023725, "type": "electric_scooter", "lon": -77.01731466666666, "is_reserved": 0, "fusion_lon": 0.0, "bike_id": "ef5a25af0ccb63cfc13aa60b22baf784", "name": "ef5a25af0ccb63cfc13aa60b22baf784", "rental_uris": {"ios": "https://dc.lft.to/lastmile_qr_scan", "android": "https://dc.lft.to/lastmile_qr_scan"}}, {"is_disabled": 0, "fusion_lat": 0.0, "lat": 38.900064, "type": "electric_scooter", "lon": -77.05234616666667, "is_reserved": 0, "fusion_lon": 0.0, "bike_id": "24f8986302617e6dbc938d8d0314601f", "name": "24f8986302617e6dbc938d8d0314601f", "rental_uris": {"ios": "https://dc.lft.to/lastmile_qr_scan", "android": "https://dc.lft.to/lastmile_qr_scan"}}, {"is_disabled": 0, "fusion_lat": 0.0, "lat": 38.89547183333333, "type": "electric_scooter", "lon": -77.0484385, "is_reserved": 0, "fusion_lon": 0.0, "bike_id": "5df06c6b027cbef106bf77e9ca05b055", "name": "5df06c6b027cbef106bf77e9ca05b055", "rental_uris": {"ios": "https://dc.lft.to/lastmile_qr_scan", "android": "https://dc.lft.to/lastmile_qr_scan"}}, {"is_disabled": 0, "fusion_lat": 0.0, "lat": 38.9588145, "type": "electric_bike", "lon": -76.925056, "is_reserved": 0, "fusion_lon": 0.0, "bike_id": "9d2114570c588975c363120cc72059f5", "name": "9d2114570c588975c363120cc72059f5", "rental_uris": {"ios": "https://dc.lft.to/lastmile_qr_scan", "android": "https://dc.lft.to/lastmile_qr_scan"}}, {"is_disabled": 0, "fusion_lat": 0.0, "lat": 38.910371, "type": "electric_scooter", "lon": -77.04394566666667, "is_reserved": 0, "fusion_lon": 0.0, "bike_id": "bb403fb6f504008832cfa836be422060", "name": "bb403fb6f504008832cfa836be422060", "rental_uris": {"ios": "https://dc.lft.to/lastmile_qr_scan", "android": "https://dc.lft.to/lastmile_qr_scan"}}, {"is_disabled": 0, "fusion_lat": 0.0, "lat": 38.905685, "type": "electric_scooter", "lon": -76.98138416666667, "is_reserved": 0, "fusion_lon": 0.0, "bike_id": "d3bf543eb1e48079a1ac358aab2b8b27", "name": "d3bf543eb1e48079a1ac358aab2b8b27", "rental_uris": {"ios": "https://dc.lft.to/lastmile_qr_scan", "android": "https://dc.lft.to/lastmile_qr_scan"}}, {"is_disabled": 0, "fusion_lat": 0.0, "lat": 38.90572783333333, "type": "electric_scooter", "lon": -77.04367183333333, "is_reserved": 0, "fusion_lon": 0.0, "bike_id": "071d6275adf6b58b01347a63dd9d1ca1", "name": "071d6275adf6b58b01347a63dd9d1ca1", "rental_uris": {"ios": "https://dc.lft.to/lastmile_qr_scan", "android": "https://dc.lft.to/lastmile_qr_scan"}}, {"is_disabled": 0, "fusion_lat": 0.0, "lat": 38.89042933333333, "type": "electric_scooter", "lon": -76.94079866666667, "is_reserved": 0, "fusion_lon": 0.0, "bike_id": "365ee73d0c3176c65da9b62142b5ec16", "name": "365ee73d0c3176c65da9b62142b5ec16", "rental_uris": {"ios": "https://dc.lft.to/lastmile_qr_scan", "android": "https://dc.lft.to/lastmile_qr_scan"}}, {"is_disabled": 0, "fusion_lat": 0.0, "lat": 38.930456666666664, "type": "electric_scooter", "lon": -77.03220933333333, "is_reserved": 0, "fusion_lon": 0.0, "bike_id": "e90fa40eccd2b550b1f290e6f109b020", "name": "e90fa40eccd2b550b1f290e6f109b020", "rental_uris": {"ios": "https://dc.lft.to/lastmile_qr_scan", "android": "https://dc.lft.to/lastmile_qr_scan"}}, {"is_disabled": 0, "fusion_lat": 0.0, "lat": 38.875541, "type": "electric_scooter", "lon": -76.9648985, "is_reserved": 0, "fusion_lon": 0.0, "bike_id": "d50c807189ce4d5e4c6a4fa20e410a84", "name": "d50c807189ce4d5e4c6a4fa20e410a84", "rental_uris": {"ios": "https://dc.lft.to/lastmile_qr_scan", "android": "https://dc.lft.to/lastmile_qr_scan"}}, {"is_disabled": 0, "fusion_lat": 0.0, "lat": 38.908005, "type": "electric_scooter", "lon": -77.03481916666667, "is_reserved": 0, "fusion_lon": 0.0, "bike_id": "80bd0dc294c216dafd3b91319b8733c4", "name": "80bd0dc294c216dafd3b91319b8733c4", "rental_uris": {"ios": "https://dc.lft.to/lastmile_qr_scan", "android": "https://dc.lft.to/lastmile_qr_scan"}}, {"is_disabled": 0, "fusion_lat": 0.0, "lat": 38.916024666666665, "type": "electric_scooter", "lon": -77.045272, "is_reserved": 0, "fusion_lon": 0.0, "bike_id": "6556dcb9ac6a005f4b4fb3984ce5ed79", "name": "6556dcb9ac6a005f4b4fb3984ce5ed79", "rental_uris": {"ios": "https://dc.lft.to/lastmile_qr_scan", "android": "https://dc.lft.to/lastmile_qr_scan"}}, {"is_disabled": 0, "fusion_lat": 0.0, "lat": 38.93612383333333, "type": "electric_scooter", "lon": -77.057319, "is_reserved": 0, "fusion_lon": 0.0, "bike_id": "68f9e5758190779ef88baa6ca773e6cb", "name": "68f9e5758190779ef88baa6ca773e6cb", "rental_uris": {"ios": "https://dc.lft.to/lastmile_qr_scan", "android": "https://dc.lft.to/lastmile_qr_scan"}}, {"is_disabled": 0, "fusion_lat": 0.0, "lat": 38.913459333333336, "type": "electric_scooter", "lon": -77.01057316666666, "is_reserved": 0, "fusion_lon": 0.0, "bike_id": "71d1739cb150df01b9a52c06d7871851", "name": "71d1739cb150df01b9a52c06d7871851", "rental_uris": {"ios": "https://dc.lft.to/lastmile_qr_scan", "android": "https://dc.lft.to/lastmile_qr_scan"}}, {"is_disabled": 0, "fusion_lat": 0.0, "lat": 38.920850333333334, "type": "electric_scooter", "lon": -77.0421615, "is_reserved": 0, "fusion_lon": 0.0, "bike_id": "0bef69201d89bded2d74f46d3edae2ca", "name": "0bef69201d89bded2d74f46d3edae2ca", "rental_uris": {"ios": "https://dc.lft.to/lastmile_qr_scan", "android": "https://dc.lft.to/lastmile_qr_scan"}}, {"is_disabled": 0, "fusion_lat": 0.0, "lat": 38.892020333333335, "type": "electric_scooter", "lon": -77.0238225, "is_reserved": 0, "fusion_lon": 0.0, "bike_id": "91d6b4e4d7cfb3d4cb6a73edae49b12b", "name": "91d6b4e4d7cfb3d4cb6a73edae49b12b", "rental_uris": {"ios": "https://dc.lft.to/lastmile_qr_scan", "android": "https://dc.lft.to/lastmile_qr_scan"}}, {"is_disabled": 0, "fusion_lat": 0.0, "lat": 38.922322, "type": "electric_scooter", "lon": -77.03353683333333, "is_reserved": 0, "fusion_lon": 0.0, "bike_id": "0e9e32f9b1328fdfc0ac23676e20f4c4", "name": "0e9e32f9b1328fdfc0ac23676e20f4c4", "rental_uris": {"ios": "https://dc.lft.to/lastmile_qr_scan", "android": "https://dc.lft.to/lastmile_qr_scan"}}, {"is_disabled": 0, "fusion_lat": 0.0, "lat": 38.929727, "type": "electric_scooter", "lon": -77.028167, "is_reserved": 0, "fusion_lon": 0.0, "bike_id": "6454d136a1d2a7f8d34f687dc9389976", "name": "6454d136a1d2a7f8d34f687dc9389976", "rental_uris": {"ios": "https://dc.lft.to/lastmile_qr_scan", "android": "https://dc.lft.to/lastmile_qr_scan"}}, {"is_disabled": 0, "fusion_lat": 0.0, "lat": 38.914776, "type": "electric_bike", "lon": -76.983596, "is_reserved": 0, "fusion_lon": 0.0, "bike_id": "c33d93a62eaf2efc032dc966056d1844", "name": "c33d93a62eaf2efc032dc966056d1844", "rental_uris": {"ios": "https://dc.lft.to/lastmile_qr_scan", "android": "https://dc.lft.to/lastmile_qr_scan"}}, {"is_disabled": 0, "fusion_lat": 0.0, "lat": 38.907143, "type": "electric_scooter", "lon": -77.04354883333333, "is_reserved": 0, "fusion_lon": 0.0, "bike_id": "eec0b619438082ab15bbd6159abd1d1a", "name": "eec0b619438082ab15bbd6159abd1d1a", "rental_uris": {"ios": "https://dc.lft.to/lastmile_qr_scan", "android": "https://dc.lft.to/lastmile_qr_scan"}}, {"is_disabled": 0, "fusion_lat": 0.0, "lat": 38.905528333333336, "type": "electric_scooter", "lon": -77.03845116666666, "is_reserved": 0, "fusion_lon": 0.0, "bike_id": "9b81261aca169515f96a7b1897d02a31", "name": "9b81261aca169515f96a7b1897d02a31", "rental_uris": {"ios": "https://dc.lft.to/lastmile_qr_scan", "android": "https://dc.lft.to/lastmile_qr_scan"}}, {"is_disabled": 0, "fusion_lat": 0.0, "lat": 38.946343, "type": "electric_scooter", "lon": -77.0252205, "is_reserved": 0, "fusion_lon": 0.0, "bike_id": "1ff517ce7ec55ddcb68650b1132a27ba", "name": "1ff517ce7ec55ddcb68650b1132a27ba", "rental_uris": {"ios": "https://dc.lft.to/lastmile_qr_scan", "android": "https://dc.lft.to/lastmile_qr_scan"}}, {"is_disabled": 0, "fusion_lat": 0.0, "lat": 38.882044666666665, "type": "electric_scooter", "lon": -77.00602466666666, "is_reserved": 0, "fusion_lon": 0.0, "bike_id": "4d8c698eeefe3ea17abe976fd10e2b40", "name": "4d8c698eeefe3ea17abe976fd10e2b40", "rental_uris": {"ios": "https://dc.lft.to/lastmile_qr_scan", "android": "https://dc.lft.to/lastmile_qr_scan"}}, {"is_disabled": 0, "fusion_lat": 0.0, "lat": 38.89960416666667, "type": "electric_scooter", "lon": -77.04776516666666, "is_reserved": 0, "fusion_lon": 0.0, "bike_id": "4269196133ca45520e727b2ae4b24a2b", "name": "4269196133ca45520e727b2ae4b24a2b", "rental_uris": {"ios": "https://dc.lft.to/lastmile_qr_scan", "android": "https://dc.lft.to/lastmile_qr_scan"}}, {"is_disabled": 0, "fusion_lat": 0.0, "lat": 38.94335566666667, "type": "electric_scooter", "lon": -77.03258333333333, "is_reserved": 0, "fusion_lon": 0.0, "bike_id": "51b191ff03cdb6dccbd7ddc65e8d6f67", "name": "51b191ff03cdb6dccbd7ddc65e8d6f67", "rental_uris": {"ios": "https://dc.lft.to/lastmile_qr_scan", "android": "https://dc.lft.to/lastmile_qr_scan"}}, {"is_disabled": 0, "fusion_lat": 0.0, "lat": 38.8923905, "type": "electric_scooter", "lon": -77.0220755, "is_reserved": 0, "fusion_lon": 0.0, "bike_id": "7d3a62324ec6bbfb1ce3b18716478b75", "name": "7d3a62324ec6bbfb1ce3b18716478b75", "rental_uris": {"ios": "https://dc.lft.to/lastmile_qr_scan", "android": "https://dc.lft.to/lastmile_qr_scan"}}, {"is_disabled": 0, "fusion_lat": 0.0, "lat": 38.926762333333336, "type": "electric_scooter", "lon": -77.09543083333334, "is_reserved": 0, "fusion_lon": 0.0, "bike_id": "3cde4ef5425ad87c6cd2551b9f4547ca", "name": "3cde4ef5425ad87c6cd2551b9f4547ca", "rental_uris": {"ios": "https://dc.lft.to/lastmile_qr_scan", "android": "https://dc.lft.to/lastmile_qr_scan"}}, {"is_disabled": 0, "fusion_lat": 0.0, "lat": 38.900461666666665, "type": "electric_scooter", "lon": -76.98834616666667, "is_reserved": 0, "fusion_lon": 0.0, "bike_id": "52cd2f7a31c02d7922a2411510aebfe7", "name": "52cd2f7a31c02d7922a2411510aebfe7", "rental_uris": {"ios": "https://dc.lft.to/lastmile_qr_scan", "android": "https://dc.lft.to/lastmile_qr_scan"}}, {"is_disabled": 0, "fusion_lat": 0.0, "lat": 38.90472283333333, "type": "electric_scooter", "lon": -77.04855, "is_reserved": 0, "fusion_lon": 0.0, "bike_id": "87ded590debd4df65061162c8e7b1c9d", "name": "87ded590debd4df65061162c8e7b1c9d", "rental_uris": {"ios": "https://dc.lft.to/lastmile_qr_scan", "android": "https://dc.lft.to/lastmile_qr_scan"}}, {"is_disabled": 0, "fusion_lat": 0.0, "lat": 38.91557366666667, "type": "electric_scooter", "lon": -77.03377483333334, "is_reserved": 0, "fusion_lon": 0.0, "bike_id": "705a4c67c8b081521683f4bd97ea77b8", "name": "705a4c67c8b081521683f4bd97ea77b8", "rental_uris": {"ios": "https://dc.lft.to/lastmile_qr_scan", "android": "https://dc.lft.to/lastmile_qr_scan"}}, {"is_disabled": 0, "fusion_lat": 0.0, "lat": 38.897495, "type": "electric_scooter", "lon": -77.00030816666667, "is_reserved": 0, "fusion_lon": 0.0, "bike_id": "5dadf250ce507396102eecc8a7ab05f3", "name": "5dadf250ce507396102eecc8a7ab05f3", "rental_uris": {"ios": "https://dc.lft.to/lastmile_qr_scan", "android": "https://dc.lft.to/lastmile_qr_scan"}}, {"is_disabled": 0, "fusion_lat": 0.0, "lat": 38.89630866666667, "type": "electric_scooter", "lon": -76.98496366666667, "is_reserved": 0, "fusion_lon": 0.0, "bike_id": "e137d68d233e2d98ca6e5f07822d19bf", "name": "e137d68d233e2d98ca6e5f07822d19bf", "rental_uris": {"ios": "https://dc.lft.to/lastmile_qr_scan", "android": "https://dc.lft.to/lastmile_qr_scan"}}, {"is_disabled": 0, "fusion_lat": 0.0, "lat": 38.9170995, "type": "electric_scooter", "lon": -77.00120583333333, "is_reserved": 0, "fusion_lon": 0.0, "bike_id": "6bf251c4466c691c8c9fa3cccdb95e7f", "name": "6bf251c4466c691c8c9fa3cccdb95e7f", "rental_uris": {"ios": "https://dc.lft.to/lastmile_qr_scan", "android": "https://dc.lft.to/lastmile_qr_scan"}}, {"is_disabled": 0, "fusion_lat": 0.0, "lat": 38.88440683333334, "type": "electric_scooter", "lon": -77.03037666666667, "is_reserved": 0, "fusion_lon": 0.0, "bike_id": "61fa9c161af07fe9847a3b43b702d64f", "name": "61fa9c161af07fe9847a3b43b702d64f", "rental_uris": {"ios": "https://dc.lft.to/lastmile_qr_scan", "android": "https://dc.lft.to/lastmile_qr_scan"}}, {"is_disabled": 0, "fusion_lat": 0.0, "lat": 38.8606255, "type": "electric_bike", "lon": -77.05646416666667, "is_reserved": 0, "fusion_lon": 0.0, "bike_id": "db5856278c6fa78986e1b08e919d3362", "name": "db5856278c6fa78986e1b08e919d3362", "rental_uris": {"ios": "https://dc.lft.to/lastmile_qr_scan", "android": "https://dc.lft.to/lastmile_qr_scan"}}, {"is_disabled": 0, "fusion_lat": 0.0, "lat": 38.8921385, "type": "electric_scooter", "lon": -77.00058066666666, "is_reserved": 0, "fusion_lon": 0.0, "bike_id": "07c49891cfe60c59cae30d84345aa1e7", "name": "07c49891cfe60c59cae30d84345aa1e7", "rental_uris": {"ios": "https://dc.lft.to/lastmile_qr_scan", "android": "https://dc.lft.to/lastmile_qr_scan"}}, {"is_disabled": 0, "fusion_lat": 0.0, "lat": 38.911991666666665, "type": "electric_scooter", "lon": -77.06090366666666, "is_reserved": 0, "fusion_lon": 0.0, "bike_id": "e0c2c5fab5f331393ef7d3b0d836d02d", "name": "e0c2c5fab5f331393ef7d3b0d836d02d", "rental_uris": {"ios": "https://dc.lft.to/lastmile_qr_scan", "android": "https://dc.lft.to/lastmile_qr_scan"}}, {"is_disabled": 0, "fusion_lat": 0.0, "lat": 38.87933783333333, "type": "electric_scooter", "lon": -77.0053465, "is_reserved": 0, "fusion_lon": 0.0, "bike_id": "adc028db1dead06eae9fc9da02e63508", "name": "adc028db1dead06eae9fc9da02e63508", "rental_uris": {"ios": "https://dc.lft.to/lastmile_qr_scan", "android": "https://dc.lft.to/lastmile_qr_scan"}}, {"is_disabled": 0, "fusion_lat": 0.0, "lat": 38.9596185, "type": "electric_bike", "lon": -77.10092116666667, "is_reserved": 0, "fusion_lon": 0.0, "bike_id": "6f8bd61b60c20bc8a2912bb1889cef23", "name": "6f8bd61b60c20bc8a2912bb1889cef23", "rental_uris": {"ios": "https://dc.lft.to/lastmile_qr_scan", "android": "https://dc.lft.to/lastmile_qr_scan"}}, {"is_disabled": 0, "fusion_lat": 0.0, "lat": 38.844659166666666, "type": "electric_scooter", "lon": -76.99861233333333, "is_reserved": 0, "fusion_lon": 0.0, "bike_id": "f26fadb491c5883287c7f3b687beb54e", "name": "f26fadb491c5883287c7f3b687beb54e", "rental_uris": {"ios": "https://dc.lft.to/lastmile_qr_scan", "android": "https://dc.lft.to/lastmile_qr_scan"}},