{"data": {"bikes": [{"is_disabled": 0, "is_reserved": 0, "fusion_lat": 0.0, "lat": 38.86627133333333, "fusion_lon": 0.0, "rental_uris": {"ios": "https://dc.lft.to/lastmile_qr_scan", "android": "https://dc.lft.to/lastmile_qr_scan"}, "lon": -76.98259516666667, "bike_id": "72c9b72aadbbe5fa4fbd508c85b7e2a2", "type": "electric_scooter", "name": "72c9b72aadbbe5fa4fbd508c85b7e2a2"}, {"is_disabled": 0, "is_reserved": 0, "fusion_lat": 0.0, "lat": 38.90195666666666, "fusion_lon": 0.0, "rental_uris": {"ios": "https://dc.lft.to/lastmile_qr_scan", "android": "https://dc.lft.to/lastmile_qr_scan"}, "lon": -76.993747, "bike_id": "05ab81980be89193f59f46770b21070b", "type": "electric_scooter", "name": "05ab81980be89193f59f46770b21070b"}, {"is_disabled": 0, "is_reserved": 0, "fusion_lat": 0.0, "lat": 38.91589033333333, "fusion_lon": 0.0, "rental_uris": {"ios": "https://dc.lft.to/lastmile_qr_scan", "android": "https://dc.lft.to/lastmile_qr_scan"}, "lon": -76.9829625, "bike_id": "28190b11f196a85008fada2617f6b1cd", "type": "electric_scooter", "name": "28190b11f196a85008fada2617f6b1cd"}, {"is_disabled": 0, "is_reserved": 0, "fusion_lat": 0.0, "lat": 38.92487216666667, "fusion_lon": 0.0, "rental_uris": {"ios": "https://dc.lft.to/lastmile_qr_scan", "android": "https://dc.lft.to/lastmile_qr_scan"}, "lon": -77.031861, "bike_id": "7bee0a1d76b8defc6dca77907d07ca0d", "type": "electric_scooter", "name": "7bee0a1d76b8defc6dca77907d07ca0d"}, {"is_disabled": 0, "is_reserved": 0, "fusion_lat": 0.0, "lat": 38.934626333333334, "fusion_lon": 0.0, "rental_uris": {"ios": "https://dc.lft.to/lastmile_qr_scan", "android": "https://dc.lft.to/lastmile_qr_scan"}, "lon": -77.02769633333334, "bike_id": "f836f0dfbc6ed9c7dde5b313ffa724e2", "type": "electric_scooter", "name": "f836f0dfbc6ed9c7dde5b313ffa724e2"}, {"is_disabled": 0, "is_reserved": 0, "fusion_lat": 0.0, "lat": 38.90185983333333, "fusion_lon": 0.0, "rental_uris": {"ios": "https://dc.lft.to/lastmile_qr_scan", "android": "https://dc.lft.to/lastmile_qr_scan"}, "lon": -77.002219, "bike_id": "a64e7685af9540371f7fdc8d3ade49d6", "type": "electric_scooter", "name": "a64e7685af9540371f7fdc8d3ade49d6"}, {"is_disabled": 0, "is_reserved": 0, "fusion_lat": 0.0, "lat": 38.831556166666665, "fusion_lon": 0.0, "rental_uris": {"ios": "https://dc.lft.to/lastmile_qr_scan", "android": "https://dc.lft.to/lastmile_qr_scan"}, "lon": -76.995743, "bike_id": "b5ae059b1a56df0e1bd194c95e5e1d72", "type": "electric_bike", "name": "b5ae059b1a56df0e1bd194c95e5e1d72"}, {"is_disabled": 0, "is_reserved": 0, "fusion_lat": 0.0, "lat": 38.89333383333334, "fusion_lon": 0.0, "rental_uris": {"ios": "https://dc.lft.to/lastmile_qr_scan", "android": "https://dc.lft.to/lastmile_qr_scan"}, "lon": -77.02241966666666, "bike_id": "5c44ea7b484a5c88209614311d0e854f", "type": "electric_scooter", "name": "5c44ea7b484a5c88209614311d0e854f"}, {"is_disabled": 0, "is_reserved": 0, "fusion_lat": 0.0, "lat": 38.913074, "fusion_lon": 0.0, "rental_uris": {"ios": "https://dc.lft.to/lastmile_qr_scan", "android": "https://dc.lft.to/lastmile_qr_scan"}, "lon": -77.0433505, "bike_id": "80ea2932a8aadf6a1413f7af0ec8747f", "type": "electric_scooter", "name": "80ea2932a8aadf6a1413f7af0ec8747f"}, {"is_disabled": 0, "is_reserved": 0, "fusion_lat": 0.0, "lat": 38.87638316666666, "fusion_lon": 0.0, "rental_uris": {"ios": "https://dc.lft.to/lastmile_qr_scan", "android": "https://dc.lft.to/lastmile_qr_scan"}, "lon": -76.992965, "bike_id": "566d92ae7de22b5739287c145314901d", "type": "electric_scooter", "name": "566d92ae7de22b5739287c145314901d"}, {"is_disabled": 0, "is_reserved": 0, "fusion_lat": 0.0, "lat": 38.90910066666667, "fusion_lon": 0.0, "rental_uris": {"ios": "https://dc.lft.to/lastmile_qr_scan", "android": "https://dc.lft.to/lastmile_qr_scan"}, "lon": -77.03512466666666, "bike_id": "a58202688bf7d9e39fc4d30a3c8624b7", "type": "electric_scooter", "name": "a58202688bf7d9e39fc4d30a3c8624b7"}, {"is_disabled": 0, "is_reserved": 0, "fusion_lat": 0.0, "lat": 38.93505283333333, "fusion_lon": 0.0, "rental_uris": {"ios": "https://dc.lft.to/lastmile_qr_scan", "android": "https://dc.lft.to/lastmile_qr_scan"}, "lon": -77.05695883333334, "bike_id": "ad6ff057a317809c4646435ab22048b3", "type": "electric_scooter", "name": "ad6ff057a317809c4646435ab22048b3"}, {"is_disabled": 0, "is_reserved": 0, "fusion_lat": 0.0, "lat": 38.90146416666666, "fusion_lon": 0.0, "rental_uris": {"ios": "https://dc.lft.to/lastmile_qr_scan", "android": "https://dc.lft.to/lastmile_qr_scan"}, "lon": -77.03813583333333, "bike_id": "0084be55402b43f71ee569eff6efaf4f", "type": "electric_scooter", "name": "0084be55402b43f71ee569eff6efaf4f"}, {"is_disabled": 0, "is_reserved": 0, "fusion_lat": 0.0, "lat": 38.911925, "fusion_lon": 0.0, "rental_uris": {"ios": "https://dc.lft.to/lastmile_qr_scan", "android": "https://dc.lft.to/lastmile_qr_scan"}, "lon": -77.011208, "bike_id": "4fd6b2e5c4c97690bbfcda97afaaff61", "type": "electric_bike", "name": "4fd6b2e5c4c97690bbfcda97afaaff61"}, {"is_disabled": 0, "is_reserved": 0, "fusion_lat": 0.0, "lat": 38.91658966666667, "fusion_lon": 0.0, "rental_uris": {"ios": "https://dc.lft.to/lastmile_qr_scan", "android": "https://dc.lft.to/lastmile_qr_scan"}, "lon": -77.02290166666667, "bike_id": "423040d0613d62469528c968521d06d8", "type": "electric_scooter", "name": "423040d0613d62469528c968521d06d8"}, {"is_disabled": 0, "is_reserved": 0, "fusion_lat": 0.0, "lat": 38.88621766666667, "fusion_lon": 0.0, "rental_uris": {"ios": "https://dc.lft.to/lastmile_qr_scan", "android": "https://dc.lft.to/lastmile_qr_scan"}, "lon": -76.9870825, "bike_id": "c4773795c2a261afb178dc18eeea9d20", "type": "electric_scooter", "name": "c4773795c2a261afb178dc18eeea9d20"}, {"is_disabled": 0, "is_reserved": 0, "fusion_lat": 0.0, "lat": 38.91728, "fusion_lon": 0.0, "rental_uris": {"ios": "https://dc.lft.to/lastmile_qr_scan", "android": "https://dc.lft.to/lastmile_qr_scan"}, "lon": -77.0250235, "bike_id": "7d599c242163c7cbc4722fc66c3d22c7", "type": "electric_scooter", "name": "7d599c242163c7cbc4722fc66c3d22c7"}, {"is_disabled": 0, "is_reserved": 0, "fusion_lat": 0.0, "lat": 38.907362, "fusion_lon": 0.0, "rental_uris": {"ios": "https://dc.lft.to/lastmile_qr_scan", "android": "https://dc.lft.to/lastmile_qr_scan"}, "lon": -77.03985683333333, "bike_id": "7f0043745c117ceee21daeafea3bb306", "type": "electric_scooter", "name": "7f0043745c117ceee21daeafea3bb306"}, {"is_disabled": 0, "is_reserved": 0, "fusion_lat": 0.0, "lat": 38.9024535, "fusion_lon": 0.0, "rental_uris": {"ios": "https://dc.lft.to/lastmile_qr_scan", "android": "https://dc.lft.to/lastmile_qr_scan"}, "lon": -77.04662133333333, "bike_id": "9252e59847de710a7cc19476e11dce77", "type": "electric_scooter", "name": "9252e59847de710a7cc19476e11dce77"}, {"is_disabled": 0, "is_reserved": 0, "fusion_lat": 0.0, "lat": 38.888398333333335, "fusion_lon": 0.0, "rental_uris": {"ios": "https://dc.lft.to/lastmile_qr_scan", "android": "https://dc.lft.to/lastmile_qr_scan"}, "lon": -77.0490575, "bike_id": "51ce9d49966a7475d7f55e297def7bf3", "type": "electric_scooter", "name": "51ce9d49966a7475d7f55e297def7bf3"}, {"is_disabled": 0, "is_reserved": 0, "fusion_lat": 0.0, "lat": 38.92567916666667, "fusion_lon": 0.0, "rental_uris": {"ios": "https://dc.lft.to/lastmile_qr_scan", "android": "https://dc.lft.to/lastmile_qr_scan"}, "lon": -77.0228575, "bike_id": "2038ba384be525895b4caee1bda4dcce", "type": "electric_scooter", "name": "2038ba384be525895b4caee1bda4dcce"}, {"is_disabled": 0, "is_reserved": 0, "fusion_lat": 0.0, "lat": 38.92541166666667, "fusion_lon": 0.0, "rental_uris": {"ios": "https://dc.lft.to/lastmile_qr_scan", "android": "https://dc.lft.to/lastmile_qr_scan"}, "lon": -77.0346625, "bike_id": "d0296c1c7773709818548bcc4fc46be8", "type": "electric_scooter", "name": "d0296c1c7773709818548bcc4fc46be8"}, {"is_disabled": 0, "is_reserved": 0, "fusion_lat": 0.0, "lat": 38.892306833333336, "fusion_lon": 0.0, "rental_uris": {"ios": "https://dc.lft.to/lastmile_qr_scan", "android": "https://dc.lft.to/lastmile_qr_scan"}, "lon": -77.0238555, "bike_id": "e2945a4288caba4b375e10dc85cce76b", "type": "electric_scooter", "name": "e2945a4288caba4b375e10dc85cce76b"}, {"is_disabled": 0, "is_reserved": 0, "fusion_lat": 0.0, "lat": 38.941967166666664, "fusion_lon": 0.0, "rental_uris": {"ios": "https://dc.lft.to/lastmile_qr_scan", "android": "https://dc.lft.to/lastmile_qr_scan"}, "lon": -77.08822216666667, "bike_id": "56021e84538680ce5c0ff5bcf2c44037", "type": "electric_scooter", "name": "56021e84538680ce5c0ff5bcf2c44037"}, {"is_disabled": 0, "is_reserved": 0, "fusion_lat": 0.0, "lat": 38.90720133333333, "fusion_lon": 0.0, "rental_uris": {"ios": "https://dc.lft.to/lastmile_qr_scan", "android": "https://dc.lft.to/lastmile_qr_scan"}, "lon": -77.03355183333333, "bike_id": "ebd35cfd3314172c5c21f7d665987945", "type": "electric_scooter", "name": "ebd35cfd3314172c5c21f7d665987945"}, {"is_disabled": 0, "is_reserved": 0, "fusion_lat": 0.0, "lat": 38.905615, "fusion_lon": 0.0, "rental_uris": {"ios": "https://dc.lft.to/lastmile_qr_scan", "android": "https://dc.lft.to/lastmile_qr_scan"}, "lon": -77.04859883333333, "bike_id": "04b2136bba9fd4f02226bec83d18f96f", "type": "electric_scooter", "name": "04b2136bba9fd4f02226bec83d18f96f"}, {"is_disabled": 0, "is_reserved": 0, "fusion_lat": 0.0, "lat": 38.94309033333333, "fusion_lon": 0.0, "rental_uris": {"ios": "https://dc.lft.to/lastmile_qr_scan", "android": "https://dc.lft.to/lastmile_qr_scan"}, "lon": -77.07723383333334, "bike_id": "ce303ece5b7bbf1302a92c2a691ddf06", "type": "electric_scooter", "name": "ce303ece5b7bbf1302a92c2a691ddf06"}, {"is_disabled": 0, "is_reserved": 0, "fusion_lat": 0.0, "lat": 38.926964166666664, "fusion_lon": 0.0, "rental_uris": {"ios": "https://dc.lft.to/lastmile_qr_scan", "android": "https://dc.lft.to/lastmile_qr_scan"}, "lon": -77.0229285, "bike_id": "2e7fe8e56a2cdd91c18f0a1d7d17f273", "type": "electric_scooter", "name": "2e7fe8e56a2cdd91c18f0a1d7d17f273"}, {"is_disabled": 0, "is_reserved": 0, "fusion_lat": 0.0, "lat": 38.914146833333334, "fusion_lon": 0.0, "rental_uris": {"ios": "https://dc.lft.to/lastmile_qr_scan", "android": "https://dc.lft.to/lastmile_qr_scan"}, "lon": -77.02212133333333, "bike_id": "20c17f541763cfe2017fc41505551cb2", "type": "electric_scooter", "name": "20c17f541763cfe2017fc41505551cb2"}, {"is_disabled": 0, "is_reserved": 0, "fusion_lat": 0.0, "lat": 38.90368433333333, "fusion_lon": 0.0, "rental_uris": {"ios": "https://dc.lft.to/lastmile_qr_scan", "android": "https://dc.lft.to/lastmile_qr_scan"}, "lon": -77.03158683333334, "bike_id": "de9b849e9891da5d51cb833af94151a6", "type": "electric_scooter", "name": "de9b849e9891da5d51cb833af94151a6"}, {"is_disabled": 0, "is_reserved": 0, "fusion_lat": 0.0, "lat": 38.922320666666664, "fusion_lon": 0.0, "rental_uris": {"ios": "https://dc.lft.to/lastmile_qr_scan", "android": "https://dc.lft.to/lastmile_qr_scan"}, "lon": -76.97533316666667, "bike_id": "814c7b824f7ed8fdc4927d2b711ae037", "type": "electric_scooter", "name": "814c7b824f7ed8fdc4927d2b711ae037"}, {"is_disabled": 0, "is_reserved": 0, "fusion_lat": 0.0, "lat": 38.920457166666665, "fusion_lon": 0.0, "rental_uris": {"ios": "https://dc.lft.to/lastmile_qr_scan", "android": "https://dc.lft.to/lastmile_qr_scan"}, "lon": -77.03391483333333, "bike_id": "eb965de9bff7cfe80000af45693a4b5f", "type": "electric_scooter", "name": "eb965de9bff7cfe80000af45693a4b5f"}, {"is_disabled": 0, "is_reserved": 0, "fusion_lat": 0.0, "lat": 38.92815216666666, "fusion_lon": 0.0, "rental_uris": {"ios": "https://dc.lft.to/lastmile_qr_scan", "android": "https://dc.lft.to/lastmile_qr_scan"}, "lon": -77.043613, "bike_id": "3c61eef378dd68927104b0a25a964994", "type": "electric_scooter", "name": "3c61eef378dd68927104b0a25a964994"}, {"is_disabled": 0, "is_reserved": 0, "fusion_lat": 0.0, "lat": 38.90356233333333, "fusion_lon": 0.0, "rental_uris": {"ios": "https://dc.lft.to/lastmile_qr_scan", "android": "https://dc.lft.to/lastmile_qr_scan"}, "lon": -77.03996666666667, "bike_id": "23221132028d40c0e3e2a57864b8e9ae", "type": "electric_scooter", "name": "23221132028d40c0e3e2a57864b8e9ae"}, {"is_disabled": 0, "is_reserved": 0, "fusion_lat": 0.0, "lat": 38.897475, "fusion_lon": 0.0, "rental_uris": {"ios": "https://dc.lft.to/lastmile_qr_scan", "android": "https://dc.lft.to/lastmile_qr_scan"}, "lon": -77.02034183333333, "bike_id": "b8b021457e0d7801bd838b6c14c2adb3", "type": "electric_scooter", "name": "b8b021457e0d7801bd838b6c14c2adb3"}, {"is_disabled": 0, "is_reserved": 0, "fusion_lat": 0.0, "lat": 38.9386095, "fusion_lon": 0.0, "rental_uris": {"ios": "https://dc.lft.to/lastmile_qr_scan", "android": "https://dc.lft.to/lastmile_qr_scan"}, "lon": -77.07821116666666, "bike_id": "594f50f03cdeddd0c18555999f22e25d", "type": "electric_scooter", "name": "594f50f03cdeddd0c18555999f22e25d"}, {"is_disabled": 0, "is_reserved": 0, "fusion_lat": 0.0, "lat": 38.90075066666667, "fusion_lon": 0.0, "rental_uris": {"ios": "https://dc.lft.to/lastmile_qr_scan", "android": "https://dc.lft.to/lastmile_qr_scan"}, "lon": -77.0434795, "bike_id": "656c393650e75f91850010f894e86492", "type": "electric_scooter", "name": "656c393650e75f91850010f894e86492"}, {"is_disabled": 0, "is_reserved": 0, "fusion_lat": 0.0, "lat": 38.91692233333333, "fusion_lon": 0.0, "rental_uris": {"ios": "https://dc.lft.to/lastmile_qr_scan", "android": "https://dc.lft.to/lastmile_qr_scan"}, "lon": -77.02598733333333, "bike_id": "1563273606bdd1820aede4a60cb04366", "type": "electric_scooter", "name": "1563273606bdd1820aede4a60cb04366"}, {"is_disabled": 0, "is_reserved": 0, "fusion_lat": 0.0, "lat": 38.967988, "fusion_lon": 0.0, "rental_uris": {"ios": "https://dc.lft.to/lastmile_qr_scan", "android": "https://dc.lft.to/lastmile_qr_scan"}, "lon": -77.0256285, "bike_id": "e4d428d035ba86d4f4ad41dc791aab09", "type": "electric_scooter", "name": "e4d428d035ba86d4f4ad41dc791aab09"}, {"is_disabled": 0, "is_reserved": 0, "fusion_lat": 0.0, "lat": 38.917576833333335, "fusion_lon": 0.0, "rental_uris": {"ios": "https://dc.lft.to/lastmile_qr_scan", "android": "https://dc.lft.to/lastmile_qr_scan"}, "lon": -77.04763966666667, "bike_id": "a025f5e2a5396e7c72c333b136899c68", "type": "electric_scooter", "name": "a025f5e2a5396e7c72c333b136899c68"}, {"is_disabled": 0, "is_reserved": 0, "fusion_lat": 0.0, "lat": 38.92213183333333, "fusion_lon": 0.0, "rental_uris": {"ios": "https://dc.lft.to/lastmile_qr_scan", "android": "https://dc.lft.to/lastmile_qr_scan"}, "lon": -77.074414, "bike_id": "c1adea996d24f747c4566538d7dbdb3f", "type": "electric_scooter", "name": "c1adea996d24f747c4566538d7dbdb3f"}, {"is_disabled": 0, "is_reserved": 0, "fusion_lat": 0.0, "lat": 38.91125183333333, "fusion_lon": 0.0, "rental_uris": {"ios": "https://dc.lft.to/lastmile_qr_scan", "android": "https://dc.lft.to/lastmile_qr_scan"}, "lon": -77.02201166666667, "bike_id": "016f70c26fcb8909529608eb345b3eda", "type": "electric_scooter", "name": "016f70c26fcb8909529608eb345b3eda"}, {"is_disabled": 0, "is_reserved": 0, "fusion_lat": 0.0, "lat": 38.8931425, "fusion_lon": 0.0, "rental_uris": {"ios": "https://dc.lft.to/lastmile_qr_scan", "android": "https://dc.lft.to/lastmile_qr_scan"}, "lon": -77.02599, "bike_id": "cd313049231066b1bb8e2fb7efd12d68", "type": "electric_scooter", "name": "cd313049231066b1bb8e2fb7efd12d68"}, {"is_disabled": 0, "is_reserved": 0, "fusion_lat": 0.0, "lat": 38.904852, "fusion_lon": 0.0, "rental_uris": {"ios": "https://dc.lft.to/lastmile_qr_scan", "android": "https://dc.lft.to/lastmile_qr_scan"}, "lon": -76.949586, "bike_id": "ddb022c776f9a69e1b2689d137ba3123", "type": "electric_scooter", "name": "ddb022c776f9a69e1b2689d137ba3123"}, {"is_disabled": 0, "is_reserved": 0, "fusion_lat": 0.0, "lat": 38.9019925, "fusion_lon": 0.0, "rental_uris": {"ios": "https://dc.lft.to/lastmile_qr_scan", "android": "https://dc.lft.to/lastmile_qr_scan"}, "lon": -76.99946166666666, "bike_id": "cd7469752074f8ea2f07f59419c0136b", "type": "electric_scooter", "name": "cd7469752074f8ea2f07f59419c0136b"}, {"is_disabled": 0, "is_reserved": 0, "fusion_lat": 0.0, "lat": 38.92146616666667, "fusion_lon": 0.0, "rental_uris": {"ios": "https://dc.lft.to/lastmile_qr_scan", "android": "https://dc.lft.to/lastmile_qr_scan"}, "lon": -77.043549, "bike_id": "0c09d2c3f5cbc42fa930069410b4770f", "type": "electric_scooter", "name": "0c09d2c3f5cbc42fa930069410b4770f"}, {"is_disabled": 0, "is_reserved": 0, "fusion_lat": 0.0, "lat": 38.91927116666667, "fusion_lon": 0.0, "rental_uris": {"ios": "https://dc.lft.to/lastmile_qr_scan", "android": "https://dc.lft.to/lastmile_qr_scan"}, "lon": -77.03099983333334, "bike_id": "55f6aaeb89d99c05d74d97e59da4020f", "type": "electric_scooter", "name": "55f6aaeb89d99c05d74d97e59da4020f"}, {"is_disabled": 0, "is_reserved": 0, "fusion_lat": 0.0, "lat": 38.90234933333333, "fusion_lon": 0.0, "rental_uris": {"ios": "https://dc.lft.to/lastmile_qr_scan", "android": "https://dc.lft.to/lastmile_qr_scan"}, "lon": -76.993667, "bike_id": "2a7947f17befbaa3a5ff2555e89f7f3f", "type": "electric_scooter", "name": "2a7947f17befbaa3a5ff2555e89f7f3f"}, {"is_disabled": 0, "is_reserved": 0, "fusion_lat": 0.0, "lat": 38.9081345, "fusion_lon": 0.0, "rental_uris": {"ios": "https://dc.lft.to/lastmile_qr_scan", "android": "https://dc.lft.to/lastmile_qr_scan"}, "lon": -77.04362533333334, "bike_id": "9c9ea012808bfda24d967cfb6fd2adda", "type": "electric_scooter", "name": "9c9ea012808bfda24d967cfb6fd2adda"}, {"is_disabled": 0, "is_reserved": 0, "fusion_lat": 0.0, "lat": 38.850624833333335, "fusion_lon": 0.0, "rental_uris": {"ios": "https://dc.lft.to/lastmile_qr_scan", "android": "https://dc.lft.to/lastmile_qr_scan"}, "lon": -76.958219, "bike_id": "44ce9d7b9761a1f2743ae5542a65fe1e", "type": "electric_bike", "name": "44ce9d7b9761a1f2743ae5542a65fe1e"}, {"is_disabled": 0, "is_reserved": 0, "fusion_lat": 0.0, "lat": 38.902483, "fusion_lon": 0.0, "rental_uris": {"ios": "https://dc.lft.to/lastmile_qr_scan", "android": "https://dc.lft.to/lastmile_qr_scan"}, "lon": -77.00003533333333, "bike_id": "f9efd0526f50859b5d26f8d9624b281d", "type": "electric_scooter", "name": "f9efd0526f50859b5d26f8d9624b281d"}, {"is_disabled": 0, "is_reserved": 0, "fusion_lat": 0.0, "lat": 38.92816716666667, "fusion_lon": 0.0, "rental_uris": {"ios": "https://dc.lft.to/lastmile_qr_scan", "android": "https://dc.lft.to/lastmile_qr_scan"}, "lon": -77.043528, "bike_id": "523fcc14ddc1ca2e6441d9b7f0fbe681", "type": "electric_scooter", "name": "523fcc14ddc1ca2e6441d9b7f0fbe681"}, {"is_disabled": 0, "is_reserved": 0, "fusion_lat": 0.0, "lat": 38.916894666666664, "fusion_lon": 0.0, "rental_uris": {"ios": "https://dc.lft.to/lastmile_qr_scan", "android": "https://dc.lft.to/lastmile_qr_scan"}, "lon": -77.02898383333333, "bike_id": "4d30085cf113488a8d12c76b118bd919", "type": "electric_scooter", "name": "4d30085cf113488a8d12c76b118bd919"}, {"is_disabled": 0, "is_reserved": 0, "fusion_lat": 0.0, "lat": 38.8857705, "fusion_lon": 0.0, "rental_uris": {"ios": "https://dc.lft.to/lastmile_qr_scan", "android": "https://dc.lft.to/lastmile_qr_scan"}, "lon": -77.01214416666667, "bike_id": "bf7709fa550d7f6d834bcc058eb75891", "type": "electric_scooter", "name": "bf7709fa550d7f6d834bcc058eb75891"}, {"is_disabled": 0, "is_reserved": 0, "fusion_lat": 0.0, "lat": 38.909489666666666, "fusion_lon": 0.0, "rental_uris": {"ios": "https://dc.lft.to/lastmile_qr_scan", "android": "https://dc.lft.to/lastmile_qr_scan"}, "lon": -76.99584216666666, "bike_id": "dc7acebf5fe35586dca9cc75074d6a3c", "type": "electric_scooter", "name": "dc7acebf5fe35586dca9cc75074d6a3c"}, {"is_disabled": 0, "is_reserved": 0, "fusion_lat": 0.0, "lat": 38.916932833333334, "fusion_lon": 0.0, "rental_uris": {"ios": "https://dc.lft.to/lastmile_qr_scan", "android": "https://dc.lft.to/lastmile_qr_scan"}, "lon": -77.025987, "bike_id": "6d64f9fe67a048bb2bed4419cb669b2f", "type": "electric_scooter", "name": "6d64f9fe67a048bb2bed4419cb669b2f"}, {"is_disabled": 0, "is_reserved": 0, "fusion_lat": 0.0, "lat": 38.93245266666667, "fusion_lon": 0.0, "rental_uris": {"ios": "https://dc.lft.to/lastmile_qr_scan", "android": "https://dc.lft.to/lastmile_qr_scan"}, "lon": -76.996992, "bike_id": "16461bf15bcab7b7fecf39c68bce6201", "type": "electric_scooter", "name": "16461bf15bcab7b7fecf39c68bce6201"}, {"is_disabled": 0, "is_reserved": 0, "fusion_lat": 0.0, "lat": 38.86081933333333, "fusion_lon": 0.0, "rental_uris": {"ios": "https://dc.lft.to/lastmile_qr_scan", "android": "https://dc.lft.to/lastmile_qr_scan"}, "lon": -76.98375466666667, "bike_id": "44fb848c8736e0029ff10421c65403a8", "type": "electric_scooter", "name": "44fb848c8736e0029ff10421c65403a8"}, {"is_disabled": 0, "is_reserved": 0, "fusion_lat": 0.0, "lat": 38.905179333333336, "fusion_lon": 0.0, "rental_uris": {"ios": "https://dc.lft.to/lastmile_qr_scan", "android": "https://dc.lft.to/lastmile_qr_scan"}, "lon": -77.066251, "bike_id": "3d4480f252f6afc4eda0d5b42f7c40fb", "type": "electric_bike", "name": "3d4480f252f6afc4eda0d5b42f7c40fb"}, {"is_disabled": 0, "is_reserved": 0, "fusion_lat": 0.0, "lat": 38.913739, "fusion_lon": 0.0, "rental_uris": {"ios": "https://dc.lft.to/lastmile_qr_scan", "android": "https://dc.lft.to/lastmile_qr_scan"}, "lon": -77.019975, "bike_id": "e9cf53b316446b89b18bf1acd55d6e79", "type": "electric_scooter", "name": "e9cf53b316446b89b18bf1acd55d6e79"}, {"is_disabled": 0, "is_reserved": 0, "fusion_lat": 0.0, "lat": 38.9088585, "fusion_lon": 0.0, "rental_uris": {"ios": "https://dc.lft.to/lastmile_qr_scan", "android": "https://dc.lft.to/lastmile_qr_scan"}, "lon": -77.00062783333334, "bike_id": "a362e6847d57779b530b09b45933d65b", "type": "electric_scooter", "name": "a362e6847d57779b530b09b45933d65b"}, {"is_disabled": 0, "is_reserved": 0, "fusion_lat": 0.0, "lat": 38.898228333333336, "fusion_lon": 0.0, "rental_uris": {"ios": "https://dc.lft.to/lastmile_qr_scan", "android": "https://dc.lft.to/lastmile_qr_scan"}, "lon": -76.930034, "bike_id": "76f2d8d1b0a7717227fc7695d552f736", "type": "electric_scooter", "name": "76f2d8d1b0a7717227fc7695d552f736"}, {"is_disabled": 0, "is_reserved": 0, "fusion_lat": 0.0, "lat": 38.920004166666665, "fusion_lon": 0.0, "rental_uris": {"ios": "https://dc.lft.to/lastmile_qr_scan", "android": "https://dc.lft.to/lastmile_qr_scan"}, "lon": -77.04175983333333, "bike_id": "1802931155cad1657fe9d8b62adf753c", "type": "electric_scooter", "name": "1802931155cad1657fe9d8b62adf753c"}, {"is_disabled": 0, "is_reserved": 0, "fusion_lat": 0.0, "lat": 38.89791, "fusion_lon": 0.0, "rental_uris": {"ios": "https://dc.lft.to/lastmile_qr_scan", "android": "https://dc.lft.to/lastmile_qr_scan"}, "lon": -77.04770133333334, "bike_id": "a6b1853b329bab8152ff35a65c134061", "type": "electric_scooter", "name": "a6b1853b329bab8152ff35a65c134061"}, {"is_disabled": 0, "is_reserved": 0, "fusion_lat": 0.0, "lat": 38.80977883333333, "fusion_lon": 0.0, "rental_uris": {"ios": "https://dc.lft.to/lastmile_qr_scan", "android": "https://dc.lft.to/lastmile_qr_scan"}, "lon": -77.0766035, "bike_id": "0f9bf30b0adcc3883c6d5f15bcaba672", "type": "electric_bike", "name": "0f9bf30b0adcc3883c6d5f15bcaba672"}, {"is_disabled": 0, "is_reserved": 0, "fusion_lat": 0.0, "lat": 38.92665816666667, "fusion_lon": 0.0, "rental_uris": {"ios": "https://dc.lft.to/lastmile_qr_scan", "android": "https://dc.lft.to/lastmile_qr_scan"}, "lon": -76.995534, "bike_id": "8994e2e55ef27a0be1d5fa18bbfe24da", "type": "electric_scooter", "name": "8994e2e55ef27a0be1d5fa18bbfe24da"}, {"is_disabled": 0, "is_reserved": 0, "fusion_lat": 0.0, "lat": 38.9018515, "fusion_lon": 0.0, "rental_uris": {"ios": "https://dc.lft.to/lastmile_qr_scan", "android": "https://dc.lft.to/lastmile_qr_scan"}, "lon": -76.99963483333333, "bike_id": "8e4bf977c350d924f1ff32f88a2a0921", "type": "electric_scooter", "name": "8e4bf977c350d924f1ff32f88a2a0921"}, {"is_disabled": 0, "is_reserved": 0, "fusion_lat": 0.0, "lat": 38.94217166666667, "fusion_lon": 0.0, "rental_uris": {"ios": "https://dc.lft.to/lastmile_qr_scan", "android": "https://dc.lft.to/lastmile_qr_scan"}, "lon": -76.9613455, "bike_id": "ed6c98422c60c5da63d40db5837d8a73", "type": "electric_bike", "name": "ed6c98422c60c5da63d40db5837d8a73"}, {"is_disabled": 0, "is_reserved": 0, "fusion_lat": 0.0, "lat": 38.92760833333333, "fusion_lon": 0.0, "rental_uris": {"ios": "https://dc.lft.to/lastmile_qr_scan", "android": "https://dc.lft.to/lastmile_qr_scan"}, "lon": -77.070494, "bike_id": "629e0a63efd5c4db058b6cd88643569a", "type": "electric_scooter", "name": "629e0a63efd5c4db058b6cd88643569a"}, {"is_disabled": 0, "is_reserved": 0, "fusion_lat": 0.0, "lat": 38.9366735, "fusion_lon": 0.0, "rental_uris": {"ios": "https://dc.lft.to/lastmile_qr_scan", "android": "https://dc.lft.to/lastmile_qr_scan"}, "lon": -77.036328, "bike_id": "e440288ac0579b80b835b7de87e513c1", "type": "electric_scooter", "name": "e440288ac0579b80b835b7de87e513c1"}, {"is_disabled": 0, "is_reserved": 0, "fusion_lat": 0.0, "lat": 38.924064, "fusion_lon": 0.0, "rental_uris": {"ios": "https://dc.lft.to/lastmile_qr_scan", "android": "https://dc.lft.to/lastmile_qr_scan"}, "lon": -77.02033833333333, "bike_id": "72983847f40253904821ce72380b26f6", "type": "electric_scooter", "name": "72983847f40253904821ce72380b26f6"}, {"is_disabled": 0, "is_reserved": 0, "fusion_lat": 0.0, "lat": 38.8961825, "fusion_lon": 0.0, "rental_uris": {"ios": "https://dc.lft.to/lastmile_qr_scan", "android": "https://dc.lft.to/lastmile_qr_scan"}, "lon": -77.02850483333333, "bike_id": "521c16752f7d0dd9060bd3ad6b41631f", "type": "electric_scooter", "name": "521c16752f7d0dd9060bd3ad6b41631f"}, {"is_disabled": 0, "is_reserved": 0, "fusion_lat": 0.0, "lat": 38.916512166666664, "fusion_lon": 0.0, "rental_uris": {"ios": "https://dc.lft.to/lastmile_qr_scan", "android": "https://dc.lft.to/lastmile_qr_scan"}, "lon": -77.010289, "bike_id": "bdef27efdc36ab40cdeca91927669cd3", "type": "electric_scooter", "name": "bdef27efdc36ab40cdeca91927669cd3"}, {"is_disabled": 0, "is_reserved": 0, "fusion_lat": 0.0, "lat": 38.90673783333333, "fusion_lon": 0.0, "rental_uris": {"ios": "https://dc.lft.to/lastmile_qr_scan", "android": "https://dc.lft.to/lastmile_qr_scan"}, "lon": -77.07146216666666, "bike_id": "831dc8f5f61f1668b8d0f3af5de87c0e", "type": "electric_scooter", "name": "831dc8f5f61f1668b8d0f3af5de87c0e"}, {"is_disabled": 0, "is_reserved": 0, "fusion_lat": 0.0, "lat": 38.91061333333333, "fusion_lon": 0.0, "rental_uris": {"ios": "https://dc.lft.to/lastmile_qr_scan", "android": "https://dc.lft.to/lastmile_qr_scan"}, "lon": -77.04401783333333, "bike_id": "d75643ec6351491a662be14fd4e78f1e", "type": "electric_scooter", "name": "d75643ec6351491a662be14fd4e78f1e"}, {"is_disabled": 0, "is_reserved": 0, "fusion_lat": 0.0, "lat": 38.936099666666664, "fusion_lon": 0.0, "rental_uris": {"ios": "https://dc.lft.to/lastmile_qr_scan", "android": "https://dc.lft.to/lastmile_qr_scan"}, "lon": -77.038676, "bike_id": "4adaa936ef5aa01b99d42b3521dca658", "type": "electric_scooter", "name": "4adaa936ef5aa01b99d42b3521dca658"}, {"is_disabled": 0, "is_reserved": 0, "fusion_lat": 0.0, "lat": 38.929875833333334, "fusion_lon": 0.0, "rental_uris": {"ios": "https://dc.lft.to/lastmile_qr_scan", "android": "https://dc.lft.to/lastmile_qr_scan"}, "lon": -77.03475966666667, "bike_id": "430ec0079956398e3b1c71d592995401", "type": "electric_scooter", "name": "430ec0079956398e3b1c71d592995401"}, {"is_disabled": 0, "is_reserved": 0, "fusion_lat": 0.0, "lat": 38.89557, "fusion_lon": 0.0, "rental_uris": {"ios": "https://dc.lft.to/lastmile_qr_scan", "android": "https://dc.lft.to/lastmile_qr_scan"}, "lon": -77.026691, "bike_id": "d956780fa46db4969f1fad873aaa58ed", "type": "electric_scooter", "name": "d956780fa46db4969f1fad873aaa58ed"}, {"is_disabled": 0, "is_reserved": 0, "fusion_lat": 0.0, "lat": 38.8961375, "fusion_lon": 0.0, "rental_uris": {"ios": "https://dc.lft.to/lastmile_qr_scan", "android": "https://dc.lft.to/lastmile_qr_scan"}, "lon": -77.04120066666667, "bike_id": "c7d938c085aa1c938ce58a0184e0d2a6", "type": "electric_scooter", "name": "c7d938c085aa1c938ce58a0184e0d2a6"}, {"is_disabled": 0, "is_reserved": 0, "fusion_lat": 0.0, "lat": 38.887619666666666, "fusion_lon": 0.0, "rental_uris": {"ios": "https://dc.lft.to/lastmile_qr_scan", "android": "https://dc.lft.to/lastmile_qr_scan"}, "lon": -77.15655183333334, "bike_id": "614d0300848a06a54eaad53a530a5aa4", "type": "electric_bike", "name": "614d0300848a06a54eaad53a530a5aa4"}, {"is_disabled": 0, "is_reserved": 0, "fusion_lat": 0.0, "lat": 38.84688283333333, "fusion_lon": 0.0, "rental_uris": {"ios": "https://dc.lft.to/lastmile_qr_scan", "android": "https://dc.lft.to/lastmile_qr_scan"}, "lon": -76.980639, "bike_id": "1ef9d86b02bec7409f59e66e429e16d0", "type": "electric_bike", "name": "1ef9d86b02bec7409f59e66e429e16d0"}, {"is_disabled": 0, "is_reserved": 0, "fusion_lat": 0.0, "lat": 38.89504383333333, "fusion_lon": 0.0, "rental_uris": {"ios": "https://dc.lft.to/lastmile_qr_scan", "android": "https://dc.lft.to/lastmile_qr_scan"}, "lon": -77.02584816666666, "bike_id": "cfc4d275616591915aa0ba42d08e67f1", "type": "electric_scooter", "name": "cfc4d275616591915aa0ba42d08e67f1"}, {"is_disabled": 0, "is_reserved": 0, "fusion_lat": 0.0, "lat": 38.874735333333334, "fusion_lon": 0.0, "rental_uris": {"ios": "https://dc.lft.to/lastmile_qr_scan", "android": "https://dc.lft.to/lastmile_qr_scan"}, "lon": -77.00520733333333, "bike_id": "74b761506c34a2074b59f682b480c8c7", "type": "electric_scooter", "name": "74b761506c34a2074b59f682b480c8c7"}, {"is_disabled": 0, "is_reserved": 0, "fusion_lat": 0.0, "lat": 38.8769525, "fusion_lon": 0.0, "rental_uris": {"ios": "https://dc.lft.to/lastmile_qr_scan", "android": "https://dc.lft.to/lastmile_qr_scan"}, "lon": -76.99627466666666, "bike_id": "32b97d7cc7b7b8fa3bef84ec937a8fe5", "type": "electric_scooter", "name": "32b97d7cc7b7b8fa3bef84ec937a8fe5"}, {"is_disabled": 0, "is_reserved": 0, "fusion_lat": 0.0, "lat": 38.91754866666667, "fusion_lon": 0.0, "rental_uris": {"ios": "https://dc.lft.to/lastmile_qr_scan", "android": "https://dc.lft.to/lastmile_qr_scan"}, "lon": -77.0280245, "bike_id": "8eb4a1e158aa90fe3f806c95b572a8cf", "type": "electric_scooter", "name": "8eb4a1e158aa90fe3f806c95b572a8cf"}, {"is_disabled": 0, "is_reserved": 0, "fusion_lat": 0.0, "lat": 38.887126333333335, "fusion_lon": 0.0, "rental_uris": {"ios": "https://dc.lft.to/lastmile_qr_scan", "android": "https://dc.lft.to/lastmile_qr_scan"}, "lon": -76.9838335, "bike_id": "81ac575265e2d200b57ef91cef17c0ec", "type": "electric_scooter", "name": "81ac575265e2d200b57ef91cef17c0ec"}, {"is_disabled": 0, "is_reserved": 0, "fusion_lat": 0.0, "lat": 38.90180466666666, "fusion_lon": 0.0, "rental_uris": {"ios": "https://dc.lft.to/lastmile_qr_scan", "android": "https://dc.lft.to/lastmile_qr_scan"}, "lon": -76.97670516666666, "bike_id": "f636bac5ac0e6ccdacd8e6724abf922e", "type": "electric_scooter", "name": "f636bac5ac0e6ccdacd8e6724abf922e"}, {"is_disabled": 0, "is_reserved": 0, "fusion_lat": 0.0, "lat": 38.88504483333333, "fusion_lon": 0.0, "rental_uris": {"ios": "https://dc.lft.to/lastmile_qr_scan", "android": "https://dc.lft.to/lastmile_qr_scan"}, "lon": -76.99752633333334, "bike_id": "3c2e0196c4b74dcca9342f75f296846f", "type": "electric_scooter", "name": "3c2e0196c4b74dcca9342f75f296846f"}, {"is_disabled": 0, "is_reserved": 0, "fusion_lat": 0.0, "lat": 38.9248785, "fusion_lon": 0.0, "rental_uris": {"ios": "https://dc.lft.to/lastmile_qr_scan", "android": "https://dc.lft.to/lastmile_qr_scan"}, "lon": -77.03182716666667, "bike_id": "c0d3e2d80ced231fccf11ce45b5b3d33", "type": "electric_scooter", "name": "c0d3e2d80ced231fccf11ce45b5b3d33"}, {"is_disabled": 0, "is_reserved": 0, "fusion_lat": 0.0, "lat": 38.85799816666667, "fusion_lon": 0.0, "rental_uris": {"ios": "https://dc.lft.to/lastmile_qr_scan", "android": "https://dc.lft.to/lastmile_qr_scan"}, "lon": -76.98750133333333, "bike_id": "a44f67878f85f138638ea0c81c7d6be7", "type": "electric_bike", "name": "a44f67878f85f138638ea0c81c7d6be7"}, {"is_disabled": 0, "is_reserved": 0, "fusion_lat": 0.0, "lat": 38.920894833333335, "fusion_lon": 0.0, "rental_uris": {"ios": "https://dc.lft.to/lastmile_qr_scan", "android": "https://dc.lft.to/lastmile_qr_scan"}, "lon": -77.02379133333334, "bike_id": "70e6fe85d1985a828b3b7051238e53b8", "type": "electric_scooter", "name": "70e6fe85d1985a828b3b7051238e53b8"}, {"is_disabled": 0, "is_reserved": 0, "fusion_lat": 0.0, "lat": 38.922014833333336, "fusion_lon": 0.0, "rental_uris": {"ios": "https://dc.lft.to/lastmile_qr_scan", "android": "https://dc.lft.to/lastmile_qr_scan"}, "lon": -76.99699583333333, "bike_id": "2b314baf9c482d6c956f40fd471669ee", "type": "electric_scooter", "name": "2b314baf9c482d6c956f40fd471669ee"}, {"is_disabled": 0, "is_reserved": 0, "fusion_lat": 0.0, "lat": 38.903933333333335, "fusion_lon": 0.0, "rental_uris": {"ios": "https://dc.lft.to/lastmile_qr_scan", "android": "https://dc.lft.to/lastmile_qr_scan"}, "lon": -77.0630415, "bike_id": "d6d652336a50d6dfa3f5f305d9e75f78", "type": "electric_bike", "name": "d6d652336a50d6dfa3f5f305d9e75f78"}, {"is_disabled": 0, "is_reserved": 0, "fusion_lat": 0.0, "lat": 38.90138566666667, "fusion_lon": 0.0, "rental_uris": {"ios": "https://dc.lft.to/lastmile_qr_scan", "android": "https://dc.lft.to/lastmile_qr_scan"}, "lon": -76.99273816666667, "bike_id": "c6f4ef247e0698549bd982a5bbafe16e", "type": "electric_scooter", "name": "c6f4ef247e0698549bd982a5bbafe16e"}, {"is_disabled": 0, "is_reserved": 0, "fusion_lat": 0.0, "lat": 38.978490666666666, "fusion_lon": 0.0, "rental_uris": {"ios": "https://dc.lft.to/lastmile_qr_scan", "android": "https://dc.lft.to/lastmile_qr_scan"}, "lon": -77.09096133333334, "bike_id": "a6b71519de1db70a1f4bb0389a5fb098", "type": "electric_bike", "name": "a6b71519de1db70a1f4bb0389a5fb098"}, {"is_disabled": 0, "is_reserved": 0, "fusion_lat": 0.0, "lat": 39.026224, "fusion_lon": 0.0, "rental_uris": {"ios": "https://dc.lft.to/lastmile_qr_scan", "android": "https://dc.lft.to/lastmile_qr_scan"}, "lon": -77.03879383333333, "bike_id": "427841e7594b38df5f7d1444c7c31af8", "type": "electric_bike", "name": "427841e7594b38df5f7d1444c7c31af8"}, {"is_disabled": 0, "is_reserved": 0, "fusion_lat": 0.0, "lat": 38.90051583333333, "fusion_lon": 0.0, "rental_uris": {"ios": "https://dc.lft.to/lastmile_qr_scan", "android": "https://dc.lft.to/lastmile_qr_scan"}, "lon": -77.03468833333334, "bike_id": "a6da5b9813492d290664f013487a232d", "type": "electric_scooter", "name": "a6da5b9813492d290664f013487a232d"}, {"is_disabled": 0, "is_reserved": 0, "fusion_lat": 0.0, "lat": 38.9387925, "fusion_lon": 0.0, "rental_uris": {"ios": "https://dc.lft.to/lastmile_qr_scan", "android": "https://dc.lft.to/lastmile_qr_scan"}, "lon": -77.02832366666667, "bike_id": "18827f4d50edbcb66c2bb42ce04b32cd", "type": "electric_scooter", "name": "18827f4d50edbcb66c2bb42ce04b32cd"}, {"is_disabled": 0, "is_reserved": 0, "fusion_lat": 0.0, "lat": 38.91702816666667, "fusion_lon": 0.0, "rental_uris": {"ios": "https://dc.lft.to/lastmile_qr_scan", "android": "https://dc.lft.to/lastmile_qr_scan"}, "lon": -77.00196233333334, "bike_id": "fb3ed8f922e06d9693755443b9a38efe", "type": "electric_bike", "name": "fb3ed8f922e06d9693755443b9a38efe"}, {"is_disabled": 0, "is_reserved": 0, "fusion_lat": 0.0, "lat": 38.89220666666667, "fusion_lon": 0.0, "rental_uris": {"ios": "https://dc.lft.to/lastmile_qr_scan", "android": "https://dc.lft.to/lastmile_qr_scan"}, "lon": -77.04327816666667, "bike_id": "e010205ba8355f0b855c7f4b0009b4ed", "type": "electric_scooter", "name": "e010205ba8355f0b855c7f4b0009b4ed"}, {"is_disabled": 0, "is_reserved": 0, "fusion_lat": 0.0, "lat": 38.939863333333335, "fusion_lon": 0.0, "rental_uris": {"ios": "https://dc.lft.to/lastmile_qr_scan", "android": "https://dc.lft.to/lastmile_qr_scan"}, "lon": -77.02541533333333, "bike_id": "433bd547caf05cd7c6d80381b6e8195a", "type": "electric_scooter", "name": "433bd547caf05cd7c6d80381b6e8195a"}, {"is_disabled": 0, "is_reserved": 0, "fusion_lat": 0.0, "lat": 38.91319983333333, "fusion_lon": 0.0, "rental_uris": {"ios": "https://dc.lft.to/lastmile_qr_scan", "android": "https://dc.lft.to/lastmile_qr_scan"}, "lon": -77.031767, "bike_id": "9270aa3cf00b053100777f9cbaa03aa2", "type": "electric_scooter", "name": "9270aa3cf00b053100777f9cbaa03aa2"}, {"is_disabled": 0, "is_reserved": 0, "fusion_lat": 0.0, "lat": 38.894040833333335, "fusion_lon": 0.0, "rental_uris": {"ios": "https://dc.lft.to/lastmile_qr_scan", "android": "https://dc.lft.to/lastmile_qr_scan"}, "lon": -76.97817766666667, "bike_id": "f75b3e0681d3795e27aa67b34df4bb2d", "type": "electric_scooter", "name": "f75b3e0681d3795e27aa67b34df4bb2d"}, {"is_disabled": 0, "is_reserved": 0, "fusion_lat": 0.0, "lat": 38.91989133333333, "fusion_lon": 0.0, "rental_uris": {"ios": "https://dc.lft.to/lastmile_qr_scan", "android": "https://dc.lft.to/lastmile_qr_scan"}, "lon": -76.97305566666667, "bike_id": "98e5d4768dd9013e359baad434ac25d3", "type": "electric_scooter", "name": "98e5d4768dd9013e359baad434ac25d3"}, {"is_disabled": 0, "is_reserved": 0, "fusion_lat": 0.0, "lat": 38.945882166666664, "fusion_lon": 0.0, "rental_uris": {"ios": "https://dc.lft.to/lastmile_qr_scan", "android": "https://dc.lft.to/lastmile_qr_scan"}, "lon": -77.020348, "bike_id": "9ea069b36864662b5079464d0dc17ee2", "type": "electric_scooter", "name": "9ea069b36864662b5079464d0dc17ee2"}, {"is_disabled": 0, "is_reserved": 0, "fusion_lat": 0.0, "lat": 38.91660533333334, "fusion_lon": 0.0, "rental_uris": {"ios": "https://dc.lft.to/lastmile_qr_scan", "android": "https://dc.lft.to/lastmile_qr_scan"}, "lon": -77.03171266666666, "bike_id": "60f330edfa2c49882992ca4632a52ae5", "type": "electric_scooter", "name": "60f330edfa2c49882992ca4632a52ae5"}, {"is_disabled": 0, "is_reserved": 0, "fusion_lat": 0.0, "lat": 38.898304833333334, "fusion_lon": 0.0, "rental_uris": {"ios": "https://dc.lft.to/lastmile_qr_scan", "android": "https://dc.lft.to/lastmile_qr_scan"}, "lon": -77.0279985, "bike_id": "5b84bb730a552349f20ff3062bb45ad0", "type": "electric_scooter", "name": "5b84bb730a552349f20ff3062bb45ad0"}, {"is_disabled": 0, "is_reserved": 0, "fusion_lat": 0.0, "lat": 38.92417183333333, "fusion_lon": 0.0, "rental_uris": {"ios": "https://dc.lft.to/lastmile_qr_scan", "android": "https://dc.lft.to/lastmile_qr_scan"}, "lon": -77.03541316666667, "bike_id": "f77f35da4f6e37c99d1dafad965e5810", "type": "electric_scooter", "name": "f77f35da4f6e37c99d1dafad965e5810"}, {"is_disabled": 0, "is_reserved": 0, "fusion_lat": 0.0, "lat": 38.90651966666667, "fusion_lon": 0.0, "rental_uris": {"ios": "https://dc.lft.to/lastmile_qr_scan", "android": "https://dc.lft.to/lastmile_qr_scan"}, "lon": -77.04559566666667, "bike_id": "ecb95c8342b79a16bbc92fd0a9b3992e", "type": "electric_scooter", "name": "ecb95c8342b79a16bbc92fd0a9b3992e"}, {"is_disabled": 0, "is_reserved": 0, "fusion_lat": 0.0, "lat": 38.90043883333333, "fusion_lon": 0.0, "rental_uris": {"ios": "https://dc.lft.to/lastmile_qr_scan", "android": "https://dc.lft.to/lastmile_qr_scan"}, "lon": -76.99498116666666, "bike_id": "6f9c597be88ae78376c18cf11b165ebd", "type": "electric_scooter", "name": "6f9c597be88ae78376c18cf11b165ebd"}, {"is_disabled": 0, "is_reserved": 0, "fusion_lat": 0.0, "lat": 38.90565766666667, "fusion_lon": 0.0, "rental_uris": {"ios": "https://dc.lft.to/lastmile_qr_scan", "android": "https://dc.lft.to/lastmile_qr_scan"}, "lon": -77.01717766666667, "bike_id": "1d1bfc30859aae9e6f91699773972b54", "type": "electric_scooter", "name": "1d1bfc30859aae9e6f91699773972b54"}, {"is_disabled": 0, "is_reserved": 0, "fusion_lat": 0.0, "lat": 38.9251885, "fusion_lon": 0.0, "rental_uris": {"ios": "https://dc.lft.to/lastmile_qr_scan", "android": "https://dc.lft.to/lastmile_qr_scan"}, "lon": -77.04452583333334, "bike_id": "9fa2bd1bd1b5c5898a7273ca6a679eaa", "type": "electric_scooter", "name": "9fa2bd1bd1b5c5898a7273ca6a679eaa"}, {"is_disabled": 0, "is_reserved": 0, "fusion_lat": 0.0, "lat": 38.912608166666665, "fusion_lon": 0.0, "rental_uris": {"ios": "https://dc.lft.to/lastmile_qr_scan", "android": "https://dc.lft.to/lastmile_qr_scan"}, "lon": -77.04594166666666, "bike_id": "cad431c2bc898321465b696bc70a6229", "type": "electric_scooter", "name": "cad431c2bc898321465b696bc70a6229"}, {"is_disabled": 0, "is_reserved": 0, "fusion_lat": 0.0, "lat": 38.908120333333336, "fusion_lon": 0.0, "rental_uris": {"ios": "https://dc.lft.to/lastmile_qr_scan", "android": "https://dc.lft.to/lastmile_qr_scan"}, "lon": -77.03862016666666, "bike_id": "96246723b92e4521f5035f3cc2fb5649", "type": "electric_bike", "name": "96246723b92e4521f5035f3cc2fb5649"}, {"is_disabled": 0, "is_reserved": 0, "fusion_lat": 0.0, "lat": 38.842771666666664, "fusion_lon": 0.0, "rental_uris": {"ios": "https://dc.lft.to/lastmile_qr_scan", "android": "https://dc.lft.to/lastmile_qr_scan"}, "lon": -76.988408, "bike_id": "d0fd2aed630c973d93c4b52897e2751b", "type": "electric_bike", "name": "d0fd2aed630c973d93c4b52897e2751b"}, {"is_disabled": 0, "is_reserved": 0, "fusion_lat": 0.0, "lat": 38.91258416666667, "fusion_lon": 0.0, "rental_uris": {"ios": "https://dc.lft.to/lastmile_qr_scan", "android": "https://dc.lft.to/lastmile_qr_scan"}, "lon": -77.03863133333333, "bike_id": "73486fd36f0e2b85e4a32f09805721b9", "type": "electric_scooter", "name": "73486fd36f0e2b85e4a32f09805721b9"}, {"is_disabled": 0, "is_reserved": 0, "fusion_lat": 0.0, "lat": 38.8874865, "fusion_lon": 0.0, "rental_uris": {"ios": "https://dc.lft.to/lastmile_qr_scan", "android": "https://dc.lft.to/lastmile_qr_scan"}, "lon": -77.014116, "bike_id": "5b0732951c17093166f19fe296afdba0", "type": "electric_scooter", "name": "5b0732951c17093166f19fe296afdba0"}, {"is_disabled": 0, "is_reserved": 0, "fusion_lat": 0.0, "lat": 38.9247155, "fusion_lon": 0.0, "rental_uris": {"ios": "https://dc.lft.to/lastmile_qr_scan", "android": "https://dc.lft.to/lastmile_qr_scan"}, "lon": -77.03785883333333, "bike_id": "220b5f677e0b59c2fc63c5f3709ec729", "type": "electric_scooter", "name": "220b5f677e0b59c2fc63c5f3709ec729"}, {"is_disabled": 0, "is_reserved": 0, "fusion_lat": 0.0, "lat": 38.895610833333336, "fusion_lon": 0.0, "rental_uris": {"ios": "https://dc.lft.to/lastmile_qr_scan", "android": "https://dc.lft.to/lastmile_qr_scan"}, "lon": -77.021786, "bike_id": "a0f88453f77f510d0d772878379b4d30", "type": "electric_scooter", "name": "a0f88453f77f510d0d772878379b4d30"}, {"is_disabled": 0, "is_reserved": 0, "fusion_lat": 0.0, "lat": 38.897483666666666, "fusion_lon": 0.0, "rental_uris": {"ios": "https://dc.lft.to/lastmile_qr_scan", "android": "https://dc.lft.to/lastmile_qr_scan"}, "lon": -77.03344966666667, "bike_id": "65042ede4b645c2769146577b9a7fa2f", "type": "electric_scooter", "name": "65042ede4b645c2769146577b9a7fa2f"}, {"is_disabled": 0, "is_reserved": 0, "fusion_lat": 0.0, "lat": 38.905925833333335, "fusion_lon": 0.0, "rental_uris": {"ios": "https://dc.lft.to/lastmile_qr_scan", "android": "https://dc.lft.to/lastmile_qr_scan"}, "lon": -77.0628445, "bike_id": "6cb9c8f348d3f4060e38a5c903d21971", "type": "electric_scooter", "name": "6cb9c8f348d3f4060e38a5c903d21971"}, {"is_disabled": 0, "is_reserved": 0, "fusion_lat": 0.0, "lat": 38.84859866666667, "fusion_lon": 0.0, "rental_uris": {"ios": "https://dc.lft.to/lastmile_qr_scan", "android": "https://dc.lft.to/lastmile_qr_scan"}, "lon": -77.06828083333333, "bike_id": "7b41b97b79c3a9e767baa1cd8535a872", "type": "electric_bike", "name": "7b41b97b79c3a9e767baa1cd8535a872"}, {"is_disabled": 0, "is_reserved": 0, "fusion_lat": 0.0, "lat": 38.8717985, "fusion_lon": 0.0, "rental_uris": {"ios": "https://dc.lft.to/lastmile_qr_scan", "android": "https://dc.lft.to/lastmile_qr_scan"}, "lon": -77.0061335, "bike_id": "7f3b2b781817c7919f1cc005aec9d203", "type": "electric_scooter", "name": "7f3b2b781817c7919f1cc005aec9d203"}, {"is_disabled": 0, "is_reserved": 0, "fusion_lat": 0.0, "lat": 38.897431833333336, "fusion_lon": 0.0, "rental_uris": {"ios": "https://dc.lft.to/lastmile_qr_scan", "android": "https://dc.lft.to/lastmile_qr_scan"}, "lon": -77.00869266666666, "bike_id": "0867d28f8628cfbead878b8d04ec9012", "type": "electric_scooter", "name": "0867d28f8628cfbead878b8d04ec9012"}, {"is_disabled": 0, "is_reserved": 0, "fusion_lat": 0.0, "lat": 38.99101016666667, "fusion_lon": 0.0, "rental_uris": {"ios": "https://dc.lft.to/lastmile_qr_scan", "android": "https://dc.lft.to/lastmile_qr_scan"}, "lon": -76.9937065, "bike_id": "14495a9c43d93f1c805dc31f4406864c", "type": "electric_bike", "name": "14495a9c43d93f1c805dc31f4406864c"}, {"is_disabled": 0, "is_reserved": 0, "fusion_lat": 0.0, "lat": 38.92041966666667, "fusion_lon": 0.0, "rental_uris": {"ios": "https://dc.lft.to/lastmile_qr_scan", "android": "https://dc.lft.to/lastmile_qr_scan"}, "lon": -77.01677366666667, "bike_id": "4b4b7f7ca3c57525d6912af8aed857ed", "type": "electric_scooter", "name": "4b4b7f7ca3c57525d6912af8aed857ed"}, {"is_disabled": 0, "is_reserved": 0, "fusion_lat": 0.0, "lat": 38.90652933333333, "fusion_lon": 0.0, "rental_uris": {"ios": "https://dc.lft.to/lastmile_qr_scan", "android": "https://dc.lft.to/lastmile_qr_scan"}, "lon": -77.04873983333333, "bike_id": "91c2c4598afd3c4847c6ce09382d83fe", "type": "electric_scooter", "name": "91c2c4598afd3c4847c6ce09382d83fe"}, {"is_disabled": 0, "is_reserved": 0, "fusion_lat": 0.0, "lat": 38.904946333333335, "fusion_lon": 0.0, "rental_uris": {"ios": "https://dc.lft.to/lastmile_qr_scan", "android": "https://dc.lft.to/lastmile_qr_scan"}, "lon": -77.040644, "bike_id": "c33fab85280ca3bbcd8b9bb941f31272", "type": "electric_scooter", "name": "c33fab85280ca3bbcd8b9bb941f31272"}, {"is_disabled": 0, "is_reserved": 0, "fusion_lat": 0.0, "lat": 38.90233533333333, "fusion_lon": 0.0, "rental_uris": {"ios": "https://dc.lft.to/lastmile_qr_scan", "android": "https://dc.lft.to/lastmile_qr_scan"}, "lon": -77.0006345, "bike_id": "54fca2722b92d9feecb2afd07b687b42", "type": "electric_scooter", "name": "54fca2722b92d9feecb2afd07b687b42"}, {"is_disabled": 0, "is_reserved": 0, "fusion_lat": 0.0, "lat": 38.92564383333333, "fusion_lon": 0.0, "rental_uris": {"ios": "https://dc.lft.to/lastmile_qr_scan", "android": "https://dc.lft.to/lastmile_qr_scan"}, "lon": -77.0376685, "bike_id": "348ab1d57ca95a3adfb366e95cdd5ec9", "type": "electric_scooter", "name": "348ab1d57ca95a3adfb366e95cdd5ec9"}, {"is_disabled": 0, "is_reserved": 0, "fusion_lat": 0.0, "lat": 38.92106533333333, "fusion_lon": 0.0, "rental_uris": {"ios": "https://dc.lft.to/lastmile_qr_scan", "android": "https://dc.lft.to/lastmile_qr_scan"}, "lon": -77.01764283333333, "bike_id": "b23ffb1f37c7f125628508a02eab1c41", "type": "electric_scooter", "name": "b23ffb1f37c7f125628508a02eab1c41"}, {"is_disabled": 0, "is_reserved": 0, "fusion_lat": 0.0, "lat": 38.9464965, "fusion_lon": 0.0, "rental_uris": {"ios": "https://dc.lft.to/lastmile_qr_scan", "android": "https://dc.lft.to/lastmile_qr_scan"}, "lon": -77.01742933333334, "bike_id": "f75fbc258aa417bb593593b76115ed67", "type": "electric_scooter", "name": "f75fbc258aa417bb593593b76115ed67"}, {"is_disabled": 0, "is_reserved": 0, "fusion_lat": 0.0, "lat": 38.9427375, "fusion_lon": 0.0, "rental_uris": {"ios": "https://dc.lft.to/lastmile_qr_scan", "android": "https://dc.lft.to/lastmile_qr_scan"}, "lon": -77.0293325, "bike_id": "11fd6589d9a210b978b9c32442f5fdb1", "type": "electric_scooter", "name": "11fd6589d9a210b978b9c32442f5fdb1"}, {"is_disabled": 0, "is_reserved": 0, "fusion_lat": 0.0, "lat": 38.875195, "fusion_lon": 0.0, "rental_uris": {"ios": "https://dc.lft.to/lastmile_qr_scan", "android": "https://dc.lft.to/lastmile_qr_scan"}, "lon": -77.0082385, "bike_id": "93348e60ddc54dba098c4d9508996a8d", "type": "electric_bike", "name": "93348e60ddc54dba098c4d9508996a8d"}, {"is_disabled": 0, "is_reserved": 0, "fusion_lat": 0.0, "lat": 38.902679166666665, "fusion_lon": 0.0, "rental_uris": {"ios": "https://dc.lft.to/lastmile_qr_scan", "android": "https://dc.lft.to/lastmile_qr_scan"}, "lon": -77.0200605, "bike_id": "0b72b03a7c995d4a7b381253373df203", "type": "electric_scooter", "name": "0b72b03a7c995d4a7b381253373df203"}, {"is_disabled": 0, "is_reserved": 0, "fusion_lat": 0.0, "lat": 38.918640833333335, "fusion_lon": 0.0, "rental_uris": {"ios": "https://dc.lft.to/lastmile_qr_scan", "android": "https://dc.lft.to/lastmile_qr_scan"}, "lon": -77.0281695, "bike_id": "246025fc22a3f82c8b3e95c3b6f5357a", "type": "electric_scooter", "name": "246025fc22a3f82c8b3e95c3b6f5357a"}, {"is_disabled": 0, "is_reserved": 0, "fusion_lat": 0.0, "lat": 38.90721166666667, "fusion_lon": 0.0, "rental_uris": {"ios": "https://dc.lft.to/lastmile_qr_scan", "android": "https://dc.lft.to/lastmile_qr_scan"}, "lon": -77.03343433333333, "bike_id": "19d0caa79e624148b5ccc6997855062d", "type": "electric_scooter", "name": "19d0caa79e624148b5ccc6997855062d"}, {"is_disabled": 0, "is_reserved": 0, "fusion_lat": 0.0, "lat": 38.91698816666667, "fusion_lon": 0.0, "rental_uris": {"ios": "https://dc.lft.to/lastmile_qr_scan", "android": "https://dc.lft.to/lastmile_qr_scan"}, "lon": -77.03771233333333, "bike_id": "6138ea18db594c30a7c46048eefd594f", "type": "electric_scooter", "name": "6138ea18db594c30a7c46048eefd594f"}, {"is_disabled": 0, "is_reserved": 0, "fusion_lat": 0.0, "lat": 38.905303833333335, "fusion_lon": 0.0, "rental_uris": {"ios": "https://dc.lft.to/lastmile_qr_scan", "android": "https://dc.lft.to/lastmile_qr_scan"}, "lon": -77.01710133333333, "bike_id": "0c7226248ff8d7158f125f74c9a0caa1", "type": "electric_scooter", "name": "0c7226248ff8d7158f125f74c9a0caa1"}, {"is_disabled": 0, "is_reserved": 0, "fusion_lat": 0.0, "lat": 38.95217316666667, "fusion_lon": 0.0, "rental_uris": {"ios": "https://dc.lft.to/lastmile_qr_scan", "android": "https://dc.lft.to/lastmile_qr_scan"}, "lon": -77.08869083333333, "bike_id": "448ec9649236059a963eb6c135872594", "type": "electric_scooter", "name": "448ec9649236059a963eb6c135872594"}, {"is_disabled": 0, "is_reserved": 0, "fusion_lat": 0.0, "lat": 38.88302633333333, "fusion_lon": 0.0, "rental_uris": {"ios": "https://dc.lft.to/lastmile_qr_scan", "android": "https://dc.lft.to/lastmile_qr_scan"}, "lon": -76.934814, "bike_id": "97f7cfbb8adccce2504d7aad2e764ab6", "type": "electric_scooter", "name": "97f7cfbb8adccce2504d7aad2e764ab6"}, {"is_disabled": 0, "is_reserved": 0, "fusion_lat": 0.0, "lat": 38.92404283333333, "fusion_lon": 0.0, "rental_uris": {"ios": "https://dc.lft.to/lastmile_qr_scan", "android": "https://dc.lft.to/lastmile_qr_scan"}, "lon": -77.02005866666667, "bike_id": "f15f9e944a0b5b5a9c6a000cbd41b80a", "type": "electric_scooter", "name": "f15f9e944a0b5b5a9c6a000cbd41b80a"}, {"is_disabled": 0, "is_reserved": 0, "fusion_lat": 0.0, "lat": 38.852475, "fusion_lon": 0.0, "rental_uris": {"ios": "https://dc.lft.to/lastmile_qr_scan", "android": "https://dc.lft.to/lastmile_qr_scan"}, "lon": -77.114066, "bike_id": "246e6a68c478ae7499f75cc32c87d479", "type": "electric_bike", "name": "246e6a68c478ae7499f75cc32c87d479"}, {"is_disabled": 0, "is_reserved": 0, "fusion_lat": 0.0, "lat": 38.895176166666666, "fusion_lon": 0.0, "rental_uris": {"ios": "https://dc.lft.to/lastmile_qr_scan", "android": "https://dc.lft.to/lastmile_qr_scan"}, "lon": -77.02282083333333, "bike_id": "04451bfbc08df6f084520812260fbaf9", "type": "electric_scooter", "name": "04451bfbc08df6f084520812260fbaf9"}, {"is_disabled": 0, "is_reserved": 0, "fusion_lat": 0.0, "lat": 39.00647933333333, "fusion_lon": 0.0, "rental_uris": {"ios": "https://dc.lft.to/lastmile_qr_scan", "android": "https://dc.lft.to/lastmile_qr_scan"}, "lon": -76.90021066666667, "bike_id": "804a637f4a2590cfc75812d32cc987bb", "type": "electric_bike", "name": "804a637f4a2590cfc75812d32cc987bb"}, {"is_disabled": 0, "is_reserved": 0, "fusion_lat": 0.0, "lat": 38.901525166666666, "fusion_lon": 0.0, "rental_uris": {"ios": "https://dc.lft.to/lastmile_qr_scan", "android": "https://dc.lft.to/lastmile_qr_scan"}, "lon": -76.92985716666666, "bike_id": "d8a2557f7565be860e08123249d30162", "type": "electric_scooter", "name": "d8a2557f7565be860e08123249d30162"}, {"is_disabled": 0, "is_reserved": 0, "fusion_lat": 0.0, "lat": 38.90540016666667, "fusion_lon": 0.0, "rental_uris": {"ios": "https://dc.lft.to/lastmile_qr_scan", "android": "https://dc.lft.to/lastmile_qr_scan"}, "lon": -76.9864475, "bike_id": "a1a129734adc4a0e19b0b4e824c6edb9", "type": "electric_scooter", "name": "a1a129734adc4a0e19b0b4e824c6edb9"}, {"is_disabled": 0, "is_reserved": 0, "fusion_lat": 0.0, "lat": 38.9242885, "fusion_lon": 0.0, "rental_uris": {"ios": "https://dc.lft.to/lastmile_qr_scan", "android": "https://dc.lft.to/lastmile_qr_scan"}, "lon": -77.04479666666667, "bike_id": "ebbb9c9a2b7e04fa0873e27d0d1e0af1", "type": "electric_scooter", "name": "ebbb9c9a2b7e04fa0873e27d0d1e0af1"}, {"is_disabled": 0, "is_reserved": 0, "fusion_lat": 0.0, "lat": 38.92477233333334, "fusion_lon": 0.0, "rental_uris": {"ios": "https://dc.lft.to/lastmile_qr_scan", "android": "https://dc.lft.to/lastmile_qr_scan"}, "lon": -77.02716066666666, "bike_id": "2114790ef42258cfa079fb6eafb4801a", "type": "electric_scooter", "name": "2114790ef42258cfa079fb6eafb4801a"}, {"is_disabled": 0, "is_reserved": 0, "fusion_lat": 0.0, "lat": 38.923241166666664, "fusion_lon": 0.0, "rental_uris": {"ios": "https://dc.lft.to/lastmile_qr_scan", "android": "https://dc.lft.to/lastmile_qr_scan"}, "lon": -77.02894933333333, "bike_id": "2ffb5bda95efed3aa89ee217ac2b1565", "type": "electric_scooter", "name": "2ffb5bda95efed3aa89ee217ac2b1565"}, {"is_disabled": 0, "is_reserved": 0, "fusion_lat": 0.0, "lat": 38.910408333333336, "fusion_lon": 0.0, "rental_uris": {"ios": "https://dc.lft.to/lastmile_qr_scan", "android": "https://dc.lft.to/lastmile_qr_scan"}, "lon": -76.998045, "bike_id": "c4f199cfdfee9bfba7a93ad155dd35c5", "type": "electric_scooter", "name": "c4f199cfdfee9bfba7a93ad155dd35c5"}, {"is_disabled": 0, "is_reserved": 0, "fusion_lat": 0.0, "lat": 38.9245835, "fusion_lon": 0.0, "rental_uris": {"ios": "https://dc.lft.to/lastmile_qr_scan", "android": "https://dc.lft.to/lastmile_qr_scan"}, "lon": -77.07824016666666, "bike_id": "398e69cb6a58580b62963c2ccb04208c", "type": "electric_scooter", "name": "398e69cb6a58580b62963c2ccb04208c"}, {"is_disabled": 0, "is_reserved": 0, "fusion_lat": 0.0, "lat": 38.937859333333336, "fusion_lon": 0.0, "rental_uris": {"ios": "https://dc.lft.to/lastmile_qr_scan", "android": "https://dc.lft.to/lastmile_qr_scan"}, "lon": -77.02304633333334, "bike_id": "b9ff041aaec7ef06767f4ae4b0dcd1c2", "type": "electric_scooter", "name": "b9ff041aaec7ef06767f4ae4b0dcd1c2"}, {"is_disabled": 0, "is_reserved": 0, "fusion_lat": 0.0, "lat": 38.90664816666666, "fusion_lon": 0.0, "rental_uris": {"ios": "https://dc.lft.to/lastmile_qr_scan", "android": "https://dc.lft.to/lastmile_qr_scan"}, "lon": -77.04547316666667, "bike_id": "2605fa618f307805fe619496dbc688a9", "type": "electric_scooter", "name": "2605fa618f307805fe619496dbc688a9"}, {"is_disabled": 0, "is_reserved": 0, "fusion_lat": 0.0, "lat": 38.842751, "fusion_lon": 0.0, "rental_uris": {"ios": "https://dc.lft.to/lastmile_qr_scan", "android": "https://dc.lft.to/lastmile_qr_scan"}, "lon": -76.98842016666667, "bike_id": "87a262abad315c042c4e9962e95796a5", "type": "electric_scooter", "name": "87a262abad315c042c4e9962e95796a5"}, {"is_disabled": 0, "is_reserved": 0, "fusion_lat": 0.0, "lat": 38.901656, "fusion_lon": 0.0, "rental_uris": {"ios": "https://dc.lft.to/lastmile_qr_scan", "android": "https://dc.lft.to/lastmile_qr_scan"}, "lon": -77.0487935, "bike_id": "7b8eaffe7d2d4a6525994720a0e9c9b5", "type": "electric_scooter", "name": "7b8eaffe7d2d4a6525994720a0e9c9b5"}, {"is_disabled": 0, "is_reserved": 0, "fusion_lat": 0.0, "lat": 38.8978015, "fusion_lon": 0.0, "rental_uris": {"ios": "https://dc.lft.to/lastmile_qr_scan", "android": "https://dc.lft.to/lastmile_qr_scan"}, "lon": -76.9709875, "bike_id": "34b90343afdf8e229534692230a24097", "type": "electric_scooter", "name": "34b90343afdf8e229534692230a24097"}, {"is_disabled": 0, "is_reserved": 0, "fusion_lat": 0.0, "lat": 38.838669333333335, "fusion_lon": 0.0, "rental_uris": {"ios": "https://dc.lft.to/lastmile_qr_scan", "android": "https://dc.lft.to/lastmile_qr_scan"}, "lon": -76.997029, "bike_id": "c51e1ea25d51087b7041f07525f33cb9", "type": "electric_bike", "name": "c51e1ea25d51087b7041f07525f33cb9"}, {"is_disabled": 0, "is_reserved": 0, "fusion_lat": 0.0, "lat": 38.915619666666665, "fusion_lon": 0.0, "rental_uris": {"ios": "https://dc.lft.to/lastmile_qr_scan", "android": "https://dc.lft.to/lastmile_qr_scan"}, "lon": -77.040909, "bike_id": "49f326eed489b020af52e68486994d5a", "type": "electric_scooter", "name": "49f326eed489b020af52e68486994d5a"}, {"is_disabled": 0, "is_reserved": 0, "fusion_lat": 0.0, "lat": 38.878874333333336, "fusion_lon": 0.0, "rental_uris": {"ios": "https://dc.lft.to/lastmile_qr_scan", "android": "https://dc.lft.to/lastmile_qr_scan"}, "lon": -77.02309116666666, "bike_id": "25d3767dff06a45ac844e854a0e0001c", "type": "electric_scooter", "name": "25d3767dff06a45ac844e854a0e0001c"}, {"is_disabled": 0, "is_reserved": 0, "fusion_lat": 0.0, "lat": 38.883905666666664, "fusion_lon": 0.0, "rental_uris": {"ios": "https://dc.lft.to/lastmile_qr_scan", "android": "https://dc.lft.to/lastmile_qr_scan"}, "lon": -77.030238, "bike_id": "2f44be48da1a91e95c9dccf987cb4aeb", "type": "electric_scooter", "name": "2f44be48da1a91e95c9dccf987cb4aeb"}, {"is_disabled": 0, "is_reserved": 0, "fusion_lat": 0.0, "lat": 38.92463133333333, "fusion_lon": 0.0, "rental_uris": {"ios": "https://dc.lft.to/lastmile_qr_scan", "android": "https://dc.lft.to/lastmile_qr_scan"}, "lon": -77.05750316666666, "bike_id": "4cac8a545cd61d0a4da69d045cfc0474", "type": "electric_scooter", "name": "4cac8a545cd61d0a4da69d045cfc0474"}, {"is_disabled": 0, "is_reserved": 0, "fusion_lat": 0.0, "lat": 38.91816683333333, "fusion_lon": 0.0, "rental_uris": {"ios": "https://dc.lft.to/lastmile_qr_scan", "android": "https://dc.lft.to/lastmile_qr_scan"}, "lon": -77.03123766666667, "bike_id": "c8a3ed63404c1b1290955b4156a7f85b", "type": "electric_scooter", "name": "c8a3ed63404c1b1290955b4156a7f85b"}, {"is_disabled": 0, "is_reserved": 0, "fusion_lat": 0.0, "lat": 38.9021765, "fusion_lon": 0.0, "rental_uris": {"ios": "https://dc.lft.to/lastmile_qr_scan", "android": "https://dc.lft.to/lastmile_qr_scan"}, "lon": -76.931813, "bike_id": "0617b8ae1087ec78f212aed71f5d5a8f", "type": "electric_bike", "name": "0617b8ae1087ec78f212aed71f5d5a8f"}, {"is_disabled": 0, "is_reserved": 0, "fusion_lat": 0.0, "lat": 38.883591833333334, "fusion_lon": 0.0, "rental_uris": {"ios": "https://dc.lft.to/lastmile_qr_scan", "android": "https://dc.lft.to/lastmile_qr_scan"}, "lon": -76.92792483333334, "bike_id": "62345d22ba31a3b2b2f0ea5f1602a56c", "type": "electric_scooter", "name": "62345d22ba31a3b2b2f0ea5f1602a56c"}, {"is_disabled": 0, "is_reserved": 0, "fusion_lat": 0.0, "lat": 38.902662166666666, "fusion_lon": 0.0, "rental_uris": {"ios": "https://dc.lft.to/lastmile_qr_scan", "android": "https://dc.lft.to/lastmile_qr_scan"}, "lon": -77.0344065, "bike_id": "616c84919e0e2c21a496eb83bbfe91a2", "type": "electric_scooter", "name": "616c84919e0e2c21a496eb83bbfe91a2"}, {"is_disabled": 0, "is_reserved": 0, "fusion_lat": 0.0, "lat": 38.91275233333333, "fusion_lon": 0.0, "rental_uris": {"ios": "https://dc.lft.to/lastmile_qr_scan", "android": "https://dc.lft.to/lastmile_qr_scan"}, "lon": -77.0313385, "bike_id": "8e096d8fb3dd5871682e6b39eba486f8", "type": "electric_scooter", "name": "8e096d8fb3dd5871682e6b39eba486f8"}, {"is_disabled": 0, "is_reserved": 0, "fusion_lat": 0.0, "lat": 38.91915433333333, "fusion_lon": 0.0, "rental_uris": {"ios": "https://dc.lft.to/lastmile_qr_scan", "android": "https://dc.lft.to/lastmile_qr_scan"}, "lon": -77.0481535, "bike_id": "c2626515fe5dd7b48b261b5093d872db", "type": "electric_scooter", "name": "c2626515fe5dd7b48b261b5093d872db"}, {"is_disabled": 0, "is_reserved": 0, "fusion_lat": 0.0, "lat": 38.892202, "fusion_lon": 0.0, "rental_uris": {"ios": "https://dc.lft.to/lastmile_qr_scan", "android": "https://dc.lft.to/lastmile_qr_scan"}, "lon": -77.04329233333333, "bike_id": "fbef5d96ff2ce04dafc637c62c85114a", "type": "electric_scooter", "name": "fbef5d96ff2ce04dafc637c62c85114a"}, {"is_disabled": 0, "is_reserved": 0, "fusion_lat": 0.0, "lat": 38.876564333333334, "fusion_lon": 0.0, "rental_uris": {"ios": "https://dc.lft.to/lastmile_qr_scan", "android": "https://dc.lft.to/lastmile_qr_scan"}, "lon": -77.00814466666667, "bike_id": "6d1b01f1d19ffd2cb3c776e9523b6399", "type": "electric_scooter", "name": "6d1b01f1d19ffd2cb3c776e9523b6399"}, {"is_disabled": 0, "is_reserved": 0, "fusion_lat": 0.0, "lat": 38.892191, "fusion_lon": 0.0, "rental_uris": {"ios": "https://dc.lft.to/lastmile_qr_scan", "android": "https://dc.lft.to/lastmile_qr_scan"}, "lon": -77.04457333333333, "bike_id": "821f830c8b771ea2b8457c9ddb7afd10", "type": "electric_scooter", "name": "821f830c8b771ea2b8457c9ddb7afd10"}, {"is_disabled": 0, "is_reserved": 0, "fusion_lat": 0.0, "lat": 38.90265083333333, "fusion_lon": 0.0, "rental_uris": {"ios": "https://dc.lft.to/lastmile_qr_scan", "android": "https://dc.lft.to/lastmile_qr_scan"}, "lon": -76.92846983333334, "bike_id": "78dabf621bb6d9f7ab4cb9f36a75e1cd", "type": "electric_scooter", "name": "78dabf621bb6d9f7ab4cb9f36a75e1cd"}, {"is_disabled": 0, "is_reserved": 0, "fusion_lat": 0.0, "lat": 38.928685333333334, "fusion_lon": 0.0, "rental_uris": {"ios": "https://dc.lft.to/lastmile_qr_scan", "android": "https://dc.lft.to/lastmile_qr_scan"}, "lon": -77.07890433333333, "bike_id": "2f93d9848685159b23ea6337380edf0f", "type": "electric_scooter", "name": "2f93d9848685159b23ea6337380edf0f"}, {"is_disabled": 0, "is_reserved": 0, "fusion_lat": 0.0, "lat": 38.97343583333333, "fusion_lon": 0.0, "rental_uris": {"ios": "https://dc.lft.to/lastmile_qr_scan", "android": "https://dc.lft.to/lastmile_qr_scan"}, "lon": -77.01789233333334, "bike_id": "5ec8db20f964cb384f182e3c00f7a202", "type": "electric_bike", "name": "5ec8db20f964cb384f182e3c00f7a202"}, {"is_disabled": 0, "is_reserved": 0, "fusion_lat": 0.0, "lat": 38.918502, "fusion_lon": 0.0, "rental_uris": {"ios": "https://dc.lft.to/lastmile_qr_scan", "android": "https://dc.lft.to/lastmile_qr_scan"}, "lon": -77.041056, "bike_id": "ba4aadc479fab0bbb1ae3c43d383f0c2", "type": "electric_scooter", "name": "ba4aadc479fab0bbb1ae3c43d383f0c2"}, {"is_disabled": 0, "is_reserved": 0, "fusion_lat": 0.0, "lat": 38.8970355, "fusion_lon": 0.0, "rental_uris": {"ios": "https://dc.lft.to/lastmile_qr_scan", "android": "https://dc.lft.to/lastmile_qr_scan"}, "lon": -77.04339766666666, "bike_id": "f13a0e9fe75a260e16bcc1a4a38a6083", "type": "electric_scooter", "name": "f13a0e9fe75a260e16bcc1a4a38a6083"}, {"is_disabled": 0, "is_reserved": 0, "fusion_lat": 0.0, "lat": 38.90405233333333, "fusion_lon": 0.0, "rental_uris": {"ios": "https://dc.lft.to/lastmile_qr_scan", "android": "https://dc.lft.to/lastmile_qr_scan"}, "lon": -77.065037, "bike_id": "0e860069ada9e2d40d2b9a40fc4fb6da", "type": "electric_scooter", "name": "0e860069ada9e2d40d2b9a40fc4fb6da"}, {"is_disabled": 0, "is_reserved": 0, "fusion_lat": 0.0, "lat": 38.920305666666664, "fusion_lon": 0.0, "rental_uris": {"ios": "https://dc.lft.to/lastmile_qr_scan", "android": "https://dc.lft.to/lastmile_qr_scan"}, "lon": -77.038556, "bike_id": "39f6c0b307664d80c356a603ec72808e", "type": "electric_scooter", "name": "39f6c0b307664d80c356a603ec72808e"}, {"is_disabled": 0, "is_reserved": 0, "fusion_lat": 0.0, "lat": 38.905466833333335, "fusion_lon": 0.0, "rental_uris": {"ios": "https://dc.lft.to/lastmile_qr_scan", "android": "https://dc.lft.to/lastmile_qr_scan"}, "lon": -77.05912566666667, "bike_id": "4b596888ea615c62719cb09b001cab3a", "type": "electric_scooter", "name": "4b596888ea615c62719cb09b001cab3a"}, {"is_disabled": 0, "is_reserved": 0, "fusion_lat": 0.0, "lat": 38.927203666666664, "fusion_lon": 0.0, "rental_uris": {"ios": "https://dc.lft.to/lastmile_qr_scan", "android": "https://dc.lft.to/lastmile_qr_scan"}, "lon": -77.05142816666667, "bike_id": "a2a74845d88109d894a8495a2acb806a", "type": "electric_scooter", "name": "a2a74845d88109d894a8495a2acb806a"}, {"is_disabled": 0, "is_reserved": 0, "fusion_lat": 0.0, "lat": 38.863738166666664, "fusion_lon": 0.0, "rental_uris": {"ios": "https://dc.lft.to/lastmile_qr_scan", "android": "https://dc.lft.to/lastmile_qr_scan"}, "lon": -77.01359783333334, "bike_id": "848e19a2a127d77819331ab3edcef0c3", "type": "electric_scooter", "name": "848e19a2a127d77819331ab3edcef0c3"}, {"is_disabled": 0, "is_reserved": 0, "fusion_lat": 0.0, "lat": 38.905729, "fusion_lon": 0.0, "rental_uris": {"ios": "https://dc.lft.to/lastmile_qr_scan", "android": "https://dc.lft.to/lastmile_qr_scan"}, "lon": -77.04436533333333, "bike_id": "bd51b326623452a2217c4e749444828b", "type": "electric_scooter", "name": "bd51b326623452a2217c4e749444828b"}, {"is_disabled": 0, "is_reserved": 0, "fusion_lat": 0.0, "lat": 38.898814333333334, "fusion_lon": 0.0, "rental_uris": {"ios": "https://dc.lft.to/lastmile_qr_scan", "android": "https://dc.lft.to/lastmile_qr_scan"}, "lon": -76.93177616666667, "bike_id": "e89e54b9101d5fa1bc6fdc439f7ec4a7", "type": "electric_scooter", "name": "e89e54b9101d5fa1bc6fdc439f7ec4a7"}, {"is_disabled": 0, "is_reserved": 0, "fusion_lat": 0.0, "lat": 38.880081833333335, "fusion_lon": 0.0, "rental_uris": {"ios": "https://dc.lft.to/lastmile_qr_scan", "android": "https://dc.lft.to/lastmile_qr_scan"}, "lon": -76.99742683333334, "bike_id": "24920997d326cd4e87f5bb7826bff4db", "type": "electric_scooter", "name": "24920997d326cd4e87f5bb7826bff4db"}, {"is_disabled": 0, "is_reserved": 0, "fusion_lat": 0.0, "lat": 38.89225783333333, "fusion_lon": 0.0, "rental_uris": {"ios": "https://dc.lft.to/lastmile_qr_scan", "android": "https://dc.lft.to/lastmile_qr_scan"}, "lon": -77.022218, "bike_id": "7bc7d8937c2b043e1156a2aeaf888151", "type": "electric_scooter", "name": "7bc7d8937c2b043e1156a2aeaf888151"}, {"is_disabled": 0, "is_reserved": 0, "fusion_lat": 0.0, "lat": 38.90072466666667, "fusion_lon": 0.0, "rental_uris": {"ios": "https://dc.lft.to/lastmile_qr_scan", "android": "https://dc.lft.to/lastmile_qr_scan"}, "lon": -77.0500275, "bike_id": "86f10c25db50829f739e50c76940300b", "type": "electric_scooter", "name": "86f10c25db50829f739e50c76940300b"}, {"is_disabled": 0, "is_reserved": 0, "fusion_lat": 0.0, "lat": 38.91821016666667, "fusion_lon": 0.0, "rental_uris": {"ios": "https://dc.lft.to/lastmile_qr_scan", "android": "https://dc.lft.to/lastmile_qr_scan"}, "lon": -77.01212016666666, "bike_id": "ad100b865cb66bde69364bbc63351d21", "type": "electric_scooter", "name": "ad100b865cb66bde69364bbc63351d21"}, {"is_disabled": 0, "is_reserved": 0, "fusion_lat": 0.0, "lat": 38.92276433333333, "fusion_lon": 0.0, "rental_uris": {"ios": "https://dc.lft.to/lastmile_qr_scan", "android": "https://dc.lft.to/lastmile_qr_scan"}, "lon": -77.04241466666667, "bike_id": "979f21144adc9c2b7912c11d9a28b2bb", "type": "electric_scooter", "name": "979f21144adc9c2b7912c11d9a28b2bb"}, {"is_disabled": 0, "is_reserved": 0, "fusion_lat": 0.0, "lat": 38.929071, "fusion_lon": 0.0, "rental_uris": {"ios": "https://dc.lft.to/lastmile_qr_scan", "android": "https://dc.lft.to/lastmile_qr_scan"}, "lon": -77.03261833333333, "bike_id": "e8b266f077fd54cae7f568a893caea3a", "type": "electric_scooter", "name": "e8b266f077fd54cae7f568a893caea3a"}, {"is_disabled": 0, "is_reserved": 0, "fusion_lat": 0.0, "lat": 38.92443166666666, "fusion_lon": 0.0, "rental_uris": {"ios": "https://dc.lft.to/lastmile_qr_scan", "android": "https://dc.lft.to/lastmile_qr_scan"}, "lon": -77.02131266666666, "bike_id": "34c34b8fa8d36909c59d98ca97e666d3", "type": "electric_scooter", "name": "34c34b8fa8d36909c59d98ca97e666d3"}, {"is_disabled": 0, "is_reserved": 0, "fusion_lat": 0.0, "lat": 38.92407866666667, "fusion_lon": 0.0, "rental_uris": {"ios": "https://dc.lft.to/lastmile_qr_scan", "android": "https://dc.lft.to/lastmile_qr_scan"}, "lon": -77.02032366666667, "bike_id": "3e84f8064356950407067ba69eb00653", "type": "electric_scooter", "name": "3e84f8064356950407067ba69eb00653"}, {"is_disabled": 0, "is_reserved": 0, "fusion_lat": 0.0, "lat": 38.917032666666664, "fusion_lon": 0.0, "rental_uris": {"ios": "https://dc.lft.to/lastmile_qr_scan", "android": "https://dc.lft.to/lastmile_qr_scan"}, "lon": -77.02739083333333, "bike_id": "37eefbb0e84c4aa02abde0e528a110c0", "type": "electric_scooter", "name": "37eefbb0e84c4aa02abde0e528a110c0"}, {"is_disabled": 0, "is_reserved": 0, "fusion_lat": 0.0, "lat": 38.9265415, "fusion_lon": 0.0, "rental_uris": {"ios": "https://dc.lft.to/lastmile_qr_scan", "android": "https://dc.lft.to/lastmile_qr_scan"}, "lon": -77.02434933333333, "bike_id": "edb6ba1fe66f9bf8a2dc970a1d713f73", "type": "electric_scooter", "name": "edb6ba1fe66f9bf8a2dc970a1d713f73"}, {"is_disabled": 0, "is_reserved": 0, "fusion_lat": 0.0, "lat": 38.9133475, "fusion_lon": 0.0, "rental_uris": {"ios": "https://dc.lft.to/lastmile_qr_scan", "android": "https://dc.lft.to/lastmile_qr_scan"}, "lon": -77.03043716666667, "bike_id": "a8e5dceb9a9ff2397e07ed26cba20319", "type": "electric_scooter", "name": "a8e5dceb9a9ff2397e07ed26cba20319"}, {"is_disabled": 0, "is_reserved": 0, "fusion_lat": 0.0, "lat": 38.92125583333333, "fusion_lon": 0.0, "rental_uris": {"ios": "https://dc.lft.to/lastmile_qr_scan", "android": "https://dc.lft.to/lastmile_qr_scan"}, "lon": -77.04571483333334, "bike_id": "deb62f56f9622e8f3a2f8a7347ac141d", "type": "electric_scooter", "name": "deb62f56f9622e8f3a2f8a7347ac141d"}, {"is_disabled": 0, "is_reserved": 0, "fusion_lat": 0.0, "lat": 38.9063135, "fusion_lon": 0.0, "rental_uris": {"ios": "https://dc.lft.to/lastmile_qr_scan", "android": "https://dc.lft.to/lastmile_qr_scan"}, "lon": -77.02698216666667, "bike_id": "cc23f0a71a518d14efdea98dda375576", "type": "electric_scooter", "name": "cc23f0a71a518d14efdea98dda375576"}, {"is_disabled": 0, "is_reserved": 0, "fusion_lat": 0.0, "lat": 38.920468, "fusion_lon": 0.0, "rental_uris": {"ios": "https://dc.lft.to/lastmile_qr_scan", "android": "https://dc.lft.to/lastmile_qr_scan"}, "lon": -77.0336935, "bike_id": "7090a271e2fec4e2e11196f1cdee966a", "type": "electric_scooter", "name": "7090a271e2fec4e2e11196f1cdee966a"}, {"is_disabled": 0, "is_reserved": 0, "fusion_lat": 0.0, "lat": 38.961241666666666, "fusion_lon": 0.0, "rental_uris": {"ios": "https://dc.lft.to/lastmile_qr_scan", "android": "https://dc.lft.to/lastmile_qr_scan"}, "lon": -77.03278283333333, "bike_id": "c2a5c430e69f41f4044c000903a415fe", "type": "electric_bike", "name": "c2a5c430e69f41f4044c000903a415fe"}, {"is_disabled": 0, "is_reserved": 0, "fusion_lat": 0.0, "lat": 38.9386465, "fusion_lon": 0.0, "rental_uris": {"ios": "https://dc.lft.to/lastmile_qr_scan", "android": "https://dc.lft.to/lastmile_qr_scan"}, "lon": -77.024624, "bike_id": "05175fa3b04c1d47883b815aa0ffde0a", "type": "electric_scooter", "name": "05175fa3b04c1d47883b815aa0ffde0a"}, {"is_disabled": 0, "is_reserved": 0, "fusion_lat": 0.0, "lat": 38.90203133333333, "fusion_lon": 0.0, "rental_uris": {"ios": "https://dc.lft.to/lastmile_qr_scan", "android": "https://dc.lft.to/lastmile_qr_scan"}, "lon": -77.03913233333333, "bike_id": "afa5fe79751316365e2b99a88f56171c", "type": "electric_bike", "name": "afa5fe79751316365e2b99a88f56171c"}, {"is_disabled": 0, "is_reserved": 0, "fusion_lat": 0.0, "lat": 38.9467955, "fusion_lon": 0.0, "rental_uris": {"ios": "https://dc.lft.to/lastmile_qr_scan", "android": "https://dc.lft.to/lastmile_qr_scan"}, "lon": -77.03281483333333, "bike_id": "09b7bc3a789190b3dd565cef6c3bd821", "type": "electric_scooter", "name": "09b7bc3a789190b3dd565cef6c3bd821"}, {"is_disabled": 0, "is_reserved": 0, "fusion_lat": 0.0, "lat": 38.88478466666667, "fusion_lon": 0.0, "rental_uris": {"ios": "https://dc.lft.to/lastmile_qr_scan", "android": "https://dc.lft.to/lastmile_qr_scan"}, "lon": -77.02588566666667, "bike_id": "0da376e9b353a8e73096bcdf63dfa015", "type": "electric_scooter", "name": "0da376e9b353a8e73096bcdf63dfa015"}, {"is_disabled": 0, "is_reserved": 0, "fusion_lat": 0.0, "lat": 38.89225166666667, "fusion_lon": 0.0, "rental_uris": {"ios": "https://dc.lft.to/lastmile_qr_scan", "android": "https://dc.lft.to/lastmile_qr_scan"}, "lon": -77.0445565, "bike_id": "84f56db32e4d6f523a968a0256aedcff", "type": "electric_scooter", "name": "84f56db32e4d6f523a968a0256aedcff"}, {"is_disabled": 0, "is_reserved": 0, "fusion_lat": 0.0, "lat": 38.88453366666667, "fusion_lon": 0.0, "rental_uris": {"ios": "https://dc.lft.to/lastmile_qr_scan", "android": "https://dc.lft.to/lastmile_qr_scan"}, "lon": -76.950944, "bike_id": "e95accd02b2353f16125740ffa1d52ba", "type": "electric_scooter", "name": "e95accd02b2353f16125740ffa1d52ba"}, {"is_disabled": 0, "is_reserved": 0, "fusion_lat": 0.0, "lat": 38.881367166666664, "fusion_lon": 0.0, "rental_uris": {"ios": "https://dc.lft.to/lastmile_qr_scan", "android": "https://dc.lft.to/lastmile_qr_scan"}, "lon": -77.02275116666667, "bike_id": "1d47a942615f4244a65d482005cb4f88", "type": "electric_scooter", "name": "1d47a942615f4244a65d482005cb4f88"}, {"is_disabled": 0, "is_reserved": 0, "fusion_lat": 0.0, "lat": 38.82027633333333, "fusion_lon": 0.0, "rental_uris": {"ios": "https://dc.lft.to/lastmile_qr_scan", "android": "https://dc.lft.to/lastmile_qr_scan"}, "lon": -77.0545495, "bike_id": "10b0701fab948d79de8c1faa1ecfe6d7", "type": "electric_bike", "name": "10b0701fab948d79de8c1faa1ecfe6d7"}, {"is_disabled": 0, "is_reserved": 0, "fusion_lat": 0.0, "lat": 38.9215775, "fusion_lon": 0.0, "rental_uris": {"ios": "https://dc.lft.to/lastmile_qr_scan", "android": "https://dc.lft.to/lastmile_qr_scan"}, "lon": -77.033791, "bike_id": "faef42c64188d507f5fcc0a1ab667227", "type": "electric_scooter", "name": "faef42c64188d507f5fcc0a1ab667227"}, {"is_disabled": 0, "is_reserved": 0, "fusion_lat": 0.0, "lat": 38.910373666666665, "fusion_lon": 0.0, "rental_uris": {"ios": "https://dc.lft.to/lastmile_qr_scan", "android": "https://dc.lft.to/lastmile_qr_scan"}, "lon": -76.92332283333333, "bike_id": "3dc1788bd3dc78a947cc5bb26788cfd1", "type": "electric_bike", "name": "3dc1788bd3dc78a947cc5bb26788cfd1"}, {"is_disabled": 0, "is_reserved": 0, "fusion_lat": 0.0, "lat": 38.91350283333333, "fusion_lon": 0.0, "rental_uris": {"ios": "https://dc.lft.to/lastmile_qr_scan", "android": "https://dc.lft.to/lastmile_qr_scan"}, "lon": -76.9713905, "bike_id": "ed0cf3e842519c1740c4331421bba7dd", "type": "electric_scooter", "name": "ed0cf3e842519c1740c4331421bba7dd"}, {"is_disabled": 0, "is_reserved": 0, "fusion_lat": 0.0, "lat": 38.92979283333333, "fusion_lon": 0.0, "rental_uris": {"ios": "https://dc.lft.to/lastmile_qr_scan", "android": "https://dc.lft.to/lastmile_qr_scan"}, "lon": -77.038839, "bike_id": "54a12159d2f0e1f7e6bcaa68eb1f9833", "type": "electric_scooter", "name": "54a12159d2f0e1f7e6bcaa68eb1f9833"}, {"is_disabled": 0, "is_reserved": 0, "fusion_lat": 0.0, "lat": 38.900099833333336, "fusion_lon": 0.0, "rental_uris": {"ios": "https://dc.lft.to/lastmile_qr_scan", "android": "https://dc.lft.to/lastmile_qr_scan"}, "lon": -77.00680066666666, "bike_id": "4caa9e9e20f2991d83c130c0a6f66b2a", "type": "electric_scooter", "name": "4caa9e9e20f2991d83c130c0a6f66b2a"}, {"is_disabled": 0, "is_reserved": 0, "fusion_lat": 0.0, "lat": 38.90916983333334, "fusion_lon": 0.0, "rental_uris": {"ios": "https://dc.lft.to/lastmile_qr_scan", "android": "https://dc.lft.to/lastmile_qr_scan"}, "lon": -77.0494065, "bike_id": "e5b9eca32d00e506db1d44d7c7107103", "type": "electric_scooter", "name": "e5b9eca32d00e506db1d44d7c7107103"}, {"is_disabled": 0, "is_reserved": 0, "fusion_lat": 0.0, "lat": 38.8972225, "fusion_lon": 0.0, "rental_uris": {"ios": "https://dc.lft.to/lastmile_qr_scan", "android": "https://dc.lft.to/lastmile_qr_scan"}, "lon": -77.0306505, "bike_id": "d401e134a2818983aa161a38c17e44c7", "type": "electric_scooter", "name": "d401e134a2818983aa161a38c17e44c7"}, {"is_disabled": 0, "is_reserved": 0, "fusion_lat": 0.0, "lat": 38.90347916666666, "fusion_lon": 0.0, "rental_uris": {"ios": "https://dc.lft.to/lastmile_qr_scan", "android": "https://dc.lft.to/lastmile_qr_scan"}, "lon": -77.02601, "bike_id": "1306ad815ec74fad9bc2a1f7d983884a", "type": "electric_scooter", "name": "1306ad815ec74fad9bc2a1f7d983884a"}, {"is_disabled": 0, "is_reserved": 0, "fusion_lat": 0.0, "lat": 38.92810866666667, "fusion_lon": 0.0, "rental_uris": {"ios": "https://dc.lft.to/lastmile_qr_scan", "android": "https://dc.lft.to/lastmile_qr_scan"}, "lon": -77.03607566666666, "bike_id": "65375fa7048c43ea4cf53c1ea645169a", "type": "electric_scooter", "name": "65375fa7048c43ea4cf53c1ea645169a"}, {"is_disabled": 0, "is_reserved": 0, "fusion_lat": 0.0, "lat": 38.897433666666664, "fusion_lon": 0.0, "rental_uris": {"ios": "https://dc.lft.to/lastmile_qr_scan", "android": "https://dc.lft.to/lastmile_qr_scan"}, "lon": -77.04415, "bike_id": "5a5feeecd54cf0190c0a882a37d4ac52", "type": "electric_scooter", "name": "5a5feeecd54cf0190c0a882a37d4ac52"}, {"is_disabled": 0, "is_reserved": 0, "fusion_lat": 0.0, "lat": 38.9340485, "fusion_lon": 0.0, "rental_uris": {"ios": "https://dc.lft.to/lastmile_qr_scan", "android": "https://dc.lft.to/lastmile_qr_scan"}, "lon": -77.04547633333334, "bike_id": "cdda97714376f90e8825309c7fc61f38", "type": "electric_scooter", "name": "cdda97714376f90e8825309c7fc61f38"}, {"is_disabled": 0, "is_reserved": 0, "fusion_lat": 0.0, "lat": 38.89918466666666, "fusion_lon": 0.0, "rental_uris": {"ios": "https://dc.lft.to/lastmile_qr_scan", "android": "https://dc.lft.to/lastmile_qr_scan"}, "lon": -77.02309033333333, "bike_id": "287ec22922a6ec1f799d170456a374a3", "type": "electric_scooter", "name": "287ec22922a6ec1f799d170456a374a3"}, {"is_disabled": 0, "is_reserved": 0, "fusion_lat": 0.0, "lat": 38.9207195, "fusion_lon": 0.0, "rental_uris": {"ios": "https://dc.lft.to/lastmile_qr_scan", "android": "https://dc.lft.to/lastmile_qr_scan"}, "lon": -77.02381933333334, "bike_id": "03195117930eb4aa27594eabc9b7e5b5", "type": "electric_scooter", "name": "03195117930eb4aa27594eabc9b7e5b5"}, {"is_disabled": 0, "is_reserved": 0, "fusion_lat": 0.0, "lat": 38.9536625, "fusion_lon": 0.0, "rental_uris": {"ios": "https://dc.lft.to/lastmile_qr_scan", "android": "https://dc.lft.to/lastmile_qr_scan"}, "lon": -76.99846766666667, "bike_id": "65d694d28331950c3becb9c1fb9030c1", "type": "electric_scooter", "name": "65d694d28331950c3becb9c1fb9030c1"}, {"is_disabled": 0, "is_reserved": 0, "fusion_lat": 0.0, "lat": 38.924763666666664, "fusion_lon": 0.0, "rental_uris": {"ios": "https://dc.lft.to/lastmile_qr_scan", "android": "https://dc.lft.to/lastmile_qr_scan"}, "lon": -77.03786666666667, "bike_id": "c480ce7e1e545e50e62a0fdff1be5497", "type": "electric_scooter", "name": "c480ce7e1e545e50e62a0fdff1be5497"}, {"is_disabled": 0, "is_reserved": 0, "fusion_lat": 0.0, "lat": 38.90229016666667, "fusion_lon": 0.0, "rental_uris": {"ios": "https://dc.lft.to/lastmile_qr_scan", "android": "https://dc.lft.to/lastmile_qr_scan"}, "lon": -77.00071633333333, "bike_id": "797ba2ce97268b220bf7e6b6a357ce69", "type": "electric_scooter", "name": "797ba2ce97268b220bf7e6b6a357ce69"}, {"is_disabled": 0, "is_reserved": 0, "fusion_lat": 0.0, "lat": 38.917066, "fusion_lon": 0.0, "rental_uris": {"ios": "https://dc.lft.to/lastmile_qr_scan", "android": "https://dc.lft.to/lastmile_qr_scan"}, "lon": -77.0385735, "bike_id": "1575c00a5798f71b4a495c691a41e4d2", "type": "electric_scooter", "name": "1575c00a5798f71b4a495c691a41e4d2"}, {"is_disabled": 0, "is_reserved": 0, "fusion_lat": 0.0, "lat": 38.936983833333336, "fusion_lon": 0.0, "rental_uris": {"ios": "https://dc.lft.to/lastmile_qr_scan", "android": "https://dc.lft.to/lastmile_qr_scan"}, "lon": -77.05597783333333, "bike_id": "902bf1b6f041e9e4a5cd6ef61162980f", "type": "electric_scooter", "name": "902bf1b6f041e9e4a5cd6ef61162980f"}, {"is_disabled": 0, "is_reserved": 0, "fusion_lat": 0.0, "lat": 38.88583216666667, "fusion_lon": 0.0, "rental_uris": {"ios": "https://dc.lft.to/lastmile_qr_scan", "android": "https://dc.lft.to/lastmile_qr_scan"}, "lon": -77.01226116666666, "bike_id": "8ca9eb0aeb68e751859a1628e2fc130f", "type": "electric_scooter", "name": "8ca9eb0aeb68e751859a1628e2fc130f"}, {"is_disabled": 0, "is_reserved": 0, "fusion_lat": 0.0, "lat": 38.89987466666667, "fusion_lon": 0.0, "rental_uris": {"ios": "https://dc.lft.to/lastmile_qr_scan", "android": "https://dc.lft.to/lastmile_qr_scan"}, "lon": -76.99474566666666, "bike_id": "d9abf81e5c36d1f17a750dc8dba4ea60", "type": "electric_bike", "name": "d9abf81e5c36d1f17a750dc8dba4ea60"}, {"is_disabled": 0, "is_reserved": 0, "fusion_lat": 0.0, "lat": 38.9525925, "fusion_lon": 0.0, "rental_uris": {"ios": "https://dc.lft.to/lastmile_qr_scan", "android": "https://dc.lft.to/lastmile_qr_scan"}, "lon": -77.02074683333333, "bike_id": "3b736b1ff3fa7f9b7711f043825ef45f", "type": "electric_scooter", "name": "3b736b1ff3fa7f9b7711f043825ef45f"}, {"is_disabled": 0, "is_reserved": 0, "fusion_lat": 0.0, "lat": 38.914561666666664, "fusion_lon": 0.0, "rental_uris": {"ios": "https://dc.lft.to/lastmile_qr_scan", "android": "https://dc.lft.to/lastmile_qr_scan"}, "lon": -77.04167383333333, "bike_id": "6f475cd9a1026c9d04fe03a9412e1cff", "type": "electric_scooter", "name": "6f475cd9a1026c9d04fe03a9412e1cff"}, {"is_disabled": 0, "is_reserved": 0, "fusion_lat": 0.0, "lat": 38.906766, "fusion_lon": 0.0, "rental_uris": {"ios": "https://dc.lft.to/lastmile_qr_scan", "android": "https://dc.lft.to/lastmile_qr_scan"}, "lon": -77.06297366666666, "bike_id": "f555766a428cce04bfdfb6dd0f43d703", "type": "electric_scooter", "name": "f555766a428cce04bfdfb6dd0f43d703"}, {"is_disabled": 0, "is_reserved": 0, "fusion_lat": 0.0, "lat": 38.89836316666667, "fusion_lon": 0.0, "rental_uris": {"ios": "https://dc.lft.to/lastmile_qr_scan", "android": "https://dc.lft.to/lastmile_qr_scan"}, "lon": -76.98828016666667, "bike_id": "fa0da8907481fb66af80e21badd1dc6f", "type": "electric_scooter", "name": "fa0da8907481fb66af80e21badd1dc6f"}, {"is_disabled": 0, "is_reserved": 0, "fusion_lat": 0.0, "lat": 38.88106416666667, "fusion_lon": 0.0, "rental_uris": {"ios": "https://dc.lft.to/lastmile_qr_scan", "android": "https://dc.lft.to/lastmile_qr_scan"}, "lon": -77.026283, "bike_id": "92e681493745e0b97f657167b2bc558c", "type": "electric_scooter", "name": "92e681493745e0b97f657167b2bc558c"}, {"is_disabled": 0, "is_reserved": 0, "fusion_lat": 0.0, "lat": 38.8767595, "fusion_lon": 0.0, "rental_uris": {"ios": "https://dc.lft.to/lastmile_qr_scan", "android": "https://dc.lft.to/lastmile_qr_scan"}, "lon": -77.00359116666667, "bike_id": "d09607a9f9333fce1de8596f40898953", "type": "electric_scooter", "name": "d09607a9f9333fce1de8596f40898953"}, {"is_disabled": 0, "is_reserved": 0, "fusion_lat": 0.0, "lat": 38.8987015, "fusion_lon": 0.0, "rental_uris": {"ios": "https://dc.lft.to/lastmile_qr_scan", "android": "https://dc.lft.to/lastmile_qr_scan"}, "lon": -77.0467505, "bike_id": "78c71bfc1fc256a62bc0d2aaede0325a", "type": "electric_scooter", "name": "78c71bfc1fc256a62bc0d2aaede0325a"}, {"is_disabled": 0, "is_reserved": 0, "fusion_lat": 0.0, "lat": 38.895183333333335, "fusion_lon": 0.0, "rental_uris": {"ios": "https://dc.lft.to/lastmile_qr_scan", "android": "https://dc.lft.to/lastmile_qr_scan"}, "lon": -77.02281633333334, "bike_id": "a808da47de62b28a28ce77289542ec00", "type": "electric_scooter", "name": "a808da47de62b28a28ce77289542ec00"}, {"is_disabled": 0, "is_reserved": 0, "fusion_lat": 0.0, "lat": 38.937498, "fusion_lon": 0.0, "rental_uris": {"ios": "https://dc.lft.to/lastmile_qr_scan", "android": "https://dc.lft.to/lastmile_qr_scan"}, "lon": -77.02441833333333, "bike_id": "5cf92c392f26ca01128e0601b7a020b4", "type": "electric_scooter", "name": "5cf92c392f26ca01128e0601b7a020b4"}, {"is_disabled": 0, "is_reserved": 0, "fusion_lat": 0.0, "lat": 38.8986075, "fusion_lon": 0.0, "rental_uris": {"ios": "https://dc.lft.to/lastmile_qr_scan", "android": "https://dc.lft.to/lastmile_qr_scan"}, "lon": -77.0190215, "bike_id": "17553dae9d3c3de1624840bd5c8c2f8f", "type": "electric_scooter", "name": "17553dae9d3c3de1624840bd5c8c2f8f"}, {"is_disabled": 0, "is_reserved": 0, "fusion_lat": 0.0, "lat": 38.927935, "fusion_lon": 0.0, "rental_uris": {"ios": "https://dc.lft.to/lastmile_qr_scan", "android": "https://dc.lft.to/lastmile_qr_scan"}, "lon": -77.03150716666667, "bike_id": "a763babcc32e85a0529f9631b710d72b", "type": "electric_scooter", "name": "a763babcc32e85a0529f9631b710d72b"}, {"is_disabled": 0, "is_reserved": 0, "fusion_lat": 0.0, "lat": 38.91885533333333, "fusion_lon": 0.0, "rental_uris": {"ios": "https://dc.lft.to/lastmile_qr_scan", "android": "https://dc.lft.to/lastmile_qr_scan"}, "lon": -77.02711416666666, "bike_id": "b45213d00667b84a399e647d8bfc3253", "type": "electric_scooter", "name": "b45213d00667b84a399e647d8bfc3253"}, {"is_disabled": 0, "is_reserved": 0, "fusion_lat": 0.0, "lat": 38.900384333333335, "fusion_lon": 0.0, "rental_uris": {"ios": "https://dc.lft.to/lastmile_qr_scan", "android": "https://dc.lft.to/lastmile_qr_scan"}, "lon": -76.99030816666667, "bike_id": "5f71e04313dce5492750d93e4e06803d", "type": "electric_bike", "name": "5f71e04313dce5492750d93e4e06803d"}, {"is_disabled": 0, "is_reserved": 0, "fusion_lat": 0.0, "lat": 38.9017415, "fusion_lon": 0.0, "rental_uris": {"ios": "https://dc.lft.to/lastmile_qr_scan", "android": "https://dc.lft.to/lastmile_qr_scan"}, "lon": -77.00215116666666, "bike_id": "c7c42f87634fef2cb295ee15f320c8a3", "type": "electric_scooter", "name": "c7c42f87634fef2cb295ee15f320c8a3"}, {"is_disabled": 0, "is_reserved": 0, "fusion_lat": 0.0, "lat": 38.9396895, "fusion_lon": 0.0, "rental_uris": {"ios": "https://dc.lft.to/lastmile_qr_scan", "android": "https://dc.lft.to/lastmile_qr_scan"}, "lon": -77.0325475, "bike_id": "55ac6343d5101049852a71f3174afae6", "type": "electric_scooter", "name": "55ac6343d5101049852a71f3174afae6"}, {"is_disabled": 0, "is_reserved": 0, "fusion_lat": 0.0, "lat": 38.92610833333333, "fusion_lon": 0.0, "rental_uris": {"ios": "https://dc.lft.to/lastmile_qr_scan", "android": "https://dc.lft.to/lastmile_qr_scan"}, "lon": -77.02161433333333, "bike_id": "e8c326c1daf065483f877b1b352e2ff4", "type": "electric_scooter", "name": "e8c326c1daf065483f877b1b352e2ff4"}, {"is_disabled": 0, "is_reserved": 0, "fusion_lat": 0.0, "lat": 39.000059, "fusion_lon": 0.0, "rental_uris": {"ios": "https://dc.lft.to/lastmile_qr_scan", "android": "https://dc.lft.to/lastmile_qr_scan"}, "lon": -76.910574, "bike_id": "8ae9999e3d743438220f28aaf8ae7123", "type": "electric_bike", "name": "8ae9999e3d743438220f28aaf8ae7123"}, {"is_disabled": 0, "is_reserved": 0, "fusion_lat": 0.0, "lat": 38.8936575, "fusion_lon": 0.0, "rental_uris": {"ios": "https://dc.lft.to/lastmile_qr_scan", "android": "https://dc.lft.to/lastmile_qr_scan"}, "lon": -77.0447305, "bike_id": "621079698dd2d81068e13abaece24a6a", "type": "electric_scooter", "name": "621079698dd2d81068e13abaece24a6a"}, {"is_disabled": 0, "is_reserved": 0, "fusion_lat": 0.0, "lat": 38.9277945, "fusion_lon": 0.0, "rental_uris": {"ios": "https://dc.lft.to/lastmile_qr_scan", "android": "https://dc.lft.to/lastmile_qr_scan"}, "lon": -77.0526255, "bike_id": "7a5f2e3c076e7c0aa97d4f0f2e296332", "type": "electric_scooter", "name": "7a5f2e3c076e7c0aa97d4f0f2e296332"}, {"is_disabled": 0, "is_reserved": 0, "fusion_lat": 0.0, "lat": 38.9398435, "fusion_lon": 0.0, "rental_uris": {"ios": "https://dc.lft.to/lastmile_qr_scan", "android": "https://dc.lft.to/lastmile_qr_scan"}, "lon": -77.0191005, "bike_id": "5c3fbbe1dea305e044c9c80162974bf8", "type": "electric_scooter", "name": "5c3fbbe1dea305e044c9c80162974bf8"}, {"is_disabled": 0, "is_reserved": 0, "fusion_lat": 0.0, "lat": 38.9416455, "fusion_lon": 0.0, "rental_uris": {"ios": "https://dc.lft.to/lastmile_qr_scan", "android": "https://dc.lft.to/lastmile_qr_scan"}, "lon": -76.99409683333333, "bike_id": "8a2ed0ce9b6c889f66d025bf8d498cc9", "type": "electric_bike", "name": "8a2ed0ce9b6c889f66d025bf8d498cc9"}, {"is_disabled": 0, "is_reserved": 0, "fusion_lat": 0.0, "lat": 38.914679666666665, "fusion_lon": 0.0, "rental_uris": {"ios": "https://dc.lft.to/lastmile_qr_scan", "android": "https://dc.lft.to/lastmile_qr_scan"}, "lon": -77.002112, "bike_id": "b44c17ee7c28d39d48554ef5d583e35d", "type": "electric_scooter", "name": "b44c17ee7c28d39d48554ef5d583e35d"}, {"is_disabled": 0, "is_reserved": 0, "fusion_lat": 0.0, "lat": 38.957378, "fusion_lon": 0.0, "rental_uris": {"ios": "https://dc.lft.to/lastmile_qr_scan", "android": "https://dc.lft.to/lastmile_qr_scan"}, "lon": -77.02321483333333, "bike_id": "e2af5650cd31ac1dcc1708fcc065ed82", "type": "electric_scooter", "name": "e2af5650cd31ac1dcc1708fcc065ed82"}, {"is_disabled": 0, "is_reserved": 0, "fusion_lat": 0.0, "lat": 38.875725833333334, "fusion_lon": 0.0, "rental_uris": {"ios": "https://dc.lft.to/lastmile_qr_scan", "android": "https://dc.lft.to/lastmile_qr_scan"}, "lon": -77.0059635, "bike_id": "a4b7460786e222975c0f90e50848ece3", "type": "electric_scooter", "name": "a4b7460786e222975c0f90e50848ece3"}, {"is_disabled": 0, "is_reserved": 0, "fusion_lat": 0.0, "lat": 38.926116666666665, "fusion_lon": 0.0, "rental_uris": {"ios": "https://dc.lft.to/lastmile_qr_scan", "android": "https://dc.lft.to/lastmile_qr_scan"}, "lon": -77.00653183333333, "bike_id": "5e4aee403f983d9d629b0441c122e248", "type": "electric_scooter", "name": "5e4aee403f983d9d629b0441c122e248"}, {"is_disabled": 0, "is_reserved": 0, "fusion_lat": 0.0, "lat": 38.912586166666664, "fusion_lon": 0.0, "rental_uris": {"ios": "https://dc.lft.to/lastmile_qr_scan", "android": "https://dc.lft.to/lastmile_qr_scan"}, "lon": -77.0479, "bike_id": "679c2b1fda19b955fa7cb01303066096", "type": "electric_scooter", "name": "679c2b1fda19b955fa7cb01303066096"}, {"is_disabled": 0, "is_reserved": 0, "fusion_lat": 0.0, "lat": 38.91565083333333, "fusion_lon": 0.0, "rental_uris": {"ios": "https://dc.lft.to/lastmile_qr_scan", "android": "https://dc.lft.to/lastmile_qr_scan"}, "lon": -77.03136183333334, "bike_id": "27d5334357b20a7c0362a648fa8ad1ce", "type": "electric_scooter", "name": "27d5334357b20a7c0362a648fa8ad1ce"}, {"is_disabled": 0, "is_reserved": 0, "fusion_lat": 0.0, "lat": 38.897348, "fusion_lon": 0.0, "rental_uris": {"ios": "https://dc.lft.to/lastmile_qr_scan", "android": "https://dc.lft.to/lastmile_qr_scan"}, "lon": -77.01050983333333, "bike_id": "5d809ad34dca1cbc6d53f987a781e17e", "type": "electric_scooter", "name": "5d809ad34dca1cbc6d53f987a781e17e"}, {"is_disabled": 0, "is_reserved": 0, "fusion_lat": 0.0, "lat": 38.94316933333333, "fusion_lon": 0.0, "rental_uris": {"ios": "https://dc.lft.to/lastmile_qr_scan", "android": "https://dc.lft.to/lastmile_qr_scan"}, "lon": -77.017263, "bike_id": "3681515d872f78cd5c4091233f39f973", "type": "electric_scooter", "name": "3681515d872f78cd5c4091233f39f973"}, {"is_disabled": 0, "is_reserved": 0, "fusion_lat": 0.0, "lat": 38.90717583333333, "fusion_lon": 0.0, "rental_uris": {"ios": "https://dc.lft.to/lastmile_qr_scan", "android": "https://dc.lft.to/lastmile_qr_scan"}, "lon": -77.003432, "bike_id": "550373e2fe9802d2d648ccbcc06590b1", "type": "electric_scooter", "name": "550373e2fe9802d2d648ccbcc06590b1"}, {"is_disabled": 0, "is_reserved": 0, "fusion_lat": 0.0, "lat": 38.893659, "fusion_lon": 0.0, "rental_uris": {"ios": "https://dc.lft.to/lastmile_qr_scan", "android": "https://dc.lft.to/lastmile_qr_scan"}, "lon": -77.01154233333334, "bike_id": "b178bc30f90d576bc9e27ce39173a3a0", "type": "electric_scooter", "name": "b178bc30f90d576bc9e27ce39173a3a0"}, {"is_disabled": 0, "is_reserved": 0, "fusion_lat": 0.0, "lat": 38.919196666666664, "fusion_lon": 0.0, "rental_uris": {"ios": "https://dc.lft.to/lastmile_qr_scan", "android": "https://dc.lft.to/lastmile_qr_scan"}, "lon": -77.00978216666667, "bike_id": "2d81c5d917aaea7b7d6bb7ff54f4f021", "type": "electric_scooter", "name": "2d81c5d917aaea7b7d6bb7ff54f4f021"}, {"is_disabled": 0, "is_reserved": 0, "fusion_lat": 0.0, "lat": 38.900466333333334, "fusion_lon": 0.0, "rental_uris": {"ios": "https://dc.lft.to/lastmile_qr_scan", "android": "https://dc.lft.to/lastmile_qr_scan"}, "lon": -77.01798533333333, "bike_id": "b3813bf8fb24d43e9cf8d3ee9b493a21", "type": "electric_scooter", "name": "b3813bf8fb24d43e9cf8d3ee9b493a21"}, {"is_disabled": 0, "is_reserved": 0, "fusion_lat": 0.0, "lat": 38.90776833333334, "fusion_lon": 0.0, "rental_uris": {"ios": "https://dc.lft.to/lastmile_qr_scan", "android": "https://dc.lft.to/lastmile_qr_scan"}, "lon": -77.06842283333333, "bike_id": "aabb51f8b78cf92fd471e9af9371cdf5", "type": "electric_scooter", "name": "aabb51f8b78cf92fd471e9af9371cdf5"}, {"is_disabled": 0, "is_reserved": 0, "fusion_lat": 0.0, "lat": 38.91841483333333, "fusion_lon": 0.0, "rental_uris": {"ios": "https://dc.lft.to/lastmile_qr_scan", "android": "https://dc.lft.to/lastmile_qr_scan"}, "lon": -77.0403475, "bike_id": "e675f37277f13ea2aea7776553c07a18", "type": "electric_scooter", "name": "e675f37277f13ea2aea7776553c07a18"}, {"is_disabled": 0, "is_reserved": 0, "fusion_lat": 0.0, "lat": 38.92380983333334, "fusion_lon": 0.0, "rental_uris": {"ios": "https://dc.lft.to/lastmile_qr_scan", "android": "https://dc.lft.to/lastmile_qr_scan"}, "lon": -77.02029883333333, "bike_id": "01a1afcc2fc03f0b4cef1b720274a82f", "type": "electric_scooter", "name": "01a1afcc2fc03f0b4cef1b720274a82f"}, {"is_disabled": 0, "is_reserved": 0, "fusion_lat": 0.0, "lat": 38.91709083333333, "fusion_lon": 0.0, "rental_uris": {"ios": "https://dc.lft.to/lastmile_qr_scan", "android": "https://dc.lft.to/lastmile_qr_scan"}, "lon": -77.036775, "bike_id": "faa7d36232d77ad0ae439504e97c11b0", "type": "electric_scooter", "name": "faa7d36232d77ad0ae439504e97c11b0"}, {"is_disabled": 0, "is_reserved": 0, "fusion_lat": 0.0, "lat": 38.9054175, "fusion_lon": 0.0, "rental_uris": {"ios": "https://dc.lft.to/lastmile_qr_scan", "android": "https://dc.lft.to/lastmile_qr_scan"}, "lon": -77.05704233333333, "bike_id": "589f33063ab1316a69c8ba74090fda89", "type": "electric_scooter", "name": "589f33063ab1316a69c8ba74090fda89"}, {"is_disabled": 0, "is_reserved": 0, "fusion_lat": 0.0, "lat": 38.855982833333336, "fusion_lon": 0.0, "rental_uris": {"ios": "https://dc.lft.to/lastmile_qr_scan", "android": "https://dc.lft.to/lastmile_qr_scan"}, "lon": -76.97270166666667, "bike_id": "61006779c1314f26b776d788eb7059c1", "type": "electric_bike", "name": "61006779c1314f26b776d788eb7059c1"}, {"is_disabled": 0, "is_reserved": 0, "fusion_lat": 0.0, "lat": 38.908544666666664, "fusion_lon": 0.0, "rental_uris": {"ios": "https://dc.lft.to/lastmile_qr_scan", "android": "https://dc.lft.to/lastmile_qr_scan"}, "lon": -76.99157666666666, "bike_id": "8cc1428085e41021255f06884e3ce292", "type": "electric_scooter", "name": "8cc1428085e41021255f06884e3ce292"}, {"is_disabled": 0, "is_reserved": 0, "fusion_lat": 0.0, "lat": 39.07440783333333, "fusion_lon": 0.0, "rental_uris": {"ios": "https://dc.lft.to/lastmile_qr_scan", "android": "https://dc.lft.to/lastmile_qr_scan"}, "lon": -77.1151755, "bike_id": "675d3bfef7dafced309704e4b23bd5ef", "type": "electric_bike", "name": "675d3bfef7dafced309704e4b23bd5ef"}, {"is_disabled": 0, "is_reserved": 0, "fusion_lat": 0.0, "lat": 38.911207833333336, "fusion_lon": 0.0, "rental_uris": {"ios": "https://dc.lft.to/lastmile_qr_scan", "android": "https://dc.lft.to/lastmile_qr_scan"}, "lon": -77.04364933333333, "bike_id": "d239904c5272b0a4b2cf43bc480c3cd2", "type": "electric_scooter", "name": "d239904c5272b0a4b2cf43bc480c3cd2"}, {"is_disabled": 0, "is_reserved": 0, "fusion_lat": 0.0, "lat": 38.89966316666667, "fusion_lon": 0.0, "rental_uris": {"ios": "https://dc.lft.to/lastmile_qr_scan", "android": "https://dc.lft.to/lastmile_qr_scan"}, "lon": -77.02389566666666, "bike_id": "0d593be29825104cfbc5ff2835c0dfc3", "type": "electric_scooter", "name": "0d593be29825104cfbc5ff2835c0dfc3"}, {"is_disabled": 0, "is_reserved": 0, "fusion_lat": 0.0, "lat": 38.9326575, "fusion_lon": 0.0, "rental_uris": {"ios": "https://dc.lft.to/lastmile_qr_scan", "android": "https://dc.lft.to/lastmile_qr_scan"}, "lon": -77.02096616666667, "bike_id": "dced56ef3a035bb51b05f72c1a66b57e", "type": "electric_scooter", "name": "dced56ef3a035bb51b05f72c1a66b57e"}, {"is_disabled": 0, "is_reserved": 0, "fusion_lat": 0.0, "lat": 38.8040125, "fusion_lon": 0.0, "rental_uris": {"ios": "https://dc.lft.to/lastmile_qr_scan", "android": "https://dc.lft.to/lastmile_qr_scan"}, "lon": -77.11329666666667, "bike_id": "7b91075a775bf4f3c4c005d0c8cd974a", "type": "electric_bike", "name": "7b91075a775bf4f3c4c005d0c8cd974a"}, {"is_disabled": 0, "is_reserved": 0, "fusion_lat": 0.0, "lat": 38.9224005, "fusion_lon": 0.0, "rental_uris": {"ios": "https://dc.lft.to/lastmile_qr_scan", "android": "https://dc.lft.to/lastmile_qr_scan"}, "lon": -77.03665, "bike_id": "091aae566e2c3d3a8b39e7e558ee8d4d", "type": "electric_scooter", "name": "091aae566e2c3d3a8b39e7e558ee8d4d"}, {"is_disabled": 0, "is_reserved": 0, "fusion_lat": 0.0, "lat": 38.9013915, "fusion_lon": 0.0, "rental_uris": {"ios": "https://dc.lft.to/lastmile_qr_scan", "android": "https://dc.lft.to/lastmile_qr_scan"}, "lon": -77.00353016666666, "bike_id": "75c3f6b099cba430f95c7813c2b5992a", "type": "electric_scooter", "name": "75c3f6b099cba430f95c7813c2b5992a"}, {"is_disabled": 0, "is_reserved": 0, "fusion_lat": 0.0, "lat": 38.91043666666667, "fusion_lon": 0.0, "rental_uris": {"ios": "https://dc.lft.to/lastmile_qr_scan", "android": "https://dc.lft.to/lastmile_qr_scan"}, "lon": -76.998027, "bike_id": "ad614cf8233da11df5e778959a3e3246", "type": "electric_scooter", "name": "ad614cf8233da11df5e778959a3e3246"}, {"is_disabled": 0, "is_reserved": 0, "fusion_lat": 0.0, "lat": 38.89618866666667, "fusion_lon": 0.0, "rental_uris": {"ios": "https://dc.lft.to/lastmile_qr_scan", "android": "https://dc.lft.to/lastmile_qr_scan"}, "lon": -77.02697016666667, "bike_id": "7d93007584e3d89fa5514a161fe29846", "type": "electric_scooter", "name": "7d93007584e3d89fa5514a161fe29846"}, {"is_disabled": 0, "is_reserved": 0, "fusion_lat": 0.0, "lat": 38.89276983333333, "fusion_lon": 0.0, "rental_uris": {"ios": "https://dc.lft.to/lastmile_qr_scan", "android": "https://dc.lft.to/lastmile_qr_scan"}, "lon": -77.04499366666667, "bike_id": "5b6628e4a18ddf361dc7c084086a300d", "type": "electric_scooter", "name": "5b6628e4a18ddf361dc7c084086a300d"}, {"is_disabled": 0, "is_reserved": 0, "fusion_lat": 0.0, "lat": 38.91054666666667, "fusion_lon": 0.0, "rental_uris": {"ios": "https://dc.lft.to/lastmile_qr_scan", "android": "https://dc.lft.to/lastmile_qr_scan"}, "lon": -77.022118, "bike_id": "3e7a06b35bdad74db860fa42646bc87c", "type": "electric_scooter", "name": "3e7a06b35bdad74db860fa42646bc87c"}, {"is_disabled": 0, "is_reserved": 0, "fusion_lat": 0.0, "lat": 38.92042283333333, "fusion_lon": 0.0, "rental_uris": {"ios": "https://dc.lft.to/lastmile_qr_scan", "android": "https://dc.lft.to/lastmile_qr_scan"}, "lon": -77.02592333333334, "bike_id": "3178a916295f9c633370ca784d3a5c4d", "type": "electric_scooter", "name": "3178a916295f9c633370ca784d3a5c4d"}, {"is_disabled": 0, "is_reserved": 0, "fusion_lat": 0.0, "lat": 38.8409675, "fusion_lon": 0.0, "rental_uris": {"ios": "https://dc.lft.to/lastmile_qr_scan", "android": "https://dc.lft.to/lastmile_qr_scan"}, "lon": -76.987098, "bike_id": "1e4b1bbaf5c837c3de4410089488eca7", "type": "electric_bike", "name": "1e4b1bbaf5c837c3de4410089488eca7"}, {"is_disabled": 0, "is_reserved": 0, "fusion_lat": 0.0, "lat": 38.927073666666665, "fusion_lon": 0.0, "rental_uris": {"ios": "https://dc.lft.to/lastmile_qr_scan", "android": "https://dc.lft.to/lastmile_qr_scan"}, "lon": -77.02105083333333, "bike_id": "d40980b343adc2f6ed5b1d39564cde5c", "type": "electric_scooter", "name": "d40980b343adc2f6ed5b1d39564cde5c"}, {"is_disabled": 0, "is_reserved": 0, "fusion_lat": 0.0, "lat": 38.87178333333333, "fusion_lon": 0.0, "rental_uris": {"ios": "https://dc.lft.to/lastmile_qr_scan", "android": "https://dc.lft.to/lastmile_qr_scan"}, "lon": -77.00615966666666, "bike_id": "599a65ccce9e5f873ac1f3f9374eca59", "type": "electric_scooter", "name": "599a65ccce9e5f873ac1f3f9374eca59"}, {"is_disabled": 0, "is_reserved": 0, "fusion_lat": 0.0, "lat": 38.930627333333334, "fusion_lon": 0.0, "rental_uris": {"ios": "https://dc.lft.to/lastmile_qr_scan", "android": "https://dc.lft.to/lastmile_qr_scan"}, "lon": -77.03368916666666, "bike_id": "062c95cec37d1da308209e4843f3511f", "type": "electric_scooter", "name": "062c95cec37d1da308209e4843f3511f"}, {"is_disabled": 0, "is_reserved": 0, "fusion_lat": 0.0, "lat": 38.9062505, "fusion_lon": 0.0, "rental_uris": {"ios": "https://dc.lft.to/lastmile_qr_scan", "android": "https://dc.lft.to/lastmile_qr_scan"},