{"data": {"bikes": [{"lat": 38.908365, "is_disabled": 0, "type": "electric_scooter", "lon": -77.04347583333333, "bike_id": "8a93c867b04a3d715bd24213fe5ef45a", "fusion_lat": 0.0, "name": "8a93c867b04a3d715bd24213fe5ef45a", "is_reserved": 0, "rental_uris": {"android": "https://dc.lft.to/lastmile_qr_scan", "ios": "https://dc.lft.to/lastmile_qr_scan"}, "fusion_lon": 0.0}, {"lat": 38.981260166666665, "is_disabled": 0, "type": "electric_bike", "lon": -77.0954075, "bike_id": "128ea04e6edbf84d871f37a2d57560af", "fusion_lat": 0.0, "name": "128ea04e6edbf84d871f37a2d57560af", "is_reserved": 0, "rental_uris": {"android": "https://dc.lft.to/lastmile_qr_scan", "ios": "https://dc.lft.to/lastmile_qr_scan"}, "fusion_lon": 0.0}, {"lat": 38.903421, "is_disabled": 0, "type": "electric_scooter", "lon": -77.04490383333334, "bike_id": "df3d7b7d1d8c7dbd6a36b18cd7c4d73a", "fusion_lat": 0.0, "name": "df3d7b7d1d8c7dbd6a36b18cd7c4d73a", "is_reserved": 0, "rental_uris": {"android": "https://dc.lft.to/lastmile_qr_scan", "ios": "https://dc.lft.to/lastmile_qr_scan"}, "fusion_lon": 0.0}, {"lat": 38.927972833333335, "is_disabled": 0, "type": "electric_scooter", "lon": -77.02600566666666, "bike_id": "0f1146b37f9c43c3289fda43a5abbce8", "fusion_lat": 0.0, "name": "0f1146b37f9c43c3289fda43a5abbce8", "is_reserved": 0, "rental_uris": {"android": "https://dc.lft.to/lastmile_qr_scan", "ios": "https://dc.lft.to/lastmile_qr_scan"}, "fusion_lon": 0.0}, {"lat": 38.92108833333333, "is_disabled": 0, "type": "electric_scooter", "lon": -77.04701733333333, "bike_id": "af60a3fb1192549c249031090f540118", "fusion_lat": 0.0, "name": "af60a3fb1192549c249031090f540118", "is_reserved": 0, "rental_uris": {"android": "https://dc.lft.to/lastmile_qr_scan", "ios": "https://dc.lft.to/lastmile_qr_scan"}, "fusion_lon": 0.0}, {"lat": 38.863707, "is_disabled": 0, "type": "electric_scooter", "lon": -76.99034766666666, "bike_id": "f15f1dc4d9ac015fe823cb5b9121966d", "fusion_lat": 0.0, "name": "f15f1dc4d9ac015fe823cb5b9121966d", "is_reserved": 0, "rental_uris": {"android": "https://dc.lft.to/lastmile_qr_scan", "ios": "https://dc.lft.to/lastmile_qr_scan"}, "fusion_lon": 0.0}, {"lat": 38.920748, "is_disabled": 0, "type": "electric_scooter", "lon": -77.03258183333334, "bike_id": "74bf1de42f92cfa11d1cd9ab30901326", "fusion_lat": 0.0, "name": "74bf1de42f92cfa11d1cd9ab30901326", "is_reserved": 0, "rental_uris": {"android": "https://dc.lft.to/lastmile_qr_scan", "ios": "https://dc.lft.to/lastmile_qr_scan"}, "fusion_lon": 0.0}, {"lat": 38.918067666666666, "is_disabled": 0, "type": "electric_scooter", "lon": -77.03201133333333, "bike_id": "88bd70a29836e2a8fe6333c24499a895", "fusion_lat": 0.0, "name": "88bd70a29836e2a8fe6333c24499a895", "is_reserved": 0, "rental_uris": {"android": "https://dc.lft.to/lastmile_qr_scan", "ios": "https://dc.lft.to/lastmile_qr_scan"}, "fusion_lon": 0.0}, {"lat": 38.885384, "is_disabled": 0, "type": "electric_scooter", "lon": -76.982703, "bike_id": "ffcd25302703a210afef6b4ef028d500", "fusion_lat": 0.0, "name": "ffcd25302703a210afef6b4ef028d500", "is_reserved": 0, "rental_uris": {"android": "https://dc.lft.to/lastmile_qr_scan", "ios": "https://dc.lft.to/lastmile_qr_scan"}, "fusion_lon": 0.0}, {"lat": 38.9338775, "is_disabled": 0, "type": "electric_scooter", "lon": -76.9951195, "bike_id": "42645b65d0b64facbe0f907def1a76c3", "fusion_lat": 0.0, "name": "42645b65d0b64facbe0f907def1a76c3", "is_reserved": 0, "rental_uris": {"android": "https://dc.lft.to/lastmile_qr_scan", "ios": "https://dc.lft.to/lastmile_qr_scan"}, "fusion_lon": 0.0}, {"lat": 38.802333, "is_disabled": 0, "type": "electric_bike", "lon": -77.07919533333333, "bike_id": "5179fdb8276dbd60b4c2730bd486f943", "fusion_lat": 0.0, "name": "5179fdb8276dbd60b4c2730bd486f943", "is_reserved": 0, "rental_uris": {"android": "https://dc.lft.to/lastmile_qr_scan", "ios": "https://dc.lft.to/lastmile_qr_scan"}, "fusion_lon": 0.0}, {"lat": 38.9244455, "is_disabled": 0, "type": "electric_scooter", "lon": -77.052123, "bike_id": "124324491f29ba1451a7eac55131d98a", "fusion_lat": 0.0, "name": "124324491f29ba1451a7eac55131d98a", "is_reserved": 0, "rental_uris": {"android": "https://dc.lft.to/lastmile_qr_scan", "ios": "https://dc.lft.to/lastmile_qr_scan"}, "fusion_lon": 0.0}, {"lat": 38.80068816666667, "is_disabled": 0, "type": "electric_bike", "lon": -77.07129866666666, "bike_id": "70576ec9b482c0bdb03e9a7da465c440", "fusion_lat": 0.0, "name": "70576ec9b482c0bdb03e9a7da465c440", "is_reserved": 0, "rental_uris": {"android": "https://dc.lft.to/lastmile_qr_scan", "ios": "https://dc.lft.to/lastmile_qr_scan"}, "fusion_lon": 0.0}, {"lat": 38.921742, "is_disabled": 0, "type": "electric_scooter", "lon": -77.0514, "bike_id": "896b10a666e73e47d157a63ab1e6d065", "fusion_lat": 0.0, "name": "896b10a666e73e47d157a63ab1e6d065", "is_reserved": 0, "rental_uris": {"android": "https://dc.lft.to/lastmile_qr_scan", "ios": "https://dc.lft.to/lastmile_qr_scan"}, "fusion_lon": 0.0}, {"lat": 38.918164833333336, "is_disabled": 0, "type": "electric_scooter", "lon": -76.9996975, "bike_id": "813f99f7261dd4cbc917fbe957bc7bc1", "fusion_lat": 0.0, "name": "813f99f7261dd4cbc917fbe957bc7bc1", "is_reserved": 0, "rental_uris": {"android": "https://dc.lft.to/lastmile_qr_scan", "ios": "https://dc.lft.to/lastmile_qr_scan"}, "fusion_lon": 0.0}, {"lat": 38.85227366666667, "is_disabled": 0, "type": "electric_bike", "lon": -77.12959166666667, "bike_id": "c209b5daa39f34fbf3c8720f312b4ef2", "fusion_lat": 0.0, "name": "c209b5daa39f34fbf3c8720f312b4ef2", "is_reserved": 0, "rental_uris": {"android": "https://dc.lft.to/lastmile_qr_scan", "ios": "https://dc.lft.to/lastmile_qr_scan"}, "fusion_lon": 0.0}, {"lat": 38.934653, "is_disabled": 0, "type": "electric_scooter", "lon": -77.032438, "bike_id": "213c55dc0f1e084d5c0e41bae2812aca", "fusion_lat": 0.0, "name": "213c55dc0f1e084d5c0e41bae2812aca", "is_reserved": 0, "rental_uris": {"android": "https://dc.lft.to/lastmile_qr_scan", "ios": "https://dc.lft.to/lastmile_qr_scan"}, "fusion_lon": 0.0}, {"lat": 38.9099865, "is_disabled": 0, "type": "electric_scooter", "lon": -77.0400885, "bike_id": "dec0dd643ca45fc20ba41d28195184db", "fusion_lat": 0.0, "name": "dec0dd643ca45fc20ba41d28195184db", "is_reserved": 0, "rental_uris": {"android": "https://dc.lft.to/lastmile_qr_scan", "ios": "https://dc.lft.to/lastmile_qr_scan"}, "fusion_lon": 0.0}, {"lat": 38.932325166666665, "is_disabled": 0, "type": "electric_scooter", "lon": -77.04412266666667, "bike_id": "31391126ecf078cc2c0cc4dfba1fd625", "fusion_lat": 0.0, "name": "31391126ecf078cc2c0cc4dfba1fd625", "is_reserved": 0, "rental_uris": {"android": "https://dc.lft.to/lastmile_qr_scan", "ios": "https://dc.lft.to/lastmile_qr_scan"}, "fusion_lon": 0.0}, {"lat": 38.92169083333334, "is_disabled": 0, "type": "electric_scooter", "lon": -77.04020816666667, "bike_id": "0a8e3f0bb8acb8f4af917b6d7edfa7d4", "fusion_lat": 0.0, "name": "0a8e3f0bb8acb8f4af917b6d7edfa7d4", "is_reserved": 0, "rental_uris": {"android": "https://dc.lft.to/lastmile_qr_scan", "ios": "https://dc.lft.to/lastmile_qr_scan"}, "fusion_lon": 0.0}, {"lat": 38.86518016666667, "is_disabled": 0, "type": "electric_scooter", "lon": -76.990299, "bike_id": "9db8d2bafa949cfa64ac9d39f17cfc41", "fusion_lat": 0.0, "name": "9db8d2bafa949cfa64ac9d39f17cfc41", "is_reserved": 0, "rental_uris": {"android": "https://dc.lft.to/lastmile_qr_scan", "ios": "https://dc.lft.to/lastmile_qr_scan"}, "fusion_lon": 0.0}, {"lat": 38.885244166666666, "is_disabled": 0, "type": "electric_scooter", "lon": -77.01512966666667, "bike_id": "e9ecaf3a70fd3f89679a2ce1490128fe", "fusion_lat": 0.0, "name": "e9ecaf3a70fd3f89679a2ce1490128fe", "is_reserved": 0, "rental_uris": {"android": "https://dc.lft.to/lastmile_qr_scan", "ios": "https://dc.lft.to/lastmile_qr_scan"}, "fusion_lon": 0.0}, {"lat": 38.917691, "is_disabled": 0, "type": "electric_scooter", "lon": -77.00452266666667, "bike_id": "ad483446a96c81fa49fa88cde5d395dc", "fusion_lat": 0.0, "name": "ad483446a96c81fa49fa88cde5d395dc", "is_reserved": 0, "rental_uris": {"android": "https://dc.lft.to/lastmile_qr_scan", "ios": "https://dc.lft.to/lastmile_qr_scan"}, "fusion_lon": 0.0}, {"lat": 38.866002, "is_disabled": 0, "type": "electric_bike", "lon": -76.93229166666667, "bike_id": "a52dd4cf0617f0bbd52bd9e10cf78ffe", "fusion_lat": 0.0, "name": "a52dd4cf0617f0bbd52bd9e10cf78ffe", "is_reserved": 0, "rental_uris": {"android": "https://dc.lft.to/lastmile_qr_scan", "ios": "https://dc.lft.to/lastmile_qr_scan"}, "fusion_lon": 0.0}, {"lat": 38.920176166666664, "is_disabled": 0, "type": "electric_scooter", "lon": -77.04180816666667, "bike_id": "5eee8207471f0f047146dcb2eb684476", "fusion_lat": 0.0, "name": "5eee8207471f0f047146dcb2eb684476", "is_reserved": 0, "rental_uris": {"android": "https://dc.lft.to/lastmile_qr_scan", "ios": "https://dc.lft.to/lastmile_qr_scan"}, "fusion_lon": 0.0}, {"lat": 38.90049583333333, "is_disabled": 0, "type": "electric_scooter", "lon": -77.00745366666666, "bike_id": "31836bbd4d66d54f42d7e830c602623b", "fusion_lat": 0.0, "name": "31836bbd4d66d54f42d7e830c602623b", "is_reserved": 0, "rental_uris": {"android": "https://dc.lft.to/lastmile_qr_scan", "ios": "https://dc.lft.to/lastmile_qr_scan"}, "fusion_lon": 0.0}, {"lat": 38.892282333333334, "is_disabled": 0, "type": "electric_scooter", "lon": -77.04871066666666, "bike_id": "b3cf4240a0f70e5ede9f672f55f6e453", "fusion_lat": 0.0, "name": "b3cf4240a0f70e5ede9f672f55f6e453", "is_reserved": 0, "rental_uris": {"android": "https://dc.lft.to/lastmile_qr_scan", "ios": "https://dc.lft.to/lastmile_qr_scan"}, "fusion_lon": 0.0}, {"lat": 38.96218533333333, "is_disabled": 0, "type": "electric_bike", "lon": -77.02791716666667, "bike_id": "4b5d4c8687920d05c27ecaeba6cbc2f8", "fusion_lat": 0.0, "name": "4b5d4c8687920d05c27ecaeba6cbc2f8", "is_reserved": 0, "rental_uris": {"android": "https://dc.lft.to/lastmile_qr_scan", "ios": "https://dc.lft.to/lastmile_qr_scan"}, "fusion_lon": 0.0}, {"lat": 38.94825483333334, "is_disabled": 0, "type": "electric_scooter", "lon": -76.99906283333334, "bike_id": "6dd567877ea99cea87c5b2785b0fb3f8", "fusion_lat": 0.0, "name": "6dd567877ea99cea87c5b2785b0fb3f8", "is_reserved": 0, "rental_uris": {"android": "https://dc.lft.to/lastmile_qr_scan", "ios": "https://dc.lft.to/lastmile_qr_scan"}, "fusion_lon": 0.0}, {"lat": 38.92117616666667, "is_disabled": 0, "type": "electric_scooter", "lon": -77.04173066666667, "bike_id": "085eb51b02950f7423a715ce0658ad94", "fusion_lat": 0.0, "name": "085eb51b02950f7423a715ce0658ad94", "is_reserved": 0, "rental_uris": {"android": "https://dc.lft.to/lastmile_qr_scan", "ios": "https://dc.lft.to/lastmile_qr_scan"}, "fusion_lon": 0.0}, {"lat": 38.9174805, "is_disabled": 0, "type": "electric_scooter", "lon": -77.03209383333333, "bike_id": "6c7bab6d53d7e550915e18177b9642c5", "fusion_lat": 0.0, "name": "6c7bab6d53d7e550915e18177b9642c5", "is_reserved": 0, "rental_uris": {"android": "https://dc.lft.to/lastmile_qr_scan", "ios": "https://dc.lft.to/lastmile_qr_scan"}, "fusion_lon": 0.0}, {"lat": 38.94470233333333, "is_disabled": 0, "type": "electric_scooter", "lon": -77.06039766666666, "bike_id": "0e9fb01c88e235d1ce6397b3d8003da7", "fusion_lat": 0.0, "name": "0e9fb01c88e235d1ce6397b3d8003da7", "is_reserved": 0, "rental_uris": {"android": "https://dc.lft.to/lastmile_qr_scan", "ios": "https://dc.lft.to/lastmile_qr_scan"}, "fusion_lon": 0.0}, {"lat": 38.90249633333333, "is_disabled": 0, "type": "electric_scooter", "lon": -77.039471, "bike_id": "9a9fd01dd81bac994c5dc50e8e9524b0", "fusion_lat": 0.0, "name": "9a9fd01dd81bac994c5dc50e8e9524b0", "is_reserved": 0, "rental_uris": {"android": "https://dc.lft.to/lastmile_qr_scan", "ios": "https://dc.lft.to/lastmile_qr_scan"}, "fusion_lon": 0.0}, {"lat": 38.98823183333333, "is_disabled": 0, "type": "electric_bike", "lon": -77.02655566666667, "bike_id": "916c3f5dd1acf91e322e5c83133806db", "fusion_lat": 0.0, "name": "916c3f5dd1acf91e322e5c83133806db", "is_reserved": 0, "rental_uris": {"android": "https://dc.lft.to/lastmile_qr_scan", "ios": "https://dc.lft.to/lastmile_qr_scan"}, "fusion_lon": 0.0}, {"lat": 38.92456216666667, "is_disabled": 0, "type": "electric_scooter", "lon": -77.0419955, "bike_id": "70a9a8cacad951d3a3cb8d06a5bf7d2f", "fusion_lat": 0.0, "name": "70a9a8cacad951d3a3cb8d06a5bf7d2f", "is_reserved": 0, "rental_uris": {"android": "https://dc.lft.to/lastmile_qr_scan", "ios": "https://dc.lft.to/lastmile_qr_scan"}, "fusion_lon": 0.0}, {"lat": 38.896843, "is_disabled": 0, "type": "electric_scooter", "lon": -76.93610416666667, "bike_id": "7dfce936acb6c01f0680651948971e3c", "fusion_lat": 0.0, "name": "7dfce936acb6c01f0680651948971e3c", "is_reserved": 0, "rental_uris": {"android": "https://dc.lft.to/lastmile_qr_scan", "ios": "https://dc.lft.to/lastmile_qr_scan"}, "fusion_lon": 0.0}, {"lat": 38.90134333333334, "is_disabled": 0, "type": "electric_scooter", "lon": -77.01768416666667, "bike_id": "57ec94078e8113fa59bf6c019471aea9", "fusion_lat": 0.0, "name": "57ec94078e8113fa59bf6c019471aea9", "is_reserved": 0, "rental_uris": {"android": "https://dc.lft.to/lastmile_qr_scan", "ios": "https://dc.lft.to/lastmile_qr_scan"}, "fusion_lon": 0.0}, {"lat": 38.9306455, "is_disabled": 0, "type": "electric_scooter", "lon": -77.03401633333333, "bike_id": "3e66417b82ddb09c19ccf2b5bcca462e", "fusion_lat": 0.0, "name": "3e66417b82ddb09c19ccf2b5bcca462e", "is_reserved": 0, "rental_uris": {"android": "https://dc.lft.to/lastmile_qr_scan", "ios": "https://dc.lft.to/lastmile_qr_scan"}, "fusion_lon": 0.0}, {"lat": 38.88454466666666, "is_disabled": 0, "type": "electric_scooter", "lon": -76.950975, "bike_id": "250ea78d7f55016d65ecb2862a7278d3", "fusion_lat": 0.0, "name": "250ea78d7f55016d65ecb2862a7278d3", "is_reserved": 0, "rental_uris": {"android": "https://dc.lft.to/lastmile_qr_scan", "ios": "https://dc.lft.to/lastmile_qr_scan"}, "fusion_lon": 0.0}, {"lat": 38.905902, "is_disabled": 0, "type": "electric_scooter", "lon": -76.9862045, "bike_id": "3bd5f07ba4c30a8e8d96906bba9d2dd2", "fusion_lat": 0.0, "name": "3bd5f07ba4c30a8e8d96906bba9d2dd2", "is_reserved": 0, "rental_uris": {"android": "https://dc.lft.to/lastmile_qr_scan", "ios": "https://dc.lft.to/lastmile_qr_scan"}, "fusion_lon": 0.0}, {"lat": 38.84511233333333, "is_disabled": 0, "type": "electric_bike", "lon": -76.99354566666666, "bike_id": "601eb1e964c164de8013ef16fbb17b22", "fusion_lat": 0.0, "name": "601eb1e964c164de8013ef16fbb17b22", "is_reserved": 0, "rental_uris": {"android": "https://dc.lft.to/lastmile_qr_scan", "ios": "https://dc.lft.to/lastmile_qr_scan"}, "fusion_lon": 0.0}, {"lat": 38.911126833333334, "is_disabled": 0, "type": "electric_scooter", "lon": -77.045278, "bike_id": "05bfa959e22922d8e9aa0d226d5bb28e", "fusion_lat": 0.0, "name": "05bfa959e22922d8e9aa0d226d5bb28e", "is_reserved": 0, "rental_uris": {"android": "https://dc.lft.to/lastmile_qr_scan", "ios": "https://dc.lft.to/lastmile_qr_scan"}, "fusion_lon": 0.0}, {"lat": 38.908412, "is_disabled": 0, "type": "electric_scooter", "lon": -77.04345816666667, "bike_id": "290ff5881cd038e2d81a6836ccc24f29", "fusion_lat": 0.0, "name": "290ff5881cd038e2d81a6836ccc24f29", "is_reserved": 0, "rental_uris": {"android": "https://dc.lft.to/lastmile_qr_scan", "ios": "https://dc.lft.to/lastmile_qr_scan"}, "fusion_lon": 0.0}, {"lat": 38.90426866666667, "is_disabled": 0, "type": "electric_scooter", "lon": -77.0532555, "bike_id": "96e904df3becfe963be9fd0579f0f9fb", "fusion_lat": 0.0, "name": "96e904df3becfe963be9fd0579f0f9fb", "is_reserved": 0, "rental_uris": {"android": "https://dc.lft.to/lastmile_qr_scan", "ios": "https://dc.lft.to/lastmile_qr_scan"}, "fusion_lon": 0.0}, {"lat": 38.939224833333334, "is_disabled": 0, "type": "electric_scooter", "lon": -77.06677916666666, "bike_id": "6d4e4895866eaaa9620521e40c7e029e", "fusion_lat": 0.0, "name": "6d4e4895866eaaa9620521e40c7e029e", "is_reserved": 0, "rental_uris": {"android": "https://dc.lft.to/lastmile_qr_scan", "ios": "https://dc.lft.to/lastmile_qr_scan"}, "fusion_lon": 0.0}, {"lat": 38.86712516666667, "is_disabled": 0, "type": "electric_scooter", "lon": -76.98725933333333, "bike_id": "0f4d91e88970f31e4e366feeaf96ede9", "fusion_lat": 0.0, "name": "0f4d91e88970f31e4e366feeaf96ede9", "is_reserved": 0, "rental_uris": {"android": "https://dc.lft.to/lastmile_qr_scan", "ios": "https://dc.lft.to/lastmile_qr_scan"}, "fusion_lon": 0.0}, {"lat": 38.918895, "is_disabled": 0, "type": "electric_scooter", "lon": -77.03504583333333, "bike_id": "d78c53397c9858ae30902e977d77bc7c", "fusion_lat": 0.0, "name": "d78c53397c9858ae30902e977d77bc7c", "is_reserved": 0, "rental_uris": {"android": "https://dc.lft.to/lastmile_qr_scan", "ios": "https://dc.lft.to/lastmile_qr_scan"}, "fusion_lon": 0.0}, {"lat": 38.90861683333333, "is_disabled": 0, "type": "electric_bike", "lon": -76.94009983333333, "bike_id": "2a0bfa8eff4a4eebaf16d3dae4524de7", "fusion_lat": 0.0, "name": "2a0bfa8eff4a4eebaf16d3dae4524de7", "is_reserved": 0, "rental_uris": {"android": "https://dc.lft.to/lastmile_qr_scan", "ios": "https://dc.lft.to/lastmile_qr_scan"}, "fusion_lon": 0.0}, {"lat": 38.896562833333334, "is_disabled": 0, "type": "electric_scooter", "lon": -77.00519566666667, "bike_id": "6263e910e2609f1bf75f0963af524d03", "fusion_lat": 0.0, "name": "6263e910e2609f1bf75f0963af524d03", "is_reserved": 0, "rental_uris": {"android": "https://dc.lft.to/lastmile_qr_scan", "ios": "https://dc.lft.to/lastmile_qr_scan"}, "fusion_lon": 0.0}, {"lat": 38.869080333333336, "is_disabled": 0, "type": "electric_bike", "lon": -77.1317895, "bike_id": "975ef96d4ad05b1a15e53056ecdbb6d8", "fusion_lat": 0.0, "name": "975ef96d4ad05b1a15e53056ecdbb6d8", "is_reserved": 0, "rental_uris": {"android": "https://dc.lft.to/lastmile_qr_scan", "ios": "https://dc.lft.to/lastmile_qr_scan"}, "fusion_lon": 0.0}, {"lat": 38.886091, "is_disabled": 0, "type": "electric_scooter", "lon": -77.02216866666667, "bike_id": "71021e8af5ad4efb1b2842de22a4dbff", "fusion_lat": 0.0, "name": "71021e8af5ad4efb1b2842de22a4dbff", "is_reserved": 0, "rental_uris": {"android": "https://dc.lft.to/lastmile_qr_scan", "ios": "https://dc.lft.to/lastmile_qr_scan"}, "fusion_lon": 0.0}, {"lat": 38.9317255, "is_disabled": 0, "type": "electric_scooter", "lon": -77.02821066666667, "bike_id": "115c4dd2cad33af58fc3629020a79b52", "fusion_lat": 0.0, "name": "115c4dd2cad33af58fc3629020a79b52", "is_reserved": 0, "rental_uris": {"android": "https://dc.lft.to/lastmile_qr_scan", "ios": "https://dc.lft.to/lastmile_qr_scan"}, "fusion_lon": 0.0}, {"lat": 38.89049816666667, "is_disabled": 0, "type": "electric_scooter", "lon": -76.95141583333333, "bike_id": "f34f1400fe74bb2df7a5dcb585d807d3", "fusion_lat": 0.0, "name": "f34f1400fe74bb2df7a5dcb585d807d3", "is_reserved": 0, "rental_uris": {"android": "https://dc.lft.to/lastmile_qr_scan", "ios": "https://dc.lft.to/lastmile_qr_scan"}, "fusion_lon": 0.0}, {"lat": 38.906604333333334, "is_disabled": 0, "type": "electric_scooter", "lon": -77.02598116666667, "bike_id": "5e7b04900857df52acf9e110ee32d786", "fusion_lat": 0.0, "name": "5e7b04900857df52acf9e110ee32d786", "is_reserved": 0, "rental_uris": {"android": "https://dc.lft.to/lastmile_qr_scan", "ios": "https://dc.lft.to/lastmile_qr_scan"}, "fusion_lon": 0.0}, {"lat": 38.91611183333333, "is_disabled": 0, "type": "electric_scooter", "lon": -77.02127866666666, "bike_id": "53b721b8dc5f389e3c411a8ce6ab4951", "fusion_lat": 0.0, "name": "53b721b8dc5f389e3c411a8ce6ab4951", "is_reserved": 0, "rental_uris": {"android": "https://dc.lft.to/lastmile_qr_scan", "ios": "https://dc.lft.to/lastmile_qr_scan"}, "fusion_lon": 0.0}, {"lat": 38.91771333333333, "is_disabled": 0, "type": "electric_scooter", "lon": -77.023074, "bike_id": "54d287d7289b5bbf307016976940032e", "fusion_lat": 0.0, "name": "54d287d7289b5bbf307016976940032e", "is_reserved": 0, "rental_uris": {"android": "https://dc.lft.to/lastmile_qr_scan", "ios": "https://dc.lft.to/lastmile_qr_scan"}, "fusion_lon": 0.0}, {"lat": 38.92011683333333, "is_disabled": 0, "type": "electric_scooter", "lon": -77.02059083333333, "bike_id": "410ffc418a6742916701c18043d0a6e2", "fusion_lat": 0.0, "name": "410ffc418a6742916701c18043d0a6e2", "is_reserved": 0, "rental_uris": {"android": "https://dc.lft.to/lastmile_qr_scan", "ios": "https://dc.lft.to/lastmile_qr_scan"}, "fusion_lon": 0.0}, {"lat": 38.840307333333335, "is_disabled": 0, "type": "electric_bike", "lon": -76.9761135, "bike_id": "3492ab3f7d48ac892a15526853b901c7", "fusion_lat": 0.0, "name": "3492ab3f7d48ac892a15526853b901c7", "is_reserved": 0, "rental_uris": {"android": "https://dc.lft.to/lastmile_qr_scan", "ios": "https://dc.lft.to/lastmile_qr_scan"}, "fusion_lon": 0.0}, {"lat": 38.90789083333333, "is_disabled": 0, "type": "electric_scooter", "lon": -77.04247283333333, "bike_id": "6b3e15791717dfcae4f10fdaf7ac5dcf", "fusion_lat": 0.0, "name": "6b3e15791717dfcae4f10fdaf7ac5dcf", "is_reserved": 0, "rental_uris": {"android": "https://dc.lft.to/lastmile_qr_scan", "ios": "https://dc.lft.to/lastmile_qr_scan"}, "fusion_lon": 0.0}, {"lat": 38.897237833333335, "is_disabled": 0, "type": "electric_scooter", "lon": -77.00798416666666, "bike_id": "9fcd3bbe78c833284f376a3894b02cbd", "fusion_lat": 0.0, "name": "9fcd3bbe78c833284f376a3894b02cbd", "is_reserved": 0, "rental_uris": {"android": "https://dc.lft.to/lastmile_qr_scan", "ios": "https://dc.lft.to/lastmile_qr_scan"}, "fusion_lon": 0.0}, {"lat": 38.9458905, "is_disabled": 0, "type": "electric_scooter", "lon": -77.06464333333334, "bike_id": "5f775e7d17a0d71387e69c5018ea060c", "fusion_lat": 0.0, "name": "5f775e7d17a0d71387e69c5018ea060c", "is_reserved": 0, "rental_uris": {"android": "https://dc.lft.to/lastmile_qr_scan", "ios": "https://dc.lft.to/lastmile_qr_scan"}, "fusion_lon": 0.0}, {"lat": 38.93107, "is_disabled": 0, "type": "electric_bike", "lon": -77.031322, "bike_id": "24413007fda729afdfb6cdb4364f8e20", "fusion_lat": 0.0, "name": "24413007fda729afdfb6cdb4364f8e20", "is_reserved": 0, "rental_uris": {"android": "https://dc.lft.to/lastmile_qr_scan", "ios": "https://dc.lft.to/lastmile_qr_scan"}, "fusion_lon": 0.0}, {"lat": 38.907289666666664, "is_disabled": 0, "type": "electric_scooter", "lon": -77.04337716666667, "bike_id": "53b4acd0f473386c7a862e207330600e", "fusion_lat": 0.0, "name": "53b4acd0f473386c7a862e207330600e", "is_reserved": 0, "rental_uris": {"android": "https://dc.lft.to/lastmile_qr_scan", "ios": "https://dc.lft.to/lastmile_qr_scan"}, "fusion_lon": 0.0}, {"lat": 38.910535333333335, "is_disabled": 0, "type": "electric_scooter", "lon": -77.01514733333333, "bike_id": "980cfa1eedee34cce99c1984f39f1194", "fusion_lat": 0.0, "name": "980cfa1eedee34cce99c1984f39f1194", "is_reserved": 0, "rental_uris": {"android": "https://dc.lft.to/lastmile_qr_scan", "ios": "https://dc.lft.to/lastmile_qr_scan"}, "fusion_lon": 0.0}, {"lat": 38.90586166666667, "is_disabled": 0, "type": "electric_scooter", "lon": -77.02953733333334, "bike_id": "c85c13fbe427de66ce2a52ef2b5d66e4", "fusion_lat": 0.0, "name": "c85c13fbe427de66ce2a52ef2b5d66e4", "is_reserved": 0, "rental_uris": {"android": "https://dc.lft.to/lastmile_qr_scan", "ios": "https://dc.lft.to/lastmile_qr_scan"}, "fusion_lon": 0.0}, {"lat": 38.954071, "is_disabled": 0, "type": "electric_scooter", "lon": -77.0363305, "bike_id": "a02c70575bd21fc16b52e91a754130bc", "fusion_lat": 0.0, "name": "a02c70575bd21fc16b52e91a754130bc", "is_reserved": 0, "rental_uris": {"android": "https://dc.lft.to/lastmile_qr_scan", "ios": "https://dc.lft.to/lastmile_qr_scan"}, "fusion_lon": 0.0}, {"lat": 38.905471, "is_disabled": 0, "type": "electric_scooter", "lon": -77.0339935, "bike_id": "024f01b456239b5937e696f7419877ba", "fusion_lat": 0.0, "name": "024f01b456239b5937e696f7419877ba", "is_reserved": 0, "rental_uris": {"android": "https://dc.lft.to/lastmile_qr_scan", "ios": "https://dc.lft.to/lastmile_qr_scan"}, "fusion_lon": 0.0}, {"lat": 38.922093333333336, "is_disabled": 0, "type": "electric_scooter", "lon": -77.0401435, "bike_id": "bf902afe52d8d27cdf8ccbda4d0cac01", "fusion_lat": 0.0, "name": "bf902afe52d8d27cdf8ccbda4d0cac01", "is_reserved": 0, "rental_uris": {"android": "https://dc.lft.to/lastmile_qr_scan", "ios": "https://dc.lft.to/lastmile_qr_scan"}, "fusion_lon": 0.0}, {"lat": 38.903694, "is_disabled": 0, "type": "electric_scooter", "lon": -77.043417, "bike_id": "bcc7fad8b4593813f686fa0084e7df27", "fusion_lat": 0.0, "name": "bcc7fad8b4593813f686fa0084e7df27", "is_reserved": 0, "rental_uris": {"android": "https://dc.lft.to/lastmile_qr_scan", "ios": "https://dc.lft.to/lastmile_qr_scan"}, "fusion_lon": 0.0}, {"lat": 38.91475333333333, "is_disabled": 0, "type": "electric_scooter", "lon": -77.03247266666666, "bike_id": "fae1fe5889b79c155ad524aa6e25d87e", "fusion_lat": 0.0, "name": "fae1fe5889b79c155ad524aa6e25d87e", "is_reserved": 0, "rental_uris": {"android": "https://dc.lft.to/lastmile_qr_scan", "ios": "https://dc.lft.to/lastmile_qr_scan"}, "fusion_lon": 0.0}, {"lat": 38.89914183333333, "is_disabled": 0, "type": "electric_scooter", "lon": -76.93351, "bike_id": "b948df58dd9ac509e66bf6bcf6dc8d99", "fusion_lat": 0.0, "name": "b948df58dd9ac509e66bf6bcf6dc8d99", "is_reserved": 0, "rental_uris": {"android": "https://dc.lft.to/lastmile_qr_scan", "ios": "https://dc.lft.to/lastmile_qr_scan"}, "fusion_lon": 0.0}, {"lat": 38.930621, "is_disabled": 0, "type": "electric_scooter", "lon": -77.04184783333334, "bike_id": "7cd1736dcda8acf91efadca6704b9012", "fusion_lat": 0.0, "name": "7cd1736dcda8acf91efadca6704b9012", "is_reserved": 0, "rental_uris": {"android": "https://dc.lft.to/lastmile_qr_scan", "ios": "https://dc.lft.to/lastmile_qr_scan"}, "fusion_lon": 0.0}, {"lat": 38.908592, "is_disabled": 0, "type": "electric_scooter", "lon": -76.9916245, "bike_id": "014347fc96e956a5a65097b131361e61", "fusion_lat": 0.0, "name": "014347fc96e956a5a65097b131361e61", "is_reserved": 0, "rental_uris": {"android": "https://dc.lft.to/lastmile_qr_scan", "ios": "https://dc.lft.to/lastmile_qr_scan"}, "fusion_lon": 0.0}, {"lat": 38.90126033333333, "is_disabled": 0, "type": "electric_scooter", "lon": -77.0501355, "bike_id": "8f8648a8f58f5ff738c64a016c6cb038", "fusion_lat": 0.0, "name": "8f8648a8f58f5ff738c64a016c6cb038", "is_reserved": 0, "rental_uris": {"android": "https://dc.lft.to/lastmile_qr_scan", "ios": "https://dc.lft.to/lastmile_qr_scan"}, "fusion_lon": 0.0}, {"lat": 38.90622783333333, "is_disabled": 0, "type": "electric_scooter", "lon": -76.98987866666667, "bike_id": "aaed4b8efb9dd744b80bd8040bac8729", "fusion_lat": 0.0, "name": "aaed4b8efb9dd744b80bd8040bac8729", "is_reserved": 0, "rental_uris": {"android": "https://dc.lft.to/lastmile_qr_scan", "ios": "https://dc.lft.to/lastmile_qr_scan"}, "fusion_lon": 0.0}, {"lat": 38.927448166666665, "is_disabled": 0, "type": "electric_scooter", "lon": -77.02535333333333, "bike_id": "d7be3b259781ea686e386c55a1d67093", "fusion_lat": 0.0, "name": "d7be3b259781ea686e386c55a1d67093", "is_reserved": 0, "rental_uris": {"android": "https://dc.lft.to/lastmile_qr_scan", "ios": "https://dc.lft.to/lastmile_qr_scan"}, "fusion_lon": 0.0}, {"lat": 38.8590425, "is_disabled": 0, "type": "electric_scooter", "lon": -76.99151283333333, "bike_id": "29d89f568e9d28ace83bb7f399b41ce6", "fusion_lat": 0.0, "name": "29d89f568e9d28ace83bb7f399b41ce6", "is_reserved": 0, "rental_uris": {"android": "https://dc.lft.to/lastmile_qr_scan", "ios": "https://dc.lft.to/lastmile_qr_scan"}, "fusion_lon": 0.0}, {"lat": 38.900457833333334, "is_disabled": 0, "type": "electric_scooter", "lon": -76.9938195, "bike_id": "748410671bd33c951004acb783d227b0", "fusion_lat": 0.0, "name": "748410671bd33c951004acb783d227b0", "is_reserved": 0, "rental_uris": {"android": "https://dc.lft.to/lastmile_qr_scan", "ios": "https://dc.lft.to/lastmile_qr_scan"}, "fusion_lon": 0.0}, {"lat": 38.891190333333334, "is_disabled": 0, "type": "electric_scooter", "lon": -76.94386783333333, "bike_id": "c6f8257c4b2af3ff6601048324ccc6ea", "fusion_lat": 0.0, "name": "c6f8257c4b2af3ff6601048324ccc6ea", "is_reserved": 0, "rental_uris": {"android": "https://dc.lft.to/lastmile_qr_scan", "ios": "https://dc.lft.to/lastmile_qr_scan"}, "fusion_lon": 0.0}, {"lat": 38.911084333333335, "is_disabled": 0, "type": "electric_scooter", "lon": -77.04228716666667, "bike_id": "9de1ab54a5c4d02eaf129d0a3958cf50", "fusion_lat": 0.0, "name": "9de1ab54a5c4d02eaf129d0a3958cf50", "is_reserved": 0, "rental_uris": {"android": "https://dc.lft.to/lastmile_qr_scan", "ios": "https://dc.lft.to/lastmile_qr_scan"}, "fusion_lon": 0.0}, {"lat": 38.947445333333334, "is_disabled": 0, "type": "electric_scooter", "lon": -77.06528666666667, "bike_id": "1d8bd1e5de1b84e6cc02c9023ecff929", "fusion_lat": 0.0, "name": "1d8bd1e5de1b84e6cc02c9023ecff929", "is_reserved": 0, "rental_uris": {"android": "https://dc.lft.to/lastmile_qr_scan", "ios": "https://dc.lft.to/lastmile_qr_scan"}, "fusion_lon": 0.0}, {"lat": 38.866581, "is_disabled": 0, "type": "electric_scooter", "lon": -76.98885566666667, "bike_id": "2626001f641940cc7c4c5e741d9367ce", "fusion_lat": 0.0, "name": "2626001f641940cc7c4c5e741d9367ce", "is_reserved": 0, "rental_uris": {"android": "https://dc.lft.to/lastmile_qr_scan", "ios": "https://dc.lft.to/lastmile_qr_scan"}, "fusion_lon": 0.0}, {"lat": 38.90023133333333, "is_disabled": 0, "type": "electric_scooter", "lon": -76.99727883333334, "bike_id": "523db91eafa13313130443c14506fd40", "fusion_lat": 0.0, "name": "523db91eafa13313130443c14506fd40", "is_reserved": 0, "rental_uris": {"android": "https://dc.lft.to/lastmile_qr_scan", "ios": "https://dc.lft.to/lastmile_qr_scan"}, "fusion_lon": 0.0}, {"lat": 38.895424, "is_disabled": 0, "type": "electric_scooter", "lon": -77.02820016666666, "bike_id": "4320fab2c6426a0bf16fc749c9113ca9", "fusion_lat": 0.0, "name": "4320fab2c6426a0bf16fc749c9113ca9", "is_reserved": 0, "rental_uris": {"android": "https://dc.lft.to/lastmile_qr_scan", "ios": "https://dc.lft.to/lastmile_qr_scan"}, "fusion_lon": 0.0}, {"lat": 38.913654, "is_disabled": 0, "type": "electric_scooter", "lon": -77.01215966666666, "bike_id": "deb8e9119ecb4205d81b94aa2fe2c49b", "fusion_lat": 0.0, "name": "deb8e9119ecb4205d81b94aa2fe2c49b", "is_reserved": 0, "rental_uris": {"android": "https://dc.lft.to/lastmile_qr_scan", "ios": "https://dc.lft.to/lastmile_qr_scan"}, "fusion_lon": 0.0}, {"lat": 38.956334166666664, "is_disabled": 0, "type": "electric_bike", "lon": -76.93884683333333, "bike_id": "c46227124354db6eac05e6179cb5a4c3", "fusion_lat": 0.0, "name": "c46227124354db6eac05e6179cb5a4c3", "is_reserved": 0, "rental_uris": {"android": "https://dc.lft.to/lastmile_qr_scan", "ios": "https://dc.lft.to/lastmile_qr_scan"}, "fusion_lon": 0.0}, {"lat": 38.84278233333333, "is_disabled": 0, "type": "electric_bike", "lon": -76.988453, "bike_id": "0281bd341525de353ed6a0762fb6c361", "fusion_lat": 0.0, "name": "0281bd341525de353ed6a0762fb6c361", "is_reserved": 0, "rental_uris": {"android": "https://dc.lft.to/lastmile_qr_scan", "ios": "https://dc.lft.to/lastmile_qr_scan"}, "fusion_lon": 0.0}, {"lat": 38.905513166666665, "is_disabled": 0, "type": "electric_scooter", "lon": -77.04680016666667, "bike_id": "cceef2d75afc1434d3d9c2e7b89dc47c", "fusion_lat": 0.0, "name": "cceef2d75afc1434d3d9c2e7b89dc47c", "is_reserved": 0, "rental_uris": {"android": "https://dc.lft.to/lastmile_qr_scan", "ios": "https://dc.lft.to/lastmile_qr_scan"}, "fusion_lon": 0.0}, {"lat": 38.880944, "is_disabled": 0, "type": "electric_scooter", "lon": -76.9985665, "bike_id": "61ae5384272e818e4c9c8f8cd77f642f", "fusion_lat": 0.0, "name": "61ae5384272e818e4c9c8f8cd77f642f", "is_reserved": 0, "rental_uris": {"android": "https://dc.lft.to/lastmile_qr_scan", "ios": "https://dc.lft.to/lastmile_qr_scan"}, "fusion_lon": 0.0}, {"lat": 38.92578116666667, "is_disabled": 0, "type": "electric_scooter", "lon": -77.05765816666667, "bike_id": "c8914cb82973051a3684ee526197cee6", "fusion_lat": 0.0, "name": "c8914cb82973051a3684ee526197cee6", "is_reserved": 0, "rental_uris": {"android": "https://dc.lft.to/lastmile_qr_scan", "ios": "https://dc.lft.to/lastmile_qr_scan"}, "fusion_lon": 0.0}, {"lat": 38.919737166666664, "is_disabled": 0, "type": "electric_scooter", "lon": -77.01218033333333, "bike_id": "67f1c4a019f217ee720705666d8af6cc", "fusion_lat": 0.0, "name": "67f1c4a019f217ee720705666d8af6cc", "is_reserved": 0, "rental_uris": {"android": "https://dc.lft.to/lastmile_qr_scan", "ios": "https://dc.lft.to/lastmile_qr_scan"}, "fusion_lon": 0.0}, {"lat": 38.89802183333333, "is_disabled": 0, "type": "electric_scooter", "lon": -77.000587, "bike_id": "f70f64da6827334908071e03606dc990", "fusion_lat": 0.0, "name": "f70f64da6827334908071e03606dc990", "is_reserved": 0, "rental_uris": {"android": "https://dc.lft.to/lastmile_qr_scan", "ios": "https://dc.lft.to/lastmile_qr_scan"}, "fusion_lon": 0.0}, {"lat": 38.9266635, "is_disabled": 0, "type": "electric_scooter", "lon": -76.99542316666667, "bike_id": "c613f6cc55311b9acafe555f3cbdad46", "fusion_lat": 0.0, "name": "c613f6cc55311b9acafe555f3cbdad46", "is_reserved": 0, "rental_uris": {"android": "https://dc.lft.to/lastmile_qr_scan", "ios": "https://dc.lft.to/lastmile_qr_scan"}, "fusion_lon": 0.0}, {"lat": 38.89775566666667, "is_disabled": 0, "type": "electric_bike", "lon": -76.90436033333333, "bike_id": "ef9c76812f00eb5f34345ee669d4e9d7", "fusion_lat": 0.0, "name": "ef9c76812f00eb5f34345ee669d4e9d7", "is_reserved": 0, "rental_uris": {"android": "https://dc.lft.to/lastmile_qr_scan", "ios": "https://dc.lft.to/lastmile_qr_scan"}, "fusion_lon": 0.0}, {"lat": 38.90181116666667, "is_disabled": 0, "type": "electric_scooter", "lon": -77.02166566666666, "bike_id": "f8bceb4275d4ae7209759fd411ce6157", "fusion_lat": 0.0, "name": "f8bceb4275d4ae7209759fd411ce6157", "is_reserved": 0, "rental_uris": {"android": "https://dc.lft.to/lastmile_qr_scan", "ios": "https://dc.lft.to/lastmile_qr_scan"}, "fusion_lon": 0.0}, {"lat": 38.900704166666664, "is_disabled": 0, "type": "electric_scooter", "lon": -77.04974933333334, "bike_id": "4089fd5c0774a5a61667bf143f9d3693", "fusion_lat": 0.0, "name": "4089fd5c0774a5a61667bf143f9d3693", "is_reserved": 0, "rental_uris": {"android": "https://dc.lft.to/lastmile_qr_scan", "ios": "https://dc.lft.to/lastmile_qr_scan"}, "fusion_lon": 0.0}, {"lat": 38.916822333333336, "is_disabled": 0, "type": "electric_scooter", "lon": -77.02950966666667, "bike_id": "492d5fc48550c7351669a4f54337eb1d", "fusion_lat": 0.0, "name": "492d5fc48550c7351669a4f54337eb1d", "is_reserved": 0, "rental_uris": {"android": "https://dc.lft.to/lastmile_qr_scan", "ios": "https://dc.lft.to/lastmile_qr_scan"}, "fusion_lon": 0.0}, {"lat": 38.892744666666665, "is_disabled": 0, "type": "electric_scooter", "lon": -77.02027766666667, "bike_id": "979d28ea500a36155f3cb8d150ae7d1d", "fusion_lat": 0.0, "name": "979d28ea500a36155f3cb8d150ae7d1d", "is_reserved": 0, "rental_uris": {"android": "https://dc.lft.to/lastmile_qr_scan", "ios": "https://dc.lft.to/lastmile_qr_scan"}, "fusion_lon": 0.0}, {"lat": 38.881058833333334, "is_disabled": 0, "type": "electric_scooter", "lon": -76.99498466666667, "bike_id": "c39a8e66e39a047ec8ea7b7e058a5408", "fusion_lat": 0.0, "name": "c39a8e66e39a047ec8ea7b7e058a5408", "is_reserved": 0, "rental_uris": {"android": "https://dc.lft.to/lastmile_qr_scan", "ios": "https://dc.lft.to/lastmile_qr_scan"}, "fusion_lon": 0.0}, {"lat": 38.9154845, "is_disabled": 0, "type": "electric_scooter", "lon": -77.07417233333334, "bike_id": "7aefcd94640c44fdad123d840df7eac3", "fusion_lat": 0.0, "name": "7aefcd94640c44fdad123d840df7eac3", "is_reserved": 0, "rental_uris": {"android": "https://dc.lft.to/lastmile_qr_scan", "ios": "https://dc.lft.to/lastmile_qr_scan"}, "fusion_lon": 0.0}, {"lat": 38.929537, "is_disabled": 0, "type": "electric_scooter", "lon": -76.99089416666666, "bike_id": "5225c79931047cf06ba574b09548ad94", "fusion_lat": 0.0, "name": "5225c79931047cf06ba574b09548ad94", "is_reserved": 0, "rental_uris": {"android": "https://dc.lft.to/lastmile_qr_scan", "ios": "https://dc.lft.to/lastmile_qr_scan"}, "fusion_lon": 0.0}, {"lat": 38.917888166666664, "is_disabled": 0, "type": "electric_scooter", "lon": -77.02310816666666, "bike_id": "9e5bcc5dd01c44c73db897b6f03c1ca7", "fusion_lat": 0.0, "name": "9e5bcc5dd01c44c73db897b6f03c1ca7", "is_reserved": 0, "rental_uris": {"android": "https://dc.lft.to/lastmile_qr_scan", "ios": "https://dc.lft.to/lastmile_qr_scan"}, "fusion_lon": 0.0}, {"lat": 38.915226833333335, "is_disabled": 0, "type": "electric_scooter", "lon": -77.038416, "bike_id": "a1416eb7e33f1b8d9244ab8d241074af", "fusion_lat": 0.0, "name": "a1416eb7e33f1b8d9244ab8d241074af", "is_reserved": 0, "rental_uris": {"android": "https://dc.lft.to/lastmile_qr_scan", "ios": "https://dc.lft.to/lastmile_qr_scan"}, "fusion_lon": 0.0}, {"lat": 38.892865666666665, "is_disabled": 0, "type": "electric_scooter", "lon": -76.958526, "bike_id": "402204103a3359adec2135bb0ec24356", "fusion_lat": 0.0, "name": "402204103a3359adec2135bb0ec24356", "is_reserved": 0, "rental_uris": {"android": "https://dc.lft.to/lastmile_qr_scan", "ios": "https://dc.lft.to/lastmile_qr_scan"}, "fusion_lon": 0.0}, {"lat": 38.899999333333334, "is_disabled": 0, "type": "electric_scooter", "lon": -76.99962966666666, "bike_id": "2567727850ba8cca4dea62b6b0eaabee", "fusion_lat": 0.0, "name": "2567727850ba8cca4dea62b6b0eaabee", "is_reserved": 0, "rental_uris": {"android": "https://dc.lft.to/lastmile_qr_scan", "ios": "https://dc.lft.to/lastmile_qr_scan"}, "fusion_lon": 0.0}, {"lat": 38.90543616666667, "is_disabled": 0, "type": "electric_scooter", "lon": -77.02213283333333, "bike_id": "c848ec07699afdb3b75ab756490f9b22", "fusion_lat": 0.0, "name": "c848ec07699afdb3b75ab756490f9b22", "is_reserved": 0, "rental_uris": {"android": "https://dc.lft.to/lastmile_qr_scan", "ios": "https://dc.lft.to/lastmile_qr_scan"}, "fusion_lon": 0.0}, {"lat": 38.93118166666667, "is_disabled": 0, "type": "electric_scooter", "lon": -77.0342045, "bike_id": "04bca7308a42d76045edb567074506b5", "fusion_lat": 0.0, "name": "04bca7308a42d76045edb567074506b5", "is_reserved": 0, "rental_uris": {"android": "https://dc.lft.to/lastmile_qr_scan", "ios": "https://dc.lft.to/lastmile_qr_scan"}, "fusion_lon": 0.0}, {"lat": 38.931196, "is_disabled": 0, "type": "electric_scooter", "lon": -77.03816, "bike_id": "bd26493d98ebb5ac8a4909bcc302d189", "fusion_lat": 0.0, "name": "bd26493d98ebb5ac8a4909bcc302d189", "is_reserved": 0, "rental_uris": {"android": "https://dc.lft.to/lastmile_qr_scan", "ios": "https://dc.lft.to/lastmile_qr_scan"}, "fusion_lon": 0.0}, {"lat": 38.921208, "is_disabled": 0, "type": "electric_bike", "lon": -76.98574266666667, "bike_id": "14471e82c6fa7f15d01508495b0e6857", "fusion_lat": 0.0, "name": "14471e82c6fa7f15d01508495b0e6857", "is_reserved": 0, "rental_uris": {"android": "https://dc.lft.to/lastmile_qr_scan", "ios": "https://dc.lft.to/lastmile_qr_scan"}, "fusion_lon": 0.0}, {"lat": 38.90284616666667, "is_disabled": 0, "type": "electric_scooter", "lon": -77.063565, "bike_id": "b770332fc27c29f887d3fe57a3ef1cb1", "fusion_lat": 0.0, "name": "b770332fc27c29f887d3fe57a3ef1cb1", "is_reserved": 0, "rental_uris": {"android": "https://dc.lft.to/lastmile_qr_scan", "ios": "https://dc.lft.to/lastmile_qr_scan"}, "fusion_lon": 0.0}, {"lat": 38.93104733333333, "is_disabled": 0, "type": "electric_scooter", "lon": -77.025008, "bike_id": "4dab5387905759d734fabba160107e37", "fusion_lat": 0.0, "name": "4dab5387905759d734fabba160107e37", "is_reserved": 0, "rental_uris": {"android": "https://dc.lft.to/lastmile_qr_scan", "ios": "https://dc.lft.to/lastmile_qr_scan"}, "fusion_lon": 0.0}, {"lat": 38.9404675, "is_disabled": 0, "type": "electric_bike", "lon": -77.05160366666667, "bike_id": "452e48db13644ae626a354b4269ad57a", "fusion_lat": 0.0, "name": "452e48db13644ae626a354b4269ad57a", "is_reserved": 0, "rental_uris": {"android": "https://dc.lft.to/lastmile_qr_scan", "ios": "https://dc.lft.to/lastmile_qr_scan"}, "fusion_lon": 0.0}, {"lat": 38.89049683333333, "is_disabled": 0, "type": "electric_scooter", "lon": -76.940862, "bike_id": "29acb7ac9e7d24de6a639ec59efbb7ef", "fusion_lat": 0.0, "name": "29acb7ac9e7d24de6a639ec59efbb7ef", "is_reserved": 0, "rental_uris": {"android": "https://dc.lft.to/lastmile_qr_scan", "ios": "https://dc.lft.to/lastmile_qr_scan"}, "fusion_lon": 0.0}, {"lat": 38.90393733333333, "is_disabled": 0, "type": "electric_scooter", "lon": -77.03846433333334, "bike_id": "a004db48500ef8303cd92e06d6ffc4cf", "fusion_lat": 0.0, "name": "a004db48500ef8303cd92e06d6ffc4cf", "is_reserved": 0, "rental_uris": {"android": "https://dc.lft.to/lastmile_qr_scan", "ios": "https://dc.lft.to/lastmile_qr_scan"}, "fusion_lon": 0.0}, {"lat": 38.911721, "is_disabled": 0, "type": "electric_scooter", "lon": -77.03858866666667, "bike_id": "f8e6bdc79a40341f659cf3cfd88414f3", "fusion_lat": 0.0, "name": "f8e6bdc79a40341f659cf3cfd88414f3", "is_reserved": 0, "rental_uris": {"android": "https://dc.lft.to/lastmile_qr_scan", "ios": "https://dc.lft.to/lastmile_qr_scan"}, "fusion_lon": 0.0}, {"lat": 38.91716566666667, "is_disabled": 0, "type": "electric_scooter", "lon": -77.03477866666667, "bike_id": "ff2b788102453954a7d4d7b09d5510dd", "fusion_lat": 0.0, "name": "ff2b788102453954a7d4d7b09d5510dd", "is_reserved": 0, "rental_uris": {"android": "https://dc.lft.to/lastmile_qr_scan", "ios": "https://dc.lft.to/lastmile_qr_scan"}, "fusion_lon": 0.0}, {"lat": 38.920733166666665, "is_disabled": 0, "type": "electric_scooter", "lon": -77.01438783333333, "bike_id": "ed089543798168f6484fdc37ad25430f", "fusion_lat": 0.0, "name": "ed089543798168f6484fdc37ad25430f", "is_reserved": 0, "rental_uris": {"android": "https://dc.lft.to/lastmile_qr_scan", "ios": "https://dc.lft.to/lastmile_qr_scan"}, "fusion_lon": 0.0}, {"lat": 38.90508616666666, "is_disabled": 0, "type": "electric_scooter", "lon": -77.0482455, "bike_id": "bd5ed9ebc78fe63748561469204103c9", "fusion_lat": 0.0, "name": "bd5ed9ebc78fe63748561469204103c9", "is_reserved": 0, "rental_uris": {"android": "https://dc.lft.to/lastmile_qr_scan", "ios": "https://dc.lft.to/lastmile_qr_scan"}, "fusion_lon": 0.0}, {"lat": 38.913864333333336, "is_disabled": 0, "type": "electric_scooter", "lon": -77.01907783333333, "bike_id": "8a0c588b8bbc26a15ca7585e74ed47e5", "fusion_lat": 0.0, "name": "8a0c588b8bbc26a15ca7585e74ed47e5", "is_reserved": 0, "rental_uris": {"android": "https://dc.lft.to/lastmile_qr_scan", "ios": "https://dc.lft.to/lastmile_qr_scan"}, "fusion_lon": 0.0}, {"lat": 38.95898833333333, "is_disabled": 0, "type": "electric_bike", "lon": -76.92488083333333, "bike_id": "233e9b4ff93e53f3bedebeea8ec64629", "fusion_lat": 0.0, "name": "233e9b4ff93e53f3bedebeea8ec64629", "is_reserved": 0, "rental_uris": {"android": "https://dc.lft.to/lastmile_qr_scan", "ios": "https://dc.lft.to/lastmile_qr_scan"}, "fusion_lon": 0.0}, {"lat": 38.8411095, "is_disabled": 0, "type": "electric_bike", "lon": -77.08944066666666, "bike_id": "4f79672b097e91e1fc32bbae8ef3b677", "fusion_lat": 0.0, "name": "4f79672b097e91e1fc32bbae8ef3b677", "is_reserved": 0, "rental_uris": {"android": "https://dc.lft.to/lastmile_qr_scan", "ios": "https://dc.lft.to/lastmile_qr_scan"}, "fusion_lon": 0.0}, {"lat": 38.899732166666666, "is_disabled": 0, "type": "electric_scooter", "lon": -77.05275283333333, "bike_id": "8c1350f5c641f1eb04dfe35cf970bbdb", "fusion_lat": 0.0, "name": "8c1350f5c641f1eb04dfe35cf970bbdb", "is_reserved": 0, "rental_uris": {"android": "https://dc.lft.to/lastmile_qr_scan", "ios": "https://dc.lft.to/lastmile_qr_scan"}, "fusion_lon": 0.0}, {"lat": 38.882810166666665, "is_disabled": 0, "type": "electric_bike", "lon": -76.9324265, "bike_id": "41ba430f85b4e94de3847b58bfb44ef4", "fusion_lat": 0.0, "name": "41ba430f85b4e94de3847b58bfb44ef4", "is_reserved": 0, "rental_uris": {"android": "https://dc.lft.to/lastmile_qr_scan", "ios": "https://dc.lft.to/lastmile_qr_scan"}, "fusion_lon": 0.0}, {"lat": 38.903389, "is_disabled": 0, "type": "electric_scooter", "lon": -76.9705725, "bike_id": "ead22a1bc70fe8dff02568ac04cde5b4", "fusion_lat": 0.0, "name": "ead22a1bc70fe8dff02568ac04cde5b4", "is_reserved": 0, "rental_uris": {"android": "https://dc.lft.to/lastmile_qr_scan", "ios": "https://dc.lft.to/lastmile_qr_scan"}, "fusion_lon": 0.0}, {"lat": 38.90648083333333, "is_disabled": 0, "type": "electric_scooter", "lon": -77.00604783333333, "bike_id": "992cc74eb6184ef1f4532c2349f1faa3", "fusion_lat": 0.0, "name": "992cc74eb6184ef1f4532c2349f1faa3", "is_reserved": 0, "rental_uris": {"android": "https://dc.lft.to/lastmile_qr_scan", "ios": "https://dc.lft.to/lastmile_qr_scan"}, "fusion_lon": 0.0}, {"lat": 38.915001333333336, "is_disabled": 0, "type": "electric_scooter", "lon": -76.98367883333333, "bike_id": "b6603feccee81615de21b1e54e9463bf", "fusion_lat": 0.0, "name": "b6603feccee81615de21b1e54e9463bf", "is_reserved": 0, "rental_uris": {"android": "https://dc.lft.to/lastmile_qr_scan", "ios": "https://dc.lft.to/lastmile_qr_scan"}, "fusion_lon": 0.0}, {"lat": 38.957361, "is_disabled": 0, "type": "electric_scooter", "lon": -77.02382316666667, "bike_id": "1ecd26309518b170a3852e587d8826b1", "fusion_lat": 0.0, "name": "1ecd26309518b170a3852e587d8826b1", "is_reserved": 0, "rental_uris": {"android": "https://dc.lft.to/lastmile_qr_scan", "ios": "https://dc.lft.to/lastmile_qr_scan"}, "fusion_lon": 0.0}, {"lat": 38.908824833333334, "is_disabled": 0, "type": "electric_scooter", "lon": -77.03666616666666, "bike_id": "3b596b4af22f2f76962705cb5267ee30", "fusion_lat": 0.0, "name": "3b596b4af22f2f76962705cb5267ee30", "is_reserved": 0, "rental_uris": {"android": "https://dc.lft.to/lastmile_qr_scan", "ios": "https://dc.lft.to/lastmile_qr_scan"}, "fusion_lon": 0.0}, {"lat": 38.912014666666664, "is_disabled": 0, "type": "electric_scooter", "lon": -77.04497616666667, "bike_id": "47e71afd6ae1a383e9234d1089706a39", "fusion_lat": 0.0, "name": "47e71afd6ae1a383e9234d1089706a39", "is_reserved": 0, "rental_uris": {"android": "https://dc.lft.to/lastmile_qr_scan", "ios": "https://dc.lft.to/lastmile_qr_scan"}, "fusion_lon": 0.0}, {"lat": 38.86619266666666, "is_disabled": 0, "type": "electric_scooter", "lon": -76.9866365, "bike_id": "e1cea0bb3cf11b8ab03349512d2dbbc4", "fusion_lat": 0.0, "name": "e1cea0bb3cf11b8ab03349512d2dbbc4", "is_reserved": 0, "rental_uris": {"android": "https://dc.lft.to/lastmile_qr_scan", "ios": "https://dc.lft.to/lastmile_qr_scan"}, "fusion_lon": 0.0}, {"lat": 38.93584966666667, "is_disabled": 0, "type": "electric_scooter", "lon": -77.03757583333334, "bike_id": "44aedee5e9822d9681e4882b54052321", "fusion_lat": 0.0, "name": "44aedee5e9822d9681e4882b54052321", "is_reserved": 0, "rental_uris": {"android": "https://dc.lft.to/lastmile_qr_scan", "ios": "https://dc.lft.to/lastmile_qr_scan"}, "fusion_lon": 0.0}, {"lat": 38.89427416666667, "is_disabled": 0, "type": "electric_scooter", "lon": -77.02089433333333, "bike_id": "6632f3f06337baef4c8ac89a8dd2d7b0", "fusion_lat": 0.0, "name": "6632f3f06337baef4c8ac89a8dd2d7b0", "is_reserved": 0, "rental_uris": {"android": "https://dc.lft.to/lastmile_qr_scan", "ios": "https://dc.lft.to/lastmile_qr_scan"}, "fusion_lon": 0.0}, {"lat": 38.90147066666667, "is_disabled": 0, "type": "electric_scooter", "lon": -77.05109516666667, "bike_id": "6037baeaee2147917dfb42db9622d9df", "fusion_lat": 0.0, "name": "6037baeaee2147917dfb42db9622d9df", "is_reserved": 0, "rental_uris": {"android": "https://dc.lft.to/lastmile_qr_scan", "ios": "https://dc.lft.to/lastmile_qr_scan"}, "fusion_lon": 0.0}, {"lat": 38.950834666666665, "is_disabled": 0, "type": "electric_bike", "lon": -77.011944, "bike_id": "ecaaeb8f2d710acf3dbecac101bc89a5", "fusion_lat": 0.0, "name": "ecaaeb8f2d710acf3dbecac101bc89a5", "is_reserved": 0, "rental_uris": {"android": "https://dc.lft.to/lastmile_qr_scan", "ios": "https://dc.lft.to/lastmile_qr_scan"}, "fusion_lon": 0.0}, {"lat": 38.90201183333333, "is_disabled": 0, "type": "electric_scooter", "lon": -77.02171816666667, "bike_id": "5c665dadd7ed564fe5331050309cd5be", "fusion_lat": 0.0, "name": "5c665dadd7ed564fe5331050309cd5be", "is_reserved": 0, "rental_uris": {"android": "https://dc.lft.to/lastmile_qr_scan", "ios": "https://dc.lft.to/lastmile_qr_scan"}, "fusion_lon": 0.0}, {"lat": 38.907565, "is_disabled": 0, "type": "electric_scooter", "lon": -77.041571, "bike_id": "29169b3c9b562d893cb136268d5eddab", "fusion_lat": 0.0, "name": "29169b3c9b562d893cb136268d5eddab", "is_reserved": 0, "rental_uris": {"android": "https://dc.lft.to/lastmile_qr_scan", "ios": "https://dc.lft.to/lastmile_qr_scan"}, "fusion_lon": 0.0}, {"lat": 38.921183, "is_disabled": 0, "type": "electric_bike", "lon": -77.048377, "bike_id": "f624fe96a0c50f410521a5532ef28b06", "fusion_lat": 0.0, "name": "f624fe96a0c50f410521a5532ef28b06", "is_reserved": 0, "rental_uris": {"android": "https://dc.lft.to/lastmile_qr_scan", "ios": "https://dc.lft.to/lastmile_qr_scan"}, "fusion_lon": 0.0}, {"lat": 38.898457666666665, "is_disabled": 0, "type": "electric_scooter", "lon": -76.944662, "bike_id": "2ce212d29fb4c3cf5bb1569c25ebbbd2", "fusion_lat": 0.0, "name": "2ce212d29fb4c3cf5bb1569c25ebbbd2", "is_reserved": 0, "rental_uris": {"android": "https://dc.lft.to/lastmile_qr_scan", "ios": "https://dc.lft.to/lastmile_qr_scan"}, "fusion_lon": 0.0}, {"lat": 38.91585283333333, "is_disabled": 0, "type": "electric_scooter", "lon": -77.04682716666667, "bike_id": "998b730ca9e82853178da6eaf3ba7d72", "fusion_lat": 0.0, "name": "998b730ca9e82853178da6eaf3ba7d72", "is_reserved": 0, "rental_uris": {"android": "https://dc.lft.to/lastmile_qr_scan", "ios": "https://dc.lft.to/lastmile_qr_scan"}, "fusion_lon": 0.0}, {"lat": 38.914672833333334, "is_disabled": 0, "type": "electric_scooter", "lon": -77.00217566666667, "bike_id": "edfab5d4a70734155fe070da91bbf75e", "fusion_lat": 0.0, "name": "edfab5d4a70734155fe070da91bbf75e", "is_reserved": 0, "rental_uris": {"android": "https://dc.lft.to/lastmile_qr_scan", "ios": "https://dc.lft.to/lastmile_qr_scan"}, "fusion_lon": 0.0}, {"lat": 38.9212165, "is_disabled": 0, "type": "electric_scooter", "lon": -77.045808, "bike_id": "195af705e0f5f4eb71a38281165c498f", "fusion_lat": 0.0, "name": "195af705e0f5f4eb71a38281165c498f", "is_reserved": 0, "rental_uris": {"android": "https://dc.lft.to/lastmile_qr_scan", "ios": "https://dc.lft.to/lastmile_qr_scan"}, "fusion_lon": 0.0}, {"lat": 39.075053833333335, "is_disabled": 0, "type": "electric_bike", "lon": -77.11901266666666, "bike_id": "508bdd8ea025c73f10034b5d952c6256", "fusion_lat": 0.0, "name": "508bdd8ea025c73f10034b5d952c6256", "is_reserved": 0, "rental_uris": {"android": "https://dc.lft.to/lastmile_qr_scan", "ios": "https://dc.lft.to/lastmile_qr_scan"}, "fusion_lon": 0.0}, {"lat": 38.8768085, "is_disabled": 0, "type": "electric_scooter", "lon": -77.00023233333333, "bike_id": "bc33383be480aa06db2d56260a0184e0", "fusion_lat": 0.0, "name": "bc33383be480aa06db2d56260a0184e0", "is_reserved": 0, "rental_uris": {"android": "https://dc.lft.to/lastmile_qr_scan", "ios": "https://dc.lft.to/lastmile_qr_scan"}, "fusion_lon": 0.0}, {"lat": 38.90286916666667, "is_disabled": 0, "type": "electric_scooter", "lon": -77.0385345, "bike_id": "fe669c2125014686599044713975eade", "fusion_lat": 0.0, "name": "fe669c2125014686599044713975eade", "is_reserved": 0, "rental_uris": {"android": "https://dc.lft.to/lastmile_qr_scan", "ios": "https://dc.lft.to/lastmile_qr_scan"}, "fusion_lon": 0.0}, {"lat": 38.90338283333333, "is_disabled": 0, "type": "electric_scooter", "lon": -77.04486783333333, "bike_id": "f0e00ec3d367eb78e524079d1c8969c4", "fusion_lat": 0.0, "name": "f0e00ec3d367eb78e524079d1c8969c4", "is_reserved": 0, "rental_uris": {"android": "https://dc.lft.to/lastmile_qr_scan", "ios": "https://dc.lft.to/lastmile_qr_scan"}, "fusion_lon": 0.0}, {"lat": 38.90511583333333, "is_disabled": 0, "type": "electric_scooter", "lon": -77.04914266666667, "bike_id": "99cf0b9491cdffd3f85160a0ba6ab01f", "fusion_lat": 0.0, "name": "99cf0b9491cdffd3f85160a0ba6ab01f", "is_reserved": 0, "rental_uris": {"android": "https://dc.lft.to/lastmile_qr_scan", "ios": "https://dc.lft.to/lastmile_qr_scan"}, "fusion_lon": 0.0}, {"lat": 38.98417233333333, "is_disabled": 0, "type": "electric_bike", "lon": -76.95190633333333, "bike_id": "12f7050a30fb86aa547632fc25e99548", "fusion_lat": 0.0, "name": "12f7050a30fb86aa547632fc25e99548", "is_reserved": 0, "rental_uris": {"android": "https://dc.lft.to/lastmile_qr_scan", "ios": "https://dc.lft.to/lastmile_qr_scan"}, "fusion_lon": 0.0}, {"lat": 38.917059333333334, "is_disabled": 0, "type": "electric_scooter", "lon": -77.00115666666666, "bike_id": "dc492e2ea152a80fa90e498be6f6f75a", "fusion_lat": 0.0, "name": "dc492e2ea152a80fa90e498be6f6f75a", "is_reserved": 0, "rental_uris": {"android": "https://dc.lft.to/lastmile_qr_scan", "ios": "https://dc.lft.to/lastmile_qr_scan"}, "fusion_lon": 0.0}, {"lat": 38.88497733333333, "is_disabled": 0, "type": "electric_scooter", "lon": -77.00726733333333, "bike_id": "595a0e25b69d5c7167332fb001ae341a", "fusion_lat": 0.0, "name": "595a0e25b69d5c7167332fb001ae341a", "is_reserved": 0, "rental_uris": {"android": "https://dc.lft.to/lastmile_qr_scan", "ios": "https://dc.lft.to/lastmile_qr_scan"}, "fusion_lon": 0.0}, {"lat": 38.939606, "is_disabled": 0, "type": "electric_bike", "lon": -77.36101083333334, "bike_id": "86efe947fb82cbb58afa1025f971d829", "fusion_lat": 0.0, "name": "86efe947fb82cbb58afa1025f971d829", "is_reserved": 0, "rental_uris": {"android": "https://dc.lft.to/lastmile_qr_scan", "ios": "https://dc.lft.to/lastmile_qr_scan"}, "fusion_lon": 0.0}, {"lat": 38.89561533333333, "is_disabled": 0, "type": "electric_scooter", "lon": -76.930835, "bike_id": "7a5fa905c6b8d27189ac1d3870315ac8", "fusion_lat": 0.0, "name": "7a5fa905c6b8d27189ac1d3870315ac8", "is_reserved": 0, "rental_uris": {"android": "https://dc.lft.to/lastmile_qr_scan", "ios": "https://dc.lft.to/lastmile_qr_scan"}, "fusion_lon": 0.0}, {"lat": 38.9227705, "is_disabled": 0, "type": "electric_scooter", "lon": -77.04147183333333, "bike_id": "3542eaf40eaf643dc418d61ba19ea5ee", "fusion_lat": 0.0, "name": "3542eaf40eaf643dc418d61ba19ea5ee", "is_reserved": 0, "rental_uris": {"android": "https://dc.lft.to/lastmile_qr_scan", "ios": "https://dc.lft.to/lastmile_qr_scan"}, "fusion_lon": 0.0}, {"lat": 38.96012283333334, "is_disabled": 0, "type": "electric_bike", "lon": -76.99854816666667, "bike_id": "9864601a0145c8ecc13408c50d1388ea", "fusion_lat": 0.0, "name": "9864601a0145c8ecc13408c50d1388ea", "is_reserved": 0, "rental_uris": {"android": "https://dc.lft.to/lastmile_qr_scan", "ios": "https://dc.lft.to/lastmile_qr_scan"}, "fusion_lon": 0.0}, {"lat": 38.9027115, "is_disabled": 0, "type": "electric_scooter", "lon": -77.00327283333333, "bike_id": "b556c176aa297809428266dad0b3d126", "fusion_lat": 0.0, "name": "b556c176aa297809428266dad0b3d126", "is_reserved": 0, "rental_uris": {"android": "https://dc.lft.to/lastmile_qr_scan", "ios": "https://dc.lft.to/lastmile_qr_scan"}, "fusion_lon": 0.0}, {"lat": 38.92827716666667, "is_disabled": 0, "type": "electric_scooter", "lon": -77.0262915, "bike_id": "9b8b502a50db5c4b341dd38e64b9aa50", "fusion_lat": 0.0, "name": "9b8b502a50db5c4b341dd38e64b9aa50", "is_reserved": 0, "rental_uris": {"android": "https://dc.lft.to/lastmile_qr_scan", "ios": "https://dc.lft.to/lastmile_qr_scan"}, "fusion_lon": 0.0}, {"lat": 38.95288016666667, "is_disabled": 0, "type": "electric_bike", "lon": -76.94600033333333, "bike_id": "06a36270a3bb01f220bf7fb6578ab66d", "fusion_lat": 0.0, "name": "06a36270a3bb01f220bf7fb6578ab66d", "is_reserved": 0, "rental_uris": {"android": "https://dc.lft.to/lastmile_qr_scan", "ios": "https://dc.lft.to/lastmile_qr_scan"}, "fusion_lon": 0.0}, {"lat": 38.95294666666667, "is_disabled": 0, "type": "electric_scooter", "lon": -77.08155216666667, "bike_id": "bccd0854067fc3178a27c9b2ed911702", "fusion_lat": 0.0, "name": "bccd0854067fc3178a27c9b2ed911702", "is_reserved": 0, "rental_uris": {"android": "https://dc.lft.to/lastmile_qr_scan", "ios": "https://dc.lft.to/lastmile_qr_scan"}, "fusion_lon": 0.0}, {"lat": 38.9103775, "is_disabled": 0, "type": "electric_scooter", "lon": -77.04258066666667, "bike_id": "c34a28fe08016997be9353b89118b2a0", "fusion_lat": 0.0, "name": "c34a28fe08016997be9353b89118b2a0", "is_reserved": 0, "rental_uris": {"android": "https://dc.lft.to/lastmile_qr_scan", "ios": "https://dc.lft.to/lastmile_qr_scan"}, "fusion_lon": 0.0}, {"lat": 38.938800666666666, "is_disabled": 0, "type": "electric_scooter", "lon": -77.03125866666667, "bike_id": "51b35e4840a69bbe1606b17d00d5e4fb", "fusion_lat": 0.0, "name": "51b35e4840a69bbe1606b17d00d5e4fb", "is_reserved": 0, "rental_uris": {"android": "https://dc.lft.to/lastmile_qr_scan", "ios": "https://dc.lft.to/lastmile_qr_scan"}, "fusion_lon": 0.0}, {"lat": 38.938641, "is_disabled": 0, "type": "electric_scooter", "lon": -77.02653216666667, "bike_id": "ea703acae87f8006d597cdb9656d96c8", "fusion_lat": 0.0, "name": "ea703acae87f8006d597cdb9656d96c8", "is_reserved": 0, "rental_uris": {"android": "https://dc.lft.to/lastmile_qr_scan", "ios": "https://dc.lft.to/lastmile_qr_scan"}, "fusion_lon": 0.0}, {"lat": 38.9191955, "is_disabled": 0, "type": "electric_scooter", "lon": -77.02506333333334, "bike_id": "9b7f3a69b6bc960c8dec67bfc00ce706", "fusion_lat": 0.0, "name": "9b7f3a69b6bc960c8dec67bfc00ce706", "is_reserved": 0, "rental_uris": {"android": "https://dc.lft.to/lastmile_qr_scan", "ios": "https://dc.lft.to/lastmile_qr_scan"}, "fusion_lon": 0.0}, {"lat": 38.90579233333333, "is_disabled": 0, "type": "electric_scooter", "lon": -77.0220505, "bike_id": "3dc29fff028d28a97eb5095102d8b313", "fusion_lat": 0.0, "name": "3dc29fff028d28a97eb5095102d8b313", "is_reserved": 0, "rental_uris": {"android": "https://dc.lft.to/lastmile_qr_scan", "ios": "https://dc.lft.to/lastmile_qr_scan"}, "fusion_lon": 0.0}, {"lat": 38.920625333333334, "is_disabled": 0, "type": "electric_scooter", "lon": -77.04375366666666, "bike_id": "1e45f4972520b3a487c80a711c73d9dc", "fusion_lat": 0.0, "name": "1e45f4972520b3a487c80a711c73d9dc", "is_reserved": 0, "rental_uris": {"android": "https://dc.lft.to/lastmile_qr_scan", "ios": "https://dc.lft.to/lastmile_qr_scan"}, "fusion_lon": 0.0}, {"lat": 38.8978365, "is_disabled": 0, "type": "electric_scooter", "lon": -77.00922433333334, "bike_id": "b6185a15655790d26ff15812c06a9d0d", "fusion_lat": 0.0, "name": "b6185a15655790d26ff15812c06a9d0d", "is_reserved": 0, "rental_uris": {"android": "https://dc.lft.to/lastmile_qr_scan", "ios": "https://dc.lft.to/lastmile_qr_scan"}, "fusion_lon": 0.0}, {"lat": 38.887652, "is_disabled": 0, "type": "electric_scooter", "lon": -76.95603616666666, "bike_id": "6b0be065b159f44b633c7e5c17c8e895", "fusion_lat": 0.0, "name": "6b0be065b159f44b633c7e5c17c8e895", "is_reserved": 0, "rental_uris": {"android": "https://dc.lft.to/lastmile_qr_scan", "ios": "https://dc.lft.to/lastmile_qr_scan"}, "fusion_lon": 0.0}, {"lat": 38.866583, "is_disabled": 0, "type": "electric_scooter", "lon": -76.98884083333333, "bike_id": "c04d476f23a36fef6aacfdf76c2436c6", "fusion_lat": 0.0, "name": "c04d476f23a36fef6aacfdf76c2436c6", "is_reserved": 0, "rental_uris": {"android": "https://dc.lft.to/lastmile_qr_scan", "ios": "https://dc.lft.to/lastmile_qr_scan"}, "fusion_lon": 0.0}, {"lat": 38.933246833333335, "is_disabled": 0, "type": "electric_scooter", "lon": -77.04370833333333, "bike_id": "21bcce3200cd2184118c4eb2a7bcc746", "fusion_lat": 0.0, "name": "21bcce3200cd2184118c4eb2a7bcc746", "is_reserved": 0, "rental_uris": {"android": "https://dc.lft.to/lastmile_qr_scan", "ios": "https://dc.lft.to/lastmile_qr_scan"}, "fusion_lon": 0.0}, {"lat": 38.898404166666666, "is_disabled": 0, "type": "electric_scooter", "lon": -77.03028416666666, "bike_id": "54d17f659c9f81a142d3271c1c8aafeb", "fusion_lat": 0.0, "name": "54d17f659c9f81a142d3271c1c8aafeb", "is_reserved": 0, "rental_uris": {"android": "https://dc.lft.to/lastmile_qr_scan", "ios": "https://dc.lft.to/lastmile_qr_scan"}, "fusion_lon": 0.0}, {"lat": 38.9172435, "is_disabled": 0, "type": "electric_scooter", "lon": -77.04587483333333, "bike_id": "06aabc5bc6e970b08652b1a625de9928", "fusion_lat": 0.0, "name": "06aabc5bc6e970b08652b1a625de9928", "is_reserved": 0, "rental_uris": {"android": "https://dc.lft.to/lastmile_qr_scan", "ios": "https://dc.lft.to/lastmile_qr_scan"}, "fusion_lon": 0.0}, {"lat": 38.919579, "is_disabled": 0, "type": "electric_scooter", "lon": -76.980769, "bike_id": "982bedce7bd9044fe06d1c9bce12eb4c", "fusion_lat": 0.0, "name": "982bedce7bd9044fe06d1c9bce12eb4c", "is_reserved": 0, "rental_uris": {"android": "https://dc.lft.to/lastmile_qr_scan", "ios": "https://dc.lft.to/lastmile_qr_scan"}, "fusion_lon": 0.0}, {"lat": 38.9024995, "is_disabled": 0, "type": "electric_scooter", "lon": -77.02822933333333, "bike_id": "86533a2e945ad67eed1477e575615057", "fusion_lat": 0.0, "name": "86533a2e945ad67eed1477e575615057", "is_reserved": 0, "rental_uris": {"android": "https://dc.lft.to/lastmile_qr_scan", "ios": "https://dc.lft.to/lastmile_qr_scan"}, "fusion_lon": 0.0}, {"lat": 38.85570283333333, "is_disabled": 0, "type": "electric_bike", "lon": -77.11134633333333, "bike_id": "6cfb15ab028d0b48ce25e9c96a474ce6", "fusion_lat": 0.0, "name": "6cfb15ab028d0b48ce25e9c96a474ce6", "is_reserved": 0, "rental_uris": {"android": "https://dc.lft.to/lastmile_qr_scan", "ios": "https://dc.lft.to/lastmile_qr_scan"}, "fusion_lon": 0.0}, {"lat": 38.93081633333333, "is_disabled": 0, "type": "electric_scooter", "lon": -77.03415283333334, "bike_id": "10cb9bd17faa8593c9bc6203bfdf4c24", "fusion_lat": 0.0, "name": "10cb9bd17faa8593c9bc6203bfdf4c24", "is_reserved": 0, "rental_uris": {"android": "https://dc.lft.to/lastmile_qr_scan", "ios": "https://dc.lft.to/lastmile_qr_scan"}, "fusion_lon": 0.0}, {"lat": 38.805798, "is_disabled": 0, "type": "electric_bike", "lon": -77.06860483333334, "bike_id": "cb9551e64e5dc07bd7415676e6a53353", "fusion_lat": 0.0, "name": "cb9551e64e5dc07bd7415676e6a53353", "is_reserved": 0, "rental_uris": {"android": "https://dc.lft.to/lastmile_qr_scan", "ios": "https://dc.lft.to/lastmile_qr_scan"}, "fusion_lon": 0.0}, {"lat": 38.985072333333335, "is_disabled": 0, "type": "electric_bike", "lon": -76.98203, "bike_id": "bc7e288b0796e763de9ab0c79f847789", "fusion_lat": 0.0, "name": "bc7e288b0796e763de9ab0c79f847789", "is_reserved": 0, "rental_uris": {"android": "https://dc.lft.to/lastmile_qr_scan", "ios": "https://dc.lft.to/lastmile_qr_scan"}, "fusion_lon": 0.0}, {"lat": 38.9235475, "is_disabled": 0, "type": "electric_scooter", "lon": -77.03413283333333, "bike_id": "781e6193575dc757e8280d500ebc7c84", "fusion_lat": 0.0, "name": "781e6193575dc757e8280d500ebc7c84", "is_reserved": 0, "rental_uris": {"android": "https://dc.lft.to/lastmile_qr_scan", "ios": "https://dc.lft.to/lastmile_qr_scan"}, "fusion_lon": 0.0}, {"lat": 38.927376, "is_disabled": 0, "type": "electric_scooter", "lon": -77.0344705, "bike_id": "9c5639bc06ceefb694183ffe11f0b181", "fusion_lat": 0.0, "name": "9c5639bc06ceefb694183ffe11f0b181", "is_reserved": 0, "rental_uris": {"android": "https://dc.lft.to/lastmile_qr_scan", "ios": "https://dc.lft.to/lastmile_qr_scan"}, "fusion_lon": 0.0}, {"lat": 38.894052, "is_disabled": 0, "type": "electric_scooter", "lon": -77.024297, "bike_id": "c32ecf38b4ddbffa537a723650fe951f", "fusion_lat": 0.0, "name": "c32ecf38b4ddbffa537a723650fe951f", "is_reserved": 0, "rental_uris": {"android": "https://dc.lft.to/lastmile_qr_scan", "ios": "https://dc.lft.to/lastmile_qr_scan"}, "fusion_lon": 0.0}, {"lat": 38.9827785, "is_disabled": 0, "type": "electric_bike", "lon": -77.01768583333333, "bike_id": "ef1932ce42ece421b151f07ec5acb069", "fusion_lat": 0.0, "name": "ef1932ce42ece421b151f07ec5acb069", "is_reserved": 0, "rental_uris": {"android": "https://dc.lft.to/lastmile_qr_scan", "ios": "https://dc.lft.to/lastmile_qr_scan"}, "fusion_lon": 0.0}, {"lat": 38.920149333333335, "is_disabled": 0, "type": "electric_scooter", "lon": -77.01956583333333, "bike_id": "522974abf0fd2eaae0cf64354010e3a1", "fusion_lat": 0.0, "name": "522974abf0fd2eaae0cf64354010e3a1", "is_reserved": 0, "rental_uris": {"android": "https://dc.lft.to/lastmile_qr_scan", "ios": "https://dc.lft.to/lastmile_qr_scan"}, "fusion_lon": 0.0}, {"lat": 38.90115983333333, "is_disabled": 0, "type": "electric_scooter", "lon": -77.05007283333333, "bike_id": "ff6d1c1d065a190cd973a262f0f2fc7a", "fusion_lat": 0.0, "name": "ff6d1c1d065a190cd973a262f0f2fc7a", "is_reserved": 0, "rental_uris": {"android": "https://dc.lft.to/lastmile_qr_scan", "ios": "https://dc.lft.to/lastmile_qr_scan"}, "fusion_lon": 0.0}, {"lat": 38.895558333333334, "is_disabled": 0, "type": "electric_scooter", "lon": -77.0228665, "bike_id": "a4aa842d89689f7ae2fc56d3969a6d69", "fusion_lat": 0.0, "name": "a4aa842d89689f7ae2fc56d3969a6d69", "is_reserved": 0, "rental_uris": {"android": "https://dc.lft.to/lastmile_qr_scan", "ios": "https://dc.lft.to/lastmile_qr_scan"}, "fusion_lon": 0.0}, {"lat": 38.90268583333334, "is_disabled": 0, "type": "electric_scooter", "lon": -77.018545, "bike_id": "23327c880f3ac921025e946ab9e31d10", "fusion_lat": 0.0, "name": "23327c880f3ac921025e946ab9e31d10", "is_reserved": 0, "rental_uris": {"android": "https://dc.lft.to/lastmile_qr_scan", "ios": "https://dc.lft.to/lastmile_qr_scan"}, "fusion_lon": 0.0}, {"lat": 38.91954583333333, "is_disabled": 0, "type": "electric_scooter", "lon": -77.032114, "bike_id": "b122b9a2020c680f46db717969c8c3be", "fusion_lat": 0.0, "name": "b122b9a2020c680f46db717969c8c3be", "is_reserved": 0, "rental_uris": {"android": "https://dc.lft.to/lastmile_qr_scan", "ios": "https://dc.lft.to/lastmile_qr_scan"}, "fusion_lon": 0.0}, {"lat": 38.8867965, "is_disabled": 0, "type": "electric_bike", "lon": -77.16242816666667, "bike_id": "e5a244f67491671f13fd7c3caeeae47d", "fusion_lat": 0.0, "name": "e5a244f67491671f13fd7c3caeeae47d", "is_reserved": 0, "rental_uris": {"android": "https://dc.lft.to/lastmile_qr_scan", "ios": "https://dc.lft.to/lastmile_qr_scan"}, "fusion_lon": 0.0}, {"lat": 38.948248, "is_disabled": 0, "type": "electric_scooter", "lon": -76.99904783333334, "bike_id": "bbfa9597e52880d83b4e40cfe6e824b9", "fusion_lat": 0.0, "name": "bbfa9597e52880d83b4e40cfe6e824b9", "is_reserved": 0, "rental_uris": {"android": "https://dc.lft.to/lastmile_qr_scan", "ios": "https://dc.lft.to/lastmile_qr_scan"}, "fusion_lon": 0.0}, {"lat": 38.90833083333333, "is_disabled": 0, "type": "electric_scooter", "lon": -77.02012716666667, "bike_id": "783db571dec9854136aed4793487965c", "fusion_lat": 0.0, "name": "783db571dec9854136aed4793487965c", "is_reserved": 0, "rental_uris": {"android": "https://dc.lft.to/lastmile_qr_scan", "ios": "https://dc.lft.to/lastmile_qr_scan"}, "fusion_lon": 0.0}, {"lat": 38.906513333333336, "is_disabled": 0, "type": "electric_scooter", "lon": -77.00824266666666, "bike_id": "c8bc976f09506a522bb4b992d86fde19", "fusion_lat": 0.0, "name": "c8bc976f09506a522bb4b992d86fde19", "is_reserved": 0, "rental_uris": {"android": "https://dc.lft.to/lastmile_qr_scan", "ios": "https://dc.lft.to/lastmile_qr_scan"}, "fusion_lon": 0.0}, {"lat": 38.91605666666667, "is_disabled": 0, "type": "electric_scooter", "lon": -77.038532, "bike_id": "223d0dfb50b11888ef564d7b321f897d", "fusion_lat": 0.0, "name": "223d0dfb50b11888ef564d7b321f897d", "is_reserved": 0, "rental_uris": {"android": "https://dc.lft.to/lastmile_qr_scan", "ios": "https://dc.lft.to/lastmile_qr_scan"}, "fusion_lon": 0.0}, {"lat": 38.928985833333336, "is_disabled": 0, "type": "electric_scooter", "lon": -77.016587, "bike_id": "f3c8466f3be296e2bd1be354f67c1278", "fusion_lat": 0.0, "name": "f3c8466f3be296e2bd1be354f67c1278", "is_reserved": 0, "rental_uris": {"android": "https://dc.lft.to/lastmile_qr_scan", "ios": "https://dc.lft.to/lastmile_qr_scan"}, "fusion_lon": 0.0}, {"lat": 38.885539, "is_disabled": 0, "type": "electric_bike", "lon": -77.11789566666667, "bike_id": "c45e890fdfa1ec87eeaff03e9481b17a", "fusion_lat": 0.0, "name": "c45e890fdfa1ec87eeaff03e9481b17a", "is_reserved": 0, "rental_uris": {"android": "https://dc.lft.to/lastmile_qr_scan", "ios": "https://dc.lft.to/lastmile_qr_scan"}, "fusion_lon": 0.0}, {"lat": 38.933812833333334, "is_disabled": 0, "type": "electric_scooter", "lon": -77.03554383333334, "bike_id": "e11ec35e8f179d0c02b4a78b6fff5bc4", "fusion_lat": 0.0, "name": "e11ec35e8f179d0c02b4a78b6fff5bc4", "is_reserved": 0, "rental_uris": {"android": "https://dc.lft.to/lastmile_qr_scan", "ios": "https://dc.lft.to/lastmile_qr_scan"}, "fusion_lon": 0.0}, {"lat": 38.8860635, "is_disabled": 0, "type": "electric_scooter", "lon": -77.01893133333333, "bike_id": "9b3e34aae44412586e74df5658e83da1", "fusion_lat": 0.0, "name": "9b3e34aae44412586e74df5658e83da1", "is_reserved": 0, "rental_uris": {"android": "https://dc.lft.to/lastmile_qr_scan", "ios": "https://dc.lft.to/lastmile_qr_scan"}, "fusion_lon": 0.0}, {"lat": 38.90395183333333, "is_disabled": 0, "type": "electric_scooter", "lon": -76.99004783333334, "bike_id": "329395c2e263204883ea3b08678b53f8", "fusion_lat": 0.0, "name": "329395c2e263204883ea3b08678b53f8", "is_reserved": 0, "rental_uris": {"android": "https://dc.lft.to/lastmile_qr_scan", "ios": "https://dc.lft.to/lastmile_qr_scan"}, "fusion_lon": 0.0}, {"lat": 38.95715716666667, "is_disabled": 0, "type": "electric_scooter", "lon": -77.02402916666666, "bike_id": "646e18fe682d6e883eb2041bbe5cd746", "fusion_lat": 0.0, "name": "646e18fe682d6e883eb2041bbe5cd746", "is_reserved": 0, "rental_uris": {"android": "https://dc.lft.to/lastmile_qr_scan", "ios": "https://dc.lft.to/lastmile_qr_scan"}, "fusion_lon": 0.0}, {"lat": 38.899945833333334, "is_disabled": 0, "type": "electric_scooter", "lon": -77.04234083333333, "bike_id": "4c6a1f4fc1e61d7423ed02a54f53ed53", "fusion_lat": 0.0, "name": "4c6a1f4fc1e61d7423ed02a54f53ed53", "is_reserved": 0, "rental_uris": {"android": "https://dc.lft.to/lastmile_qr_scan", "ios": "https://dc.lft.to/lastmile_qr_scan"}, "fusion_lon": 0.0}, {"lat": 38.93642716666667, "is_disabled": 0, "type": "electric_scooter", "lon": -77.0249005, "bike_id": "cd57fed615fcc1e005adf4e53c017fed", "fusion_lat": 0.0, "name": "cd57fed615fcc1e005adf4e53c017fed", "is_reserved": 0, "rental_uris": {"android": "https://dc.lft.to/lastmile_qr_scan", "ios": "https://dc.lft.to/lastmile_qr_scan"}, "fusion_lon": 0.0}, {"lat": 38.908068166666666, "is_disabled": 0, "type": "electric_scooter", "lon": -77.06361983333333, "bike_id": "e2b3708e2459cca10bc9e806e6721041", "fusion_lat": 0.0, "name": "e2b3708e2459cca10bc9e806e6721041", "is_reserved": 0, "rental_uris": {"android": "https://dc.lft.to/lastmile_qr_scan", "ios": "https://dc.lft.to/lastmile_qr_scan"}, "fusion_lon": 0.0}, {"lat": 38.929576833333336, "is_disabled": 0, "type": "electric_scooter", "lon": -77.03634116666667, "bike_id": "2e7c68ed0b1e3061f908015afb7a27b3", "fusion_lat": 0.0, "name": "2e7c68ed0b1e3061f908015afb7a27b3", "is_reserved": 0, "rental_uris": {"android": "https://dc.lft.to/lastmile_qr_scan", "ios": "https://dc.lft.to/lastmile_qr_scan"}, "fusion_lon": 0.0}, {"lat": 38.914905833333336, "is_disabled": 0, "type": "electric_scooter", "lon": -77.03264566666667, "bike_id": "821fe1078f32dfa593b17efdff7c7e22", "fusion_lat": 0.0, "name": "821fe1078f32dfa593b17efdff7c7e22", "is_reserved": 0, "rental_uris": {"android": "https://dc.lft.to/lastmile_qr_scan", "ios": "https://dc.lft.to/lastmile_qr_scan"}, "fusion_lon": 0.0}, {"lat": 38.8849205, "is_disabled": 0, "type": "electric_scooter", "lon": -77.03475966666667, "bike_id": "d567a5c50b184f6dfc93a1e423a30ac1", "fusion_lat": 0.0, "name": "d567a5c50b184f6dfc93a1e423a30ac1", "is_reserved": 0, "rental_uris": {"android": "https://dc.lft.to/lastmile_qr_scan", "ios": "https://dc.lft.to/lastmile_qr_scan"}, "fusion_lon": 0.0}, {"lat": 38.900402, "is_disabled": 0, "type": "electric_scooter", "lon": -76.99376083333334, "bike_id": "94c67ab4e6ac74d9de1183eb81e3c92b", "fusion_lat": 0.0, "name": "94c67ab4e6ac74d9de1183eb81e3c92b", "is_reserved": 0, "rental_uris": {"android": "https://dc.lft.to/lastmile_qr_scan", "ios": "https://dc.lft.to/lastmile_qr_scan"}, "fusion_lon": 0.0}, {"lat": 38.9253495, "is_disabled": 0, "type": "electric_scooter", "lon": -77.044348, "bike_id": "56cd098b6901f767ca32e806b8b5636a", "fusion_lat": 0.0, "name": "56cd098b6901f767ca32e806b8b5636a", "is_reserved": 0, "rental_uris": {"android": "https://dc.lft.to/lastmile_qr_scan", "ios": "https://dc.lft.to/lastmile_qr_scan"}, "fusion_lon": 0.0}, {"lat": 38.92268166666667, "is_disabled": 0, "type": "electric_scooter", "lon": -77.043069, "bike_id": "c866a799bb9f9d4c39ab9589f3efdff5", "fusion_lat": 0.0, "name": "c866a799bb9f9d4c39ab9589f3efdff5", "is_reserved": 0, "rental_uris": {"android": "https://dc.lft.to/lastmile_qr_scan", "ios": "https://dc.lft.to/lastmile_qr_scan"}, "fusion_lon": 0.0}, {"lat": 38.90397566666667, "is_disabled": 0, "type": "electric_scooter", "lon": -77.03848516666666, "bike_id": "93550b5c2b7dcb921ffb8fe649a53e05", "fusion_lat": 0.0, "name": "93550b5c2b7dcb921ffb8fe649a53e05", "is_reserved": 0, "rental_uris": {"android": "https://dc.lft.to/lastmile_qr_scan", "ios": "https://dc.lft.to/lastmile_qr_scan"}, "fusion_lon": 0.0}, {"lat": 38.92856883333333, "is_disabled": 0, "type": "electric_bike", "lon": -77.10680066666667, "bike_id": "92f4b7906abb5c70c859cb4ec9e86cc9", "fusion_lat": 0.0, "name": "92f4b7906abb5c70c859cb4ec9e86cc9", "is_reserved": 0, "rental_uris": {"android": "https://dc.lft.to/lastmile_qr_scan", "ios": "https://dc.lft.to/lastmile_qr_scan"}, "fusion_lon": 0.0}, {"lat": 38.92200116666667, "is_disabled": 0, "type": "electric_scooter", "lon": -77.04128683333333, "bike_id": "041fa2a4f967f4f913fee7012c3a347d", "fusion_lat": 0.0, "name": "041fa2a4f967f4f913fee7012c3a347d", "is_reserved": 0, "rental_uris": {"android": "https://dc.lft.to/lastmile_qr_scan", "ios": "https://dc.lft.to/lastmile_qr_scan"}, "fusion_lon": 0.0}, {"lat": 38.90271516666667, "is_disabled": 0, "type": "electric_scooter", "lon": -77.002147, "bike_id": "55da4ba119b3ecb95d7f43da24932538", "fusion_lat": 0.0, "name": "55da4ba119b3ecb95d7f43da24932538", "is_reserved": 0, "rental_uris": {"android": "https://dc.lft.to/lastmile_qr_scan", "ios": "https://dc.lft.to/lastmile_qr_scan"}, "fusion_lon": 0.0}, {"lat": 38.881142, "is_disabled": 0, "type": "electric_scooter", "lon": -76.98338616666666, "bike_id": "e5b9613c46ebedbc5bbfb759c002f8fd", "fusion_lat": 0.0, "name": "e5b9613c46ebedbc5bbfb759c002f8fd", "is_reserved": 0, "rental_uris": {"android": "https://dc.lft.to/lastmile_qr_scan", "ios": "https://dc.lft.to/lastmile_qr_scan"}, "fusion_lon": 0.0}, {"lat": 38.867139333333334, "is_disabled": 0, "type": "electric_scooter", "lon": -76.98727083333333, "bike_id": "90f5d38ab7809ec40d02ce16b797f2d1", "fusion_lat": 0.0, "name": "90f5d38ab7809ec40d02ce16b797f2d1", "is_reserved": 0, "rental_uris": {"android": "https://dc.lft.to/lastmile_qr_scan", "ios": "https://dc.lft.to/lastmile_qr_scan"}, "fusion_lon": 0.0}, {"lat": 38.936735, "is_disabled": 0, "type": "electric_scooter", "lon": -77.05932466666667, "bike_id": "6e615073c0fd85a75479956cdb8edfc7", "fusion_lat": 0.0, "name": "6e615073c0fd85a75479956cdb8edfc7", "is_reserved": 0, "rental_uris": {"android": "https://dc.lft.to/lastmile_qr_scan", "ios": "https://dc.lft.to/lastmile_qr_scan"}, "fusion_lon": 0.0}, {"lat": 38.927134833333334, "is_disabled": 0, "type": "electric_scooter", "lon": -77.02088516666667, "bike_id": "170e4fe4f69a338257b0d13ad02cf5bc", "fusion_lat": 0.0, "name": "170e4fe4f69a338257b0d13ad02cf5bc", "is_reserved": 0, "rental_uris": {"android": "https://dc.lft.to/lastmile_qr_scan", "ios": "https://dc.lft.to/lastmile_qr_scan"}, "fusion_lon": 0.0}, {"lat": 38.871475333333336, "is_disabled": 0, "type": "electric_bike", "lon": -76.93706633333333, "bike_id": "e57e6307fb077684b49b1310b82563d5", "fusion_lat": 0.0, "name": "e57e6307fb077684b49b1310b82563d5", "is_reserved": 0, "rental_uris": {"android": "https://dc.lft.to/lastmile_qr_scan", "ios": "https://dc.lft.to/lastmile_qr_scan"}, "fusion_lon": 0.0}, {"lat": 38.900769333333336, "is_disabled": 0, "type": "electric_scooter", "lon": -77.0506445, "bike_id": "1f27ed89ed5cfd752f738e9e7b931e5e", "fusion_lat": 0.0, "name": "1f27ed89ed5cfd752f738e9e7b931e5e", "is_reserved": 0, "rental_uris": {"android": "https://dc.lft.to/lastmile_qr_scan", "ios": "https://dc.lft.to/lastmile_qr_scan"}, "fusion_lon": 0.0}, {"lat": 38.8457275, "is_disabled": 0, "type": "electric_bike", "lon": -77.09622033333333, "bike_id": "b6635b4bcf6bc800ad59a5faff1db612", "fusion_lat": 0.0, "name": "b6635b4bcf6bc800ad59a5faff1db612", "is_reserved": 0, "rental_uris": {"android": "https://dc.lft.to/lastmile_qr_scan", "ios": "https://dc.lft.to/lastmile_qr_scan"}, "fusion_lon": 0.0}, {"lat": 38.83695916666667, "is_disabled": 0, "type": "electric_scooter", "lon": -77.10308383333333, "bike_id": "c31995321b8e0361f5ac6e9b5384e9c9", "fusion_lat": 0.0, "name": "c31995321b8e0361f5ac6e9b5384e9c9", "is_reserved": 0, "rental_uris": {"android": "https://dc.lft.to/lastmile_qr_scan", "ios": "https://dc.lft.to/lastmile_qr_scan"}, "fusion_lon": 0.0}, {"lat": 38.916004, "is_disabled": 0, "type": "electric_scooter", "lon": -77.03291283333333, "bike_id": "673957cbc23d8146720e86a826c92316", "fusion_lat": 0.0, "name": "673957cbc23d8146720e86a826c92316", "is_reserved": 0, "rental_uris": {"android": "https://dc.lft.to/lastmile_qr_scan", "ios": "https://dc.lft.to/lastmile_qr_scan"}, "fusion_lon": 0.0}, {"lat": 38.88197666666667, "is_disabled": 0, "type": "electric_scooter", "lon": -76.99620766666666, "bike_id": "dbc7ceb1d70d95a3526006a12fa6c9e0", "fusion_lat": 0.0, "name": "dbc7ceb1d70d95a3526006a12fa6c9e0", "is_reserved": 0, "rental_uris": {"android": "https://dc.lft.to/lastmile_qr_scan", "ios": "https://dc.lft.to/lastmile_qr_scan"}, "fusion_lon": 0.0}, {"lat": 38.9083645, "is_disabled": 0, "type": "electric_scooter", "lon": -77.04331833333333, "bike_id": "3656b61761e83d70c53b94e57dadefef", "fusion_lat": 0.0, "name": "3656b61761e83d70c53b94e57dadefef", "is_reserved": 0, "rental_uris": {"android": "https://dc.lft.to/lastmile_qr_scan", "ios": "https://dc.lft.to/lastmile_qr_scan"}, "fusion_lon": 0.0}, {"lat": 38.87911533333333, "is_disabled": 0, "type": "electric_scooter", "lon": -77.00880966666666, "bike_id": "5413ad85b03d8fc6d6cc0fa715b1e459", "fusion_lat": 0.0, "name": "5413ad85b03d8fc6d6cc0fa715b1e459", "is_reserved": 0, "rental_uris": {"android": "https://dc.lft.to/lastmile_qr_scan", "ios": "https://dc.lft.to/lastmile_qr_scan"}, "fusion_lon": 0.0}, {"lat": 38.895046, "is_disabled": 0, "type": "electric_scooter", "lon": -77.00327433333334, "bike_id": "41a5e1bd0aa545f6c0e457f6c6eb645f", "fusion_lat": 0.0, "name": "41a5e1bd0aa545f6c0e457f6c6eb645f", "is_reserved": 0, "rental_uris": {"android": "https://dc.lft.to/lastmile_qr_scan", "ios": "https://dc.lft.to/lastmile_qr_scan"}, "fusion_lon": 0.0}, {"lat": 38.899846833333335, "is_disabled": 0, "type": "electric_scooter", "lon": -77.02149716666666, "bike_id": "7ac2727e3b802da15e5b0c8b2ba5c10c", "fusion_lat": 0.0, "name": "7ac2727e3b802da15e5b0c8b2ba5c10c", "is_reserved": 0, "rental_uris": {"android": "https://dc.lft.to/lastmile_qr_scan", "ios": "https://dc.lft.to/lastmile_qr_scan"}, "fusion_lon": 0.0}, {"lat": 38.8706685, "is_disabled": 0, "type": "electric_scooter", "lon": -77.00842083333333, "bike_id": "728af6bc731fdafc21f07eb1c5f25855", "fusion_lat": 0.0, "name": "728af6bc731fdafc21f07eb1c5f25855", "is_reserved": 0, "rental_uris": {"android": "https://dc.lft.to/lastmile_qr_scan", "ios": "https://dc.lft.to/lastmile_qr_scan"}, "fusion_lon": 0.0}, {"lat": 38.918285833333336, "is_disabled": 0, "type": "electric_scooter", "lon": -77.012093, "bike_id": "acc848714b4a3e5a5e8b779b79e1940a", "fusion_lat": 0.0, "name": "acc848714b4a3e5a5e8b779b79e1940a", "is_reserved": 0, "rental_uris": {"android": "https://dc.lft.to/lastmile_qr_scan", "ios": "https://dc.lft.to/lastmile_qr_scan"}, "fusion_lon": 0.0}, {"lat": 38.876892166666664, "is_disabled": 0, "type": "electric_scooter", "lon": -77.003937, "bike_id": "8845d98ba5d9448bef045329c319c844", "fusion_lat": 0.0, "name": "8845d98ba5d9448bef045329c319c844", "is_reserved": 0, "rental_uris": {"android": "https://dc.lft.to/lastmile_qr_scan", "ios": "https://dc.lft.to/lastmile_qr_scan"}, "fusion_lon": 0.0}, {"lat": 38.9079985, "is_disabled": 0, "type": "electric_scooter", "lon": -77.0020285, "bike_id": "c6482292e55b5c872e7f6da49410a8df", "fusion_lat": 0.0, "name": "c6482292e55b5c872e7f6da49410a8df", "is_reserved": 0, "rental_uris": {"android": "https://dc.lft.to/lastmile_qr_scan", "ios": "https://dc.lft.to/lastmile_qr_scan"}, "fusion_lon": 0.0}, {"lat": 38.92121366666667, "is_disabled": 0, "type": "electric_scooter", "lon": -77.04119416666667, "bike_id": "e36debba5a25d1e93fdcda1b97c7a4c9", "fusion_lat": 0.0, "name": "e36debba5a25d1e93fdcda1b97c7a4c9", "is_reserved": 0, "rental_uris": {"android": "https://dc.lft.to/lastmile_qr_scan", "ios": "https://dc.lft.to/lastmile_qr_scan"}, "fusion_lon": 0.0}, {"lat": 38.93341816666667, "is_disabled": 0, "type": "electric_scooter", "lon": -76.993093, "bike_id": "bb77798cde431e5fdfd932459b28c37d", "fusion_lat": 0.0, "name": "bb77798cde431e5fdfd932459b28c37d", "is_reserved": 0, "rental_uris": {"android": "https://dc.lft.to/lastmile_qr_scan", "ios": "https://dc.lft.to/lastmile_qr_scan"}, "fusion_lon": 0.0}, {"lat": 38.86617833333333, "is_disabled": 0, "type": "electric_scooter", "lon": -76.98639766666666, "bike_id": "b73ce979196c77be8c2954720911b38e", "fusion_lat": 0.0, "name": "b73ce979196c77be8c2954720911b38e", "is_reserved": 0, "rental_uris": {"android": "https://dc.lft.to/lastmile_qr_scan", "ios": "https://dc.lft.to/lastmile_qr_scan"}, "fusion_lon": 0.0}, {"lat": 38.8049915, "is_disabled": 0, "type": "electric_bike", "lon": -77.04131783333334, "bike_id": "a838c623d835b130774bc6804e4afd83", "fusion_lat": 0.0, "name": "a838c623d835b130774bc6804e4afd83", "is_reserved": 0, "rental_uris": {"android": "https://dc.lft.to/lastmile_qr_scan", "ios": "https://dc.lft.to/lastmile_qr_scan"}, "fusion_lon": 0.0}, {"lat": 38.91285083333333, "is_disabled": 0, "type": "electric_scooter", "lon": -77.03852783333333, "bike_id": "5cd4d6e151b6feb079d91ebee51d66e8", "fusion_lat": 0.0, "name": "5cd4d6e151b6feb079d91ebee51d66e8", "is_reserved": 0, "rental_uris": {"android": "https://dc.lft.to/lastmile_qr_scan", "ios": "https://dc.lft.to/lastmile_qr_scan"}, "fusion_lon": 0.0}, {"lat": 38.9183535, "is_disabled": 0, "type": "electric_scooter", "lon": -77.0230005, "bike_id": "16724621a216bbb2296e0963e57160e9", "fusion_lat": 0.0, "name": "16724621a216bbb2296e0963e57160e9", "is_reserved": 0, "rental_uris": {"android": "https://dc.lft.to/lastmile_qr_scan", "ios": "https://dc.lft.to/lastmile_qr_scan"}, "fusion_lon": 0.0}, {"lat": 38.9134115, "is_disabled": 0, "type": "electric_scooter", "lon": -77.03181383333333, "bike_id": "77a3600cbfead5b6c18aee3cdc192426", "fusion_lat": 0.0, "name": "77a3600cbfead5b6c18aee3cdc192426", "is_reserved": 0, "rental_uris": {"android": "https://dc.lft.to/lastmile_qr_scan", "ios": "https://dc.lft.to/lastmile_qr_scan"}, "fusion_lon": 0.0}, {"lat": 38.9382425, "is_disabled": 0, "type": "electric_bike", "lon": -76.99040483333333, "bike_id": "6d00f2cc5c4badfe7ac876f5b7714a94", "fusion_lat": 0.0, "name": "6d00f2cc5c4badfe7ac876f5b7714a94", "is_reserved": 0, "rental_uris": {"android": "https://dc.lft.to/lastmile_qr_scan", "ios": "https://dc.lft.to/lastmile_qr_scan"}, "fusion_lon": 0.0}, {"lat": 38.93752516666667, "is_disabled": 0, "type": "electric_scooter", "lon": -77.03457733333333, "bike_id": "1b9c85d5a2608fb1d75d1ea283efa9e6", "fusion_lat": 0.0, "name": "1b9c85d5a2608fb1d75d1ea283efa9e6", "is_reserved": 0, "rental_uris": {"android": "https://dc.lft.to/lastmile_qr_scan", "ios": "https://dc.lft.to/lastmile_qr_scan"}, "fusion_lon": 0.0}, {"lat": 38.90646983333333, "is_disabled": 0, "type": "electric_scooter", "lon": -76.990268, "bike_id": "650c96ac76b40b84f2e8de114462ac63", "fusion_lat": 0.0, "name": "650c96ac76b40b84f2e8de114462ac63", "is_reserved": 0, "rental_uris": {"android": "https://dc.lft.to/lastmile_qr_scan", "ios": "https://dc.lft.to/lastmile_qr_scan"}, "fusion_lon": 0.0}, {"lat": 38.91422283333333, "is_disabled": 0, "type": "electric_scooter", "lon": -77.03186783333334, "bike_id": "96550dea13272512a309bfb1982e9298", "fusion_lat": 0.0, "name": "96550dea13272512a309bfb1982e9298", "is_reserved": 0, "rental_uris": {"android": "https://dc.lft.to/lastmile_qr_scan", "ios": "https://dc.lft.to/lastmile_qr_scan"}, "fusion_lon": 0.0}, {"lat": 38.90978366666667, "is_disabled": 0, "type": "electric_scooter", "lon": -77.03303816666667, "bike_id": "ff2ba4f7e07305e5887bc2e0a3690357", "fusion_lat": 0.0, "name": "ff2ba4f7e07305e5887bc2e0a3690357", "is_reserved": 0, "rental_uris": {"android": "https://dc.lft.to/lastmile_qr_scan", "ios": "https://dc.lft.to/lastmile_qr_scan"}, "fusion_lon": 0.0}, {"lat": 38.85215266666667, "is_disabled": 0, "type": "electric_bike", "lon": -76.9958465, "bike_id": "70eaad64240a501759599c9ae5717173", "fusion_lat": 0.0, "name": "70eaad64240a501759599c9ae5717173", "is_reserved": 0, "rental_uris": {"android": "https://dc.lft.to/lastmile_qr_scan", "ios": "https://dc.lft.to/lastmile_qr_scan"}, "fusion_lon": 0.0}, {"lat": 38.8442935, "is_disabled": 0, "type": "electric_scooter", "lon": -76.99779783333334, "bike_id": "54a88107109b70afc0f8cfcb1386535a", "fusion_lat": 0.0, "name": "54a88107109b70afc0f8cfcb1386535a", "is_reserved": 0, "rental_uris": {"android": "https://dc.lft.to/lastmile_qr_scan", "ios": "https://dc.lft.to/lastmile_qr_scan"}, "fusion_lon": 0.0}, {"lat": 38.915431833333336, "is_disabled": 0, "type": "electric_scooter", "lon": -77.03206183333333, "bike_id": "a7bf76645c8a84193e75cb22042d2239", "fusion_lat": 0.0, "name": "a7bf76645c8a84193e75cb22042d2239", "is_reserved": 0, "rental_uris": {"android": "https://dc.lft.to/lastmile_qr_scan", "ios": "https://dc.lft.to/lastmile_qr_scan"}, "fusion_lon": 0.0}, {"lat": 38.95609533333333, "is_disabled": 0, "type": "electric_scooter", "lon": -77.010181, "bike_id": "a5437af7dd896822af3bcb7527c6ef4d", "fusion_lat": 0.0, "name": "a5437af7dd896822af3bcb7527c6ef4d", "is_reserved": 0, "rental_uris": {"android": "https://dc.lft.to/lastmile_qr_scan", "ios": "https://dc.lft.to/lastmile_qr_scan"}, "fusion_lon": 0.0}, {"lat": 38.933157, "is_disabled": 0, "type": "electric_scooter", "lon": -77.04531483333334, "bike_id": "9313bd3e842feed35196d5aeaf96496f", "fusion_lat": 0.0, "name": "9313bd3e842feed35196d5aeaf96496f", "is_reserved": 0, "rental_uris": {"android": "https://dc.lft.to/lastmile_qr_scan", "ios": "https://dc.lft.to/lastmile_qr_scan"}, "fusion_lon": 0.0}, {"lat": 38.94896, "is_disabled": 0, "type": "electric_scooter", "lon": -77.03049116666666, "bike_id": "a2e069814bee6216a037997bda3a8c6b", "fusion_lat": 0.0, "name": "a2e069814bee6216a037997bda3a8c6b", "is_reserved": 0, "rental_uris": {"android": "https://dc.lft.to/lastmile_qr_scan", "ios": "https://dc.lft.to/lastmile_qr_scan"}, "fusion_lon": 0.0}, {"lat": 38.9723855, "is_disabled": 0, "type": "electric_bike", "lon": -76.99340316666667, "bike_id": "4077f63d4b5cf02f351d6250b2910ee1", "fusion_lat": 0.0, "name": "4077f63d4b5cf02f351d6250b2910ee1", "is_reserved": 0, "rental_uris": {"android": "https://dc.lft.to/lastmile_qr_scan", "ios": "https://dc.lft.to/lastmile_qr_scan"}, "fusion_lon": 0.0}, {"lat": 38.903267, "is_disabled": 0, "type": "electric_scooter", "lon": -77.03763233333333, "bike_id": "f7fb7bd1a97268b16279cb9ce10a99e9", "fusion_lat": 0.0, "name": "f7fb7bd1a97268b16279cb9ce10a99e9", "is_reserved": 0, "rental_uris": {"android": "https://dc.lft.to/lastmile_qr_scan", "ios": "https://dc.lft.to/lastmile_qr_scan"}, "fusion_lon": 0.0}, {"lat": 38.92246016666667, "is_disabled": 0, "type": "electric_scooter", "lon": -77.04584683333333, "bike_id": "59647d518cf66e8bff73957ce444fee9", "fusion_lat": 0.0, "name": "59647d518cf66e8bff73957ce444fee9", "is_reserved": 0, "rental_uris": {"android": "https://dc.lft.to/lastmile_qr_scan", "ios": "https://dc.lft.to/lastmile_qr_scan"}, "fusion_lon": 0.0}, {"lat": 38.902622666666666, "is_disabled": 0, "type": "electric_scooter", "lon": -77.01847466666666, "bike_id": "3ae4478364c4265e0d4fbd97bf9d069c", "fusion_lat": 0.0, "name": "3ae4478364c4265e0d4fbd97bf9d069c", "is_reserved": 0, "rental_uris": {"android": "https://dc.lft.to/lastmile_qr_scan", "ios": "https://dc.lft.to/lastmile_qr_scan"}, "fusion_lon": 0.0}, {"lat": 38.90167266666667, "is_disabled": 0, "type": "electric_scooter", "lon": -77.02006416666667, "bike_id": "af1a7f909ef5cafff3bbc575f2cb7489", "fusion_lat": 0.0, "name": "af1a7f909ef5cafff3bbc575f2cb7489", "is_reserved": 0, "rental_uris": {"android": "https://dc.lft.to/lastmile_qr_scan", "ios": "https://dc.lft.to/lastmile_qr_scan"}, "fusion_lon": 0.0}, {"lat": 39.030499, "is_disabled": 0, "type": "electric_bike", "lon": -77.0947985, "bike_id": "e8fa09ce675806b30668e5792429edcc", "fusion_lat": 0.0, "name": "e8fa09ce675806b30668e5792429edcc", "is_reserved": 0, "rental_uris": {"android": "https://dc.lft.to/lastmile_qr_scan", "ios": "https://dc.lft.to/lastmile_qr_scan"}, "fusion_lon": 0.0}, {"lat": 38.94975216666667, "is_disabled": 0, "type": "electric_scooter", "lon": -77.06560166666667, "bike_id": "e402499a5920ce9576a6f541d3e4cc04", "fusion_lat": 0.0, "name": "e402499a5920ce9576a6f541d3e4cc04", "is_reserved": 0, "rental_uris": {"android": "https://dc.lft.to/lastmile_qr_scan", "ios": "https://dc.lft.to/lastmile_qr_scan"}, "fusion_lon": 0.0}, {"lat": 38.94974233333333, "is_disabled": 0, "type": "electric_scooter", "lon": -77.06761466666667, "bike_id": "4b239a22fd3822748743059fb3bb555b", "fusion_lat": 0.0, "name": "4b239a22fd3822748743059fb3bb555b", "is_reserved": 0, "rental_uris": {"android": "https://dc.lft.to/lastmile_qr_scan", "ios": "https://dc.lft.to/lastmile_qr_scan"}, "fusion_lon": 0.0}, {"lat": 38.89907933333333, "is_disabled": 0, "type": "electric_scooter", "lon": -76.990189, "bike_id": "fe7efe7c45236ceaca854c990306b9e5", "fusion_lat": 0.0, "name": "fe7efe7c45236ceaca854c990306b9e5", "is_reserved": 0, "rental_uris": {"android": "https://dc.lft.to/lastmile_qr_scan", "ios": "https://dc.lft.to/lastmile_qr_scan"}, "fusion_lon": 0.0}, {"lat": 39.02436383333333, "is_disabled": 0, "type": "electric_bike", "lon": -77.13100416666667, "bike_id": "54d67bb5e8e7dd46cda50ab64310bb27", "fusion_lat": 0.0, "name": "54d67bb5e8e7dd46cda50ab64310bb27", "is_reserved": 0, "rental_uris": {"android": "https://dc.lft.to/lastmile_qr_scan", "ios": "https://dc.lft.to/lastmile_qr_scan"}, "fusion_lon": 0.0}, {"lat": 38.913172, "is_disabled": 0, "type": "electric_scooter", "lon": -76.98644833333333, "bike_id": "24090d0fd37c135efaceee2395c2b258", "fusion_lat": 0.0, "name": "24090d0fd37c135efaceee2395c2b258", "is_reserved": 0, "rental_uris": {"android": "https://dc.lft.to/lastmile_qr_scan", "ios": "https://dc.lft.to/lastmile_qr_scan"}, "fusion_lon": 0.0}, {"lat": 38.917026, "is_disabled": 0, "type": "electric_scooter", "lon": -77.03004533333333, "bike_id": "3df4009c37c566041ca8108dcf748999", "fusion_lat": 0.0, "name": "3df4009c37c566041ca8108dcf748999", "is_reserved": 0, "rental_uris": {"android": "https://dc.lft.to/lastmile_qr_scan", "ios": "https://dc.lft.to/lastmile_qr_scan"}, "fusion_lon": 0.0}, {"lat": 38.902115333333334, "is_disabled": 0, "type": "electric_scooter", "lon": -77.02377366666667, "bike_id": "3cc16c114d07da24600c29cf9b5004fd", "fusion_lat": 0.0, "name": "3cc16c114d07da24600c29cf9b5004fd", "is_reserved": 0, "rental_uris": {"android": "https://dc.lft.to/lastmile_qr_scan", "ios": "https://dc.lft.to/lastmile_qr_scan"}, "fusion_lon": 0.0}, {"lat": 38.90142316666667, "is_disabled": 0, "type": "electric_scooter", "lon": -77.02887066666666, "bike_id": "af7c8b962ba417bd51f30320a385d52a", "fusion_lat": 0.0, "name": "af7c8b962ba417bd51f30320a385d52a", "is_reserved": 0, "rental_uris": {"android": "https://dc.lft.to/lastmile_qr_scan", "ios": "https://dc.lft.to/lastmile_qr_scan"}, "fusion_lon": 0.0}, {"lat": 38.998248, "is_disabled": 0, "type": "electric_bike", "lon": -76.8838015, "bike_id": "9b1cd50656a97df7062058cce493e577", "fusion_lat": 0.0, "name": "9b1cd50656a97df7062058cce493e577", "is_reserved": 0, "rental_uris": {"android": "https://dc.lft.to/lastmile_qr_scan", "ios": "https://dc.lft.to/lastmile_qr_scan"}, "fusion_lon": 0.0}, {"lat": 38.89609333333333, "is_disabled": 0, "type": "electric_scooter", "lon": -77.05469033333334, "bike_id": "bbe6d57eb4845f935a94a3be57ff19d1", "fusion_lat": 0.0, "name": "bbe6d57eb4845f935a94a3be57ff19d1", "is_reserved": 0, "rental_uris": {"android": "https://dc.lft.to/lastmile_qr_scan", "ios": "https://dc.lft.to/lastmile_qr_scan"}, "fusion_lon": 0.0}, {"lat": 38.91267633333333, "is_disabled": 0, "type": "electric_scooter", "lon": -77.0287495, "bike_id": "b169be700c7ef4ce8fcf379b44a37994", "fusion_lat": 0.0, "name": "b169be700c7ef4ce8fcf379b44a37994", "is_reserved": 0, "rental_uris": {"android": "https://dc.lft.to/lastmile_qr_scan", "ios": "https://dc.lft.to/lastmile_qr_scan"}, "fusion_lon": 0.0}, {"lat": 38.91748883333333, "is_disabled": 0, "type": "electric_scooter", "lon": -77.03594516666666, "bike_id": "17e86492a4fe73b27b9fbfb6c46ac254", "fusion_lat": 0.0, "name": "17e86492a4fe73b27b9fbfb6c46ac254", "is_reserved": 0, "rental_uris": {"android": "https://dc.lft.to/lastmile_qr_scan", "ios": "https://dc.lft.to/lastmile_qr_scan"}, "fusion_lon": 0.0}, {"lat": 38.901506, "is_disabled": 0, "type": "electric_scooter", "lon": -77.00073316666666, "bike_id": "ffc96883ce917434bf8de2741fc9e1da", "fusion_lat": 0.0, "name": "ffc96883ce917434bf8de2741fc9e1da", "is_reserved": 0, "rental_uris": {"android": "https://dc.lft.to/lastmile_qr_scan", "ios": "https://dc.lft.to/lastmile_qr_scan"}, "fusion_lon": 0.0}, {"lat": 38.946322333333335, "is_disabled": 0, "type": "electric_scooter", "lon": -77.02524883333334, "bike_id": "28f246a84a8de8b9f2ead3959718f5b7", "fusion_lat": 0.0, "name": "28f246a84a8de8b9f2ead3959718f5b7", "is_reserved": 0, "rental_uris": {"android": "https://dc.lft.to/lastmile_qr_scan", "ios": "https://dc.lft.to/lastmile_qr_scan"}, "fusion_lon": 0.0}, {"lat": 38.91189383333333, "is_disabled": 0, "type": "electric_scooter", "lon": -77.044581, "bike_id": "83687881f17f2d9f78e96d589f869f46", "fusion_lat": 0.0, "name": "83687881f17f2d9f78e96d589f869f46", "is_reserved": 0, "rental_uris": {"android": "https://dc.lft.to/lastmile_qr_scan", "ios": "https://dc.lft.to/lastmile_qr_scan"}, "fusion_lon": 0.0}, {"lat": 38.957392666666664, "is_disabled": 0, "type": "electric_scooter", "lon": -77.02406, "bike_id": "4c170d4f211d11da178c8180f74d9456", "fusion_lat": 0.0, "name": "4c170d4f211d11da178c8180f74d9456", "is_reserved": 0, "rental_uris": {"android": "https://dc.lft.to/lastmile_qr_scan", "ios": "https://dc.lft.to/lastmile_qr_scan"}, "fusion_lon": 0.0}, {"lat": 38.90253333333333, "is_disabled": 0, "type": "electric_scooter", "lon": -77.03946716666667, "bike_id": "13ea74e0af92eb0a927ff3697364cf72", "fusion_lat": 0.0, "name": "13ea74e0af92eb0a927ff3697364cf72", "is_reserved": 0, "rental_uris": {"android": "https://dc.lft.to/lastmile_qr_scan", "ios": "https://dc.lft.to/lastmile_qr_scan"}, "fusion_lon": 0.0}, {"lat": 38.90537483333333, "is_disabled": 0, "type": "electric_scooter", "lon": -77.05013366666667, "bike_id": "be09bf5b8170b42d0992197918d66701", "fusion_lat": 0.0, "name": "be09bf5b8170b42d0992197918d66701", "is_reserved": 0, "rental_uris": {"android": "https://dc.lft.to/lastmile_qr_scan", "ios": "https://dc.lft.to/lastmile_qr_scan"}, "fusion_lon": 0.0}, {"lat": 38.90202566666667, "is_disabled": 0, "type": "electric_scooter", "lon": -77.02317466666666, "bike_id": "3097dbb3f650d47849336ba5e5be643b", "fusion_lat": 0.0, "name": "3097dbb3f650d47849336ba5e5be643b", "is_reserved": 0, "rental_uris": {"android": "https://dc.lft.to/lastmile_qr_scan", "ios": "https://dc.lft.to/lastmile_qr_scan"}, "fusion_lon": 0.0}, {"lat": 38.9008355, "is_disabled": 0, "type": "electric_scooter", "lon": -77.04782783333333, "bike_id": "9f8a3198611965343a5fab9f89631d14", "fusion_lat": 0.0, "name": "9f8a3198611965343a5fab9f89631d14", "is_reserved": 0, "rental_uris": {"android": "https://dc.lft.to/lastmile_qr_scan", "ios": "https://dc.lft.to/lastmile_qr_scan"}, "fusion_lon": 0.0}, {"lat": 38.927521, "is_disabled": 0, "type": "electric_scooter", "lon": -77.0242125, "bike_id": "49cd65a3e7222d321b2b7ff5a9c03db2", "fusion_lat": 0.0, "name": "49cd65a3e7222d321b2b7ff5a9c03db2", "is_reserved": 0, "rental_uris": {"android": "https://dc.lft.to/lastmile_qr_scan", "ios": "https://dc.lft.to/lastmile_qr_scan"}, "fusion_lon": 0.0}, {"lat": 38.907825833333334, "is_disabled": 0, "type": "electric_scooter", "lon": -77.03856366666666, "bike_id": "f7355cdf05d38218a5ffd1844eb7e4f4", "fusion_lat": 0.0, "name": "f7355cdf05d38218a5ffd1844eb7e4f4", "is_reserved": 0, "rental_uris": {"android": "https://dc.lft.to/lastmile_qr_scan", "ios": "https://dc.lft.to/lastmile_qr_scan"}, "fusion_lon": 0.0}, {"lat": 38.895586, "is_disabled": 0, "type": "electric_scooter", "lon": -76.9336625, "bike_id": "500a9d94eac266b7f0867207193248c2", "fusion_lat": 0.0, "name": "500a9d94eac266b7f0867207193248c2", "is_reserved": 0, "rental_uris": {"android": "https://dc.lft.to/lastmile_qr_scan", "ios": "https://dc.lft.to/lastmile_qr_scan"}, "fusion_lon": 0.0}, {"lat": 38.926624, "is_disabled": 0, "type": "electric_scooter", "lon": -77.05595533333333, "bike_id": "e222d0b2bab543a64500e1b559aa5dfd", "fusion_lat": 0.0, "name": "e222d0b2bab543a64500e1b559aa5dfd", "is_reserved": 0, "rental_uris": {"android": "https://dc.lft.to/lastmile_qr_scan", "ios": "https://dc.lft.to/lastmile_qr_scan"}, "fusion_lon": 0.0}, {"lat": 38.935381166666666, "is_disabled": 0, "type": "electric_scooter", "lon": -77.02356, "bike_id": "9c74f4a8d5cb85b38537c7c8d4d9502b", "fusion_lat": 0.0, "name": "9c74f4a8d5cb85b38537c7c8d4d9502b", "is_reserved": 0, "rental_uris": {"android": "https://dc.lft.to/lastmile_qr_scan", "ios": "https://dc.lft.to/lastmile_qr_scan"}, "fusion_lon": 0.0}, {"lat": 38.89230933333333, "is_disabled": 0, "type": "electric_scooter", "lon": -77.05005933333334, "bike_id": "fb9f221d3b656ff0298b14d35476b43f", "fusion_lat": 0.0, "name": "fb9f221d3b656ff0298b14d35476b43f", "is_reserved": 0, "rental_uris": {"android": "https://dc.lft.to/lastmile_qr_scan", "ios": "https://dc.lft.to/lastmile_qr_scan"}, "fusion_lon": 0.0}, {"lat": 38.9038935, "is_disabled": 0, "type": "electric_scooter", "lon": -76.976167, "bike_id": "fd7ca66a0597ec5b6bd992a10224464e", "fusion_lat": 0.0, "name": "fd7ca66a0597ec5b6bd992a10224464e", "is_reserved": 0, "rental_uris": {"android": "https://dc.lft.to/lastmile_qr_scan", "ios": "https://dc.lft.to/lastmile_qr_scan"}, "fusion_lon": 0.0}, {"lat": 38.926061833333335, "is_disabled": 0, "type": "electric_scooter", "lon": -77.02488016666666, "bike_id": "80386caf756e482cd3f225d78084c146", "fusion_lat": 0.0, "name": "80386caf756e482cd3f225d78084c146", "is_reserved": 0, "rental_uris": {"android": "https://dc.lft.to/lastmile_qr_scan", "ios": "https://dc.lft.to/lastmile_qr_scan"}, "fusion_lon": 0.0}, {"lat": 38.8964, "is_disabled": 0, "type": "electric_scooter", "lon": -77.045061, "bike_id": "341b71d829681754ac14b89b0424c84e", "fusion_lat": 0.0, "name": "341b71d829681754ac14b89b0424c84e", "is_reserved": 0, "rental_uris": {"android": "https://dc.lft.to/lastmile_qr_scan", "ios": "https://dc.lft.to/lastmile_qr_scan"}, "fusion_lon": 0.0}, {"lat": 38.874746, "is_disabled": 0, "type": "electric_scooter", "lon": -77.00524633333333, "bike_id": "cc2c2f08149da9deb1a3df1826ab2ea1", "fusion_lat": 0.0, "name": "cc2c2f08149da9deb1a3df1826ab2ea1", "is_reserved": 0, "rental_uris": {"android": "https://dc.lft.to/lastmile_qr_scan", "ios": "https://dc.lft.to/lastmile_qr_scan"}, "fusion_lon": 0.0}, {"lat": 38.960859166666665, "is_disabled": 0, "type": "electric_scooter", "lon": -77.07288233333334, "bike_id": "b10aa8c3204c7344cd0e59a73a934ae7", "fusion_lat": 0.0, "name": "b10aa8c3204c7344cd0e59a73a934ae7", "is_reserved": 0, "rental_uris": {"android": "https://dc.lft.to/lastmile_qr_scan", "ios": "https://dc.lft.to/lastmile_qr_scan"}, "fusion_lon": 0.0}, {"lat": 38.9135075, "is_disabled": 0, "type": "electric_scooter", "lon": -77.04285116666667, "bike_id": "809fc43d079ebb0fa9449ad27d99a1c9", "fusion_lat": 0.0, "name": "809fc43d079ebb0fa9449ad27d99a1c9", "is_reserved": 0, "rental_uris": {"android": "https://dc.lft.to/lastmile_qr_scan", "ios": "https://dc.lft.to/lastmile_qr_scan"}, "fusion_lon": 0.0},