{"data": {"bikes": [{"fusion_lon": 0.0, "bike_id": "0668246d3f67204663282a530efe293b", "name": "0668246d3f67204663282a530efe293b", "type": "electric_scooter", "lon": -77.02836366666666, "rental_uris": {"android": "https://dc.lft.to/lastmile_qr_scan", "ios": "https://dc.lft.to/lastmile_qr_scan"}, "lat": 38.901286999999996, "is_reserved": 0, "is_disabled": 0, "fusion_lat": 0.0}, {"fusion_lon": 0.0, "bike_id": "dc81d99a439ae096f7728246f597e82e", "name": "dc81d99a439ae096f7728246f597e82e", "type": "electric_scooter", "lon": -77.02214416666666, "rental_uris": {"android": "https://dc.lft.to/lastmile_qr_scan", "ios": "https://dc.lft.to/lastmile_qr_scan"}, "lat": 38.90547683333333, "is_reserved": 0, "is_disabled": 0, "fusion_lat": 0.0}, {"fusion_lon": 0.0, "bike_id": "7ede3041becf22056d90c84376c2e47c", "name": "7ede3041becf22056d90c84376c2e47c", "type": "electric_scooter", "lon": -77.04051666666666, "rental_uris": {"android": "https://dc.lft.to/lastmile_qr_scan", "ios": "https://dc.lft.to/lastmile_qr_scan"}, "lat": 38.902830333333334, "is_reserved": 0, "is_disabled": 0, "fusion_lat": 0.0}, {"fusion_lon": 0.0, "bike_id": "0bb24f90905f7ba9dd24df1a802a0735", "name": "0bb24f90905f7ba9dd24df1a802a0735", "type": "electric_bike", "lon": -76.874978, "rental_uris": {"android": "https://dc.lft.to/lastmile_qr_scan", "ios": "https://dc.lft.to/lastmile_qr_scan"}, "lat": 38.990908833333336, "is_reserved": 0, "is_disabled": 0, "fusion_lat": 0.0}, {"fusion_lon": 0.0, "bike_id": "bf379cde1ec415ee11b51c6ed1694b7a", "name": "bf379cde1ec415ee11b51c6ed1694b7a", "type": "electric_scooter", "lon": -77.03182833333334, "rental_uris": {"android": "https://dc.lft.to/lastmile_qr_scan", "ios": "https://dc.lft.to/lastmile_qr_scan"}, "lat": 38.896301, "is_reserved": 0, "is_disabled": 0, "fusion_lat": 0.0}, {"fusion_lon": 0.0, "bike_id": "a2beb18858f8ab636c5633cadf2297e4", "name": "a2beb18858f8ab636c5633cadf2297e4", "type": "electric_scooter", "lon": -77.02373466666667, "rental_uris": {"android": "https://dc.lft.to/lastmile_qr_scan", "ios": "https://dc.lft.to/lastmile_qr_scan"}, "lat": 38.89851783333334, "is_reserved": 0, "is_disabled": 0, "fusion_lat": 0.0}, {"fusion_lon": 0.0, "bike_id": "bac665ad4ced6e4557197bb0d235cda5", "name": "bac665ad4ced6e4557197bb0d235cda5", "type": "electric_bike", "lon": -77.11229633333333, "rental_uris": {"android": "https://dc.lft.to/lastmile_qr_scan", "ios": "https://dc.lft.to/lastmile_qr_scan"}, "lat": 38.82865683333333, "is_reserved": 0, "is_disabled": 0, "fusion_lat": 0.0}, {"fusion_lon": 0.0, "bike_id": "a1fbcbab48e3cde467911cd793829956", "name": "a1fbcbab48e3cde467911cd793829956", "type": "electric_scooter", "lon": -77.027173, "rental_uris": {"android": "https://dc.lft.to/lastmile_qr_scan", "ios": "https://dc.lft.to/lastmile_qr_scan"}, "lat": 38.9014065, "is_reserved": 0, "is_disabled": 0, "fusion_lat": 0.0}, {"fusion_lon": 0.0, "bike_id": "8534c844626d5e00b455695bc953723d", "name": "8534c844626d5e00b455695bc953723d", "type": "electric_scooter", "lon": -77.02620816666666, "rental_uris": {"android": "https://dc.lft.to/lastmile_qr_scan", "ios": "https://dc.lft.to/lastmile_qr_scan"}, "lat": 38.91911833333333, "is_reserved": 0, "is_disabled": 0, "fusion_lat": 0.0}, {"fusion_lon": 0.0, "bike_id": "27288a5b2878427a95ee5172ab7b5ef3", "name": "27288a5b2878427a95ee5172ab7b5ef3", "type": "electric_scooter", "lon": -77.03173983333333, "rental_uris": {"android": "https://dc.lft.to/lastmile_qr_scan", "ios": "https://dc.lft.to/lastmile_qr_scan"}, "lat": 38.91606133333333, "is_reserved": 0, "is_disabled": 0, "fusion_lat": 0.0}, {"fusion_lon": 0.0, "bike_id": "e3aff70370d34b07b64e4c1439b206ae", "name": "e3aff70370d34b07b64e4c1439b206ae", "type": "electric_scooter", "lon": -77.02370216666667, "rental_uris": {"android": "https://dc.lft.to/lastmile_qr_scan", "ios": "https://dc.lft.to/lastmile_qr_scan"}, "lat": 38.95207716666667, "is_reserved": 0, "is_disabled": 0, "fusion_lat": 0.0}, {"fusion_lon": 0.0, "bike_id": "97b8ae9b5e9262d8bc57ddd2630ac108", "name": "97b8ae9b5e9262d8bc57ddd2630ac108", "type": "electric_scooter", "lon": -76.98332233333333, "rental_uris": {"android": "https://dc.lft.to/lastmile_qr_scan", "ios": "https://dc.lft.to/lastmile_qr_scan"}, "lat": 38.88986583333333, "is_reserved": 0, "is_disabled": 0, "fusion_lat": 0.0}, {"fusion_lon": 0.0, "bike_id": "88914a10a3b31e4e6909b140c3c314b0", "name": "88914a10a3b31e4e6909b140c3c314b0", "type": "electric_scooter", "lon": -77.00940433333334, "rental_uris": {"android": "https://dc.lft.to/lastmile_qr_scan", "ios": "https://dc.lft.to/lastmile_qr_scan"}, "lat": 38.874592666666665, "is_reserved": 0, "is_disabled": 0, "fusion_lat": 0.0}, {"fusion_lon": 0.0, "bike_id": "92cc8cdf3e4518212cfc619526bb0eb1", "name": "92cc8cdf3e4518212cfc619526bb0eb1", "type": "electric_scooter", "lon": -77.00134983333334, "rental_uris": {"android": "https://dc.lft.to/lastmile_qr_scan", "ios": "https://dc.lft.to/lastmile_qr_scan"}, "lat": 38.87375816666667, "is_reserved": 0, "is_disabled": 0, "fusion_lat": 0.0}, {"fusion_lon": 0.0, "bike_id": "fe4b1aac7ae8455d0da5586d112a965e", "name": "fe4b1aac7ae8455d0da5586d112a965e", "type": "electric_scooter", "lon": -76.9652815, "rental_uris": {"android": "https://dc.lft.to/lastmile_qr_scan", "ios": "https://dc.lft.to/lastmile_qr_scan"}, "lat": 38.8763025, "is_reserved": 0, "is_disabled": 0, "fusion_lat": 0.0}, {"fusion_lon": 0.0, "bike_id": "ebbaae496e134bdb06956d08e31ca204", "name": "ebbaae496e134bdb06956d08e31ca204", "type": "electric_scooter", "lon": -77.04873616666667, "rental_uris": {"android": "https://dc.lft.to/lastmile_qr_scan", "ios": "https://dc.lft.to/lastmile_qr_scan"}, "lat": 38.90994633333333, "is_reserved": 0, "is_disabled": 0, "fusion_lat": 0.0}, {"fusion_lon": 0.0, "bike_id": "4939722e3610d9a12c51de523f8f8d2d", "name": "4939722e3610d9a12c51de523f8f8d2d", "type": "electric_scooter", "lon": -77.03217933333333, "rental_uris": {"android": "https://dc.lft.to/lastmile_qr_scan", "ios": "https://dc.lft.to/lastmile_qr_scan"}, "lat": 38.928678833333336, "is_reserved": 0, "is_disabled": 0, "fusion_lat": 0.0}, {"fusion_lon": 0.0, "bike_id": "0361420cbfabbd94a0bfe7632d91ad75", "name": "0361420cbfabbd94a0bfe7632d91ad75", "type": "electric_scooter", "lon": -77.002966, "rental_uris": {"android": "https://dc.lft.to/lastmile_qr_scan", "ios": "https://dc.lft.to/lastmile_qr_scan"}, "lat": 38.901237333333334, "is_reserved": 0, "is_disabled": 0, "fusion_lat": 0.0}, {"fusion_lon": 0.0, "bike_id": "efd277ed76508db6dc5fa5de6204993c", "name": "efd277ed76508db6dc5fa5de6204993c", "type": "electric_scooter", "lon": -77.07254916666666, "rental_uris": {"android": "https://dc.lft.to/lastmile_qr_scan", "ios": "https://dc.lft.to/lastmile_qr_scan"}, "lat": 38.907843666666665, "is_reserved": 0, "is_disabled": 0, "fusion_lat": 0.0}, {"fusion_lon": 0.0, "bike_id": "5407b0cb574c37aaa536a371fd770b56", "name": "5407b0cb574c37aaa536a371fd770b56", "type": "electric_scooter", "lon": -77.02706083333334, "rental_uris": {"android": "https://dc.lft.to/lastmile_qr_scan", "ios": "https://dc.lft.to/lastmile_qr_scan"}, "lat": 38.94983033333333, "is_reserved": 0, "is_disabled": 0, "fusion_lat": 0.0}, {"fusion_lon": 0.0, "bike_id": "c2a60290ffd8a7ea80d033a4c4b8e2a9", "name": "c2a60290ffd8a7ea80d033a4c4b8e2a9", "type": "electric_bike", "lon": -77.12260483333333, "rental_uris": {"android": "https://dc.lft.to/lastmile_qr_scan", "ios": "https://dc.lft.to/lastmile_qr_scan"}, "lat": 38.88765216666667, "is_reserved": 0, "is_disabled": 0, "fusion_lat": 0.0}, {"fusion_lon": 0.0, "bike_id": "cc87e2cf5d27be8dfbe514703cb925be", "name": "cc87e2cf5d27be8dfbe514703cb925be", "type": "electric_scooter", "lon": -77.04013883333333, "rental_uris": {"android": "https://dc.lft.to/lastmile_qr_scan", "ios": "https://dc.lft.to/lastmile_qr_scan"}, "lat": 38.91569416666667, "is_reserved": 0, "is_disabled": 0, "fusion_lat": 0.0}, {"fusion_lon": 0.0, "bike_id": "638a2c0f9727fb51b74c277fd54d0c98", "name": "638a2c0f9727fb51b74c277fd54d0c98", "type": "electric_bike", "lon": -77.0768705, "rental_uris": {"android": "https://dc.lft.to/lastmile_qr_scan", "ios": "https://dc.lft.to/lastmile_qr_scan"}, "lat": 38.831924, "is_reserved": 0, "is_disabled": 0, "fusion_lat": 0.0}, {"fusion_lon": 0.0, "bike_id": "66c864939780369fb25c2c7990516512", "name": "66c864939780369fb25c2c7990516512", "type": "electric_bike", "lon": -77.112211, "rental_uris": {"android": "https://dc.lft.to/lastmile_qr_scan", "ios": "https://dc.lft.to/lastmile_qr_scan"}, "lat": 38.82876866666667, "is_reserved": 0, "is_disabled": 0, "fusion_lat": 0.0}, {"fusion_lon": 0.0, "bike_id": "c0d9bc793160486def7c986a50abc246", "name": "c0d9bc793160486def7c986a50abc246", "type": "electric_scooter", "lon": -77.032764, "rental_uris": {"android": "https://dc.lft.to/lastmile_qr_scan", "ios": "https://dc.lft.to/lastmile_qr_scan"}, "lat": 38.932539, "is_reserved": 0, "is_disabled": 0, "fusion_lat": 0.0}, {"fusion_lon": 0.0, "bike_id": "d3feba1b10fcc4eb51f6df50f7f82337", "name": "d3feba1b10fcc4eb51f6df50f7f82337", "type": "electric_scooter", "lon": -77.01232083333333, "rental_uris": {"android": "https://dc.lft.to/lastmile_qr_scan", "ios": "https://dc.lft.to/lastmile_qr_scan"}, "lat": 38.89621916666667, "is_reserved": 0, "is_disabled": 0, "fusion_lat": 0.0}, {"fusion_lon": 0.0, "bike_id": "7cf9246f3ae736288cbcbe8b63169aaa", "name": "7cf9246f3ae736288cbcbe8b63169aaa", "type": "electric_scooter", "lon": -77.010952, "rental_uris": {"android": "https://dc.lft.to/lastmile_qr_scan", "ios": "https://dc.lft.to/lastmile_qr_scan"}, "lat": 38.90563783333333, "is_reserved": 0, "is_disabled": 0, "fusion_lat": 0.0}, {"fusion_lon": 0.0, "bike_id": "b617d40f7156fe2bf5cf095f5ae9cb5f", "name": "b617d40f7156fe2bf5cf095f5ae9cb5f", "type": "electric_scooter", "lon": -77.04390016666666, "rental_uris": {"android": "https://dc.lft.to/lastmile_qr_scan", "ios": "https://dc.lft.to/lastmile_qr_scan"}, "lat": 38.921065666666664, "is_reserved": 0, "is_disabled": 0, "fusion_lat": 0.0}, {"fusion_lon": 0.0, "bike_id": "9791ce8373e0bb8f778b760d0ba7dfc9", "name": "9791ce8373e0bb8f778b760d0ba7dfc9", "type": "electric_scooter", "lon": -77.00571816666667, "rental_uris": {"android": "https://dc.lft.to/lastmile_qr_scan", "ios": "https://dc.lft.to/lastmile_qr_scan"}, "lat": 38.87648, "is_reserved": 0, "is_disabled": 0, "fusion_lat": 0.0}, {"fusion_lon": 0.0, "bike_id": "be9de4d0410ba3e31752b7d2d9c7fe92", "name": "be9de4d0410ba3e31752b7d2d9c7fe92", "type": "electric_scooter", "lon": -77.04739266666667, "rental_uris": {"android": "https://dc.lft.to/lastmile_qr_scan", "ios": "https://dc.lft.to/lastmile_qr_scan"}, "lat": 38.9024105, "is_reserved": 0, "is_disabled": 0, "fusion_lat": 0.0}, {"fusion_lon": 0.0, "bike_id": "5ce6e92a90ef8e849d7a2e78df2be6f2", "name": "5ce6e92a90ef8e849d7a2e78df2be6f2", "type": "electric_scooter", "lon": -76.9916125, "rental_uris": {"android": "https://dc.lft.to/lastmile_qr_scan", "ios": "https://dc.lft.to/lastmile_qr_scan"}, "lat": 38.87918783333333, "is_reserved": 0, "is_disabled": 0, "fusion_lat": 0.0}, {"fusion_lon": 0.0, "bike_id": "5bd44ba4f53b22d4b6965e4d2b5d1839", "name": "5bd44ba4f53b22d4b6965e4d2b5d1839", "type": "electric_scooter", "lon": -77.04147533333334, "rental_uris": {"android": "https://dc.lft.to/lastmile_qr_scan", "ios": "https://dc.lft.to/lastmile_qr_scan"}, "lat": 38.9170755, "is_reserved": 0, "is_disabled": 0, "fusion_lat": 0.0}, {"fusion_lon": 0.0, "bike_id": "cd7f9743b612bedf36e986ff9543f95d", "name": "cd7f9743b612bedf36e986ff9543f95d", "type": "electric_scooter", "lon": -77.07863516666667, "rental_uris": {"android": "https://dc.lft.to/lastmile_qr_scan", "ios": "https://dc.lft.to/lastmile_qr_scan"}, "lat": 38.92466683333333, "is_reserved": 0, "is_disabled": 0, "fusion_lat": 0.0}, {"fusion_lon": 0.0, "bike_id": "d8625c83fe143f263987c2bbe775b83f", "name": "d8625c83fe143f263987c2bbe775b83f", "type": "electric_bike", "lon": -76.9353595, "rental_uris": {"android": "https://dc.lft.to/lastmile_qr_scan", "ios": "https://dc.lft.to/lastmile_qr_scan"}, "lat": 38.955600833333335, "is_reserved": 0, "is_disabled": 0, "fusion_lat": 0.0}, {"fusion_lon": 0.0, "bike_id": "cd15736a17e67d6d278750af4330db53", "name": "cd15736a17e67d6d278750af4330db53", "type": "electric_scooter", "lon": -77.03214533333333, "rental_uris": {"android": "https://dc.lft.to/lastmile_qr_scan", "ios": "https://dc.lft.to/lastmile_qr_scan"}, "lat": 38.892202, "is_reserved": 0, "is_disabled": 0, "fusion_lat": 0.0}, {"fusion_lon": 0.0, "bike_id": "c29a5444c42936a01e8c468344e731c1", "name": "c29a5444c42936a01e8c468344e731c1", "type": "electric_scooter", "lon": -77.02839616666667, "rental_uris": {"android": "https://dc.lft.to/lastmile_qr_scan", "ios": "https://dc.lft.to/lastmile_qr_scan"}, "lat": 38.92244516666667, "is_reserved": 0, "is_disabled": 0, "fusion_lat": 0.0}, {"fusion_lon": 0.0, "bike_id": "23e3264304da2781dd64a7504f3dfc82", "name": "23e3264304da2781dd64a7504f3dfc82", "type": "electric_scooter", "lon": -77.0530125, "rental_uris": {"android": "https://dc.lft.to/lastmile_qr_scan", "ios": "https://dc.lft.to/lastmile_qr_scan"}, "lat": 38.92785033333333, "is_reserved": 0, "is_disabled": 0, "fusion_lat": 0.0}, {"fusion_lon": 0.0, "bike_id": "c7c88134681e70355cb03c680c49ac3f", "name": "c7c88134681e70355cb03c680c49ac3f", "type": "electric_scooter", "lon": -77.0246555, "rental_uris": {"android": "https://dc.lft.to/lastmile_qr_scan", "ios": "https://dc.lft.to/lastmile_qr_scan"}, "lat": 38.91886933333333, "is_reserved": 0, "is_disabled": 0, "fusion_lat": 0.0}, {"fusion_lon": 0.0, "bike_id": "2fe1dc4ef19dc9db476d8acb8ddc4671", "name": "2fe1dc4ef19dc9db476d8acb8ddc4671", "type": "electric_scooter", "lon": -76.99002, "rental_uris": {"android": "https://dc.lft.to/lastmile_qr_scan", "ios": "https://dc.lft.to/lastmile_qr_scan"}, "lat": 38.86506283333333, "is_reserved": 0, "is_disabled": 0, "fusion_lat": 0.0}, {"fusion_lon": 0.0, "bike_id": "e163c41e439cbd59a090cc7ae425c4b3", "name": "e163c41e439cbd59a090cc7ae425c4b3", "type": "electric_scooter", "lon": -76.9343375, "rental_uris": {"android": "https://dc.lft.to/lastmile_qr_scan", "ios": "https://dc.lft.to/lastmile_qr_scan"}, "lat": 38.899661, "is_reserved": 0, "is_disabled": 0, "fusion_lat": 0.0}, {"fusion_lon": 0.0, "bike_id": "32b8408e0aa36aedde1395c0ac008c58", "name": "32b8408e0aa36aedde1395c0ac008c58", "type": "electric_scooter", "lon": -77.02482333333333, "rental_uris": {"android": "https://dc.lft.to/lastmile_qr_scan", "ios": "https://dc.lft.to/lastmile_qr_scan"}, "lat": 38.91942616666667, "is_reserved": 0, "is_disabled": 0, "fusion_lat": 0.0}, {"fusion_lon": 0.0, "bike_id": "7ce8fa9d99936de28a6df488d2abaafc", "name": "7ce8fa9d99936de28a6df488d2abaafc", "type": "electric_bike", "lon": -76.98331416666667, "rental_uris": {"android": "https://dc.lft.to/lastmile_qr_scan", "ios": "https://dc.lft.to/lastmile_qr_scan"}, "lat": 38.966003666666666, "is_reserved": 0, "is_disabled": 0, "fusion_lat": 0.0}, {"fusion_lon": 0.0, "bike_id": "688ec27615d6d4c25225f51b8c300541", "name": "688ec27615d6d4c25225f51b8c300541", "type": "electric_scooter", "lon": -77.0058985, "rental_uris": {"android": "https://dc.lft.to/lastmile_qr_scan", "ios": "https://dc.lft.to/lastmile_qr_scan"}, "lat": 38.87715933333333, "is_reserved": 0, "is_disabled": 0, "fusion_lat": 0.0}, {"fusion_lon": 0.0, "bike_id": "19860db6635be8934d634148c2afa402", "name": "19860db6635be8934d634148c2afa402", "type": "electric_scooter", "lon": -77.01618283333333, "rental_uris": {"android": "https://dc.lft.to/lastmile_qr_scan", "ios": "https://dc.lft.to/lastmile_qr_scan"}, "lat": 38.887488166666664, "is_reserved": 0, "is_disabled": 0, "fusion_lat": 0.0}, {"fusion_lon": 0.0, "bike_id": "c18f06d580094b8159e2146dcb118b1c", "name": "c18f06d580094b8159e2146dcb118b1c", "type": "electric_scooter", "lon": -77.02500433333333, "rental_uris": {"android": "https://dc.lft.to/lastmile_qr_scan", "ios": "https://dc.lft.to/lastmile_qr_scan"}, "lat": 38.918054, "is_reserved": 0, "is_disabled": 0, "fusion_lat": 0.0}, {"fusion_lon": 0.0, "bike_id": "b5ee6d91285641122a17985eb2a38fe2", "name": "b5ee6d91285641122a17985eb2a38fe2", "type": "electric_scooter", "lon": -77.0271145, "rental_uris": {"android": "https://dc.lft.to/lastmile_qr_scan", "ios": "https://dc.lft.to/lastmile_qr_scan"}, "lat": 38.91799833333334, "is_reserved": 0, "is_disabled": 0, "fusion_lat": 0.0}, {"fusion_lon": 0.0, "bike_id": "2b8ce0580ed4fa2db2f6678e91fe6a08", "name": "2b8ce0580ed4fa2db2f6678e91fe6a08", "type": "electric_scooter", "lon": -77.02469166666667, "rental_uris": {"android": "https://dc.lft.to/lastmile_qr_scan", "ios": "https://dc.lft.to/lastmile_qr_scan"}, "lat": 38.939158666666664, "is_reserved": 0, "is_disabled": 0, "fusion_lat": 0.0}, {"fusion_lon": 0.0, "bike_id": "c54cf127199285f5fc8bacc42c6e55dd", "name": "c54cf127199285f5fc8bacc42c6e55dd", "type": "electric_scooter", "lon": -77.04488383333333, "rental_uris": {"android": "https://dc.lft.to/lastmile_qr_scan", "ios": "https://dc.lft.to/lastmile_qr_scan"}, "lat": 38.906905, "is_reserved": 0, "is_disabled": 0, "fusion_lat": 0.0}, {"fusion_lon": 0.0, "bike_id": "91e82fc2f96f5619526fe5a9ca95d518", "name": "91e82fc2f96f5619526fe5a9ca95d518", "type": "electric_scooter", "lon": -77.06349366666667, "rental_uris": {"android": "https://dc.lft.to/lastmile_qr_scan", "ios": "https://dc.lft.to/lastmile_qr_scan"}, "lat": 38.913352833333335, "is_reserved": 0, "is_disabled": 0, "fusion_lat": 0.0}, {"fusion_lon": 0.0, "bike_id": "531649ccbf37faf8cb1191ddcfd76899", "name": "531649ccbf37faf8cb1191ddcfd76899", "type": "electric_scooter", "lon": -77.02969633333333, "rental_uris": {"android": "https://dc.lft.to/lastmile_qr_scan", "ios": "https://dc.lft.to/lastmile_qr_scan"}, "lat": 38.90767916666667, "is_reserved": 0, "is_disabled": 0, "fusion_lat": 0.0}, {"fusion_lon": 0.0, "bike_id": "688befb7151a0ab4dfdb59dab525eeed", "name": "688befb7151a0ab4dfdb59dab525eeed", "type": "electric_bike", "lon": -77.35309616666666, "rental_uris": {"android": "https://dc.lft.to/lastmile_qr_scan", "ios": "https://dc.lft.to/lastmile_qr_scan"}, "lat": 38.9500105, "is_reserved": 0, "is_disabled": 0, "fusion_lat": 0.0}, {"fusion_lon": 0.0, "bike_id": "390abdd489a92fab0104e92ab1f0d7cf", "name": "390abdd489a92fab0104e92ab1f0d7cf", "type": "electric_scooter", "lon": -77.00930033333333, "rental_uris": {"android": "https://dc.lft.to/lastmile_qr_scan", "ios": "https://dc.lft.to/lastmile_qr_scan"}, "lat": 38.8750825, "is_reserved": 0, "is_disabled": 0, "fusion_lat": 0.0}, {"fusion_lon": 0.0, "bike_id": "82951c790d7bcbb14af5c4dd7408887d", "name": "82951c790d7bcbb14af5c4dd7408887d", "type": "electric_scooter", "lon": -76.99540766666667, "rental_uris": {"android": "https://dc.lft.to/lastmile_qr_scan", "ios": "https://dc.lft.to/lastmile_qr_scan"}, "lat": 38.86249566666667, "is_reserved": 0, "is_disabled": 0, "fusion_lat": 0.0}, {"fusion_lon": 0.0, "bike_id": "d2b1d5260b913bea775141c234a0910d", "name": "d2b1d5260b913bea775141c234a0910d", "type": "electric_scooter", "lon": -77.03946233333333, "rental_uris": {"android": "https://dc.lft.to/lastmile_qr_scan", "ios": "https://dc.lft.to/lastmile_qr_scan"}, "lat": 38.899738666666664, "is_reserved": 0, "is_disabled": 0, "fusion_lat": 0.0}, {"fusion_lon": 0.0, "bike_id": "7bc2ca83c2538b7b97b9f2110dfa1286", "name": "7bc2ca83c2538b7b97b9f2110dfa1286", "type": "electric_scooter", "lon": -76.9754515, "rental_uris": {"android": "https://dc.lft.to/lastmile_qr_scan", "ios": "https://dc.lft.to/lastmile_qr_scan"}, "lat": 38.914131, "is_reserved": 0, "is_disabled": 0, "fusion_lat": 0.0}, {"fusion_lon": 0.0, "bike_id": "d19087fa0889217be2746f2c74013e61", "name": "d19087fa0889217be2746f2c74013e61", "type": "electric_scooter", "lon": -77.0356195, "rental_uris": {"android": "https://dc.lft.to/lastmile_qr_scan", "ios": "https://dc.lft.to/lastmile_qr_scan"}, "lat": 38.90392683333334, "is_reserved": 0, "is_disabled": 0, "fusion_lat": 0.0}, {"fusion_lon": 0.0, "bike_id": "b72432096ca2d0739e71b6cf9fff1fc9", "name": "b72432096ca2d0739e71b6cf9fff1fc9", "type": "electric_bike", "lon": -77.03986066666667, "rental_uris": {"android": "https://dc.lft.to/lastmile_qr_scan", "ios": "https://dc.lft.to/lastmile_qr_scan"}, "lat": 38.802961833333335, "is_reserved": 0, "is_disabled": 0, "fusion_lat": 0.0}, {"fusion_lon": 0.0, "bike_id": "61591365b903beb86712a2baa90069a0", "name": "61591365b903beb86712a2baa90069a0", "type": "electric_scooter", "lon": -77.0156775, "rental_uris": {"android": "https://dc.lft.to/lastmile_qr_scan", "ios": "https://dc.lft.to/lastmile_qr_scan"}, "lat": 38.872688833333335, "is_reserved": 0, "is_disabled": 0, "fusion_lat": 0.0}, {"fusion_lon": 0.0, "bike_id": "4ba38cd9e9a4fc1902ada3e07369cde9", "name": "4ba38cd9e9a4fc1902ada3e07369cde9", "type": "electric_scooter", "lon": -77.01107766666667, "rental_uris": {"android": "https://dc.lft.to/lastmile_qr_scan", "ios": "https://dc.lft.to/lastmile_qr_scan"}, "lat": 38.9097055, "is_reserved": 0, "is_disabled": 0, "fusion_lat": 0.0}, {"fusion_lon": 0.0, "bike_id": "9d7a5598983c0ecdccfa02daa7ed3105", "name": "9d7a5598983c0ecdccfa02daa7ed3105", "type": "electric_scooter", "lon": -77.02295966666667, "rental_uris": {"android": "https://dc.lft.to/lastmile_qr_scan", "ios": "https://dc.lft.to/lastmile_qr_scan"}, "lat": 38.927277, "is_reserved": 0, "is_disabled": 0, "fusion_lat": 0.0}, {"fusion_lon": 0.0, "bike_id": "3c9499a11fe6abb7ca4366a7f0a7b37c", "name": "3c9499a11fe6abb7ca4366a7f0a7b37c", "type": "electric_scooter", "lon": -77.036768, "rental_uris": {"android": "https://dc.lft.to/lastmile_qr_scan", "ios": "https://dc.lft.to/lastmile_qr_scan"}, "lat": 38.91108666666667, "is_reserved": 0, "is_disabled": 0, "fusion_lat": 0.0}, {"fusion_lon": 0.0, "bike_id": "5f711dbed2d348babf31f6089f578686", "name": "5f711dbed2d348babf31f6089f578686", "type": "electric_bike", "lon": -76.993542, "rental_uris": {"android": "https://dc.lft.to/lastmile_qr_scan", "ios": "https://dc.lft.to/lastmile_qr_scan"}, "lat": 38.93746016666667, "is_reserved": 0, "is_disabled": 0, "fusion_lat": 0.0}, {"fusion_lon": 0.0, "bike_id": "10bc065caa585c9c68461d8337f5d534", "name": "10bc065caa585c9c68461d8337f5d534", "type": "electric_scooter", "lon": -77.02844616666667, "rental_uris": {"android": "https://dc.lft.to/lastmile_qr_scan", "ios": "https://dc.lft.to/lastmile_qr_scan"}, "lat": 38.917122666666664, "is_reserved": 0, "is_disabled": 0, "fusion_lat": 0.0}, {"fusion_lon": 0.0, "bike_id": "ae3dd9c471b27972a7e592de53c7a003", "name": "ae3dd9c471b27972a7e592de53c7a003", "type": "electric_scooter", "lon": -77.004378, "rental_uris": {"android": "https://dc.lft.to/lastmile_qr_scan", "ios": "https://dc.lft.to/lastmile_qr_scan"}, "lat": 38.877134, "is_reserved": 0, "is_disabled": 0, "fusion_lat": 0.0}, {"fusion_lon": 0.0, "bike_id": "a8636729ed99be05e38f645395e3b005", "name": "a8636729ed99be05e38f645395e3b005", "type": "electric_scooter", "lon": -77.00440383333333, "rental_uris": {"android": "https://dc.lft.to/lastmile_qr_scan", "ios": "https://dc.lft.to/lastmile_qr_scan"}, "lat": 38.91186966666667, "is_reserved": 0, "is_disabled": 0, "fusion_lat": 0.0}, {"fusion_lon": 0.0, "bike_id": "776bcfa98478e4ec3bdc8a035a25c0fb", "name": "776bcfa98478e4ec3bdc8a035a25c0fb", "type": "electric_scooter", "lon": -77.00710216666667, "rental_uris": {"android": "https://dc.lft.to/lastmile_qr_scan", "ios": "https://dc.lft.to/lastmile_qr_scan"}, "lat": 38.8849045, "is_reserved": 0, "is_disabled": 0, "fusion_lat": 0.0}, {"fusion_lon": 0.0, "bike_id": "d9c45b4616fef1940d678ce4173def70", "name": "d9c45b4616fef1940d678ce4173def70", "type": "electric_scooter", "lon": -77.0438075, "rental_uris": {"android": "https://dc.lft.to/lastmile_qr_scan", "ios": "https://dc.lft.to/lastmile_qr_scan"}, "lat": 38.91052533333333, "is_reserved": 0, "is_disabled": 0, "fusion_lat": 0.0}, {"fusion_lon": 0.0, "bike_id": "e976adae386b7b158a3c9a6d76ee6867", "name": "e976adae386b7b158a3c9a6d76ee6867", "type": "electric_scooter", "lon": -76.94713483333334, "rental_uris": {"android": "https://dc.lft.to/lastmile_qr_scan", "ios": "https://dc.lft.to/lastmile_qr_scan"}, "lat": 38.89708516666666, "is_reserved": 0, "is_disabled": 0, "fusion_lat": 0.0}, {"fusion_lon": 0.0, "bike_id": "6872c814c24f0fd21425fc41d3509c04", "name": "6872c814c24f0fd21425fc41d3509c04", "type": "electric_scooter", "lon": -77.03456516666667, "rental_uris": {"android": "https://dc.lft.to/lastmile_qr_scan", "ios": "https://dc.lft.to/lastmile_qr_scan"}, "lat": 38.921622166666666, "is_reserved": 0, "is_disabled": 0, "fusion_lat": 0.0}, {"fusion_lon": 0.0, "bike_id": "72578f1d6a196a646f7e43082f6d7997", "name": "72578f1d6a196a646f7e43082f6d7997", "type": "electric_scooter", "lon": -77.026655, "rental_uris": {"android": "https://dc.lft.to/lastmile_qr_scan", "ios": "https://dc.lft.to/lastmile_qr_scan"}, "lat": 38.924793, "is_reserved": 0, "is_disabled": 0, "fusion_lat": 0.0}, {"fusion_lon": 0.0, "bike_id": "7ccc1556657c017273e17b7058308a95", "name": "7ccc1556657c017273e17b7058308a95", "type": "electric_scooter", "lon": -77.068437, "rental_uris": {"android": "https://dc.lft.to/lastmile_qr_scan", "ios": "https://dc.lft.to/lastmile_qr_scan"}, "lat": 38.9521255, "is_reserved": 0, "is_disabled": 0, "fusion_lat": 0.0}, {"fusion_lon": 0.0, "bike_id": "f0195c40038b07c6b8e7ee37197419a0", "name": "f0195c40038b07c6b8e7ee37197419a0", "type": "electric_scooter", "lon": -76.97975483333333, "rental_uris": {"android": "https://dc.lft.to/lastmile_qr_scan", "ios": "https://dc.lft.to/lastmile_qr_scan"}, "lat": 38.88767216666667, "is_reserved": 0, "is_disabled": 0, "fusion_lat": 0.0}, {"fusion_lon": 0.0, "bike_id": "ea469f61ef096e2cd5c1087a91a38c47", "name": "ea469f61ef096e2cd5c1087a91a38c47", "type": "electric_scooter", "lon": -77.06353016666667, "rental_uris": {"android": "https://dc.lft.to/lastmile_qr_scan", "ios": "https://dc.lft.to/lastmile_qr_scan"}, "lat": 38.944396166666664, "is_reserved": 0, "is_disabled": 0, "fusion_lat": 0.0}, {"fusion_lon": 0.0, "bike_id": "d83c15c57caf1263abd5ebe0511002ec", "name": "d83c15c57caf1263abd5ebe0511002ec", "type": "electric_scooter", "lon": -77.04514033333334, "rental_uris": {"android": "https://dc.lft.to/lastmile_qr_scan", "ios": "https://dc.lft.to/lastmile_qr_scan"}, "lat": 38.907811333333335, "is_reserved": 0, "is_disabled": 0, "fusion_lat": 0.0}, {"fusion_lon": 0.0, "bike_id": "ac18deacbae50c171e6b5a4fd22157e9", "name": "ac18deacbae50c171e6b5a4fd22157e9", "type": "electric_scooter", "lon": -77.01470816666667, "rental_uris": {"android": "https://dc.lft.to/lastmile_qr_scan", "ios": "https://dc.lft.to/lastmile_qr_scan"}, "lat": 38.87630716666666, "is_reserved": 0, "is_disabled": 0, "fusion_lat": 0.0}, {"fusion_lon": 0.0, "bike_id": "ef96ffba7ea952a5a5271b7a18295963", "name": "ef96ffba7ea952a5a5271b7a18295963", "type": "electric_scooter", "lon": -77.027087, "rental_uris": {"android": "https://dc.lft.to/lastmile_qr_scan", "ios": "https://dc.lft.to/lastmile_qr_scan"}, "lat": 38.90074466666667, "is_reserved": 0, "is_disabled": 0, "fusion_lat": 0.0}, {"fusion_lon": 0.0, "bike_id": "e3eb22cc5f18906db8fbaf7650eeaffb", "name": "e3eb22cc5f18906db8fbaf7650eeaffb", "type": "electric_scooter", "lon": -77.00224816666666, "rental_uris": {"android": "https://dc.lft.to/lastmile_qr_scan", "ios": "https://dc.lft.to/lastmile_qr_scan"}, "lat": 38.890890666666664, "is_reserved": 0, "is_disabled": 0, "fusion_lat": 0.0}, {"fusion_lon": 0.0, "bike_id": "34960520521b7c233bcbb6cb6579eebf", "name": "34960520521b7c233bcbb6cb6579eebf", "type": "electric_scooter", "lon": -77.02610166666666, "rental_uris": {"android": "https://dc.lft.to/lastmile_qr_scan", "ios": "https://dc.lft.to/lastmile_qr_scan"}, "lat": 38.925822833333335, "is_reserved": 0, "is_disabled": 0, "fusion_lat": 0.0}, {"fusion_lon": 0.0, "bike_id": "39ad6f08115d38e243e4f68bdf5192f2", "name": "39ad6f08115d38e243e4f68bdf5192f2", "type": "electric_scooter", "lon": -76.98561216666667, "rental_uris": {"android": "https://dc.lft.to/lastmile_qr_scan", "ios": "https://dc.lft.to/lastmile_qr_scan"}, "lat": 38.86058716666667, "is_reserved": 0, "is_disabled": 0, "fusion_lat": 0.0}, {"fusion_lon": 0.0, "bike_id": "f1fa2ef932a878b1dc88e33a20245bc8", "name": "f1fa2ef932a878b1dc88e33a20245bc8", "type": "electric_scooter", "lon": -77.02961966666666, "rental_uris": {"android": "https://dc.lft.to/lastmile_qr_scan", "ios": "https://dc.lft.to/lastmile_qr_scan"}, "lat": 38.92144566666666, "is_reserved": 0, "is_disabled": 0, "fusion_lat": 0.0}, {"fusion_lon": 0.0, "bike_id": "bfadfe80efa5ece21ef43c65c52abfda", "name": "bfadfe80efa5ece21ef43c65c52abfda", "type": "electric_scooter", "lon": -77.02500683333334, "rental_uris": {"android": "https://dc.lft.to/lastmile_qr_scan", "ios": "https://dc.lft.to/lastmile_qr_scan"}, "lat": 38.918070166666666, "is_reserved": 0, "is_disabled": 0, "fusion_lat": 0.0}, {"fusion_lon": 0.0, "bike_id": "2d752cb5608451f2a9bc7735f8a0e83d", "name": "2d752cb5608451f2a9bc7735f8a0e83d", "type": "electric_scooter", "lon": -77.02864333333333, "rental_uris": {"android": "https://dc.lft.to/lastmile_qr_scan", "ios": "https://dc.lft.to/lastmile_qr_scan"}, "lat": 38.8998535, "is_reserved": 0, "is_disabled": 0, "fusion_lat": 0.0}, {"fusion_lon": 0.0, "bike_id": "52219702c55dbddf54d207386f548246", "name": "52219702c55dbddf54d207386f548246", "type": "electric_scooter", "lon": -77.00464916666667, "rental_uris": {"android": "https://dc.lft.to/lastmile_qr_scan", "ios": "https://dc.lft.to/lastmile_qr_scan"}, "lat": 38.9114545, "is_reserved": 0, "is_disabled": 0, "fusion_lat": 0.0}, {"fusion_lon": 0.0, "bike_id": "2336cdb8bec6eaf7fea95524a234524e", "name": "2336cdb8bec6eaf7fea95524a234524e", "type": "electric_scooter", "lon": -77.02602333333333, "rental_uris": {"android": "https://dc.lft.to/lastmile_qr_scan", "ios": "https://dc.lft.to/lastmile_qr_scan"}, "lat": 38.900121, "is_reserved": 0, "is_disabled": 0, "fusion_lat": 0.0}, {"fusion_lon": 0.0, "bike_id": "94ab4ef1db29ea995b0c9f6739864f0b", "name": "94ab4ef1db29ea995b0c9f6739864f0b", "type": "electric_scooter", "lon": -77.03479616666667, "rental_uris": {"android": "https://dc.lft.to/lastmile_qr_scan", "ios": "https://dc.lft.to/lastmile_qr_scan"}, "lat": 38.91115533333333, "is_reserved": 0, "is_disabled": 0, "fusion_lat": 0.0}, {"fusion_lon": 0.0, "bike_id": "145052cc6171b15deaa859d732bbd639", "name": "145052cc6171b15deaa859d732bbd639", "type": "electric_scooter", "lon": -77.03951233333333, "rental_uris": {"android": "https://dc.lft.to/lastmile_qr_scan", "ios": "https://dc.lft.to/lastmile_qr_scan"}, "lat": 38.899757666666666, "is_reserved": 0, "is_disabled": 0, "fusion_lat": 0.0}, {"fusion_lon": 0.0, "bike_id": "a17be69704b4c456bd64194fc4dac86d", "name": "a17be69704b4c456bd64194fc4dac86d", "type": "electric_scooter", "lon": -77.03087983333333, "rental_uris": {"android": "https://dc.lft.to/lastmile_qr_scan", "ios": "https://dc.lft.to/lastmile_qr_scan"}, "lat": 38.94676233333333, "is_reserved": 0, "is_disabled": 0, "fusion_lat": 0.0}, {"fusion_lon": 0.0, "bike_id": "7c93665f02cf993f93e5459932ff332f", "name": "7c93665f02cf993f93e5459932ff332f", "type": "electric_scooter", "lon": -77.02640066666666, "rental_uris": {"android": "https://dc.lft.to/lastmile_qr_scan", "ios": "https://dc.lft.to/lastmile_qr_scan"}, "lat": 38.902710666666664, "is_reserved": 0, "is_disabled": 0, "fusion_lat": 0.0}, {"fusion_lon": 0.0, "bike_id": "a3f3f3a2b6ec61eacae3c766d49507db", "name": "a3f3f3a2b6ec61eacae3c766d49507db", "type": "electric_scooter", "lon": -77.0266055, "rental_uris": {"android": "https://dc.lft.to/lastmile_qr_scan", "ios": "https://dc.lft.to/lastmile_qr_scan"}, "lat": 38.921832333333334, "is_reserved": 0, "is_disabled": 0, "fusion_lat": 0.0}, {"fusion_lon": 0.0, "bike_id": "24a546261493f6bf50c0975eef52fe11", "name": "24a546261493f6bf50c0975eef52fe11", "type": "electric_bike", "lon": -77.08948166666667, "rental_uris": {"android": "https://dc.lft.to/lastmile_qr_scan", "ios": "https://dc.lft.to/lastmile_qr_scan"}, "lat": 38.84110716666667, "is_reserved": 0, "is_disabled": 0, "fusion_lat": 0.0}, {"fusion_lon": 0.0, "bike_id": "17bb141682d6bf443ee4c49e3efc619f", "name": "17bb141682d6bf443ee4c49e3efc619f", "type": "electric_scooter", "lon": -77.03467733333333, "rental_uris": {"android": "https://dc.lft.to/lastmile_qr_scan", "ios": "https://dc.lft.to/lastmile_qr_scan"}, "lat": 38.91715283333333, "is_reserved": 0, "is_disabled": 0, "fusion_lat": 0.0}, {"fusion_lon": 0.0, "bike_id": "55ddd170c2abc88aeeac30cb66bc8ae4", "name": "55ddd170c2abc88aeeac30cb66bc8ae4", "type": "electric_scooter", "lon": -76.9428595, "rental_uris": {"android": "https://dc.lft.to/lastmile_qr_scan", "ios": "https://dc.lft.to/lastmile_qr_scan"}, "lat": 38.8830295, "is_reserved": 0, "is_disabled": 0, "fusion_lat": 0.0}, {"fusion_lon": 0.0, "bike_id": "b9afebd1751675d792de4aa88ed255fd", "name": "b9afebd1751675d792de4aa88ed255fd", "type": "electric_scooter", "lon": -77.0121295, "rental_uris": {"android": "https://dc.lft.to/lastmile_qr_scan", "ios": "https://dc.lft.to/lastmile_qr_scan"}, "lat": 38.918199666666666, "is_reserved": 0, "is_disabled": 0, "fusion_lat": 0.0}, {"fusion_lon": 0.0, "bike_id": "fb19ecda31be9557b37e6f80f188c548", "name": "fb19ecda31be9557b37e6f80f188c548", "type": "electric_scooter", "lon": -77.04643283333333, "rental_uris": {"android": "https://dc.lft.to/lastmile_qr_scan", "ios": "https://dc.lft.to/lastmile_qr_scan"}, "lat": 38.89338266666667, "is_reserved": 0, "is_disabled": 0, "fusion_lat": 0.0}, {"fusion_lon": 0.0, "bike_id": "c2741bc56039e3d8b9c2eeaf7c6963d4", "name": "c2741bc56039e3d8b9c2eeaf7c6963d4", "type": "electric_bike", "lon": -77.09579516666666, "rental_uris": {"android": "https://dc.lft.to/lastmile_qr_scan", "ios": "https://dc.lft.to/lastmile_qr_scan"}, "lat": 38.837888666666665, "is_reserved": 0, "is_disabled": 0, "fusion_lat": 0.0}, {"fusion_lon": 0.0, "bike_id": "8dc81a83bda500cb729c831ce251ae1d", "name": "8dc81a83bda500cb729c831ce251ae1d", "type": "electric_scooter", "lon": -77.02174733333334, "rental_uris": {"android": "https://dc.lft.to/lastmile_qr_scan", "ios": "https://dc.lft.to/lastmile_qr_scan"}, "lat": 38.899744166666665, "is_reserved": 0, "is_disabled": 0, "fusion_lat": 0.0}, {"fusion_lon": 0.0, "bike_id": "dec84ef4098cd5b8cecde3b06e3fe73d", "name": "dec84ef4098cd5b8cecde3b06e3fe73d", "type": "electric_scooter", "lon": -77.02856116666666, "rental_uris": {"android": "https://dc.lft.to/lastmile_qr_scan", "ios": "https://dc.lft.to/lastmile_qr_scan"}, "lat": 38.93265816666667, "is_reserved": 0, "is_disabled": 0, "fusion_lat": 0.0}, {"fusion_lon": 0.0, "bike_id": "613507263d43fba7ac75feff6d3551a7", "name": "613507263d43fba7ac75feff6d3551a7", "type": "electric_scooter", "lon": -77.038574, "rental_uris": {"android": "https://dc.lft.to/lastmile_qr_scan", "ios": "https://dc.lft.to/lastmile_qr_scan"}, "lat": 38.91274, "is_reserved": 0, "is_disabled": 0, "fusion_lat": 0.0}, {"fusion_lon": 0.0, "bike_id": "27285677c1d7a8929ce4c47f1ffc10ae", "name": "27285677c1d7a8929ce4c47f1ffc10ae", "type": "electric_scooter", "lon": -77.00740316666666, "rental_uris": {"android": "https://dc.lft.to/lastmile_qr_scan", "ios": "https://dc.lft.to/lastmile_qr_scan"}, "lat": 38.87680983333333, "is_reserved": 0, "is_disabled": 0, "fusion_lat": 0.0}, {"fusion_lon": 0.0, "bike_id": "ebb578d6515c61464de634f53da3ec2a", "name": "ebb578d6515c61464de634f53da3ec2a", "type": "electric_scooter", "lon": -77.00743616666666, "rental_uris": {"android": "https://dc.lft.to/lastmile_qr_scan", "ios": "https://dc.lft.to/lastmile_qr_scan"}, "lat": 38.87692533333333, "is_reserved": 0, "is_disabled": 0, "fusion_lat": 0.0}, {"fusion_lon": 0.0, "bike_id": "4ee86316cd3b5130aeb0c4f67153f266", "name": "4ee86316cd3b5130aeb0c4f67153f266", "type": "electric_scooter", "lon": -77.05107866666667, "rental_uris": {"android": "https://dc.lft.to/lastmile_qr_scan", "ios": "https://dc.lft.to/lastmile_qr_scan"}, "lat": 38.9236225, "is_reserved": 0, "is_disabled": 0, "fusion_lat": 0.0}, {"fusion_lon": 0.0, "bike_id": "967ec41d81aefbdfcc3369e69480e97d", "name": "967ec41d81aefbdfcc3369e69480e97d", "type": "electric_scooter", "lon": -77.04359483333333, "rental_uris": {"android": "https://dc.lft.to/lastmile_qr_scan", "ios": "https://dc.lft.to/lastmile_qr_scan"}, "lat": 38.89811516666666, "is_reserved": 0, "is_disabled": 0, "fusion_lat": 0.0}, {"fusion_lon": 0.0, "bike_id": "97620e292630d0fcda6e64c5287d0965", "name": "97620e292630d0fcda6e64c5287d0965", "type": "electric_scooter", "lon": -77.07270416666667, "rental_uris": {"android": "https://dc.lft.to/lastmile_qr_scan", "ios": "https://dc.lft.to/lastmile_qr_scan"}, "lat": 38.913304833333335, "is_reserved": 0, "is_disabled": 0, "fusion_lat": 0.0}, {"fusion_lon": 0.0, "bike_id": "06016c651a83131b80abded7f7f7e50c", "name": "06016c651a83131b80abded7f7f7e50c", "type": "electric_scooter", "lon": -77.06604983333334, "rental_uris": {"android": "https://dc.lft.to/lastmile_qr_scan", "ios": "https://dc.lft.to/lastmile_qr_scan"}, "lat": 38.903184833333334, "is_reserved": 0, "is_disabled": 0, "fusion_lat": 0.0}, {"fusion_lon": 0.0, "bike_id": "f7c0920bc375c10e40427d98c3f9df78", "name": "f7c0920bc375c10e40427d98c3f9df78", "type": "electric_scooter", "lon": -77.06029333333333, "rental_uris": {"android": "https://dc.lft.to/lastmile_qr_scan", "ios": "https://dc.lft.to/lastmile_qr_scan"}, "lat": 38.902333666666664, "is_reserved": 0, "is_disabled": 0, "fusion_lat": 0.0}, {"fusion_lon": 0.0, "bike_id": "a197cb49bd977f110eafa78f644550c7", "name": "a197cb49bd977f110eafa78f644550c7", "type": "electric_scooter", "lon": -77.042407, "rental_uris": {"android": "https://dc.lft.to/lastmile_qr_scan", "ios": "https://dc.lft.to/lastmile_qr_scan"}, "lat": 38.91786783333333, "is_reserved": 0, "is_disabled": 0, "fusion_lat": 0.0}, {"fusion_lon": 0.0, "bike_id": "acf3d9834047e3e496048d2321da713a", "name": "acf3d9834047e3e496048d2321da713a", "type": "electric_scooter", "lon": -76.95208516666666, "rental_uris": {"android": "https://dc.lft.to/lastmile_qr_scan", "ios": "https://dc.lft.to/lastmile_qr_scan"}, "lat": 38.89248633333333, "is_reserved": 0, "is_disabled": 0, "fusion_lat": 0.0}, {"fusion_lon": 0.0, "bike_id": "7e42d18685db842f677e5f244bd32932", "name": "7e42d18685db842f677e5f244bd32932", "type": "electric_scooter", "lon": -77.04332766666667, "rental_uris": {"android": "https://dc.lft.to/lastmile_qr_scan", "ios": "https://dc.lft.to/lastmile_qr_scan"}, "lat": 38.900445500000004, "is_reserved": 0, "is_disabled": 0, "fusion_lat": 0.0}, {"fusion_lon": 0.0, "bike_id": "58d0abcaa57ea29b94d23a3da8368d7b", "name": "58d0abcaa57ea29b94d23a3da8368d7b", "type": "electric_scooter", "lon": -77.02411433333333, "rental_uris": {"android": "https://dc.lft.to/lastmile_qr_scan", "ios": "https://dc.lft.to/lastmile_qr_scan"}, "lat": 38.91707016666667, "is_reserved": 0, "is_disabled": 0, "fusion_lat": 0.0}, {"fusion_lon": 0.0, "bike_id": "2698787cdfa6ee0af30731f4c04029b0", "name": "2698787cdfa6ee0af30731f4c04029b0", "type": "electric_bike", "lon": -77.152667, "rental_uris": {"android": "https://dc.lft.to/lastmile_qr_scan", "ios": "https://dc.lft.to/lastmile_qr_scan"}, "lat": 39.105650833333335, "is_reserved": 0, "is_disabled": 0, "fusion_lat": 0.0}, {"fusion_lon": 0.0, "bike_id": "0e81684afd3c303452d5a22006324d56", "name": "0e81684afd3c303452d5a22006324d56", "type": "electric_scooter", "lon": -77.05721516666667, "rental_uris": {"android": "https://dc.lft.to/lastmile_qr_scan", "ios": "https://dc.lft.to/lastmile_qr_scan"}, "lat": 38.933765666666666, "is_reserved": 0, "is_disabled": 0, "fusion_lat": 0.0}, {"fusion_lon": 0.0, "bike_id": "211704549d519e2fc1e6b72fd22a9466", "name": "211704549d519e2fc1e6b72fd22a9466", "type": "electric_scooter", "lon": -77.031197, "rental_uris": {"android": "https://dc.lft.to/lastmile_qr_scan", "ios": "https://dc.lft.to/lastmile_qr_scan"}, "lat": 38.9044845, "is_reserved": 0, "is_disabled": 0, "fusion_lat": 0.0}, {"fusion_lon": 0.0, "bike_id": "45c1c8640753a96da08b7afba4c874b5", "name": "45c1c8640753a96da08b7afba4c874b5", "type": "electric_bike", "lon": -76.91605033333333, "rental_uris": {"android": "https://dc.lft.to/lastmile_qr_scan", "ios": "https://dc.lft.to/lastmile_qr_scan"}, "lat": 38.879754166666665, "is_reserved": 0, "is_disabled": 0, "fusion_lat": 0.0}, {"fusion_lon": 0.0, "bike_id": "4da314cb7a896b28cf9a4a8004753f0c", "name": "4da314cb7a896b28cf9a4a8004753f0c", "type": "electric_scooter", "lon": -77.0472355, "rental_uris": {"android": "https://dc.lft.to/lastmile_qr_scan", "ios": "https://dc.lft.to/lastmile_qr_scan"}, "lat": 38.8995075, "is_reserved": 0, "is_disabled": 0, "fusion_lat": 0.0}, {"fusion_lon": 0.0, "bike_id": "27df3b60950c5d6f9bcf2e10fb140cd8", "name": "27df3b60950c5d6f9bcf2e10fb140cd8", "type": "electric_scooter", "lon": -77.0345585, "rental_uris": {"android": "https://dc.lft.to/lastmile_qr_scan", "ios": "https://dc.lft.to/lastmile_qr_scan"}, "lat": 38.964218, "is_reserved": 0, "is_disabled": 0, "fusion_lat": 0.0}, {"fusion_lon": 0.0, "bike_id": "9247df34607c8761e5da0e87405bca81", "name": "9247df34607c8761e5da0e87405bca81", "type": "electric_scooter", "lon": -76.98327833333333, "rental_uris": {"android": "https://dc.lft.to/lastmile_qr_scan", "ios": "https://dc.lft.to/lastmile_qr_scan"}, "lat": 38.861677666666665, "is_reserved": 0, "is_disabled": 0, "fusion_lat": 0.0}, {"fusion_lon": 0.0, "bike_id": "09d3ab32c177c22cfdbef042516b528b", "name": "09d3ab32c177c22cfdbef042516b528b", "type": "electric_scooter", "lon": -77.02248183333333, "rental_uris": {"android": "https://dc.lft.to/lastmile_qr_scan", "ios": "https://dc.lft.to/lastmile_qr_scan"}, "lat": 38.892203333333335, "is_reserved": 0, "is_disabled": 0, "fusion_lat": 0.0}, {"fusion_lon": 0.0, "bike_id": "6bdb02091b0c1a60b18969b03630a992", "name": "6bdb02091b0c1a60b18969b03630a992", "type": "electric_bike", "lon": -76.9683705, "rental_uris": {"android": "https://dc.lft.to/lastmile_qr_scan", "ios": "https://dc.lft.to/lastmile_qr_scan"}, "lat": 38.92446416666667, "is_reserved": 0, "is_disabled": 0, "fusion_lat": 0.0}, {"fusion_lon": 0.0, "bike_id": "21f64efaec33d3ba26ed9a649dafe77b", "name": "21f64efaec33d3ba26ed9a649dafe77b", "type": "electric_scooter", "lon": -77.04401466666667, "rental_uris": {"android": "https://dc.lft.to/lastmile_qr_scan", "ios": "https://dc.lft.to/lastmile_qr_scan"}, "lat": 38.929516666666665, "is_reserved": 0, "is_disabled": 0, "fusion_lat": 0.0}, {"fusion_lon": 0.0, "bike_id": "9f68f16b8f3fe7d72cdfaff7540e2ae8", "name": "9f68f16b8f3fe7d72cdfaff7540e2ae8", "type": "electric_scooter", "lon": -76.99049783333334, "rental_uris": {"android": "https://dc.lft.to/lastmile_qr_scan", "ios": "https://dc.lft.to/lastmile_qr_scan"}, "lat": 38.86349716666667, "is_reserved": 0, "is_disabled": 0, "fusion_lat": 0.0}, {"fusion_lon": 0.0, "bike_id": "e119636c5d9d63ade8c61ffc5bb314d1", "name": "e119636c5d9d63ade8c61ffc5bb314d1", "type": "electric_scooter", "lon": -77.04105066666666, "rental_uris": {"android": "https://dc.lft.to/lastmile_qr_scan", "ios": "https://dc.lft.to/lastmile_qr_scan"}, "lat": 38.92366233333333, "is_reserved": 0, "is_disabled": 0, "fusion_lat": 0.0}, {"fusion_lon": 0.0, "bike_id": "a109281a9ea0777e8c535f6251194ecb", "name": "a109281a9ea0777e8c535f6251194ecb", "type": "electric_scooter", "lon": -77.03098066666666, "rental_uris": {"android": "https://dc.lft.to/lastmile_qr_scan", "ios": "https://dc.lft.to/lastmile_qr_scan"}, "lat": 38.90770233333333, "is_reserved": 0, "is_disabled": 0, "fusion_lat": 0.0}, {"fusion_lon": 0.0, "bike_id": "f74a49856cd8d01be26eca693a56356e", "name": "f74a49856cd8d01be26eca693a56356e", "type": "electric_scooter", "lon": -77.02054016666666, "rental_uris": {"android": "https://dc.lft.to/lastmile_qr_scan", "ios": "https://dc.lft.to/lastmile_qr_scan"}, "lat": 38.94121366666667, "is_reserved": 0, "is_disabled": 0, "fusion_lat": 0.0}, {"fusion_lon": 0.0, "bike_id": "2b481e30caef4e800b48b3f741679518", "name": "2b481e30caef4e800b48b3f741679518", "type": "electric_bike", "lon": -77.10652133333333, "rental_uris": {"android": "https://dc.lft.to/lastmile_qr_scan", "ios": "https://dc.lft.to/lastmile_qr_scan"}, "lat": 39.0300225, "is_reserved": 0, "is_disabled": 0, "fusion_lat": 0.0}, {"fusion_lon": 0.0, "bike_id": "576c837989c0320df114f2fd1478ea1f", "name": "576c837989c0320df114f2fd1478ea1f", "type": "electric_scooter", "lon": -77.03142733333334, "rental_uris": {"android": "https://dc.lft.to/lastmile_qr_scan", "ios": "https://dc.lft.to/lastmile_qr_scan"}, "lat": 38.920172, "is_reserved": 0, "is_disabled": 0, "fusion_lat": 0.0}, {"fusion_lon": 0.0, "bike_id": "cee3b56ec76789157efc3176ab864e98", "name": "cee3b56ec76789157efc3176ab864e98", "type": "electric_bike", "lon": -77.02741966666666, "rental_uris": {"android": "https://dc.lft.to/lastmile_qr_scan", "ios": "https://dc.lft.to/lastmile_qr_scan"}, "lat": 38.920996833333334, "is_reserved": 0, "is_disabled": 0, "fusion_lat": 0.0}, {"fusion_lon": 0.0, "bike_id": "7facefeabebf56c03b43f4f1bc4aa456", "name": "7facefeabebf56c03b43f4f1bc4aa456", "type": "electric_scooter", "lon": -77.0124835, "rental_uris": {"android": "https://dc.lft.to/lastmile_qr_scan", "ios": "https://dc.lft.to/lastmile_qr_scan"}, "lat": 38.93110433333333, "is_reserved": 0, "is_disabled": 0, "fusion_lat": 0.0}, {"fusion_lon": 0.0, "bike_id": "bae7943ff4bbe1f0bd3124d99b18d85c", "name": "bae7943ff4bbe1f0bd3124d99b18d85c", "type": "electric_scooter", "lon": -77.02463433333334, "rental_uris": {"android": "https://dc.lft.to/lastmile_qr_scan", "ios": "https://dc.lft.to/lastmile_qr_scan"}, "lat": 38.93759, "is_reserved": 0, "is_disabled": 0, "fusion_lat": 0.0}, {"fusion_lon": 0.0, "bike_id": "bd9ccd2bc306afb963ac20bbde38558c", "name": "bd9ccd2bc306afb963ac20bbde38558c", "type": "electric_scooter", "lon": -77.0204975, "rental_uris": {"android": "https://dc.lft.to/lastmile_qr_scan", "ios": "https://dc.lft.to/lastmile_qr_scan"}, "lat": 38.95869666666667, "is_reserved": 0, "is_disabled": 0, "fusion_lat": 0.0}, {"fusion_lon": 0.0, "bike_id": "ca17ce6fbcc0a5301374116d61e0094a", "name": "ca17ce6fbcc0a5301374116d61e0094a", "type": "electric_scooter", "lon": -77.03958633333333, "rental_uris": {"android": "https://dc.lft.to/lastmile_qr_scan", "ios": "https://dc.lft.to/lastmile_qr_scan"}, "lat": 38.89242616666667, "is_reserved": 0, "is_disabled": 0, "fusion_lat": 0.0}, {"fusion_lon": 0.0, "bike_id": "3f8015f622edde8e0515763258e5f449", "name": "3f8015f622edde8e0515763258e5f449", "type": "electric_scooter", "lon": -77.03189416666666, "rental_uris": {"android": "https://dc.lft.to/lastmile_qr_scan", "ios": "https://dc.lft.to/lastmile_qr_scan"}, "lat": 38.90878933333333, "is_reserved": 0, "is_disabled": 0, "fusion_lat": 0.0}, {"fusion_lon": 0.0, "bike_id": "696b9cfb9ed634b36113a571a66d5e59", "name": "696b9cfb9ed634b36113a571a66d5e59", "type": "electric_scooter", "lon": -77.03399716666667, "rental_uris": {"android": "https://dc.lft.to/lastmile_qr_scan", "ios": "https://dc.lft.to/lastmile_qr_scan"}, "lat": 38.934763333333336, "is_reserved": 0, "is_disabled": 0, "fusion_lat": 0.0}, {"fusion_lon": 0.0, "bike_id": "3f6bd20bd284bbefa11a4f64e101607a", "name": "3f6bd20bd284bbefa11a4f64e101607a", "type": "electric_bike", "lon": -76.948004, "rental_uris": {"android": "https://dc.lft.to/lastmile_qr_scan", "ios": "https://dc.lft.to/lastmile_qr_scan"}, "lat": 38.8619515, "is_reserved": 0, "is_disabled": 0, "fusion_lat": 0.0}, {"fusion_lon": 0.0, "bike_id": "56e035e21fbfee2b05c696d316ff8813", "name": "56e035e21fbfee2b05c696d316ff8813", "type": "electric_bike", "lon": -77.0229815, "rental_uris": {"android": "https://dc.lft.to/lastmile_qr_scan", "ios": "https://dc.lft.to/lastmile_qr_scan"}, "lat": 38.923273333333334, "is_reserved": 0, "is_disabled": 0, "fusion_lat": 0.0}, {"fusion_lon": 0.0, "bike_id": "4fd980d2d8689aca36aee01d3e87dbde", "name": "4fd980d2d8689aca36aee01d3e87dbde", "type": "electric_bike", "lon": -77.02949833333334, "rental_uris": {"android": "https://dc.lft.to/lastmile_qr_scan", "ios": "https://dc.lft.to/lastmile_qr_scan"}, "lat": 38.920643166666665, "is_reserved": 0, "is_disabled": 0, "fusion_lat": 0.0}, {"fusion_lon": 0.0, "bike_id": "a3cf877ba105a20a1adc4427bf56baa7", "name": "a3cf877ba105a20a1adc4427bf56baa7", "type": "electric_scooter", "lon": -77.01996133333333, "rental_uris": {"android": "https://dc.lft.to/lastmile_qr_scan", "ios": "https://dc.lft.to/lastmile_qr_scan"}, "lat": 38.966287, "is_reserved": 0, "is_disabled": 0, "fusion_lat": 0.0}, {"fusion_lon": 0.0, "bike_id": "8577a301331b74db6c43c8d9ef4e0a1a", "name": "8577a301331b74db6c43c8d9ef4e0a1a", "type": "electric_scooter", "lon": -77.03646566666667, "rental_uris": {"android": "https://dc.lft.to/lastmile_qr_scan", "ios": "https://dc.lft.to/lastmile_qr_scan"}, "lat": 38.91873533333333, "is_reserved": 0, "is_disabled": 0, "fusion_lat": 0.0}, {"fusion_lon": 0.0, "bike_id": "25534ef3de09eae3ca5a64d770859b2d", "name": "25534ef3de09eae3ca5a64d770859b2d", "type": "electric_scooter", "lon": -77.02276883333333, "rental_uris": {"android": "https://dc.lft.to/lastmile_qr_scan", "ios": "https://dc.lft.to/lastmile_qr_scan"}, "lat": 38.90962716666667, "is_reserved": 0, "is_disabled": 0, "fusion_lat": 0.0}, {"fusion_lon": 0.0, "bike_id": "2370048fa7d92b17ce2338cca71b242e", "name": "2370048fa7d92b17ce2338cca71b242e", "type": "electric_scooter", "lon": -77.04500916666667, "rental_uris": {"android": "https://dc.lft.to/lastmile_qr_scan", "ios": "https://dc.lft.to/lastmile_qr_scan"}, "lat": 38.9085695, "is_reserved": 0, "is_disabled": 0, "fusion_lat": 0.0}, {"fusion_lon": 0.0, "bike_id": "e1b7676b491c82bbdc829ba802fab9e7", "name": "e1b7676b491c82bbdc829ba802fab9e7", "type": "electric_scooter", "lon": -77.031042, "rental_uris": {"android": "https://dc.lft.to/lastmile_qr_scan", "ios": "https://dc.lft.to/lastmile_qr_scan"}, "lat": 38.920300166666664, "is_reserved": 0, "is_disabled": 0, "fusion_lat": 0.0}, {"fusion_lon": 0.0, "bike_id": "9c1148a78aa46ba8cd8fe7dd31d6a9cd", "name": "9c1148a78aa46ba8cd8fe7dd31d6a9cd", "type": "electric_scooter", "lon": -77.041793, "rental_uris": {"android": "https://dc.lft.to/lastmile_qr_scan", "ios": "https://dc.lft.to/lastmile_qr_scan"}, "lat": 38.92003833333333, "is_reserved": 0, "is_disabled": 0, "fusion_lat": 0.0}, {"fusion_lon": 0.0, "bike_id": "8e70fdc3c72ba2f56b2256cd8b4e6c23", "name": "8e70fdc3c72ba2f56b2256cd8b4e6c23", "type": "electric_scooter", "lon": -77.04475066666667, "rental_uris": {"android": "https://dc.lft.to/lastmile_qr_scan", "ios": "https://dc.lft.to/lastmile_qr_scan"}, "lat": 38.91297516666667, "is_reserved": 0, "is_disabled": 0, "fusion_lat": 0.0}, {"fusion_lon": 0.0, "bike_id": "a13460dae0f0db3ff5b91a883a13c61a", "name": "a13460dae0f0db3ff5b91a883a13c61a", "type": "electric_bike", "lon": -77.038937, "rental_uris": {"android": "https://dc.lft.to/lastmile_qr_scan", "ios": "https://dc.lft.to/lastmile_qr_scan"}, "lat": 38.9439715, "is_reserved": 0, "is_disabled": 0, "fusion_lat": 0.0}, {"fusion_lon": 0.0, "bike_id": "ff3c3161b2d2c1d35ce80f450e4d35b7", "name": "ff3c3161b2d2c1d35ce80f450e4d35b7", "type": "electric_scooter", "lon": -77.02353633333334, "rental_uris": {"android": "https://dc.lft.to/lastmile_qr_scan", "ios": "https://dc.lft.to/lastmile_qr_scan"}, "lat": 38.935321333333334, "is_reserved": 0, "is_disabled": 0, "fusion_lat": 0.0}, {"fusion_lon": 0.0, "bike_id": "09fca21bd28a4f570289c1f6e937b6f0", "name": "09fca21bd28a4f570289c1f6e937b6f0", "type": "electric_scooter", "lon": -77.00580666666667, "rental_uris": {"android": "https://dc.lft.to/lastmile_qr_scan", "ios": "https://dc.lft.to/lastmile_qr_scan"}, "lat": 38.905591333333334, "is_reserved": 0, "is_disabled": 0, "fusion_lat": 0.0}, {"fusion_lon": 0.0, "bike_id": "dc91233c68e9e99d73e9b6a300ceb153", "name": "dc91233c68e9e99d73e9b6a300ceb153", "type": "electric_scooter", "lon": -77.02719716666667, "rental_uris": {"android": "https://dc.lft.to/lastmile_qr_scan", "ios": "https://dc.lft.to/lastmile_qr_scan"}, "lat": 38.9042065, "is_reserved": 0, "is_disabled": 0, "fusion_lat": 0.0}, {"fusion_lon": 0.0, "bike_id": "dcd8b5b210553c886cedadf86191f811", "name": "dcd8b5b210553c886cedadf86191f811", "type": "electric_scooter", "lon": -77.04583, "rental_uris": {"android": "https://dc.lft.to/lastmile_qr_scan", "ios": "https://dc.lft.to/lastmile_qr_scan"}, "lat": 38.92420716666667, "is_reserved": 0, "is_disabled": 0, "fusion_lat": 0.0}, {"fusion_lon": 0.0, "bike_id": "a4bb96b33db17d13e553259f85ca229b", "name": "a4bb96b33db17d13e553259f85ca229b", "type": "electric_scooter", "lon": -77.01515283333333, "rental_uris": {"android": "https://dc.lft.to/lastmile_qr_scan", "ios": "https://dc.lft.to/lastmile_qr_scan"}, "lat": 38.9102965, "is_reserved": 0, "is_disabled": 0, "fusion_lat": 0.0}, {"fusion_lon": 0.0, "bike_id": "06b53619839f85009400325fa81ba883", "name": "06b53619839f85009400325fa81ba883", "type": "electric_scooter", "lon": -77.017578, "rental_uris": {"android": "https://dc.lft.to/lastmile_qr_scan", "ios": "https://dc.lft.to/lastmile_qr_scan"}, "lat": 38.9025865, "is_reserved": 0, "is_disabled": 0, "fusion_lat": 0.0}, {"fusion_lon": 0.0, "bike_id": "374f37e367c3a8ac83cdf595d5b24ea8", "name": "374f37e367c3a8ac83cdf595d5b24ea8", "type": "electric_scooter", "lon": -76.99789266666667, "rental_uris": {"android": "https://dc.lft.to/lastmile_qr_scan", "ios": "https://dc.lft.to/lastmile_qr_scan"}, "lat": 38.9482915, "is_reserved": 0, "is_disabled": 0, "fusion_lat": 0.0}, {"fusion_lon": 0.0, "bike_id": "636536cad5f2475519be5db8765ab891", "name": "636536cad5f2475519be5db8765ab891", "type": "electric_scooter", "lon": -77.034898, "rental_uris": {"android": "https://dc.lft.to/lastmile_qr_scan", "ios": "https://dc.lft.to/lastmile_qr_scan"}, "lat": 38.921527166666664, "is_reserved": 0, "is_disabled": 0, "fusion_lat": 0.0}, {"fusion_lon": 0.0, "bike_id": "67c1ba7fa4ad24a9d05b80e42f10d456", "name": "67c1ba7fa4ad24a9d05b80e42f10d456", "type": "electric_scooter", "lon": -77.04673616666666, "rental_uris": {"android": "https://dc.lft.to/lastmile_qr_scan", "ios": "https://dc.lft.to/lastmile_qr_scan"}, "lat": 38.907369, "is_reserved": 0, "is_disabled": 0, "fusion_lat": 0.0}, {"fusion_lon": 0.0, "bike_id": "f0360a5f853e601e294ae4c5576a183c", "name": "f0360a5f853e601e294ae4c5576a183c", "type": "electric_scooter", "lon": -77.0609825, "rental_uris": {"android": "https://dc.lft.to/lastmile_qr_scan", "ios": "https://dc.lft.to/lastmile_qr_scan"}, "lat": 38.943676333333336, "is_reserved": 0, "is_disabled": 0, "fusion_lat": 0.0}, {"fusion_lon": 0.0, "bike_id": "d5a1f0babebaf4ddab3403538b52de40", "name": "d5a1f0babebaf4ddab3403538b52de40", "type": "electric_scooter", "lon": -77.0065745, "rental_uris": {"android": "https://dc.lft.to/lastmile_qr_scan", "ios": "https://dc.lft.to/lastmile_qr_scan"}, "lat": 38.87718666666667, "is_reserved": 0, "is_disabled": 0, "fusion_lat": 0.0}, {"fusion_lon": 0.0, "bike_id": "abb2cfd1086591a43163f2e7aea2173f", "name": "abb2cfd1086591a43163f2e7aea2173f", "type": "electric_scooter", "lon": -77.03450416666666, "rental_uris": {"android": "https://dc.lft.to/lastmile_qr_scan", "ios": "https://dc.lft.to/lastmile_qr_scan"}, "lat": 38.93429833333333, "is_reserved": 0, "is_disabled": 0, "fusion_lat": 0.0}, {"fusion_lon": 0.0, "bike_id": "1598017220ab1008c78a5b70b7e06f67", "name": "1598017220ab1008c78a5b70b7e06f67", "type": "electric_scooter", "lon": -77.03347833333333, "rental_uris": {"android": "https://dc.lft.to/lastmile_qr_scan", "ios": "https://dc.lft.to/lastmile_qr_scan"}, "lat": 38.928831, "is_reserved": 0, "is_disabled": 0, "fusion_lat": 0.0}, {"fusion_lon": 0.0, "bike_id": "95ba9f86676827c2f9d28f2042199291", "name": "95ba9f86676827c2f9d28f2042199291", "type": "electric_scooter", "lon": -77.02138666666667, "rental_uris": {"android": "https://dc.lft.to/lastmile_qr_scan", "ios": "https://dc.lft.to/lastmile_qr_scan"}, "lat": 38.896172666666665, "is_reserved": 0, "is_disabled": 0, "fusion_lat": 0.0}, {"fusion_lon": 0.0, "bike_id": "9415c8311adbf31826a2b7e26264a5ea", "name": "9415c8311adbf31826a2b7e26264a5ea", "type": "electric_scooter", "lon": -77.02831233333333, "rental_uris": {"android": "https://dc.lft.to/lastmile_qr_scan", "ios": "https://dc.lft.to/lastmile_qr_scan"}, "lat": 38.88726533333333, "is_reserved": 0, "is_disabled": 0, "fusion_lat": 0.0}, {"fusion_lon": 0.0, "bike_id": "c1538f1c14c710ab2997e2d50c6d3251", "name": "c1538f1c14c710ab2997e2d50c6d3251", "type": "electric_scooter", "lon": -77.00605233333333, "rental_uris": {"android": "https://dc.lft.to/lastmile_qr_scan", "ios": "https://dc.lft.to/lastmile_qr_scan"}, "lat": 38.91116066666667, "is_reserved": 0, "is_disabled": 0, "fusion_lat": 0.0}, {"fusion_lon": 0.0, "bike_id": "96b40220b6a571531d6279d273f80f88", "name": "96b40220b6a571531d6279d273f80f88", "type": "electric_scooter", "lon": -77.01375533333334, "rental_uris": {"android": "https://dc.lft.to/lastmile_qr_scan", "ios": "https://dc.lft.to/lastmile_qr_scan"}, "lat": 38.886403333333334, "is_reserved": 0, "is_disabled": 0, "fusion_lat": 0.0}, {"fusion_lon": 0.0, "bike_id": "8f626ba155b1d29fdae87e55cb26812b", "name": "8f626ba155b1d29fdae87e55cb26812b", "type": "electric_scooter", "lon": -77.03409533333334, "rental_uris": {"android": "https://dc.lft.to/lastmile_qr_scan", "ios": "https://dc.lft.to/lastmile_qr_scan"}, "lat": 38.9193095, "is_reserved": 0, "is_disabled": 0, "fusion_lat": 0.0}, {"fusion_lon": 0.0, "bike_id": "6c283284252d67018960fea4dceb18b5", "name": "6c283284252d67018960fea4dceb18b5", "type": "electric_scooter", "lon": -77.00371516666667, "rental_uris": {"android": "https://dc.lft.to/lastmile_qr_scan", "ios": "https://dc.lft.to/lastmile_qr_scan"}, "lat": 38.911025, "is_reserved": 0, "is_disabled": 0, "fusion_lat": 0.0}, {"fusion_lon": 0.0, "bike_id": "b547b6e749034986899052c2a781dcca", "name": "b547b6e749034986899052c2a781dcca", "type": "electric_scooter", "lon": -77.06189816666667, "rental_uris": {"android": "https://dc.lft.to/lastmile_qr_scan", "ios": "https://dc.lft.to/lastmile_qr_scan"}, "lat": 38.9301475, "is_reserved": 0, "is_disabled": 0, "fusion_lat": 0.0}, {"fusion_lon": 0.0, "bike_id": "550d7c6663d8839192cd3e23776df37b", "name": "550d7c6663d8839192cd3e23776df37b", "type": "electric_scooter", "lon": -77.029519, "rental_uris": {"android": "https://dc.lft.to/lastmile_qr_scan", "ios": "https://dc.lft.to/lastmile_qr_scan"}, "lat": 38.898633, "is_reserved": 0, "is_disabled": 0, "fusion_lat": 0.0}, {"fusion_lon": 0.0, "bike_id": "40377e110d564136868539c64ae6d520", "name": "40377e110d564136868539c64ae6d520", "type": "electric_scooter", "lon": -76.99624483333334, "rental_uris": {"android": "https://dc.lft.to/lastmile_qr_scan", "ios": "https://dc.lft.to/lastmile_qr_scan"}, "lat": 38.846833333333336, "is_reserved": 0, "is_disabled": 0, "fusion_lat": 0.0}, {"fusion_lon": 0.0, "bike_id": "bed2cc271cd531ec9ad6da1750aeee12", "name": "bed2cc271cd531ec9ad6da1750aeee12", "type": "electric_bike", "lon": -77.34409483333333, "rental_uris": {"android": "https://dc.lft.to/lastmile_qr_scan", "ios": "https://dc.lft.to/lastmile_qr_scan"}, "lat": 38.94592133333333, "is_reserved": 0, "is_disabled": 0, "fusion_lat": 0.0}, {"fusion_lon": 0.0, "bike_id": "28aa59ebe1f7a7972f8040c1f85cc80b", "name": "28aa59ebe1f7a7972f8040c1f85cc80b", "type": "electric_bike", "lon": -77.14323033333334, "rental_uris": {"android": "https://dc.lft.to/lastmile_qr_scan", "ios": "https://dc.lft.to/lastmile_qr_scan"}, "lat": 39.054550166666665, "is_reserved": 0, "is_disabled": 0, "fusion_lat": 0.0}, {"fusion_lon": 0.0, "bike_id": "891dba42e83f2ca0c2459eabcb6b17f8", "name": "891dba42e83f2ca0c2459eabcb6b17f8", "type": "electric_scooter", "lon": -77.01180783333334, "rental_uris": {"android": "https://dc.lft.to/lastmile_qr_scan", "ios": "https://dc.lft.to/lastmile_qr_scan"}, "lat": 38.86802433333333, "is_reserved": 0, "is_disabled": 0, "fusion_lat": 0.0}, {"fusion_lon": 0.0, "bike_id": "f6743aae1dab2b67efd4ffdced63d07f", "name": "f6743aae1dab2b67efd4ffdced63d07f", "type": "electric_scooter", "lon": -77.03739716666666, "rental_uris": {"android": "https://dc.lft.to/lastmile_qr_scan", "ios": "https://dc.lft.to/lastmile_qr_scan"}, "lat": 38.928615, "is_reserved": 0, "is_disabled": 0, "fusion_lat": 0.0}, {"fusion_lon": 0.0, "bike_id": "d69d828dafe17c805f292e7989f435ec", "name": "d69d828dafe17c805f292e7989f435ec", "type": "electric_scooter", "lon": -76.98888233333334, "rental_uris": {"android": "https://dc.lft.to/lastmile_qr_scan", "ios": "https://dc.lft.to/lastmile_qr_scan"}, "lat": 38.86672, "is_reserved": 0, "is_disabled": 0, "fusion_lat": 0.0}, {"fusion_lon": 0.0, "bike_id": "469e7a0d71e0e65d6c405b32d96a22fa", "name": "469e7a0d71e0e65d6c405b32d96a22fa", "type": "electric_scooter", "lon": -77.0450655, "rental_uris": {"android": "https://dc.lft.to/lastmile_qr_scan", "ios": "https://dc.lft.to/lastmile_qr_scan"}, "lat": 38.90784, "is_reserved": 0, "is_disabled": 0, "fusion_lat": 0.0}, {"fusion_lon": 0.0, "bike_id": "8a70d83f21c97efa6faafa60b2b101d7", "name": "8a70d83f21c97efa6faafa60b2b101d7", "type": "electric_scooter", "lon": -76.99026933333333, "rental_uris": {"android": "https://dc.lft.to/lastmile_qr_scan", "ios": "https://dc.lft.to/lastmile_qr_scan"}, "lat": 38.86076933333333, "is_reserved": 0, "is_disabled": 0, "fusion_lat": 0.0}, {"fusion_lon": 0.0, "bike_id": "0d920c57bab3d78d223ee943aeb4dcfa", "name": "0d920c57bab3d78d223ee943aeb4dcfa", "type": "electric_scooter", "lon": -76.94855433333333, "rental_uris": {"android": "https://dc.lft.to/lastmile_qr_scan", "ios": "https://dc.lft.to/lastmile_qr_scan"}, "lat": 38.883032, "is_reserved": 0, "is_disabled": 0, "fusion_lat": 0.0}, {"fusion_lon": 0.0, "bike_id": "0aade543095e956b18961fb71b7e6807", "name": "0aade543095e956b18961fb71b7e6807", "type": "electric_scooter", "lon": -77.011894, "rental_uris": {"android": "https://dc.lft.to/lastmile_qr_scan", "ios": "https://dc.lft.to/lastmile_qr_scan"}, "lat": 38.90649483333333, "is_reserved": 0, "is_disabled": 0, "fusion_lat": 0.0}, {"fusion_lon": 0.0, "bike_id": "8a529bc5e5f9a8678599c81307030cd9", "name": "8a529bc5e5f9a8678599c81307030cd9", "type": "electric_bike", "lon": -76.981782, "rental_uris": {"android": "https://dc.lft.to/lastmile_qr_scan", "ios": "https://dc.lft.to/lastmile_qr_scan"}, "lat": 38.959477, "is_reserved": 0, "is_disabled": 0, "fusion_lat": 0.0}, {"fusion_lon": 0.0, "bike_id": "06448c1d0c0e2f5c8b6514965ced3839", "name": "06448c1d0c0e2f5c8b6514965ced3839", "type": "electric_scooter", "lon": -77.04224466666666, "rental_uris": {"android": "https://dc.lft.to/lastmile_qr_scan", "ios": "https://dc.lft.to/lastmile_qr_scan"}, "lat": 38.931543833333336, "is_reserved": 0, "is_disabled": 0, "fusion_lat": 0.0}, {"fusion_lon": 0.0, "bike_id": "fab9cfca3dc2d5f78535ae462178f816", "name": "fab9cfca3dc2d5f78535ae462178f816", "type": "electric_scooter", "lon": -77.04505966666666, "rental_uris": {"android": "https://dc.lft.to/lastmile_qr_scan", "ios": "https://dc.lft.to/lastmile_qr_scan"}, "lat": 38.911130666666665, "is_reserved": 0, "is_disabled": 0, "fusion_lat": 0.0}, {"fusion_lon": 0.0, "bike_id": "370b5556f2338c21ac2211b97a4e7ec9", "name": "370b5556f2338c21ac2211b97a4e7ec9", "type": "electric_scooter", "lon": -77.01215033333334, "rental_uris": {"android": "https://dc.lft.to/lastmile_qr_scan", "ios": "https://dc.lft.to/lastmile_qr_scan"}, "lat": 38.893303833333334, "is_reserved": 0, "is_disabled": 0, "fusion_lat": 0.0}, {"fusion_lon": 0.0, "bike_id": "99d98f664090009c131986a6e731f4bf", "name": "99d98f664090009c131986a6e731f4bf", "type": "electric_scooter", "lon": -77.027135, "rental_uris": {"android": "https://dc.lft.to/lastmile_qr_scan", "ios": "https://dc.lft.to/lastmile_qr_scan"}, "lat": 38.916739166666666, "is_reserved": 0, "is_disabled": 0, "fusion_lat": 0.0}, {"fusion_lon": 0.0, "bike_id": "06a787e3bcb43ce4accb4da3345f74a2", "name": "06a787e3bcb43ce4accb4da3345f74a2", "type": "electric_scooter", "lon": -76.99187, "rental_uris": {"android": "https://dc.lft.to/lastmile_qr_scan", "ios": "https://dc.lft.to/lastmile_qr_scan"}, "lat": 38.92592483333333, "is_reserved": 0, "is_disabled": 0, "fusion_lat": 0.0}, {"fusion_lon": 0.0, "bike_id": "a17502471d98ca9865674eb3cdd22faf", "name": "a17502471d98ca9865674eb3cdd22faf", "type": "electric_scooter", "lon": -77.00212966666666, "rental_uris": {"android": "https://dc.lft.to/lastmile_qr_scan", "ios": "https://dc.lft.to/lastmile_qr_scan"}, "lat": 38.90280633333333, "is_reserved": 0, "is_disabled": 0, "fusion_lat": 0.0}, {"fusion_lon": 0.0, "bike_id": "a8627490580c92a643f7fd588c97e062", "name": "a8627490580c92a643f7fd588c97e062", "type": "electric_scooter", "lon": -76.933521, "rental_uris": {"android": "https://dc.lft.to/lastmile_qr_scan", "ios": "https://dc.lft.to/lastmile_qr_scan"}, "lat": 38.89912016666667, "is_reserved": 0, "is_disabled": 0, "fusion_lat": 0.0}, {"fusion_lon": 0.0, "bike_id": "d02cf1c70d32819ddbc1f2c23ecb2f6e", "name": "d02cf1c70d32819ddbc1f2c23ecb2f6e", "type": "electric_scooter", "lon": -76.99032816666667, "rental_uris": {"android": "https://dc.lft.to/lastmile_qr_scan", "ios": "https://dc.lft.to/lastmile_qr_scan"}, "lat": 38.89852716666667, "is_reserved": 0, "is_disabled": 0, "fusion_lat": 0.0}, {"fusion_lon": 0.0, "bike_id": "f4e60ab78ee345e6ba964a9bceabd9c7", "name": "f4e60ab78ee345e6ba964a9bceabd9c7", "type": "electric_scooter", "lon": -76.95673216666667, "rental_uris": {"android": "https://dc.lft.to/lastmile_qr_scan", "ios": "https://dc.lft.to/lastmile_qr_scan"}, "lat": 38.8876755, "is_reserved": 0, "is_disabled": 0, "fusion_lat": 0.0}, {"fusion_lon": 0.0, "bike_id": "b0c6e4695d940f001b3ef9cb90c52d73", "name": "b0c6e4695d940f001b3ef9cb90c52d73", "type": "electric_scooter", "lon": -77.018969, "rental_uris": {"android": "https://dc.lft.to/lastmile_qr_scan", "ios": "https://dc.lft.to/lastmile_qr_scan"}, "lat": 38.94930083333333, "is_reserved": 0, "is_disabled": 0, "fusion_lat": 0.0}, {"fusion_lon": 0.0, "bike_id": "e272ea0149a14318f7d5db6434950fc6", "name": "e272ea0149a14318f7d5db6434950fc6", "type": "electric_scooter", "lon": -77.04631416666666, "rental_uris": {"android": "https://dc.lft.to/lastmile_qr_scan", "ios": "https://dc.lft.to/lastmile_qr_scan"}, "lat": 38.918070166666666, "is_reserved": 0, "is_disabled": 0, "fusion_lat": 0.0}, {"fusion_lon": 0.0, "bike_id": "e3162e70eac62748af914a171b8794d5", "name": "e3162e70eac62748af914a171b8794d5", "type": "electric_scooter", "lon": -77.01013716666667, "rental_uris": {"android": "https://dc.lft.to/lastmile_qr_scan", "ios": "https://dc.lft.to/lastmile_qr_scan"}, "lat": 38.906184333333336, "is_reserved": 0, "is_disabled": 0, "fusion_lat": 0.0}, {"fusion_lon": 0.0, "bike_id": "f29bb4354fe0ae9ebf8d69629a5a8546", "name": "f29bb4354fe0ae9ebf8d69629a5a8546", "type": "electric_bike", "lon": -76.95207266666667, "rental_uris": {"android": "https://dc.lft.to/lastmile_qr_scan", "ios": "https://dc.lft.to/lastmile_qr_scan"}, "lat": 38.936651, "is_reserved": 0, "is_disabled": 0, "fusion_lat": 0.0}, {"fusion_lon": 0.0, "bike_id": "89f86cfbee7a773e075b7ed2d0bf90af", "name": "89f86cfbee7a773e075b7ed2d0bf90af", "type": "electric_scooter", "lon": -77.03198716666667, "rental_uris": {"android": "https://dc.lft.to/lastmile_qr_scan", "ios": "https://dc.lft.to/lastmile_qr_scan"}, "lat": 38.9074155, "is_reserved": 0, "is_disabled": 0, "fusion_lat": 0.0}, {"fusion_lon": 0.0, "bike_id": "5683c9503c1100ffd6b47ec9a70837b4", "name": "5683c9503c1100ffd6b47ec9a70837b4", "type": "electric_scooter", "lon": -76.98729133333333, "rental_uris": {"android": "https://dc.lft.to/lastmile_qr_scan", "ios": "https://dc.lft.to/lastmile_qr_scan"}, "lat": 38.867105, "is_reserved": 0, "is_disabled": 0, "fusion_lat": 0.0}, {"fusion_lon": 0.0, "bike_id": "cfdbc8617e1eb3ebb30b5f4ee0de8adf", "name": "cfdbc8617e1eb3ebb30b5f4ee0de8adf", "type": "electric_scooter", "lon": -77.035452, "rental_uris": {"android": "https://dc.lft.to/lastmile_qr_scan", "ios": "https://dc.lft.to/lastmile_qr_scan"}, "lat": 38.903569, "is_reserved": 0, "is_disabled": 0, "fusion_lat": 0.0}, {"fusion_lon": 0.0, "bike_id": "560e77d35e3f4fa6ca7f348c991e14be", "name": "560e77d35e3f4fa6ca7f348c991e14be", "type": "electric_scooter", "lon": -77.0234605, "rental_uris": {"android": "https://dc.lft.to/lastmile_qr_scan", "ios": "https://dc.lft.to/lastmile_qr_scan"}, "lat": 38.92263916666667, "is_reserved": 0, "is_disabled": 0, "fusion_lat": 0.0}, {"fusion_lon": 0.0, "bike_id": "1065a96d899b941a4a01e6470a2bfc69", "name": "1065a96d899b941a4a01e6470a2bfc69", "type": "electric_bike", "lon": -77.08804483333333, "rental_uris": {"android": "https://dc.lft.to/lastmile_qr_scan", "ios": "https://dc.lft.to/lastmile_qr_scan"}, "lat": 38.831731833333336, "is_reserved": 0, "is_disabled": 0, "fusion_lat": 0.0}, {"fusion_lon": 0.0, "bike_id": "6cdf610398fe4645e5a7cda1b9deb3e4", "name": "6cdf610398fe4645e5a7cda1b9deb3e4", "type": "electric_scooter", "lon": -77.03336316666666, "rental_uris": {"android": "https://dc.lft.to/lastmile_qr_scan", "ios": "https://dc.lft.to/lastmile_qr_scan"}, "lat": 38.9170875, "is_reserved": 0, "is_disabled": 0, "fusion_lat": 0.0}, {"fusion_lon": 0.0, "bike_id": "34a3c319ad7700b1dffc2f25633615a3", "name": "34a3c319ad7700b1dffc2f25633615a3", "type": "electric_scooter", "lon": -77.02480816666667, "rental_uris": {"android": "https://dc.lft.to/lastmile_qr_scan", "ios": "https://dc.lft.to/lastmile_qr_scan"}, "lat": 38.93840266666667, "is_reserved": 0, "is_disabled": 0, "fusion_lat": 0.0}, {"fusion_lon": 0.0, "bike_id": "f009703b5b6ef6ba2accb110ecee17ce", "name": "f009703b5b6ef6ba2accb110ecee17ce", "type": "electric_scooter", "lon": -77.0033345, "rental_uris": {"android": "https://dc.lft.to/lastmile_qr_scan", "ios": "https://dc.lft.to/lastmile_qr_scan"}, "lat": 38.89356816666667, "is_reserved": 0, "is_disabled": 0, "fusion_lat": 0.0}, {"fusion_lon": 0.0, "bike_id": "2dff528ad55067c274f48f3b15713d99", "name": "2dff528ad55067c274f48f3b15713d99", "type": "electric_scooter", "lon": -77.031997, "rental_uris": {"android": "https://dc.lft.to/lastmile_qr_scan", "ios": "https://dc.lft.to/lastmile_qr_scan"}, "lat": 38.91100266666667, "is_reserved": 0, "is_disabled": 0, "fusion_lat": 0.0}, {"fusion_lon": 0.0, "bike_id": "c3d3f1b58fa9e4413ff629e203c84174", "name": "c3d3f1b58fa9e4413ff629e203c84174", "type": "electric_scooter", "lon": -77.02417316666667, "rental_uris": {"android": "https://dc.lft.to/lastmile_qr_scan", "ios": "https://dc.lft.to/lastmile_qr_scan"}, "lat": 38.934920166666664, "is_reserved": 0, "is_disabled": 0, "fusion_lat": 0.0}, {"fusion_lon": 0.0, "bike_id": "8856d7151fd456b8263e3c0fa9c64879", "name": "8856d7151fd456b8263e3c0fa9c64879", "type": "electric_scooter", "lon": -77.04334433333334, "rental_uris": {"android": "https://dc.lft.to/lastmile_qr_scan", "ios": "https://dc.lft.to/lastmile_qr_scan"}, "lat": 38.898137, "is_reserved": 0, "is_disabled": 0, "fusion_lat": 0.0}, {"fusion_lon": 0.0, "bike_id": "3106a8bf867350c65a752465b83e0797", "name": "3106a8bf867350c65a752465b83e0797", "type": "electric_scooter", "lon": -77.00055466666667, "rental_uris": {"android": "https://dc.lft.to/lastmile_qr_scan", "ios": "https://dc.lft.to/lastmile_qr_scan"}, "lat": 38.875339, "is_reserved": 0, "is_disabled": 0, "fusion_lat": 0.0}, {"fusion_lon": 0.0, "bike_id": "3be1e753ba309ed6b1a715833c9442bd", "name": "3be1e753ba309ed6b1a715833c9442bd", "type": "electric_scooter", "lon": -77.0093345, "rental_uris": {"android": "https://dc.lft.to/lastmile_qr_scan", "ios": "https://dc.lft.to/lastmile_qr_scan"}, "lat": 38.876850833333336, "is_reserved": 0, "is_disabled": 0, "fusion_lat": 0.0}, {"fusion_lon": 0.0, "bike_id": "5af44d843a7d5f58e9254f06e8d624d3", "name": "5af44d843a7d5f58e9254f06e8d624d3", "type": "electric_scooter", "lon": -77.00357833333334, "rental_uris": {"android": "https://dc.lft.to/lastmile_qr_scan", "ios": "https://dc.lft.to/lastmile_qr_scan"}, "lat": 38.90610266666667, "is_reserved": 0, "is_disabled": 0, "fusion_lat": 0.0}, {"fusion_lon": 0.0, "bike_id": "e4282771f248f2572c028fefeb02a908", "name": "e4282771f248f2572c028fefeb02a908", "type": "electric_scooter", "lon": -77.032498, "rental_uris": {"android": "https://dc.lft.to/lastmile_qr_scan", "ios": "https://dc.lft.to/lastmile_qr_scan"}, "lat": 38.913323, "is_reserved": 0, "is_disabled": 0, "fusion_lat": 0.0}, {"fusion_lon": 0.0, "bike_id": "3ed055195a609f0c4090346f574714fd", "name": "3ed055195a609f0c4090346f574714fd", "type": "electric_bike", "lon": -76.92341916666666, "rental_uris": {"android": "https://dc.lft.to/lastmile_qr_scan", "ios": "https://dc.lft.to/lastmile_qr_scan"}, "lat": 38.88788383333333, "is_reserved": 0, "is_disabled": 0, "fusion_lat": 0.0}, {"fusion_lon": 0.0, "bike_id": "6d3ca9bd0cf8b51af048f64f66106389", "name": "6d3ca9bd0cf8b51af048f64f66106389", "type": "electric_scooter", "lon": -77.019, "rental_uris": {"android": "https://dc.lft.to/lastmile_qr_scan", "ios": "https://dc.lft.to/lastmile_qr_scan"}, "lat": 38.91223016666667, "is_reserved": 0, "is_disabled": 0, "fusion_lat": 0.0}, {"fusion_lon": 0.0, "bike_id": "a9b018056445d28a231c2108036763d3", "name": "a9b018056445d28a231c2108036763d3", "type": "electric_bike", "lon": -77.095625, "rental_uris": {"android": "https://dc.lft.to/lastmile_qr_scan", "ios": "https://dc.lft.to/lastmile_qr_scan"}, "lat": 38.91694066666667, "is_reserved": 0, "is_disabled": 0, "fusion_lat": 0.0}, {"fusion_lon": 0.0, "bike_id": "c14226ee1cd74ad9a77a9d9ae46a81db", "name": "c14226ee1cd74ad9a77a9d9ae46a81db", "type": "electric_scooter", "lon": -77.0171485, "rental_uris": {"android": "https://dc.lft.to/lastmile_qr_scan", "ios": "https://dc.lft.to/lastmile_qr_scan"}, "lat": 38.90516566666667, "is_reserved": 0, "is_disabled": 0, "fusion_lat": 0.0}, {"fusion_lon": 0.0, "bike_id": "882585c67148f5a6b6d821bd15c4dd95", "name": "882585c67148f5a6b6d821bd15c4dd95", "type": "electric_scooter", "lon": -77.03669716666667, "rental_uris": {"android": "https://dc.lft.to/lastmile_qr_scan", "ios": "https://dc.lft.to/lastmile_qr_scan"}, "lat": 38.9309255, "is_reserved": 0, "is_disabled": 0, "fusion_lat": 0.0}, {"fusion_lon": 0.0, "bike_id": "14f3b480aa46ab89ae535175f9c84f17", "name": "14f3b480aa46ab89ae535175f9c84f17", "type": "electric_scooter", "lon": -77.02401583333334, "rental_uris": {"android": "https://dc.lft.to/lastmile_qr_scan", "ios": "https://dc.lft.to/lastmile_qr_scan"}, "lat": 38.936977666666664, "is_reserved": 0, "is_disabled": 0, "fusion_lat": 0.0}, {"fusion_lon": 0.0, "bike_id": "4bd59ff182ba1b68a893e355d6698038", "name": "4bd59ff182ba1b68a893e355d6698038", "type": "electric_scooter", "lon": -77.033132, "rental_uris": {"android": "https://dc.lft.to/lastmile_qr_scan", "ios": "https://dc.lft.to/lastmile_qr_scan"}, "lat": 38.90375266666667, "is_reserved": 0, "is_disabled": 0, "fusion_lat": 0.0}, {"fusion_lon": 0.0, "bike_id": "db3e131b5d00011642a5b77467fedab5", "name": "db3e131b5d00011642a5b77467fedab5", "type": "electric_scooter", "lon": -77.0447345, "rental_uris": {"android": "https://dc.lft.to/lastmile_qr_scan", "ios": "https://dc.lft.to/lastmile_qr_scan"}, "lat": 38.90860683333333, "is_reserved": 0, "is_disabled": 0, "fusion_lat": 0.0}, {"fusion_lon": 0.0, "bike_id": "ccd75c7cdece2a4e9424cedfad3e3429", "name": "ccd75c7cdece2a4e9424cedfad3e3429", "type": "electric_scooter", "lon": -77.03921083333333, "rental_uris": {"android": "https://dc.lft.to/lastmile_qr_scan", "ios": "https://dc.lft.to/lastmile_qr_scan"}, "lat": 38.91185466666667, "is_reserved": 0, "is_disabled": 0, "fusion_lat": 0.0}, {"fusion_lon": 0.0, "bike_id": "95ecbf7ebb5651fdfb4ffb3e39893da6", "name": "95ecbf7ebb5651fdfb4ffb3e39893da6", "type": "electric_scooter", "lon": -77.043613, "rental_uris": {"android": "https://dc.lft.to/lastmile_qr_scan", "ios": "https://dc.lft.to/lastmile_qr_scan"}, "lat": 38.89236266666666, "is_reserved": 0, "is_disabled": 0, "fusion_lat": 0.0}, {"fusion_lon": 0.0, "bike_id": "1801636c0a95bc474908d6ca97ba739e", "name": "1801636c0a95bc474908d6ca97ba739e", "type": "electric_scooter", "lon": -77.07233016666666, "rental_uris": {"android": "https://dc.lft.to/lastmile_qr_scan", "ios": "https://dc.lft.to/lastmile_qr_scan"}, "lat": 38.93460133333333, "is_reserved": 0, "is_disabled": 0, "fusion_lat": 0.0}, {"fusion_lon": 0.0, "bike_id": "6615e5f0cae7b9870af1becb05316003", "name": "6615e5f0cae7b9870af1becb05316003", "type": "electric_scooter", "lon": -77.032612, "rental_uris": {"android": "https://dc.lft.to/lastmile_qr_scan", "ios": "https://dc.lft.to/lastmile_qr_scan"}, "lat": 38.90965966666667, "is_reserved": 0, "is_disabled": 0, "fusion_lat": 0.0}, {"fusion_lon": 0.0, "bike_id": "2d0f8e589ecb8b60da82c3e6d0f5dafa", "name": "2d0f8e589ecb8b60da82c3e6d0f5dafa", "type": "electric_scooter", "lon": -77.08011583333334, "rental_uris": {"android": "https://dc.lft.to/lastmile_qr_scan", "ios": "https://dc.lft.to/lastmile_qr_scan"}, "lat": 38.94905116666666, "is_reserved": 0, "is_disabled": 0, "fusion_lat": 0.0}, {"fusion_lon": 0.0, "bike_id": "4ad85022d86f6c7bfbee41646b242da4", "name": "4ad85022d86f6c7bfbee41646b242da4", "type": "electric_scooter", "lon": -77.02008816666667, "rental_uris": {"android": "https://dc.lft.to/lastmile_qr_scan", "ios": "https://dc.lft.to/lastmile_qr_scan"}, "lat": 38.87897733333333, "is_reserved": 0, "is_disabled": 0, "fusion_lat": 0.0}, {"fusion_lon": 0.0, "bike_id": "e1bfa65a0b4f6b6ba66d7e055a280c91", "name": "e1bfa65a0b4f6b6ba66d7e055a280c91", "type": "electric_bike", "lon": -77.03468716666667, "rental_uris": {"android": "https://dc.lft.to/lastmile_qr_scan", "ios": "https://dc.lft.to/lastmile_qr_scan"}, "lat": 38.92491183333333, "is_reserved": 0, "is_disabled": 0, "fusion_lat": 0.0}, {"fusion_lon": 0.0, "bike_id": "b0b760db4ab81ae5c49fce9686f00e79", "name": "b0b760db4ab81ae5c49fce9686f00e79", "type": "electric_scooter", "lon": -76.99623166666666, "rental_uris": {"android": "https://dc.lft.to/lastmile_qr_scan", "ios": "https://dc.lft.to/lastmile_qr_scan"}, "lat": 38.8849215, "is_reserved": 0, "is_disabled": 0, "fusion_lat": 0.0}, {"fusion_lon": 0.0, "bike_id": "c8d074056fc5a6dd1715f937ef6d8084", "name": "c8d074056fc5a6dd1715f937ef6d8084", "type": "electric_scooter", "lon": -77.040509, "rental_uris": {"android": "https://dc.lft.to/lastmile_qr_scan", "ios": "https://dc.lft.to/lastmile_qr_scan"}, "lat": 38.90147416666667, "is_reserved": 0, "is_disabled": 0, "fusion_lat": 0.0}, {"fusion_lon": 0.0, "bike_id": "3c24e5673a9b07d1657777b8a5a5992d", "name": "3c24e5673a9b07d1657777b8a5a5992d", "type": "electric_scooter", "lon": -76.998259, "rental_uris": {"android": "https://dc.lft.to/lastmile_qr_scan", "ios": "https://dc.lft.to/lastmile_qr_scan"}, "lat": 38.908795, "is_reserved": 0, "is_disabled": 0, "fusion_lat": 0.0}, {"fusion_lon": 0.0, "bike_id": "92ab80169d512bab79d3880c62e39741", "name": "92ab80169d512bab79d3880c62e39741", "type": "electric_scooter", "lon": -76.91877816666667, "rental_uris": {"android": "https://dc.lft.to/lastmile_qr_scan", "ios": "https://dc.lft.to/lastmile_qr_scan"}, "lat": 38.89078116666666, "is_reserved": 0, "is_disabled": 0, "fusion_lat": 0.0}, {"fusion_lon": 0.0, "bike_id": "49e30ec1da067ec89d5cde49504b46d7", "name": "49e30ec1da067ec89d5cde49504b46d7", "type": "electric_scooter", "lon": -77.033354, "rental_uris": {"android": "https://dc.lft.to/lastmile_qr_scan", "ios": "https://dc.lft.to/lastmile_qr_scan"}, "lat": 38.892276333333335, "is_reserved": 0, "is_disabled": 0, "fusion_lat": 0.0}, {"fusion_lon": 0.0, "bike_id": "3fca8ed542f4b81084b816691547bf0a", "name": "3fca8ed542f4b81084b816691547bf0a", "type": "electric_scooter", "lon": -77.003552, "rental_uris": {"android": "https://dc.lft.to/lastmile_qr_scan", "ios": "https://dc.lft.to/lastmile_qr_scan"}, "lat": 38.916952333333334, "is_reserved": 0, "is_disabled": 0, "fusion_lat": 0.0}, {"fusion_lon": 0.0, "bike_id": "5a9dd48e4c7bfe5db2f080ea21e00481", "name": "5a9dd48e4c7bfe5db2f080ea21e00481", "type": "electric_scooter", "lon": -77.04889716666666, "rental_uris": {"android": "https://dc.lft.to/lastmile_qr_scan", "ios": "https://dc.lft.to/lastmile_qr_scan"}, "lat": 38.89816533333333, "is_reserved": 0, "is_disabled": 0, "fusion_lat": 0.0}, {"fusion_lon": 0.0, "bike_id": "53dd00fbb58e4134971ae13997d98091", "name": "53dd00fbb58e4134971ae13997d98091", "type": "electric_bike", "lon": -76.93028133333334, "rental_uris": {"android": "https://dc.lft.to/lastmile_qr_scan", "ios": "https://dc.lft.to/lastmile_qr_scan"}, "lat": 38.96646833333333, "is_reserved": 0, "is_disabled": 0, "fusion_lat": 0.0}, {"fusion_lon": 0.0, "bike_id": "2beadba3d0f0b24736bda262fd92d9fd", "name": "2beadba3d0f0b24736bda262fd92d9fd", "type": "electric_scooter", "lon": -77.01304533333334, "rental_uris": {"android": "https://dc.lft.to/lastmile_qr_scan", "ios": "https://dc.lft.to/lastmile_qr_scan"}, "lat": 38.900709666666664, "is_reserved": 0, "is_disabled": 0, "fusion_lat": 0.0}, {"fusion_lon": 0.0, "bike_id": "40c2e4f769165835bffe240a500a942f", "name": "40c2e4f769165835bffe240a500a942f", "type": "electric_scooter", "lon": -77.02586483333333, "rental_uris": {"android": "https://dc.lft.to/lastmile_qr_scan", "ios": "https://dc.lft.to/lastmile_qr_scan"}, "lat": 38.920343333333335, "is_reserved": 0, "is_disabled": 0, "fusion_lat": 0.0}, {"fusion_lon": 0.0, "bike_id": "e4f6af1bd0a0782204290cd4ad7730ce", "name": "e4f6af1bd0a0782204290cd4ad7730ce", "type": "electric_bike", "lon": -76.91323033333333, "rental_uris": {"android": "https://dc.lft.to/lastmile_qr_scan", "ios": "https://dc.lft.to/lastmile_qr_scan"}, "lat": 38.895985833333334, "is_reserved": 0, "is_disabled": 0, "fusion_lat": 0.0}, {"fusion_lon": 0.0, "bike_id": "0ca33682c1c713304afb9416929c085b", "name": "0ca33682c1c713304afb9416929c085b", "type": "electric_scooter", "lon": -77.05992716666667, "rental_uris": {"android": "https://dc.lft.to/lastmile_qr_scan", "ios": "https://dc.lft.to/lastmile_qr_scan"}, "lat": 38.91193483333333, "is_reserved": 0, "is_disabled": 0, "fusion_lat": 0.0}, {"fusion_lon": 0.0, "bike_id": "b5cd098283a8691602f17e10191416cd", "name": "b5cd098283a8691602f17e10191416cd", "type": "electric_scooter", "lon": -77.034006, "rental_uris": {"android": "https://dc.lft.to/lastmile_qr_scan", "ios": "https://dc.lft.to/lastmile_qr_scan"}, "lat": 38.92157566666667, "is_reserved": 0, "is_disabled": 0, "fusion_lat": 0.0}, {"fusion_lon": 0.0, "bike_id": "bc32263a12544b114617ea0ae4a19acd", "name": "bc32263a12544b114617ea0ae4a19acd", "type": "electric_scooter", "lon": -76.99875716666666, "rental_uris": {"android": "https://dc.lft.to/lastmile_qr_scan", "ios": "https://dc.lft.to/lastmile_qr_scan"}, "lat": 38.90012566666667, "is_reserved": 0, "is_disabled": 0, "fusion_lat": 0.0}, {"fusion_lon": 0.0, "bike_id": "2dce56c7cbcbc8e3db37402cae7a98bd", "name": "2dce56c7cbcbc8e3db37402cae7a98bd", "type": "electric_scooter", "lon": -77.0385565, "rental_uris": {"android": "https://dc.lft.to/lastmile_qr_scan", "ios": "https://dc.lft.to/lastmile_qr_scan"}, "lat": 38.916008833333336, "is_reserved": 0, "is_disabled": 0, "fusion_lat": 0.0}, {"fusion_lon": 0.0, "bike_id": "cb11c16b1d670171b16f6937fd8812d4", "name": "cb11c16b1d670171b16f6937fd8812d4", "type": "electric_scooter", "lon": -77.03588283333333, "rental_uris": {"android": "https://dc.lft.to/lastmile_qr_scan", "ios": "https://dc.lft.to/lastmile_qr_scan"}, "lat": 38.90758833333334, "is_reserved": 0, "is_disabled": 0, "fusion_lat": 0.0}, {"fusion_lon": 0.0, "bike_id": "a945e902195b83d5ad72908f92435231", "name": "a945e902195b83d5ad72908f92435231", "type": "electric_scooter", "lon": -77.0334405, "rental_uris": {"android": "https://dc.lft.to/lastmile_qr_scan", "ios": "https://dc.lft.to/lastmile_qr_scan"}, "lat": 38.9015275, "is_reserved": 0, "is_disabled": 0, "fusion_lat": 0.0}, {"fusion_lon": 0.0, "bike_id": "49fce10bd7f1899bd7ce9ff58b2d7cc5", "name": "49fce10bd7f1899bd7ce9ff58b2d7cc5", "type": "electric_scooter", "lon": -77.02596533333333, "rental_uris": {"android": "https://dc.lft.to/lastmile_qr_scan", "ios": "https://dc.lft.to/lastmile_qr_scan"}, "lat": 38.975896, "is_reserved": 0, "is_disabled": 0, "fusion_lat": 0.0}, {"fusion_lon": 0.0, "bike_id": "bd6c87369cbd5c61dc9930f474856023", "name": "bd6c87369cbd5c61dc9930f474856023", "type": "electric_scooter", "lon": -77.03349816666666, "rental_uris": {"android": "https://dc.lft.to/lastmile_qr_scan", "ios": "https://dc.lft.to/lastmile_qr_scan"}, "lat": 38.924426, "is_reserved": 0, "is_disabled": 0, "fusion_lat": 0.0}, {"fusion_lon": 0.0, "bike_id": "61682049f5e5ed20fda1ec293d5d1274", "name": "61682049f5e5ed20fda1ec293d5d1274", "type": "electric_scooter", "lon": -76.9338505, "rental_uris": {"android": "https://dc.lft.to/lastmile_qr_scan", "ios": "https://dc.lft.to/lastmile_qr_scan"}, "lat": 38.89910616666667, "is_reserved": 0, "is_disabled": 0, "fusion_lat": 0.0}, {"fusion_lon": 0.0, "bike_id": "bdfe7aafc36c4994870f84fd4f89eabb", "name": "bdfe7aafc36c4994870f84fd4f89eabb", "type": "electric_scooter", "lon": -77.03188083333333, "rental_uris": {"android": "https://dc.lft.to/lastmile_qr_scan", "ios": "https://dc.lft.to/lastmile_qr_scan"}, "lat": 38.91276633333333, "is_reserved": 0, "is_disabled": 0, "fusion_lat": 0.0}, {"fusion_lon": 0.0, "bike_id": "4c81d55773f81a78a90d8279089f4421", "name": "4c81d55773f81a78a90d8279089f4421", "type": "electric_bike", "lon": -76.92936316666666, "rental_uris": {"android": "https://dc.lft.to/lastmile_qr_scan", "ios": "https://dc.lft.to/lastmile_qr_scan"}, "lat": 38.90287, "is_reserved": 0, "is_disabled": 0, "fusion_lat": 0.0}, {"fusion_lon": 0.0, "bike_id": "642477a1a0be5ab8a0a1cf4d10a28e37", "name": "642477a1a0be5ab8a0a1cf4d10a28e37", "type": "electric_scooter", "lon": -77.032053, "rental_uris": {"android": "https://dc.lft.to/lastmile_qr_scan", "ios": "https://dc.lft.to/lastmile_qr_scan"}, "lat": 38.901663166666665, "is_reserved": 0, "is_disabled": 0, "fusion_lat": 0.0}, {"fusion_lon": 0.0, "bike_id": "71b8670c8009bdae575397d20d604191", "name": "71b8670c8009bdae575397d20d604191", "type": "electric_bike", "lon": -77.08154116666667, "rental_uris": {"android": "https://dc.lft.to/lastmile_qr_scan", "ios": "https://dc.lft.to/lastmile_qr_scan"}, "lat": 38.8887785, "is_reserved": 0, "is_disabled": 0, "fusion_lat": 0.0}, {"fusion_lon": 0.0, "bike_id": "f126932ee8ac2bcc49b40a3bb510aed5", "name": "f126932ee8ac2bcc49b40a3bb510aed5", "type": "electric_scooter", "lon": -76.98074133333333, "rental_uris": {"android": "https://dc.lft.to/lastmile_qr_scan", "ios": "https://dc.lft.to/lastmile_qr_scan"}, "lat": 38.901747666666665, "is_reserved": 0, "is_disabled": 0, "fusion_lat": 0.0}, {"fusion_lon": 0.0, "bike_id": "8164979aa88f64b7cc49bdd562777229", "name": "8164979aa88f64b7cc49bdd562777229", "type": "electric_scooter", "lon": -77.03213733333334, "rental_uris": {"android": "https://dc.lft.to/lastmile_qr_scan", "ios": "https://dc.lft.to/lastmile_qr_scan"}, "lat": 38.91376566666667, "is_reserved": 0, "is_disabled": 0, "fusion_lat": 0.0}, {"fusion_lon": 0.0, "bike_id": "801b5149e2ab3f90e078b939fed5f7d2", "name": "801b5149e2ab3f90e078b939fed5f7d2", "type": "electric_scooter", "lon": -77.01176866666667, "rental_uris": {"android": "https://dc.lft.to/lastmile_qr_scan", "ios": "https://dc.lft.to/lastmile_qr_scan"}, "lat": 38.870835666666665, "is_reserved": 0, "is_disabled": 0, "fusion_lat": 0.0}, {"fusion_lon": 0.0, "bike_id": "91a9d1e55c08d2602a8b3fe1c4f6e03e", "name": "91a9d1e55c08d2602a8b3fe1c4f6e03e", "type": "electric_scooter", "lon": -77.07011483333334, "rental_uris": {"android": "https://dc.lft.to/lastmile_qr_scan", "ios": "https://dc.lft.to/lastmile_qr_scan"}, "lat": 38.90593033333333, "is_reserved": 0, "is_disabled": 0, "fusion_lat": 0.0}, {"fusion_lon": 0.0, "bike_id": "a70cfaafce2d3bf5d39c8636327b548a", "name": "a70cfaafce2d3bf5d39c8636327b548a", "type": "electric_bike", "lon": -77.04951316666667, "rental_uris": {"android": "https://dc.lft.to/lastmile_qr_scan", "ios": "https://dc.lft.to/lastmile_qr_scan"}, "lat": 38.855158, "is_reserved": 0, "is_disabled": 0, "fusion_lat": 0.0}, {"fusion_lon": 0.0, "bike_id": "9cd3bf4aa29970632ec751297b98b49e", "name": "9cd3bf4aa29970632ec751297b98b49e", "type": "electric_scooter", "lon": -77.02649883333333, "rental_uris": {"android": "https://dc.lft.to/lastmile_qr_scan", "ios": "https://dc.lft.to/lastmile_qr_scan"}, "lat": 38.89220983333333, "is_reserved": 0, "is_disabled": 0, "fusion_lat": 0.0}, {"fusion_lon": 0.0, "bike_id": "67e9d5a86742b513e8a4fee0e4705f00", "name": "67e9d5a86742b513e8a4fee0e4705f00", "type": "electric_scooter", "lon": -77.02494316666667, "rental_uris": {"android": "https://dc.lft.to/lastmile_qr_scan", "ios": "https://dc.lft.to/lastmile_qr_scan"}, "lat": 38.92739683333333, "is_reserved": 0, "is_disabled": 0, "fusion_lat": 0.0}, {"fusion_lon": 0.0, "bike_id": "29b126ddf773b3682526d9b9ece81544", "name": "29b126ddf773b3682526d9b9ece81544", "type": "electric_bike", "lon": -76.96177533333334, "rental_uris": {"android": "https://dc.lft.to/lastmile_qr_scan", "ios": "https://dc.lft.to/lastmile_qr_scan"}, "lat": 38.91857233333333, "is_reserved": 0, "is_disabled": 0, "fusion_lat": 0.0}, {"fusion_lon": 0.0, "bike_id": "a28622284bc566b588971fd411c8ad71", "name": "a28622284bc566b588971fd411c8ad71", "type": "electric_scooter", "lon": -77.00455633333333, "rental_uris": {"android": "https://dc.lft.to/lastmile_qr_scan", "ios": "https://dc.lft.to/lastmile_qr_scan"}, "lat": 38.8771465, "is_reserved": 0, "is_disabled": 0, "fusion_lat": 0.0}, {"fusion_lon": 0.0, "bike_id": "5273a4fe22a0c54bba05bb3e7857b703", "name": "5273a4fe22a0c54bba05bb3e7857b703", "type": "electric_scooter", "lon": -77.002176, "rental_uris": {"android": "https://dc.lft.to/lastmile_qr_scan", "ios": "https://dc.lft.to/lastmile_qr_scan"}, "lat": 38.91103616666667, "is_reserved": 0, "is_disabled": 0, "fusion_lat": 0.0}, {"fusion_lon": 0.0, "bike_id": "c01be6bb66048edbea057532610f26f0", "name": "c01be6bb66048edbea057532610f26f0", "type": "electric_scooter", "lon": -77.0390285, "rental_uris": {"android": "https://dc.lft.to/lastmile_qr_scan", "ios": "https://dc.lft.to/lastmile_qr_scan"}, "lat": 38.9223465, "is_reserved": 0, "is_disabled": 0, "fusion_lat": 0.0}, {"fusion_lon": 0.0, "bike_id": "856544eba4bd004b7c526c9b425bd02d", "name": "856544eba4bd004b7c526c9b425bd02d", "type": "electric_scooter", "lon": -76.948959, "rental_uris": {"android": "https://dc.lft.to/lastmile_qr_scan", "ios": "https://dc.lft.to/lastmile_qr_scan"}, "lat": 38.895273333333336, "is_reserved": 0, "is_disabled": 0, "fusion_lat": 0.0}, {"fusion_lon": 0.0, "bike_id": "a732eeb45a17aa6a71d3c54454aabc64", "name": "a732eeb45a17aa6a71d3c54454aabc64", "type": "electric_scooter", "lon": -76.947877, "rental_uris": {"android": "https://dc.lft.to/lastmile_qr_scan", "ios": "https://dc.lft.to/lastmile_qr_scan"}, "lat": 38.884628, "is_reserved": 0, "is_disabled": 0, "fusion_lat": 0.0}, {"fusion_lon": 0.0, "bike_id": "20e31c1db76bd417fb0fc4c92ac98e1f", "name": "20e31c1db76bd417fb0fc4c92ac98e1f", "type": "electric_scooter", "lon": -76.97387033333334, "rental_uris": {"android": "https://dc.lft.to/lastmile_qr_scan", "ios": "https://dc.lft.to/lastmile_qr_scan"}, "lat": 38.8837195, "is_reserved": 0, "is_disabled": 0, "fusion_lat": 0.0}, {"fusion_lon": 0.0, "bike_id": "6e68843de8329e086ea757163f363884", "name": "6e68843de8329e086ea757163f363884", "type": "electric_scooter", "lon": -77.05412066666666, "rental_uris": {"android": "https://dc.lft.to/lastmile_qr_scan", "ios": "https://dc.lft.to/lastmile_qr_scan"}, "lat": 38.950476, "is_reserved": 0, "is_disabled": 0, "fusion_lat": 0.0}, {"fusion_lon": 0.0, "bike_id": "f3c85bf59e1a42543c5ade70bef03c15", "name": "f3c85bf59e1a42543c5ade70bef03c15", "type": "electric_scooter", "lon": -77.04389333333333, "rental_uris": {"android": "https://dc.lft.to/lastmile_qr_scan", "ios": "https://dc.lft.to/lastmile_qr_scan"}, "lat": 38.905715666666666, "is_reserved": 0, "is_disabled": 0, "fusion_lat": 0.0}, {"fusion_lon": 0.0, "bike_id": "9d8630bcf15af90f5733960fbecdf415", "name": "9d8630bcf15af90f5733960fbecdf415", "type": "electric_scooter", "lon": -77.01758833333334, "rental_uris": {"android": "https://dc.lft.to/lastmile_qr_scan", "ios": "https://dc.lft.to/lastmile_qr_scan"}, "lat": 38.92117066666667, "is_reserved": 0, "is_disabled": 0, "fusion_lat": 0.0}, {"fusion_lon": 0.0, "bike_id": "679904f1c187232d1e11feef5e05d8ab", "name": "679904f1c187232d1e11feef5e05d8ab", "type": "electric_scooter", "lon": -77.036594, "rental_uris": {"android": "https://dc.lft.to/lastmile_qr_scan", "ios": "https://dc.lft.to/lastmile_qr_scan"}, "lat": 38.95498583333333, "is_reserved": 0, "is_disabled": 0, "fusion_lat": 0.0}, {"fusion_lon": 0.0, "bike_id": "e6119a2dd40eae3ff20ec37413a74d9d", "name": "e6119a2dd40eae3ff20ec37413a74d9d", "type": "electric_scooter", "lon": -77.04075616666667, "rental_uris": {"android": "https://dc.lft.to/lastmile_qr_scan", "ios": "https://dc.lft.to/lastmile_qr_scan"}, "lat": 38.89616216666667, "is_reserved": 0, "is_disabled": 0, "fusion_lat": 0.0}, {"fusion_lon": 0.0, "bike_id": "9375fc6f1c654c35b747f53de2975d45", "name": "9375fc6f1c654c35b747f53de2975d45", "type": "electric_scooter", "lon": -77.003148, "rental_uris": {"android": "https://dc.lft.to/lastmile_qr_scan", "ios": "https://dc.lft.to/lastmile_qr_scan"}, "lat": 38.84033516666667, "is_reserved": 0, "is_disabled": 0, "fusion_lat": 0.0}, {"fusion_lon": 0.0, "bike_id": "e78e6984093966be993bc23af7dbae45", "name": "e78e6984093966be993bc23af7dbae45", "type": "electric_scooter", "lon": -77.040964, "rental_uris": {"android": "https://dc.lft.to/lastmile_qr_scan", "ios": "https://dc.lft.to/lastmile_qr_scan"}, "lat": 38.900258, "is_reserved": 0, "is_disabled": 0, "fusion_lat": 0.0}, {"fusion_lon": 0.0, "bike_id": "7fe5a0c0121d77798aa202ee25c0197d", "name": "7fe5a0c0121d77798aa202ee25c0197d", "type": "electric_scooter", "lon": -77.01758283333334, "rental_uris": {"android": "https://dc.lft.to/lastmile_qr_scan", "ios": "https://dc.lft.to/lastmile_qr_scan"}, "lat": 38.8769135, "is_reserved": 0, "is_disabled": 0, "fusion_lat": 0.0}, {"fusion_lon": 0.0, "bike_id": "e3d3547ec28def96f21fafe86f3d69de", "name": "e3d3547ec28def96f21fafe86f3d69de", "type": "electric_scooter", "lon": -76.96546333333333, "rental_uris": {"android": "https://dc.lft.to/lastmile_qr_scan", "ios": "https://dc.lft.to/lastmile_qr_scan"}, "lat": 38.91882733333333, "is_reserved": 0, "is_disabled": 0, "fusion_lat": 0.0}, {"fusion_lon": 0.0, "bike_id": "55522a46c2cbbf8be70b4675fd545626", "name": "55522a46c2cbbf8be70b4675fd545626", "type": "electric_scooter", "lon": -77.00739816666666, "rental_uris": {"android": "https://dc.lft.to/lastmile_qr_scan", "ios": "https://dc.lft.to/lastmile_qr_scan"}, "lat": 38.87175666666667, "is_reserved": 0, "is_disabled": 0, "fusion_lat": 0.0}, {"fusion_lon": 0.0, "bike_id": "a81dfd70342effa957bdd09f39918176", "name": "a81dfd70342effa957bdd09f39918176", "type": "electric_bike", "lon": -76.93414166666666, "rental_uris": {"android": "https://dc.lft.to/lastmile_qr_scan", "ios": "https://dc.lft.to/lastmile_qr_scan"}, "lat": 38.94624783333333, "is_reserved": 0, "is_disabled": 0, "fusion_lat": 0.0}, {"fusion_lon": 0.0, "bike_id": "a9a4eebe5c74d6b199e64adab13178de", "name": "a9a4eebe5c74d6b199e64adab13178de", "type": "electric_scooter", "lon": -77.01259166666667, "rental_uris": {"android": "https://dc.lft.to/lastmile_qr_scan", "ios": "https://dc.lft.to/lastmile_qr_scan"}, "lat": 38.87634966666667, "is_reserved": 0, "is_disabled": 0, "fusion_lat": 0.0}, {"fusion_lon": 0.0, "bike_id": "1ca154e1c7f1fb39e382d7643bf54647", "name": "1ca154e1c7f1fb39e382d7643bf54647", "type": "electric_scooter", "lon": -77.04900933333333, "rental_uris": {"android": "https://dc.lft.to/lastmile_qr_scan", "ios": "https://dc.lft.to/lastmile_qr_scan"}, "lat": 38.888436666666664, "is_reserved": 0, "is_disabled": 0, "fusion_lat": 0.0}, {"fusion_lon": 0.0, "bike_id": "058095ac5ab812d15dedf96d09d44681", "name": "058095ac5ab812d15dedf96d09d44681", "type": "electric_scooter", "lon": -77.02755783333333, "rental_uris": {"android": "https://dc.lft.to/lastmile_qr_scan", "ios": "https://dc.lft.to/lastmile_qr_scan"}, "lat": 38.954142833333336, "is_reserved": 0, "is_disabled": 0, "fusion_lat": 0.0}, {"fusion_lon": 0.0, "bike_id": "28f14dfc4918eaaa088476651c606b30", "name": "28f14dfc4918eaaa088476651c606b30", "type": "electric_scooter", "lon": -77.03728766666667, "rental_uris": {"android": "https://dc.lft.to/lastmile_qr_scan", "ios": "https://dc.lft.to/lastmile_qr_scan"}, "lat": 38.9202545, "is_reserved": 0, "is_disabled": 0, "fusion_lat": 0.0}, {"fusion_lon": 0.0, "bike_id": "20862f011e2c6d35c2f29dc4729e1757", "name": "20862f011e2c6d35c2f29dc4729e1757", "type": "electric_scooter", "lon": -77.05027533333333, "rental_uris": {"android": "https://dc.lft.to/lastmile_qr_scan", "ios": "https://dc.lft.to/lastmile_qr_scan"}, "lat": 38.89655366666667, "is_reserved": 0, "is_disabled": 0, "fusion_lat": 0.0}, {"fusion_lon": 0.0, "bike_id": "c48207155dd2bc1d74a443efd1a88d00", "name": "c48207155dd2bc1d74a443efd1a88d00", "type": "electric_scooter", "lon": -77.04268766666667, "rental_uris": {"android": "https://dc.lft.to/lastmile_qr_scan", "ios": "https://dc.lft.to/lastmile_qr_scan"}, "lat": 38.91700016666667, "is_reserved": 0, "is_disabled": 0, "fusion_lat": 0.0}, {"fusion_lon": 0.0, "bike_id": "707af82834781a8994aefee9036d3bad", "name": "707af82834781a8994aefee9036d3bad", "type": "electric_scooter", "lon": -77.02580283333333, "rental_uris": {"android": "https://dc.lft.to/lastmile_qr_scan", "ios": "https://dc.lft.to/lastmile_qr_scan"}, "lat": 38.89590233333333, "is_reserved": 0, "is_disabled": 0, "fusion_lat": 0.0}, {"fusion_lon": 0.0, "bike_id": "1b4741f81ed3082a29beda8d1cf5e41c", "name": "1b4741f81ed3082a29beda8d1cf5e41c", "type": "electric_scooter", "lon": -77.03187633333333, "rental_uris": {"android": "https://dc.lft.to/lastmile_qr_scan", "ios": "https://dc.lft.to/lastmile_qr_scan"}, "lat": 38.910166833333335, "is_reserved": 0, "is_disabled": 0, "fusion_lat": 0.0}, {"fusion_lon": 0.0, "bike_id": "065ebca8d567c456ff693f7986bbbbad", "name": "065ebca8d567c456ff693f7986bbbbad", "type": "electric_scooter", "lon": -76.99614916666667, "rental_uris": {"android": "https://dc.lft.to/lastmile_qr_scan", "ios": "https://dc.lft.to/lastmile_qr_scan"}, "lat": 38.90115933333333, "is_reserved": 0, "is_disabled": 0, "fusion_lat": 0.0}, {"fusion_lon": 0.0, "bike_id": "49aa4097f4719a71c102e6ace54ddd6c", "name": "49aa4097f4719a71c102e6ace54ddd6c", "type": "electric_scooter", "lon": -77.00077116666667, "rental_uris": {"android": "https://dc.lft.to/lastmile_qr_scan", "ios": "https://dc.lft.to/lastmile_qr_scan"}, "lat": 38.876359666666666, "is_reserved": 0, "is_disabled": 0, "fusion_lat": 0.0}, {"fusion_lon": 0.0, "bike_id": "6a9b3088d468d64c3559aa614b0204ff", "name": "6a9b3088d468d64c3559aa614b0204ff", "type": "electric_scooter", "lon": -77.02391383333334, "rental_uris": {"android": "https://dc.lft.to/lastmile_qr_scan", "ios": "https://dc.lft.to/lastmile_qr_scan"}, "lat": 38.93476533333333, "is_reserved": 0, "is_disabled": 0, "fusion_lat": 0.0}, {"fusion_lon": 0.0, "bike_id": "d55d79db0364288c399a1b79177bc65b", "name": "d55d79db0364288c399a1b79177bc65b", "type": "electric_scooter", "lon": -77.02796233333333, "rental_uris": {"android": "https://dc.lft.to/lastmile_qr_scan", "ios": "https://dc.lft.to/lastmile_qr_scan"}, "lat": 38.9297145, "is_reserved": 0, "is_disabled": 0, "fusion_lat": 0.0}, {"fusion_lon": 0.0, "bike_id": "bbc8b099796ee4b7fe21c54686b28454", "name": "bbc8b099796ee4b7fe21c54686b28454", "type": "electric_scooter", "lon": -77.022368, "rental_uris": {"android": "https://dc.lft.to/lastmile_qr_scan", "ios": "https://dc.lft.to/lastmile_qr_scan"}, "lat": 38.914166, "is_reserved": 0, "is_disabled": 0, "fusion_lat": 0.0}, {"fusion_lon": 0.0, "bike_id": "96dd28892f3042f283ef26f1583b5a43", "name": "96dd28892f3042f283ef26f1583b5a43", "type": "electric_scooter", "lon": -77.0591955, "rental_uris": {"android": "https://dc.lft.to/lastmile_qr_scan", "ios": "https://dc.lft.to/lastmile_qr_scan"}, "lat": 38.90083283333333, "is_reserved": 0, "is_disabled": 0, "fusion_lat": 0.0}, {"fusion_lon": 0.0, "bike_id": "3935b92cb8abfb94df3e38688f00e180", "name": "3935b92cb8abfb94df3e38688f00e180", "type": "electric_scooter", "lon": -77.03151266666667, "rental_uris": {"android": "https://dc.lft.to/lastmile_qr_scan", "ios": "https://dc.lft.to/lastmile_qr_scan"}, "lat": 38.906274333333336, "is_reserved": 0, "is_disabled": 0, "fusion_lat": 0.0},