{"data": {"bikes": [{"name": "a1a1cc861c9f0b0a1275d66cff3bd32f", "fusion_lat": 0.0, "type": "electric_scooter", "lat": 38.877548, "is_reserved": 0, "is_disabled": 0, "fusion_lon": 0.0, "bike_id": "a1a1cc861c9f0b0a1275d66cff3bd32f", "lon": -76.97241933333333, "rental_uris": {"ios": "https://dc.lft.to/lastmile_qr_scan", "android": "https://dc.lft.to/lastmile_qr_scan"}}, {"name": "7e1837a61a216b9fce616bc575d75000", "fusion_lat": 0.0, "type": "electric_scooter", "lat": 38.86211433333333, "is_reserved": 0, "is_disabled": 0, "fusion_lon": 0.0, "bike_id": "7e1837a61a216b9fce616bc575d75000", "lon": -76.9947105, "rental_uris": {"ios": "https://dc.lft.to/lastmile_qr_scan", "android": "https://dc.lft.to/lastmile_qr_scan"}}, {"name": "c1f68f8f3826c6b643e41f74935bc387", "fusion_lat": 0.0, "type": "electric_bike", "lat": 38.870813166666665, "is_reserved": 0, "is_disabled": 0, "fusion_lon": 0.0, "bike_id": "c1f68f8f3826c6b643e41f74935bc387", "lon": -77.11051316666666, "rental_uris": {"ios": "https://dc.lft.to/lastmile_qr_scan", "android": "https://dc.lft.to/lastmile_qr_scan"}}, {"name": "2b920a7f8733e1ec6c93f5bfa81165f5", "fusion_lat": 0.0, "type": "electric_scooter", "lat": 38.8970225, "is_reserved": 0, "is_disabled": 0, "fusion_lon": 0.0, "bike_id": "2b920a7f8733e1ec6c93f5bfa81165f5", "lon": -77.021564, "rental_uris": {"ios": "https://dc.lft.to/lastmile_qr_scan", "android": "https://dc.lft.to/lastmile_qr_scan"}}, {"name": "c2846790775f7dc860c5c43719da7d8d", "fusion_lat": 0.0, "type": "electric_scooter", "lat": 38.92898866666667, "is_reserved": 0, "is_disabled": 0, "fusion_lon": 0.0, "bike_id": "c2846790775f7dc860c5c43719da7d8d", "lon": -77.02502733333333, "rental_uris": {"ios": "https://dc.lft.to/lastmile_qr_scan", "android": "https://dc.lft.to/lastmile_qr_scan"}}, {"name": "e297debad073f5a05012200e3e8e1546", "fusion_lat": 0.0, "type": "electric_scooter", "lat": 38.92317833333333, "is_reserved": 0, "is_disabled": 0, "fusion_lon": 0.0, "bike_id": "e297debad073f5a05012200e3e8e1546", "lon": -77.041127, "rental_uris": {"ios": "https://dc.lft.to/lastmile_qr_scan", "android": "https://dc.lft.to/lastmile_qr_scan"}}, {"name": "cb250b1def63c905f7e2b1dcdd7b5bbe", "fusion_lat": 0.0, "type": "electric_scooter", "lat": 38.94182266666667, "is_reserved": 0, "is_disabled": 0, "fusion_lon": 0.0, "bike_id": "cb250b1def63c905f7e2b1dcdd7b5bbe", "lon": -77.0248765, "rental_uris": {"ios": "https://dc.lft.to/lastmile_qr_scan", "android": "https://dc.lft.to/lastmile_qr_scan"}}, {"name": "c1273b8016862e95ee897c80f6cb4c9b", "fusion_lat": 0.0, "type": "electric_scooter", "lat": 38.94837583333333, "is_reserved": 0, "is_disabled": 0, "fusion_lon": 0.0, "bike_id": "c1273b8016862e95ee897c80f6cb4c9b", "lon": -77.02552583333333, "rental_uris": {"ios": "https://dc.lft.to/lastmile_qr_scan", "android": "https://dc.lft.to/lastmile_qr_scan"}}, {"name": "722f355380cab6ae90c24e981afb91d2", "fusion_lat": 0.0, "type": "electric_scooter", "lat": 38.92370433333333, "is_reserved": 0, "is_disabled": 0, "fusion_lon": 0.0, "bike_id": "722f355380cab6ae90c24e981afb91d2", "lon": -77.01915733333334, "rental_uris": {"ios": "https://dc.lft.to/lastmile_qr_scan", "android": "https://dc.lft.to/lastmile_qr_scan"}}, {"name": "2d2e5cf8f45953ad90c52a2d2f68c97a", "fusion_lat": 0.0, "type": "electric_scooter", "lat": 38.86085083333333, "is_reserved": 0, "is_disabled": 0, "fusion_lon": 0.0, "bike_id": "2d2e5cf8f45953ad90c52a2d2f68c97a", "lon": -76.96724966666666, "rental_uris": {"ios": "https://dc.lft.to/lastmile_qr_scan", "android": "https://dc.lft.to/lastmile_qr_scan"}}, {"name": "c7de966ea4c5426171f6570645cd6edb", "fusion_lat": 0.0, "type": "electric_scooter", "lat": 38.899749, "is_reserved": 0, "is_disabled": 0, "fusion_lon": 0.0, "bike_id": "c7de966ea4c5426171f6570645cd6edb", "lon": -77.02943016666667, "rental_uris": {"ios": "https://dc.lft.to/lastmile_qr_scan", "android": "https://dc.lft.to/lastmile_qr_scan"}}, {"name": "afb34e2e45e2c861584b64eb37d6a189", "fusion_lat": 0.0, "type": "electric_scooter", "lat": 38.906659, "is_reserved": 0, "is_disabled": 0, "fusion_lon": 0.0, "bike_id": "afb34e2e45e2c861584b64eb37d6a189", "lon": -77.02716266666667, "rental_uris": {"ios": "https://dc.lft.to/lastmile_qr_scan", "android": "https://dc.lft.to/lastmile_qr_scan"}}, {"name": "100f486291583d44c5ed2bb711fb046c", "fusion_lat": 0.0, "type": "electric_scooter", "lat": 38.927329, "is_reserved": 0, "is_disabled": 0, "fusion_lon": 0.0, "bike_id": "100f486291583d44c5ed2bb711fb046c", "lon": -77.023167, "rental_uris": {"ios": "https://dc.lft.to/lastmile_qr_scan", "android": "https://dc.lft.to/lastmile_qr_scan"}}, {"name": "16fb7b184bdb84a2e37c1628c14736f1", "fusion_lat": 0.0, "type": "electric_scooter", "lat": 38.94804083333333, "is_reserved": 0, "is_disabled": 0, "fusion_lon": 0.0, "bike_id": "16fb7b184bdb84a2e37c1628c14736f1", "lon": -77.07910533333333, "rental_uris": {"ios": "https://dc.lft.to/lastmile_qr_scan", "android": "https://dc.lft.to/lastmile_qr_scan"}}, {"name": "d843b84cc94dc5770e12aaa6d8acd85c", "fusion_lat": 0.0, "type": "electric_scooter", "lat": 38.91947566666666, "is_reserved": 0, "is_disabled": 0, "fusion_lon": 0.0, "bike_id": "d843b84cc94dc5770e12aaa6d8acd85c", "lon": -77.045474, "rental_uris": {"ios": "https://dc.lft.to/lastmile_qr_scan", "android": "https://dc.lft.to/lastmile_qr_scan"}}, {"name": "3128a08750eb094516a2f6555c60447c", "fusion_lat": 0.0, "type": "electric_scooter", "lat": 38.888366, "is_reserved": 0, "is_disabled": 0, "fusion_lon": 0.0, "bike_id": "3128a08750eb094516a2f6555c60447c", "lon": -77.04904066666667, "rental_uris": {"ios": "https://dc.lft.to/lastmile_qr_scan", "android": "https://dc.lft.to/lastmile_qr_scan"}}, {"name": "fde515fef6d0ff8bfcbd05ba51d54a97", "fusion_lat": 0.0, "type": "electric_bike", "lat": 38.93121633333333, "is_reserved": 0, "is_disabled": 0, "fusion_lon": 0.0, "bike_id": "fde515fef6d0ff8bfcbd05ba51d54a97", "lon": -77.02706983333333, "rental_uris": {"ios": "https://dc.lft.to/lastmile_qr_scan", "android": "https://dc.lft.to/lastmile_qr_scan"}}, {"name": "3827ca1ee85a7a9595cb7630225a1f81", "fusion_lat": 0.0, "type": "electric_scooter", "lat": 38.933681, "is_reserved": 0, "is_disabled": 0, "fusion_lon": 0.0, "bike_id": "3827ca1ee85a7a9595cb7630225a1f81", "lon": -77.03450333333333, "rental_uris": {"ios": "https://dc.lft.to/lastmile_qr_scan", "android": "https://dc.lft.to/lastmile_qr_scan"}}, {"name": "74aa3ea32ea31d984af53e2efda7f72f", "fusion_lat": 0.0, "type": "electric_scooter", "lat": 38.90445583333333, "is_reserved": 0, "is_disabled": 0, "fusion_lon": 0.0, "bike_id": "74aa3ea32ea31d984af53e2efda7f72f", "lon": -77.0529345, "rental_uris": {"ios": "https://dc.lft.to/lastmile_qr_scan", "android": "https://dc.lft.to/lastmile_qr_scan"}}, {"name": "afc5bde072464edf0ee4ed06e5ba0b75", "fusion_lat": 0.0, "type": "electric_scooter", "lat": 38.916988833333335, "is_reserved": 0, "is_disabled": 0, "fusion_lon": 0.0, "bike_id": "afc5bde072464edf0ee4ed06e5ba0b75", "lon": -77.0433405, "rental_uris": {"ios": "https://dc.lft.to/lastmile_qr_scan", "android": "https://dc.lft.to/lastmile_qr_scan"}}, {"name": "0e31a230ada415aae3038dbed717bd9c", "fusion_lat": 0.0, "type": "electric_scooter", "lat": 38.9003035, "is_reserved": 0, "is_disabled": 0, "fusion_lon": 0.0, "bike_id": "0e31a230ada415aae3038dbed717bd9c", "lon": -76.988507, "rental_uris": {"ios": "https://dc.lft.to/lastmile_qr_scan", "android": "https://dc.lft.to/lastmile_qr_scan"}}, {"name": "6361240fab1bcee5a5571b6d16e97a54", "fusion_lat": 0.0, "type": "electric_scooter", "lat": 38.92448666666667, "is_reserved": 0, "is_disabled": 0, "fusion_lon": 0.0, "bike_id": "6361240fab1bcee5a5571b6d16e97a54", "lon": -77.03279933333333, "rental_uris": {"ios": "https://dc.lft.to/lastmile_qr_scan", "android": "https://dc.lft.to/lastmile_qr_scan"}}, {"name": "46c2ffbf2bbd25757f05ace6b6c58584", "fusion_lat": 0.0, "type": "electric_scooter", "lat": 38.93559966666667, "is_reserved": 0, "is_disabled": 0, "fusion_lon": 0.0, "bike_id": "46c2ffbf2bbd25757f05ace6b6c58584", "lon": -77.02364066666667, "rental_uris": {"ios": "https://dc.lft.to/lastmile_qr_scan", "android": "https://dc.lft.to/lastmile_qr_scan"}}, {"name": "a14452f3ec96818f5edf679e4a5cf03c", "fusion_lat": 0.0, "type": "electric_scooter", "lat": 38.91342133333333, "is_reserved": 0, "is_disabled": 0, "fusion_lon": 0.0, "bike_id": "a14452f3ec96818f5edf679e4a5cf03c", "lon": -77.00341583333334, "rental_uris": {"ios": "https://dc.lft.to/lastmile_qr_scan", "android": "https://dc.lft.to/lastmile_qr_scan"}}, {"name": "c289e88127d2d2a39f78725acfc56c7e", "fusion_lat": 0.0, "type": "electric_bike", "lat": 38.94587466666667, "is_reserved": 0, "is_disabled": 0, "fusion_lon": 0.0, "bike_id": "c289e88127d2d2a39f78725acfc56c7e", "lon": -77.0026915, "rental_uris": {"ios": "https://dc.lft.to/lastmile_qr_scan", "android": "https://dc.lft.to/lastmile_qr_scan"}}, {"name": "a0fdfdb1bd507c03b1e93ffd105619de", "fusion_lat": 0.0, "type": "electric_scooter", "lat": 38.90874683333333, "is_reserved": 0, "is_disabled": 0, "fusion_lon": 0.0, "bike_id": "a0fdfdb1bd507c03b1e93ffd105619de", "lon": -77.08594216666667, "rental_uris": {"ios": "https://dc.lft.to/lastmile_qr_scan", "android": "https://dc.lft.to/lastmile_qr_scan"}}, {"name": "c08dbef7a97a79f637041bb8c9528eee", "fusion_lat": 0.0, "type": "electric_scooter", "lat": 38.93892116666667, "is_reserved": 0, "is_disabled": 0, "fusion_lon": 0.0, "bike_id": "c08dbef7a97a79f637041bb8c9528eee", "lon": -77.02463066666667, "rental_uris": {"ios": "https://dc.lft.to/lastmile_qr_scan", "android": "https://dc.lft.to/lastmile_qr_scan"}}, {"name": "0844e317d887c5e8ba4b131dc39043c2", "fusion_lat": 0.0, "type": "electric_scooter", "lat": 38.93606966666667, "is_reserved": 0, "is_disabled": 0, "fusion_lon": 0.0, "bike_id": "0844e317d887c5e8ba4b131dc39043c2", "lon": -77.05587366666667, "rental_uris": {"ios": "https://dc.lft.to/lastmile_qr_scan", "android": "https://dc.lft.to/lastmile_qr_scan"}}, {"name": "f263304d546837aad0600b60d0da03cb", "fusion_lat": 0.0, "type": "electric_scooter", "lat": 38.9092305, "is_reserved": 0, "is_disabled": 0, "fusion_lon": 0.0, "bike_id": "f263304d546837aad0600b60d0da03cb", "lon": -77.04158783333334, "rental_uris": {"ios": "https://dc.lft.to/lastmile_qr_scan", "android": "https://dc.lft.to/lastmile_qr_scan"}}, {"name": "06b321c2557be72f956a8b5343b4eeea", "fusion_lat": 0.0, "type": "electric_bike", "lat": 38.90536016666667, "is_reserved": 0, "is_disabled": 0, "fusion_lon": 0.0, "bike_id": "06b321c2557be72f956a8b5343b4eeea", "lon": -76.99803983333334, "rental_uris": {"ios": "https://dc.lft.to/lastmile_qr_scan", "android": "https://dc.lft.to/lastmile_qr_scan"}}, {"name": "ad46d198bccda3935f76eb2e8fa1ffd0", "fusion_lat": 0.0, "type": "electric_scooter", "lat": 38.908644833333334, "is_reserved": 0, "is_disabled": 0, "fusion_lon": 0.0, "bike_id": "ad46d198bccda3935f76eb2e8fa1ffd0", "lon": -77.0271835, "rental_uris": {"ios": "https://dc.lft.to/lastmile_qr_scan", "android": "https://dc.lft.to/lastmile_qr_scan"}}, {"name": "d625cb06f6af266c9fc3992028774244", "fusion_lat": 0.0, "type": "electric_bike", "lat": 38.990918, "is_reserved": 0, "is_disabled": 0, "fusion_lon": 0.0, "bike_id": "d625cb06f6af266c9fc3992028774244", "lon": -76.87495933333334, "rental_uris": {"ios": "https://dc.lft.to/lastmile_qr_scan", "android": "https://dc.lft.to/lastmile_qr_scan"}}, {"name": "5b630bd98c10edfd4ab94b2131aec725", "fusion_lat": 0.0, "type": "electric_scooter", "lat": 38.91695333333333, "is_reserved": 0, "is_disabled": 0, "fusion_lon": 0.0, "bike_id": "5b630bd98c10edfd4ab94b2131aec725", "lon": -77.038923, "rental_uris": {"ios": "https://dc.lft.to/lastmile_qr_scan", "android": "https://dc.lft.to/lastmile_qr_scan"}}, {"name": "aead319562506cf9dadbf4c8777f6c99", "fusion_lat": 0.0, "type": "electric_scooter", "lat": 38.902488, "is_reserved": 0, "is_disabled": 0, "fusion_lon": 0.0, "bike_id": "aead319562506cf9dadbf4c8777f6c99", "lon": -77.03850033333333, "rental_uris": {"ios": "https://dc.lft.to/lastmile_qr_scan", "android": "https://dc.lft.to/lastmile_qr_scan"}}, {"name": "c3100ff6f37148713e9103e7da11f6a1", "fusion_lat": 0.0, "type": "electric_scooter", "lat": 38.905509333333335, "is_reserved": 0, "is_disabled": 0, "fusion_lon": 0.0, "bike_id": "c3100ff6f37148713e9103e7da11f6a1", "lon": -77.04082083333333, "rental_uris": {"ios": "https://dc.lft.to/lastmile_qr_scan", "android": "https://dc.lft.to/lastmile_qr_scan"}}, {"name": "00c4c979af747b019f6e1594ae564eeb", "fusion_lat": 0.0, "type": "electric_scooter", "lat": 38.89994, "is_reserved": 0, "is_disabled": 0, "fusion_lon": 0.0, "bike_id": "00c4c979af747b019f6e1594ae564eeb", "lon": -77.02713683333333, "rental_uris": {"ios": "https://dc.lft.to/lastmile_qr_scan", "android": "https://dc.lft.to/lastmile_qr_scan"}}, {"name": "7f1fd0ea829f999206b2381eb40af08c", "fusion_lat": 0.0, "type": "electric_scooter", "lat": 38.92120883333333, "is_reserved": 0, "is_disabled": 0, "fusion_lon": 0.0, "bike_id": "7f1fd0ea829f999206b2381eb40af08c", "lon": -77.0365835, "rental_uris": {"ios": "https://dc.lft.to/lastmile_qr_scan", "android": "https://dc.lft.to/lastmile_qr_scan"}}, {"name": "b8ec5a0684511ef02da007633963b4bc", "fusion_lat": 0.0, "type": "electric_scooter", "lat": 38.93684483333333, "is_reserved": 0, "is_disabled": 0, "fusion_lon": 0.0, "bike_id": "b8ec5a0684511ef02da007633963b4bc", "lon": -77.03159666666667, "rental_uris": {"ios": "https://dc.lft.to/lastmile_qr_scan", "android": "https://dc.lft.to/lastmile_qr_scan"}}, {"name": "2d400d8202e49b846d0df76fa28a6375", "fusion_lat": 0.0, "type": "electric_scooter", "lat": 38.9352975, "is_reserved": 0, "is_disabled": 0, "fusion_lon": 0.0, "bike_id": "2d400d8202e49b846d0df76fa28a6375", "lon": -77.02853516666667, "rental_uris": {"ios": "https://dc.lft.to/lastmile_qr_scan", "android": "https://dc.lft.to/lastmile_qr_scan"}}, {"name": "ea0c792e22767f4594dc3da93371d8fe", "fusion_lat": 0.0, "type": "electric_scooter", "lat": 38.883677666666664, "is_reserved": 0, "is_disabled": 0, "fusion_lon": 0.0, "bike_id": "ea0c792e22767f4594dc3da93371d8fe", "lon": -77.03175366666666, "rental_uris": {"ios": "https://dc.lft.to/lastmile_qr_scan", "android": "https://dc.lft.to/lastmile_qr_scan"}}, {"name": "6c6ca11142df045df95b04ce1f7c3a9e", "fusion_lat": 0.0, "type": "electric_scooter", "lat": 38.90939933333333, "is_reserved": 0, "is_disabled": 0, "fusion_lon": 0.0, "bike_id": "6c6ca11142df045df95b04ce1f7c3a9e", "lon": -77.044876, "rental_uris": {"ios": "https://dc.lft.to/lastmile_qr_scan", "android": "https://dc.lft.to/lastmile_qr_scan"}}, {"name": "6d7d94186db5a98ab4a90fe274b69fa9", "fusion_lat": 0.0, "type": "electric_scooter", "lat": 38.93302416666667, "is_reserved": 0, "is_disabled": 0, "fusion_lon": 0.0, "bike_id": "6d7d94186db5a98ab4a90fe274b69fa9", "lon": -77.028015, "rental_uris": {"ios": "https://dc.lft.to/lastmile_qr_scan", "android": "https://dc.lft.to/lastmile_qr_scan"}}, {"name": "6d69e7bb7c90422df85214dfb719665b", "fusion_lat": 0.0, "type": "electric_scooter", "lat": 38.884140333333335, "is_reserved": 0, "is_disabled": 0, "fusion_lon": 0.0, "bike_id": "6d69e7bb7c90422df85214dfb719665b", "lon": -77.017486, "rental_uris": {"ios": "https://dc.lft.to/lastmile_qr_scan", "android": "https://dc.lft.to/lastmile_qr_scan"}}, {"name": "564b812ee12b656df46ec507f1c6f01c", "fusion_lat": 0.0, "type": "electric_bike", "lat": 38.894391, "is_reserved": 0, "is_disabled": 0, "fusion_lon": 0.0, "bike_id": "564b812ee12b656df46ec507f1c6f01c", "lon": -76.98352366666667, "rental_uris": {"ios": "https://dc.lft.to/lastmile_qr_scan", "android": "https://dc.lft.to/lastmile_qr_scan"}}, {"name": "1dc1de200caa0c3e59f4564de1d23476", "fusion_lat": 0.0, "type": "electric_scooter", "lat": 38.91253483333333, "is_reserved": 0, "is_disabled": 0, "fusion_lon": 0.0, "bike_id": "1dc1de200caa0c3e59f4564de1d23476", "lon": -77.00955433333333, "rental_uris": {"ios": "https://dc.lft.to/lastmile_qr_scan", "android": "https://dc.lft.to/lastmile_qr_scan"}}, {"name": "88aaafe8182ffcce9dff41ac3e0a915a", "fusion_lat": 0.0, "type": "electric_scooter", "lat": 38.892295, "is_reserved": 0, "is_disabled": 0, "fusion_lon": 0.0, "bike_id": "88aaafe8182ffcce9dff41ac3e0a915a", "lon": -77.05002066666667, "rental_uris": {"ios": "https://dc.lft.to/lastmile_qr_scan", "android": "https://dc.lft.to/lastmile_qr_scan"}}, {"name": "dc3ea3379361210518588b29baee5a0f", "fusion_lat": 0.0, "type": "electric_bike", "lat": 38.96622883333333, "is_reserved": 0, "is_disabled": 0, "fusion_lon": 0.0, "bike_id": "dc3ea3379361210518588b29baee5a0f", "lon": -76.97669216666667, "rental_uris": {"ios": "https://dc.lft.to/lastmile_qr_scan", "android": "https://dc.lft.to/lastmile_qr_scan"}}, {"name": "e5e249e0a913bd0089dba263feb513bb", "fusion_lat": 0.0, "type": "electric_scooter", "lat": 38.889934333333336, "is_reserved": 0, "is_disabled": 0, "fusion_lon": 0.0, "bike_id": "e5e249e0a913bd0089dba263feb513bb", "lon": -76.95417616666667, "rental_uris": {"ios": "https://dc.lft.to/lastmile_qr_scan", "android": "https://dc.lft.to/lastmile_qr_scan"}}, {"name": "07f9b554223d08781dee063b89247396", "fusion_lat": 0.0, "type": "electric_scooter", "lat": 38.9121525, "is_reserved": 0, "is_disabled": 0, "fusion_lon": 0.0, "bike_id": "07f9b554223d08781dee063b89247396", "lon": -77.07590116666667, "rental_uris": {"ios": "https://dc.lft.to/lastmile_qr_scan", "android": "https://dc.lft.to/lastmile_qr_scan"}}, {"name": "c48dc5799d7e393f174d30740e39e819", "fusion_lat": 0.0, "type": "electric_scooter", "lat": 38.90256683333333, "is_reserved": 0, "is_disabled": 0, "fusion_lon": 0.0, "bike_id": "c48dc5799d7e393f174d30740e39e819", "lon": -77.01775633333334, "rental_uris": {"ios": "https://dc.lft.to/lastmile_qr_scan", "android": "https://dc.lft.to/lastmile_qr_scan"}}, {"name": "83c2145fd712064e5ec0ea8c9d514dfd", "fusion_lat": 0.0, "type": "electric_scooter", "lat": 38.842926166666665, "is_reserved": 0, "is_disabled": 0, "fusion_lon": 0.0, "bike_id": "83c2145fd712064e5ec0ea8c9d514dfd", "lon": -76.999437, "rental_uris": {"ios": "https://dc.lft.to/lastmile_qr_scan", "android": "https://dc.lft.to/lastmile_qr_scan"}}, {"name": "4c5253d053df85b57ecc6e4ead03fb8c", "fusion_lat": 0.0, "type": "electric_scooter", "lat": 38.9234345, "is_reserved": 0, "is_disabled": 0, "fusion_lon": 0.0, "bike_id": "4c5253d053df85b57ecc6e4ead03fb8c", "lon": -77.05011383333333, "rental_uris": {"ios": "https://dc.lft.to/lastmile_qr_scan", "android": "https://dc.lft.to/lastmile_qr_scan"}}, {"name": "d6ef672c96acde068bc88905512a329b", "fusion_lat": 0.0, "type": "electric_scooter", "lat": 38.91192933333333, "is_reserved": 0, "is_disabled": 0, "fusion_lon": 0.0, "bike_id": "d6ef672c96acde068bc88905512a329b", "lon": -77.0609365, "rental_uris": {"ios": "https://dc.lft.to/lastmile_qr_scan", "android": "https://dc.lft.to/lastmile_qr_scan"}}, {"name": "edd7d11200dbd48dbcf60d2ea7ce4c80", "fusion_lat": 0.0, "type": "electric_scooter", "lat": 38.89735366666667, "is_reserved": 0, "is_disabled": 0, "fusion_lon": 0.0, "bike_id": "edd7d11200dbd48dbcf60d2ea7ce4c80", "lon": -76.94723566666667, "rental_uris": {"ios": "https://dc.lft.to/lastmile_qr_scan", "android": "https://dc.lft.to/lastmile_qr_scan"}}, {"name": "a3db12bac57c8bab23ed6b5f6ec26713", "fusion_lat": 0.0, "type": "electric_scooter", "lat": 38.905376833333335, "is_reserved": 0, "is_disabled": 0, "fusion_lon": 0.0, "bike_id": "a3db12bac57c8bab23ed6b5f6ec26713", "lon": -77.05042516666667, "rental_uris": {"ios": "https://dc.lft.to/lastmile_qr_scan", "android": "https://dc.lft.to/lastmile_qr_scan"}}, {"name": "54919fe7ef0f800c595b9793a279b54e", "fusion_lat": 0.0, "type": "electric_scooter", "lat": 38.896109333333335, "is_reserved": 0, "is_disabled": 0, "fusion_lon": 0.0, "bike_id": "54919fe7ef0f800c595b9793a279b54e", "lon": -77.045395, "rental_uris": {"ios": "https://dc.lft.to/lastmile_qr_scan", "android": "https://dc.lft.to/lastmile_qr_scan"}}, {"name": "0d5cc09aa93e2b5893b43301a183cc4d", "fusion_lat": 0.0, "type": "electric_scooter", "lat": 38.90970733333333, "is_reserved": 0, "is_disabled": 0, "fusion_lon": 0.0, "bike_id": "0d5cc09aa93e2b5893b43301a183cc4d", "lon": -77.01690833333333, "rental_uris": {"ios": "https://dc.lft.to/lastmile_qr_scan", "android": "https://dc.lft.to/lastmile_qr_scan"}}, {"name": "693aef813a2a7f17f007e1ae41b91a4a", "fusion_lat": 0.0, "type": "electric_scooter", "lat": 38.975064, "is_reserved": 0, "is_disabled": 0, "fusion_lon": 0.0, "bike_id": "693aef813a2a7f17f007e1ae41b91a4a", "lon": -77.01689966666666, "rental_uris": {"ios": "https://dc.lft.to/lastmile_qr_scan", "android": "https://dc.lft.to/lastmile_qr_scan"}}, {"name": "0577d87aff0cbb6927c45e627a5c51f1", "fusion_lat": 0.0, "type": "electric_scooter", "lat": 38.91633216666666, "is_reserved": 0, "is_disabled": 0, "fusion_lon": 0.0, "bike_id": "0577d87aff0cbb6927c45e627a5c51f1", "lon": -77.00112133333333, "rental_uris": {"ios": "https://dc.lft.to/lastmile_qr_scan", "android": "https://dc.lft.to/lastmile_qr_scan"}}, {"name": "5cdcca54deb66875fdff8d31fae70ff3", "fusion_lat": 0.0, "type": "electric_scooter", "lat": 38.89662333333333, "is_reserved": 0, "is_disabled": 0, "fusion_lon": 0.0, "bike_id": "5cdcca54deb66875fdff8d31fae70ff3", "lon": -77.02584883333333, "rental_uris": {"ios": "https://dc.lft.to/lastmile_qr_scan", "android": "https://dc.lft.to/lastmile_qr_scan"}}, {"name": "79404513a4503d678e3aecfc4c5d3599", "fusion_lat": 0.0, "type": "electric_scooter", "lat": 38.93065216666667, "is_reserved": 0, "is_disabled": 0, "fusion_lon": 0.0, "bike_id": "79404513a4503d678e3aecfc4c5d3599", "lon": -77.02323833333334, "rental_uris": {"ios": "https://dc.lft.to/lastmile_qr_scan", "android": "https://dc.lft.to/lastmile_qr_scan"}}, {"name": "0d25f73980946d00f272fb55ce078ff3", "fusion_lat": 0.0, "type": "electric_scooter", "lat": 38.897337666666665, "is_reserved": 0, "is_disabled": 0, "fusion_lon": 0.0, "bike_id": "0d25f73980946d00f272fb55ce078ff3", "lon": -77.04763616666666, "rental_uris": {"ios": "https://dc.lft.to/lastmile_qr_scan", "android": "https://dc.lft.to/lastmile_qr_scan"}}, {"name": "9591db1ff2e67156bcbc1006e24db7fb", "fusion_lat": 0.0, "type": "electric_scooter", "lat": 38.908993, "is_reserved": 0, "is_disabled": 0, "fusion_lon": 0.0, "bike_id": "9591db1ff2e67156bcbc1006e24db7fb", "lon": -77.0321025, "rental_uris": {"ios": "https://dc.lft.to/lastmile_qr_scan", "android": "https://dc.lft.to/lastmile_qr_scan"}}, {"name": "195f238756367782d4a53e3be9beedc2", "fusion_lat": 0.0, "type": "electric_scooter", "lat": 38.92444733333333, "is_reserved": 0, "is_disabled": 0, "fusion_lon": 0.0, "bike_id": "195f238756367782d4a53e3be9beedc2", "lon": -77.02980416666666, "rental_uris": {"ios": "https://dc.lft.to/lastmile_qr_scan", "android": "https://dc.lft.to/lastmile_qr_scan"}}, {"name": "d02dab52e485992ce5de4e6b2cdd559e", "fusion_lat": 0.0, "type": "electric_scooter", "lat": 38.91258533333333, "is_reserved": 0, "is_disabled": 0, "fusion_lon": 0.0, "bike_id": "d02dab52e485992ce5de4e6b2cdd559e", "lon": -77.00770033333333, "rental_uris": {"ios": "https://dc.lft.to/lastmile_qr_scan", "android": "https://dc.lft.to/lastmile_qr_scan"}}, {"name": "67c8f7ef9f05e236f08d07d359b44247", "fusion_lat": 0.0, "type": "electric_scooter", "lat": 38.8834415, "is_reserved": 0, "is_disabled": 0, "fusion_lon": 0.0, "bike_id": "67c8f7ef9f05e236f08d07d359b44247", "lon": -76.94940283333334, "rental_uris": {"ios": "https://dc.lft.to/lastmile_qr_scan", "android": "https://dc.lft.to/lastmile_qr_scan"}}, {"name": "241bc50dcac86724212d693ff4283e19", "fusion_lat": 0.0, "type": "electric_scooter", "lat": 38.9255985, "is_reserved": 0, "is_disabled": 0, "fusion_lon": 0.0, "bike_id": "241bc50dcac86724212d693ff4283e19", "lon": -77.06284866666667, "rental_uris": {"ios": "https://dc.lft.to/lastmile_qr_scan", "android": "https://dc.lft.to/lastmile_qr_scan"}}, {"name": "cb66c574d6af8303a825c66acacd0990", "fusion_lat": 0.0, "type": "electric_scooter", "lat": 38.90274083333333, "is_reserved": 0, "is_disabled": 0, "fusion_lon": 0.0, "bike_id": "cb66c574d6af8303a825c66acacd0990", "lon": -77.042735, "rental_uris": {"ios": "https://dc.lft.to/lastmile_qr_scan", "android": "https://dc.lft.to/lastmile_qr_scan"}}, {"name": "1bedc7cd091d60d6029daefa621a034c", "fusion_lat": 0.0, "type": "electric_scooter", "lat": 38.8949265, "is_reserved": 0, "is_disabled": 0, "fusion_lon": 0.0, "bike_id": "1bedc7cd091d60d6029daefa621a034c", "lon": -77.01094616666667, "rental_uris": {"ios": "https://dc.lft.to/lastmile_qr_scan", "android": "https://dc.lft.to/lastmile_qr_scan"}}, {"name": "f9cd158bd4eacf97309448afc324e367", "fusion_lat": 0.0, "type": "electric_scooter", "lat": 38.89730016666667, "is_reserved": 0, "is_disabled": 0, "fusion_lon": 0.0, "bike_id": "f9cd158bd4eacf97309448afc324e367", "lon": -77.043399, "rental_uris": {"ios": "https://dc.lft.to/lastmile_qr_scan", "android": "https://dc.lft.to/lastmile_qr_scan"}}, {"name": "8fcd8328143a02d4bd49c707f006fcc0", "fusion_lat": 0.0, "type": "electric_bike", "lat": 38.9285455, "is_reserved": 0, "is_disabled": 0, "fusion_lon": 0.0, "bike_id": "8fcd8328143a02d4bd49c707f006fcc0", "lon": -77.10677316666667, "rental_uris": {"ios": "https://dc.lft.to/lastmile_qr_scan", "android": "https://dc.lft.to/lastmile_qr_scan"}}, {"name": "bcdb317d652333c45dc8ea140adbd3d9", "fusion_lat": 0.0, "type": "electric_scooter", "lat": 38.86375366666667, "is_reserved": 0, "is_disabled": 0, "fusion_lon": 0.0, "bike_id": "bcdb317d652333c45dc8ea140adbd3d9", "lon": -77.01368533333333, "rental_uris": {"ios": "https://dc.lft.to/lastmile_qr_scan", "android": "https://dc.lft.to/lastmile_qr_scan"}}, {"name": "659d2e7405599903a57260743379064f", "fusion_lat": 0.0, "type": "electric_bike", "lat": 38.9298335, "is_reserved": 0, "is_disabled": 0, "fusion_lon": 0.0, "bike_id": "659d2e7405599903a57260743379064f", "lon": -77.01977466666666, "rental_uris": {"ios": "https://dc.lft.to/lastmile_qr_scan", "android": "https://dc.lft.to/lastmile_qr_scan"}}, {"name": "daeaef95b0d40626f9b83abff4fa4aca", "fusion_lat": 0.0, "type": "electric_scooter", "lat": 38.918480333333335, "is_reserved": 0, "is_disabled": 0, "fusion_lon": 0.0, "bike_id": "daeaef95b0d40626f9b83abff4fa4aca", "lon": -77.026008, "rental_uris": {"ios": "https://dc.lft.to/lastmile_qr_scan", "android": "https://dc.lft.to/lastmile_qr_scan"}}, {"name": "aeb2d60db17c9601a8c1c9f4708434e4", "fusion_lat": 0.0, "type": "electric_bike", "lat": 38.857912666666664, "is_reserved": 0, "is_disabled": 0, "fusion_lon": 0.0, "bike_id": "aeb2d60db17c9601a8c1c9f4708434e4", "lon": -76.98746633333333, "rental_uris": {"ios": "https://dc.lft.to/lastmile_qr_scan", "android": "https://dc.lft.to/lastmile_qr_scan"}}, {"name": "523586d38b39dcc2264b22d8eab618a9", "fusion_lat": 0.0, "type": "electric_scooter", "lat": 38.9061445, "is_reserved": 0, "is_disabled": 0, "fusion_lon": 0.0, "bike_id": "523586d38b39dcc2264b22d8eab618a9", "lon": -77.0411745, "rental_uris": {"ios": "https://dc.lft.to/lastmile_qr_scan", "android": "https://dc.lft.to/lastmile_qr_scan"}}, {"name": "4b6ab7993a40308a65c9bfbb3ba04424", "fusion_lat": 0.0, "type": "electric_scooter", "lat": 38.900331666666666, "is_reserved": 0, "is_disabled": 0, "fusion_lon": 0.0, "bike_id": "4b6ab7993a40308a65c9bfbb3ba04424", "lon": -76.99828883333333, "rental_uris": {"ios": "https://dc.lft.to/lastmile_qr_scan", "android": "https://dc.lft.to/lastmile_qr_scan"}}, {"name": "bb380f06cab9b498d8f5a30b0afe60d3", "fusion_lat": 0.0, "type": "electric_bike", "lat": 38.959585833333335, "is_reserved": 0, "is_disabled": 0, "fusion_lon": 0.0, "bike_id": "bb380f06cab9b498d8f5a30b0afe60d3", "lon": -77.1008765, "rental_uris": {"ios": "https://dc.lft.to/lastmile_qr_scan", "android": "https://dc.lft.to/lastmile_qr_scan"}}, {"name": "90570c588969abc92a889cc98e299dda", "fusion_lat": 0.0, "type": "electric_scooter", "lat": 38.9041765, "is_reserved": 0, "is_disabled": 0, "fusion_lon": 0.0, "bike_id": "90570c588969abc92a889cc98e299dda", "lon": -76.97890983333333, "rental_uris": {"ios": "https://dc.lft.to/lastmile_qr_scan", "android": "https://dc.lft.to/lastmile_qr_scan"}}, {"name": "8e3bc49d673032c5926fcb3a8b23b0d0", "fusion_lat": 0.0, "type": "electric_scooter", "lat": 38.914873, "is_reserved": 0, "is_disabled": 0, "fusion_lon": 0.0, "bike_id": "8e3bc49d673032c5926fcb3a8b23b0d0", "lon": -77.04063166666667, "rental_uris": {"ios": "https://dc.lft.to/lastmile_qr_scan", "android": "https://dc.lft.to/lastmile_qr_scan"}}, {"name": "22b6010da6fc550595627786ed62da78", "fusion_lat": 0.0, "type": "electric_scooter", "lat": 38.92149, "is_reserved": 0, "is_disabled": 0, "fusion_lon": 0.0, "bike_id": "22b6010da6fc550595627786ed62da78", "lon": -77.0401505, "rental_uris": {"ios": "https://dc.lft.to/lastmile_qr_scan", "android": "https://dc.lft.to/lastmile_qr_scan"}}, {"name": "b5524950e967433cbc68a512faceaa78", "fusion_lat": 0.0, "type": "electric_scooter", "lat": 38.90879733333333, "is_reserved": 0, "is_disabled": 0, "fusion_lon": 0.0, "bike_id": "b5524950e967433cbc68a512faceaa78", "lon": -77.019018, "rental_uris": {"ios": "https://dc.lft.to/lastmile_qr_scan", "android": "https://dc.lft.to/lastmile_qr_scan"}}, {"name": "f9c313ab780ca9ca8c1249a188ab060a", "fusion_lat": 0.0, "type": "electric_scooter", "lat": 38.921314833333334, "is_reserved": 0, "is_disabled": 0, "fusion_lon": 0.0, "bike_id": "f9c313ab780ca9ca8c1249a188ab060a", "lon": -77.04211833333333, "rental_uris": {"ios": "https://dc.lft.to/lastmile_qr_scan", "android": "https://dc.lft.to/lastmile_qr_scan"}}, {"name": "6c69bbe449ddc77e13b003651c6aeda1", "fusion_lat": 0.0, "type": "electric_scooter", "lat": 38.904518, "is_reserved": 0, "is_disabled": 0, "fusion_lon": 0.0, "bike_id": "6c69bbe449ddc77e13b003651c6aeda1", "lon": -77.02386566666667, "rental_uris": {"ios": "https://dc.lft.to/lastmile_qr_scan", "android": "https://dc.lft.to/lastmile_qr_scan"}}, {"name": "83bc9044f29bee8387ae8b4fe20ac013", "fusion_lat": 0.0, "type": "electric_scooter", "lat": 38.90727033333334, "is_reserved": 0, "is_disabled": 0, "fusion_lon": 0.0, "bike_id": "83bc9044f29bee8387ae8b4fe20ac013", "lon": -77.005407, "rental_uris": {"ios": "https://dc.lft.to/lastmile_qr_scan", "android": "https://dc.lft.to/lastmile_qr_scan"}}, {"name": "b23efbed4035330d60beb5cb3e8bbd81", "fusion_lat": 0.0, "type": "electric_scooter", "lat": 38.904639, "is_reserved": 0, "is_disabled": 0, "fusion_lon": 0.0, "bike_id": "b23efbed4035330d60beb5cb3e8bbd81", "lon": -77.01424416666667, "rental_uris": {"ios": "https://dc.lft.to/lastmile_qr_scan", "android": "https://dc.lft.to/lastmile_qr_scan"}}, {"name": "61181913ecabbae86f5f6795c280ed6e", "fusion_lat": 0.0, "type": "electric_scooter", "lat": 38.91888266666667, "is_reserved": 0, "is_disabled": 0, "fusion_lon": 0.0, "bike_id": "61181913ecabbae86f5f6795c280ed6e", "lon": -77.03761533333333, "rental_uris": {"ios": "https://dc.lft.to/lastmile_qr_scan", "android": "https://dc.lft.to/lastmile_qr_scan"}}, {"name": "8f778a717b623a769b27cbf06c81212d", "fusion_lat": 0.0, "type": "electric_scooter", "lat": 38.93542333333333, "is_reserved": 0, "is_disabled": 0, "fusion_lon": 0.0, "bike_id": "8f778a717b623a769b27cbf06c81212d", "lon": -77.03412833333333, "rental_uris": {"ios": "https://dc.lft.to/lastmile_qr_scan", "android": "https://dc.lft.to/lastmile_qr_scan"}}, {"name": "d353f4ae9e400c71a5a83487a0e37fca", "fusion_lat": 0.0, "type": "electric_scooter", "lat": 38.8840055, "is_reserved": 0, "is_disabled": 0, "fusion_lon": 0.0, "bike_id": "d353f4ae9e400c71a5a83487a0e37fca", "lon": -76.98585533333333, "rental_uris": {"ios": "https://dc.lft.to/lastmile_qr_scan", "android": "https://dc.lft.to/lastmile_qr_scan"}}, {"name": "72fc1f2e177fccb478f7da0abb759839", "fusion_lat": 0.0, "type": "electric_scooter", "lat": 38.9230165, "is_reserved": 0, "is_disabled": 0, "fusion_lon": 0.0, "bike_id": "72fc1f2e177fccb478f7da0abb759839", "lon": -77.0353375, "rental_uris": {"ios": "https://dc.lft.to/lastmile_qr_scan", "android": "https://dc.lft.to/lastmile_qr_scan"}}, {"name": "83ea3db9622b6f905484047fa04381cb", "fusion_lat": 0.0, "type": "electric_scooter", "lat": 38.92479383333333, "is_reserved": 0, "is_disabled": 0, "fusion_lon": 0.0, "bike_id": "83ea3db9622b6f905484047fa04381cb", "lon": -77.0348605, "rental_uris": {"ios": "https://dc.lft.to/lastmile_qr_scan", "android": "https://dc.lft.to/lastmile_qr_scan"}}, {"name": "8768c402878ceb96c58b0309d0e70685", "fusion_lat": 0.0, "type": "electric_scooter", "lat": 38.924899333333336, "is_reserved": 0, "is_disabled": 0, "fusion_lon": 0.0, "bike_id": "8768c402878ceb96c58b0309d0e70685", "lon": -77.05212816666666, "rental_uris": {"ios": "https://dc.lft.to/lastmile_qr_scan", "android": "https://dc.lft.to/lastmile_qr_scan"}}, {"name": "16d36e05f9c53befd57e897e0d19e41f", "fusion_lat": 0.0, "type": "electric_scooter", "lat": 38.855306, "is_reserved": 0, "is_disabled": 0, "fusion_lon": 0.0, "bike_id": "16d36e05f9c53befd57e897e0d19e41f", "lon": -76.96920066666667, "rental_uris": {"ios": "https://dc.lft.to/lastmile_qr_scan", "android": "https://dc.lft.to/lastmile_qr_scan"}}, {"name": "2c145db9bd58c54e25af67680f014001", "fusion_lat": 0.0, "type": "electric_scooter", "lat": 38.952655166666666, "is_reserved": 0, "is_disabled": 0, "fusion_lon": 0.0, "bike_id": "2c145db9bd58c54e25af67680f014001", "lon": -77.0256785, "rental_uris": {"ios": "https://dc.lft.to/lastmile_qr_scan", "android": "https://dc.lft.to/lastmile_qr_scan"}}, {"name": "87ec8e34437e7a3ad2c80c2b8917881b", "fusion_lat": 0.0, "type": "electric_scooter", "lat": 38.864164833333334, "is_reserved": 0, "is_disabled": 0, "fusion_lon": 0.0, "bike_id": "87ec8e34437e7a3ad2c80c2b8917881b", "lon": -76.98047983333333, "rental_uris": {"ios": "https://dc.lft.to/lastmile_qr_scan", "android": "https://dc.lft.to/lastmile_qr_scan"}}, {"name": "dc4845221786b9cf1772603cb79faa46", "fusion_lat": 0.0, "type": "electric_scooter", "lat": 38.92605366666667, "is_reserved": 0, "is_disabled": 0, "fusion_lon": 0.0, "bike_id": "dc4845221786b9cf1772603cb79faa46", "lon": -77.02157283333334, "rental_uris": {"ios": "https://dc.lft.to/lastmile_qr_scan", "android": "https://dc.lft.to/lastmile_qr_scan"}}, {"name": "22b20efad55ff844cf11ae2abc575fb5", "fusion_lat": 0.0, "type": "electric_scooter", "lat": 38.894048833333336, "is_reserved": 0, "is_disabled": 0, "fusion_lon": 0.0, "bike_id": "22b20efad55ff844cf11ae2abc575fb5", "lon": -76.94804016666667, "rental_uris": {"ios": "https://dc.lft.to/lastmile_qr_scan", "android": "https://dc.lft.to/lastmile_qr_scan"}}, {"name": "776a7827cd835c80452f49aeefa28f48", "fusion_lat": 0.0, "type": "electric_bike", "lat": 38.945131, "is_reserved": 0, "is_disabled": 0, "fusion_lon": 0.0, "bike_id": "776a7827cd835c80452f49aeefa28f48", "lon": -77.00679483333333, "rental_uris": {"ios": "https://dc.lft.to/lastmile_qr_scan", "android": "https://dc.lft.to/lastmile_qr_scan"}}, {"name": "cc837ca4c98de97a47ceeae4f5be41f3", "fusion_lat": 0.0, "type": "electric_bike", "lat": 38.896384, "is_reserved": 0, "is_disabled": 0, "fusion_lon": 0.0, "bike_id": "cc837ca4c98de97a47ceeae4f5be41f3", "lon": -77.10455933333333, "rental_uris": {"ios": "https://dc.lft.to/lastmile_qr_scan", "android": "https://dc.lft.to/lastmile_qr_scan"}}, {"name": "72fca13d99cae246e3d7d98e8abf1511", "fusion_lat": 0.0, "type": "electric_scooter", "lat": 38.927581, "is_reserved": 0, "is_disabled": 0, "fusion_lon": 0.0, "bike_id": "72fca13d99cae246e3d7d98e8abf1511", "lon": -77.03271133333334, "rental_uris": {"ios": "https://dc.lft.to/lastmile_qr_scan", "android": "https://dc.lft.to/lastmile_qr_scan"}}, {"name": "985d5f0970afdfcf339fbdc46ee597b4", "fusion_lat": 0.0, "type": "electric_scooter", "lat": 38.92068116666667, "is_reserved": 0, "is_disabled": 0, "fusion_lon": 0.0, "bike_id": "985d5f0970afdfcf339fbdc46ee597b4", "lon": -76.978036, "rental_uris": {"ios": "https://dc.lft.to/lastmile_qr_scan", "android": "https://dc.lft.to/lastmile_qr_scan"}}, {"name": "edea43c48712114953113d7928c04ac5", "fusion_lat": 0.0, "type": "electric_scooter", "lat": 38.926303833333336, "is_reserved": 0, "is_disabled": 0, "fusion_lon": 0.0, "bike_id": "edea43c48712114953113d7928c04ac5", "lon": -77.03508166666667, "rental_uris": {"ios": "https://dc.lft.to/lastmile_qr_scan", "android": "https://dc.lft.to/lastmile_qr_scan"}}, {"name": "62e50005a91524aea28155519da0452d", "fusion_lat": 0.0, "type": "electric_scooter", "lat": 38.904856, "is_reserved": 0, "is_disabled": 0, "fusion_lon": 0.0, "bike_id": "62e50005a91524aea28155519da0452d", "lon": -77.0271835, "rental_uris": {"ios": "https://dc.lft.to/lastmile_qr_scan", "android": "https://dc.lft.to/lastmile_qr_scan"}}, {"name": "d433e5b1b4971f38ce0f0085ba131706", "fusion_lat": 0.0, "type": "electric_scooter", "lat": 38.917231, "is_reserved": 0, "is_disabled": 0, "fusion_lon": 0.0, "bike_id": "d433e5b1b4971f38ce0f0085ba131706", "lon": -77.0081285, "rental_uris": {"ios": "https://dc.lft.to/lastmile_qr_scan", "android": "https://dc.lft.to/lastmile_qr_scan"}}, {"name": "689ca6d435d23779a353098ddcbeec20", "fusion_lat": 0.0, "type": "electric_scooter", "lat": 38.907869166666664, "is_reserved": 0, "is_disabled": 0, "fusion_lon": 0.0, "bike_id": "689ca6d435d23779a353098ddcbeec20", "lon": -77.03857966666666, "rental_uris": {"ios": "https://dc.lft.to/lastmile_qr_scan", "android": "https://dc.lft.to/lastmile_qr_scan"}}, {"name": "35ca2cfb627172a75901b9c39a1df438", "fusion_lat": 0.0, "type": "electric_scooter", "lat": 38.91099533333333, "is_reserved": 0, "is_disabled": 0, "fusion_lon": 0.0, "bike_id": "35ca2cfb627172a75901b9c39a1df438", "lon": -77.02971283333333, "rental_uris": {"ios": "https://dc.lft.to/lastmile_qr_scan", "android": "https://dc.lft.to/lastmile_qr_scan"}}, {"name": "915515362a476e469e0bd177f93ca3cd", "fusion_lat": 0.0, "type": "electric_scooter", "lat": 38.883264, "is_reserved": 0, "is_disabled": 0, "fusion_lon": 0.0, "bike_id": "915515362a476e469e0bd177f93ca3cd", "lon": -77.0154645, "rental_uris": {"ios": "https://dc.lft.to/lastmile_qr_scan", "android": "https://dc.lft.to/lastmile_qr_scan"}}, {"name": "3f23fc3362a3165b0731d82378da1760", "fusion_lat": 0.0, "type": "electric_scooter", "lat": 38.92517183333333, "is_reserved": 0, "is_disabled": 0, "fusion_lon": 0.0, "bike_id": "3f23fc3362a3165b0731d82378da1760", "lon": -77.025609, "rental_uris": {"ios": "https://dc.lft.to/lastmile_qr_scan", "android": "https://dc.lft.to/lastmile_qr_scan"}}, {"name": "11e01ebbe703f7a073b9e4aeaaf0276e", "fusion_lat": 0.0, "type": "electric_scooter", "lat": 38.902789166666665, "is_reserved": 0, "is_disabled": 0, "fusion_lon": 0.0, "bike_id": "11e01ebbe703f7a073b9e4aeaaf0276e", "lon": -77.0390515, "rental_uris": {"ios": "https://dc.lft.to/lastmile_qr_scan", "android": "https://dc.lft.to/lastmile_qr_scan"}}, {"name": "ec974be24cf61a15f7e087fd4a52b074", "fusion_lat": 0.0, "type": "electric_scooter", "lat": 38.86535083333333, "is_reserved": 0, "is_disabled": 0, "fusion_lon": 0.0, "bike_id": "ec974be24cf61a15f7e087fd4a52b074", "lon": -76.98705, "rental_uris": {"ios": "https://dc.lft.to/lastmile_qr_scan", "android": "https://dc.lft.to/lastmile_qr_scan"}}, {"name": "bf8f3afca335684a774a3bc1d0b84533", "fusion_lat": 0.0, "type": "electric_bike", "lat": 38.96442016666666, "is_reserved": 0, "is_disabled": 0, "fusion_lon": 0.0, "bike_id": "bf8f3afca335684a774a3bc1d0b84533", "lon": -77.03159866666667, "rental_uris": {"ios": "https://dc.lft.to/lastmile_qr_scan", "android": "https://dc.lft.to/lastmile_qr_scan"}}, {"name": "a3314ee017eef86f278348ebbe3c2202", "fusion_lat": 0.0, "type": "electric_scooter", "lat": 38.90250133333333, "is_reserved": 0, "is_disabled": 0, "fusion_lon": 0.0, "bike_id": "a3314ee017eef86f278348ebbe3c2202", "lon": -77.04600366666666, "rental_uris": {"ios": "https://dc.lft.to/lastmile_qr_scan", "android": "https://dc.lft.to/lastmile_qr_scan"}}, {"name": "0d626803f7dcbd72ed8785f23a36c477", "fusion_lat": 0.0, "type": "electric_bike", "lat": 38.96864883333333, "is_reserved": 0, "is_disabled": 0, "fusion_lon": 0.0, "bike_id": "0d626803f7dcbd72ed8785f23a36c477", "lon": -77.03336966666667, "rental_uris": {"ios": "https://dc.lft.to/lastmile_qr_scan", "android": "https://dc.lft.to/lastmile_qr_scan"}}, {"name": "7cfe9940cb6316e8666cf5f4a5542f96", "fusion_lat": 0.0, "type": "electric_scooter", "lat": 38.8957495, "is_reserved": 0, "is_disabled": 0, "fusion_lon": 0.0, "bike_id": "7cfe9940cb6316e8666cf5f4a5542f96", "lon": -76.94878383333334, "rental_uris": {"ios": "https://dc.lft.to/lastmile_qr_scan", "android": "https://dc.lft.to/lastmile_qr_scan"}}, {"name": "9c8f0be80f90881fdffcbc419be30828", "fusion_lat": 0.0, "type": "electric_scooter", "lat": 38.900746, "is_reserved": 0, "is_disabled": 0, "fusion_lon": 0.0, "bike_id": "9c8f0be80f90881fdffcbc419be30828", "lon": -77.050104, "rental_uris": {"ios": "https://dc.lft.to/lastmile_qr_scan", "android": "https://dc.lft.to/lastmile_qr_scan"}}, {"name": "8c78548da86b0340ffe88c0c0b3b0d10", "fusion_lat": 0.0, "type": "electric_scooter", "lat": 38.9057705, "is_reserved": 0, "is_disabled": 0, "fusion_lon": 0.0, "bike_id": "8c78548da86b0340ffe88c0c0b3b0d10", "lon": -77.0326805, "rental_uris": {"ios": "https://dc.lft.to/lastmile_qr_scan", "android": "https://dc.lft.to/lastmile_qr_scan"}}, {"name": "1f83565c035f54f01622c8d5ddc4cd17", "fusion_lat": 0.0, "type": "electric_scooter", "lat": 38.899435833333335, "is_reserved": 0, "is_disabled": 0, "fusion_lon": 0.0, "bike_id": "1f83565c035f54f01622c8d5ddc4cd17", "lon": -77.031118, "rental_uris": {"ios": "https://dc.lft.to/lastmile_qr_scan", "android": "https://dc.lft.to/lastmile_qr_scan"}}, {"name": "88869b269fe688967b5d1fb036732e65", "fusion_lat": 0.0, "type": "electric_scooter", "lat": 38.9111845, "is_reserved": 0, "is_disabled": 0, "fusion_lon": 0.0, "bike_id": "88869b269fe688967b5d1fb036732e65", "lon": -77.02411683333334, "rental_uris": {"ios": "https://dc.lft.to/lastmile_qr_scan", "android": "https://dc.lft.to/lastmile_qr_scan"}}, {"name": "3d11dca583725c8d67800a2cdeaf5557", "fusion_lat": 0.0, "type": "electric_scooter", "lat": 38.92245333333334, "is_reserved": 0, "is_disabled": 0, "fusion_lon": 0.0, "bike_id": "3d11dca583725c8d67800a2cdeaf5557", "lon": -77.03664516666667, "rental_uris": {"ios": "https://dc.lft.to/lastmile_qr_scan", "android": "https://dc.lft.to/lastmile_qr_scan"}}, {"name": "305a57b838dec9e57fd5d4c738cfd0d2", "fusion_lat": 0.0, "type": "electric_scooter", "lat": 38.897259, "is_reserved": 0, "is_disabled": 0, "fusion_lon": 0.0, "bike_id": "305a57b838dec9e57fd5d4c738cfd0d2", "lon": -77.03262566666666, "rental_uris": {"ios": "https://dc.lft.to/lastmile_qr_scan", "android": "https://dc.lft.to/lastmile_qr_scan"}}, {"name": "74ca1970d6f16bcc677e7be3fc88e1f5", "fusion_lat": 0.0, "type": "electric_scooter", "lat": 38.91510016666667, "is_reserved": 0, "is_disabled": 0, "fusion_lon": 0.0, "bike_id": "74ca1970d6f16bcc677e7be3fc88e1f5", "lon": -77.032447, "rental_uris": {"ios": "https://dc.lft.to/lastmile_qr_scan", "android": "https://dc.lft.to/lastmile_qr_scan"}}, {"name": "be63a6d10e6d36259d39163e766f3837", "fusion_lat": 0.0, "type": "electric_scooter", "lat": 38.91809033333333, "is_reserved": 0, "is_disabled": 0, "fusion_lon": 0.0, "bike_id": "be63a6d10e6d36259d39163e766f3837", "lon": -77.03201483333333, "rental_uris": {"ios": "https://dc.lft.to/lastmile_qr_scan", "android": "https://dc.lft.to/lastmile_qr_scan"}}, {"name": "1b65d8dbedbfcda055f84f98dcb9600f", "fusion_lat": 0.0, "type": "electric_bike", "lat": 39.03046, "is_reserved": 0, "is_disabled": 0, "fusion_lon": 0.0, "bike_id": "1b65d8dbedbfcda055f84f98dcb9600f", "lon": -77.09480433333333, "rental_uris": {"ios": "https://dc.lft.to/lastmile_qr_scan", "android": "https://dc.lft.to/lastmile_qr_scan"}}, {"name": "e987d7ade36e993e998509da2c4c4e67", "fusion_lat": 0.0, "type": "electric_scooter", "lat": 38.922677166666666, "is_reserved": 0, "is_disabled": 0, "fusion_lon": 0.0, "bike_id": "e987d7ade36e993e998509da2c4c4e67", "lon": -77.03402783333334, "rental_uris": {"ios": "https://dc.lft.to/lastmile_qr_scan", "android": "https://dc.lft.to/lastmile_qr_scan"}}, {"name": "4af9ca343db69f40f0759202a2ae92eb", "fusion_lat": 0.0, "type": "electric_scooter", "lat": 38.9540515, "is_reserved": 0, "is_disabled": 0, "fusion_lon": 0.0, "bike_id": "4af9ca343db69f40f0759202a2ae92eb", "lon": -77.02746716666667, "rental_uris": {"ios": "https://dc.lft.to/lastmile_qr_scan", "android": "https://dc.lft.to/lastmile_qr_scan"}}, {"name": "217d3d50ff0a04391f9fe27a91f44669", "fusion_lat": 0.0, "type": "electric_scooter", "lat": 38.899429, "is_reserved": 0, "is_disabled": 0, "fusion_lon": 0.0, "bike_id": "217d3d50ff0a04391f9fe27a91f44669", "lon": -77.0408845, "rental_uris": {"ios": "https://dc.lft.to/lastmile_qr_scan", "android": "https://dc.lft.to/lastmile_qr_scan"}}, {"name": "135635fb645eff7163fcfa731b737e84", "fusion_lat": 0.0, "type": "electric_scooter", "lat": 38.92241933333333, "is_reserved": 0, "is_disabled": 0, "fusion_lon": 0.0, "bike_id": "135635fb645eff7163fcfa731b737e84", "lon": -77.0366235, "rental_uris": {"ios": "https://dc.lft.to/lastmile_qr_scan", "android": "https://dc.lft.to/lastmile_qr_scan"}}, {"name": "bdc476b8270ee2e61e3131c85ceb27cb", "fusion_lat": 0.0, "type": "electric_scooter", "lat": 38.943039166666665, "is_reserved": 0, "is_disabled": 0, "fusion_lon": 0.0, "bike_id": "bdc476b8270ee2e61e3131c85ceb27cb", "lon": -77.06680216666666, "rental_uris": {"ios": "https://dc.lft.to/lastmile_qr_scan", "android": "https://dc.lft.to/lastmile_qr_scan"}}, {"name": "53d41ffeee2186e6422835758c49e8ea", "fusion_lat": 0.0, "type": "electric_scooter", "lat": 38.923094166666665, "is_reserved": 0, "is_disabled": 0, "fusion_lon": 0.0, "bike_id": "53d41ffeee2186e6422835758c49e8ea", "lon": -77.02987633333333, "rental_uris": {"ios": "https://dc.lft.to/lastmile_qr_scan", "android": "https://dc.lft.to/lastmile_qr_scan"}}, {"name": "6fe6be90a230df1f75e52089aa201900", "fusion_lat": 0.0, "type": "electric_scooter", "lat": 38.91116516666666, "is_reserved": 0, "is_disabled": 0, "fusion_lon": 0.0, "bike_id": "6fe6be90a230df1f75e52089aa201900", "lon": -77.02929183333333, "rental_uris": {"ios": "https://dc.lft.to/lastmile_qr_scan", "android": "https://dc.lft.to/lastmile_qr_scan"}}, {"name": "b0cf8d302fbf5b4c1aadade2ee99ff28", "fusion_lat": 0.0, "type": "electric_scooter", "lat": 38.887423166666665, "is_reserved": 0, "is_disabled": 0, "fusion_lon": 0.0, "bike_id": "b0cf8d302fbf5b4c1aadade2ee99ff28", "lon": -77.0212655, "rental_uris": {"ios": "https://dc.lft.to/lastmile_qr_scan", "android": "https://dc.lft.to/lastmile_qr_scan"}}, {"name": "54326edb44ac3c4082e867bd605014e4", "fusion_lat": 0.0, "type": "electric_scooter", "lat": 38.9163975, "is_reserved": 0, "is_disabled": 0, "fusion_lon": 0.0, "bike_id": "54326edb44ac3c4082e867bd605014e4", "lon": -77.03181683333334, "rental_uris": {"ios": "https://dc.lft.to/lastmile_qr_scan", "android": "https://dc.lft.to/lastmile_qr_scan"}}, {"name": "8fd22fcfdecd66f0fc0d78ec481e5b6b", "fusion_lat": 0.0, "type": "electric_scooter", "lat": 38.93582216666667, "is_reserved": 0, "is_disabled": 0, "fusion_lon": 0.0, "bike_id": "8fd22fcfdecd66f0fc0d78ec481e5b6b", "lon": -76.9910735, "rental_uris": {"ios": "https://dc.lft.to/lastmile_qr_scan", "android": "https://dc.lft.to/lastmile_qr_scan"}}, {"name": "ccb727b5a2d6280541ab7c3aebdf6535", "fusion_lat": 0.0, "type": "electric_scooter", "lat": 38.911726333333334, "is_reserved": 0, "is_disabled": 0, "fusion_lon": 0.0, "bike_id": "ccb727b5a2d6280541ab7c3aebdf6535", "lon": -77.00133866666667, "rental_uris": {"ios": "https://dc.lft.to/lastmile_qr_scan", "android": "https://dc.lft.to/lastmile_qr_scan"}}, {"name": "b347da43bd86cccd904d8e2c38909326", "fusion_lat": 0.0, "type": "electric_scooter", "lat": 38.894057833333335, "is_reserved": 0, "is_disabled": 0, "fusion_lon": 0.0, "bike_id": "b347da43bd86cccd904d8e2c38909326", "lon": -76.948076, "rental_uris": {"ios": "https://dc.lft.to/lastmile_qr_scan", "android": "https://dc.lft.to/lastmile_qr_scan"}}, {"name": "15ce3b9b27bd863ea53da1c7d2240292", "fusion_lat": 0.0, "type": "electric_scooter", "lat": 38.905318333333334, "is_reserved": 0, "is_disabled": 0, "fusion_lon": 0.0, "bike_id": "15ce3b9b27bd863ea53da1c7d2240292", "lon": -77.057699, "rental_uris": {"ios": "https://dc.lft.to/lastmile_qr_scan", "android": "https://dc.lft.to/lastmile_qr_scan"}}, {"name": "918993e469537cb72f3438899db00a86", "fusion_lat": 0.0, "type": "electric_scooter", "lat": 38.9193405, "is_reserved": 0, "is_disabled": 0, "fusion_lon": 0.0, "bike_id": "918993e469537cb72f3438899db00a86", "lon": -77.0342405, "rental_uris": {"ios": "https://dc.lft.to/lastmile_qr_scan", "android": "https://dc.lft.to/lastmile_qr_scan"}}, {"name": "ac105019e99203fde1971f3ec50091c7", "fusion_lat": 0.0, "type": "electric_scooter", "lat": 38.9287645, "is_reserved": 0, "is_disabled": 0, "fusion_lon": 0.0, "bike_id": "ac105019e99203fde1971f3ec50091c7", "lon": -77.03345433333334, "rental_uris": {"ios": "https://dc.lft.to/lastmile_qr_scan", "android": "https://dc.lft.to/lastmile_qr_scan"}}, {"name": "7bbb21a23f4a8c166f15a6710fe93017", "fusion_lat": 0.0, "type": "electric_scooter", "lat": 38.901564666666665, "is_reserved": 0, "is_disabled": 0, "fusion_lon": 0.0, "bike_id": "7bbb21a23f4a8c166f15a6710fe93017", "lon": -76.93057783333333, "rental_uris": {"ios": "https://dc.lft.to/lastmile_qr_scan", "android": "https://dc.lft.to/lastmile_qr_scan"}}, {"name": "4ba4161725efc905fff07694a98c8f09", "fusion_lat": 0.0, "type": "electric_scooter", "lat": 38.92528033333333, "is_reserved": 0, "is_disabled": 0, "fusion_lon": 0.0, "bike_id": "4ba4161725efc905fff07694a98c8f09", "lon": -77.055482, "rental_uris": {"ios": "https://dc.lft.to/lastmile_qr_scan", "android": "https://dc.lft.to/lastmile_qr_scan"}}, {"name": "52da939b8283d705e7e4d20e372e0ce0", "fusion_lat": 0.0, "type": "electric_scooter", "lat": 38.85711766666667, "is_reserved": 0, "is_disabled": 0, "fusion_lon": 0.0, "bike_id": "52da939b8283d705e7e4d20e372e0ce0", "lon": -76.981293, "rental_uris": {"ios": "https://dc.lft.to/lastmile_qr_scan", "android": "https://dc.lft.to/lastmile_qr_scan"}}, {"name": "59758ce162208b5de59e53e3776808da", "fusion_lat": 0.0, "type": "electric_bike", "lat": 38.838106333333336, "is_reserved": 0, "is_disabled": 0, "fusion_lon": 0.0, "bike_id": "59758ce162208b5de59e53e3776808da", "lon": -77.09521583333333, "rental_uris": {"ios": "https://dc.lft.to/lastmile_qr_scan", "android": "https://dc.lft.to/lastmile_qr_scan"}}, {"name": "67e8ef4347a365dd31bef9cc7cf0039a", "fusion_lat": 0.0, "type": "electric_scooter", "lat": 38.92349383333333, "is_reserved": 0, "is_disabled": 0, "fusion_lon": 0.0, "bike_id": "67e8ef4347a365dd31bef9cc7cf0039a", "lon": -77.0352495, "rental_uris": {"ios": "https://dc.lft.to/lastmile_qr_scan", "android": "https://dc.lft.to/lastmile_qr_scan"}}, {"name": "fb2e2b6ac73f37555fc4f5ed2140aada", "fusion_lat": 0.0, "type": "electric_scooter", "lat": 38.884305499999996, "is_reserved": 0, "is_disabled": 0, "fusion_lon": 0.0, "bike_id": "fb2e2b6ac73f37555fc4f5ed2140aada", "lon": -76.95747966666667, "rental_uris": {"ios": "https://dc.lft.to/lastmile_qr_scan", "android": "https://dc.lft.to/lastmile_qr_scan"}}, {"name": "b64bc425c8af71e69ec8ef9a45cbc11c", "fusion_lat": 0.0, "type": "electric_scooter", "lat": 38.92619033333333, "is_reserved": 0, "is_disabled": 0, "fusion_lon": 0.0, "bike_id": "b64bc425c8af71e69ec8ef9a45cbc11c", "lon": -77.04195583333333, "rental_uris": {"ios": "https://dc.lft.to/lastmile_qr_scan", "android": "https://dc.lft.to/lastmile_qr_scan"}}, {"name": "2d93cf5c335e6ec5eb8c68040fe8d814", "fusion_lat": 0.0, "type": "electric_scooter", "lat": 38.9052095, "is_reserved": 0, "is_disabled": 0, "fusion_lon": 0.0, "bike_id": "2d93cf5c335e6ec5eb8c68040fe8d814", "lon": -77.02597066666667, "rental_uris": {"ios": "https://dc.lft.to/lastmile_qr_scan", "android": "https://dc.lft.to/lastmile_qr_scan"}}, {"name": "54112afba6c84eade3de80aed50ffff8", "fusion_lat": 0.0, "type": "electric_scooter", "lat": 38.90699333333333, "is_reserved": 0, "is_disabled": 0, "fusion_lon": 0.0, "bike_id": "54112afba6c84eade3de80aed50ffff8", "lon": -77.04354333333333, "rental_uris": {"ios": "https://dc.lft.to/lastmile_qr_scan", "android": "https://dc.lft.to/lastmile_qr_scan"}}, {"name": "634a83d08502891a6af26a55eb935640", "fusion_lat": 0.0, "type": "electric_bike", "lat": 38.906919, "is_reserved": 0, "is_disabled": 0, "fusion_lon": 0.0, "bike_id": "634a83d08502891a6af26a55eb935640", "lon": -77.003235, "rental_uris": {"ios": "https://dc.lft.to/lastmile_qr_scan", "android": "https://dc.lft.to/lastmile_qr_scan"}}, {"name": "5a12b90f8b182fd982fc7d76f559081e", "fusion_lat": 0.0, "type": "electric_scooter", "lat": 38.91726466666667, "is_reserved": 0, "is_disabled": 0, "fusion_lon": 0.0, "bike_id": "5a12b90f8b182fd982fc7d76f559081e", "lon": -77.00007983333333, "rental_uris": {"ios": "https://dc.lft.to/lastmile_qr_scan", "android": "https://dc.lft.to/lastmile_qr_scan"}}, {"name": "41513c1365f93bd3f5ee0ebf488aa246", "fusion_lat": 0.0, "type": "electric_scooter", "lat": 38.9001085, "is_reserved": 0, "is_disabled": 0, "fusion_lon": 0.0, "bike_id": "41513c1365f93bd3f5ee0ebf488aa246", "lon": -77.04474233333333, "rental_uris": {"ios": "https://dc.lft.to/lastmile_qr_scan", "android": "https://dc.lft.to/lastmile_qr_scan"}}, {"name": "ce7c0954047b553407ef0a7176d1f7c3", "fusion_lat": 0.0, "type": "electric_scooter", "lat": 38.919146, "is_reserved": 0, "is_disabled": 0, "fusion_lon": 0.0, "bike_id": "ce7c0954047b553407ef0a7176d1f7c3", "lon": -77.0214455, "rental_uris": {"ios": "https://dc.lft.to/lastmile_qr_scan", "android": "https://dc.lft.to/lastmile_qr_scan"}}, {"name": "57f007f105513d1ff72348bff5f1c45f", "fusion_lat": 0.0, "type": "electric_scooter", "lat": 38.924863333333334, "is_reserved": 0, "is_disabled": 0, "fusion_lon": 0.0, "bike_id": "57f007f105513d1ff72348bff5f1c45f", "lon": -77.05209966666666, "rental_uris": {"ios": "https://dc.lft.to/lastmile_qr_scan", "android": "https://dc.lft.to/lastmile_qr_scan"}}, {"name": "546d7eca753a81ad69969e650d3d1438", "fusion_lat": 0.0, "type": "electric_scooter", "lat": 38.885203, "is_reserved": 0, "is_disabled": 0, "fusion_lon": 0.0, "bike_id": "546d7eca753a81ad69969e650d3d1438", "lon": -77.03353816666667, "rental_uris": {"ios": "https://dc.lft.to/lastmile_qr_scan", "android": "https://dc.lft.to/lastmile_qr_scan"}}, {"name": "7e3b314ec9b73de70cbe793705209f12", "fusion_lat": 0.0, "type": "electric_scooter", "lat": 38.90342833333333, "is_reserved": 0, "is_disabled": 0, "fusion_lon": 0.0, "bike_id": "7e3b314ec9b73de70cbe793705209f12", "lon": -76.975639, "rental_uris": {"ios": "https://dc.lft.to/lastmile_qr_scan", "android": "https://dc.lft.to/lastmile_qr_scan"}}, {"name": "cb1a52d46b22cef3bfc1fc466df7cbb2", "fusion_lat": 0.0, "type": "electric_scooter", "lat": 38.90956766666667, "is_reserved": 0, "is_disabled": 0, "fusion_lon": 0.0, "bike_id": "cb1a52d46b22cef3bfc1fc466df7cbb2", "lon": -77.03867033333333, "rental_uris": {"ios": "https://dc.lft.to/lastmile_qr_scan", "android": "https://dc.lft.to/lastmile_qr_scan"}}, {"name": "388fdcc9577dbafe2ff21eccda79cc60", "fusion_lat": 0.0, "type": "electric_scooter", "lat": 38.931199, "is_reserved": 0, "is_disabled": 0, "fusion_lon": 0.0, "bike_id": "388fdcc9577dbafe2ff21eccda79cc60", "lon": -77.03598983333333, "rental_uris": {"ios": "https://dc.lft.to/lastmile_qr_scan", "android": "https://dc.lft.to/lastmile_qr_scan"}}, {"name": "a0671bdada6717ec9fc45dd50f9c63fa", "fusion_lat": 0.0, "type": "electric_scooter", "lat": 38.901003, "is_reserved": 0, "is_disabled": 0, "fusion_lon": 0.0, "bike_id": "a0671bdada6717ec9fc45dd50f9c63fa", "lon": -77.01353933333333, "rental_uris": {"ios": "https://dc.lft.to/lastmile_qr_scan", "android": "https://dc.lft.to/lastmile_qr_scan"}}, {"name": "566d1266a6af624021a3ccb92ae28a61", "fusion_lat": 0.0, "type": "electric_scooter", "lat": 38.894929833333336, "is_reserved": 0, "is_disabled": 0, "fusion_lon": 0.0, "bike_id": "566d1266a6af624021a3ccb92ae28a61", "lon": -77.02324866666666, "rental_uris": {"ios": "https://dc.lft.to/lastmile_qr_scan", "android": "https://dc.lft.to/lastmile_qr_scan"}}, {"name": "be1079b8d1540116bfcc6d95dbaa5717", "fusion_lat": 0.0, "type": "electric_scooter", "lat": 38.883928833333336, "is_reserved": 0, "is_disabled": 0, "fusion_lon": 0.0, "bike_id": "be1079b8d1540116bfcc6d95dbaa5717", "lon": -76.93048183333333, "rental_uris": {"ios": "https://dc.lft.to/lastmile_qr_scan", "android": "https://dc.lft.to/lastmile_qr_scan"}}, {"name": "c3224ed1f131971e55d62b1670843d03", "fusion_lat": 0.0, "type": "electric_scooter", "lat": 38.91545816666667, "is_reserved": 0, "is_disabled": 0, "fusion_lon": 0.0, "bike_id": "c3224ed1f131971e55d62b1670843d03", "lon": -77.03857183333334, "rental_uris": {"ios": "https://dc.lft.to/lastmile_qr_scan", "android": "https://dc.lft.to/lastmile_qr_scan"}}, {"name": "263e617c88f39162ba789afb8c59c48f", "fusion_lat": 0.0, "type": "electric_scooter", "lat": 38.892738333333334, "is_reserved": 0, "is_disabled": 0, "fusion_lon": 0.0, "bike_id": "263e617c88f39162ba789afb8c59c48f", "lon": -77.03190666666667, "rental_uris": {"ios": "https://dc.lft.to/lastmile_qr_scan", "android": "https://dc.lft.to/lastmile_qr_scan"}}, {"name": "aeb3090ed0b38e10c5c4fd4aa8ab5433", "fusion_lat": 0.0, "type": "electric_bike", "lat": 38.945500833333334, "is_reserved": 0, "is_disabled": 0, "fusion_lon": 0.0, "bike_id": "aeb3090ed0b38e10c5c4fd4aa8ab5433", "lon": -76.8953625, "rental_uris": {"ios": "https://dc.lft.to/lastmile_qr_scan", "android": "https://dc.lft.to/lastmile_qr_scan"}}, {"name": "7ff54550ae087e5c831ef708fc2f97ae", "fusion_lat": 0.0, "type": "electric_scooter", "lat": 38.918118, "is_reserved": 0, "is_disabled": 0, "fusion_lon": 0.0, "bike_id": "7ff54550ae087e5c831ef708fc2f97ae", "lon": -77.0317085, "rental_uris": {"ios": "https://dc.lft.to/lastmile_qr_scan", "android": "https://dc.lft.to/lastmile_qr_scan"}}, {"name": "5d19e3b5fa24ea26603c34c36377bf1a", "fusion_lat": 0.0, "type": "electric_scooter", "lat": 38.928562666666664, "is_reserved": 0, "is_disabled": 0, "fusion_lon": 0.0, "bike_id": "5d19e3b5fa24ea26603c34c36377bf1a", "lon": -77.01388633333333, "rental_uris": {"ios": "https://dc.lft.to/lastmile_qr_scan", "android": "https://dc.lft.to/lastmile_qr_scan"}}, {"name": "d5bacd7ebf8ac41af1ff5d8ed440d703", "fusion_lat": 0.0, "type": "electric_scooter", "lat": 38.907532, "is_reserved": 0, "is_disabled": 0, "fusion_lon": 0.0, "bike_id": "d5bacd7ebf8ac41af1ff5d8ed440d703", "lon": -77.00019683333333, "rental_uris": {"ios": "https://dc.lft.to/lastmile_qr_scan", "android": "https://dc.lft.to/lastmile_qr_scan"}}, {"name": "271063cb2c693d5192b52b5f999ae0b6", "fusion_lat": 0.0, "type": "electric_scooter", "lat": 38.900522, "is_reserved": 0, "is_disabled": 0, "fusion_lon": 0.0, "bike_id": "271063cb2c693d5192b52b5f999ae0b6", "lon": -77.043144, "rental_uris": {"ios": "https://dc.lft.to/lastmile_qr_scan", "android": "https://dc.lft.to/lastmile_qr_scan"}}, {"name": "b71927d5de88a3f697e456e8c7f081aa", "fusion_lat": 0.0, "type": "electric_scooter", "lat": 38.941839333333334, "is_reserved": 0, "is_disabled": 0, "fusion_lon": 0.0, "bike_id": "b71927d5de88a3f697e456e8c7f081aa", "lon": -77.02489783333333, "rental_uris": {"ios": "https://dc.lft.to/lastmile_qr_scan", "android": "https://dc.lft.to/lastmile_qr_scan"}}, {"name": "e1ec11769eddfa950a1441d5553576a6", "fusion_lat": 0.0, "type": "electric_scooter", "lat": 38.91616466666667, "is_reserved": 0, "is_disabled": 0, "fusion_lon": 0.0, "bike_id": "e1ec11769eddfa950a1441d5553576a6", "lon": -77.0384135, "rental_uris": {"ios": "https://dc.lft.to/lastmile_qr_scan", "android": "https://dc.lft.to/lastmile_qr_scan"}}, {"name": "8ae750a9dc3011c5cc1deb5cb483f6db", "fusion_lat": 0.0, "type": "electric_scooter", "lat": 38.8977675, "is_reserved": 0, "is_disabled": 0, "fusion_lon": 0.0, "bike_id": "8ae750a9dc3011c5cc1deb5cb483f6db", "lon": -76.9916225, "rental_uris": {"ios": "https://dc.lft.to/lastmile_qr_scan", "android": "https://dc.lft.to/lastmile_qr_scan"}}, {"name": "c7357c9f85a8ac9cea6e22fed54a2014", "fusion_lat": 0.0, "type": "electric_scooter", "lat": 38.93998, "is_reserved": 0, "is_disabled": 0, "fusion_lon": 0.0, "bike_id": "c7357c9f85a8ac9cea6e22fed54a2014", "lon": -77.029603, "rental_uris": {"ios": "https://dc.lft.to/lastmile_qr_scan", "android": "https://dc.lft.to/lastmile_qr_scan"}}, {"name": "fb171b97552a923375a776fcd1d5fea0", "fusion_lat": 0.0, "type": "electric_scooter", "lat": 38.8985465, "is_reserved": 0, "is_disabled": 0, "fusion_lon": 0.0, "bike_id": "fb171b97552a923375a776fcd1d5fea0", "lon": -76.99032416666667, "rental_uris": {"ios": "https://dc.lft.to/lastmile_qr_scan", "android": "https://dc.lft.to/lastmile_qr_scan"}}, {"name": "cc7a783a48f940505358cbc438926857", "fusion_lat": 0.0, "type": "electric_bike", "lat": 38.973257, "is_reserved": 0, "is_disabled": 0, "fusion_lon": 0.0, "bike_id": "cc7a783a48f940505358cbc438926857", "lon": -77.021533, "rental_uris": {"ios": "https://dc.lft.to/lastmile_qr_scan", "android": "https://dc.lft.to/lastmile_qr_scan"}}, {"name": "38edde0c7552f46a258c54031f183df8", "fusion_lat": 0.0, "type": "electric_scooter", "lat": 38.93249866666667, "is_reserved": 0, "is_disabled": 0, "fusion_lon": 0.0, "bike_id": "38edde0c7552f46a258c54031f183df8", "lon": -77.04009716666667, "rental_uris": {"ios": "https://dc.lft.to/lastmile_qr_scan", "android": "https://dc.lft.to/lastmile_qr_scan"}}, {"name": "d475520dcfc6c5b5b13bddfe40710fe5", "fusion_lat": 0.0, "type": "electric_scooter", "lat": 38.89485, "is_reserved": 0, "is_disabled": 0, "fusion_lon": 0.0, "bike_id": "d475520dcfc6c5b5b13bddfe40710fe5", "lon": -76.94871733333333, "rental_uris": {"ios": "https://dc.lft.to/lastmile_qr_scan", "android": "https://dc.lft.to/lastmile_qr_scan"}}, {"name": "b00828aa9786091f1897a71d16763d95", "fusion_lat": 0.0, "type": "electric_scooter", "lat": 38.90831816666667, "is_reserved": 0, "is_disabled": 0, "fusion_lon": 0.0, "bike_id": "b00828aa9786091f1897a71d16763d95", "lon": -76.99972383333333, "rental_uris": {"ios": "https://dc.lft.to/lastmile_qr_scan", "android": "https://dc.lft.to/lastmile_qr_scan"}}, {"name": "87467374e4d568e5b4670ff2fdcba1bf", "fusion_lat": 0.0, "type": "electric_bike", "lat": 38.91117, "is_reserved": 0, "is_disabled": 0, "fusion_lon": 0.0, "bike_id": "87467374e4d568e5b4670ff2fdcba1bf", "lon": -77.04405216666666, "rental_uris": {"ios": "https://dc.lft.to/lastmile_qr_scan", "android": "https://dc.lft.to/lastmile_qr_scan"}}, {"name": "eb45da064a70fecb3d30a1d72c0ecd00", "fusion_lat": 0.0, "type": "electric_scooter", "lat": 38.9112435, "is_reserved": 0, "is_disabled": 0, "fusion_lon": 0.0, "bike_id": "eb45da064a70fecb3d30a1d72c0ecd00", "lon": -77.03829966666666, "rental_uris": {"ios": "https://dc.lft.to/lastmile_qr_scan", "android": "https://dc.lft.to/lastmile_qr_scan"}}, {"name": "43e35d87895cd3f6ddad595420ad9eda", "fusion_lat": 0.0, "type": "electric_scooter", "lat": 38.89476166666667, "is_reserved": 0, "is_disabled": 0, "fusion_lon": 0.0, "bike_id": "43e35d87895cd3f6ddad595420ad9eda", "lon": -77.003336, "rental_uris": {"ios": "https://dc.lft.to/lastmile_qr_scan", "android": "https://dc.lft.to/lastmile_qr_scan"}}, {"name": "cec889eb298cd13bb036abda923b71f4", "fusion_lat": 0.0, "type": "electric_bike", "lat": 38.867548166666666, "is_reserved": 0, "is_disabled": 0, "fusion_lon": 0.0, "bike_id": "cec889eb298cd13bb036abda923b71f4", "lon": -76.94535033333334, "rental_uris": {"ios": "https://dc.lft.to/lastmile_qr_scan", "android": "https://dc.lft.to/lastmile_qr_scan"}}, {"name": "a15dbb3a44e197b497bef4bdacf5e491", "fusion_lat": 0.0, "type": "electric_scooter", "lat": 38.90170633333334, "is_reserved": 0, "is_disabled": 0, "fusion_lon": 0.0, "bike_id": "a15dbb3a44e197b497bef4bdacf5e491", "lon": -77.04697383333334, "rental_uris": {"ios": "https://dc.lft.to/lastmile_qr_scan", "android": "https://dc.lft.to/lastmile_qr_scan"}}, {"name": "a6abf86b466820eacd386ba638503494", "fusion_lat": 0.0, "type": "electric_scooter", "lat": 38.917703333333336, "is_reserved": 0, "is_disabled": 0, "fusion_lon": 0.0, "bike_id": "a6abf86b466820eacd386ba638503494", "lon": -77.014954, "rental_uris": {"ios": "https://dc.lft.to/lastmile_qr_scan", "android": "https://dc.lft.to/lastmile_qr_scan"}}, {"name": "e9e3d22dd26cf2989070ee8161fe81d3", "fusion_lat": 0.0, "type": "electric_scooter", "lat": 38.902585333333334, "is_reserved": 0, "is_disabled": 0, "fusion_lon": 0.0, "bike_id": "e9e3d22dd26cf2989070ee8161fe81d3", "lon": -77.01755366666667, "rental_uris": {"ios": "https://dc.lft.to/lastmile_qr_scan", "android": "https://dc.lft.to/lastmile_qr_scan"}}, {"name": "0604d0c8e9d8bdd461e859ddaa4ba7dd", "fusion_lat": 0.0, "type": "electric_scooter", "lat": 38.90367166666667, "is_reserved": 0, "is_disabled": 0, "fusion_lon": 0.0, "bike_id": "0604d0c8e9d8bdd461e859ddaa4ba7dd", "lon": -77.03560766666666, "rental_uris": {"ios": "https://dc.lft.to/lastmile_qr_scan", "android": "https://dc.lft.to/lastmile_qr_scan"}}, {"name": "129b76ca7f811577ca089aab1c0a7794", "fusion_lat": 0.0, "type": "electric_scooter", "lat": 38.915618, "is_reserved": 0, "is_disabled": 0, "fusion_lon": 0.0, "bike_id": "129b76ca7f811577ca089aab1c0a7794", "lon": -77.05214316666667, "rental_uris": {"ios": "https://dc.lft.to/lastmile_qr_scan", "android": "https://dc.lft.to/lastmile_qr_scan"}}, {"name": "b9b2ca0c7377ff8c4dccabbdea4b74ad", "fusion_lat": 0.0, "type": "electric_scooter", "lat": 38.89631383333333, "is_reserved": 0, "is_disabled": 0, "fusion_lon": 0.0, "bike_id": "b9b2ca0c7377ff8c4dccabbdea4b74ad", "lon": -77.02859083333334, "rental_uris": {"ios": "https://dc.lft.to/lastmile_qr_scan", "android": "https://dc.lft.to/lastmile_qr_scan"}}, {"name": "263cdd77d27e8027d383a324811f3fff", "fusion_lat": 0.0, "type": "electric_scooter", "lat": 38.91404166666667, "is_reserved": 0, "is_disabled": 0, "fusion_lon": 0.0, "bike_id": "263cdd77d27e8027d383a324811f3fff", "lon": -77.00837266666667, "rental_uris": {"ios": "https://dc.lft.to/lastmile_qr_scan", "android": "https://dc.lft.to/lastmile_qr_scan"}}, {"name": "ff3577867d853ec78a66fd49919b020b", "fusion_lat": 0.0, "type": "electric_scooter", "lat": 38.90746816666667, "is_reserved": 0, "is_disabled": 0, "fusion_lon": 0.0, "bike_id": "ff3577867d853ec78a66fd49919b020b", "lon": -77.04499866666667, "rental_uris": {"ios": "https://dc.lft.to/lastmile_qr_scan", "android": "https://dc.lft.to/lastmile_qr_scan"}}, {"name": "d7e2433874a5f24970027d92723e3eaa", "fusion_lat": 0.0, "type": "electric_scooter", "lat": 38.939632, "is_reserved": 0, "is_disabled": 0, "fusion_lon": 0.0, "bike_id": "d7e2433874a5f24970027d92723e3eaa", "lon": -77.0328005, "rental_uris": {"ios": "https://dc.lft.to/lastmile_qr_scan", "android": "https://dc.lft.to/lastmile_qr_scan"}}, {"name": "4d1f20bcd0f6403b2dc357ddbfd61089", "fusion_lat": 0.0, "type": "electric_scooter", "lat": 38.910585833333336, "is_reserved": 0, "is_disabled": 0, "fusion_lon": 0.0, "bike_id": "4d1f20bcd0f6403b2dc357ddbfd61089", "lon": -77.04579733333334, "rental_uris": {"ios": "https://dc.lft.to/lastmile_qr_scan", "android": "https://dc.lft.to/lastmile_qr_scan"}}, {"name": "b0f5022a8a64ee8daea2972317b4550e", "fusion_lat": 0.0, "type": "electric_scooter", "lat": 38.90574483333333, "is_reserved": 0, "is_disabled": 0, "fusion_lon": 0.0, "bike_id": "b0f5022a8a64ee8daea2972317b4550e", "lon": -77.00568766666666, "rental_uris": {"ios": "https://dc.lft.to/lastmile_qr_scan", "android": "https://dc.lft.to/lastmile_qr_scan"}}, {"name": "170376940c85a8536cbdb8b416eb7b6e", "fusion_lat": 0.0, "type": "electric_scooter", "lat": 38.92976933333333, "is_reserved": 0, "is_disabled": 0, "fusion_lon": 0.0, "bike_id": "170376940c85a8536cbdb8b416eb7b6e", "lon": -77.02616083333334, "rental_uris": {"ios": "https://dc.lft.to/lastmile_qr_scan", "android": "https://dc.lft.to/lastmile_qr_scan"}}, {"name": "6938e6ffb20876e62f68ef57412bc9d7", "fusion_lat": 0.0, "type": "electric_scooter", "lat": 38.94204933333333, "is_reserved": 0, "is_disabled": 0, "fusion_lon": 0.0, "bike_id": "6938e6ffb20876e62f68ef57412bc9d7", "lon": -77.02515683333333, "rental_uris": {"ios": "https://dc.lft.to/lastmile_qr_scan", "android": "https://dc.lft.to/lastmile_qr_scan"}}, {"name": "afd0a665bd1c592e93343719f95cfccb", "fusion_lat": 0.0, "type": "electric_scooter", "lat": 38.901112833333336, "is_reserved": 0, "is_disabled": 0, "fusion_lon": 0.0, "bike_id": "afd0a665bd1c592e93343719f95cfccb", "lon": -77.03192816666666, "rental_uris": {"ios": "https://dc.lft.to/lastmile_qr_scan", "android": "https://dc.lft.to/lastmile_qr_scan"}}, {"name": "9a33ade52c860d3819d8f6bfe59fefc5", "fusion_lat": 0.0, "type": "electric_scooter", "lat": 38.900034833333336, "is_reserved": 0, "is_disabled": 0, "fusion_lon": 0.0, "bike_id": "9a33ade52c860d3819d8f6bfe59fefc5", "lon": -76.99740033333333, "rental_uris": {"ios": "https://dc.lft.to/lastmile_qr_scan", "android": "https://dc.lft.to/lastmile_qr_scan"}}, {"name": "70336e947e61fec7e3b02da12a7cdab2", "fusion_lat": 0.0, "type": "electric_bike", "lat": 38.82729483333333, "is_reserved": 0, "is_disabled": 0, "fusion_lon": 0.0, "bike_id": "70336e947e61fec7e3b02da12a7cdab2", "lon": -77.00862683333334, "rental_uris": {"ios": "https://dc.lft.to/lastmile_qr_scan", "android": "https://dc.lft.to/lastmile_qr_scan"}}, {"name": "496926e77d550230d5567de1672d396f", "fusion_lat": 0.0, "type": "electric_scooter", "lat": 38.865082666666666, "is_reserved": 0, "is_disabled": 0, "fusion_lon": 0.0, "bike_id": "496926e77d550230d5567de1672d396f", "lon": -76.990052, "rental_uris": {"ios": "https://dc.lft.to/lastmile_qr_scan", "android": "https://dc.lft.to/lastmile_qr_scan"}}, {"name": "1cb55a99b529e88c41039b472777e6b2", "fusion_lat": 0.0, "type": "electric_scooter", "lat": 38.92837816666667, "is_reserved": 0, "is_disabled": 0, "fusion_lon": 0.0, "bike_id": "1cb55a99b529e88c41039b472777e6b2", "lon": -77.05421883333334, "rental_uris": {"ios": "https://dc.lft.to/lastmile_qr_scan", "android": "https://dc.lft.to/lastmile_qr_scan"}}, {"name": "23b8fc2954a7f52768dea7a17626b449", "fusion_lat": 0.0, "type": "electric_scooter", "lat": 38.89833016666667, "is_reserved": 0, "is_disabled": 0, "fusion_lon": 0.0, "bike_id": "23b8fc2954a7f52768dea7a17626b449", "lon": -76.94639633333334, "rental_uris": {"ios": "https://dc.lft.to/lastmile_qr_scan", "android": "https://dc.lft.to/lastmile_qr_scan"}}, {"name": "473895cb7b8472d56791fb9b8d78313d", "fusion_lat": 0.0, "type": "electric_scooter", "lat": 38.898779166666664, "is_reserved": 0, "is_disabled": 0, "fusion_lon": 0.0, "bike_id": "473895cb7b8472d56791fb9b8d78313d", "lon": -77.03269883333333, "rental_uris": {"ios": "https://dc.lft.to/lastmile_qr_scan", "android": "https://dc.lft.to/lastmile_qr_scan"}}, {"name": "525532b5a487a1c14a758c5d33bdf252", "fusion_lat": 0.0, "type": "electric_scooter", "lat": 38.918912166666665, "is_reserved": 0, "is_disabled": 0, "fusion_lon": 0.0, "bike_id": "525532b5a487a1c14a758c5d33bdf252", "lon": -77.05295166666667, "rental_uris": {"ios": "https://dc.lft.to/lastmile_qr_scan", "android": "https://dc.lft.to/lastmile_qr_scan"}}, {"name": "b4088ba4c644cb6d9477b7d699b420ff", "fusion_lat": 0.0, "type": "electric_scooter", "lat": 38.926125, "is_reserved": 0, "is_disabled": 0, "fusion_lon": 0.0, "bike_id": "b4088ba4c644cb6d9477b7d699b420ff", "lon": -77.021614, "rental_uris": {"ios": "https://dc.lft.to/lastmile_qr_scan", "android": "https://dc.lft.to/lastmile_qr_scan"}}, {"name": "c95301625a86481ecb8eca4bca972a05", "fusion_lat": 0.0, "type": "electric_scooter", "lat": 38.89475183333333, "is_reserved": 0, "is_disabled": 0, "fusion_lon": 0.0, "bike_id": "c95301625a86481ecb8eca4bca972a05", "lon": -77.02392016666667, "rental_uris": {"ios": "https://dc.lft.to/lastmile_qr_scan", "android": "https://dc.lft.to/lastmile_qr_scan"}}, {"name": "711158c484b636980bd0ac05be4d9095", "fusion_lat": 0.0, "type": "electric_scooter", "lat": 38.89511183333333, "is_reserved": 0, "is_disabled": 0, "fusion_lon": 0.0, "bike_id": "711158c484b636980bd0ac05be4d9095", "lon": -76.948893, "rental_uris": {"ios": "https://dc.lft.to/lastmile_qr_scan", "android": "https://dc.lft.to/lastmile_qr_scan"}}, {"name": "688fa73727180cdb6cb98fbd8a20cecc", "fusion_lat": 0.0, "type": "electric_scooter", "lat": 38.900350833333334, "is_reserved": 0, "is_disabled": 0, "fusion_lon": 0.0, "bike_id": "688fa73727180cdb6cb98fbd8a20cecc", "lon": -76.99749016666667, "rental_uris": {"ios": "https://dc.lft.to/lastmile_qr_scan", "android": "https://dc.lft.to/lastmile_qr_scan"}}, {"name": "ca05b61780d715c7bc0bdd8d74295d22", "fusion_lat": 0.0, "type": "electric_scooter", "lat": 38.93110333333333, "is_reserved": 0, "is_disabled": 0, "fusion_lon": 0.0, "bike_id": "ca05b61780d715c7bc0bdd8d74295d22", "lon": -77.03035683333333, "rental_uris": {"ios": "https://dc.lft.to/lastmile_qr_scan", "android": "https://dc.lft.to/lastmile_qr_scan"}}, {"name": "b43a60f9884d21ecbf07245d2f3cffda", "fusion_lat": 0.0, "type": "electric_scooter", "lat": 38.880201166666666, "is_reserved": 0, "is_disabled": 0, "fusion_lon": 0.0, "bike_id": "b43a60f9884d21ecbf07245d2f3cffda", "lon": -76.93129116666667, "rental_uris": {"ios": "https://dc.lft.to/lastmile_qr_scan", "android": "https://dc.lft.to/lastmile_qr_scan"}}, {"name": "24ba262873a5b3bd34c6501626738b15", "fusion_lat": 0.0, "type": "electric_scooter", "lat": 38.8928225, "is_reserved": 0, "is_disabled": 0, "fusion_lon": 0.0, "bike_id": "24ba262873a5b3bd34c6501626738b15", "lon": -77.05016033333334, "rental_uris": {"ios": "https://dc.lft.to/lastmile_qr_scan", "android": "https://dc.lft.to/lastmile_qr_scan"}}, {"name": "1c1259cfad9f18cbc7be7758d48a6ed7", "fusion_lat": 0.0, "type": "electric_scooter", "lat": 38.93395266666667, "is_reserved": 0, "is_disabled": 0, "fusion_lon": 0.0, "bike_id": "1c1259cfad9f18cbc7be7758d48a6ed7", "lon": -77.03579833333333, "rental_uris": {"ios": "https://dc.lft.to/lastmile_qr_scan", "android": "https://dc.lft.to/lastmile_qr_scan"}}, {"name": "fbe8470948934c6e2d6c4075a96aef4d", "fusion_lat": 0.0, "type": "electric_scooter", "lat": 38.87758633333333, "is_reserved": 0, "is_disabled": 0, "fusion_lon": 0.0, "bike_id": "fbe8470948934c6e2d6c4075a96aef4d", "lon": -76.9941855, "rental_uris": {"ios": "https://dc.lft.to/lastmile_qr_scan", "android": "https://dc.lft.to/lastmile_qr_scan"}}, {"name": "43cf422172de9c78e3c1efc90f7189a8", "fusion_lat": 0.0, "type": "electric_scooter", "lat": 38.91185483333334, "is_reserved": 0, "is_disabled": 0, "fusion_lon": 0.0, "bike_id": "43cf422172de9c78e3c1efc90f7189a8", "lon": -77.03862216666667, "rental_uris": {"ios": "https://dc.lft.to/lastmile_qr_scan", "android": "https://dc.lft.to/lastmile_qr_scan"}}, {"name": "b2843ffa4f509077204d1e1aca04a796", "fusion_lat": 0.0, "type": "electric_scooter", "lat": 38.88351733333333, "is_reserved": 0, "is_disabled": 0, "fusion_lon": 0.0, "bike_id": "b2843ffa4f509077204d1e1aca04a796", "lon": -77.02343083333334, "rental_uris": {"ios": "https://dc.lft.to/lastmile_qr_scan", "android": "https://dc.lft.to/lastmile_qr_scan"}}, {"name": "1717a222380c8a7ee4fcac9693e52368", "fusion_lat": 0.0, "type": "electric_scooter", "lat": 38.911012666666664, "is_reserved": 0, "is_disabled": 0, "fusion_lon": 0.0, "bike_id": "1717a222380c8a7ee4fcac9693e52368", "lon": -77.07351533333333, "rental_uris": {"ios": "https://dc.lft.to/lastmile_qr_scan", "android": "https://dc.lft.to/lastmile_qr_scan"}}, {"name": "f015987f406b0ef597c648a2264c89ee", "fusion_lat": 0.0, "type": "electric_scooter", "lat": 38.95287733333333, "is_reserved": 0, "is_disabled": 0, "fusion_lon": 0.0, "bike_id": "f015987f406b0ef597c648a2264c89ee", "lon": -77.0036055, "rental_uris": {"ios": "https://dc.lft.to/lastmile_qr_scan", "android": "https://dc.lft.to/lastmile_qr_scan"}}, {"name": "6d4d8224f180bcdda5d1d7e08a1c705c", "fusion_lat": 0.0, "type": "electric_bike", "lat": 38.9072475, "is_reserved": 0, "is_disabled": 0, "fusion_lon": 0.0, "bike_id": "6d4d8224f180bcdda5d1d7e08a1c705c", "lon": -77.0401985, "rental_uris": {"ios": "https://dc.lft.to/lastmile_qr_scan", "android": "https://dc.lft.to/lastmile_qr_scan"}}, {"name": "2985198c4de4bc09734cc6dbe7f1cdd0", "fusion_lat": 0.0, "type": "electric_scooter", "lat": 38.9429095, "is_reserved": 0, "is_disabled": 0, "fusion_lon": 0.0, "bike_id": "2985198c4de4bc09734cc6dbe7f1cdd0", "lon": -77.02171533333333, "rental_uris": {"ios": "https://dc.lft.to/lastmile_qr_scan", "android": "https://dc.lft.to/lastmile_qr_scan"}}, {"name": "713485ea3a94692fdf4e61ca48995dfb", "fusion_lat": 0.0, "type": "electric_scooter", "lat": 38.912677333333335, "is_reserved": 0, "is_disabled": 0, "fusion_lon": 0.0, "bike_id": "713485ea3a94692fdf4e61ca48995dfb", "lon": -77.03827483333333, "rental_uris": {"ios": "https://dc.lft.to/lastmile_qr_scan", "android": "https://dc.lft.to/lastmile_qr_scan"}}, {"name": "436cc18353999f225dc98543b057bafa", "fusion_lat": 0.0, "type": "electric_bike", "lat": 38.892184, "is_reserved": 0, "is_disabled": 0, "fusion_lon": 0.0, "bike_id": "436cc18353999f225dc98543b057bafa", "lon": -77.10779016666666, "rental_uris": {"ios": "https://dc.lft.to/lastmile_qr_scan", "android": "https://dc.lft.to/lastmile_qr_scan"}}, {"name": "a237be25f0a71b49d360408ea5192b3a", "fusion_lat": 0.0, "type": "electric_scooter", "lat": 38.9126035, "is_reserved": 0, "is_disabled": 0, "fusion_lon": 0.0, "bike_id": "a237be25f0a71b49d360408ea5192b3a", "lon": -77.03154866666667, "rental_uris": {"ios": "https://dc.lft.to/lastmile_qr_scan", "android": "https://dc.lft.to/lastmile_qr_scan"}}, {"name": "79541129ae56c264d4b19465fcbf4847", "fusion_lat": 0.0, "type": "electric_scooter", "lat": 38.93007983333333, "is_reserved": 0, "is_disabled": 0, "fusion_lon": 0.0, "bike_id": "79541129ae56c264d4b19465fcbf4847", "lon": -77.055185, "rental_uris": {"ios": "https://dc.lft.to/lastmile_qr_scan", "android": "https://dc.lft.to/lastmile_qr_scan"}}, {"name": "805ab0cfcc348f15c2691f88422b9270", "fusion_lat": 0.0, "type": "electric_scooter", "lat": 38.936618333333335, "is_reserved": 0, "is_disabled": 0, "fusion_lon": 0.0, "bike_id": "805ab0cfcc348f15c2691f88422b9270", "lon": -77.0549335, "rental_uris": {"ios": "https://dc.lft.to/lastmile_qr_scan", "android": "https://dc.lft.to/lastmile_qr_scan"}}, {"name": "6f3dd3657667ca2e466733f9db5f1ab8", "fusion_lat": 0.0, "type": "electric_scooter", "lat": 38.9170385, "is_reserved": 0, "is_disabled": 0, "fusion_lon": 0.0, "bike_id": "6f3dd3657667ca2e466733f9db5f1ab8", "lon": -77.04086, "rental_uris": {"ios": "https://dc.lft.to/lastmile_qr_scan", "android": "https://dc.lft.to/lastmile_qr_scan"}}, {"name": "741d9bc969c12b04eec3dff7e57e8264", "fusion_lat": 0.0, "type": "electric_scooter", "lat": 38.903476166666664, "is_reserved": 0, "is_disabled": 0, "fusion_lon": 0.0, "bike_id": "741d9bc969c12b04eec3dff7e57e8264", "lon": -77.0522715, "rental_uris": {"ios": "https://dc.lft.to/lastmile_qr_scan", "android": "https://dc.lft.to/lastmile_qr_scan"}}, {"name": "ba3d1ed7c469195620b18ec8f4c37403", "fusion_lat": 0.0, "type": "electric_scooter", "lat": 38.9083185, "is_reserved": 0, "is_disabled": 0, "fusion_lon": 0.0, "bike_id": "ba3d1ed7c469195620b18ec8f4c37403", "lon": -77.03184466666667, "rental_uris": {"ios": "https://dc.lft.to/lastmile_qr_scan", "android": "https://dc.lft.to/lastmile_qr_scan"}}, {"name": "2e79066f4d0a01a5a55b46d09caeff86", "fusion_lat": 0.0, "type": "electric_scooter", "lat": 38.88788816666667, "is_reserved": 0, "is_disabled": 0, "fusion_lon": 0.0, "bike_id": "2e79066f4d0a01a5a55b46d09caeff86", "lon": -76.95517516666666, "rental_uris": {"ios": "https://dc.lft.to/lastmile_qr_scan", "android": "https://dc.lft.to/lastmile_qr_scan"}}, {"name": "d294386bd190b19e4dbf2474e734a2cd", "fusion_lat": 0.0, "type": "electric_scooter", "lat": 38.93459466666667, "is_reserved": 0, "is_disabled": 0, "fusion_lon": 0.0, "bike_id": "d294386bd190b19e4dbf2474e734a2cd", "lon": -77.086413, "rental_uris": {"ios": "https://dc.lft.to/lastmile_qr_scan", "android": "https://dc.lft.to/lastmile_qr_scan"}}, {"name": "f156cbf112b94e24e85f8e6fb2e2d4b2", "fusion_lat": 0.0, "type": "electric_scooter", "lat": 38.9056355, "is_reserved": 0, "is_disabled": 0, "fusion_lon": 0.0, "bike_id": "f156cbf112b94e24e85f8e6fb2e2d4b2", "lon": -77.02231433333333, "rental_uris": {"ios": "https://dc.lft.to/lastmile_qr_scan", "android": "https://dc.lft.to/lastmile_qr_scan"}}, {"name": "8bbca0bb03b6fd1f6a9ab44642ff0bb0", "fusion_lat": 0.0, "type": "electric_scooter", "lat": 38.9127015, "is_reserved": 0, "is_disabled": 0, "fusion_lon": 0.0, "bike_id": "8bbca0bb03b6fd1f6a9ab44642ff0bb0", "lon": -77.04500783333333, "rental_uris": {"ios": "https://dc.lft.to/lastmile_qr_scan", "android": "https://dc.lft.to/lastmile_qr_scan"}}, {"name": "e592481d92f11f54ab17e8f79223da19", "fusion_lat": 0.0, "type": "electric_scooter", "lat": 38.89957166666667, "is_reserved": 0, "is_disabled": 0, "fusion_lon": 0.0, "bike_id": "e592481d92f11f54ab17e8f79223da19", "lon": -77.05270166666666, "rental_uris": {"ios": "https://dc.lft.to/lastmile_qr_scan", "android": "https://dc.lft.to/lastmile_qr_scan"}}, {"name": "6d8e19a591999a8cd85015e7ce852cc9", "fusion_lat": 0.0, "type": "electric_scooter", "lat": 38.863613666666666, "is_reserved": 0, "is_disabled": 0, "fusion_lon": 0.0, "bike_id": "6d8e19a591999a8cd85015e7ce852cc9", "lon": -76.99070866666666, "rental_uris": {"ios": "https://dc.lft.to/lastmile_qr_scan", "android": "https://dc.lft.to/lastmile_qr_scan"}}, {"name": "2a7abfe5a8eb30068cb446a58ca35bec", "fusion_lat": 0.0, "type": "electric_scooter", "lat": 38.89987433333334, "is_reserved": 0, "is_disabled": 0, "fusion_lon": 0.0, "bike_id": "2a7abfe5a8eb30068cb446a58ca35bec", "lon": -77.05519133333334, "rental_uris": {"ios": "https://dc.lft.to/lastmile_qr_scan", "android": "https://dc.lft.to/lastmile_qr_scan"}}, {"name": "921cc612faf188fe51d4e0fca8f8dd2f", "fusion_lat": 0.0, "type": "electric_scooter", "lat": 38.8805725, "is_reserved": 0, "is_disabled": 0, "fusion_lon": 0.0, "bike_id": "921cc612faf188fe51d4e0fca8f8dd2f", "lon": -77.01330516666667, "rental_uris": {"ios": "https://dc.lft.to/lastmile_qr_scan", "android": "https://dc.lft.to/lastmile_qr_scan"}}, {"name": "bc9ab7998f35876b8f04f9a039acdad0", "fusion_lat": 0.0, "type": "electric_scooter", "lat": 38.9229475, "is_reserved": 0, "is_disabled": 0, "fusion_lon": 0.0, "bike_id": "bc9ab7998f35876b8f04f9a039acdad0", "lon": -77.04208816666667, "rental_uris": {"ios": "https://dc.lft.to/lastmile_qr_scan", "android": "https://dc.lft.to/lastmile_qr_scan"}}, {"name": "a1df943c0c929f1c85b05880d97bd305", "fusion_lat": 0.0, "type": "electric_scooter", "lat": 38.91257683333333, "is_reserved": 0, "is_disabled": 0, "fusion_lon": 0.0, "bike_id": "a1df943c0c929f1c85b05880d97bd305", "lon": -77.03862416666666, "rental_uris": {"ios": "https://dc.lft.to/lastmile_qr_scan", "android": "https://dc.lft.to/lastmile_qr_scan"}}, {"name": "3e727508c4dd8f89734076d7b04a3b8c", "fusion_lat": 0.0, "type": "electric_scooter", "lat": 38.898284, "is_reserved": 0, "is_disabled": 0, "fusion_lon": 0.0, "bike_id": "3e727508c4dd8f89734076d7b04a3b8c", "lon": -76.987811, "rental_uris": {"ios": "https://dc.lft.to/lastmile_qr_scan", "android": "https://dc.lft.to/lastmile_qr_scan"}}, {"name": "c88ce2950c8e9395c623af1529242d71", "fusion_lat": 0.0, "type": "electric_scooter", "lat": 38.94211216666667, "is_reserved": 0, "is_disabled": 0, "fusion_lon": 0.0, "bike_id": "c88ce2950c8e9395c623af1529242d71", "lon": -77.0358555, "rental_uris": {"ios": "https://dc.lft.to/lastmile_qr_scan", "android": "https://dc.lft.to/lastmile_qr_scan"}}, {"name": "4816bfc4284326d8a0ca77ef27ec8f10", "fusion_lat": 0.0, "type": "electric_scooter", "lat": 38.89611283333333, "is_reserved": 0, "is_disabled": 0, "fusion_lon": 0.0, "bike_id": "4816bfc4284326d8a0ca77ef27ec8f10", "lon": -77.0269155, "rental_uris": {"ios": "https://dc.lft.to/lastmile_qr_scan", "android": "https://dc.lft.to/lastmile_qr_scan"}}, {"name": "67eb229c41b5ed58b5b37f21c4b8b187", "fusion_lat": 0.0, "type": "electric_scooter", "lat": 38.89802, "is_reserved": 0, "is_disabled": 0, "fusion_lon": 0.0, "bike_id": "67eb229c41b5ed58b5b37f21c4b8b187", "lon": -76.99159016666667, "rental_uris": {"ios": "https://dc.lft.to/lastmile_qr_scan", "android": "https://dc.lft.to/lastmile_qr_scan"}}, {"name": "9ac0346a78472efc08604c0f2dab10a1", "fusion_lat": 0.0, "type": "electric_scooter", "lat": 38.904187666666665, "is_reserved": 0, "is_disabled": 0, "fusion_lon": 0.0, "bike_id": "9ac0346a78472efc08604c0f2dab10a1", "lon": -77.00595766666666, "rental_uris": {"ios": "https://dc.lft.to/lastmile_qr_scan", "android": "https://dc.lft.to/lastmile_qr_scan"}}, {"name": "1505d45ed0f8d07865b8ad2671f5fc22", "fusion_lat": 0.0, "type": "electric_scooter", "lat": 38.90130283333333, "is_reserved": 0, "is_disabled": 0, "fusion_lon": 0.0, "bike_id": "1505d45ed0f8d07865b8ad2671f5fc22", "lon": -77.04970483333334, "rental_uris": {"ios": "https://dc.lft.to/lastmile_qr_scan", "android": "https://dc.lft.to/lastmile_qr_scan"}}, {"name": "3b21a032c099e916b7d80021e656c5f2", "fusion_lat": 0.0, "type": "electric_scooter", "lat": 38.906537166666666, "is_reserved": 0, "is_disabled": 0, "fusion_lon": 0.0, "bike_id": "3b21a032c099e916b7d80021e656c5f2", "lon": -77.05322266666667, "rental_uris": {"ios": "https://dc.lft.to/lastmile_qr_scan", "android": "https://dc.lft.to/lastmile_qr_scan"}}, {"name": "75b5cca949c4ffb2a4aea1b09d940a1d", "fusion_lat": 0.0, "type": "electric_scooter", "lat": 38.90360166666667, "is_reserved": 0, "is_disabled": 0, "fusion_lon": 0.0, "bike_id": "75b5cca949c4ffb2a4aea1b09d940a1d", "lon": -77.03564416666667, "rental_uris": {"ios": "https://dc.lft.to/lastmile_qr_scan", "android": "https://dc.lft.to/lastmile_qr_scan"}}, {"name": "db5d7720dee38320eb6ee4f15e543ebb", "fusion_lat": 0.0, "type": "electric_scooter", "lat": 38.89906166666667, "is_reserved": 0, "is_disabled": 0, "fusion_lon": 0.0, "bike_id": "db5d7720dee38320eb6ee4f15e543ebb", "lon": -77.03929116666667, "rental_uris": {"ios": "https://dc.lft.to/lastmile_qr_scan", "android": "https://dc.lft.to/lastmile_qr_scan"}}, {"name": "d8075553eb076b674f7d912cd3c4e501", "fusion_lat": 0.0, "type": "electric_scooter", "lat": 38.89853166666666, "is_reserved": 0, "is_disabled": 0, "fusion_lon": 0.0, "bike_id": "d8075553eb076b674f7d912cd3c4e501", "lon": -77.01614316666667, "rental_uris": {"ios": "https://dc.lft.to/lastmile_qr_scan", "android": "https://dc.lft.to/lastmile_qr_scan"}}, {"name": "f5249c15cafc5a766ccfb41a64d66811", "fusion_lat": 0.0, "type": "electric_scooter", "lat": 38.9101925, "is_reserved": 0, "is_disabled": 0, "fusion_lon": 0.0, "bike_id": "f5249c15cafc5a766ccfb41a64d66811", "lon": -77.0278, "rental_uris": {"ios": "https://dc.lft.to/lastmile_qr_scan", "android": "https://dc.lft.to/lastmile_qr_scan"}}, {"name": "abd9a1fb551e93857e6b6fb4767dc8bf", "fusion_lat": 0.0, "type": "electric_scooter", "lat": 38.91187383333333, "is_reserved": 0, "is_disabled": 0, "fusion_lon": 0.0, "bike_id": "abd9a1fb551e93857e6b6fb4767dc8bf", "lon": -77.031371, "rental_uris": {"ios": "https://dc.lft.to/lastmile_qr_scan", "android": "https://dc.lft.to/lastmile_qr_scan"}}, {"name": "6d52e217bc3ab65f66165c4bb1ab0a85", "fusion_lat": 0.0, "type": "electric_scooter", "lat": 38.911361, "is_reserved": 0, "is_disabled": 0, "fusion_lon": 0.0, "bike_id": "6d52e217bc3ab65f66165c4bb1ab0a85", "lon": -77.03663983333334, "rental_uris": {"ios": "https://dc.lft.to/lastmile_qr_scan", "android": "https://dc.lft.to/lastmile_qr_scan"}}, {"name": "c31b55c35be9e3fbf53105008eeb3ba8", "fusion_lat": 0.0, "type": "electric_scooter", "lat": 38.876496, "is_reserved": 0, "is_disabled": 0, "fusion_lon": 0.0, "bike_id": "c31b55c35be9e3fbf53105008eeb3ba8", "lon": -76.96503766666666, "rental_uris": {"ios": "https://dc.lft.to/lastmile_qr_scan", "android": "https://dc.lft.to/lastmile_qr_scan"}}, {"name": "91168a5cdec3264a694ae963c7c93e5c", "fusion_lat": 0.0, "type": "electric_scooter", "lat": 38.9383525, "is_reserved": 0, "is_disabled": 0, "fusion_lon": 0.0, "bike_id": "91168a5cdec3264a694ae963c7c93e5c", "lon": -77.024858, "rental_uris": {"ios": "https://dc.lft.to/lastmile_qr_scan", "android": "https://dc.lft.to/lastmile_qr_scan"}}, {"name": "bf21191b981d424dd0c1703eb9fd06a0", "fusion_lat": 0.0, "type": "electric_bike", "lat": 38.99064216666667, "is_reserved": 0, "is_disabled": 0, "fusion_lon": 0.0, "bike_id": "bf21191b981d424dd0c1703eb9fd06a0", "lon": -77.10025316666666, "rental_uris": {"ios": "https://dc.lft.to/lastmile_qr_scan", "android": "https://dc.lft.to/lastmile_qr_scan"}}, {"name": "b0d10d1711947bf65c9259fdd9958dc4", "fusion_lat": 0.0, "type": "electric_scooter", "lat": 38.903694, "is_reserved": 0, "is_disabled": 0, "fusion_lon": 0.0, "bike_id": "b0d10d1711947bf65c9259fdd9958dc4", "lon": -77.03993416666667, "rental_uris": {"ios": "https://dc.lft.to/lastmile_qr_scan", "android": "https://dc.lft.to/lastmile_qr_scan"}}, {"name": "4b49764b0f87f15a67fa6c31565aa391", "fusion_lat": 0.0, "type": "electric_scooter", "lat": 38.899956333333336, "is_reserved": 0, "is_disabled": 0, "fusion_lon": 0.0, "bike_id": "4b49764b0f87f15a67fa6c31565aa391", "lon": -77.02713316666667, "rental_uris": {"ios": "https://dc.lft.to/lastmile_qr_scan", "android": "https://dc.lft.to/lastmile_qr_scan"}}, {"name": "c07f62e67b4a9dbd2a2c0e533724df8b", "fusion_lat": 0.0, "type": "electric_scooter", "lat": 38.85803133333334, "is_reserved": 0, "is_disabled": 0, "fusion_lon": 0.0, "bike_id": "c07f62e67b4a9dbd2a2c0e533724df8b", "lon": -76.98650016666667, "rental_uris": {"ios": "https://dc.lft.to/lastmile_qr_scan", "android": "https://dc.lft.to/lastmile_qr_scan"}}, {"name": "d071b0db977ff266fccdbaa4dd6570ab", "fusion_lat": 0.0, "type": "electric_scooter", "lat": 38.93953166666667, "is_reserved": 0, "is_disabled": 0, "fusion_lon": 0.0, "bike_id": "d071b0db977ff266fccdbaa4dd6570ab", "lon": -77.03269433333334, "rental_uris": {"ios": "https://dc.lft.to/lastmile_qr_scan", "android": "https://dc.lft.to/lastmile_qr_scan"}}, {"name": "f0fbf84c511a0f9cdf165a9dbf76053f", "fusion_lat": 0.0, "type": "electric_scooter", "lat": 38.929461333333336, "is_reserved": 0, "is_disabled": 0, "fusion_lon": 0.0, "bike_id": "f0fbf84c511a0f9cdf165a9dbf76053f", "lon": -77.03475, "rental_uris": {"ios": "https://dc.lft.to/lastmile_qr_scan", "android": "https://dc.lft.to/lastmile_qr_scan"}}, {"name": "ca27c2efb45c57b134b0041a2d4f503d", "fusion_lat": 0.0, "type": "electric_scooter", "lat": 38.90251633333333, "is_reserved": 0, "is_disabled": 0, "fusion_lon": 0.0, "bike_id": "ca27c2efb45c57b134b0041a2d4f503d", "lon": -77.04380366666666, "rental_uris": {"ios": "https://dc.lft.to/lastmile_qr_scan", "android": "https://dc.lft.to/lastmile_qr_scan"}}, {"name": "be8358ed6d17f08f1a2c1b7279af3ef4", "fusion_lat": 0.0, "type": "electric_scooter", "lat": 38.91118733333333, "is_reserved": 0, "is_disabled": 0, "fusion_lon": 0.0, "bike_id": "be8358ed6d17f08f1a2c1b7279af3ef4", "lon": -77.03710216666667, "rental_uris": {"ios": "https://dc.lft.to/lastmile_qr_scan", "android": "https://dc.lft.to/lastmile_qr_scan"}}, {"name": "0384a05732d6a7f4c90c35ec8b841a5b", "fusion_lat": 0.0, "type": "electric_scooter", "lat": 38.90595283333333, "is_reserved": 0, "is_disabled": 0, "fusion_lon": 0.0, "bike_id": "0384a05732d6a7f4c90c35ec8b841a5b", "lon": -77.07002966666667, "rental_uris": {"ios": "https://dc.lft.to/lastmile_qr_scan", "android": "https://dc.lft.to/lastmile_qr_scan"}}, {"name": "6996b14d89a4be50eb0029c2f62e64a4", "fusion_lat": 0.0, "type": "electric_scooter", "lat": 38.937903166666665, "is_reserved": 0, "is_disabled": 0, "fusion_lon": 0.0, "bike_id": "6996b14d89a4be50eb0029c2f62e64a4", "lon": -77.05991583333333, "rental_uris": {"ios": "https://dc.lft.to/lastmile_qr_scan", "android": "https://dc.lft.to/lastmile_qr_scan"}}, {"name": "012699b9f6535f2d6feaa31a9dc42126", "fusion_lat": 0.0, "type": "electric_scooter", "lat": 38.92320383333333, "is_reserved": 0, "is_disabled": 0, "fusion_lon": 0.0, "bike_id": "012699b9f6535f2d6feaa31a9dc42126", "lon": -77.04033533333333, "rental_uris": {"ios": "https://dc.lft.to/lastmile_qr_scan", "android": "https://dc.lft.to/lastmile_qr_scan"}}, {"name": "739c0037aa775ecec9fd40546ef2fe73", "fusion_lat": 0.0, "type": "electric_scooter", "lat": 38.922118, "is_reserved": 0, "is_disabled": 0, "fusion_lon": 0.0, "bike_id": "739c0037aa775ecec9fd40546ef2fe73", "lon": -77.04237733333333, "rental_uris": {"ios": "https://dc.lft.to/lastmile_qr_scan", "android": "https://dc.lft.to/lastmile_qr_scan"}}, {"name": "c06d3ad11256baf6d6587ca77ce1dda8", "fusion_lat": 0.0, "type": "electric_scooter", "lat": 38.902683833333334, "is_reserved": 0, "is_disabled": 0, "fusion_lon": 0.0, "bike_id": "c06d3ad11256baf6d6587ca77ce1dda8", "lon": -77.00921383333333, "rental_uris": {"ios": "https://dc.lft.to/lastmile_qr_scan", "android": "https://dc.lft.to/lastmile_qr_scan"}}, {"name": "ecd19733f857c2f24f17166280e548de", "fusion_lat": 0.0, "type": "electric_scooter", "lat": 38.91017516666667, "is_reserved": 0, "is_disabled": 0, "fusion_lon": 0.0, "bike_id": "ecd19733f857c2f24f17166280e548de", "lon": -77.02206616666666, "rental_uris": {"ios": "https://dc.lft.to/lastmile_qr_scan", "android": "https://dc.lft.to/lastmile_qr_scan"}}, {"name": "5e764296a506b9c2b8526b8116a5fc7a", "fusion_lat": 0.0, "type": "electric_scooter", "lat": 38.908965333333335, "is_reserved": 0, "is_disabled": 0, "fusion_lon": 0.0, "bike_id": "5e764296a506b9c2b8526b8116a5fc7a", "lon": -77.031455, "rental_uris": {"ios": "https://dc.lft.to/lastmile_qr_scan", "android": "https://dc.lft.to/lastmile_qr_scan"}}, {"name": "6d9b067b4819ea93178ff46c58f0ccb2", "fusion_lat": 0.0, "type": "electric_scooter", "lat": 38.923733666666664, "is_reserved": 0, "is_disabled": 0, "fusion_lon": 0.0, "bike_id": "6d9b067b4819ea93178ff46c58f0ccb2", "lon": -77.03134716666666, "rental_uris": {"ios": "https://dc.lft.to/lastmile_qr_scan", "android": "https://dc.lft.to/lastmile_qr_scan"}}, {"name": "59de6ad6cd6ec286070c61e949218ddc", "fusion_lat": 0.0, "type": "electric_scooter", "lat": 38.8947605, "is_reserved": 0, "is_disabled": 0, "fusion_lon": 0.0, "bike_id": "59de6ad6cd6ec286070c61e949218ddc", "lon": -77.03066, "rental_uris": {"ios": "https://dc.lft.to/lastmile_qr_scan", "android": "https://dc.lft.to/lastmile_qr_scan"}}, {"name": "ddb708fd76fc0e8c74f761e5b79c55a5", "fusion_lat": 0.0, "type": "electric_bike", "lat": 38.91923233333333, "is_reserved": 0, "is_disabled": 0, "fusion_lon": 0.0, "bike_id": "ddb708fd76fc0e8c74f761e5b79c55a5", "lon": -77.025236, "rental_uris": {"ios": "https://dc.lft.to/lastmile_qr_scan", "android": "https://dc.lft.to/lastmile_qr_scan"}}, {"name": "b8fa9f1c8c598c2b0820a3e16475efc5", "fusion_lat": 0.0, "type": "electric_scooter", "lat": 38.86506983333334, "is_reserved": 0, "is_disabled": 0, "fusion_lon": 0.0, "bike_id": "b8fa9f1c8c598c2b0820a3e16475efc5", "lon": -76.99007133333333, "rental_uris": {"ios": "https://dc.lft.to/lastmile_qr_scan", "android": "https://dc.lft.to/lastmile_qr_scan"}}, {"name": "048fc4e0403de596af6430b4427cd45f", "fusion_lat": 0.0, "type": "electric_scooter", "lat": 38.92490383333333, "is_reserved": 0, "is_disabled": 0, "fusion_lon": 0.0, "bike_id": "048fc4e0403de596af6430b4427cd45f", "lon": -77.0731475, "rental_uris": {"ios": "https://dc.lft.to/lastmile_qr_scan", "android": "https://dc.lft.to/lastmile_qr_scan"}}, {"name": "a163ad7a9ec8ec53c4b0f0994e3058fe", "fusion_lat": 0.0, "type": "electric_scooter", "lat": 38.938213, "is_reserved": 0, "is_disabled": 0, "fusion_lon": 0.0, "bike_id": "a163ad7a9ec8ec53c4b0f0994e3058fe", "lon": -77.03278866666666, "rental_uris": {"ios": "https://dc.lft.to/lastmile_qr_scan", "android": "https://dc.lft.to/lastmile_qr_scan"}}, {"name": "33a0d5533271fe8211845dccc60074da", "fusion_lat": 0.0, "type": "electric_bike", "lat": 38.965029, "is_reserved": 0, "is_disabled": 0, "fusion_lon": 0.0, "bike_id": "33a0d5533271fe8211845dccc60074da", "lon": -77.10328966666667, "rental_uris": {"ios": "https://dc.lft.to/lastmile_qr_scan", "android": "https://dc.lft.to/lastmile_qr_scan"}}, {"name": "f5dff04ae792f7f0a383afdd3040153c", "fusion_lat": 0.0, "type": "electric_scooter", "lat": 38.93385583333333, "is_reserved": 0, "is_disabled": 0, "fusion_lon": 0.0, "bike_id": "f5dff04ae792f7f0a383afdd3040153c", "lon": -77.05763333333333, "rental_uris": {"ios": "https://dc.lft.to/lastmile_qr_scan", "android": "https://dc.lft.to/lastmile_qr_scan"}}, {"name": "aad65e4994d67b6aeefb6b202fe60a57", "fusion_lat": 0.0, "type": "electric_scooter", "lat": 38.908476, "is_reserved": 0, "is_disabled": 0, "fusion_lon": 0.0, "bike_id": "aad65e4994d67b6aeefb6b202fe60a57", "lon": -77.0204345, "rental_uris": {"ios": "https://dc.lft.to/lastmile_qr_scan", "android": "https://dc.lft.to/lastmile_qr_scan"}}, {"name": "1ae36d691c88d612690bba35d7f768ca", "fusion_lat": 0.0, "type": "electric_scooter", "lat": 38.942917333333334, "is_reserved": 0, "is_disabled": 0, "fusion_lon": 0.0, "bike_id": "1ae36d691c88d612690bba35d7f768ca", "lon": -77.02168616666667, "rental_uris": {"ios": "https://dc.lft.to/lastmile_qr_scan", "android": "https://dc.lft.to/lastmile_qr_scan"}}, {"name": "9d68b1f772d4c8ab89497a535ba28406", "fusion_lat": 0.0, "type": "electric_scooter", "lat": 38.909750833333334, "is_reserved": 0, "is_disabled": 0, "fusion_lon": 0.0, "bike_id": "9d68b1f772d4c8ab89497a535ba28406", "lon": -77.03813783333334, "rental_uris": {"ios": "https://dc.lft.to/lastmile_qr_scan", "android": "https://dc.lft.to/lastmile_qr_scan"}}, {"name": "4a342fc20a8f8c197b4981479967cbaf", "fusion_lat": 0.0, "type": "electric_scooter", "lat": 38.93000983333334, "is_reserved": 0, "is_disabled": 0, "fusion_lon": 0.0, "bike_id": "4a342fc20a8f8c197b4981479967cbaf", "lon": -77.0231125, "rental_uris": {"ios": "https://dc.lft.to/lastmile_qr_scan", "android": "https://dc.lft.to/lastmile_qr_scan"}}, {"name": "326f094d9be465aa66cc00b69df3b384", "fusion_lat": 0.0, "type": "electric_scooter", "lat": 38.912560666666664, "is_reserved": 0, "is_disabled": 0, "fusion_lon": 0.0, "bike_id": "326f094d9be465aa66cc00b69df3b384", "lon": -77.022273, "rental_uris": {"ios": "https://dc.lft.to/lastmile_qr_scan", "android": "https://dc.lft.to/lastmile_qr_scan"}}, {"name": "386a8b09641e01dabe2455254c49823d", "fusion_lat": 0.0, "type": "electric_scooter", "lat": 38.8973625, "is_reserved": 0, "is_disabled": 0, "fusion_lon": 0.0, "bike_id": "386a8b09641e01dabe2455254c49823d", "lon": -76.94253316666666, "rental_uris": {"ios": "https://dc.lft.to/lastmile_qr_scan", "android": "https://dc.lft.to/lastmile_qr_scan"}}, {"name": "89f8b11b0d9ac6073cefaa7386ef0681", "fusion_lat": 0.0, "type": "electric_scooter", "lat": 38.900129666666665, "is_reserved": 0, "is_disabled": 0, "fusion_lon": 0.0, "bike_id": "89f8b11b0d9ac6073cefaa7386ef0681", "lon": -77.03323883333333, "rental_uris": {"ios": "https://dc.lft.to/lastmile_qr_scan", "android": "https://dc.lft.to/lastmile_qr_scan"}}, {"name": "b7f97302dfd2fe7384ea13b823025a39", "fusion_lat": 0.0, "type": "electric_scooter", "lat": 38.907958666666666, "is_reserved": 0, "is_disabled": 0, "fusion_lon": 0.0, "bike_id": "b7f97302dfd2fe7384ea13b823025a39", "lon": -77.04823616666667, "rental_uris": {"ios": "https://dc.lft.to/lastmile_qr_scan", "android": "https://dc.lft.to/lastmile_qr_scan"}}, {"name": "0ff81f346e431e61acc74f82787b0a00", "fusion_lat": 0.0, "type": "electric_scooter", "lat": 38.90861866666667, "is_reserved": 0, "is_disabled": 0, "fusion_lon": 0.0, "bike_id": "0ff81f346e431e61acc74f82787b0a00", "lon": -77.02714766666666, "rental_uris": {"ios": "https://dc.lft.to/lastmile_qr_scan", "android": "https://dc.lft.to/lastmile_qr_scan"}}, {"name": "6d6f62d4da2610dc085d918063c5ccdf", "fusion_lat": 0.0, "type": "electric_bike", "lat": 38.936024833333335, "is_reserved": 0, "is_disabled": 0, "fusion_lon": 0.0, "bike_id": "6d6f62d4da2610dc085d918063c5ccdf", "lon": -77.02115733333333, "rental_uris": {"ios": "https://dc.lft.to/lastmile_qr_scan", "android": "https://dc.lft.to/lastmile_qr_scan"}}, {"name": "c300ce37ce95f048d8e49a75db79214b", "fusion_lat": 0.0, "type": "electric_scooter", "lat": 38.91701333333334, "is_reserved": 0, "is_disabled": 0, "fusion_lon": 0.0, "bike_id": "c300ce37ce95f048d8e49a75db79214b", "lon": -77.0246205, "rental_uris": {"ios": "https://dc.lft.to/lastmile_qr_scan", "android": "https://dc.lft.to/lastmile_qr_scan"}},