{"data": {"bikes": [{"fusion_lat": 0.0, "type": "electric_scooter", "name": "dbfb587de8f7ebc6958ec2563066a2b6", "fusion_lon": 0.0, "bike_id": "dbfb587de8f7ebc6958ec2563066a2b6", "is_reserved": 0, "rental_uris": {"android": "https://dc.lft.to/lastmile_qr_scan", "ios": "https://dc.lft.to/lastmile_qr_scan"}, "lat": 38.910552833333334, "is_disabled": 0, "lon": -77.05318616666666}, {"fusion_lat": 0.0, "type": "electric_scooter", "name": "db87fbc88173593423b894ed9ec03335", "fusion_lon": 0.0, "bike_id": "db87fbc88173593423b894ed9ec03335", "is_reserved": 0, "rental_uris": {"android": "https://dc.lft.to/lastmile_qr_scan", "ios": "https://dc.lft.to/lastmile_qr_scan"}, "lat": 38.930868, "is_disabled": 0, "lon": -77.0375185}, {"fusion_lat": 0.0, "type": "electric_scooter", "name": "6491a16901198581f4ad1e609d736367", "fusion_lon": 0.0, "bike_id": "6491a16901198581f4ad1e609d736367", "is_reserved": 0, "rental_uris": {"android": "https://dc.lft.to/lastmile_qr_scan", "ios": "https://dc.lft.to/lastmile_qr_scan"}, "lat": 38.88685433333333, "is_disabled": 0, "lon": -76.95469633333333}, {"fusion_lat": 0.0, "type": "electric_scooter", "name": "a2c8c6c7028c3a6bfa598e257a32317e", "fusion_lon": 0.0, "bike_id": "a2c8c6c7028c3a6bfa598e257a32317e", "is_reserved": 0, "rental_uris": {"android": "https://dc.lft.to/lastmile_qr_scan", "ios": "https://dc.lft.to/lastmile_qr_scan"}, "lat": 38.908849333333336, "is_disabled": 0, "lon": -76.985444}, {"fusion_lat": 0.0, "type": "electric_scooter", "name": "02c40976fde526874a07abe6f4d23247", "fusion_lon": 0.0, "bike_id": "02c40976fde526874a07abe6f4d23247", "is_reserved": 0, "rental_uris": {"android": "https://dc.lft.to/lastmile_qr_scan", "ios": "https://dc.lft.to/lastmile_qr_scan"}, "lat": 38.86502516666667, "is_disabled": 0, "lon": -76.9900225}, {"fusion_lat": 0.0, "type": "electric_scooter", "name": "3e48a671baa55dd1d89f6575b4b9f59a", "fusion_lon": 0.0, "bike_id": "3e48a671baa55dd1d89f6575b4b9f59a", "is_reserved": 0, "rental_uris": {"android": "https://dc.lft.to/lastmile_qr_scan", "ios": "https://dc.lft.to/lastmile_qr_scan"}, "lat": 38.887401833333335, "is_disabled": 0, "lon": -77.02737516666667}, {"fusion_lat": 0.0, "type": "electric_scooter", "name": "42fd863b3860e07e46436f685fb899ab", "fusion_lon": 0.0, "bike_id": "42fd863b3860e07e46436f685fb899ab", "is_reserved": 0, "rental_uris": {"android": "https://dc.lft.to/lastmile_qr_scan", "ios": "https://dc.lft.to/lastmile_qr_scan"}, "lat": 38.89220816666667, "is_disabled": 0, "lon": -77.031441}, {"fusion_lat": 0.0, "type": "electric_scooter", "name": "8ecbe43a680e46612690867f789ef4ae", "fusion_lon": 0.0, "bike_id": "8ecbe43a680e46612690867f789ef4ae", "is_reserved": 0, "rental_uris": {"android": "https://dc.lft.to/lastmile_qr_scan", "ios": "https://dc.lft.to/lastmile_qr_scan"}, "lat": 38.9258205, "is_disabled": 0, "lon": -77.026114}, {"fusion_lat": 0.0, "type": "electric_scooter", "name": "9cc7c33e3939fdd2e7fd70208a519637", "fusion_lon": 0.0, "bike_id": "9cc7c33e3939fdd2e7fd70208a519637", "is_reserved": 0, "rental_uris": {"android": "https://dc.lft.to/lastmile_qr_scan", "ios": "https://dc.lft.to/lastmile_qr_scan"}, "lat": 38.929853, "is_disabled": 0, "lon": -77.03657766666667}, {"fusion_lat": 0.0, "type": "electric_scooter", "name": "14f636f195304585e3a61a1b90962521", "fusion_lon": 0.0, "bike_id": "14f636f195304585e3a61a1b90962521", "is_reserved": 0, "rental_uris": {"android": "https://dc.lft.to/lastmile_qr_scan", "ios": "https://dc.lft.to/lastmile_qr_scan"}, "lat": 38.907304833333335, "is_disabled": 0, "lon": -77.031842}, {"fusion_lat": 0.0, "type": "electric_scooter", "name": "2e51cbe4fc9d719e03668e7d222a6630", "fusion_lon": 0.0, "bike_id": "2e51cbe4fc9d719e03668e7d222a6630", "is_reserved": 0, "rental_uris": {"android": "https://dc.lft.to/lastmile_qr_scan", "ios": "https://dc.lft.to/lastmile_qr_scan"}, "lat": 38.92334133333333, "is_disabled": 0, "lon": -77.03613633333333}, {"fusion_lat": 0.0, "type": "electric_scooter", "name": "0cf53cda992303672caeec071882b1d8", "fusion_lon": 0.0, "bike_id": "0cf53cda992303672caeec071882b1d8", "is_reserved": 0, "rental_uris": {"android": "https://dc.lft.to/lastmile_qr_scan", "ios": "https://dc.lft.to/lastmile_qr_scan"}, "lat": 38.899248166666666, "is_disabled": 0, "lon": -77.00345133333333}, {"fusion_lat": 0.0, "type": "electric_scooter", "name": "f727b4d59209e0e7413763e114c9add0", "fusion_lon": 0.0, "bike_id": "f727b4d59209e0e7413763e114c9add0", "is_reserved": 0, "rental_uris": {"android": "https://dc.lft.to/lastmile_qr_scan", "ios": "https://dc.lft.to/lastmile_qr_scan"}, "lat": 38.901901, "is_disabled": 0, "lon": -77.0465385}, {"fusion_lat": 0.0, "type": "electric_scooter", "name": "637fc6cf907c35167f1bd7437b200ebe", "fusion_lon": 0.0, "bike_id": "637fc6cf907c35167f1bd7437b200ebe", "is_reserved": 0, "rental_uris": {"android": "https://dc.lft.to/lastmile_qr_scan", "ios": "https://dc.lft.to/lastmile_qr_scan"}, "lat": 38.94512266666667, "is_disabled": 0, "lon": -77.03309666666667}, {"fusion_lat": 0.0, "type": "electric_scooter", "name": "d28c3f058b0909eff8ac445fff722cad", "fusion_lon": 0.0, "bike_id": "d28c3f058b0909eff8ac445fff722cad", "is_reserved": 0, "rental_uris": {"android": "https://dc.lft.to/lastmile_qr_scan", "ios": "https://dc.lft.to/lastmile_qr_scan"}, "lat": 38.904093333333336, "is_disabled": 0, "lon": -76.9809165}, {"fusion_lat": 0.0, "type": "electric_scooter", "name": "20ce579f479b52c36ad0124b5ff14e6a", "fusion_lon": 0.0, "bike_id": "20ce579f479b52c36ad0124b5ff14e6a", "is_reserved": 0, "rental_uris": {"android": "https://dc.lft.to/lastmile_qr_scan", "ios": "https://dc.lft.to/lastmile_qr_scan"}, "lat": 38.923266166666664, "is_disabled": 0, "lon": -77.036116}, {"fusion_lat": 0.0, "type": "electric_scooter", "name": "d6762a67695b63a3ed9f42fac0adb5d6", "fusion_lon": 0.0, "bike_id": "d6762a67695b63a3ed9f42fac0adb5d6", "is_reserved": 0, "rental_uris": {"android": "https://dc.lft.to/lastmile_qr_scan", "ios": "https://dc.lft.to/lastmile_qr_scan"}, "lat": 38.916863, "is_disabled": 0, "lon": -77.029428}, {"fusion_lat": 0.0, "type": "electric_bike", "name": "1eb78fc2bec36eee55e15cc5e9a26921", "fusion_lon": 0.0, "bike_id": "1eb78fc2bec36eee55e15cc5e9a26921", "is_reserved": 0, "rental_uris": {"android": "https://dc.lft.to/lastmile_qr_scan", "ios": "https://dc.lft.to/lastmile_qr_scan"}, "lat": 38.854889666666665, "is_disabled": 0, "lon": -77.11610333333333}, {"fusion_lat": 0.0, "type": "electric_scooter", "name": "85aef07810f5cdec98d32f48aec0d23f", "fusion_lon": 0.0, "bike_id": "85aef07810f5cdec98d32f48aec0d23f", "is_reserved": 0, "rental_uris": {"android": "https://dc.lft.to/lastmile_qr_scan", "ios": "https://dc.lft.to/lastmile_qr_scan"}, "lat": 38.90259916666667, "is_disabled": 0, "lon": -77.005995}, {"fusion_lat": 0.0, "type": "electric_scooter", "name": "dbaa2c4b5dbd96b1b92654af215593bc", "fusion_lon": 0.0, "bike_id": "dbaa2c4b5dbd96b1b92654af215593bc", "is_reserved": 0, "rental_uris": {"android": "https://dc.lft.to/lastmile_qr_scan", "ios": "https://dc.lft.to/lastmile_qr_scan"}, "lat": 38.92559133333334, "is_disabled": 0, "lon": -77.02283866666667}, {"fusion_lat": 0.0, "type": "electric_scooter", "name": "5348dd2b7fc7c312e247912771996533", "fusion_lon": 0.0, "bike_id": "5348dd2b7fc7c312e247912771996533", "is_reserved": 0, "rental_uris": {"android": "https://dc.lft.to/lastmile_qr_scan", "ios": "https://dc.lft.to/lastmile_qr_scan"}, "lat": 38.911107333333334, "is_disabled": 0, "lon": -77.03152866666667}, {"fusion_lat": 0.0, "type": "electric_scooter", "name": "cd73114557b69d7e61803c11331f0951", "fusion_lon": 0.0, "bike_id": "cd73114557b69d7e61803c11331f0951", "is_reserved": 0, "rental_uris": {"android": "https://dc.lft.to/lastmile_qr_scan", "ios": "https://dc.lft.to/lastmile_qr_scan"}, "lat": 38.921704, "is_disabled": 0, "lon": -77.0335525}, {"fusion_lat": 0.0, "type": "electric_bike", "name": "9a1c7029845fb190fa830ecb4575e7c2", "fusion_lon": 0.0, "bike_id": "9a1c7029845fb190fa830ecb4575e7c2", "is_reserved": 0, "rental_uris": {"android": "https://dc.lft.to/lastmile_qr_scan", "ios": "https://dc.lft.to/lastmile_qr_scan"}, "lat": 39.05495783333333, "is_disabled": 0, "lon": -77.11787783333334}, {"fusion_lat": 0.0, "type": "electric_scooter", "name": "51dc2e0629be5f8cf676be71b53c2ddc", "fusion_lon": 0.0, "bike_id": "51dc2e0629be5f8cf676be71b53c2ddc", "is_reserved": 0, "rental_uris": {"android": "https://dc.lft.to/lastmile_qr_scan", "ios": "https://dc.lft.to/lastmile_qr_scan"}, "lat": 38.91984183333334, "is_disabled": 0, "lon": -77.03797266666666}, {"fusion_lat": 0.0, "type": "electric_scooter", "name": "6d1c0b31bae9ea04d76c039b95c244fe", "fusion_lon": 0.0, "bike_id": "6d1c0b31bae9ea04d76c039b95c244fe", "is_reserved": 0, "rental_uris": {"android": "https://dc.lft.to/lastmile_qr_scan", "ios": "https://dc.lft.to/lastmile_qr_scan"}, "lat": 38.9208585, "is_disabled": 0, "lon": -77.023235}, {"fusion_lat": 0.0, "type": "electric_bike", "name": "07eed66c0e2b07a0442d8b187172be69", "fusion_lon": 0.0, "bike_id": "07eed66c0e2b07a0442d8b187172be69", "is_reserved": 0, "rental_uris": {"android": "https://dc.lft.to/lastmile_qr_scan", "ios": "https://dc.lft.to/lastmile_qr_scan"}, "lat": 38.96306766666667, "is_disabled": 0, "lon": -77.01102083333333}, {"fusion_lat": 0.0, "type": "electric_scooter", "name": "83e15f7c379b03d9fbf61c8cb171d7f5", "fusion_lon": 0.0, "bike_id": "83e15f7c379b03d9fbf61c8cb171d7f5", "is_reserved": 0, "rental_uris": {"android": "https://dc.lft.to/lastmile_qr_scan", "ios": "https://dc.lft.to/lastmile_qr_scan"}, "lat": 38.916814333333335, "is_disabled": 0, "lon": -77.0281285}, {"fusion_lat": 0.0, "type": "electric_scooter", "name": "dcc9ee1c938521300d0dddd8ee5dae5a", "fusion_lon": 0.0, "bike_id": "dcc9ee1c938521300d0dddd8ee5dae5a", "is_reserved": 0, "rental_uris": {"android": "https://dc.lft.to/lastmile_qr_scan", "ios": "https://dc.lft.to/lastmile_qr_scan"}, "lat": 38.87968016666667, "is_disabled": 0, "lon": -76.987513}, {"fusion_lat": 0.0, "type": "electric_bike", "name": "c7e88d0bdb2a3a7c981fedb57da04c19", "fusion_lon": 0.0, "bike_id": "c7e88d0bdb2a3a7c981fedb57da04c19", "is_reserved": 0, "rental_uris": {"android": "https://dc.lft.to/lastmile_qr_scan", "ios": "https://dc.lft.to/lastmile_qr_scan"}, "lat": 39.034253, "is_disabled": 0, "lon": -77.041019}, {"fusion_lat": 0.0, "type": "electric_scooter", "name": "b65fb58aa67fefad21e3d6c814c8d7dc", "fusion_lon": 0.0, "bike_id": "b65fb58aa67fefad21e3d6c814c8d7dc", "is_reserved": 0, "rental_uris": {"android": "https://dc.lft.to/lastmile_qr_scan", "ios": "https://dc.lft.to/lastmile_qr_scan"}, "lat": 38.921337, "is_disabled": 0, "lon": -77.01797983333333}, {"fusion_lat": 0.0, "type": "electric_scooter", "name": "7a1f82665155d5c07cf2f9d38cf4a49b", "fusion_lon": 0.0, "bike_id": "7a1f82665155d5c07cf2f9d38cf4a49b", "is_reserved": 0, "rental_uris": {"android": "https://dc.lft.to/lastmile_qr_scan", "ios": "https://dc.lft.to/lastmile_qr_scan"}, "lat": 38.892580333333335, "is_disabled": 0, "lon": -76.98841166666666}, {"fusion_lat": 0.0, "type": "electric_bike", "name": "5f15b61e16d572c77568655a7888aea4", "fusion_lon": 0.0, "bike_id": "5f15b61e16d572c77568655a7888aea4", "is_reserved": 0, "rental_uris": {"android": "https://dc.lft.to/lastmile_qr_scan", "ios": "https://dc.lft.to/lastmile_qr_scan"}, "lat": 38.88334783333333, "is_disabled": 0, "lon": -77.065685}, {"fusion_lat": 0.0, "type": "electric_scooter", "name": "04177145de6c6583fbfad5b1c5aedf91", "fusion_lon": 0.0, "bike_id": "04177145de6c6583fbfad5b1c5aedf91", "is_reserved": 0, "rental_uris": {"android": "https://dc.lft.to/lastmile_qr_scan", "ios": "https://dc.lft.to/lastmile_qr_scan"}, "lat": 38.93325166666666, "is_disabled": 0, "lon": -77.04403833333333}, {"fusion_lat": 0.0, "type": "electric_scooter", "name": "aafc435f6fc55f9fda444f6918fc3c7a", "fusion_lon": 0.0, "bike_id": "aafc435f6fc55f9fda444f6918fc3c7a", "is_reserved": 0, "rental_uris": {"android": "https://dc.lft.to/lastmile_qr_scan", "ios": "https://dc.lft.to/lastmile_qr_scan"}, "lat": 38.92439616666667, "is_disabled": 0, "lon": -77.0402465}, {"fusion_lat": 0.0, "type": "electric_scooter", "name": "17af2ebf495d88bdb697450afda9c9f9", "fusion_lon": 0.0, "bike_id": "17af2ebf495d88bdb697450afda9c9f9", "is_reserved": 0, "rental_uris": {"android": "https://dc.lft.to/lastmile_qr_scan", "ios": "https://dc.lft.to/lastmile_qr_scan"}, "lat": 38.871577333333335, "is_disabled": 0, "lon": -76.97753583333333}, {"fusion_lat": 0.0, "type": "electric_scooter", "name": "9060d5e6aa166db5b25549d37d567b02", "fusion_lon": 0.0, "bike_id": "9060d5e6aa166db5b25549d37d567b02", "is_reserved": 0, "rental_uris": {"android": "https://dc.lft.to/lastmile_qr_scan", "ios": "https://dc.lft.to/lastmile_qr_scan"}, "lat": 38.9163305, "is_disabled": 0, "lon": -77.01082883333333}, {"fusion_lat": 0.0, "type": "electric_scooter", "name": "276d90005d1d7519d1d6cf9687929f14", "fusion_lon": 0.0, "bike_id": "276d90005d1d7519d1d6cf9687929f14", "is_reserved": 0, "rental_uris": {"android": "https://dc.lft.to/lastmile_qr_scan", "ios": "https://dc.lft.to/lastmile_qr_scan"}, "lat": 38.955576666666666, "is_disabled": 0, "lon": -77.0700405}, {"fusion_lat": 0.0, "type": "electric_scooter", "name": "8c8eb76e1be44d95259a05c67d771f96", "fusion_lon": 0.0, "bike_id": "8c8eb76e1be44d95259a05c67d771f96", "is_reserved": 0, "rental_uris": {"android": "https://dc.lft.to/lastmile_qr_scan", "ios": "https://dc.lft.to/lastmile_qr_scan"}, "lat": 38.93093566666667, "is_disabled": 0, "lon": -77.0248095}, {"fusion_lat": 0.0, "type": "electric_scooter", "name": "4d6a83d53c6b76046ee0a15cde5a8a7a", "fusion_lon": 0.0, "bike_id": "4d6a83d53c6b76046ee0a15cde5a8a7a", "is_reserved": 0, "rental_uris": {"android": "https://dc.lft.to/lastmile_qr_scan", "ios": "https://dc.lft.to/lastmile_qr_scan"}, "lat": 38.95021666666667, "is_disabled": 0, "lon": -77.06689933333334}, {"fusion_lat": 0.0, "type": "electric_scooter", "name": "43d6a502da6cdbbae582caeca79a06de", "fusion_lon": 0.0, "bike_id": "43d6a502da6cdbbae582caeca79a06de", "is_reserved": 0, "rental_uris": {"android": "https://dc.lft.to/lastmile_qr_scan", "ios": "https://dc.lft.to/lastmile_qr_scan"}, "lat": 38.913878, "is_disabled": 0, "lon": -77.03317666666666}, {"fusion_lat": 0.0, "type": "electric_scooter", "name": "0d72e07a177474c50e7ade27b2dd03e7", "fusion_lon": 0.0, "bike_id": "0d72e07a177474c50e7ade27b2dd03e7", "is_reserved": 0, "rental_uris": {"android": "https://dc.lft.to/lastmile_qr_scan", "ios": "https://dc.lft.to/lastmile_qr_scan"}, "lat": 38.91708466666667, "is_disabled": 0, "lon": -77.008674}, {"fusion_lat": 0.0, "type": "electric_scooter", "name": "708c711d91910fe76e8c9e0151bf93c5", "fusion_lon": 0.0, "bike_id": "708c711d91910fe76e8c9e0151bf93c5", "is_reserved": 0, "rental_uris": {"android": "https://dc.lft.to/lastmile_qr_scan", "ios": "https://dc.lft.to/lastmile_qr_scan"}, "lat": 38.922730666666666, "is_disabled": 0, "lon": -77.03675816666667}, {"fusion_lat": 0.0, "type": "electric_scooter", "name": "24e4e3b9bbeab2f93fae8aa414e2ab7a", "fusion_lon": 0.0, "bike_id": "24e4e3b9bbeab2f93fae8aa414e2ab7a", "is_reserved": 0, "rental_uris": {"android": "https://dc.lft.to/lastmile_qr_scan", "ios": "https://dc.lft.to/lastmile_qr_scan"}, "lat": 38.917767166666664, "is_disabled": 0, "lon": -77.02310183333333}, {"fusion_lat": 0.0, "type": "electric_scooter", "name": "634daeb9474193351b207cf9d6e3f4e0", "fusion_lon": 0.0, "bike_id": "634daeb9474193351b207cf9d6e3f4e0", "is_reserved": 0, "rental_uris": {"android": "https://dc.lft.to/lastmile_qr_scan", "ios": "https://dc.lft.to/lastmile_qr_scan"}, "lat": 38.921442166666665, "is_disabled": 0, "lon": -77.0350745}, {"fusion_lat": 0.0, "type": "electric_scooter", "name": "db4248c2d6ae1f06eefa73733dc90a2f", "fusion_lon": 0.0, "bike_id": "db4248c2d6ae1f06eefa73733dc90a2f", "is_reserved": 0, "rental_uris": {"android": "https://dc.lft.to/lastmile_qr_scan", "ios": "https://dc.lft.to/lastmile_qr_scan"}, "lat": 38.89223283333333, "is_disabled": 0, "lon": -77.03184733333333}, {"fusion_lat": 0.0, "type": "electric_scooter", "name": "a27659b3bac8dd8a4d589ed8aa7c434b", "fusion_lon": 0.0, "bike_id": "a27659b3bac8dd8a4d589ed8aa7c434b", "is_reserved": 0, "rental_uris": {"android": "https://dc.lft.to/lastmile_qr_scan", "ios": "https://dc.lft.to/lastmile_qr_scan"}, "lat": 38.90726933333333, "is_disabled": 0, "lon": -77.07434766666667}, {"fusion_lat": 0.0, "type": "electric_scooter", "name": "2c4172a665f0d59fa7ad120d03c9c71b", "fusion_lon": 0.0, "bike_id": "2c4172a665f0d59fa7ad120d03c9c71b", "is_reserved": 0, "rental_uris": {"android": "https://dc.lft.to/lastmile_qr_scan", "ios": "https://dc.lft.to/lastmile_qr_scan"}, "lat": 38.91118433333333, "is_disabled": 0, "lon": -77.02078616666667}, {"fusion_lat": 0.0, "type": "electric_scooter", "name": "a0840151fd78c33e9e06bbd08b0459f3", "fusion_lon": 0.0, "bike_id": "a0840151fd78c33e9e06bbd08b0459f3", "is_reserved": 0, "rental_uris": {"android": "https://dc.lft.to/lastmile_qr_scan", "ios": "https://dc.lft.to/lastmile_qr_scan"}, "lat": 38.905736166666664, "is_disabled": 0, "lon": -77.0028455}, {"fusion_lat": 0.0, "type": "electric_scooter", "name": "3621f632fc02bb7a7765120316296699", "fusion_lon": 0.0, "bike_id": "3621f632fc02bb7a7765120316296699", "is_reserved": 0, "rental_uris": {"android": "https://dc.lft.to/lastmile_qr_scan", "ios": "https://dc.lft.to/lastmile_qr_scan"}, "lat": 38.91715716666667, "is_disabled": 0, "lon": -77.03860366666666}, {"fusion_lat": 0.0, "type": "electric_scooter", "name": "de1b31c7b8cfa15dda3ba5bcb9d84a7a", "fusion_lon": 0.0, "bike_id": "de1b31c7b8cfa15dda3ba5bcb9d84a7a", "is_reserved": 0, "rental_uris": {"android": "https://dc.lft.to/lastmile_qr_scan", "ios": "https://dc.lft.to/lastmile_qr_scan"}, "lat": 38.909297333333335, "is_disabled": 0, "lon": -77.04480916666667}, {"fusion_lat": 0.0, "type": "electric_scooter", "name": "142d5bd2fe7a479edaae15480a48af5c", "fusion_lon": 0.0, "bike_id": "142d5bd2fe7a479edaae15480a48af5c", "is_reserved": 0, "rental_uris": {"android": "https://dc.lft.to/lastmile_qr_scan", "ios": "https://dc.lft.to/lastmile_qr_scan"}, "lat": 38.92610416666667, "is_disabled": 0, "lon": -77.04303316666666}, {"fusion_lat": 0.0, "type": "electric_scooter", "name": "8fdf35c4c45ccbc2ac8875fb40cfb2c2", "fusion_lon": 0.0, "bike_id": "8fdf35c4c45ccbc2ac8875fb40cfb2c2", "is_reserved": 0, "rental_uris": {"android": "https://dc.lft.to/lastmile_qr_scan", "ios": "https://dc.lft.to/lastmile_qr_scan"}, "lat": 38.90357816666667, "is_disabled": 0, "lon": -76.982648}, {"fusion_lat": 0.0, "type": "electric_scooter", "name": "c04616add30e27b3e5a707a5c48f52d6", "fusion_lon": 0.0, "bike_id": "c04616add30e27b3e5a707a5c48f52d6", "is_reserved": 0, "rental_uris": {"android": "https://dc.lft.to/lastmile_qr_scan", "ios": "https://dc.lft.to/lastmile_qr_scan"}, "lat": 38.915662, "is_disabled": 0, "lon": -77.02425783333334}, {"fusion_lat": 0.0, "type": "electric_scooter", "name": "498eb64817e871078980dd86d967db42", "fusion_lon": 0.0, "bike_id": "498eb64817e871078980dd86d967db42", "is_reserved": 0, "rental_uris": {"android": "https://dc.lft.to/lastmile_qr_scan", "ios": "https://dc.lft.to/lastmile_qr_scan"}, "lat": 38.90023583333333, "is_disabled": 0, "lon": -77.04871016666667}, {"fusion_lat": 0.0, "type": "electric_scooter", "name": "8edf08d65df9c756db4e069e9288ae6d", "fusion_lon": 0.0, "bike_id": "8edf08d65df9c756db4e069e9288ae6d", "is_reserved": 0, "rental_uris": {"android": "https://dc.lft.to/lastmile_qr_scan", "ios": "https://dc.lft.to/lastmile_qr_scan"}, "lat": 38.911800166666666, "is_disabled": 0, "lon": -77.04172316666667}, {"fusion_lat": 0.0, "type": "electric_scooter", "name": "404259925f42136237ce946210d808ce", "fusion_lon": 0.0, "bike_id": "404259925f42136237ce946210d808ce", "is_reserved": 0, "rental_uris": {"android": "https://dc.lft.to/lastmile_qr_scan", "ios": "https://dc.lft.to/lastmile_qr_scan"}, "lat": 38.919087, "is_disabled": 0, "lon": -77.034398}, {"fusion_lat": 0.0, "type": "electric_scooter", "name": "3190bc382bb093d3ba073e60e7e6e571", "fusion_lon": 0.0, "bike_id": "3190bc382bb093d3ba073e60e7e6e571", "is_reserved": 0, "rental_uris": {"android": "https://dc.lft.to/lastmile_qr_scan", "ios": "https://dc.lft.to/lastmile_qr_scan"}, "lat": 38.897198333333336, "is_disabled": 0, "lon": -77.03335216666666}, {"fusion_lat": 0.0, "type": "electric_bike", "name": "cd0a96842f4929392bea21988b2a71fc", "fusion_lon": 0.0, "bike_id": "cd0a96842f4929392bea21988b2a71fc", "is_reserved": 0, "rental_uris": {"android": "https://dc.lft.to/lastmile_qr_scan", "ios": "https://dc.lft.to/lastmile_qr_scan"}, "lat": 38.9453385, "is_disabled": 0, "lon": -77.015467}, {"fusion_lat": 0.0, "type": "electric_scooter", "name": "b1eb608503720d295f9a775769481b60", "fusion_lon": 0.0, "bike_id": "b1eb608503720d295f9a775769481b60", "is_reserved": 0, "rental_uris": {"android": "https://dc.lft.to/lastmile_qr_scan", "ios": "https://dc.lft.to/lastmile_qr_scan"}, "lat": 38.892235166666666, "is_disabled": 0, "lon": -77.032202}, {"fusion_lat": 0.0, "type": "electric_scooter", "name": "16e1bc39d495b314f9d73161e339c707", "fusion_lon": 0.0, "bike_id": "16e1bc39d495b314f9d73161e339c707", "is_reserved": 0, "rental_uris": {"android": "https://dc.lft.to/lastmile_qr_scan", "ios": "https://dc.lft.to/lastmile_qr_scan"}, "lat": 38.91347616666667, "is_disabled": 0, "lon": -77.04559616666667}, {"fusion_lat": 0.0, "type": "electric_scooter", "name": "5d23d48b2f1bd328e35c0abb233c03da", "fusion_lon": 0.0, "bike_id": "5d23d48b2f1bd328e35c0abb233c03da", "is_reserved": 0, "rental_uris": {"android": "https://dc.lft.to/lastmile_qr_scan", "ios": "https://dc.lft.to/lastmile_qr_scan"}, "lat": 38.90389233333333, "is_disabled": 0, "lon": -77.04454883333334}, {"fusion_lat": 0.0, "type": "electric_scooter", "name": "89d38cc3e402429e5208eb968ac07779", "fusion_lon": 0.0, "bike_id": "89d38cc3e402429e5208eb968ac07779", "is_reserved": 0, "rental_uris": {"android": "https://dc.lft.to/lastmile_qr_scan", "ios": "https://dc.lft.to/lastmile_qr_scan"}, "lat": 38.9156625, "is_disabled": 0, "lon": -77.03203333333333}, {"fusion_lat": 0.0, "type": "electric_scooter", "name": "54e3424c9d8a494a6cfc494cc7d8c758", "fusion_lon": 0.0, "bike_id": "54e3424c9d8a494a6cfc494cc7d8c758", "is_reserved": 0, "rental_uris": {"android": "https://dc.lft.to/lastmile_qr_scan", "ios": "https://dc.lft.to/lastmile_qr_scan"}, "lat": 38.90714933333334, "is_disabled": 0, "lon": -77.0475415}, {"fusion_lat": 0.0, "type": "electric_scooter", "name": "31ee9e5b3a4525bd1b8ce8cb14de7684", "fusion_lon": 0.0, "bike_id": "31ee9e5b3a4525bd1b8ce8cb14de7684", "is_reserved": 0, "rental_uris": {"android": "https://dc.lft.to/lastmile_qr_scan", "ios": "https://dc.lft.to/lastmile_qr_scan"}, "lat": 38.967731, "is_disabled": 0, "lon": -77.01509166666666}, {"fusion_lat": 0.0, "type": "electric_scooter", "name": "71f3831bc62006e8f80686d4d13d59b9", "fusion_lon": 0.0, "bike_id": "71f3831bc62006e8f80686d4d13d59b9", "is_reserved": 0, "rental_uris": {"android": "https://dc.lft.to/lastmile_qr_scan", "ios": "https://dc.lft.to/lastmile_qr_scan"}, "lat": 38.902607, "is_disabled": 0, "lon": -77.00740416666666}, {"fusion_lat": 0.0, "type": "electric_scooter", "name": "3625f180cff9fdc5976df4cfb814b227", "fusion_lon": 0.0, "bike_id": "3625f180cff9fdc5976df4cfb814b227", "is_reserved": 0, "rental_uris": {"android": "https://dc.lft.to/lastmile_qr_scan", "ios": "https://dc.lft.to/lastmile_qr_scan"}, "lat": 38.906523166666666, "is_disabled": 0, "lon": -77.016191}, {"fusion_lat": 0.0, "type": "electric_bike", "name": "a6a54bb98338ed693e30d350a80beefe", "fusion_lon": 0.0, "bike_id": "a6a54bb98338ed693e30d350a80beefe", "is_reserved": 0, "rental_uris": {"android": "https://dc.lft.to/lastmile_qr_scan", "ios": "https://dc.lft.to/lastmile_qr_scan"}, "lat": 38.9532205, "is_disabled": 0, "lon": -76.95429233333333}, {"fusion_lat": 0.0, "type": "electric_scooter", "name": "3c12308a3301e5ea4ccdd2dff2fd7df4", "fusion_lon": 0.0, "bike_id": "3c12308a3301e5ea4ccdd2dff2fd7df4", "is_reserved": 0, "rental_uris": {"android": "https://dc.lft.to/lastmile_qr_scan", "ios": "https://dc.lft.to/lastmile_qr_scan"}, "lat": 38.90260966666666, "is_disabled": 0, "lon": -77.03465566666667}, {"fusion_lat": 0.0, "type": "electric_scooter", "name": "86d86cf4cf7426b382c6c80959e3f3be", "fusion_lon": 0.0, "bike_id": "86d86cf4cf7426b382c6c80959e3f3be", "is_reserved": 0, "rental_uris": {"android": "https://dc.lft.to/lastmile_qr_scan", "ios": "https://dc.lft.to/lastmile_qr_scan"}, "lat": 38.892352833333334, "is_disabled": 0, "lon": -77.03206016666667}, {"fusion_lat": 0.0, "type": "electric_scooter", "name": "f7cbd0e24220762a39df8bf8a42aaa41", "fusion_lon": 0.0, "bike_id": "f7cbd0e24220762a39df8bf8a42aaa41", "is_reserved": 0, "rental_uris": {"android": "https://dc.lft.to/lastmile_qr_scan", "ios": "https://dc.lft.to/lastmile_qr_scan"}, "lat": 38.921778833333335, "is_disabled": 0, "lon": -77.04018033333334}, {"fusion_lat": 0.0, "type": "electric_scooter", "name": "8d4afb377af29e71886dd547a792d2d6", "fusion_lon": 0.0, "bike_id": "8d4afb377af29e71886dd547a792d2d6", "is_reserved": 0, "rental_uris": {"android": "https://dc.lft.to/lastmile_qr_scan", "ios": "https://dc.lft.to/lastmile_qr_scan"}, "lat": 38.90574483333333, "is_disabled": 0, "lon": -77.0059835}, {"fusion_lat": 0.0, "type": "electric_scooter", "name": "606f9e13ca43963ae87475421f6a4b38", "fusion_lon": 0.0, "bike_id": "606f9e13ca43963ae87475421f6a4b38", "is_reserved": 0, "rental_uris": {"android": "https://dc.lft.to/lastmile_qr_scan", "ios": "https://dc.lft.to/lastmile_qr_scan"}, "lat": 38.89239216666667, "is_disabled": 0, "lon": -77.04163783333334}, {"fusion_lat": 0.0, "type": "electric_scooter", "name": "faaf01a232875d954739244723cd4978", "fusion_lon": 0.0, "bike_id": "faaf01a232875d954739244723cd4978", "is_reserved": 0, "rental_uris": {"android": "https://dc.lft.to/lastmile_qr_scan", "ios": "https://dc.lft.to/lastmile_qr_scan"}, "lat": 38.897633166666665, "is_disabled": 0, "lon": -77.03304533333333}, {"fusion_lat": 0.0, "type": "electric_scooter", "name": "69ca9686d13c0208512ef621e6d684d2", "fusion_lon": 0.0, "bike_id": "69ca9686d13c0208512ef621e6d684d2", "is_reserved": 0, "rental_uris": {"android": "https://dc.lft.to/lastmile_qr_scan", "ios": "https://dc.lft.to/lastmile_qr_scan"}, "lat": 38.851748, "is_disabled": 0, "lon": -76.99581466666666}, {"fusion_lat": 0.0, "type": "electric_scooter", "name": "482ad774fce247cd06493c955335f1e5", "fusion_lon": 0.0, "bike_id": "482ad774fce247cd06493c955335f1e5", "is_reserved": 0, "rental_uris": {"android": "https://dc.lft.to/lastmile_qr_scan", "ios": "https://dc.lft.to/lastmile_qr_scan"}, "lat": 38.911879166666665, "is_disabled": 0, "lon": -77.00100133333333}, {"fusion_lat": 0.0, "type": "electric_scooter", "name": "adbc98901d0e4fe75d43af61651b51a2", "fusion_lon": 0.0, "bike_id": "adbc98901d0e4fe75d43af61651b51a2", "is_reserved": 0, "rental_uris": {"android": "https://dc.lft.to/lastmile_qr_scan", "ios": "https://dc.lft.to/lastmile_qr_scan"}, "lat": 38.951192, "is_disabled": 0, "lon": -76.9867}, {"fusion_lat": 0.0, "type": "electric_scooter", "name": "30e9ddee5f120853bcfb5baee09f39fd", "fusion_lon": 0.0, "bike_id": "30e9ddee5f120853bcfb5baee09f39fd", "is_reserved": 0, "rental_uris": {"android": "https://dc.lft.to/lastmile_qr_scan", "ios": "https://dc.lft.to/lastmile_qr_scan"}, "lat": 38.892264, "is_disabled": 0, "lon": -77.02800533333334}, {"fusion_lat": 0.0, "type": "electric_scooter", "name": "9178893c9a1dd529a2bde79b06000361", "fusion_lon": 0.0, "bike_id": "9178893c9a1dd529a2bde79b06000361", "is_reserved": 0, "rental_uris": {"android": "https://dc.lft.to/lastmile_qr_scan", "ios": "https://dc.lft.to/lastmile_qr_scan"}, "lat": 38.92520283333333, "is_disabled": 0, "lon": -77.05045283333334}, {"fusion_lat": 0.0, "type": "electric_scooter", "name": "67dfb3d05ef99c77a083f28002cec0da", "fusion_lon": 0.0, "bike_id": "67dfb3d05ef99c77a083f28002cec0da", "is_reserved": 0, "rental_uris": {"android": "https://dc.lft.to/lastmile_qr_scan", "ios": "https://dc.lft.to/lastmile_qr_scan"}, "lat": 38.9027145, "is_disabled": 0, "lon": -77.04595016666667}, {"fusion_lat": 0.0, "type": "electric_bike", "name": "5d104ceb659135d6e6323517bb04add6", "fusion_lon": 0.0, "bike_id": "5d104ceb659135d6e6323517bb04add6", "is_reserved": 0, "rental_uris": {"android": "https://dc.lft.to/lastmile_qr_scan", "ios": "https://dc.lft.to/lastmile_qr_scan"}, "lat": 38.852072666666665, "is_disabled": 0, "lon": -77.1013225}, {"fusion_lat": 0.0, "type": "electric_scooter", "name": "e1bfe3143440835ac854da145ce09dd1", "fusion_lon": 0.0, "bike_id": "e1bfe3143440835ac854da145ce09dd1", "is_reserved": 0, "rental_uris": {"android": "https://dc.lft.to/lastmile_qr_scan", "ios": "https://dc.lft.to/lastmile_qr_scan"}, "lat": 38.89913116666666, "is_disabled": 0, "lon": -76.93367133333334}, {"fusion_lat": 0.0, "type": "electric_scooter", "name": "d07288d967bd2342ceace7af43d83600", "fusion_lon": 0.0, "bike_id": "d07288d967bd2342ceace7af43d83600", "is_reserved": 0, "rental_uris": {"android": "https://dc.lft.to/lastmile_qr_scan", "ios": "https://dc.lft.to/lastmile_qr_scan"}, "lat": 38.924686666666666, "is_disabled": 0, "lon": -77.029835}, {"fusion_lat": 0.0, "type": "electric_scooter", "name": "3802760a80bd505c4c3cbf5ea09f2552", "fusion_lon": 0.0, "bike_id": "3802760a80bd505c4c3cbf5ea09f2552", "is_reserved": 0, "rental_uris": {"android": "https://dc.lft.to/lastmile_qr_scan", "ios": "https://dc.lft.to/lastmile_qr_scan"}, "lat": 38.893647333333334, "is_disabled": 0, "lon": -76.94986066666667}, {"fusion_lat": 0.0, "type": "electric_scooter", "name": "e2ac24e69cdf465deaf60ed56bff3d56", "fusion_lon": 0.0, "bike_id": "e2ac24e69cdf465deaf60ed56bff3d56", "is_reserved": 0, "rental_uris": {"android": "https://dc.lft.to/lastmile_qr_scan", "ios": "https://dc.lft.to/lastmile_qr_scan"}, "lat": 38.9357315, "is_disabled": 0, "lon": -77.02126033333333}, {"fusion_lat": 0.0, "type": "electric_scooter", "name": "763666c9bb9563cec58ab2db646bf21a", "fusion_lon": 0.0, "bike_id": "763666c9bb9563cec58ab2db646bf21a", "is_reserved": 0, "rental_uris": {"android": "https://dc.lft.to/lastmile_qr_scan", "ios": "https://dc.lft.to/lastmile_qr_scan"}, "lat": 38.921458333333334, "is_disabled": 0, "lon": -77.03507583333334}, {"fusion_lat": 0.0, "type": "electric_scooter", "name": "a4947b756115b9f3fd2e4e555534f9b2", "fusion_lon": 0.0, "bike_id": "a4947b756115b9f3fd2e4e555534f9b2", "is_reserved": 0, "rental_uris": {"android": "https://dc.lft.to/lastmile_qr_scan", "ios": "https://dc.lft.to/lastmile_qr_scan"}, "lat": 38.88721616666667, "is_disabled": 0, "lon": -77.021972}, {"fusion_lat": 0.0, "type": "electric_bike", "name": "b98821de32f159afd3c762bc98a20829", "fusion_lon": 0.0, "bike_id": "b98821de32f159afd3c762bc98a20829", "is_reserved": 0, "rental_uris": {"android": "https://dc.lft.to/lastmile_qr_scan", "ios": "https://dc.lft.to/lastmile_qr_scan"}, "lat": 38.9466795, "is_disabled": 0, "lon": -76.98308133333333}, {"fusion_lat": 0.0, "type": "electric_scooter", "name": "d2dc3e4f19bf5b8f61e2d2bade068d54", "fusion_lon": 0.0, "bike_id": "d2dc3e4f19bf5b8f61e2d2bade068d54", "is_reserved": 0, "rental_uris": {"android": "https://dc.lft.to/lastmile_qr_scan", "ios": "https://dc.lft.to/lastmile_qr_scan"}, "lat": 38.9563315, "is_disabled": 0, "lon": -77.02459766666666}, {"fusion_lat": 0.0, "type": "electric_scooter", "name": "b321b181c60b1e8e04581200b2ba76aa", "fusion_lon": 0.0, "bike_id": "b321b181c60b1e8e04581200b2ba76aa", "is_reserved": 0, "rental_uris": {"android": "https://dc.lft.to/lastmile_qr_scan", "ios": "https://dc.lft.to/lastmile_qr_scan"}, "lat": 38.904419, "is_disabled": 0, "lon": -77.02985866666667}, {"fusion_lat": 0.0, "type": "electric_scooter", "name": "1061e125f39fb105020cd0ccddc2bfb8", "fusion_lon": 0.0, "bike_id": "1061e125f39fb105020cd0ccddc2bfb8", "is_reserved": 0, "rental_uris": {"android": "https://dc.lft.to/lastmile_qr_scan", "ios": "https://dc.lft.to/lastmile_qr_scan"}, "lat": 38.892228833333334, "is_disabled": 0, "lon": -77.03180483333334}, {"fusion_lat": 0.0, "type": "electric_scooter", "name": "960931a66e8d08afb65c57af6f05d3af", "fusion_lon": 0.0, "bike_id": "960931a66e8d08afb65c57af6f05d3af", "is_reserved": 0, "rental_uris": {"android": "https://dc.lft.to/lastmile_qr_scan", "ios": "https://dc.lft.to/lastmile_qr_scan"}, "lat": 38.88740966666667, "is_disabled": 0, "lon": -77.02583933333334}, {"fusion_lat": 0.0, "type": "electric_scooter", "name": "89725592a149173a58716232c1e4baa2", "fusion_lon": 0.0, "bike_id": "89725592a149173a58716232c1e4baa2", "is_reserved": 0, "rental_uris": {"android": "https://dc.lft.to/lastmile_qr_scan", "ios": "https://dc.lft.to/lastmile_qr_scan"}, "lat": 38.909295, "is_disabled": 0, "lon": -77.038812}, {"fusion_lat": 0.0, "type": "electric_scooter", "name": "da31ecc3f0816b46bbd2626626b0af2f", "fusion_lon": 0.0, "bike_id": "da31ecc3f0816b46bbd2626626b0af2f", "is_reserved": 0, "rental_uris": {"android": "https://dc.lft.to/lastmile_qr_scan", "ios": "https://dc.lft.to/lastmile_qr_scan"}, "lat": 38.909540666666665, "is_disabled": 0, "lon": -77.03210333333334}, {"fusion_lat": 0.0, "type": "electric_scooter", "name": "ec90e24c2f05e542405b6e535805ad28", "fusion_lon": 0.0, "bike_id": "ec90e24c2f05e542405b6e535805ad28", "is_reserved": 0, "rental_uris": {"android": "https://dc.lft.to/lastmile_qr_scan", "ios": "https://dc.lft.to/lastmile_qr_scan"}, "lat": 38.913224166666666, "is_disabled": 0, "lon": -77.01466533333334}, {"fusion_lat": 0.0, "type": "electric_scooter", "name": "2dcaada7ea77987f597ab28601b86fba", "fusion_lon": 0.0, "bike_id": "2dcaada7ea77987f597ab28601b86fba", "is_reserved": 0, "rental_uris": {"android": "https://dc.lft.to/lastmile_qr_scan", "ios": "https://dc.lft.to/lastmile_qr_scan"}, "lat": 38.90020116666667, "is_disabled": 0, "lon": -76.98436016666666}, {"fusion_lat": 0.0, "type": "electric_scooter", "name": "d316e1864383aff40b61e4ac05588540", "fusion_lon": 0.0, "bike_id": "d316e1864383aff40b61e4ac05588540", "is_reserved": 0, "rental_uris": {"android": "https://dc.lft.to/lastmile_qr_scan", "ios": "https://dc.lft.to/lastmile_qr_scan"}, "lat": 38.903958833333334, "is_disabled": 0, "lon": -77.06261933333333}, {"fusion_lat": 0.0, "type": "electric_bike", "name": "15a656da1abdb78f413c9c3c11ea89cd", "fusion_lon": 0.0, "bike_id": "15a656da1abdb78f413c9c3c11ea89cd", "is_reserved": 0, "rental_uris": {"android": "https://dc.lft.to/lastmile_qr_scan", "ios": "https://dc.lft.to/lastmile_qr_scan"}, "lat": 38.968031333333336, "is_disabled": 0, "lon": -77.00044516666667}, {"fusion_lat": 0.0, "type": "electric_scooter", "name": "bef0602b4dc86f57402848098bdd1a20", "fusion_lon": 0.0, "bike_id": "bef0602b4dc86f57402848098bdd1a20", "is_reserved": 0, "rental_uris": {"android": "https://dc.lft.to/lastmile_qr_scan", "ios": "https://dc.lft.to/lastmile_qr_scan"}, "lat": 38.917222, "is_disabled": 0, "lon": -77.03199866666667}, {"fusion_lat": 0.0, "type": "electric_scooter", "name": "b81dab1ecf3ea8eb7671653599ccc299", "fusion_lon": 0.0, "bike_id": "b81dab1ecf3ea8eb7671653599ccc299", "is_reserved": 0, "rental_uris": {"android": "https://dc.lft.to/lastmile_qr_scan", "ios": "https://dc.lft.to/lastmile_qr_scan"}, "lat": 38.90984816666667, "is_disabled": 0, "lon": -77.02392883333333}, {"fusion_lat": 0.0, "type": "electric_scooter", "name": "e52c47bd6b8693d40d8fe0d74940aa53", "fusion_lon": 0.0, "bike_id": "e52c47bd6b8693d40d8fe0d74940aa53", "is_reserved": 0, "rental_uris": {"android": "https://dc.lft.to/lastmile_qr_scan", "ios": "https://dc.lft.to/lastmile_qr_scan"}, "lat": 38.90247333333333, "is_disabled": 0, "lon": -77.01947666666666}, {"fusion_lat": 0.0, "type": "electric_scooter", "name": "2b0d6a5ed8557fbe41da446f94a3a17e", "fusion_lon": 0.0, "bike_id": "2b0d6a5ed8557fbe41da446f94a3a17e", "is_reserved": 0, "rental_uris": {"android": "https://dc.lft.to/lastmile_qr_scan", "ios": "https://dc.lft.to/lastmile_qr_scan"}, "lat": 38.9018085, "is_disabled": 0, "lon": -76.98064833333333}, {"fusion_lat": 0.0, "type": "electric_scooter", "name": "faf1afef474612086616b7e9cf24d994", "fusion_lon": 0.0, "bike_id": "faf1afef474612086616b7e9cf24d994", "is_reserved": 0, "rental_uris": {"android": "https://dc.lft.to/lastmile_qr_scan", "ios": "https://dc.lft.to/lastmile_qr_scan"}, "lat": 38.90730283333333, "is_disabled": 0, "lon": -76.99975916666666}, {"fusion_lat": 0.0, "type": "electric_scooter", "name": "e1f46f50604cdfcce2ccfcfffb403674", "fusion_lon": 0.0, "bike_id": "e1f46f50604cdfcce2ccfcfffb403674", "is_reserved": 0, "rental_uris": {"android": "https://dc.lft.to/lastmile_qr_scan", "ios": "https://dc.lft.to/lastmile_qr_scan"}, "lat": 38.89236433333333, "is_disabled": 0, "lon": -77.032063}, {"fusion_lat": 0.0, "type": "electric_scooter", "name": "ad018b17d993a210f46ffa0f6ed7c044", "fusion_lon": 0.0, "bike_id": "ad018b17d993a210f46ffa0f6ed7c044", "is_reserved": 0, "rental_uris": {"android": "https://dc.lft.to/lastmile_qr_scan", "ios": "https://dc.lft.to/lastmile_qr_scan"}, "lat": 38.910774333333336, "is_disabled": 0, "lon": -77.03714333333333}, {"fusion_lat": 0.0, "type": "electric_scooter", "name": "3bb0b3e96f594178b216741cba640074", "fusion_lon": 0.0, "bike_id": "3bb0b3e96f594178b216741cba640074", "is_reserved": 0, "rental_uris": {"android": "https://dc.lft.to/lastmile_qr_scan", "ios": "https://dc.lft.to/lastmile_qr_scan"}, "lat": 38.902406666666664, "is_disabled": 0, "lon": -76.99891016666666}, {"fusion_lat": 0.0, "type": "electric_scooter", "name": "1d3dacd1f4998ffa7353b9dbe4fafbb1", "fusion_lon": 0.0, "bike_id": "1d3dacd1f4998ffa7353b9dbe4fafbb1", "is_reserved": 0, "rental_uris": {"android": "https://dc.lft.to/lastmile_qr_scan", "ios": "https://dc.lft.to/lastmile_qr_scan"}, "lat": 38.913912, "is_disabled": 0, "lon": -77.0417385}, {"fusion_lat": 0.0, "type": "electric_scooter", "name": "d7a60595fd8c638bc6b6c70f6485a85f", "fusion_lon": 0.0, "bike_id": "d7a60595fd8c638bc6b6c70f6485a85f", "is_reserved": 0, "rental_uris": {"android": "https://dc.lft.to/lastmile_qr_scan", "ios": "https://dc.lft.to/lastmile_qr_scan"}, "lat": 38.9347595, "is_disabled": 0, "lon": -77.0283915}, {"fusion_lat": 0.0, "type": "electric_scooter", "name": "e03ecd3619e11f0e2e187d9234d70537", "fusion_lon": 0.0, "bike_id": "e03ecd3619e11f0e2e187d9234d70537", "is_reserved": 0, "rental_uris": {"android": "https://dc.lft.to/lastmile_qr_scan", "ios": "https://dc.lft.to/lastmile_qr_scan"}, "lat": 38.8922045, "is_disabled": 0, "lon": -77.02625216666667}, {"fusion_lat": 0.0, "type": "electric_scooter", "name": "4ec847322ae4edc9f449157b14980ecf", "fusion_lon": 0.0, "bike_id": "4ec847322ae4edc9f449157b14980ecf", "is_reserved": 0, "rental_uris": {"android": "https://dc.lft.to/lastmile_qr_scan", "ios": "https://dc.lft.to/lastmile_qr_scan"}, "lat": 38.90785733333333, "is_disabled": 0, "lon": -77.02290516666666}, {"fusion_lat": 0.0, "type": "electric_scooter", "name": "04651563ce4d48ea64bc30cef700ffb4", "fusion_lon": 0.0, "bike_id": "04651563ce4d48ea64bc30cef700ffb4", "is_reserved": 0, "rental_uris": {"android": "https://dc.lft.to/lastmile_qr_scan", "ios": "https://dc.lft.to/lastmile_qr_scan"}, "lat": 38.915742, "is_disabled": 0, "lon": -77.0318095}, {"fusion_lat": 0.0, "type": "electric_scooter", "name": "42d436057d0262ff8e297586e70ad180", "fusion_lon": 0.0, "bike_id": "42d436057d0262ff8e297586e70ad180", "is_reserved": 0, "rental_uris": {"android": "https://dc.lft.to/lastmile_qr_scan", "ios": "https://dc.lft.to/lastmile_qr_scan"}, "lat": 38.924610666666666, "is_disabled": 0, "lon": -77.03289933333333}, {"fusion_lat": 0.0, "type": "electric_bike", "name": "e5c177ad335e513badc4b66154aae42f", "fusion_lon": 0.0, "bike_id": "e5c177ad335e513badc4b66154aae42f", "is_reserved": 0, "rental_uris": {"android": "https://dc.lft.to/lastmile_qr_scan", "ios": "https://dc.lft.to/lastmile_qr_scan"}, "lat": 38.9673765, "is_disabled": 0, "lon": -76.98190366666667}, {"fusion_lat": 0.0, "type": "electric_bike", "name": "d720b4c2308d4158b1b3404d0f0a94ca", "fusion_lon": 0.0, "bike_id": "d720b4c2308d4158b1b3404d0f0a94ca", "is_reserved": 0, "rental_uris": {"android": "https://dc.lft.to/lastmile_qr_scan", "ios": "https://dc.lft.to/lastmile_qr_scan"}, "lat": 39.014788, "is_disabled": 0, "lon": -77.05494216666666}, {"fusion_lat": 0.0, "type": "electric_scooter", "name": "1b986b21e0bc103eda65dab501b3ce2b", "fusion_lon": 0.0, "bike_id": "1b986b21e0bc103eda65dab501b3ce2b", "is_reserved": 0, "rental_uris": {"android": "https://dc.lft.to/lastmile_qr_scan", "ios": "https://dc.lft.to/lastmile_qr_scan"}, "lat": 38.892007, "is_disabled": 0, "lon": -77.02770866666667}, {"fusion_lat": 0.0, "type": "electric_scooter", "name": "e7a49176f598f2277b017573d3a3e8ed", "fusion_lon": 0.0, "bike_id": "e7a49176f598f2277b017573d3a3e8ed", "is_reserved": 0, "rental_uris": {"android": "https://dc.lft.to/lastmile_qr_scan", "ios": "https://dc.lft.to/lastmile_qr_scan"}, "lat": 38.91621983333334, "is_disabled": 0, "lon": -77.048061}, {"fusion_lat": 0.0, "type": "electric_scooter", "name": "92cee4562ad540f47cac8148eda85add", "fusion_lon": 0.0, "bike_id": "92cee4562ad540f47cac8148eda85add", "is_reserved": 0, "rental_uris": {"android": "https://dc.lft.to/lastmile_qr_scan", "ios": "https://dc.lft.to/lastmile_qr_scan"}, "lat": 38.922344833333334, "is_disabled": 0, "lon": -77.0308775}, {"fusion_lat": 0.0, "type": "electric_scooter", "name": "34c8bba9d2e0acf4a06e953d0accbed8", "fusion_lon": 0.0, "bike_id": "34c8bba9d2e0acf4a06e953d0accbed8", "is_reserved": 0, "rental_uris": {"android": "https://dc.lft.to/lastmile_qr_scan", "ios": "https://dc.lft.to/lastmile_qr_scan"}, "lat": 38.908749, "is_disabled": 0, "lon": -77.043318}, {"fusion_lat": 0.0, "type": "electric_scooter", "name": "36a74f3504ba409458ad3c652b3f0d37", "fusion_lon": 0.0, "bike_id": "36a74f3504ba409458ad3c652b3f0d37", "is_reserved": 0, "rental_uris": {"android": "https://dc.lft.to/lastmile_qr_scan", "ios": "https://dc.lft.to/lastmile_qr_scan"}, "lat": 38.90067283333333, "is_disabled": 0, "lon": -76.927459}, {"fusion_lat": 0.0, "type": "electric_scooter", "name": "37998a5ff15076d645d56ec22a1f6ec9", "fusion_lon": 0.0, "bike_id": "37998a5ff15076d645d56ec22a1f6ec9", "is_reserved": 0, "rental_uris": {"android": "https://dc.lft.to/lastmile_qr_scan", "ios": "https://dc.lft.to/lastmile_qr_scan"}, "lat": 38.89986116666667, "is_disabled": 0, "lon": -77.0483155}, {"fusion_lat": 0.0, "type": "electric_scooter", "name": "ed4f1870d6db2fe9209611aff2659694", "fusion_lon": 0.0, "bike_id": "ed4f1870d6db2fe9209611aff2659694", "is_reserved": 0, "rental_uris": {"android": "https://dc.lft.to/lastmile_qr_scan", "ios": "https://dc.lft.to/lastmile_qr_scan"}, "lat": 38.901501333333336, "is_disabled": 0, "lon": -77.032331}, {"fusion_lat": 0.0, "type": "electric_scooter", "name": "176393e1a840b0de21c6a9cf307f4f04", "fusion_lon": 0.0, "bike_id": "176393e1a840b0de21c6a9cf307f4f04", "is_reserved": 0, "rental_uris": {"android": "https://dc.lft.to/lastmile_qr_scan", "ios": "https://dc.lft.to/lastmile_qr_scan"}, "lat": 38.83564883333333, "is_disabled": 0, "lon": -76.99495216666666}, {"fusion_lat": 0.0, "type": "electric_scooter", "name": "6c422f7c0126cf516d74e78d577fb25c", "fusion_lon": 0.0, "bike_id": "6c422f7c0126cf516d74e78d577fb25c", "is_reserved": 0, "rental_uris": {"android": "https://dc.lft.to/lastmile_qr_scan", "ios": "https://dc.lft.to/lastmile_qr_scan"}, "lat": 38.883246166666666, "is_disabled": 0, "lon": -76.99218716666667}, {"fusion_lat": 0.0, "type": "electric_scooter", "name": "ec29404f7819c7087f3c2cb842fec5f6", "fusion_lon": 0.0, "bike_id": "ec29404f7819c7087f3c2cb842fec5f6", "is_reserved": 0, "rental_uris": {"android": "https://dc.lft.to/lastmile_qr_scan", "ios": "https://dc.lft.to/lastmile_qr_scan"}, "lat": 38.939236333333334, "is_disabled": 0, "lon": -77.03263483333333}, {"fusion_lat": 0.0, "type": "electric_scooter", "name": "b914aad7390e05a9e390e2eed963dcb2", "fusion_lon": 0.0, "bike_id": "b914aad7390e05a9e390e2eed963dcb2", "is_reserved": 0, "rental_uris": {"android": "https://dc.lft.to/lastmile_qr_scan", "ios": "https://dc.lft.to/lastmile_qr_scan"}, "lat": 38.876235333333334, "is_disabled": 0, "lon": -77.00562433333333}, {"fusion_lat": 0.0, "type": "electric_scooter", "name": "9087d988189521e2ddb67b237a542b99", "fusion_lon": 0.0, "bike_id": "9087d988189521e2ddb67b237a542b99", "is_reserved": 0, "rental_uris": {"android": "https://dc.lft.to/lastmile_qr_scan", "ios": "https://dc.lft.to/lastmile_qr_scan"}, "lat": 38.8879685, "is_disabled": 0, "lon": -76.93354216666667}, {"fusion_lat": 0.0, "type": "electric_scooter", "name": "e5dc3d646cbedfa5a33037d7fb0306c2", "fusion_lon": 0.0, "bike_id": "e5dc3d646cbedfa5a33037d7fb0306c2", "is_reserved": 0, "rental_uris": {"android": "https://dc.lft.to/lastmile_qr_scan", "ios": "https://dc.lft.to/lastmile_qr_scan"}, "lat": 38.906531, "is_disabled": 0, "lon": -77.03867933333333}, {"fusion_lat": 0.0, "type": "electric_scooter", "name": "d430c4b3522e29ee75ef2b1e490544e3", "fusion_lon": 0.0, "bike_id": "d430c4b3522e29ee75ef2b1e490544e3", "is_reserved": 0, "rental_uris": {"android": "https://dc.lft.to/lastmile_qr_scan", "ios": "https://dc.lft.to/lastmile_qr_scan"}, "lat": 38.91560233333333, "is_disabled": 0, "lon": -77.02560566666666}, {"fusion_lat": 0.0, "type": "electric_scooter", "name": "e93340433a96107a06afd2290658bbd6", "fusion_lon": 0.0, "bike_id": "e93340433a96107a06afd2290658bbd6", "is_reserved": 0, "rental_uris": {"android": "https://dc.lft.to/lastmile_qr_scan", "ios": "https://dc.lft.to/lastmile_qr_scan"}, "lat": 38.91778516666667, "is_disabled": 0, "lon": -77.03206616666667}, {"fusion_lat": 0.0, "type": "electric_scooter", "name": "f1080e135d35bbdb899ddfaf4e4fb34a", "fusion_lon": 0.0, "bike_id": "f1080e135d35bbdb899ddfaf4e4fb34a", "is_reserved": 0, "rental_uris": {"android": "https://dc.lft.to/lastmile_qr_scan", "ios": "https://dc.lft.to/lastmile_qr_scan"}, "lat": 38.909681166666665, "is_disabled": 0, "lon": -77.03475533333334}, {"fusion_lat": 0.0, "type": "electric_scooter", "name": "b2a1b9d8fc0b230ffd0c26212c944353", "fusion_lon": 0.0, "bike_id": "b2a1b9d8fc0b230ffd0c26212c944353", "is_reserved": 0, "rental_uris": {"android": "https://dc.lft.to/lastmile_qr_scan", "ios": "https://dc.lft.to/lastmile_qr_scan"}, "lat": 38.91802966666667, "is_disabled": 0, "lon": -77.03435833333333}, {"fusion_lat": 0.0, "type": "electric_scooter", "name": "24b623055d4a83085a79aba687d90820", "fusion_lon": 0.0, "bike_id": "24b623055d4a83085a79aba687d90820", "is_reserved": 0, "rental_uris": {"android": "https://dc.lft.to/lastmile_qr_scan", "ios": "https://dc.lft.to/lastmile_qr_scan"}, "lat": 38.927287, "is_disabled": 0, "lon": -77.03527016666666}, {"fusion_lat": 0.0, "type": "electric_scooter", "name": "d48c2bd23f54200bd31acb4664fba314", "fusion_lon": 0.0, "bike_id": "d48c2bd23f54200bd31acb4664fba314", "is_reserved": 0, "rental_uris": {"android": "https://dc.lft.to/lastmile_qr_scan", "ios": "https://dc.lft.to/lastmile_qr_scan"}, "lat": 38.9390025, "is_disabled": 0, "lon": -77.0247325}, {"fusion_lat": 0.0, "type": "electric_scooter", "name": "0c8b1ed324e176533aeec020e1398b14", "fusion_lon": 0.0, "bike_id": "0c8b1ed324e176533aeec020e1398b14", "is_reserved": 0, "rental_uris": {"android": "https://dc.lft.to/lastmile_qr_scan", "ios": "https://dc.lft.to/lastmile_qr_scan"}, "lat": 38.901560833333335, "is_disabled": 0, "lon": -77.03301933333333}, {"fusion_lat": 0.0, "type": "electric_bike", "name": "f7d5fa5eb4422fa99dbde7c69e7a5bd2", "fusion_lon": 0.0, "bike_id": "f7d5fa5eb4422fa99dbde7c69e7a5bd2", "is_reserved": 0, "rental_uris": {"android": "https://dc.lft.to/lastmile_qr_scan", "ios": "https://dc.lft.to/lastmile_qr_scan"}, "lat": 38.888161833333335, "is_disabled": 0, "lon": -77.03848333333333}, {"fusion_lat": 0.0, "type": "electric_scooter", "name": "f22a0eec47273bf0527531911b1a0bc9", "fusion_lon": 0.0, "bike_id": "f22a0eec47273bf0527531911b1a0bc9", "is_reserved": 0, "rental_uris": {"android": "https://dc.lft.to/lastmile_qr_scan", "ios": "https://dc.lft.to/lastmile_qr_scan"}, "lat": 38.9167835, "is_disabled": 0, "lon": -77.03691516666666}, {"fusion_lat": 0.0, "type": "electric_scooter", "name": "461a3e6ea139c64930bd333cbc49d751", "fusion_lon": 0.0, "bike_id": "461a3e6ea139c64930bd333cbc49d751", "is_reserved": 0, "rental_uris": {"android": "https://dc.lft.to/lastmile_qr_scan", "ios": "https://dc.lft.to/lastmile_qr_scan"}, "lat": 38.900538166666664, "is_disabled": 0, "lon": -77.0122335}, {"fusion_lat": 0.0, "type": "electric_scooter", "name": "c6e17279a13dfce68b1db7ef57b1d274", "fusion_lon": 0.0, "bike_id": "c6e17279a13dfce68b1db7ef57b1d274", "is_reserved": 0, "rental_uris": {"android": "https://dc.lft.to/lastmile_qr_scan", "ios": "https://dc.lft.to/lastmile_qr_scan"}, "lat": 38.915512666666665, "is_disabled": 0, "lon": -77.03136966666666}, {"fusion_lat": 0.0, "type": "electric_scooter", "name": "e4b29c5bad631f7f41175060f6a41829", "fusion_lon": 0.0, "bike_id": "e4b29c5bad631f7f41175060f6a41829", "is_reserved": 0, "rental_uris": {"android": "https://dc.lft.to/lastmile_qr_scan", "ios": "https://dc.lft.to/lastmile_qr_scan"}, "lat": 38.903792833333334, "is_disabled": 0, "lon": -77.0384665}, {"fusion_lat": 0.0, "type": "electric_scooter", "name": "6332e49bce3548c8470bbe011566cdf4", "fusion_lon": 0.0, "bike_id": "6332e49bce3548c8470bbe011566cdf4", "is_reserved": 0, "rental_uris": {"android": "https://dc.lft.to/lastmile_qr_scan", "ios": "https://dc.lft.to/lastmile_qr_scan"}, "lat": 38.87634166666667, "is_disabled": 0, "lon": -77.0007665}, {"fusion_lat": 0.0, "type": "electric_scooter", "name": "ddab548621fb967ddca299a120ae799c", "fusion_lon": 0.0, "bike_id": "ddab548621fb967ddca299a120ae799c", "is_reserved": 0, "rental_uris": {"android": "https://dc.lft.to/lastmile_qr_scan", "ios": "https://dc.lft.to/lastmile_qr_scan"}, "lat": 38.90082266666667, "is_disabled": 0, "lon": -77.047604}, {"fusion_lat": 0.0, "type": "electric_scooter", "name": "f63876761f19114db995c66328459d4d", "fusion_lon": 0.0, "bike_id": "f63876761f19114db995c66328459d4d", "is_reserved": 0, "rental_uris": {"android": "https://dc.lft.to/lastmile_qr_scan", "ios": "https://dc.lft.to/lastmile_qr_scan"}, "lat": 38.932562833333336, "is_disabled": 0, "lon": -77.03850383333334}, {"fusion_lat": 0.0, "type": "electric_scooter", "name": "8c1a633bb1da8d98eab17756cd424d2b", "fusion_lon": 0.0, "bike_id": "8c1a633bb1da8d98eab17756cd424d2b", "is_reserved": 0, "rental_uris": {"android": "https://dc.lft.to/lastmile_qr_scan", "ios": "https://dc.lft.to/lastmile_qr_scan"}, "lat": 38.89236016666667, "is_disabled": 0, "lon": -77.04159533333333}, {"fusion_lat": 0.0, "type": "electric_bike", "name": "d5f843f8940afcf00560e1b0cf58cb3b", "fusion_lon": 0.0, "bike_id": "d5f843f8940afcf00560e1b0cf58cb3b", "is_reserved": 0, "rental_uris": {"android": "https://dc.lft.to/lastmile_qr_scan", "ios": "https://dc.lft.to/lastmile_qr_scan"}, "lat": 38.954886333333334, "is_disabled": 0, "lon": -76.964427}, {"fusion_lat": 0.0, "type": "electric_scooter", "name": "92acb688e39aec63a241040f63a2f540", "fusion_lon": 0.0, "bike_id": "92acb688e39aec63a241040f63a2f540", "is_reserved": 0, "rental_uris": {"android": "https://dc.lft.to/lastmile_qr_scan", "ios": "https://dc.lft.to/lastmile_qr_scan"}, "lat": 38.88869866666667, "is_disabled": 0, "lon": -77.0399725}, {"fusion_lat": 0.0, "type": "electric_scooter", "name": "aa8a6e8387609a77f1625e6b1e691359", "fusion_lon": 0.0, "bike_id": "aa8a6e8387609a77f1625e6b1e691359", "is_reserved": 0, "rental_uris": {"android": "https://dc.lft.to/lastmile_qr_scan", "ios": "https://dc.lft.to/lastmile_qr_scan"}, "lat": 38.89999383333333, "is_disabled": 0, "lon": -76.95190266666667}, {"fusion_lat": 0.0, "type": "electric_scooter", "name": "80488d5e8b15cf6f6f1632fce7062f6c", "fusion_lon": 0.0, "bike_id": "80488d5e8b15cf6f6f1632fce7062f6c", "is_reserved": 0, "rental_uris": {"android": "https://dc.lft.to/lastmile_qr_scan", "ios": "https://dc.lft.to/lastmile_qr_scan"}, "lat": 38.923751, "is_disabled": 0, "lon": -77.050387}, {"fusion_lat": 0.0, "type": "electric_scooter", "name": "980bf59a440c148a27a11d8b9def52fa", "fusion_lon": 0.0, "bike_id": "980bf59a440c148a27a11d8b9def52fa", "is_reserved": 0, "rental_uris": {"android": "https://dc.lft.to/lastmile_qr_scan", "ios": "https://dc.lft.to/lastmile_qr_scan"}, "lat": 38.9154645, "is_disabled": 0, "lon": -77.03855183333333}, {"fusion_lat": 0.0, "type": "electric_scooter", "name": "b628f29b0e3995eccb2cf52bb20dd6c8", "fusion_lon": 0.0, "bike_id": "b628f29b0e3995eccb2cf52bb20dd6c8", "is_reserved": 0, "rental_uris": {"android": "https://dc.lft.to/lastmile_qr_scan", "ios": "https://dc.lft.to/lastmile_qr_scan"}, "lat": 38.921992333333336, "is_disabled": 0, "lon": -77.02983666666667}, {"fusion_lat": 0.0, "type": "electric_scooter", "name": "4a5bed3dd4e94ed47a931c315e7e9565", "fusion_lon": 0.0, "bike_id": "4a5bed3dd4e94ed47a931c315e7e9565", "is_reserved": 0, "rental_uris": {"android": "https://dc.lft.to/lastmile_qr_scan", "ios": "https://dc.lft.to/lastmile_qr_scan"}, "lat": 38.927026, "is_disabled": 0, "lon": -77.0207885}, {"fusion_lat": 0.0, "type": "electric_bike", "name": "59d10a8bf4ee2f5be54b3cba380de8dd", "fusion_lon": 0.0, "bike_id": "59d10a8bf4ee2f5be54b3cba380de8dd", "is_reserved": 0, "rental_uris": {"android": "https://dc.lft.to/lastmile_qr_scan", "ios": "https://dc.lft.to/lastmile_qr_scan"}, "lat": 38.88404583333333, "is_disabled": 0, "lon": -76.9605935}, {"fusion_lat": 0.0, "type": "electric_scooter", "name": "a1c85a3dad39d14358e3f43fb17ef69c", "fusion_lon": 0.0, "bike_id": "a1c85a3dad39d14358e3f43fb17ef69c", "is_reserved": 0, "rental_uris": {"android": "https://dc.lft.to/lastmile_qr_scan", "ios": "https://dc.lft.to/lastmile_qr_scan"}, "lat": 38.911863333333336, "is_disabled": 0, "lon": -77.044476}, {"fusion_lat": 0.0, "type": "electric_scooter", "name": "6d9ae2228bc91f705538f4d9b55838c5", "fusion_lon": 0.0, "bike_id": "6d9ae2228bc91f705538f4d9b55838c5", "is_reserved": 0, "rental_uris": {"android": "https://dc.lft.to/lastmile_qr_scan", "ios": "https://dc.lft.to/lastmile_qr_scan"}, "lat": 38.9179355, "is_disabled": 0, "lon": -77.04041433333333}, {"fusion_lat": 0.0, "type": "electric_scooter", "name": "ec141720e85b01f27df7039c9c10cd79", "fusion_lon": 0.0, "bike_id": "ec141720e85b01f27df7039c9c10cd79", "is_reserved": 0, "rental_uris": {"android": "https://dc.lft.to/lastmile_qr_scan", "ios": "https://dc.lft.to/lastmile_qr_scan"}, "lat": 38.89221366666666, "is_disabled": 0, "lon": -77.00219033333333}, {"fusion_lat": 0.0, "type": "electric_scooter", "name": "67c74144f1b90c5df8eb93fca2fab724", "fusion_lon": 0.0, "bike_id": "67c74144f1b90c5df8eb93fca2fab724", "is_reserved": 0, "rental_uris": {"android": "https://dc.lft.to/lastmile_qr_scan", "ios": "https://dc.lft.to/lastmile_qr_scan"}, "lat": 38.897334, "is_disabled": 0, "lon": -77.00932766666666}, {"fusion_lat": 0.0, "type": "electric_scooter", "name": "e11975afc13cdf6341c872664bf324af", "fusion_lon": 0.0, "bike_id": "e11975afc13cdf6341c872664bf324af", "is_reserved": 0, "rental_uris": {"android": "https://dc.lft.to/lastmile_qr_scan", "ios": "https://dc.lft.to/lastmile_qr_scan"}, "lat": 38.917032166666665, "is_disabled": 0, "lon": -77.02375733333334}, {"fusion_lat": 0.0, "type": "electric_scooter", "name": "cdb5a578141b11a80000cff2d32df0d4", "fusion_lon": 0.0, "bike_id": "cdb5a578141b11a80000cff2d32df0d4", "is_reserved": 0, "rental_uris": {"android": "https://dc.lft.to/lastmile_qr_scan", "ios": "https://dc.lft.to/lastmile_qr_scan"}, "lat": 38.9166455, "is_disabled": 0, "lon": -77.0321865}, {"fusion_lat": 0.0, "type": "electric_scooter", "name": "beca76acbb981751cce784788ac9af9a", "fusion_lon": 0.0, "bike_id": "beca76acbb981751cce784788ac9af9a", "is_reserved": 0, "rental_uris": {"android": "https://dc.lft.to/lastmile_qr_scan", "ios": "https://dc.lft.to/lastmile_qr_scan"}, "lat": 38.9054245, "is_disabled": 0, "lon": -77.04999133333334}, {"fusion_lat": 0.0, "type": "electric_scooter", "name": "831a55a46a5c1d2edcf83ef756c8a005", "fusion_lon": 0.0, "bike_id": "831a55a46a5c1d2edcf83ef756c8a005", "is_reserved": 0, "rental_uris": {"android": "https://dc.lft.to/lastmile_qr_scan", "ios": "https://dc.lft.to/lastmile_qr_scan"}, "lat": 38.88749216666667, "is_disabled": 0, "lon": -77.031629}, {"fusion_lat": 0.0, "type": "electric_scooter", "name": "a8ab5454da599dae102c10d9e5868f9c", "fusion_lon": 0.0, "bike_id": "a8ab5454da599dae102c10d9e5868f9c", "is_reserved": 0, "rental_uris": {"android": "https://dc.lft.to/lastmile_qr_scan", "ios": "https://dc.lft.to/lastmile_qr_scan"}, "lat": 38.90364666666667, "is_disabled": 0, "lon": -77.041986}, {"fusion_lat": 0.0, "type": "electric_bike", "name": "753452c76dccd90f80e0598ddc1de322", "fusion_lon": 0.0, "bike_id": "753452c76dccd90f80e0598ddc1de322", "is_reserved": 0, "rental_uris": {"android": "https://dc.lft.to/lastmile_qr_scan", "ios": "https://dc.lft.to/lastmile_qr_scan"}, "lat": 38.95641233333333, "is_disabled": 0, "lon": -77.02251433333333}, {"fusion_lat": 0.0, "type": "electric_scooter", "name": "5b96b8f28f0ef18233d4f4c0dfa97c1e", "fusion_lon": 0.0, "bike_id": "5b96b8f28f0ef18233d4f4c0dfa97c1e", "is_reserved": 0, "rental_uris": {"android": "https://dc.lft.to/lastmile_qr_scan", "ios": "https://dc.lft.to/lastmile_qr_scan"}, "lat": 38.91043416666667, "is_disabled": 0, "lon": -77.03170866666666}, {"fusion_lat": 0.0, "type": "electric_scooter", "name": "890a0d9e7d2db980ee26643b0cd311bb", "fusion_lon": 0.0, "bike_id": "890a0d9e7d2db980ee26643b0cd311bb", "is_reserved": 0, "rental_uris": {"android": "https://dc.lft.to/lastmile_qr_scan", "ios": "https://dc.lft.to/lastmile_qr_scan"}, "lat": 38.8916975, "is_disabled": 0, "lon": -76.95197366666666}, {"fusion_lat": 0.0, "type": "electric_bike", "name": "75b574c5ba9a9251381bd96ac0c53af9", "fusion_lon": 0.0, "bike_id": "75b574c5ba9a9251381bd96ac0c53af9", "is_reserved": 0, "rental_uris": {"android": "https://dc.lft.to/lastmile_qr_scan", "ios": "https://dc.lft.to/lastmile_qr_scan"}, "lat": 38.82332566666667, "is_disabled": 0, "lon": -77.05627716666666}, {"fusion_lat": 0.0, "type": "electric_scooter", "name": "dd55337821ae4b71b43ce75de59d8a46", "fusion_lon": 0.0, "bike_id": "dd55337821ae4b71b43ce75de59d8a46", "is_reserved": 0, "rental_uris": {"android": "https://dc.lft.to/lastmile_qr_scan", "ios": "https://dc.lft.to/lastmile_qr_scan"}, "lat": 38.9010875, "is_disabled": 0, "lon": -77.04481266666667}, {"fusion_lat": 0.0, "type": "electric_scooter", "name": "ff6f6a7e60bc7aae1f83c9e5c5b62cd7", "fusion_lon": 0.0, "bike_id": "ff6f6a7e60bc7aae1f83c9e5c5b62cd7", "is_reserved": 0, "rental_uris": {"android": "https://dc.lft.to/lastmile_qr_scan", "ios": "https://dc.lft.to/lastmile_qr_scan"}, "lat": 38.902191333333334, "is_disabled": 0, "lon": -77.023608}, {"fusion_lat": 0.0, "type": "electric_scooter", "name": "e9c26c7699cd7ed11d3e019feb89d855", "fusion_lon": 0.0, "bike_id": "e9c26c7699cd7ed11d3e019feb89d855", "is_reserved": 0, "rental_uris": {"android": "https://dc.lft.to/lastmile_qr_scan", "ios": "https://dc.lft.to/lastmile_qr_scan"}, "lat": 38.942094166666664, "is_disabled": 0, "lon": -77.0251235}, {"fusion_lat": 0.0, "type": "electric_scooter", "name": "3a8dca7baeba95c5f49dcae5cb081377", "fusion_lon": 0.0, "bike_id": "3a8dca7baeba95c5f49dcae5cb081377", "is_reserved": 0, "rental_uris": {"android": "https://dc.lft.to/lastmile_qr_scan", "ios": "https://dc.lft.to/lastmile_qr_scan"}, "lat": 38.9257715, "is_disabled": 0, "lon": -77.03738883333334}, {"fusion_lat": 0.0, "type": "electric_scooter", "name": "42e507f404be74fcdd846a1254fc9ba7", "fusion_lon": 0.0, "bike_id": "42e507f404be74fcdd846a1254fc9ba7", "is_reserved": 0, "rental_uris": {"android": "https://dc.lft.to/lastmile_qr_scan", "ios": "https://dc.lft.to/lastmile_qr_scan"}, "lat": 38.89226433333333, "is_disabled": 0, "lon": -77.027775}, {"fusion_lat": 0.0, "type": "electric_scooter", "name": "9d94ef2c1f2bd9c0a6fa85d155777907", "fusion_lon": 0.0, "bike_id": "9d94ef2c1f2bd9c0a6fa85d155777907", "is_reserved": 0, "rental_uris": {"android": "https://dc.lft.to/lastmile_qr_scan", "ios": "https://dc.lft.to/lastmile_qr_scan"}, "lat": 38.93978416666667, "is_disabled": 0, "lon": -77.03256733333333}, {"fusion_lat": 0.0, "type": "electric_scooter", "name": "b22cc1d5d3cebd2a28417033c4ebfc67", "fusion_lon": 0.0, "bike_id": "b22cc1d5d3cebd2a28417033c4ebfc67", "is_reserved": 0, "rental_uris": {"android": "https://dc.lft.to/lastmile_qr_scan", "ios": "https://dc.lft.to/lastmile_qr_scan"}, "lat": 38.936075833333334, "is_disabled": 0, "lon": -77.02918383333333}, {"fusion_lat": 0.0, "type": "electric_scooter", "name": "a62d7b06e83e919864116a094d2d4029", "fusion_lon": 0.0, "bike_id": "a62d7b06e83e919864116a094d2d4029", "is_reserved": 0, "rental_uris": {"android": "https://dc.lft.to/lastmile_qr_scan", "ios": "https://dc.lft.to/lastmile_qr_scan"}, "lat": 38.89218966666667, "is_disabled": 0, "lon": -77.03191116666666}, {"fusion_lat": 0.0, "type": "electric_scooter", "name": "225d947b82a10fc8d829574195e18091", "fusion_lon": 0.0, "bike_id": "225d947b82a10fc8d829574195e18091", "is_reserved": 0, "rental_uris": {"android": "https://dc.lft.to/lastmile_qr_scan", "ios": "https://dc.lft.to/lastmile_qr_scan"}, "lat": 38.9178935, "is_disabled": 0, "lon": -77.02314016666666}, {"fusion_lat": 0.0, "type": "electric_scooter", "name": "c2dc196badf0e96b07668be0d0728b66", "fusion_lon": 0.0, "bike_id": "c2dc196badf0e96b07668be0d0728b66", "is_reserved": 0, "rental_uris": {"android": "https://dc.lft.to/lastmile_qr_scan", "ios": "https://dc.lft.to/lastmile_qr_scan"}, "lat": 38.90966566666667, "is_disabled": 0, "lon": -77.038659}, {"fusion_lat": 0.0, "type": "electric_scooter", "name": "b091ff3aec5ee2ba9bb6689148f90cc8", "fusion_lon": 0.0, "bike_id": "b091ff3aec5ee2ba9bb6689148f90cc8", "is_reserved": 0, "rental_uris": {"android": "https://dc.lft.to/lastmile_qr_scan", "ios": "https://dc.lft.to/lastmile_qr_scan"}, "lat": 38.910658833333336, "is_disabled": 0, "lon": -77.03466816666666}, {"fusion_lat": 0.0, "type": "electric_scooter", "name": "5d4ab3e148c7d0b1cc45400e559b5c81", "fusion_lon": 0.0, "bike_id": "5d4ab3e148c7d0b1cc45400e559b5c81", "is_reserved": 0, "rental_uris": {"android": "https://dc.lft.to/lastmile_qr_scan", "ios": "https://dc.lft.to/lastmile_qr_scan"}, "lat": 38.922776166666665, "is_disabled": 0, "lon": -77.03395483333334}, {"fusion_lat": 0.0, "type": "electric_scooter", "name": "4caa12eb0bb9526894140df11c86032e", "fusion_lon": 0.0, "bike_id": "4caa12eb0bb9526894140df11c86032e", "is_reserved": 0, "rental_uris": {"android": "https://dc.lft.to/lastmile_qr_scan", "ios": "https://dc.lft.to/lastmile_qr_scan"}, "lat": 38.9313035, "is_disabled": 0, "lon": -77.023525}, {"fusion_lat": 0.0, "type": "electric_scooter", "name": "1d49971964750f0511f76bda8d805ef4", "fusion_lon": 0.0, "bike_id": "1d49971964750f0511f76bda8d805ef4", "is_reserved": 0, "rental_uris": {"android": "https://dc.lft.to/lastmile_qr_scan", "ios": "https://dc.lft.to/lastmile_qr_scan"}, "lat": 38.957322166666664, "is_disabled": 0, "lon": -77.024008}, {"fusion_lat": 0.0, "type": "electric_bike", "name": "c634dd5e7d1d48ffbbf7649b0d050709", "fusion_lon": 0.0, "bike_id": "c634dd5e7d1d48ffbbf7649b0d050709", "is_reserved": 0, "rental_uris": {"android": "https://dc.lft.to/lastmile_qr_scan", "ios": "https://dc.lft.to/lastmile_qr_scan"}, "lat": 38.80760316666667, "is_disabled": 0, "lon": -77.09468566666666}, {"fusion_lat": 0.0, "type": "electric_scooter", "name": "553c4fc4660de74dfae06defc20cc259", "fusion_lon": 0.0, "bike_id": "553c4fc4660de74dfae06defc20cc259", "is_reserved": 0, "rental_uris": {"android": "https://dc.lft.to/lastmile_qr_scan", "ios": "https://dc.lft.to/lastmile_qr_scan"}, "lat": 38.929437166666666, "is_disabled": 0, "lon": -77.016386}, {"fusion_lat": 0.0, "type": "electric_bike", "name": "0c652b022fa4a29e2ab72c3aa73593d7", "fusion_lon": 0.0, "bike_id": "0c652b022fa4a29e2ab72c3aa73593d7", "is_reserved": 0, "rental_uris": {"android": "https://dc.lft.to/lastmile_qr_scan", "ios": "https://dc.lft.to/lastmile_qr_scan"}, "lat": 38.8972915, "is_disabled": 0, "lon": -76.9913825}, {"fusion_lat": 0.0, "type": "electric_scooter", "name": "9ab5d25549dbec89a714c0755eb9f5e6", "fusion_lon": 0.0, "bike_id": "9ab5d25549dbec89a714c0755eb9f5e6", "is_reserved": 0, "rental_uris": {"android": "https://dc.lft.to/lastmile_qr_scan", "ios": "https://dc.lft.to/lastmile_qr_scan"}, "lat": 38.906793, "is_disabled": 0, "lon": -77.00047183333334}, {"fusion_lat": 0.0, "type": "electric_scooter", "name": "73113c28c6b16a6d573b3ba554ca8251", "fusion_lon": 0.0, "bike_id": "73113c28c6b16a6d573b3ba554ca8251", "is_reserved": 0, "rental_uris": {"android": "https://dc.lft.to/lastmile_qr_scan", "ios": "https://dc.lft.to/lastmile_qr_scan"}, "lat": 38.90008066666667, "is_disabled": 0, "lon": -76.99300283333334}, {"fusion_lat": 0.0, "type": "electric_scooter", "name": "a394cedf592451a79b707fc900e052bf", "fusion_lon": 0.0, "bike_id": "a394cedf592451a79b707fc900e052bf", "is_reserved": 0, "rental_uris": {"android": "https://dc.lft.to/lastmile_qr_scan", "ios": "https://dc.lft.to/lastmile_qr_scan"}, "lat": 38.923702, "is_disabled": 0, "lon": -77.02798083333333}, {"fusion_lat": 0.0, "type": "electric_scooter", "name": "bc13224bfd8cbdae1dea3cf09c514089", "fusion_lon": 0.0, "bike_id": "bc13224bfd8cbdae1dea3cf09c514089", "is_reserved": 0, "rental_uris": {"android": "https://dc.lft.to/lastmile_qr_scan", "ios": "https://dc.lft.to/lastmile_qr_scan"}, "lat": 38.93706, "is_disabled": 0, "lon": -77.06106933333334}, {"fusion_lat": 0.0, "type": "electric_bike", "name": "972b110a93c3341d896232dd1bcd8e17", "fusion_lon": 0.0, "bike_id": "972b110a93c3341d896232dd1bcd8e17", "is_reserved": 0, "rental_uris": {"android": "https://dc.lft.to/lastmile_qr_scan", "ios": "https://dc.lft.to/lastmile_qr_scan"}, "lat": 38.962354833333336, "is_disabled": 0, "lon": -77.026323}, {"fusion_lat": 0.0, "type": "electric_scooter", "name": "52900905de0abdd6e8cab72ec6141222", "fusion_lon": 0.0, "bike_id": "52900905de0abdd6e8cab72ec6141222", "is_reserved": 0, "rental_uris": {"android": "https://dc.lft.to/lastmile_qr_scan", "ios": "https://dc.lft.to/lastmile_qr_scan"}, "lat": 38.8668575, "is_disabled": 0, "lon": -76.98594383333334}, {"fusion_lat": 0.0, "type": "electric_scooter", "name": "cc684eae730dd54120734ae7ed888759", "fusion_lon": 0.0, "bike_id": "cc684eae730dd54120734ae7ed888759", "is_reserved": 0, "rental_uris": {"android": "https://dc.lft.to/lastmile_qr_scan", "ios": "https://dc.lft.to/lastmile_qr_scan"}, "lat": 38.8973625, "is_disabled": 0, "lon": -77.01311633333333}, {"fusion_lat": 0.0, "type": "electric_scooter", "name": "71ac14faf3848ee8e9e5770a496fd059", "fusion_lon": 0.0, "bike_id": "71ac14faf3848ee8e9e5770a496fd059", "is_reserved": 0, "rental_uris": {"android": "https://dc.lft.to/lastmile_qr_scan", "ios": "https://dc.lft.to/lastmile_qr_scan"}, "lat": 38.88835816666667, "is_disabled": 0, "lon": -76.99370616666667}, {"fusion_lat": 0.0, "type": "electric_scooter", "name": "2cf4bab8651572f5f2d91bdb963b8ac4", "fusion_lon": 0.0, "bike_id": "2cf4bab8651572f5f2d91bdb963b8ac4", "is_reserved": 0, "rental_uris": {"android": "https://dc.lft.to/lastmile_qr_scan", "ios": "https://dc.lft.to/lastmile_qr_scan"}, "lat": 38.9085985, "is_disabled": 0, "lon": -77.04254616666667}, {"fusion_lat": 0.0, "type": "electric_scooter", "name": "1d968dbdb5d561f1318c906e7fa1b2c6", "fusion_lon": 0.0, "bike_id": "1d968dbdb5d561f1318c906e7fa1b2c6", "is_reserved": 0, "rental_uris": {"android": "https://dc.lft.to/lastmile_qr_scan", "ios": "https://dc.lft.to/lastmile_qr_scan"}, "lat": 38.92743466666667, "is_disabled": 0, "lon": -77.0253785}, {"fusion_lat": 0.0, "type": "electric_scooter", "name": "c6d6ce275b8054c4fa299dcbdb0bee38", "fusion_lon": 0.0, "bike_id": "c6d6ce275b8054c4fa299dcbdb0bee38", "is_reserved": 0, "rental_uris": {"android": "https://dc.lft.to/lastmile_qr_scan", "ios": "https://dc.lft.to/lastmile_qr_scan"}, "lat": 38.905689833333334, "is_disabled": 0, "lon": -77.0219815}, {"fusion_lat": 0.0, "type": "electric_scooter", "name": "cbc1bcf931acfe70bff8bd5369220297", "fusion_lon": 0.0, "bike_id": "cbc1bcf931acfe70bff8bd5369220297", "is_reserved": 0, "rental_uris": {"android": "https://dc.lft.to/lastmile_qr_scan", "ios": "https://dc.lft.to/lastmile_qr_scan"}, "lat": 38.8922105, "is_disabled": 0, "lon": -77.03225316666666}, {"fusion_lat": 0.0, "type": "electric_scooter", "name": "577070e8be2168b88f217bef67b9330d", "fusion_lon": 0.0, "bike_id": "577070e8be2168b88f217bef67b9330d", "is_reserved": 0, "rental_uris": {"android": "https://dc.lft.to/lastmile_qr_scan", "ios": "https://dc.lft.to/lastmile_qr_scan"}, "lat": 38.92350716666667, "is_disabled": 0, "lon": -77.03543833333333}, {"fusion_lat": 0.0, "type": "electric_scooter", "name": "6793c4414fd3882e2fd6968000f20686", "fusion_lon": 0.0, "bike_id": "6793c4414fd3882e2fd6968000f20686", "is_reserved": 0, "rental_uris": {"android": "https://dc.lft.to/lastmile_qr_scan", "ios": "https://dc.lft.to/lastmile_qr_scan"}, "lat": 38.922580833333335, "is_disabled": 0, "lon": -77.02968433333334}, {"fusion_lat": 0.0, "type": "electric_scooter", "name": "bd2b573b82caecba6a8413ef78049f13", "fusion_lon": 0.0, "bike_id": "bd2b573b82caecba6a8413ef78049f13", "is_reserved": 0, "rental_uris": {"android": "https://dc.lft.to/lastmile_qr_scan", "ios": "https://dc.lft.to/lastmile_qr_scan"}, "lat": 38.891507, "is_disabled": 0, "lon": -76.98385116666667}, {"fusion_lat": 0.0, "type": "electric_scooter", "name": "a2a6cbb5ffee67731367378e0a6a8a87", "fusion_lon": 0.0, "bike_id": "a2a6cbb5ffee67731367378e0a6a8a87", "is_reserved": 0, "rental_uris": {"android": "https://dc.lft.to/lastmile_qr_scan", "ios": "https://dc.lft.to/lastmile_qr_scan"}, "lat": 38.907704, "is_disabled": 0, "lon": -77.03497333333334}, {"fusion_lat": 0.0, "type": "electric_scooter", "name": "ae4f6ef272dacf5bfa7588c9253b251a", "fusion_lon": 0.0, "bike_id": "ae4f6ef272dacf5bfa7588c9253b251a", "is_reserved": 0, "rental_uris": {"android": "https://dc.lft.to/lastmile_qr_scan", "ios": "https://dc.lft.to/lastmile_qr_scan"}, "lat": 38.92336516666667, "is_disabled": 0, "lon": -77.0446465}, {"fusion_lat": 0.0, "type": "electric_scooter", "name": "22ad17e1150152eb2008477a4165e6ce", "fusion_lon": 0.0, "bike_id": "22ad17e1150152eb2008477a4165e6ce", "is_reserved": 0, "rental_uris": {"android": "https://dc.lft.to/lastmile_qr_scan", "ios": "https://dc.lft.to/lastmile_qr_scan"}, "lat": 38.8916885, "is_disabled": 0, "lon": -76.91194}, {"fusion_lat": 0.0, "type": "electric_scooter", "name": "743dfe6197e6c66939b234faf008fefb", "fusion_lon": 0.0, "bike_id": "743dfe6197e6c66939b234faf008fefb", "is_reserved": 0, "rental_uris": {"android": "https://dc.lft.to/lastmile_qr_scan", "ios": "https://dc.lft.to/lastmile_qr_scan"}, "lat": 38.86421416666666, "is_disabled": 0, "lon": -76.97437533333333}, {"fusion_lat": 0.0, "type": "electric_scooter", "name": "5cb4d1cd0784436924e7772ad6340b9c", "fusion_lon": 0.0, "bike_id": "5cb4d1cd0784436924e7772ad6340b9c", "is_reserved": 0, "rental_uris": {"android": "https://dc.lft.to/lastmile_qr_scan", "ios": "https://dc.lft.to/lastmile_qr_scan"}, "lat": 38.908191, "is_disabled": 0, "lon": -77.04346166666667}, {"fusion_lat": 0.0, "type": "electric_scooter", "name": "14886e564e8fb8ee2d44036e361f368b", "fusion_lon": 0.0, "bike_id": "14886e564e8fb8ee2d44036e361f368b", "is_reserved": 0, "rental_uris": {"android": "https://dc.lft.to/lastmile_qr_scan", "ios": "https://dc.lft.to/lastmile_qr_scan"}, "lat": 38.899901, "is_disabled": 0, "lon": -77.00671233333334}, {"fusion_lat": 0.0, "type": "electric_scooter", "name": "d6df162edc4b831f574efb2944530002", "fusion_lon": 0.0, "bike_id": "d6df162edc4b831f574efb2944530002", "is_reserved": 0, "rental_uris": {"android": "https://dc.lft.to/lastmile_qr_scan", "ios": "https://dc.lft.to/lastmile_qr_scan"}, "lat": 38.918146666666665, "is_disabled": 0, "lon": -77.03200733333334}, {"fusion_lat": 0.0, "type": "electric_bike", "name": "6cad02cdce6102272b8a394914241da6", "fusion_lon": 0.0, "bike_id": "6cad02cdce6102272b8a394914241da6", "is_reserved": 0, "rental_uris": {"android": "https://dc.lft.to/lastmile_qr_scan", "ios": "https://dc.lft.to/lastmile_qr_scan"}, "lat": 38.981548, "is_disabled": 0, "lon": -77.02639766666667}, {"fusion_lat": 0.0, "type": "electric_bike", "name": "def5bc50da983fb3431a19c31f01c362", "fusion_lon": 0.0, "bike_id": "def5bc50da983fb3431a19c31f01c362", "is_reserved": 0, "rental_uris": {"android": "https://dc.lft.to/lastmile_qr_scan", "ios": "https://dc.lft.to/lastmile_qr_scan"}, "lat": 38.859351833333335, "is_disabled": 0, "lon": -77.11827933333333}, {"fusion_lat": 0.0, "type": "electric_scooter", "name": "e1971f5fb00260274224a158221017a8", "fusion_lon": 0.0, "bike_id": "e1971f5fb00260274224a158221017a8", "is_reserved": 0, "rental_uris": {"android": "https://dc.lft.to/lastmile_qr_scan", "ios": "https://dc.lft.to/lastmile_qr_scan"}, "lat": 38.9200735, "is_disabled": 0, "lon": -77.02406683333334}, {"fusion_lat": 0.0, "type": "electric_scooter", "name": "0af50a784c97416f7c9a05411ff434fc", "fusion_lon": 0.0, "bike_id": "0af50a784c97416f7c9a05411ff434fc", "is_reserved": 0, "rental_uris": {"android": "https://dc.lft.to/lastmile_qr_scan", "ios": "https://dc.lft.to/lastmile_qr_scan"}, "lat": 38.886083, "is_disabled": 0, "lon": -77.00136983333333}, {"fusion_lat": 0.0, "type": "electric_scooter", "name": "835b0b68e952545a76907651d146b79b", "fusion_lon": 0.0, "bike_id": "835b0b68e952545a76907651d146b79b", "is_reserved": 0, "rental_uris": {"android": "https://dc.lft.to/lastmile_qr_scan", "ios": "https://dc.lft.to/lastmile_qr_scan"}, "lat": 38.864757833333336, "is_disabled": 0, "lon": -76.982274}, {"fusion_lat": 0.0, "type": "electric_scooter", "name": "c17ee99cf14f47f7217b0f4e4301b721", "fusion_lon": 0.0, "bike_id": "c17ee99cf14f47f7217b0f4e4301b721", "is_reserved": 0, "rental_uris": {"android": "https://dc.lft.to/lastmile_qr_scan", "ios": "https://dc.lft.to/lastmile_qr_scan"}, "lat": 38.92152983333333, "is_disabled": 0, "lon": -77.03383166666667}, {"fusion_lat": 0.0, "type": "electric_scooter", "name": "dfb83df7e98e939049c94bfa95610f80", "fusion_lon": 0.0, "bike_id": "dfb83df7e98e939049c94bfa95610f80", "is_reserved": 0, "rental_uris": {"android": "https://dc.lft.to/lastmile_qr_scan", "ios": "https://dc.lft.to/lastmile_qr_scan"}, "lat": 38.92034833333334, "is_disabled": 0, "lon": -77.04177466666667}, {"fusion_lat": 0.0, "type": "electric_scooter", "name": "3531ac03f52beb0e30a31fdd52b85915", "fusion_lon": 0.0, "bike_id": "3531ac03f52beb0e30a31fdd52b85915", "is_reserved": 0, "rental_uris": {"android": "https://dc.lft.to/lastmile_qr_scan", "ios": "https://dc.lft.to/lastmile_qr_scan"}, "lat": 38.94985783333333, "is_disabled": 0, "lon": -77.02705633333333}, {"fusion_lat": 0.0, "type": "electric_scooter", "name": "76a04cb4cea39070bf5916789264bb9b", "fusion_lon": 0.0, "bike_id": "76a04cb4cea39070bf5916789264bb9b", "is_reserved": 0, "rental_uris": {"android": "https://dc.lft.to/lastmile_qr_scan", "ios": "https://dc.lft.to/lastmile_qr_scan"}, "lat": 38.887134, "is_disabled": 0, "lon": -77.02208883333333}, {"fusion_lat": 0.0, "type": "electric_scooter", "name": "6addf485b8a1f83a2e8f24df54636324", "fusion_lon": 0.0, "bike_id": "6addf485b8a1f83a2e8f24df54636324", "is_reserved": 0, "rental_uris": {"android": "https://dc.lft.to/lastmile_qr_scan", "ios": "https://dc.lft.to/lastmile_qr_scan"}, "lat": 38.9240855, "is_disabled": 0, "lon": -77.029764}, {"fusion_lat": 0.0, "type": "electric_scooter", "name": "9d1de95bc420e84e631ceebb99e6cf88", "fusion_lon": 0.0, "bike_id": "9d1de95bc420e84e631ceebb99e6cf88", "is_reserved": 0, "rental_uris": {"android": "https://dc.lft.to/lastmile_qr_scan", "ios": "https://dc.lft.to/lastmile_qr_scan"}, "lat": 38.90954716666667, "is_disabled": 0, "lon": -76.98538016666667}, {"fusion_lat": 0.0, "type": "electric_scooter", "name": "765b4105149994ad1525b621c3d4c968", "fusion_lon": 0.0, "bike_id": "765b4105149994ad1525b621c3d4c968", "is_reserved": 0, "rental_uris": {"android": "https://dc.lft.to/lastmile_qr_scan", "ios": "https://dc.lft.to/lastmile_qr_scan"}, "lat": 38.9432615, "is_disabled": 0, "lon": -77.02682516666667}, {"fusion_lat": 0.0, "type": "electric_scooter", "name": "cc6a49e6c4ad1598e57c3f7fa3f215ab", "fusion_lon": 0.0, "bike_id": "cc6a49e6c4ad1598e57c3f7fa3f215ab", "is_reserved": 0, "rental_uris": {"android": "https://dc.lft.to/lastmile_qr_scan", "ios": "https://dc.lft.to/lastmile_qr_scan"}, "lat": 38.87479366666667, "is_disabled": 0, "lon": -77.018935}, {"fusion_lat": 0.0, "type": "electric_scooter", "name": "e88d955e9a28e35c1c19ef454d4a33ac", "fusion_lon": 0.0, "bike_id": "e88d955e9a28e35c1c19ef454d4a33ac", "is_reserved": 0, "rental_uris": {"android": "https://dc.lft.to/lastmile_qr_scan", "ios": "https://dc.lft.to/lastmile_qr_scan"}, "lat": 38.95279266666667, "is_disabled": 0, "lon": -77.06980416666667}, {"fusion_lat": 0.0, "type": "electric_scooter", "name": "37c090372fa5f4352c68b007b41edb7d", "fusion_lon": 0.0, "bike_id": "37c090372fa5f4352c68b007b41edb7d", "is_reserved": 0, "rental_uris": {"android": "https://dc.lft.to/lastmile_qr_scan", "ios": "https://dc.lft.to/lastmile_qr_scan"}, "lat": 38.9248395, "is_disabled": 0, "lon": -77.041639}, {"fusion_lat": 0.0, "type": "electric_scooter", "name": "04c09752df62314cd05d9437ac8ee409", "fusion_lon": 0.0, "bike_id": "04c09752df62314cd05d9437ac8ee409", "is_reserved": 0, "rental_uris": {"android": "https://dc.lft.to/lastmile_qr_scan", "ios": "https://dc.lft.to/lastmile_qr_scan"}, "lat": 38.916448, "is_disabled": 0, "lon": -77.04269233333333}, {"fusion_lat": 0.0, "type": "electric_scooter", "name": "d7878826c288326aada9fdd92a8fc8b0", "fusion_lon": 0.0, "bike_id": "d7878826c288326aada9fdd92a8fc8b0", "is_reserved": 0, "rental_uris": {"android": "https://dc.lft.to/lastmile_qr_scan", "ios": "https://dc.lft.to/lastmile_qr_scan"}, "lat": 38.9226095, "is_disabled": 0, "lon": -77.020388}, {"fusion_lat": 0.0, "type": "electric_scooter", "name": "3e3eeb01bdc103a0e8b7997e81e49742", "fusion_lon": 0.0, "bike_id": "3e3eeb01bdc103a0e8b7997e81e49742", "is_reserved": 0, "rental_uris": {"android": "https://dc.lft.to/lastmile_qr_scan", "ios": "https://dc.lft.to/lastmile_qr_scan"}, "lat": 38.87631566666667, "is_disabled": 0, "lon": -77.012659}, {"fusion_lat": 0.0, "type": "electric_scooter", "name": "626b5a2361c9c7d299987843f55ad10a", "fusion_lon": 0.0, "bike_id": "626b5a2361c9c7d299987843f55ad10a", "is_reserved": 0, "rental_uris": {"android": "https://dc.lft.to/lastmile_qr_scan", "ios": "https://dc.lft.to/lastmile_qr_scan"}, "lat": 38.899011, "is_disabled": 0, "lon": -77.03939633333333}, {"fusion_lat": 0.0, "type": "electric_scooter", "name": "bf79ab0735fe7b6e72c180ce08004d66", "fusion_lon": 0.0, "bike_id": "bf79ab0735fe7b6e72c180ce08004d66", "is_reserved": 0, "rental_uris": {"android": "https://dc.lft.to/lastmile_qr_scan", "ios": "https://dc.lft.to/lastmile_qr_scan"}, "lat": 38.880923333333335, "is_disabled": 0, "lon": -76.99837733333334}, {"fusion_lat": 0.0, "type": "electric_scooter", "name": "7968c6882d8a5ab476a613b12647daa4", "fusion_lon": 0.0, "bike_id": "7968c6882d8a5ab476a613b12647daa4", "is_reserved": 0, "rental_uris": {"android": "https://dc.lft.to/lastmile_qr_scan", "ios": "https://dc.lft.to/lastmile_qr_scan"}, "lat": 38.87290633333333, "is_disabled": 0, "lon": -77.00987166666667}, {"fusion_lat": 0.0, "type": "electric_scooter", "name": "2aeb497b427441b739a4a033460865f8", "fusion_lon": 0.0, "bike_id": "2aeb497b427441b739a4a033460865f8", "is_reserved": 0, "rental_uris": {"android": "https://dc.lft.to/lastmile_qr_scan", "ios": "https://dc.lft.to/lastmile_qr_scan"}, "lat": 38.935805333333334, "is_disabled": 0, "lon": -77.03507533333334}, {"fusion_lat": 0.0, "type": "electric_scooter", "name": "0197975ddf5108b4c30bcff49025914a", "fusion_lon": 0.0, "bike_id": "0197975ddf5108b4c30bcff49025914a", "is_reserved": 0, "rental_uris": {"android": "https://dc.lft.to/lastmile_qr_scan", "ios": "https://dc.lft.to/lastmile_qr_scan"}, "lat": 38.860071, "is_disabled": 0, "lon": -76.98520633333334}, {"fusion_lat": 0.0, "type": "electric_scooter", "name": "3c22df187bcaa11a8d0b059c29bf5506", "fusion_lon": 0.0, "bike_id": "3c22df187bcaa11a8d0b059c29bf5506", "is_reserved": 0, "rental_uris": {"android": "https://dc.lft.to/lastmile_qr_scan", "ios": "https://dc.lft.to/lastmile_qr_scan"}, "lat": 38.90318633333333, "is_disabled": 0, "lon": -76.9911885}, {"fusion_lat": 0.0, "type": "electric_scooter", "name": "7d512f6028adf7842a650d3d87eb589a", "fusion_lon": 0.0, "bike_id": "7d512f6028adf7842a650d3d87eb589a", "is_reserved": 0, "rental_uris": {"android": "https://dc.lft.to/lastmile_qr_scan", "ios": "https://dc.lft.to/lastmile_qr_scan"}, "lat": 38.91806533333333, "is_disabled": 0, "lon": -77.03144766666666}, {"fusion_lat": 0.0, "type": "electric_scooter", "name": "8923651d00806eb0b964893331025bb7", "fusion_lon": 0.0, "bike_id": "8923651d00806eb0b964893331025bb7", "is_reserved": 0, "rental_uris": {"android": "https://dc.lft.to/lastmile_qr_scan", "ios": "https://dc.lft.to/lastmile_qr_scan"}, "lat": 38.89722066666667, "is_disabled": 0, "lon": -77.04355966666667}, {"fusion_lat": 0.0, "type": "electric_scooter", "name": "134942962a5a90434c9b441a7f02e731", "fusion_lon": 0.0, "bike_id": "134942962a5a90434c9b441a7f02e731", "is_reserved": 0, "rental_uris": {"android": "https://dc.lft.to/lastmile_qr_scan", "ios": "https://dc.lft.to/lastmile_qr_scan"}, "lat": 38.8670165, "is_disabled": 0, "lon": -76.9871315}, {"fusion_lat": 0.0, "type": "electric_scooter", "name": "a25e3355b7fa5e17e3db2c7b5a7f3155", "fusion_lon": 0.0, "bike_id": "a25e3355b7fa5e17e3db2c7b5a7f3155", "is_reserved": 0, "rental_uris": {"android": "https://dc.lft.to/lastmile_qr_scan", "ios": "https://dc.lft.to/lastmile_qr_scan"}, "lat": 38.892207666666664, "is_disabled": 0, "lon": -77.03220316666666}, {"fusion_lat": 0.0, "type": "electric_scooter", "name": "4ae00ffc4b0740a2d128b5c647c55b0c", "fusion_lon": 0.0, "bike_id": "4ae00ffc4b0740a2d128b5c647c55b0c", "is_reserved": 0, "rental_uris": {"android": "https://dc.lft.to/lastmile_qr_scan", "ios": "https://dc.lft.to/lastmile_qr_scan"}, "lat": 38.88289866666667, "is_disabled": 0, "lon": -77.00641516666667}, {"fusion_lat": 0.0, "type": "electric_scooter", "name": "e3d580fa831d8e22ce9c0dabfa0e2883", "fusion_lon": 0.0, "bike_id": "e3d580fa831d8e22ce9c0dabfa0e2883", "is_reserved": 0, "rental_uris": {"android": "https://dc.lft.to/lastmile_qr_scan", "ios": "https://dc.lft.to/lastmile_qr_scan"}, "lat": 38.89834366666667, "is_disabled": 0, "lon": -77.02849766666667}, {"fusion_lat": 0.0, "type": "electric_scooter", "name": "eceb05692d7c159c4846d3d217c8b4d8", "fusion_lon": 0.0, "bike_id": "eceb05692d7c159c4846d3d217c8b4d8", "is_reserved": 0, "rental_uris": {"android": "https://dc.lft.to/lastmile_qr_scan", "ios": "https://dc.lft.to/lastmile_qr_scan"}, "lat": 38.90885383333333, "is_disabled": 0, "lon": -77.04334916666667}, {"fusion_lat": 0.0, "type": "electric_scooter", "name": "721603003b9349bc5d289ff95c19f502", "fusion_lon": 0.0, "bike_id": "721603003b9349bc5d289ff95c19f502", "is_reserved": 0, "rental_uris": {"android": "https://dc.lft.to/lastmile_qr_scan", "ios": "https://dc.lft.to/lastmile_qr_scan"}, "lat": 38.923347166666666, "is_disabled": 0, "lon": -77.03523683333333}, {"fusion_lat": 0.0, "type": "electric_scooter", "name": "22fa6cdb269995b1b6c73eade4238e75", "fusion_lon": 0.0, "bike_id": "22fa6cdb269995b1b6c73eade4238e75", "is_reserved": 0, "rental_uris": {"android": "https://dc.lft.to/lastmile_qr_scan", "ios": "https://dc.lft.to/lastmile_qr_scan"}, "lat": 38.8923275, "is_disabled": 0, "lon": -77.03210316666667}, {"fusion_lat": 0.0, "type": "electric_bike", "name": "bc30bcd90e0512932c783a8c329e4015", "fusion_lon": 0.0, "bike_id": "bc30bcd90e0512932c783a8c329e4015", "is_reserved": 0, "rental_uris": {"android": "https://dc.lft.to/lastmile_qr_scan", "ios": "https://dc.lft.to/lastmile_qr_scan"}, "lat": 38.8191005, "is_disabled": 0, "lon": -76.99909433333333}, {"fusion_lat": 0.0, "type": "electric_scooter", "name": "fb3a28f311331e2ce4f6a9fad0a80620", "fusion_lon": 0.0, "bike_id": "fb3a28f311331e2ce4f6a9fad0a80620", "is_reserved": 0, "rental_uris": {"android": "https://dc.lft.to/lastmile_qr_scan", "ios": "https://dc.lft.to/lastmile_qr_scan"}, "lat": 38.9846, "is_disabled": 0, "lon": -77.02686933333334}, {"fusion_lat": 0.0, "type": "electric_scooter", "name": "fe85cbf5d2acce50c41b0294ab81f9fc", "fusion_lon": 0.0, "bike_id": "fe85cbf5d2acce50c41b0294ab81f9fc", "is_reserved": 0, "rental_uris": {"android": "https://dc.lft.to/lastmile_qr_scan", "ios": "https://dc.lft.to/lastmile_qr_scan"}, "lat": 38.87471383333333, "is_disabled": 0, "lon": -77.00873716666666}, {"fusion_lat": 0.0, "type": "electric_scooter", "name": "97f62de16cee6b68c57e293977272f4a", "fusion_lon": 0.0, "bike_id": "97f62de16cee6b68c57e293977272f4a", "is_reserved": 0, "rental_uris": {"android": "https://dc.lft.to/lastmile_qr_scan", "ios": "https://dc.lft.to/lastmile_qr_scan"}, "lat": 38.865033333333336, "is_disabled": 0, "lon": -76.98998333333333}, {"fusion_lat": 0.0, "type": "electric_scooter", "name": "2775430570aab7d39992bf7c311be0a1", "fusion_lon": 0.0, "bike_id": "2775430570aab7d39992bf7c311be0a1", "is_reserved": 0, "rental_uris": {"android": "https://dc.lft.to/lastmile_qr_scan", "ios": "https://dc.lft.to/lastmile_qr_scan"}, "lat": 38.930645166666665, "is_disabled": 0, "lon": -77.03344233333333}, {"fusion_lat": 0.0, "type": "electric_scooter", "name": "222817b31c86807b05dd2f9a3ff00381", "fusion_lon": 0.0, "bike_id": "222817b31c86807b05dd2f9a3ff00381", "is_reserved": 0, "rental_uris": {"android": "https://dc.lft.to/lastmile_qr_scan", "ios": "https://dc.lft.to/lastmile_qr_scan"}, "lat": 38.939546, "is_disabled": 0, "lon": -77.07249183333333}, {"fusion_lat": 0.0, "type": "electric_bike", "name": "59b53c8ddf6aa05a1212a84f6bae5c98", "fusion_lon": 0.0, "bike_id": "59b53c8ddf6aa05a1212a84f6bae5c98", "is_reserved": 0, "rental_uris": {"android": "https://dc.lft.to/lastmile_qr_scan", "ios": "https://dc.lft.to/lastmile_qr_scan"}, "lat": 38.8651335, "is_disabled": 0, "lon": -76.97330383333333}, {"fusion_lat": 0.0, "type": "electric_scooter", "name": "7121fbb9976e0c98de2b32fbfd1e7879", "fusion_lon": 0.0, "bike_id": "7121fbb9976e0c98de2b32fbfd1e7879", "is_reserved": 0, "rental_uris": {"android": "https://dc.lft.to/lastmile_qr_scan", "ios": "https://dc.lft.to/lastmile_qr_scan"}, "lat": 38.93904783333333, "is_disabled": 0, "lon": -77.024727}, {"fusion_lat": 0.0, "type": "electric_scooter", "name": "6c204eb23da16864098044631ddc88ad", "fusion_lon": 0.0, "bike_id": "6c204eb23da16864098044631ddc88ad", "is_reserved": 0, "rental_uris": {"android": "https://dc.lft.to/lastmile_qr_scan", "ios": "https://dc.lft.to/lastmile_qr_scan"}, "lat": 38.941989, "is_disabled": 0, "lon": -77.02503033333333}, {"fusion_lat": 0.0, "type": "electric_scooter", "name": "2eaa67a3acc71d73d2dfd5713e51327c", "fusion_lon": 0.0, "bike_id": "2eaa67a3acc71d73d2dfd5713e51327c", "is_reserved": 0, "rental_uris": {"android": "https://dc.lft.to/lastmile_qr_scan", "ios": "https://dc.lft.to/lastmile_qr_scan"}, "lat": 38.88745616666667, "is_disabled": 0, "lon": -77.02734666666667}, {"fusion_lat": 0.0, "type": "electric_bike", "name": "8614f0046d725a32e41b1968ce31f2ab", "fusion_lon": 0.0, "bike_id": "8614f0046d725a32e41b1968ce31f2ab", "is_reserved": 0, "rental_uris": {"android": "https://dc.lft.to/lastmile_qr_scan", "ios": "https://dc.lft.to/lastmile_qr_scan"}, "lat": 38.9622115, "is_disabled": 0, "lon": -76.93494183333334}, {"fusion_lat": 0.0, "type": "electric_scooter", "name": "2256b4039ce330ef1d78ee08c6547f0b", "fusion_lon": 0.0, "bike_id": "2256b4039ce330ef1d78ee08c6547f0b", "is_reserved": 0, "rental_uris": {"android": "https://dc.lft.to/lastmile_qr_scan", "ios": "https://dc.lft.to/lastmile_qr_scan"}, "lat": 38.92927383333333, "is_disabled": 0, "lon": -77.03744683333333}, {"fusion_lat": 0.0, "type": "electric_scooter", "name": "9b07696da7646d844330015cd70f09d7", "fusion_lon": 0.0, "bike_id": "9b07696da7646d844330015cd70f09d7", "is_reserved": 0, "rental_uris": {"android": "https://dc.lft.to/lastmile_qr_scan", "ios": "https://dc.lft.to/lastmile_qr_scan"}, "lat": 38.96043066666667, "is_disabled": 0, "lon": -77.0854375}, {"fusion_lat": 0.0, "type": "electric_scooter", "name": "647589cf5714c41608198eefa1726167", "fusion_lon": 0.0, "bike_id": "647589cf5714c41608198eefa1726167", "is_reserved": 0, "rental_uris": {"android": "https://dc.lft.to/lastmile_qr_scan", "ios": "https://dc.lft.to/lastmile_qr_scan"}, "lat": 38.905561166666665, "is_disabled": 0, "lon": -77.04654416666666}, {"fusion_lat": 0.0, "type": "electric_scooter", "name": "5b668d33cc518b9612fc29f21db25d7a", "fusion_lon": 0.0, "bike_id": "5b668d33cc518b9612fc29f21db25d7a", "is_reserved": 0, "rental_uris": {"android": "https://dc.lft.to/lastmile_qr_scan", "ios": "https://dc.lft.to/lastmile_qr_scan"}, "lat": 38.91107866666667, "is_disabled": 0, "lon": -77.03833433333334}, {"fusion_lat": 0.0, "type": "electric_scooter", "name": "6f828bc20e28f3b5a137b351bc068c07", "fusion_lon": 0.0, "bike_id": "6f828bc20e28f3b5a137b351bc068c07", "is_reserved": 0, "rental_uris": {"android": "https://dc.lft.to/lastmile_qr_scan", "ios": "https://dc.lft.to/lastmile_qr_scan"}, "lat": 38.91812933333333, "is_disabled": 0, "lon": -77.02479033333333}, {"fusion_lat": 0.0, "type": "electric_scooter", "name": "b3084e306b0a89032150141ed503fb4a", "fusion_lon": 0.0, "bike_id": "b3084e306b0a89032150141ed503fb4a", "is_reserved": 0, "rental_uris": {"android": "https://dc.lft.to/lastmile_qr_scan", "ios": "https://dc.lft.to/lastmile_qr_scan"}, "lat": 38.90898416666667, "is_disabled": 0, "lon": -77.01886716666667}, {"fusion_lat": 0.0, "type": "electric_scooter", "name": "f1735262f184698f05295e5ba1999665", "fusion_lon": 0.0, "bike_id": "f1735262f184698f05295e5ba1999665", "is_reserved": 0, "rental_uris": {"android": "https://dc.lft.to/lastmile_qr_scan", "ios": "https://dc.lft.to/lastmile_qr_scan"}, "lat": 38.922514166666666, "is_disabled": 0, "lon": -77.0430005}, {"fusion_lat": 0.0, "type": "electric_bike", "name": "294e622d7442c1adf42b9a65c2e19b45", "fusion_lon": 0.0, "bike_id": "294e622d7442c1adf42b9a65c2e19b45", "is_reserved": 0, "rental_uris": {"android": "https://dc.lft.to/lastmile_qr_scan", "ios": "https://dc.lft.to/lastmile_qr_scan"}, "lat": 38.865817, "is_disabled": 0, "lon": -77.047626}, {"fusion_lat": 0.0, "type": "electric_scooter", "name": "4a8543164c66c452607695b939dd7f9b", "fusion_lon": 0.0, "bike_id": "4a8543164c66c452607695b939dd7f9b", "is_reserved": 0, "rental_uris": {"android": "https://dc.lft.to/lastmile_qr_scan", "ios": "https://dc.lft.to/lastmile_qr_scan"}, "lat": 38.945093666666665, "is_disabled": 0, "lon": -77.07451516666667}, {"fusion_lat": 0.0, "type": "electric_scooter", "name": "75d58598b4a2e7ed9375231914b82ceb", "fusion_lon": 0.0, "bike_id": "75d58598b4a2e7ed9375231914b82ceb", "is_reserved": 0, "rental_uris": {"android": "https://dc.lft.to/lastmile_qr_scan", "ios": "https://dc.lft.to/lastmile_qr_scan"}, "lat": 38.920550666666664, "is_disabled": 0, "lon": -77.04698516666667}, {"fusion_lat": 0.0, "type": "electric_scooter", "name": "17c7606538dea5897eabb3a4e13d507a", "fusion_lon": 0.0, "bike_id": "17c7606538dea5897eabb3a4e13d507a", "is_reserved": 0, "rental_uris": {"android": "https://dc.lft.to/lastmile_qr_scan", "ios": "https://dc.lft.to/lastmile_qr_scan"}, "lat": 38.84314883333333, "is_disabled": 0, "lon": -76.99933266666666}, {"fusion_lat": 0.0, "type": "electric_bike", "name": "70c3d6afd33beda34bf0ece4d8ae6c5f", "fusion_lon": 0.0, "bike_id": "70c3d6afd33beda34bf0ece4d8ae6c5f", "is_reserved": 0, "rental_uris": {"android": "https://dc.lft.to/lastmile_qr_scan", "ios": "https://dc.lft.to/lastmile_qr_scan"}, "lat": 39.056324, "is_disabled": 0, "lon": -77.12527583333333}, {"fusion_lat": 0.0, "type": "electric_scooter", "name": "e7868acc41e05ab62495b86fc21479aa", "fusion_lon": 0.0, "bike_id": "e7868acc41e05ab62495b86fc21479aa", "is_reserved": 0, "rental_uris": {"android": "https://dc.lft.to/lastmile_qr_scan", "ios": "https://dc.lft.to/lastmile_qr_scan"}, "lat": 38.88267583333333, "is_disabled": 0, "lon": -76.9900295}, {"fusion_lat": 0.0, "type": "electric_scooter", "name": "3d1f7ca4b833b66648356447c97a5635", "fusion_lon": 0.0, "bike_id": "3d1f7ca4b833b66648356447c97a5635", "is_reserved": 0, "rental_uris": {"android": "https://dc.lft.to/lastmile_qr_scan", "ios": "https://dc.lft.to/lastmile_qr_scan"}, "lat": 38.9196455, "is_disabled": 0, "lon": -77.04315466666667}, {"fusion_lat": 0.0, "type": "electric_scooter", "name": "60983b7a7becae90ea6fb08ffb1f6090", "fusion_lon": 0.0, "bike_id": "60983b7a7becae90ea6fb08ffb1f6090", "is_reserved": 0, "rental_uris": {"android": "https://dc.lft.to/lastmile_qr_scan", "ios": "https://dc.lft.to/lastmile_qr_scan"}, "lat": 38.8812085, "is_disabled": 0, "lon": -77.01660366666667}, {"fusion_lat": 0.0, "type": "electric_scooter", "name": "1b7da029ae8b2afb61b3b4cff41dcb51", "fusion_lon": 0.0, "bike_id": "1b7da029ae8b2afb61b3b4cff41dcb51", "is_reserved": 0, "rental_uris": {"android": "https://dc.lft.to/lastmile_qr_scan", "ios": "https://dc.lft.to/lastmile_qr_scan"}, "lat": 38.91891966666667, "is_disabled": 0, "lon": -77.029758}, {"fusion_lat": 0.0, "type": "electric_scooter", "name": "194b01c3ef74aeb5d19fb3ebe45bc4f6", "fusion_lon": 0.0, "bike_id": "194b01c3ef74aeb5d19fb3ebe45bc4f6", "is_reserved": 0, "rental_uris": {"android": "https://dc.lft.to/lastmile_qr_scan", "ios": "https://dc.lft.to/lastmile_qr_scan"}, "lat": 38.90321816666667, "is_disabled": 0, "lon": -77.033183}, {"fusion_lat": 0.0, "type": "electric_scooter", "name": "b9fff6c4c039e0246cfe9e35264530bc", "fusion_lon": 0.0, "bike_id": "b9fff6c4c039e0246cfe9e35264530bc", "is_reserved": 0, "rental_uris": {"android": "https://dc.lft.to/lastmile_qr_scan", "ios": "https://dc.lft.to/lastmile_qr_scan"}, "lat": 38.901318333333336, "is_disabled": 0, "lon": -77.04960416666667}, {"fusion_lat": 0.0, "type": "electric_scooter", "name": "670c6bb2283caecafed23e9ded127c59", "fusion_lon": 0.0, "bike_id": "670c6bb2283caecafed23e9ded127c59", "is_reserved": 0, "rental_uris": {"android": "https://dc.lft.to/lastmile_qr_scan", "ios": "https://dc.lft.to/lastmile_qr_scan"}, "lat": 38.92262233333334, "is_disabled": 0, "lon": -77.036879}, {"fusion_lat": 0.0, "type": "electric_scooter", "name": "d9de3a9f8d4bd6217a472c293be7a93b", "fusion_lon": 0.0, "bike_id": "d9de3a9f8d4bd6217a472c293be7a93b", "is_reserved": 0, "rental_uris": {"android": "https://dc.lft.to/lastmile_qr_scan", "ios": "https://dc.lft.to/lastmile_qr_scan"}, "lat": 38.89172633333333, "is_disabled": 0, "lon": -77.01566783333334}, {"fusion_lat": 0.0, "type": "electric_scooter", "name": "adf03c63d20d1b187a9c07b088874e5d", "fusion_lon": 0.0, "bike_id": "adf03c63d20d1b187a9c07b088874e5d", "is_reserved": 0, "rental_uris": {"android": "https://dc.lft.to/lastmile_qr_scan", "ios": "https://dc.lft.to/lastmile_qr_scan"}, "lat": 38.928435, "is_disabled": 0, "lon": -77.03246933333334}, {"fusion_lat": 0.0, "type": "electric_scooter", "name": "7bc96aa64bd5cf4bff992f99ca5009da", "fusion_lon": 0.0, "bike_id": "7bc96aa64bd5cf4bff992f99ca5009da", "is_reserved": 0, "rental_uris": {"android": "https://dc.lft.to/lastmile_qr_scan", "ios": "https://dc.lft.to/lastmile_qr_scan"}, "lat": 38.8950175, "is_disabled": 0, "lon": -76.93473883333333}, {"fusion_lat": 0.0, "type": "electric_scooter", "name": "d432696f9cd10a4fcba01e80fb26c809", "fusion_lon": 0.0, "bike_id": "d432696f9cd10a4fcba01e80fb26c809", "is_reserved": 0, "rental_uris": {"android": "https://dc.lft.to/lastmile_qr_scan", "ios": "https://dc.lft.to/lastmile_qr_scan"}, "lat": 38.91562166666667, "is_disabled": 0, "lon": -77.025845}, {"fusion_lat": 0.0, "type": "electric_bike", "name": "9214dde5569a5f97732357670e0522f6", "fusion_lon": 0.0, "bike_id": "9214dde5569a5f97732357670e0522f6", "is_reserved": 0, "rental_uris": {"android": "https://dc.lft.to/lastmile_qr_scan", "ios": "https://dc.lft.to/lastmile_qr_scan"}, "lat": 38.9574795, "is_disabled": 0, "lon": -77.02297616666667}, {"fusion_lat": 0.0, "type": "electric_scooter", "name": "83fcd889f8a684d8112b38fe826e5462", "fusion_lon": 0.0, "bike_id": "83fcd889f8a684d8112b38fe826e5462", "is_reserved": 0, "rental_uris": {"android": "https://dc.lft.to/lastmile_qr_scan", "ios": "https://dc.lft.to/lastmile_qr_scan"}, "lat": 38.920167, "is_disabled": 0, "lon": -77.01304633333334}, {"fusion_lat": 0.0, "type": "electric_scooter", "name": "6b1a8f40598015a4420ee69c06fbe552", "fusion_lon": 0.0, "bike_id": "6b1a8f40598015a4420ee69c06fbe552", "is_reserved": 0, "rental_uris": {"android": "https://dc.lft.to/lastmile_qr_scan", "ios": "https://dc.lft.to/lastmile_qr_scan"}, "lat": 38.86411783333333, "is_disabled": 0, "lon": -77.0122}, {"fusion_lat": 0.0, "type": "electric_scooter", "name": "64f9fb25624a0401919dd98311432f3b", "fusion_lon": 0.0, "bike_id": "64f9fb25624a0401919dd98311432f3b", "is_reserved": 0, "rental_uris": {"android": "https://dc.lft.to/lastmile_qr_scan", "ios": "https://dc.lft.to/lastmile_qr_scan"}, "lat": 38.92246, "is_disabled": 0, "lon": -77.00918833333333}, {"fusion_lat": 0.0, "type": "electric_scooter", "name": "ca51afcbcffc08871cd1915cce597e8a", "fusion_lon": 0.0, "bike_id": "ca51afcbcffc08871cd1915cce597e8a", "is_reserved": 0, "rental_uris": {"android": "https://dc.lft.to/lastmile_qr_scan", "ios": "https://dc.lft.to/lastmile_qr_scan"}, "lat": 38.873584666666666, "is_disabled": 0, "lon": -77.00617383333334}, {"fusion_lat": 0.0, "type": "electric_bike", "name": "16289237f396a7cd40fb6198f94628a8", "fusion_lon": 0.0, "bike_id": "16289237f396a7cd40fb6198f94628a8", "is_reserved": 0, "rental_uris": {"android": "https://dc.lft.to/lastmile_qr_scan", "ios": "https://dc.lft.to/lastmile_qr_scan"}, "lat": 38.80424716666667, "is_disabled": 0, "lon": -77.05562266666666}, {"fusion_lat": 0.0, "type": "electric_scooter", "name": "5739e2391862eb774b97b2e483d611bf", "fusion_lon": 0.0, "bike_id": "5739e2391862eb774b97b2e483d611bf", "is_reserved": 0, "rental_uris": {"android": "https://dc.lft.to/lastmile_qr_scan", "ios": "https://dc.lft.to/lastmile_qr_scan"}, "lat": 38.90782683333333, "is_disabled": 0, "lon": -77.03862433333333}, {"fusion_lat": 0.0, "type": "electric_scooter", "name": "44afbdd751fd9daef27aad50f4b3567b", "fusion_lon": 0.0, "bike_id": "44afbdd751fd9daef27aad50f4b3567b", "is_reserved": 0, "rental_uris": {"android": "https://dc.lft.to/lastmile_qr_scan", "ios": "https://dc.lft.to/lastmile_qr_scan"}, "lat": 38.89943783333333, "is_disabled": 0, "lon": -77.02555866666667}, {"fusion_lat": 0.0, "type": "electric_scooter", "name": "00522c20c55592bd4c39e026eb12b59c", "fusion_lon": 0.0, "bike_id": "00522c20c55592bd4c39e026eb12b59c", "is_reserved": 0, "rental_uris": {"android": "https://dc.lft.to/lastmile_qr_scan", "ios": "https://dc.lft.to/lastmile_qr_scan"}, "lat": 38.87198016666667, "is_disabled": 0, "lon": -77.00579766666667}, {"fusion_lat": 0.0, "type": "electric_scooter", "name": "ccb4d4633b848fb171eb9d240669e0f4", "fusion_lon": 0.0, "bike_id": "ccb4d4633b848fb171eb9d240669e0f4", "is_reserved": 0, "rental_uris": {"android": "https://dc.lft.to/lastmile_qr_scan", "ios": "https://dc.lft.to/lastmile_qr_scan"}, "lat": 38.892229666666665, "is_disabled": 0, "lon": -77.02347866666666}, {"fusion_lat": 0.0, "type": "electric_bike", "name": "4c87f09046f58da204a3ad26d00f780d", "fusion_lon": 0.0, "bike_id": "4c87f09046f58da204a3ad26d00f780d", "is_reserved": 0, "rental_uris": {"android": "https://dc.lft.to/lastmile_qr_scan", "ios": "https://dc.lft.to/lastmile_qr_scan"}, "lat": 38.869394166666666, "is_disabled": 0, "lon": -77.094618}, {"fusion_lat": 0.0, "type": "electric_scooter", "name": "f2dc2ab9b6cc163e398ce2cd0a831755", "fusion_lon": 0.0, "bike_id": "f2dc2ab9b6cc163e398ce2cd0a831755", "is_reserved": 0, "rental_uris": {"android": "https://dc.lft.to/lastmile_qr_scan", "ios": "https://dc.lft.to/lastmile_qr_scan"}, "lat": 38.907997, "is_disabled": 0, "lon": -77.002109}, {"fusion_lat": 0.0, "type": "electric_scooter", "name": "6a962ac3074bf530240c855695f8a19c", "fusion_lon": 0.0, "bike_id": "6a962ac3074bf530240c855695f8a19c", "is_reserved": 0, "rental_uris": {"android": "https://dc.lft.to/lastmile_qr_scan", "ios": "https://dc.lft.to/lastmile_qr_scan"}, "lat": 38.93103033333333, "is_disabled": 0, "lon": -77.03265116666667},