{"data": {"bikes": [{"fusion_lat": 0.0, "type": "electric_scooter", "name": "fd5823108044ed5ed58cfd1d64868f9e", "fusion_lon": 0.0, "bike_id": "fd5823108044ed5ed58cfd1d64868f9e", "is_reserved": 0, "rental_uris": {"android": "https://dc.lft.to/lastmile_qr_scan", "ios": "https://dc.lft.to/lastmile_qr_scan"}, "lat": 38.9162385, "is_disabled": 0, "lon": -77.031365}, {"fusion_lat": 0.0, "type": "electric_bike", "name": "4ff5b3c215d2f153e6a28bbd57ae3542", "fusion_lon": 0.0, "bike_id": "4ff5b3c215d2f153e6a28bbd57ae3542", "is_reserved": 0, "rental_uris": {"android": "https://dc.lft.to/lastmile_qr_scan", "ios": "https://dc.lft.to/lastmile_qr_scan"}, "lat": 38.90269716666667, "is_disabled": 0, "lon": -76.92928966666666}, {"fusion_lat": 0.0, "type": "electric_scooter", "name": "96bffc89191129737fd9324e35b7a9df", "fusion_lon": 0.0, "bike_id": "96bffc89191129737fd9324e35b7a9df", "is_reserved": 0, "rental_uris": {"android": "https://dc.lft.to/lastmile_qr_scan", "ios": "https://dc.lft.to/lastmile_qr_scan"}, "lat": 38.91680316666667, "is_disabled": 0, "lon": -77.02809033333334}, {"fusion_lat": 0.0, "type": "electric_scooter", "name": "bdb91828b0d985852f8ba0ad04bf2034", "fusion_lon": 0.0, "bike_id": "bdb91828b0d985852f8ba0ad04bf2034", "is_reserved": 0, "rental_uris": {"android": "https://dc.lft.to/lastmile_qr_scan", "ios": "https://dc.lft.to/lastmile_qr_scan"}, "lat": 38.90954983333334, "is_disabled": 0, "lon": -77.05485166666666}, {"fusion_lat": 0.0, "type": "electric_scooter", "name": "597a671a12e9b6140653de3d03de7a05", "fusion_lon": 0.0, "bike_id": "597a671a12e9b6140653de3d03de7a05", "is_reserved": 0, "rental_uris": {"android": "https://dc.lft.to/lastmile_qr_scan", "ios": "https://dc.lft.to/lastmile_qr_scan"}, "lat": 38.9134745, "is_disabled": 0, "lon": -77.031861}, {"fusion_lat": 0.0, "type": "electric_scooter", "name": "7c9ba2029d6d8ce796534b494c93760d", "fusion_lon": 0.0, "bike_id": "7c9ba2029d6d8ce796534b494c93760d", "is_reserved": 0, "rental_uris": {"android": "https://dc.lft.to/lastmile_qr_scan", "ios": "https://dc.lft.to/lastmile_qr_scan"}, "lat": 38.892203, "is_disabled": 0, "lon": -77.0437005}, {"fusion_lat": 0.0, "type": "electric_scooter", "name": "aa57f262e68f5a4489e84c39b2bc9683", "fusion_lon": 0.0, "bike_id": "aa57f262e68f5a4489e84c39b2bc9683", "is_reserved": 0, "rental_uris": {"android": "https://dc.lft.to/lastmile_qr_scan", "ios": "https://dc.lft.to/lastmile_qr_scan"}, "lat": 38.911901666666665, "is_disabled": 0, "lon": -77.02959833333334}, {"fusion_lat": 0.0, "type": "electric_bike", "name": "eb0202a54cd8418afc3e5f3cd9a22cc4", "fusion_lon": 0.0, "bike_id": "eb0202a54cd8418afc3e5f3cd9a22cc4", "is_reserved": 0, "rental_uris": {"android": "https://dc.lft.to/lastmile_qr_scan", "ios": "https://dc.lft.to/lastmile_qr_scan"}, "lat": 39.0423275, "is_disabled": 0, "lon": -76.99740183333333}, {"fusion_lat": 0.0, "type": "electric_scooter", "name": "bc47469403b88f18bc15d69dee4d57e1", "fusion_lon": 0.0, "bike_id": "bc47469403b88f18bc15d69dee4d57e1", "is_reserved": 0, "rental_uris": {"android": "https://dc.lft.to/lastmile_qr_scan", "ios": "https://dc.lft.to/lastmile_qr_scan"}, "lat": 38.90956383333334, "is_disabled": 0, "lon": -77.00809116666667}, {"fusion_lat": 0.0, "type": "electric_scooter", "name": "a3fa41025575fd402d23a0f87fb70963", "fusion_lon": 0.0, "bike_id": "a3fa41025575fd402d23a0f87fb70963", "is_reserved": 0, "rental_uris": {"android": "https://dc.lft.to/lastmile_qr_scan", "ios": "https://dc.lft.to/lastmile_qr_scan"}, "lat": 38.89422916666667, "is_disabled": 0, "lon": -76.911591}, {"fusion_lat": 0.0, "type": "electric_scooter", "name": "447c05f878715d3ae3d1c2b8771fb62d", "fusion_lon": 0.0, "bike_id": "447c05f878715d3ae3d1c2b8771fb62d", "is_reserved": 0, "rental_uris": {"android": "https://dc.lft.to/lastmile_qr_scan", "ios": "https://dc.lft.to/lastmile_qr_scan"}, "lat": 38.9003365, "is_disabled": 0, "lon": -77.0297315}, {"fusion_lat": 0.0, "type": "electric_scooter", "name": "2f4ef90c0460ab15608af22e146ee07a", "fusion_lon": 0.0, "bike_id": "2f4ef90c0460ab15608af22e146ee07a", "is_reserved": 0, "rental_uris": {"android": "https://dc.lft.to/lastmile_qr_scan", "ios": "https://dc.lft.to/lastmile_qr_scan"}, "lat": 38.918436, "is_disabled": 0, "lon": -77.04498033333333}, {"fusion_lat": 0.0, "type": "electric_scooter", "name": "d01e149eccb84b61d396c2803f742b32", "fusion_lon": 0.0, "bike_id": "d01e149eccb84b61d396c2803f742b32", "is_reserved": 0, "rental_uris": {"android": "https://dc.lft.to/lastmile_qr_scan", "ios": "https://dc.lft.to/lastmile_qr_scan"}, "lat": 38.876753, "is_disabled": 0, "lon": -76.998265}, {"fusion_lat": 0.0, "type": "electric_scooter", "name": "d5596b8bd7221533ca4b78517b961894", "fusion_lon": 0.0, "bike_id": "d5596b8bd7221533ca4b78517b961894", "is_reserved": 0, "rental_uris": {"android": "https://dc.lft.to/lastmile_qr_scan", "ios": "https://dc.lft.to/lastmile_qr_scan"}, "lat": 38.89678216666667, "is_disabled": 0, "lon": -76.93534116666666}, {"fusion_lat": 0.0, "type": "electric_scooter", "name": "aa2d6a97e6f95db7afd7ec5bd5466c46", "fusion_lon": 0.0, "bike_id": "aa2d6a97e6f95db7afd7ec5bd5466c46", "is_reserved": 0, "rental_uris": {"android": "https://dc.lft.to/lastmile_qr_scan", "ios": "https://dc.lft.to/lastmile_qr_scan"}, "lat": 38.94181566666666, "is_disabled": 0, "lon": -77.02534666666666}, {"fusion_lat": 0.0, "type": "electric_scooter", "name": "0245189726d4f5e0dceddcaaf2334ec9", "fusion_lon": 0.0, "bike_id": "0245189726d4f5e0dceddcaaf2334ec9", "is_reserved": 0, "rental_uris": {"android": "https://dc.lft.to/lastmile_qr_scan", "ios": "https://dc.lft.to/lastmile_qr_scan"}, "lat": 38.91680133333333, "is_disabled": 0, "lon": -77.0294585}, {"fusion_lat": 0.0, "type": "electric_scooter", "name": "348b065d496609f46c4d7456e8d03dd6", "fusion_lon": 0.0, "bike_id": "348b065d496609f46c4d7456e8d03dd6", "is_reserved": 0, "rental_uris": {"android": "https://dc.lft.to/lastmile_qr_scan", "ios": "https://dc.lft.to/lastmile_qr_scan"}, "lat": 38.892193666666664, "is_disabled": 0, "lon": -77.03160516666667}, {"fusion_lat": 0.0, "type": "electric_scooter", "name": "cc8829b04c182c4fc88b0e2c62bf3b7d", "fusion_lon": 0.0, "bike_id": "cc8829b04c182c4fc88b0e2c62bf3b7d", "is_reserved": 0, "rental_uris": {"android": "https://dc.lft.to/lastmile_qr_scan", "ios": "https://dc.lft.to/lastmile_qr_scan"}, "lat": 38.92871383333333, "is_disabled": 0, "lon": -77.032908}, {"fusion_lat": 0.0, "type": "electric_scooter", "name": "955a2db5f93a4e19b6431b76830fefbb", "fusion_lon": 0.0, "bike_id": "955a2db5f93a4e19b6431b76830fefbb", "is_reserved": 0, "rental_uris": {"android": "https://dc.lft.to/lastmile_qr_scan", "ios": "https://dc.lft.to/lastmile_qr_scan"}, "lat": 38.93776016666666, "is_disabled": 0, "lon": -77.0326355}, {"fusion_lat": 0.0, "type": "electric_scooter", "name": "c39a5ab3c92d0164bdccf9b14afa45eb", "fusion_lon": 0.0, "bike_id": "c39a5ab3c92d0164bdccf9b14afa45eb", "is_reserved": 0, "rental_uris": {"android": "https://dc.lft.to/lastmile_qr_scan", "ios": "https://dc.lft.to/lastmile_qr_scan"}, "lat": 38.92414516666667, "is_disabled": 0, "lon": -77.0230305}, {"fusion_lat": 0.0, "type": "electric_scooter", "name": "1673babd9cdaf937d8e625fcf9e957d2", "fusion_lon": 0.0, "bike_id": "1673babd9cdaf937d8e625fcf9e957d2", "is_reserved": 0, "rental_uris": {"android": "https://dc.lft.to/lastmile_qr_scan", "ios": "https://dc.lft.to/lastmile_qr_scan"}, "lat": 38.88731683333334, "is_disabled": 0, "lon": -77.02582016666666}, {"fusion_lat": 0.0, "type": "electric_scooter", "name": "626622b4c7f4103a068020ea5bc7733f", "fusion_lon": 0.0, "bike_id": "626622b4c7f4103a068020ea5bc7733f", "is_reserved": 0, "rental_uris": {"android": "https://dc.lft.to/lastmile_qr_scan", "ios": "https://dc.lft.to/lastmile_qr_scan"}, "lat": 38.86417, "is_disabled": 0, "lon": -76.991349}, {"fusion_lat": 0.0, "type": "electric_scooter", "name": "bc069ce4e285f5a7ff73d45da496099d", "fusion_lon": 0.0, "bike_id": "bc069ce4e285f5a7ff73d45da496099d", "is_reserved": 0, "rental_uris": {"android": "https://dc.lft.to/lastmile_qr_scan", "ios": "https://dc.lft.to/lastmile_qr_scan"}, "lat": 38.9215485, "is_disabled": 0, "lon": -77.03505116666666}, {"fusion_lat": 0.0, "type": "electric_scooter", "name": "8199383577a81e668230d86d89078859", "fusion_lon": 0.0, "bike_id": "8199383577a81e668230d86d89078859", "is_reserved": 0, "rental_uris": {"android": "https://dc.lft.to/lastmile_qr_scan", "ios": "https://dc.lft.to/lastmile_qr_scan"}, "lat": 38.95196416666667, "is_disabled": 0, "lon": -77.0273695}, {"fusion_lat": 0.0, "type": "electric_bike", "name": "2b41438a1f4d7af4c804ef0da974d51b", "fusion_lon": 0.0, "bike_id": "2b41438a1f4d7af4c804ef0da974d51b", "is_reserved": 0, "rental_uris": {"android": "https://dc.lft.to/lastmile_qr_scan", "ios": "https://dc.lft.to/lastmile_qr_scan"}, "lat": 38.9650615, "is_disabled": 0, "lon": -77.028176}, {"fusion_lat": 0.0, "type": "electric_scooter", "name": "abea107f419c17be5103ad94f8ea9e43", "fusion_lon": 0.0, "bike_id": "abea107f419c17be5103ad94f8ea9e43", "is_reserved": 0, "rental_uris": {"android": "https://dc.lft.to/lastmile_qr_scan", "ios": "https://dc.lft.to/lastmile_qr_scan"}, "lat": 38.910625833333334, "is_disabled": 0, "lon": -77.0538645}, {"fusion_lat": 0.0, "type": "electric_scooter", "name": "f2cf3370e67917148b6d144ba6a66f3d", "fusion_lon": 0.0, "bike_id": "f2cf3370e67917148b6d144ba6a66f3d", "is_reserved": 0, "rental_uris": {"android": "https://dc.lft.to/lastmile_qr_scan", "ios": "https://dc.lft.to/lastmile_qr_scan"}, "lat": 38.874105, "is_disabled": 0, "lon": -77.01748483333333}, {"fusion_lat": 0.0, "type": "electric_bike", "name": "bd4a361cad7b02ab436ec6132bcf6bae", "fusion_lon": 0.0, "bike_id": "bd4a361cad7b02ab436ec6132bcf6bae", "is_reserved": 0, "rental_uris": {"android": "https://dc.lft.to/lastmile_qr_scan", "ios": "https://dc.lft.to/lastmile_qr_scan"}, "lat": 38.86194416666667, "is_disabled": 0, "lon": -76.9480535}, {"fusion_lat": 0.0, "type": "electric_scooter", "name": "169a2cdd71b5e7126fd23d89c8b42502", "fusion_lon": 0.0, "bike_id": "169a2cdd71b5e7126fd23d89c8b42502", "is_reserved": 0, "rental_uris": {"android": "https://dc.lft.to/lastmile_qr_scan", "ios": "https://dc.lft.to/lastmile_qr_scan"}, "lat": 38.89789716666667, "is_disabled": 0, "lon": -77.05005633333333}, {"fusion_lat": 0.0, "type": "electric_scooter", "name": "0e349a8c4d29c0b5d7d01f51af7b65fd", "fusion_lon": 0.0, "bike_id": "0e349a8c4d29c0b5d7d01f51af7b65fd", "is_reserved": 0, "rental_uris": {"android": "https://dc.lft.to/lastmile_qr_scan", "ios": "https://dc.lft.to/lastmile_qr_scan"}, "lat": 38.8872585, "is_disabled": 0, "lon": -77.02823383333333}, {"fusion_lat": 0.0, "type": "electric_scooter", "name": "c108d49866cab1cd9a4cd40768de5814", "fusion_lon": 0.0, "bike_id": "c108d49866cab1cd9a4cd40768de5814", "is_reserved": 0, "rental_uris": {"android": "https://dc.lft.to/lastmile_qr_scan", "ios": "https://dc.lft.to/lastmile_qr_scan"}, "lat": 38.872890166666664, "is_disabled": 0, "lon": -76.97726783333333}, {"fusion_lat": 0.0, "type": "electric_scooter", "name": "451febc63beb941d9136a24d8dcc5857", "fusion_lon": 0.0, "bike_id": "451febc63beb941d9136a24d8dcc5857", "is_reserved": 0, "rental_uris": {"android": "https://dc.lft.to/lastmile_qr_scan", "ios": "https://dc.lft.to/lastmile_qr_scan"}, "lat": 38.905015, "is_disabled": 0, "lon": -77.03470683333333}, {"fusion_lat": 0.0, "type": "electric_scooter", "name": "627fa37ec3d216b0ffcb13d04ce81494", "fusion_lon": 0.0, "bike_id": "627fa37ec3d216b0ffcb13d04ce81494", "is_reserved": 0, "rental_uris": {"android": "https://dc.lft.to/lastmile_qr_scan", "ios": "https://dc.lft.to/lastmile_qr_scan"}, "lat": 38.920694833333336, "is_disabled": 0, "lon": -77.02389816666667}, {"fusion_lat": 0.0, "type": "electric_scooter", "name": "d0525a635e8e6fd6de910b3f6756fa0a", "fusion_lon": 0.0, "bike_id": "d0525a635e8e6fd6de910b3f6756fa0a", "is_reserved": 0, "rental_uris": {"android": "https://dc.lft.to/lastmile_qr_scan", "ios": "https://dc.lft.to/lastmile_qr_scan"}, "lat": 38.86696216666667, "is_disabled": 0, "lon": -76.98594416666667}, {"fusion_lat": 0.0, "type": "electric_scooter", "name": "22fd72cab29b6d3f1b4fe27e20a32359", "fusion_lon": 0.0, "bike_id": "22fd72cab29b6d3f1b4fe27e20a32359", "is_reserved": 0, "rental_uris": {"android": "https://dc.lft.to/lastmile_qr_scan", "ios": "https://dc.lft.to/lastmile_qr_scan"}, "lat": 38.92164316666667, "is_disabled": 0, "lon": -77.042292}, {"fusion_lat": 0.0, "type": "electric_bike", "name": "f294666ee49341b3b688de41216a5775", "fusion_lon": 0.0, "bike_id": "f294666ee49341b3b688de41216a5775", "is_reserved": 0, "rental_uris": {"android": "https://dc.lft.to/lastmile_qr_scan", "ios": "https://dc.lft.to/lastmile_qr_scan"}, "lat": 38.80754116666667, "is_disabled": 0, "lon": -77.09454283333334}, {"fusion_lat": 0.0, "type": "electric_scooter", "name": "dc8373ce3e0de3171a92103216817d2b", "fusion_lon": 0.0, "bike_id": "dc8373ce3e0de3171a92103216817d2b", "is_reserved": 0, "rental_uris": {"android": "https://dc.lft.to/lastmile_qr_scan", "ios": "https://dc.lft.to/lastmile_qr_scan"}, "lat": 38.9173365, "is_disabled": 0, "lon": -77.03202566666667}, {"fusion_lat": 0.0, "type": "electric_scooter", "name": "f5529cf6fdbc4e88fa8f543b127eab43", "fusion_lon": 0.0, "bike_id": "f5529cf6fdbc4e88fa8f543b127eab43", "is_reserved": 0, "rental_uris": {"android": "https://dc.lft.to/lastmile_qr_scan", "ios": "https://dc.lft.to/lastmile_qr_scan"}, "lat": 38.9078845, "is_disabled": 0, "lon": -77.0417995}, {"fusion_lat": 0.0, "type": "electric_scooter", "name": "ea5ff4509ef7930bd25e3374a013a833", "fusion_lon": 0.0, "bike_id": "ea5ff4509ef7930bd25e3374a013a833", "is_reserved": 0, "rental_uris": {"android": "https://dc.lft.to/lastmile_qr_scan", "ios": "https://dc.lft.to/lastmile_qr_scan"}, "lat": 38.9274735, "is_disabled": 0, "lon": -77.03293233333333}, {"fusion_lat": 0.0, "type": "electric_scooter", "name": "58c1621eaf57cf5918a2633be2707d5e", "fusion_lon": 0.0, "bike_id": "58c1621eaf57cf5918a2633be2707d5e", "is_reserved": 0, "rental_uris": {"android": "https://dc.lft.to/lastmile_qr_scan", "ios": "https://dc.lft.to/lastmile_qr_scan"}, "lat": 38.88621466666667, "is_disabled": 0, "lon": -76.95586}, {"fusion_lat": 0.0, "type": "electric_scooter", "name": "b260c57d5d1aedad4a3bd3c3a065e9b7", "fusion_lon": 0.0, "bike_id": "b260c57d5d1aedad4a3bd3c3a065e9b7", "is_reserved": 0, "rental_uris": {"android": "https://dc.lft.to/lastmile_qr_scan", "ios": "https://dc.lft.to/lastmile_qr_scan"}, "lat": 38.87720633333333, "is_disabled": 0, "lon": -77.00673983333333}, {"fusion_lat": 0.0, "type": "electric_bike", "name": "9dad2b617d80da08c8844211629149d5", "fusion_lon": 0.0, "bike_id": "9dad2b617d80da08c8844211629149d5", "is_reserved": 0, "rental_uris": {"android": "https://dc.lft.to/lastmile_qr_scan", "ios": "https://dc.lft.to/lastmile_qr_scan"}, "lat": 38.85308066666666, "is_disabled": 0, "lon": -76.98026366666667}, {"fusion_lat": 0.0, "type": "electric_scooter", "name": "e51c8a532c8b7113175d02fc20f7bb4d", "fusion_lon": 0.0, "bike_id": "e51c8a532c8b7113175d02fc20f7bb4d", "is_reserved": 0, "rental_uris": {"android": "https://dc.lft.to/lastmile_qr_scan", "ios": "https://dc.lft.to/lastmile_qr_scan"}, "lat": 38.87489216666667, "is_disabled": 0, "lon": -77.00664166666667}, {"fusion_lat": 0.0, "type": "electric_scooter", "name": "d980d46c2abf8d581c7f8366628d821f", "fusion_lon": 0.0, "bike_id": "d980d46c2abf8d581c7f8366628d821f", "is_reserved": 0, "rental_uris": {"android": "https://dc.lft.to/lastmile_qr_scan", "ios": "https://dc.lft.to/lastmile_qr_scan"}, "lat": 38.88832683333333, "is_disabled": 0, "lon": -77.048441}, {"fusion_lat": 0.0, "type": "electric_scooter", "name": "c93588065732044bb0b7bcc9af01e321", "fusion_lon": 0.0, "bike_id": "c93588065732044bb0b7bcc9af01e321", "is_reserved": 0, "rental_uris": {"android": "https://dc.lft.to/lastmile_qr_scan", "ios": "https://dc.lft.to/lastmile_qr_scan"}, "lat": 38.896075333333336, "is_disabled": 0, "lon": -77.00929183333334}, {"fusion_lat": 0.0, "type": "electric_scooter", "name": "43a352bddea4551589ab054afb32e9bc", "fusion_lon": 0.0, "bike_id": "43a352bddea4551589ab054afb32e9bc", "is_reserved": 0, "rental_uris": {"android": "https://dc.lft.to/lastmile_qr_scan", "ios": "https://dc.lft.to/lastmile_qr_scan"}, "lat": 38.90081583333333, "is_disabled": 0, "lon": -77.01301583333333}, {"fusion_lat": 0.0, "type": "electric_scooter", "name": "a27bd4b2c2195ac536557a37bf77d48c", "fusion_lon": 0.0, "bike_id": "a27bd4b2c2195ac536557a37bf77d48c", "is_reserved": 0, "rental_uris": {"android": "https://dc.lft.to/lastmile_qr_scan", "ios": "https://dc.lft.to/lastmile_qr_scan"}, "lat": 38.901272, "is_disabled": 0, "lon": -77.01608216666666}, {"fusion_lat": 0.0, "type": "electric_scooter", "name": "1fea7e40322acdfcfe0aaa01a4927526", "fusion_lon": 0.0, "bike_id": "1fea7e40322acdfcfe0aaa01a4927526", "is_reserved": 0, "rental_uris": {"android": "https://dc.lft.to/lastmile_qr_scan", "ios": "https://dc.lft.to/lastmile_qr_scan"}, "lat": 38.879160666666664, "is_disabled": 0, "lon": -77.02128816666666}, {"fusion_lat": 0.0, "type": "electric_scooter", "name": "c575d3243fa1c14d4083570b35d5f3e0", "fusion_lon": 0.0, "bike_id": "c575d3243fa1c14d4083570b35d5f3e0", "is_reserved": 0, "rental_uris": {"android": "https://dc.lft.to/lastmile_qr_scan", "ios": "https://dc.lft.to/lastmile_qr_scan"}, "lat": 38.95740416666666, "is_disabled": 0, "lon": -77.02068133333333}, {"fusion_lat": 0.0, "type": "electric_scooter", "name": "845401175014d7f11ccba97dc9878edc", "fusion_lon": 0.0, "bike_id": "845401175014d7f11ccba97dc9878edc", "is_reserved": 0, "rental_uris": {"android": "https://dc.lft.to/lastmile_qr_scan", "ios": "https://dc.lft.to/lastmile_qr_scan"}, "lat": 38.8995695, "is_disabled": 0, "lon": -76.97534366666666}, {"fusion_lat": 0.0, "type": "electric_bike", "name": "c186661dab6131a9b209ec1618efaf0a", "fusion_lon": 0.0, "bike_id": "c186661dab6131a9b209ec1618efaf0a", "is_reserved": 0, "rental_uris": {"android": "https://dc.lft.to/lastmile_qr_scan", "ios": "https://dc.lft.to/lastmile_qr_scan"}, "lat": 38.932062333333334, "is_disabled": 0, "lon": -77.01883533333333}, {"fusion_lat": 0.0, "type": "electric_bike", "name": "c2fa2143e48ce7ce764f881b4aedbb22", "fusion_lon": 0.0, "bike_id": "c2fa2143e48ce7ce764f881b4aedbb22", "is_reserved": 0, "rental_uris": {"android": "https://dc.lft.to/lastmile_qr_scan", "ios": "https://dc.lft.to/lastmile_qr_scan"}, "lat": 38.9233765, "is_disabled": 0, "lon": -76.97143683333333}, {"fusion_lat": 0.0, "type": "electric_scooter", "name": "179fcfa8b9c12214219eae2eac530818", "fusion_lon": 0.0, "bike_id": "179fcfa8b9c12214219eae2eac530818", "is_reserved": 0, "rental_uris": {"android": "https://dc.lft.to/lastmile_qr_scan", "ios": "https://dc.lft.to/lastmile_qr_scan"}, "lat": 38.901697666666664, "is_disabled": 0, "lon": -76.98058366666666}, {"fusion_lat": 0.0, "type": "electric_scooter", "name": "c8cfee3306f0ae755e6b7be0f3d45c0d", "fusion_lon": 0.0, "bike_id": "c8cfee3306f0ae755e6b7be0f3d45c0d", "is_reserved": 0, "rental_uris": {"android": "https://dc.lft.to/lastmile_qr_scan", "ios": "https://dc.lft.to/lastmile_qr_scan"}, "lat": 38.93673016666666, "is_disabled": 0, "lon": -77.035878}, {"fusion_lat": 0.0, "type": "electric_scooter", "name": "0949fbb438df6c22651a6ca18f34bfe6", "fusion_lon": 0.0, "bike_id": "0949fbb438df6c22651a6ca18f34bfe6", "is_reserved": 0, "rental_uris": {"android": "https://dc.lft.to/lastmile_qr_scan", "ios": "https://dc.lft.to/lastmile_qr_scan"}, "lat": 38.910359666666665, "is_disabled": 0, "lon": -77.03492766666666}, {"fusion_lat": 0.0, "type": "electric_scooter", "name": "a5c9eac4e71dd40186c8dc57b0490e55", "fusion_lon": 0.0, "bike_id": "a5c9eac4e71dd40186c8dc57b0490e55", "is_reserved": 0, "rental_uris": {"android": "https://dc.lft.to/lastmile_qr_scan", "ios": "https://dc.lft.to/lastmile_qr_scan"}, "lat": 38.8919235, "is_disabled": 0, "lon": -76.98861366666667}, {"fusion_lat": 0.0, "type": "electric_bike", "name": "9130cc12ccb0b5b286e42340a5650f16", "fusion_lon": 0.0, "bike_id": "9130cc12ccb0b5b286e42340a5650f16", "is_reserved": 0, "rental_uris": {"android": "https://dc.lft.to/lastmile_qr_scan", "ios": "https://dc.lft.to/lastmile_qr_scan"}, "lat": 38.95156166666666, "is_disabled": 0, "lon": -77.01285166666666}, {"fusion_lat": 0.0, "type": "electric_bike", "name": "72939870936c9e9c619c5ea4371fc846", "fusion_lon": 0.0, "bike_id": "72939870936c9e9c619c5ea4371fc846", "is_reserved": 0, "rental_uris": {"android": "https://dc.lft.to/lastmile_qr_scan", "ios": "https://dc.lft.to/lastmile_qr_scan"}, "lat": 38.98358133333333, "is_disabled": 0, "lon": -76.97216983333334}, {"fusion_lat": 0.0, "type": "electric_scooter", "name": "e1192064494e2cf21d57be06cc1eee7b", "fusion_lon": 0.0, "bike_id": "e1192064494e2cf21d57be06cc1eee7b", "is_reserved": 0, "rental_uris": {"android": "https://dc.lft.to/lastmile_qr_scan", "ios": "https://dc.lft.to/lastmile_qr_scan"}, "lat": 38.91499133333333, "is_disabled": 0, "lon": -77.00771816666666}, {"fusion_lat": 0.0, "type": "electric_scooter", "name": "f16468aa2d0799841488c9b2da9bb2bf", "fusion_lon": 0.0, "bike_id": "f16468aa2d0799841488c9b2da9bb2bf", "is_reserved": 0, "rental_uris": {"android": "https://dc.lft.to/lastmile_qr_scan", "ios": "https://dc.lft.to/lastmile_qr_scan"}, "lat": 38.913447166666664, "is_disabled": 0, "lon": -77.03186483333333}, {"fusion_lat": 0.0, "type": "electric_scooter", "name": "6c1f917c10a6d1f48a7cc17ed4a4a9c3", "fusion_lon": 0.0, "bike_id": "6c1f917c10a6d1f48a7cc17ed4a4a9c3", "is_reserved": 0, "rental_uris": {"android": "https://dc.lft.to/lastmile_qr_scan", "ios": "https://dc.lft.to/lastmile_qr_scan"}, "lat": 38.886053, "is_disabled": 0, "lon": -77.00140783333333}, {"fusion_lat": 0.0, "type": "electric_scooter", "name": "ac64c73b7ace34ce301b4337349ab176", "fusion_lon": 0.0, "bike_id": "ac64c73b7ace34ce301b4337349ab176", "is_reserved": 0, "rental_uris": {"android": "https://dc.lft.to/lastmile_qr_scan", "ios": "https://dc.lft.to/lastmile_qr_scan"}, "lat": 38.8647045, "is_disabled": 0, "lon": -76.98231866666667}, {"fusion_lat": 0.0, "type": "electric_scooter", "name": "493be681e26ff13a48425c655cbfee3f", "fusion_lon": 0.0, "bike_id": "493be681e26ff13a48425c655cbfee3f", "is_reserved": 0, "rental_uris": {"android": "https://dc.lft.to/lastmile_qr_scan", "ios": "https://dc.lft.to/lastmile_qr_scan"}, "lat": 38.92156333333333, "is_disabled": 0, "lon": -77.03387516666666}, {"fusion_lat": 0.0, "type": "electric_scooter", "name": "e9bc14ae0ebba729062240f4a7634725", "fusion_lon": 0.0, "bike_id": "e9bc14ae0ebba729062240f4a7634725", "is_reserved": 0, "rental_uris": {"android": "https://dc.lft.to/lastmile_qr_scan", "ios": "https://dc.lft.to/lastmile_qr_scan"}, "lat": 38.920296666666665, "is_disabled": 0, "lon": -77.04182083333333}, {"fusion_lat": 0.0, "type": "electric_bike", "name": "0df9048723d5906386f984cc0410e8c1", "fusion_lon": 0.0, "bike_id": "0df9048723d5906386f984cc0410e8c1", "is_reserved": 0, "rental_uris": {"android": "https://dc.lft.to/lastmile_qr_scan", "ios": "https://dc.lft.to/lastmile_qr_scan"}, "lat": 38.8593525, "is_disabled": 0, "lon": -77.11831816666667}, {"fusion_lat": 0.0, "type": "electric_bike", "name": "13afd0684baeb1ae963f3d62529567aa", "fusion_lon": 0.0, "bike_id": "13afd0684baeb1ae963f3d62529567aa", "is_reserved": 0, "rental_uris": {"android": "https://dc.lft.to/lastmile_qr_scan", "ios": "https://dc.lft.to/lastmile_qr_scan"}, "lat": 38.98156916666667, "is_disabled": 0, "lon": -77.02640316666667}, {"fusion_lat": 0.0, "type": "electric_scooter", "name": "1783d1a9d3de555ce24deb1379dfdab1", "fusion_lon": 0.0, "bike_id": "1783d1a9d3de555ce24deb1379dfdab1", "is_reserved": 0, "rental_uris": {"android": "https://dc.lft.to/lastmile_qr_scan", "ios": "https://dc.lft.to/lastmile_qr_scan"}, "lat": 38.9498555, "is_disabled": 0, "lon": -77.0270275}, {"fusion_lat": 0.0, "type": "electric_scooter", "name": "b207439318348b6875344a8f2626898b", "fusion_lon": 0.0, "bike_id": "b207439318348b6875344a8f2626898b", "is_reserved": 0, "rental_uris": {"android": "https://dc.lft.to/lastmile_qr_scan", "ios": "https://dc.lft.to/lastmile_qr_scan"}, "lat": 38.8870695, "is_disabled": 0, "lon": -77.022065}, {"fusion_lat": 0.0, "type": "electric_scooter", "name": "645f4193e71da05944e222349567c968", "fusion_lon": 0.0, "bike_id": "645f4193e71da05944e222349567c968", "is_reserved": 0, "rental_uris": {"android": "https://dc.lft.to/lastmile_qr_scan", "ios": "https://dc.lft.to/lastmile_qr_scan"}, "lat": 38.92006266666667, "is_disabled": 0, "lon": -77.02407933333333}, {"fusion_lat": 0.0, "type": "electric_scooter", "name": "ca761da4cc4b8d4362ca7416918ab0ec", "fusion_lon": 0.0, "bike_id": "ca761da4cc4b8d4362ca7416918ab0ec", "is_reserved": 0, "rental_uris": {"android": "https://dc.lft.to/lastmile_qr_scan", "ios": "https://dc.lft.to/lastmile_qr_scan"}, "lat": 38.844222, "is_disabled": 0, "lon": -76.99775316666667}, {"fusion_lat": 0.0, "type": "electric_scooter", "name": "d2c95a9532ca8b3c14562a9fff1e0419", "fusion_lon": 0.0, "bike_id": "d2c95a9532ca8b3c14562a9fff1e0419", "is_reserved": 0, "rental_uris": {"android": "https://dc.lft.to/lastmile_qr_scan", "ios": "https://dc.lft.to/lastmile_qr_scan"}, "lat": 38.934924, "is_disabled": 0, "lon": -77.024066}, {"fusion_lat": 0.0, "type": "electric_scooter", "name": "cf41bc2fa0fe59e47384d405b55e5e70", "fusion_lon": 0.0, "bike_id": "cf41bc2fa0fe59e47384d405b55e5e70", "is_reserved": 0, "rental_uris": {"android": "https://dc.lft.to/lastmile_qr_scan", "ios": "https://dc.lft.to/lastmile_qr_scan"}, "lat": 38.905651166666665, "is_disabled": 0, "lon": -77.0346315}, {"fusion_lat": 0.0, "type": "electric_scooter", "name": "5a0e7e9d56389153c3e4e3d507efc748", "fusion_lon": 0.0, "bike_id": "5a0e7e9d56389153c3e4e3d507efc748", "is_reserved": 0, "rental_uris": {"android": "https://dc.lft.to/lastmile_qr_scan", "ios": "https://dc.lft.to/lastmile_qr_scan"}, "lat": 38.9034545, "is_disabled": 0, "lon": -77.06115233333334}, {"fusion_lat": 0.0, "type": "electric_scooter", "name": "7fe83ac32fa6000c5f0410eee34f2e72", "fusion_lon": 0.0, "bike_id": "7fe83ac32fa6000c5f0410eee34f2e72", "is_reserved": 0, "rental_uris": {"android": "https://dc.lft.to/lastmile_qr_scan", "ios": "https://dc.lft.to/lastmile_qr_scan"}, "lat": 38.92031716666666, "is_disabled": 0, "lon": -77.04185783333334}, {"fusion_lat": 0.0, "type": "electric_scooter", "name": "56551d5a3756d312df2aeac1b16e1616", "fusion_lon": 0.0, "bike_id": "56551d5a3756d312df2aeac1b16e1616", "is_reserved": 0, "rental_uris": {"android": "https://dc.lft.to/lastmile_qr_scan", "ios": "https://dc.lft.to/lastmile_qr_scan"}, "lat": 38.93605266666667, "is_disabled": 0, "lon": -77.02921133333334}, {"fusion_lat": 0.0, "type": "electric_scooter", "name": "9208d6aa9f7b6821f1461fde08975436", "fusion_lon": 0.0, "bike_id": "9208d6aa9f7b6821f1461fde08975436", "is_reserved": 0, "rental_uris": {"android": "https://dc.lft.to/lastmile_qr_scan", "ios": "https://dc.lft.to/lastmile_qr_scan"}, "lat": 38.924788166666666, "is_disabled": 0, "lon": -77.03487866666667}, {"fusion_lat": 0.0, "type": "electric_scooter", "name": "0de6f180945041850c8e8ca79c66818b", "fusion_lon": 0.0, "bike_id": "0de6f180945041850c8e8ca79c66818b", "is_reserved": 0, "rental_uris": {"android": "https://dc.lft.to/lastmile_qr_scan", "ios": "https://dc.lft.to/lastmile_qr_scan"}, "lat": 38.9265385, "is_disabled": 0, "lon": -77.04138}, {"fusion_lat": 0.0, "type": "electric_scooter", "name": "091a44295571d2265f01a78dc533710b", "fusion_lon": 0.0, "bike_id": "091a44295571d2265f01a78dc533710b", "is_reserved": 0, "rental_uris": {"android": "https://dc.lft.to/lastmile_qr_scan", "ios": "https://dc.lft.to/lastmile_qr_scan"}, "lat": 38.836974833333336, "is_disabled": 0, "lon": -77.00570183333333}, {"fusion_lat": 0.0, "type": "electric_scooter", "name": "d0c695981cabd7230a676c18a2d718ac", "fusion_lon": 0.0, "bike_id": "d0c695981cabd7230a676c18a2d718ac", "is_reserved": 0, "rental_uris": {"android": "https://dc.lft.to/lastmile_qr_scan", "ios": "https://dc.lft.to/lastmile_qr_scan"}, "lat": 38.91801016666667, "is_disabled": 0, "lon": -77.0302245}, {"fusion_lat": 0.0, "type": "electric_scooter", "name": "97d1a5380435a4d6790b36aab291ee52", "fusion_lon": 0.0, "bike_id": "97d1a5380435a4d6790b36aab291ee52", "is_reserved": 0, "rental_uris": {"android": "https://dc.lft.to/lastmile_qr_scan", "ios": "https://dc.lft.to/lastmile_qr_scan"}, "lat": 38.920847333333334, "is_disabled": 0, "lon": -77.07358733333334}, {"fusion_lat": 0.0, "type": "electric_scooter", "name": "44247d47d04be1bb94777978c8542810", "fusion_lon": 0.0, "bike_id": "44247d47d04be1bb94777978c8542810", "is_reserved": 0, "rental_uris": {"android": "https://dc.lft.to/lastmile_qr_scan", "ios": "https://dc.lft.to/lastmile_qr_scan"}, "lat": 38.94116316666667, "is_disabled": 0, "lon": -77.01539116666666}, {"fusion_lat": 0.0, "type": "electric_scooter", "name": "adbedc581a7ac189c153fe52fda77874", "fusion_lon": 0.0, "bike_id": "adbedc581a7ac189c153fe52fda77874", "is_reserved": 0, "rental_uris": {"android": "https://dc.lft.to/lastmile_qr_scan", "ios": "https://dc.lft.to/lastmile_qr_scan"}, "lat": 38.91348966666666, "is_disabled": 0, "lon": -77.03849433333333}, {"fusion_lat": 0.0, "type": "electric_scooter", "name": "959b94d7a5fd57f066d47d3d724c905e", "fusion_lon": 0.0, "bike_id": "959b94d7a5fd57f066d47d3d724c905e", "is_reserved": 0, "rental_uris": {"android": "https://dc.lft.to/lastmile_qr_scan", "ios": "https://dc.lft.to/lastmile_qr_scan"}, "lat": 38.87755383333333, "is_disabled": 0, "lon": -77.01785533333333}, {"fusion_lat": 0.0, "type": "electric_scooter", "name": "84f29bec1c55390a7ab75b0bf7279197", "fusion_lon": 0.0, "bike_id": "84f29bec1c55390a7ab75b0bf7279197", "is_reserved": 0, "rental_uris": {"android": "https://dc.lft.to/lastmile_qr_scan", "ios": "https://dc.lft.to/lastmile_qr_scan"}, "lat": 38.923637166666666, "is_disabled": 0, "lon": -77.05047116666667}, {"fusion_lat": 0.0, "type": "electric_bike", "name": "c04255395145f93b96389930a332484e", "fusion_lon": 0.0, "bike_id": "c04255395145f93b96389930a332484e", "is_reserved": 0, "rental_uris": {"android": "https://dc.lft.to/lastmile_qr_scan", "ios": "https://dc.lft.to/lastmile_qr_scan"}, "lat": 38.82787, "is_disabled": 0, "lon": -77.0091845}, {"fusion_lat": 0.0, "type": "electric_scooter", "name": "112d7c5f3293570126266693fe227a00", "fusion_lon": 0.0, "bike_id": "112d7c5f3293570126266693fe227a00", "is_reserved": 0, "rental_uris": {"android": "https://dc.lft.to/lastmile_qr_scan", "ios": "https://dc.lft.to/lastmile_qr_scan"}, "lat": 38.892328, "is_disabled": 0, "lon": -77.04371883333333}, {"fusion_lat": 0.0, "type": "electric_scooter", "name": "873bb913a9ca6b20400b774785e2f97b", "fusion_lon": 0.0, "bike_id": "873bb913a9ca6b20400b774785e2f97b", "is_reserved": 0, "rental_uris": {"android": "https://dc.lft.to/lastmile_qr_scan", "ios": "https://dc.lft.to/lastmile_qr_scan"}, "lat": 38.9279335, "is_disabled": 0, "lon": -77.043558}, {"fusion_lat": 0.0, "type": "electric_scooter", "name": "fb2497a5f67bfc348b1d42ecb2a0d506", "fusion_lon": 0.0, "bike_id": "fb2497a5f67bfc348b1d42ecb2a0d506", "is_reserved": 0, "rental_uris": {"android": "https://dc.lft.to/lastmile_qr_scan", "ios": "https://dc.lft.to/lastmile_qr_scan"}, "lat": 38.90561266666667, "is_disabled": 0, "lon": -76.98384066666667}, {"fusion_lat": 0.0, "type": "electric_scooter", "name": "08e14448d2166dceb806fae8d7eb3eb2", "fusion_lon": 0.0, "bike_id": "08e14448d2166dceb806fae8d7eb3eb2", "is_reserved": 0, "rental_uris": {"android": "https://dc.lft.to/lastmile_qr_scan", "ios": "https://dc.lft.to/lastmile_qr_scan"}, "lat": 38.92583716666667, "is_disabled": 0, "lon": -77.03745433333333}, {"fusion_lat": 0.0, "type": "electric_scooter", "name": "2c9d4047f5f082144764a5a2b812ea1f", "fusion_lon": 0.0, "bike_id": "2c9d4047f5f082144764a5a2b812ea1f", "is_reserved": 0, "rental_uris": {"android": "https://dc.lft.to/lastmile_qr_scan", "ios": "https://dc.lft.to/lastmile_qr_scan"}, "lat": 38.91829583333333, "is_disabled": 0, "lon": -77.039448}, {"fusion_lat": 0.0, "type": "electric_scooter", "name": "3a6b50097ab9b3731e4b6a795d1d9551", "fusion_lon": 0.0, "bike_id": "3a6b50097ab9b3731e4b6a795d1d9551", "is_reserved": 0, "rental_uris": {"android": "https://dc.lft.to/lastmile_qr_scan", "ios": "https://dc.lft.to/lastmile_qr_scan"}, "lat": 38.884850166666666, "is_disabled": 0, "lon": -76.926208}, {"fusion_lat": 0.0, "type": "electric_scooter", "name": "5c84b809974509b385749c40c2148039", "fusion_lon": 0.0, "bike_id": "5c84b809974509b385749c40c2148039", "is_reserved": 0, "rental_uris": {"android": "https://dc.lft.to/lastmile_qr_scan", "ios": "https://dc.lft.to/lastmile_qr_scan"}, "lat": 38.897129666666665, "is_disabled": 0, "lon": -77.02729133333334}, {"fusion_lat": 0.0, "type": "electric_bike", "name": "d69c411f4e34a22a64605156ca0ddbec", "fusion_lon": 0.0, "bike_id": "d69c411f4e34a22a64605156ca0ddbec", "is_reserved": 0, "rental_uris": {"android": "https://dc.lft.to/lastmile_qr_scan", "ios": "https://dc.lft.to/lastmile_qr_scan"}, "lat": 38.922479833333334, "is_disabled": 0, "lon": -77.03063283333333}, {"fusion_lat": 0.0, "type": "electric_scooter", "name": "c9af73b87d3ce8e111794df8ef659d92", "fusion_lon": 0.0, "bike_id": "c9af73b87d3ce8e111794df8ef659d92", "is_reserved": 0, "rental_uris": {"android": "https://dc.lft.to/lastmile_qr_scan", "ios": "https://dc.lft.to/lastmile_qr_scan"}, "lat": 38.927169, "is_disabled": 0, "lon": -77.02087}, {"fusion_lat": 0.0, "type": "electric_scooter", "name": "6f396823e3ea7fa2ff2c04d8ed99d1b3", "fusion_lon": 0.0, "bike_id": "6f396823e3ea7fa2ff2c04d8ed99d1b3", "is_reserved": 0, "rental_uris": {"android": "https://dc.lft.to/lastmile_qr_scan", "ios": "https://dc.lft.to/lastmile_qr_scan"}, "lat": 38.9442625, "is_disabled": 0, "lon": -77.02602033333334}, {"fusion_lat": 0.0, "type": "electric_scooter", "name": "7fc1196734171c27686a8a0bb69000a5", "fusion_lon": 0.0, "bike_id": "7fc1196734171c27686a8a0bb69000a5", "is_reserved": 0, "rental_uris": {"android": "https://dc.lft.to/lastmile_qr_scan", "ios": "https://dc.lft.to/lastmile_qr_scan"}, "lat": 38.89228116666666, "is_disabled": 0, "lon": -77.03184866666666}, {"fusion_lat": 0.0, "type": "electric_scooter", "name": "db62d4a84e947243d3761ba958671a9a", "fusion_lon": 0.0, "bike_id": "db62d4a84e947243d3761ba958671a9a", "is_reserved": 0, "rental_uris": {"android": "https://dc.lft.to/lastmile_qr_scan", "ios": "https://dc.lft.to/lastmile_qr_scan"}, "lat": 38.931681833333336, "is_disabled": 0, "lon": -77.07098333333333}, {"fusion_lat": 0.0, "type": "electric_scooter", "name": "017842ccc7190a7ea574750545853a5b", "fusion_lon": 0.0, "bike_id": "017842ccc7190a7ea574750545853a5b", "is_reserved": 0, "rental_uris": {"android": "https://dc.lft.to/lastmile_qr_scan", "ios": "https://dc.lft.to/lastmile_qr_scan"}, "lat": 38.89273416666666, "is_disabled": 0, "lon": -77.04872516666667}, {"fusion_lat": 0.0, "type": "electric_scooter", "name": "b700203d5436267e6ac8aa40db304cf5", "fusion_lon": 0.0, "bike_id": "b700203d5436267e6ac8aa40db304cf5", "is_reserved": 0, "rental_uris": {"android": "https://dc.lft.to/lastmile_qr_scan", "ios": "https://dc.lft.to/lastmile_qr_scan"}, "lat": 38.9008205, "is_disabled": 0, "lon": -76.9302105}, {"fusion_lat": 0.0, "type": "electric_bike", "name": "31dd15eb88364b4de0740fd5e053a32f", "fusion_lon": 0.0, "bike_id": "31dd15eb88364b4de0740fd5e053a32f", "is_reserved": 0, "rental_uris": {"android": "https://dc.lft.to/lastmile_qr_scan", "ios": "https://dc.lft.to/lastmile_qr_scan"}, "lat": 38.916425, "is_disabled": 0, "lon": -76.9730495}, {"fusion_lat": 0.0, "type": "electric_scooter", "name": "b7844fbf8dca4df807e85d13e259c224", "fusion_lon": 0.0, "bike_id": "b7844fbf8dca4df807e85d13e259c224", "is_reserved": 0, "rental_uris": {"android": "https://dc.lft.to/lastmile_qr_scan", "ios": "https://dc.lft.to/lastmile_qr_scan"}, "lat": 38.87203233333334, "is_disabled": 0, "lon": -76.978355}, {"fusion_lat": 0.0, "type": "electric_scooter", "name": "0e6ede9e74c74444d39dd26c57373db9", "fusion_lon": 0.0, "bike_id": "0e6ede9e74c74444d39dd26c57373db9", "is_reserved": 0, "rental_uris": {"android": "https://dc.lft.to/lastmile_qr_scan", "ios": "https://dc.lft.to/lastmile_qr_scan"}, "lat": 38.855370666666666, "is_disabled": 0, "lon": -76.98418833333334}, {"fusion_lat": 0.0, "type": "electric_scooter", "name": "b29f9b3b0cb7a4f8b5e13c968c7bc240", "fusion_lon": 0.0, "bike_id": "b29f9b3b0cb7a4f8b5e13c968c7bc240", "is_reserved": 0, "rental_uris": {"android": "https://dc.lft.to/lastmile_qr_scan", "ios": "https://dc.lft.to/lastmile_qr_scan"}, "lat": 38.93574816666667, "is_disabled": 0, "lon": -77.08113566666667}, {"fusion_lat": 0.0, "type": "electric_scooter", "name": "e86939a579f8980dbc48d1b235723b9f", "fusion_lon": 0.0, "bike_id": "e86939a579f8980dbc48d1b235723b9f", "is_reserved": 0, "rental_uris": {"android": "https://dc.lft.to/lastmile_qr_scan", "ios": "https://dc.lft.to/lastmile_qr_scan"}, "lat": 38.9505925, "is_disabled": 0, "lon": -77.08012283333333}, {"fusion_lat": 0.0, "type": "electric_scooter", "name": "cecd88b4ec9d9b2c3fe14440a1ff3f9e", "fusion_lon": 0.0, "bike_id": "cecd88b4ec9d9b2c3fe14440a1ff3f9e", "is_reserved": 0, "rental_uris": {"android": "https://dc.lft.to/lastmile_qr_scan", "ios": "https://dc.lft.to/lastmile_qr_scan"}, "lat": 38.914579833333335, "is_disabled": 0, "lon": -77.02178766666667}, {"fusion_lat": 0.0, "type": "electric_scooter", "name": "f3465f59bb913a9acdb34c77e349550c", "fusion_lon": 0.0, "bike_id": "f3465f59bb913a9acdb34c77e349550c", "is_reserved": 0, "rental_uris": {"android": "https://dc.lft.to/lastmile_qr_scan", "ios": "https://dc.lft.to/lastmile_qr_scan"}, "lat": 38.94184633333333, "is_disabled": 0, "lon": -77.0253345}, {"fusion_lat": 0.0, "type": "electric_scooter", "name": "c15f48ebc1fd669e40a5a386504a1c0e", "fusion_lon": 0.0, "bike_id": "c15f48ebc1fd669e40a5a386504a1c0e", "is_reserved": 0, "rental_uris": {"android": "https://dc.lft.to/lastmile_qr_scan", "ios": "https://dc.lft.to/lastmile_qr_scan"}, "lat": 38.88764416666667, "is_disabled": 0, "lon": -76.95576933333334}, {"fusion_lat": 0.0, "type": "electric_scooter", "name": "31dc0790d66b129923a95594cb7b29d9", "fusion_lon": 0.0, "bike_id": "31dc0790d66b129923a95594cb7b29d9", "is_reserved": 0, "rental_uris": {"android": "https://dc.lft.to/lastmile_qr_scan", "ios": "https://dc.lft.to/lastmile_qr_scan"}, "lat": 38.916362666666664, "is_disabled": 0, "lon": -77.01079333333334}, {"fusion_lat": 0.0, "type": "electric_scooter", "name": "3872685059b923f961936f444359552c", "fusion_lon": 0.0, "bike_id": "3872685059b923f961936f444359552c", "is_reserved": 0, "rental_uris": {"android": "https://dc.lft.to/lastmile_qr_scan", "ios": "https://dc.lft.to/lastmile_qr_scan"}, "lat": 38.90082566666667, "is_disabled": 0, "lon": -76.99362916666666}, {"fusion_lat": 0.0, "type": "electric_scooter", "name": "5704ddf1e7ff1de5a0f7b6bfcd01ee13", "fusion_lon": 0.0, "bike_id": "5704ddf1e7ff1de5a0f7b6bfcd01ee13", "is_reserved": 0, "rental_uris": {"android": "https://dc.lft.to/lastmile_qr_scan", "ios": "https://dc.lft.to/lastmile_qr_scan"}, "lat": 38.9226895, "is_disabled": 0, "lon": -77.03672066666667}, {"fusion_lat": 0.0, "type": "electric_scooter", "name": "155dbfe051bf8a177d248a97f46eb0ab", "fusion_lon": 0.0, "bike_id": "155dbfe051bf8a177d248a97f46eb0ab", "is_reserved": 0, "rental_uris": {"android": "https://dc.lft.to/lastmile_qr_scan", "ios": "https://dc.lft.to/lastmile_qr_scan"}, "lat": 38.9256775, "is_disabled": 0, "lon": -77.0284145}, {"fusion_lat": 0.0, "type": "electric_scooter", "name": "ca82022059b0867d600bdc4000be86d9", "fusion_lon": 0.0, "bike_id": "ca82022059b0867d600bdc4000be86d9", "is_reserved": 0, "rental_uris": {"android": "https://dc.lft.to/lastmile_qr_scan", "ios": "https://dc.lft.to/lastmile_qr_scan"}, "lat": 38.917240666666665, "is_disabled": 0, "lon": -77.02975666666667}, {"fusion_lat": 0.0, "type": "electric_scooter", "name": "bdac09e6f0d2d6179efdd57e014092e3", "fusion_lon": 0.0, "bike_id": "bdac09e6f0d2d6179efdd57e014092e3", "is_reserved": 0, "rental_uris": {"android": "https://dc.lft.to/lastmile_qr_scan", "ios": "https://dc.lft.to/lastmile_qr_scan"}, "lat": 38.93538183333333, "is_disabled": 0, "lon": -77.05824333333334}, {"fusion_lat": 0.0, "type": "electric_scooter", "name": "e2c51965a3580c19be097acc109a610b", "fusion_lon": 0.0, "bike_id": "e2c51965a3580c19be097acc109a610b", "is_reserved": 0, "rental_uris": {"android": "https://dc.lft.to/lastmile_qr_scan", "ios": "https://dc.lft.to/lastmile_qr_scan"}, "lat": 38.917203, "is_disabled": 0, "lon": -77.03619233333333}, {"fusion_lat": 0.0, "type": "electric_scooter", "name": "f6c7eaa26f3ad8853b56cd49d7e53109", "fusion_lon": 0.0, "bike_id": "f6c7eaa26f3ad8853b56cd49d7e53109", "is_reserved": 0, "rental_uris": {"android": "https://dc.lft.to/lastmile_qr_scan", "ios": "https://dc.lft.to/lastmile_qr_scan"}, "lat": 38.8949295, "is_disabled": 0, "lon": -77.00956783333334}, {"fusion_lat": 0.0, "type": "electric_scooter", "name": "d87db3d7bfb1b6f543b55f0e29ecea48", "fusion_lon": 0.0, "bike_id": "d87db3d7bfb1b6f543b55f0e29ecea48", "is_reserved": 0, "rental_uris": {"android": "https://dc.lft.to/lastmile_qr_scan", "ios": "https://dc.lft.to/lastmile_qr_scan"}, "lat": 38.90937266666667, "is_disabled": 0, "lon": -77.0438885}, {"fusion_lat": 0.0, "type": "electric_bike", "name": "4285f90c4cb317e70bb1e67307c3ec40", "fusion_lon": 0.0, "bike_id": "4285f90c4cb317e70bb1e67307c3ec40", "is_reserved": 0, "rental_uris": {"android": "https://dc.lft.to/lastmile_qr_scan", "ios": "https://dc.lft.to/lastmile_qr_scan"}, "lat": 38.85483633333333, "is_disabled": 0, "lon": -77.11611866666667}, {"fusion_lat": 0.0, "type": "electric_scooter", "name": "3e9aa892ec5ec8f99fd15ac0acae2ad2", "fusion_lon": 0.0, "bike_id": "3e9aa892ec5ec8f99fd15ac0acae2ad2", "is_reserved": 0, "rental_uris": {"android": "https://dc.lft.to/lastmile_qr_scan", "ios": "https://dc.lft.to/lastmile_qr_scan"}, "lat": 38.91678266666667, "is_disabled": 0, "lon": -77.02940516666666}, {"fusion_lat": 0.0, "type": "electric_scooter", "name": "4ee461efae96fca5881708b06d2dd2f4", "fusion_lon": 0.0, "bike_id": "4ee461efae96fca5881708b06d2dd2f4", "is_reserved": 0, "rental_uris": {"android": "https://dc.lft.to/lastmile_qr_scan", "ios": "https://dc.lft.to/lastmile_qr_scan"}, "lat": 38.9233, "is_disabled": 0, "lon": -77.03608916666667}, {"fusion_lat": 0.0, "type": "electric_scooter", "name": "764a9844cb9050203f6da5f0568eee27", "fusion_lon": 0.0, "bike_id": "764a9844cb9050203f6da5f0568eee27", "is_reserved": 0, "rental_uris": {"android": "https://dc.lft.to/lastmile_qr_scan", "ios": "https://dc.lft.to/lastmile_qr_scan"}, "lat": 38.9026245, "is_disabled": 0, "lon": -77.005815}, {"fusion_lat": 0.0, "type": "electric_scooter", "name": "6798beb5fe2d2478cfd6382aa2d2db0d", "fusion_lon": 0.0, "bike_id": "6798beb5fe2d2478cfd6382aa2d2db0d", "is_reserved": 0, "rental_uris": {"android": "https://dc.lft.to/lastmile_qr_scan", "ios": "https://dc.lft.to/lastmile_qr_scan"}, "lat": 38.904062833333334, "is_disabled": 0, "lon": -76.980872}, {"fusion_lat": 0.0, "type": "electric_scooter", "name": "6f3236e2cdfb54afdf3d12dd565fab1d", "fusion_lon": 0.0, "bike_id": "6f3236e2cdfb54afdf3d12dd565fab1d", "is_reserved": 0, "rental_uris": {"android": "https://dc.lft.to/lastmile_qr_scan", "ios": "https://dc.lft.to/lastmile_qr_scan"}, "lat": 38.92559833333333, "is_disabled": 0, "lon": -77.02277983333333}, {"fusion_lat": 0.0, "type": "electric_scooter", "name": "9d117be80752e6ec584e146ced7a2a4d", "fusion_lon": 0.0, "bike_id": "9d117be80752e6ec584e146ced7a2a4d", "is_reserved": 0, "rental_uris": {"android": "https://dc.lft.to/lastmile_qr_scan", "ios": "https://dc.lft.to/lastmile_qr_scan"}, "lat": 38.90559616666667, "is_disabled": 0, "lon": -77.00578483333334}, {"fusion_lat": 0.0, "type": "electric_scooter", "name": "89793414260eff3e4042bc1130c37db4", "fusion_lon": 0.0, "bike_id": "89793414260eff3e4042bc1130c37db4", "is_reserved": 0, "rental_uris": {"android": "https://dc.lft.to/lastmile_qr_scan", "ios": "https://dc.lft.to/lastmile_qr_scan"}, "lat": 38.91114066666667, "is_disabled": 0, "lon": -77.03153333333333}, {"fusion_lat": 0.0, "type": "electric_scooter", "name": "d610876cc51304117394e1c7e6afff50", "fusion_lon": 0.0, "bike_id": "d610876cc51304117394e1c7e6afff50", "is_reserved": 0, "rental_uris": {"android": "https://dc.lft.to/lastmile_qr_scan", "ios": "https://dc.lft.to/lastmile_qr_scan"}, "lat": 38.9232785, "is_disabled": 0, "lon": -77.03619}, {"fusion_lat": 0.0, "type": "electric_scooter", "name": "a4d300527650a470ffc376251c905a4a", "fusion_lon": 0.0, "bike_id": "a4d300527650a470ffc376251c905a4a", "is_reserved": 0, "rental_uris": {"android": "https://dc.lft.to/lastmile_qr_scan", "ios": "https://dc.lft.to/lastmile_qr_scan"}, "lat": 38.901796166666664, "is_disabled": 0, "lon": -77.04646383333333}, {"fusion_lat": 0.0, "type": "electric_scooter", "name": "d057f9bff0044e9bfd164670745ec035", "fusion_lon": 0.0, "bike_id": "d057f9bff0044e9bfd164670745ec035", "is_reserved": 0, "rental_uris": {"android": "https://dc.lft.to/lastmile_qr_scan", "ios": "https://dc.lft.to/lastmile_qr_scan"}, "lat": 38.945111833333335, "is_disabled": 0, "lon": -77.033194}, {"fusion_lat": 0.0, "type": "electric_scooter", "name": "b1fbb723f469bfd1d969432ccd308e3d", "fusion_lon": 0.0, "bike_id": "b1fbb723f469bfd1d969432ccd308e3d", "is_reserved": 0, "rental_uris": {"android": "https://dc.lft.to/lastmile_qr_scan", "ios": "https://dc.lft.to/lastmile_qr_scan"}, "lat": 38.917050833333334, "is_disabled": 0, "lon": -77.03420633333333}, {"fusion_lat": 0.0, "type": "electric_scooter", "name": "47d113accff6b202ad24a204dcd8e08c", "fusion_lon": 0.0, "bike_id": "47d113accff6b202ad24a204dcd8e08c", "is_reserved": 0, "rental_uris": {"android": "https://dc.lft.to/lastmile_qr_scan", "ios": "https://dc.lft.to/lastmile_qr_scan"}, "lat": 38.924663, "is_disabled": 0, "lon": -77.02986716666666}, {"fusion_lat": 0.0, "type": "electric_scooter", "name": "b8e4d53be608c879795201afffaabdc8", "fusion_lon": 0.0, "bike_id": "b8e4d53be608c879795201afffaabdc8", "is_reserved": 0, "rental_uris": {"android": "https://dc.lft.to/lastmile_qr_scan", "ios": "https://dc.lft.to/lastmile_qr_scan"}, "lat": 38.899062, "is_disabled": 0, "lon": -76.93374283333333}, {"fusion_lat": 0.0, "type": "electric_scooter", "name": "7c10b4fbd3060cbd68ba56acb1026b28", "fusion_lon": 0.0, "bike_id": "7c10b4fbd3060cbd68ba56acb1026b28", "is_reserved": 0, "rental_uris": {"android": "https://dc.lft.to/lastmile_qr_scan", "ios": "https://dc.lft.to/lastmile_qr_scan"}, "lat": 38.893625, "is_disabled": 0, "lon": -76.9498395}, {"fusion_lat": 0.0, "type": "electric_scooter", "name": "a3c0274b461a3faa264d28acc63dfd67", "fusion_lon": 0.0, "bike_id": "a3c0274b461a3faa264d28acc63dfd67", "is_reserved": 0, "rental_uris": {"android": "https://dc.lft.to/lastmile_qr_scan", "ios": "https://dc.lft.to/lastmile_qr_scan"}, "lat": 38.9356915, "is_disabled": 0, "lon": -77.02117566666666}, {"fusion_lat": 0.0, "type": "electric_scooter", "name": "cbaadf1a91261552ce0f8eec6d9b3372", "fusion_lon": 0.0, "bike_id": "cbaadf1a91261552ce0f8eec6d9b3372", "is_reserved": 0, "rental_uris": {"android": "https://dc.lft.to/lastmile_qr_scan", "ios": "https://dc.lft.to/lastmile_qr_scan"}, "lat": 38.90788716666667, "is_disabled": 0, "lon": -77.04524233333333}, {"fusion_lat": 0.0, "type": "electric_scooter", "name": "77329798a111f05bceadb93404e70935", "fusion_lon": 0.0, "bike_id": "77329798a111f05bceadb93404e70935", "is_reserved": 0, "rental_uris": {"android": "https://dc.lft.to/lastmile_qr_scan", "ios": "https://dc.lft.to/lastmile_qr_scan"}, "lat": 38.92146733333333, "is_disabled": 0, "lon": -77.03512333333333}, {"fusion_lat": 0.0, "type": "electric_scooter", "name": "2567889188e644b49ab52ca430937ce9", "fusion_lon": 0.0, "bike_id": "2567889188e644b49ab52ca430937ce9", "is_reserved": 0, "rental_uris": {"android": "https://dc.lft.to/lastmile_qr_scan", "ios": "https://dc.lft.to/lastmile_qr_scan"}, "lat": 38.887103333333336, "is_disabled": 0, "lon": -77.0220225}, {"fusion_lat": 0.0, "type": "electric_bike", "name": "80ebd2300f264ad4a0154350e3a2d4c5", "fusion_lon": 0.0, "bike_id": "80ebd2300f264ad4a0154350e3a2d4c5", "is_reserved": 0, "rental_uris": {"android": "https://dc.lft.to/lastmile_qr_scan", "ios": "https://dc.lft.to/lastmile_qr_scan"}, "lat": 38.94670683333333, "is_disabled": 0, "lon": -76.98317983333334}, {"fusion_lat": 0.0, "type": "electric_scooter", "name": "ea02b7e12e9866f5ab63895ae44ec369", "fusion_lon": 0.0, "bike_id": "ea02b7e12e9866f5ab63895ae44ec369", "is_reserved": 0, "rental_uris": {"android": "https://dc.lft.to/lastmile_qr_scan", "ios": "https://dc.lft.to/lastmile_qr_scan"}, "lat": 38.904163833333335, "is_disabled": 0, "lon": -77.02976133333334}, {"fusion_lat": 0.0, "type": "electric_scooter", "name": "259b2107ea62b59409a9701931d7d1a1", "fusion_lon": 0.0, "bike_id": "259b2107ea62b59409a9701931d7d1a1", "is_reserved": 0, "rental_uris": {"android": "https://dc.lft.to/lastmile_qr_scan", "ios": "https://dc.lft.to/lastmile_qr_scan"}, "lat": 38.956246666666665, "is_disabled": 0, "lon": -77.02461383333333}, {"fusion_lat": 0.0, "type": "electric_bike", "name": "f3047265f7cfea0fcedb5b1dc7568b9c", "fusion_lon": 0.0, "bike_id": "f3047265f7cfea0fcedb5b1dc7568b9c", "is_reserved": 0, "rental_uris": {"android": "https://dc.lft.to/lastmile_qr_scan", "ios": "https://dc.lft.to/lastmile_qr_scan"}, "lat": 38.85207066666667, "is_disabled": 0, "lon": -77.10131666666666}, {"fusion_lat": 0.0, "type": "electric_scooter", "name": "3142beb2b1ce87f33854c69f3c8d898f", "fusion_lon": 0.0, "bike_id": "3142beb2b1ce87f33854c69f3c8d898f", "is_reserved": 0, "rental_uris": {"android": "https://dc.lft.to/lastmile_qr_scan", "ios": "https://dc.lft.to/lastmile_qr_scan"}, "lat": 38.911010166666664, "is_disabled": 0, "lon": -77.04667733333334}, {"fusion_lat": 0.0, "type": "electric_scooter", "name": "694656f621ea916af75d52e8aa733339", "fusion_lon": 0.0, "bike_id": "694656f621ea916af75d52e8aa733339", "is_reserved": 0, "rental_uris": {"android": "https://dc.lft.to/lastmile_qr_scan", "ios": "https://dc.lft.to/lastmile_qr_scan"}, "lat": 38.9124355, "is_disabled": 0, "lon": -77.0448165}, {"fusion_lat": 0.0, "type": "electric_scooter", "name": "66599b380b60f0ee5bc6db142a3d243e", "fusion_lon": 0.0, "bike_id": "66599b380b60f0ee5bc6db142a3d243e", "is_reserved": 0, "rental_uris": {"android": "https://dc.lft.to/lastmile_qr_scan", "ios": "https://dc.lft.to/lastmile_qr_scan"}, "lat": 38.949573, "is_disabled": 0, "lon": -77.027224}, {"fusion_lat": 0.0, "type": "electric_scooter", "name": "ee64825a8e6c454ae00f28484a9a1a1b", "fusion_lon": 0.0, "bike_id": "ee64825a8e6c454ae00f28484a9a1a1b", "is_reserved": 0, "rental_uris": {"android": "https://dc.lft.to/lastmile_qr_scan", "ios": "https://dc.lft.to/lastmile_qr_scan"}, "lat": 38.91318066666667, "is_disabled": 0, "lon": -77.0150755}, {"fusion_lat": 0.0, "type": "electric_scooter", "name": "640312864641f0c5792dd20f712d8077", "fusion_lon": 0.0, "bike_id": "640312864641f0c5792dd20f712d8077", "is_reserved": 0, "rental_uris": {"android": "https://dc.lft.to/lastmile_qr_scan", "ios": "https://dc.lft.to/lastmile_qr_scan"}, "lat": 38.919326, "is_disabled": 0, "lon": -77.045573}, {"fusion_lat": 0.0, "type": "electric_scooter", "name": "4f6c1c88571a8b7f87bf4b4c1993de83", "fusion_lon": 0.0, "bike_id": "4f6c1c88571a8b7f87bf4b4c1993de83", "is_reserved": 0, "rental_uris": {"android": "https://dc.lft.to/lastmile_qr_scan", "ios": "https://dc.lft.to/lastmile_qr_scan"}, "lat": 38.844206166666666, "is_disabled": 0, "lon": -76.997791}, {"fusion_lat": 0.0, "type": "electric_scooter", "name": "5c3a269fbaf25edbb84aba96bfde5c3a", "fusion_lon": 0.0, "bike_id": "5c3a269fbaf25edbb84aba96bfde5c3a", "is_reserved": 0, "rental_uris": {"android": "https://dc.lft.to/lastmile_qr_scan", "ios": "https://dc.lft.to/lastmile_qr_scan"}, "lat": 38.879825, "is_disabled": 0, "lon": -77.01381866666667}, {"fusion_lat": 0.0, "type": "electric_scooter", "name": "68f271b657e948eb506991b89d78eb95", "fusion_lon": 0.0, "bike_id": "68f271b657e948eb506991b89d78eb95", "is_reserved": 0, "rental_uris": {"android": "https://dc.lft.to/lastmile_qr_scan", "ios": "https://dc.lft.to/lastmile_qr_scan"}, "lat": 38.91897916666667, "is_disabled": 0, "lon": -77.00314566666667}, {"fusion_lat": 0.0, "type": "electric_scooter", "name": "3a43620116876ecda47c0c7f6aead6bd", "fusion_lon": 0.0, "bike_id": "3a43620116876ecda47c0c7f6aead6bd", "is_reserved": 0, "rental_uris": {"android": "https://dc.lft.to/lastmile_qr_scan", "ios": "https://dc.lft.to/lastmile_qr_scan"}, "lat": 38.94835833333333, "is_disabled": 0, "lon": -77.02545933333333}, {"fusion_lat": 0.0, "type": "electric_scooter", "name": "642707e3fcb43617d7a5af74c6b47760", "fusion_lon": 0.0, "bike_id": "642707e3fcb43617d7a5af74c6b47760", "is_reserved": 0, "rental_uris": {"android": "https://dc.lft.to/lastmile_qr_scan", "ios": "https://dc.lft.to/lastmile_qr_scan"}, "lat": 38.927603500000004, "is_disabled": 0, "lon": -77.02291966666667}, {"fusion_lat": 0.0, "type": "electric_scooter", "name": "6cea8653c14601abff7ebee8e4ec4f6d", "fusion_lon": 0.0, "bike_id": "6cea8653c14601abff7ebee8e4ec4f6d", "is_reserved": 0, "rental_uris": {"android": "https://dc.lft.to/lastmile_qr_scan", "ios": "https://dc.lft.to/lastmile_qr_scan"}, "lat": 38.89736083333333, "is_disabled": 0, "lon": -76.94727566666667}, {"fusion_lat": 0.0, "type": "electric_scooter", "name": "9dafecb75713be1e11090705a17471c9", "fusion_lon": 0.0, "bike_id": "9dafecb75713be1e11090705a17471c9", "is_reserved": 0, "rental_uris": {"android": "https://dc.lft.to/lastmile_qr_scan", "ios": "https://dc.lft.to/lastmile_qr_scan"}, "lat": 38.91104433333334, "is_disabled": 0, "lon": -77.03831333333333}, {"fusion_lat": 0.0, "type": "electric_scooter", "name": "57be2376d93b188b68ef77c120eb8839", "fusion_lon": 0.0, "bike_id": "57be2376d93b188b68ef77c120eb8839", "is_reserved": 0, "rental_uris": {"android": "https://dc.lft.to/lastmile_qr_scan", "ios": "https://dc.lft.to/lastmile_qr_scan"}, "lat": 38.904861333333336, "is_disabled": 0, "lon": -77.025867}, {"fusion_lat": 0.0, "type": "electric_scooter", "name": "10b8e030600bdbf1fa3feea978b9b002", "fusion_lon": 0.0, "bike_id": "10b8e030600bdbf1fa3feea978b9b002", "is_reserved": 0, "rental_uris": {"android": "https://dc.lft.to/lastmile_qr_scan", "ios": "https://dc.lft.to/lastmile_qr_scan"}, "lat": 38.92244483333333, "is_disabled": 0, "lon": -77.04364383333333}, {"fusion_lat": 0.0, "type": "electric_scooter", "name": "db50dc16ceb81c838037414250dd5a07", "fusion_lon": 0.0, "bike_id": "db50dc16ceb81c838037414250dd5a07", "is_reserved": 0, "rental_uris": {"android": "https://dc.lft.to/lastmile_qr_scan", "ios": "https://dc.lft.to/lastmile_qr_scan"}, "lat": 38.9053485, "is_disabled": 0, "lon": -77.04841833333333}, {"fusion_lat": 0.0, "type": "electric_bike", "name": "b1f23b18ab2bca4f258275d1139bca11", "fusion_lon": 0.0, "bike_id": "b1f23b18ab2bca4f258275d1139bca11", "is_reserved": 0, "rental_uris": {"android": "https://dc.lft.to/lastmile_qr_scan", "ios": "https://dc.lft.to/lastmile_qr_scan"}, "lat": 38.896595166666664, "is_disabled": 0, "lon": -76.93016916666667}, {"fusion_lat": 0.0, "type": "electric_scooter", "name": "4beec3062852c7a02aaf3e458532ccfd", "fusion_lon": 0.0, "bike_id": "4beec3062852c7a02aaf3e458532ccfd", "is_reserved": 0, "rental_uris": {"android": "https://dc.lft.to/lastmile_qr_scan", "ios": "https://dc.lft.to/lastmile_qr_scan"}, "lat": 38.92122233333333, "is_disabled": 0, "lon": -77.02530566666667}, {"fusion_lat": 0.0, "type": "electric_scooter", "name": "df369a26702caa995ed001e28a470463", "fusion_lon": 0.0, "bike_id": "df369a26702caa995ed001e28a470463", "is_reserved": 0, "rental_uris": {"android": "https://dc.lft.to/lastmile_qr_scan", "ios": "https://dc.lft.to/lastmile_qr_scan"}, "lat": 38.918205, "is_disabled": 0, "lon": -77.03444483333334}, {"fusion_lat": 0.0, "type": "electric_scooter", "name": "5d7093cc77f78b2314a93dced60b21bb", "fusion_lon": 0.0, "bike_id": "5d7093cc77f78b2314a93dced60b21bb", "is_reserved": 0, "rental_uris": {"android": "https://dc.lft.to/lastmile_qr_scan", "ios": "https://dc.lft.to/lastmile_qr_scan"}, "lat": 38.935189, "is_disabled": 0, "lon": -77.07287933333333}, {"fusion_lat": 0.0, "type": "electric_scooter", "name": "d0140a5b49b2ad8bbd77bc9fbfd18fc7", "fusion_lon": 0.0, "bike_id": "d0140a5b49b2ad8bbd77bc9fbfd18fc7", "is_reserved": 0, "rental_uris": {"android": "https://dc.lft.to/lastmile_qr_scan", "ios": "https://dc.lft.to/lastmile_qr_scan"}, "lat": 38.91319983333333, "is_disabled": 0, "lon": -77.04543333333334}, {"fusion_lat": 0.0, "type": "electric_scooter", "name": "baec3bf5ce47e942325dc69409f1470b", "fusion_lon": 0.0, "bike_id": "baec3bf5ce47e942325dc69409f1470b", "is_reserved": 0, "rental_uris": {"android": "https://dc.lft.to/lastmile_qr_scan", "ios": "https://dc.lft.to/lastmile_qr_scan"}, "lat": 38.919476833333334, "is_disabled": 0, "lon": -76.98078716666667}, {"fusion_lat": 0.0, "type": "electric_scooter", "name": "49981119a93e687f44eee5769f92002a", "fusion_lon": 0.0, "bike_id": "49981119a93e687f44eee5769f92002a", "is_reserved": 0, "rental_uris": {"android": "https://dc.lft.to/lastmile_qr_scan", "ios": "https://dc.lft.to/lastmile_qr_scan"}, "lat": 38.90856466666666, "is_disabled": 0, "lon": -77.04255183333333}, {"fusion_lat": 0.0, "type": "electric_bike", "name": "83290c00fad34be7160780892dc0f2c5", "fusion_lon": 0.0, "bike_id": "83290c00fad34be7160780892dc0f2c5", "is_reserved": 0, "rental_uris": {"android": "https://dc.lft.to/lastmile_qr_scan", "ios": "https://dc.lft.to/lastmile_qr_scan"}, "lat": 38.829102, "is_disabled": 0, "lon": -76.99782033333334}, {"fusion_lat": 0.0, "type": "electric_scooter", "name": "99c87db8ecb3a333c0b730a9e8d43d6b", "fusion_lon": 0.0, "bike_id": "99c87db8ecb3a333c0b730a9e8d43d6b", "is_reserved": 0, "rental_uris": {"android": "https://dc.lft.to/lastmile_qr_scan", "ios": "https://dc.lft.to/lastmile_qr_scan"}, "lat": 38.9127935, "is_disabled": 0, "lon": -77.038562}, {"fusion_lat": 0.0, "type": "electric_scooter", "name": "567866748bc837513e67be3258f5f14a", "fusion_lon": 0.0, "bike_id": "567866748bc837513e67be3258f5f14a", "is_reserved": 0, "rental_uris": {"android": "https://dc.lft.to/lastmile_qr_scan", "ios": "https://dc.lft.to/lastmile_qr_scan"}, "lat": 38.9210015, "is_disabled": 0, "lon": -77.07189466666667}, {"fusion_lat": 0.0, "type": "electric_scooter", "name": "645155917bffe6d813858005a53a8cde", "fusion_lon": 0.0, "bike_id": "645155917bffe6d813858005a53a8cde", "is_reserved": 0, "rental_uris": {"android": "https://dc.lft.to/lastmile_qr_scan", "ios": "https://dc.lft.to/lastmile_qr_scan"}, "lat": 38.893648166666665, "is_disabled": 0, "lon": -76.949951}, {"fusion_lat": 0.0, "type": "electric_scooter", "name": "52afc085009fd8cd1865e4c3fc84136e", "fusion_lon": 0.0, "bike_id": "52afc085009fd8cd1865e4c3fc84136e", "is_reserved": 0, "rental_uris": {"android": "https://dc.lft.to/lastmile_qr_scan", "ios": "https://dc.lft.to/lastmile_qr_scan"}, "lat": 38.9061915, "is_disabled": 0, "lon": -77.00568183333333}, {"fusion_lat": 0.0, "type": "electric_scooter", "name": "7020d04d038f3a7342cf89eb8f87702a", "fusion_lon": 0.0, "bike_id": "7020d04d038f3a7342cf89eb8f87702a", "is_reserved": 0, "rental_uris": {"android": "https://dc.lft.to/lastmile_qr_scan", "ios": "https://dc.lft.to/lastmile_qr_scan"}, "lat": 38.925262833333335, "is_disabled": 0, "lon": -77.05134333333334}, {"fusion_lat": 0.0, "type": "electric_scooter", "name": "2832b0a924ff8a3f3eff9d79e71e3188", "fusion_lon": 0.0, "bike_id": "2832b0a924ff8a3f3eff9d79e71e3188", "is_reserved": 0, "rental_uris": {"android": "https://dc.lft.to/lastmile_qr_scan", "ios": "https://dc.lft.to/lastmile_qr_scan"}, "lat": 38.917717333333336, "is_disabled": 0, "lon": -77.0321}, {"fusion_lat": 0.0, "type": "electric_scooter", "name": "ef2300e9f60cecb3e61bce7d6d37e8f1", "fusion_lon": 0.0, "bike_id": "ef2300e9f60cecb3e61bce7d6d37e8f1", "is_reserved": 0, "rental_uris": {"android": "https://dc.lft.to/lastmile_qr_scan", "ios": "https://dc.lft.to/lastmile_qr_scan"}, "lat": 38.89894316666667, "is_disabled": 0, "lon": -77.0393195}, {"fusion_lat": 0.0, "type": "electric_scooter", "name": "385b1986e1d386c6d0870cc758665419", "fusion_lon": 0.0, "bike_id": "385b1986e1d386c6d0870cc758665419", "is_reserved": 0, "rental_uris": {"android": "https://dc.lft.to/lastmile_qr_scan", "ios": "https://dc.lft.to/lastmile_qr_scan"}, "lat": 38.88835516666666, "is_disabled": 0, "lon": -77.049058}, {"fusion_lat": 0.0, "type": "electric_bike", "name": "af87b6e6a4b762319b608303f393ad4e", "fusion_lon": 0.0, "bike_id": "af87b6e6a4b762319b608303f393ad4e", "is_reserved": 0, "rental_uris": {"android": "https://dc.lft.to/lastmile_qr_scan", "ios": "https://dc.lft.to/lastmile_qr_scan"}, "lat": 38.86746, "is_disabled": 0, "lon": -77.117076}, {"fusion_lat": 0.0, "type": "electric_scooter", "name": "11b305f85a17672e4d138a27fbd298e3", "fusion_lon": 0.0, "bike_id": "11b305f85a17672e4d138a27fbd298e3", "is_reserved": 0, "rental_uris": {"android": "https://dc.lft.to/lastmile_qr_scan", "ios": "https://dc.lft.to/lastmile_qr_scan"}, "lat": 38.93878466666666, "is_disabled": 0, "lon": -77.02483866666667}, {"fusion_lat": 0.0, "type": "electric_scooter", "name": "d6f3946cf9a46d118cb2d3ecba2e4963", "fusion_lon": 0.0, "bike_id": "d6f3946cf9a46d118cb2d3ecba2e4963", "is_reserved": 0, "rental_uris": {"android": "https://dc.lft.to/lastmile_qr_scan", "ios": "https://dc.lft.to/lastmile_qr_scan"}, "lat": 38.92739016666667, "is_disabled": 0, "lon": -77.02265933333334}, {"fusion_lat": 0.0, "type": "electric_scooter", "name": "0a038d6c2b08a9869d9a9bdf46c11faf", "fusion_lon": 0.0, "bike_id": "0a038d6c2b08a9869d9a9bdf46c11faf", "is_reserved": 0, "rental_uris": {"android": "https://dc.lft.to/lastmile_qr_scan", "ios": "https://dc.lft.to/lastmile_qr_scan"}, "lat": 38.91709866666667, "is_disabled": 0, "lon": -77.03349516666667}, {"fusion_lat": 0.0, "type": "electric_scooter", "name": "31fc3bb78ad961b530426bf3c9fc2406", "fusion_lon": 0.0, "bike_id": "31fc3bb78ad961b530426bf3c9fc2406", "is_reserved": 0, "rental_uris": {"android": "https://dc.lft.to/lastmile_qr_scan", "ios": "https://dc.lft.to/lastmile_qr_scan"}, "lat": 38.918050666666666, "is_disabled": 0, "lon": -77.03435733333333}, {"fusion_lat": 0.0, "type": "electric_scooter", "name": "438af96071c5a34fe5b35f2c950add26", "fusion_lon": 0.0, "bike_id": "438af96071c5a34fe5b35f2c950add26", "is_reserved": 0, "rental_uris": {"android": "https://dc.lft.to/lastmile_qr_scan", "ios": "https://dc.lft.to/lastmile_qr_scan"}, "lat": 38.90199466666667, "is_disabled": 0, "lon": -76.97854566666666}, {"fusion_lat": 0.0, "type": "electric_scooter", "name": "84a094a5f24ad43dfe4a6e5ead925fae", "fusion_lon": 0.0, "bike_id": "84a094a5f24ad43dfe4a6e5ead925fae", "is_reserved": 0, "rental_uris": {"android": "https://dc.lft.to/lastmile_qr_scan", "ios": "https://dc.lft.to/lastmile_qr_scan"}, "lat": 38.9071825, "is_disabled": 0, "lon": -77.02983366666666}, {"fusion_lat": 0.0, "type": "electric_scooter", "name": "84185547030d44bfe11561fd80c5c9c1", "fusion_lon": 0.0, "bike_id": "84185547030d44bfe11561fd80c5c9c1", "is_reserved": 0, "rental_uris": {"android": "https://dc.lft.to/lastmile_qr_scan", "ios": "https://dc.lft.to/lastmile_qr_scan"}, "lat": 38.934207666666666, "is_disabled": 0, "lon": -77.04410483333334}, {"fusion_lat": 0.0, "type": "electric_scooter", "name": "3f9b2910b953d9263710cf59288e23fb", "fusion_lon": 0.0, "bike_id": "3f9b2910b953d9263710cf59288e23fb", "is_reserved": 0, "rental_uris": {"android": "https://dc.lft.to/lastmile_qr_scan", "ios": "https://dc.lft.to/lastmile_qr_scan"}, "lat": 38.86245366666667, "is_disabled": 0, "lon": -76.99501416666666}, {"fusion_lat": 0.0, "type": "electric_scooter", "name": "70f959c813eccf4da0a6d784a238349b", "fusion_lon": 0.0, "bike_id": "70f959c813eccf4da0a6d784a238349b", "is_reserved": 0, "rental_uris": {"android": "https://dc.lft.to/lastmile_qr_scan", "ios": "https://dc.lft.to/lastmile_qr_scan"}, "lat": 38.91192383333333, "is_disabled": 0, "lon": -77.0009745}, {"fusion_lat": 0.0, "type": "electric_scooter", "name": "30745b81333612d01d5fc716e1f569d5", "fusion_lon": 0.0, "bike_id": "30745b81333612d01d5fc716e1f569d5", "is_reserved": 0, "rental_uris": {"android": "https://dc.lft.to/lastmile_qr_scan", "ios": "https://dc.lft.to/lastmile_qr_scan"}, "lat": 38.951256666666666, "is_disabled": 0, "lon": -76.986715}, {"fusion_lat": 0.0, "type": "electric_scooter", "name": "f1db7c947b441a991c471a064987e8a9", "fusion_lon": 0.0, "bike_id": "f1db7c947b441a991c471a064987e8a9", "is_reserved": 0, "rental_uris": {"android": "https://dc.lft.to/lastmile_qr_scan", "ios": "https://dc.lft.to/lastmile_qr_scan"}, "lat": 38.92515566666667, "is_disabled": 0, "lon": -77.0504335}, {"fusion_lat": 0.0, "type": "electric_scooter", "name": "93852b998c4e2f0b67abcb9ead8e268b", "fusion_lon": 0.0, "bike_id": "93852b998c4e2f0b67abcb9ead8e268b", "is_reserved": 0, "rental_uris": {"android": "https://dc.lft.to/lastmile_qr_scan", "ios": "https://dc.lft.to/lastmile_qr_scan"}, "lat": 38.892154833333336, "is_disabled": 0, "lon": -77.02809333333333}, {"fusion_lat": 0.0, "type": "electric_scooter", "name": "6c58a7c1a8ba3e96a17c6ed80e6832b9", "fusion_lon": 0.0, "bike_id": "6c58a7c1a8ba3e96a17c6ed80e6832b9", "is_reserved": 0, "rental_uris": {"android": "https://dc.lft.to/lastmile_qr_scan", "ios": "https://dc.lft.to/lastmile_qr_scan"}, "lat": 38.92168866666667, "is_disabled": 0, "lon": -77.04017133333333}, {"fusion_lat": 0.0, "type": "electric_scooter", "name": "277b94017ba67af3e59ff085ed8c1091", "fusion_lon": 0.0, "bike_id": "277b94017ba67af3e59ff085ed8c1091", "is_reserved": 0, "rental_uris": {"android": "https://dc.lft.to/lastmile_qr_scan", "ios": "https://dc.lft.to/lastmile_qr_scan"}, "lat": 38.87387983333333, "is_disabled": 0, "lon": -77.000335}, {"fusion_lat": 0.0, "type": "electric_scooter", "name": "447a4a6133fd43ea6832579ab1f65912", "fusion_lon": 0.0, "bike_id": "447a4a6133fd43ea6832579ab1f65912", "is_reserved": 0, "rental_uris": {"android": "https://dc.lft.to/lastmile_qr_scan", "ios": "https://dc.lft.to/lastmile_qr_scan"}, "lat": 38.905550166666664, "is_disabled": 0, "lon": -77.005763}, {"fusion_lat": 0.0, "type": "electric_scooter", "name": "4b46349718355235fbe07cf82b70ab4f", "fusion_lon": 0.0, "bike_id": "4b46349718355235fbe07cf82b70ab4f", "is_reserved": 0, "rental_uris": {"android": "https://dc.lft.to/lastmile_qr_scan", "ios": "https://dc.lft.to/lastmile_qr_scan"}, "lat": 38.892344666666666, "is_disabled": 0, "lon": -77.041598}, {"fusion_lat": 0.0, "type": "electric_scooter", "name": "7221b98d7d3f823535d26f41d47aeac4", "fusion_lon": 0.0, "bike_id": "7221b98d7d3f823535d26f41d47aeac4", "is_reserved": 0, "rental_uris": {"android": "https://dc.lft.to/lastmile_qr_scan", "ios": "https://dc.lft.to/lastmile_qr_scan"}, "lat": 38.897606333333336, "is_disabled": 0, "lon": -77.03321583333333}, {"fusion_lat": 0.0, "type": "electric_scooter", "name": "553da5a2f92a94d5d8e159396ecdba85", "fusion_lon": 0.0, "bike_id": "553da5a2f92a94d5d8e159396ecdba85", "is_reserved": 0, "rental_uris": {"android": "https://dc.lft.to/lastmile_qr_scan", "ios": "https://dc.lft.to/lastmile_qr_scan"}, "lat": 38.89243066666667, "is_disabled": 0, "lon": -77.0465445}, {"fusion_lat": 0.0, "type": "electric_scooter", "name": "ecd7ceb7e29eae3ae16b3f72b38b39a6", "fusion_lon": 0.0, "bike_id": "ecd7ceb7e29eae3ae16b3f72b38b39a6", "is_reserved": 0, "rental_uris": {"android": "https://dc.lft.to/lastmile_qr_scan", "ios": "https://dc.lft.to/lastmile_qr_scan"}, "lat": 38.91706766666667, "is_disabled": 0, "lon": -77.0386605}, {"fusion_lat": 0.0, "type": "electric_scooter", "name": "d300bfd0e1b557f7bd0cf0a5bf482d80", "fusion_lon": 0.0, "bike_id": "d300bfd0e1b557f7bd0cf0a5bf482d80", "is_reserved": 0, "rental_uris": {"android": "https://dc.lft.to/lastmile_qr_scan", "ios": "https://dc.lft.to/lastmile_qr_scan"}, "lat": 38.9489965, "is_disabled": 0, "lon": -77.020732}, {"fusion_lat": 0.0, "type": "electric_scooter", "name": "e3a4e4242292c8baa1502ff828995f54", "fusion_lon": 0.0, "bike_id": "e3a4e4242292c8baa1502ff828995f54", "is_reserved": 0, "rental_uris": {"android": "https://dc.lft.to/lastmile_qr_scan", "ios": "https://dc.lft.to/lastmile_qr_scan"}, "lat": 38.87186116666667, "is_disabled": 0, "lon": -77.00592616666667}, {"fusion_lat": 0.0, "type": "electric_scooter", "name": "fb98fc8540c4251c32494e911094cf50", "fusion_lon": 0.0, "bike_id": "fb98fc8540c4251c32494e911094cf50", "is_reserved": 0, "rental_uris": {"android": "https://dc.lft.to/lastmile_qr_scan", "ios": "https://dc.lft.to/lastmile_qr_scan"}, "lat": 38.892206, "is_disabled": 0, "lon": -77.04310583333333}, {"fusion_lat": 0.0, "type": "electric_scooter", "name": "46d2e7eaf5e321de36119245769a5b5e", "fusion_lon": 0.0, "bike_id": "46d2e7eaf5e321de36119245769a5b5e", "is_reserved": 0, "rental_uris": {"android": "https://dc.lft.to/lastmile_qr_scan", "ios": "https://dc.lft.to/lastmile_qr_scan"}, "lat": 38.88115716666667, "is_disabled": 0, "lon": -77.01652816666666}, {"fusion_lat": 0.0, "type": "electric_scooter", "name": "3def0b3e7339dfe5c83f5ecd3bdad9d2", "fusion_lon": 0.0, "bike_id": "3def0b3e7339dfe5c83f5ecd3bdad9d2", "is_reserved": 0, "rental_uris": {"android": "https://dc.lft.to/lastmile_qr_scan", "ios": "https://dc.lft.to/lastmile_qr_scan"}, "lat": 38.89976383333333, "is_disabled": 0, "lon": -77.03334133333334}, {"fusion_lat": 0.0, "type": "electric_scooter", "name": "d0772865707b245bd138c7e2151dc7c3", "fusion_lon": 0.0, "bike_id": "d0772865707b245bd138c7e2151dc7c3", "is_reserved": 0, "rental_uris": {"android": "https://dc.lft.to/lastmile_qr_scan", "ios": "https://dc.lft.to/lastmile_qr_scan"}, "lat": 38.912631166666664, "is_disabled": 0, "lon": -77.03073916666666}, {"fusion_lat": 0.0, "type": "electric_scooter", "name": "858b1bbc05b8d692aa6f7c1b6cac473c", "fusion_lon": 0.0, "bike_id": "858b1bbc05b8d692aa6f7c1b6cac473c", "is_reserved": 0, "rental_uris": {"android": "https://dc.lft.to/lastmile_qr_scan", "ios": "https://dc.lft.to/lastmile_qr_scan"}, "lat": 38.90746333333333, "is_disabled": 0, "lon": -77.00249866666667}, {"fusion_lat": 0.0, "type": "electric_scooter", "name": "5a05a5a8d422de8ab6d036ee95fb9660", "fusion_lon": 0.0, "bike_id": "5a05a5a8d422de8ab6d036ee95fb9660", "is_reserved": 0, "rental_uris": {"android": "https://dc.lft.to/lastmile_qr_scan", "ios": "https://dc.lft.to/lastmile_qr_scan"}, "lat": 38.885546833333336, "is_disabled": 0, "lon": -77.01996183333333}, {"fusion_lat": 0.0, "type": "electric_scooter", "name": "25593f9f56d244a41b5be211d2678e58", "fusion_lon": 0.0, "bike_id": "25593f9f56d244a41b5be211d2678e58", "is_reserved": 0, "rental_uris": {"android": "https://dc.lft.to/lastmile_qr_scan", "ios": "https://dc.lft.to/lastmile_qr_scan"}, "lat": 38.92213183333333, "is_disabled": 0, "lon": -77.04247683333334}, {"fusion_lat": 0.0, "type": "electric_scooter", "name": "77ca66f75eb094bf7d1c4ee7402731b3", "fusion_lon": 0.0, "bike_id": "77ca66f75eb094bf7d1c4ee7402731b3", "is_reserved": 0, "rental_uris": {"android": "https://dc.lft.to/lastmile_qr_scan", "ios": "https://dc.lft.to/lastmile_qr_scan"}, "lat": 38.8921955, "is_disabled": 0, "lon": -77.03103383333334}, {"fusion_lat": 0.0, "type": "electric_scooter", "name": "5f273e16af2a343ec82d106e0a9a311e", "fusion_lon": 0.0, "bike_id": "5f273e16af2a343ec82d106e0a9a311e", "is_reserved": 0, "rental_uris": {"android": "https://dc.lft.to/lastmile_qr_scan", "ios": "https://dc.lft.to/lastmile_qr_scan"}, "lat": 38.91110533333333, "is_disabled": 0, "lon": -77.03147033333333}, {"fusion_lat": 0.0, "type": "electric_scooter", "name": "85c3d1795f78283a163e330f4df091a8", "fusion_lon": 0.0, "bike_id": "85c3d1795f78283a163e330f4df091a8", "is_reserved": 0, "rental_uris": {"android": "https://dc.lft.to/lastmile_qr_scan", "ios": "https://dc.lft.to/lastmile_qr_scan"}, "lat": 38.93471483333333, "is_disabled": 0, "lon": -77.08661066666667}, {"fusion_lat": 0.0, "type": "electric_scooter", "name": "109a38081f41dea26a75869d70b65a0e", "fusion_lon": 0.0, "bike_id": "109a38081f41dea26a75869d70b65a0e", "is_reserved": 0, "rental_uris": {"android": "https://dc.lft.to/lastmile_qr_scan", "ios": "https://dc.lft.to/lastmile_qr_scan"}, "lat": 38.94893116666667, "is_disabled": 0, "lon": -77.0064755}, {"fusion_lat": 0.0, "type": "electric_scooter", "name": "5e68c8b622ef1bafd3b9f2d472dfcb7b", "fusion_lon": 0.0, "bike_id": "5e68c8b622ef1bafd3b9f2d472dfcb7b", "is_reserved": 0, "rental_uris": {"android": "https://dc.lft.to/lastmile_qr_scan", "ios": "https://dc.lft.to/lastmile_qr_scan"}, "lat": 38.8922045, "is_disabled": 0, "lon": -77.04684533333334}, {"fusion_lat": 0.0, "type": "electric_scooter", "name": "706c427f50479777e536ab12e8dabcb7", "fusion_lon": 0.0, "bike_id": "706c427f50479777e536ab12e8dabcb7", "is_reserved": 0, "rental_uris": {"android": "https://dc.lft.to/lastmile_qr_scan", "ios": "https://dc.lft.to/lastmile_qr_scan"}, "lat": 38.909510166666664, "is_disabled": 0, "lon": -77.027152}, {"fusion_lat": 0.0, "type": "electric_scooter", "name": "ec403de840b383a6aa22d57368d10dbb", "fusion_lon": 0.0, "bike_id": "ec403de840b383a6aa22d57368d10dbb", "is_reserved": 0, "rental_uris": {"android": "https://dc.lft.to/lastmile_qr_scan", "ios": "https://dc.lft.to/lastmile_qr_scan"}, "lat": 38.935345166666664, "is_disabled": 0, "lon": -77.02348816666667}, {"fusion_lat": 0.0, "type": "electric_scooter", "name": "d00d5b038eda4ef8c257c73a7087cfc7", "fusion_lon": 0.0, "bike_id": "d00d5b038eda4ef8c257c73a7087cfc7", "is_reserved": 0, "rental_uris": {"android": "https://dc.lft.to/lastmile_qr_scan", "ios": "https://dc.lft.to/lastmile_qr_scan"}, "lat": 38.90986133333333, "is_disabled": 0, "lon": -77.00915683333334}, {"fusion_lat": 0.0, "type": "electric_scooter", "name": "b936330075df4229a8e03e14acc30a02", "fusion_lon": 0.0, "bike_id": "b936330075df4229a8e03e14acc30a02", "is_reserved": 0, "rental_uris": {"android": "https://dc.lft.to/lastmile_qr_scan", "ios": "https://dc.lft.to/lastmile_qr_scan"}, "lat": 38.89842466666666, "is_disabled": 0, "lon": -76.94640983333333}, {"fusion_lat": 0.0, "type": "electric_scooter", "name": "89b28426417353d966fb1b47fe30723c", "fusion_lon": 0.0, "bike_id": "89b28426417353d966fb1b47fe30723c", "is_reserved": 0, "rental_uris": {"android": "https://dc.lft.to/lastmile_qr_scan", "ios": "https://dc.lft.to/lastmile_qr_scan"}, "lat": 38.92304, "is_disabled": 0, "lon": -77.04458483333333}, {"fusion_lat": 0.0, "type": "electric_scooter", "name": "c38917a88aaf0b3960f2876f40db88f5", "fusion_lon": 0.0, "bike_id": "c38917a88aaf0b3960f2876f40db88f5", "is_reserved": 0, "rental_uris": {"android": "https://dc.lft.to/lastmile_qr_scan", "ios": "https://dc.lft.to/lastmile_qr_scan"}, "lat": 38.90897, "is_disabled": 0, "lon": -77.03211966666667}, {"fusion_lat": 0.0, "type": "electric_scooter", "name": "43f6ce6b66f6a7750e99bc4554991f2c", "fusion_lon": 0.0, "bike_id": "43f6ce6b66f6a7750e99bc4554991f2c", "is_reserved": 0, "rental_uris": {"android": "https://dc.lft.to/lastmile_qr_scan", "ios": "https://dc.lft.to/lastmile_qr_scan"}, "lat": 38.860579333333334, "is_disabled": 0, "lon": -76.98422583333334}, {"fusion_lat": 0.0, "type": "electric_scooter", "name": "7ad26b46e9363f0a717fd6d91c06deb4", "fusion_lon": 0.0, "bike_id": "7ad26b46e9363f0a717fd6d91c06deb4", "is_reserved": 0, "rental_uris": {"android": "https://dc.lft.to/lastmile_qr_scan", "ios": "https://dc.lft.to/lastmile_qr_scan"}, "lat": 38.93458183333333, "is_disabled": 0, "lon": -77.05782283333333}, {"fusion_lat": 0.0, "type": "electric_scooter", "name": "a9f5f0a460618b97c2d7381f47626d0d", "fusion_lon": 0.0, "bike_id": "a9f5f0a460618b97c2d7381f47626d0d", "is_reserved": 0, "rental_uris": {"android": "https://dc.lft.to/lastmile_qr_scan", "ios": "https://dc.lft.to/lastmile_qr_scan"}, "lat": 38.916772333333334, "is_disabled": 0, "lon": -77.02819266666667}, {"fusion_lat": 0.0, "type": "electric_scooter", "name": "5606cd64606478c1dd99b0119ac82449", "fusion_lon": 0.0, "bike_id": "5606cd64606478c1dd99b0119ac82449", "is_reserved": 0, "rental_uris": {"android": "https://dc.lft.to/lastmile_qr_scan", "ios": "https://dc.lft.to/lastmile_qr_scan"}, "lat": 38.903739, "is_disabled": 0, "lon": -77.01765216666666}, {"fusion_lat": 0.0, "type": "electric_scooter", "name": "2a3666fa19dabc292b947c94d8fe6f1d", "fusion_lon": 0.0, "bike_id": "2a3666fa19dabc292b947c94d8fe6f1d", "is_reserved": 0, "rental_uris": {"android": "https://dc.lft.to/lastmile_qr_scan", "ios": "https://dc.lft.to/lastmile_qr_scan"}, "lat": 38.9184185, "is_disabled": 0, "lon": -77.025486}, {"fusion_lat": 0.0, "type": "electric_scooter", "name": "6b3d158f992f82fca7809efe45059c48", "fusion_lon": 0.0, "bike_id": "6b3d158f992f82fca7809efe45059c48", "is_reserved": 0, "rental_uris": {"android": "https://dc.lft.to/lastmile_qr_scan", "ios": "https://dc.lft.to/lastmile_qr_scan"}, "lat": 38.898823666666665, "is_disabled": 0, "lon": -76.93178866666666}, {"fusion_lat": 0.0, "type": "electric_bike", "name": "08935d67ec86501ccf05c072958f95e1", "fusion_lon": 0.0, "bike_id": "08935d67ec86501ccf05c072958f95e1", "is_reserved": 0, "rental_uris": {"android": "https://dc.lft.to/lastmile_qr_scan", "ios": "https://dc.lft.to/lastmile_qr_scan"}, "lat": 38.87731083333333, "is_disabled": 0, "lon": -76.981102}, {"fusion_lat": 0.0, "type": "electric_scooter", "name": "9f5774a76ade2d53b182153f0a5eac37", "fusion_lon": 0.0, "bike_id": "9f5774a76ade2d53b182153f0a5eac37", "is_reserved": 0, "rental_uris": {"android": "https://dc.lft.to/lastmile_qr_scan", "ios": "https://dc.lft.to/lastmile_qr_scan"}, "lat": 38.90195666666666, "is_disabled": 0, "lon": -77.0231585}, {"fusion_lat": 0.0, "type": "electric_scooter", "name": "8dd66a070c0fcf7bfa5540f595e409e2", "fusion_lon": 0.0, "bike_id": "8dd66a070c0fcf7bfa5540f595e409e2", "is_reserved": 0, "rental_uris": {"android": "https://dc.lft.to/lastmile_qr_scan", "ios": "https://dc.lft.to/lastmile_qr_scan"}, "lat": 38.905586666666665, "is_disabled": 0, "lon": -77.03448933333334}, {"fusion_lat": 0.0, "type": "electric_scooter", "name": "2b428051d4ceca8b3b1a3d647befee93", "fusion_lon": 0.0, "bike_id": "2b428051d4ceca8b3b1a3d647befee93", "is_reserved": 0, "rental_uris": {"android": "https://dc.lft.to/lastmile_qr_scan", "ios": "https://dc.lft.to/lastmile_qr_scan"}, "lat": 38.87458933333333, "is_disabled": 0, "lon": -77.00960066666667}, {"fusion_lat": 0.0, "type": "electric_scooter", "name": "2b0e18988f1b5fb1692fabb9c9efecc5", "fusion_lon": 0.0, "bike_id": "2b0e18988f1b5fb1692fabb9c9efecc5", "is_reserved": 0, "rental_uris": {"android": "https://dc.lft.to/lastmile_qr_scan", "ios": "https://dc.lft.to/lastmile_qr_scan"}, "lat": 38.907175333333335, "is_disabled": 0, "lon": -77.02980783333334}, {"fusion_lat": 0.0, "type": "electric_scooter", "name": "7f73fc4acaecd46e758da6871b7bb727", "fusion_lon": 0.0, "bike_id": "7f73fc4acaecd46e758da6871b7bb727", "is_reserved": 0, "rental_uris": {"android": "https://dc.lft.to/lastmile_qr_scan", "ios": "https://dc.lft.to/lastmile_qr_scan"}, "lat": 38.911474, "is_disabled": 0, "lon": -77.04341616666666}, {"fusion_lat": 0.0, "type": "electric_scooter", "name": "408d2f2603ae4fb67719f9328e64fc69", "fusion_lon": 0.0, "bike_id": "408d2f2603ae4fb67719f9328e64fc69", "is_reserved": 0, "rental_uris": {"android": "https://dc.lft.to/lastmile_qr_scan", "ios": "https://dc.lft.to/lastmile_qr_scan"}, "lat": 38.90433516666667, "is_disabled": 0, "lon": -77.04280683333333}, {"fusion_lat": 0.0, "type": "electric_scooter", "name": "d6ba4845ed0195a4349118ce8e0dffeb", "fusion_lon": 0.0, "bike_id": "d6ba4845ed0195a4349118ce8e0dffeb", "is_reserved": 0, "rental_uris": {"android": "https://dc.lft.to/lastmile_qr_scan", "ios": "https://dc.lft.to/lastmile_qr_scan"}, "lat": 38.9056715, "is_disabled": 0, "lon": -77.01966966666667}, {"fusion_lat": 0.0, "type": "electric_scooter", "name": "809fb4ee50897353ac2e8f3129ba8e81", "fusion_lon": 0.0, "bike_id": "809fb4ee50897353ac2e8f3129ba8e81", "is_reserved": 0, "rental_uris": {"android": "https://dc.lft.to/lastmile_qr_scan", "ios": "https://dc.lft.to/lastmile_qr_scan"}, "lat": 38.94202333333333, "is_disabled": 0, "lon": -77.0251795}, {"fusion_lat": 0.0, "type": "electric_scooter", "name": "7198ac1101b182d8db3ff032aa918290", "fusion_lon": 0.0, "bike_id": "7198ac1101b182d8db3ff032aa918290", "is_reserved": 0, "rental_uris": {"android": "https://dc.lft.to/lastmile_qr_scan", "ios": "https://dc.lft.to/lastmile_qr_scan"}, "lat": 38.8575805, "is_disabled": 0, "lon": -76.99301616666666}, {"fusion_lat": 0.0, "type": "electric_scooter", "name": "74ff13ee572fd915a47ff0b449f1754c", "fusion_lon": 0.0, "bike_id": "74ff13ee572fd915a47ff0b449f1754c", "is_reserved": 0, "rental_uris": {"android": "https://dc.lft.to/lastmile_qr_scan", "ios": "https://dc.lft.to/lastmile_qr_scan"}, "lat": 38.91978666666667, "is_disabled": 0, "lon": -77.03317783333334}, {"fusion_lat": 0.0, "type": "electric_scooter", "name": "cae1c04428e7d1e36f453d9ab9ef8bf2", "fusion_lon": 0.0, "bike_id": "cae1c04428e7d1e36f453d9ab9ef8bf2", "is_reserved": 0, "rental_uris": {"android": "https://dc.lft.to/lastmile_qr_scan", "ios": "https://dc.lft.to/lastmile_qr_scan"}, "lat": 38.8850505, "is_disabled": 0, "lon": -77.0202085}, {"fusion_lat": 0.0, "type": "electric_scooter", "name": "6e9840f083df98b083c37b7065d866c4", "fusion_lon": 0.0, "bike_id": "6e9840f083df98b083c37b7065d866c4", "is_reserved": 0, "rental_uris": {"android": "https://dc.lft.to/lastmile_qr_scan", "ios": "https://dc.lft.to/lastmile_qr_scan"}, "lat": 38.930983166666664, "is_disabled": 0, "lon": -77.02535916666666}, {"fusion_lat": 0.0, "type": "electric_scooter", "name": "609ff873b6bcfbe7abace92fa45dbcf1", "fusion_lon": 0.0, "bike_id": "609ff873b6bcfbe7abace92fa45dbcf1", "is_reserved": 0, "rental_uris": {"android": "https://dc.lft.to/lastmile_qr_scan", "ios": "https://dc.lft.to/lastmile_qr_scan"}, "lat": 38.892272, "is_disabled": 0, "lon": -77.03195166666667}, {"fusion_lat": 0.0, "type": "electric_scooter", "name": "80819cbf6915eea3e6af9633a9178f20", "fusion_lon": 0.0, "bike_id": "80819cbf6915eea3e6af9633a9178f20", "is_reserved": 0, "rental_uris": {"android": "https://dc.lft.to/lastmile_qr_scan", "ios": "https://dc.lft.to/lastmile_qr_scan"}, "lat": 38.930420166666664, "is_disabled": 0, "lon": -77.03780816666666}, {"fusion_lat": 0.0, "type": "electric_scooter", "name": "1d536fdf6cd9fe5c0216815c37211edb", "fusion_lon": 0.0, "bike_id": "1d536fdf6cd9fe5c0216815c37211edb", "is_reserved": 0, "rental_uris": {"android": "https://dc.lft.to/lastmile_qr_scan", "ios": "https://dc.lft.to/lastmile_qr_scan"}, "lat": 38.90729316666667, "is_disabled": 0, "lon": -77.03474866666667}, {"fusion_lat": 0.0, "type": "electric_scooter", "name": "ad58edbbc38117be516d3b84a4cd3681", "fusion_lon": 0.0, "bike_id": "ad58edbbc38117be516d3b84a4cd3681", "is_reserved": 0, "rental_uris": {"android": "https://dc.lft.to/lastmile_qr_scan", "ios": "https://dc.lft.to/lastmile_qr_scan"}, "lat": 38.89227966666667, "is_disabled": 0, "lon": -77.02177216666666}, {"fusion_lat": 0.0, "type": "electric_scooter", "name": "ade4cd4ef0494d79aee48d4a54e3fc7a", "fusion_lon": 0.0, "bike_id": "ade4cd4ef0494d79aee48d4a54e3fc7a", "is_reserved": 0, "rental_uris": {"android": "https://dc.lft.to/lastmile_qr_scan", "ios": "https://dc.lft.to/lastmile_qr_scan"}, "lat": 38.91890133333333, "is_disabled": 0, "lon": -77.02973366666667}, {"fusion_lat": 0.0, "type": "electric_bike", "name": "fa521b3aba11b64c04ec17c886b4bd22", "fusion_lon": 0.0, "bike_id": "fa521b3aba11b64c04ec17c886b4bd22", "is_reserved": 0, "rental_uris": {"android": "https://dc.lft.to/lastmile_qr_scan", "ios": "https://dc.lft.to/lastmile_qr_scan"}, "lat": 38.88562533333333, "is_disabled": 0, "lon": -77.16689783333334}, {"fusion_lat": 0.0, "type": "electric_scooter", "name": "fca443c45135f9396bbbfc7620f47ff9", "fusion_lon": 0.0, "bike_id": "fca443c45135f9396bbbfc7620f47ff9", "is_reserved": 0, "rental_uris": {"android": "https://dc.lft.to/lastmile_qr_scan", "ios": "https://dc.lft.to/lastmile_qr_scan"}, "lat": 38.89174366666667, "is_disabled": 0, "lon": -76.99030866666666}, {"fusion_lat": 0.0, "type": "electric_scooter", "name": "82a69f1527a190a04300ed4be47e2b47", "fusion_lon": 0.0, "bike_id": "82a69f1527a190a04300ed4be47e2b47", "is_reserved": 0, "rental_uris": {"android": "https://dc.lft.to/lastmile_qr_scan", "ios": "https://dc.lft.to/lastmile_qr_scan"}, "lat": 38.923624333333336, "is_disabled": 0, "lon": -77.05049233333334}, {"fusion_lat": 0.0, "type": "electric_bike", "name": "0712ce3324a103bb753548a00c48df5c", "fusion_lon": 0.0, "bike_id": "0712ce3324a103bb753548a00c48df5c", "is_reserved": 0, "rental_uris": {"android": "https://dc.lft.to/lastmile_qr_scan", "ios": "https://dc.lft.to/lastmile_qr_scan"}, "lat": 38.95955283333333, "is_disabled": 0, "lon": -77.10087966666667}, {"fusion_lat": 0.0, "type": "electric_scooter", "name": "0aef14667d84915a4d928622308291c7", "fusion_lon": 0.0, "bike_id": "0aef14667d84915a4d928622308291c7", "is_reserved": 0, "rental_uris": {"android": "https://dc.lft.to/lastmile_qr_scan", "ios": "https://dc.lft.to/lastmile_qr_scan"}, "lat": 38.93340466666667, "is_disabled": 0, "lon": -77.04121066666667}, {"fusion_lat": 0.0, "type": "electric_scooter", "name": "4fb4b219934117aba8e6cd96289f782f", "fusion_lon": 0.0, "bike_id": "4fb4b219934117aba8e6cd96289f782f", "is_reserved": 0, "rental_uris": {"android": "https://dc.lft.to/lastmile_qr_scan", "ios": "https://dc.lft.to/lastmile_qr_scan"}, "lat": 38.8656995, "is_disabled": 0, "lon": -76.98920583333333}, {"fusion_lat": 0.0, "type": "electric_scooter", "name": "d352ed0fc78952d0c3f8c530f2345795", "fusion_lon": 0.0, "bike_id": "d352ed0fc78952d0c3f8c530f2345795", "is_reserved": 0, "rental_uris": {"android": "https://dc.lft.to/lastmile_qr_scan", "ios": "https://dc.lft.to/lastmile_qr_scan"}, "lat": 38.91551333333334, "is_disabled": 0, "lon": -77.03178666666666}, {"fusion_lat": 0.0, "type": "electric_bike", "name": "b1008a5cbbedcdcd93998c083bfc979b", "fusion_lon": 0.0, "bike_id": "b1008a5cbbedcdcd93998c083bfc979b", "is_reserved": 0, "rental_uris": {"android": "https://dc.lft.to/lastmile_qr_scan", "ios": "https://dc.lft.to/lastmile_qr_scan"}, "lat": 38.831583333333334, "is_disabled": 0, "lon": -76.99545583333334}, {"fusion_lat": 0.0, "type": "electric_bike", "name": "4c5a0ae1f4b1443216b25a604b9a8f06", "fusion_lon": 0.0, "bike_id": "4c5a0ae1f4b1443216b25a604b9a8f06", "is_reserved": 0, "rental_uris": {"android": "https://dc.lft.to/lastmile_qr_scan", "ios": "https://dc.lft.to/lastmile_qr_scan"}, "lat": 38.81198583333333, "is_disabled": 0, "lon": -77.10832266666667}, {"fusion_lat": 0.0, "type": "electric_scooter", "name": "824387271075ed356dd9b2e8439b91c6", "fusion_lon": 0.0, "bike_id": "824387271075ed356dd9b2e8439b91c6", "is_reserved": 0, "rental_uris": {"android": "https://dc.lft.to/lastmile_qr_scan", "ios": "https://dc.lft.to/lastmile_qr_scan"}, "lat": 38.91676666666667, "is_disabled": 0, "lon": -77.022854}, {"fusion_lat": 0.0, "type": "electric_scooter", "name": "658cf8029e244f51fbf5c08a7cb990bb", "fusion_lon": 0.0, "bike_id": "658cf8029e244f51fbf5c08a7cb990bb", "is_reserved": 0, "rental_uris": {"android": "https://dc.lft.to/lastmile_qr_scan", "ios": "https://dc.lft.to/lastmile_qr_scan"}, "lat": 38.921413333333334, "is_disabled": 0, "lon": -77.02875283333333}, {"fusion_lat": 0.0, "type": "electric_scooter", "name": "90b05b49b1c0f8bccc86fafd5e548f58", "fusion_lon": 0.0, "bike_id": "90b05b49b1c0f8bccc86fafd5e548f58", "is_reserved": 0, "rental_uris": {"android": "https://dc.lft.to/lastmile_qr_scan", "ios": "https://dc.lft.to/lastmile_qr_scan"}, "lat": 38.923378, "is_disabled": 0, "lon": -77.02118316666666}, {"fusion_lat": 0.0, "type": "electric_scooter", "name": "db1f9ccbaf5cc10e316b1504702e83b0", "fusion_lon": 0.0, "bike_id": "db1f9ccbaf5cc10e316b1504702e83b0", "is_reserved": 0, "rental_uris": {"android": "https://dc.lft.to/lastmile_qr_scan", "ios": "https://dc.lft.to/lastmile_qr_scan"}, "lat": 38.884580666666665, "is_disabled": 0, "lon": -76.92621366666667}, {"fusion_lat": 0.0, "type": "electric_scooter", "name": "b5663eedd710dc9b9a7496a70f36fc47", "fusion_lon": 0.0, "bike_id": "b5663eedd710dc9b9a7496a70f36fc47", "is_reserved": 0, "rental_uris": {"android": "https://dc.lft.to/lastmile_qr_scan", "ios": "https://dc.lft.to/lastmile_qr_scan"}, "lat": 38.9345415, "is_disabled": 0, "lon": -77.0222165}, {"fusion_lat": 0.0, "type": "electric_bike", "name": "33958cecd1e178145fd2ea3b8a8b91ec", "fusion_lon": 0.0, "bike_id": "33958cecd1e178145fd2ea3b8a8b91ec", "is_reserved": 0, "rental_uris": {"android": "https://dc.lft.to/lastmile_qr_scan", "ios": "https://dc.lft.to/lastmile_qr_scan"}, "lat": 38.962257, "is_disabled": 0, "lon": -77.02635316666667}, {"fusion_lat": 0.0, "type": "electric_bike", "name": "4109c38d71336fb9cb7890123f18242b", "fusion_lon": 0.0, "bike_id": "4109c38d71336fb9cb7890123f18242b", "is_reserved": 0, "rental_uris": {"android": "https://dc.lft.to/lastmile_qr_scan", "ios": "https://dc.lft.to/lastmile_qr_scan"}, "lat": 38.93868333333333, "is_disabled": 0, "lon": -76.94290133333334}, {"fusion_lat": 0.0, "type": "electric_scooter", "name": "6fef9ae0b21218a84f58e35afcec5562", "fusion_lon": 0.0, "bike_id": "6fef9ae0b21218a84f58e35afcec5562", "is_reserved": 0, "rental_uris": {"android": "https://dc.lft.to/lastmile_qr_scan", "ios": "https://dc.lft.to/lastmile_qr_scan"}, "lat": 38.89730633333333, "is_disabled": 0, "lon": -77.04363633333334}, {"fusion_lat": 0.0, "type": "electric_scooter", "name": "28ff5d9b2a22ed288e2514c355d141c4", "fusion_lon": 0.0, "bike_id": "28ff5d9b2a22ed288e2514c355d141c4", "is_reserved": 0, "rental_uris": {"android": "https://dc.lft.to/lastmile_qr_scan", "ios": "https://dc.lft.to/lastmile_qr_scan"}, "lat": 38.916469, "is_disabled": 0, "lon": -77.048092}, {"fusion_lat": 0.0, "type": "electric_scooter", "name": "2e0a64b7037678b2ea2cdabc7564cc5e", "fusion_lon": 0.0, "bike_id": "2e0a64b7037678b2ea2cdabc7564cc5e", "is_reserved": 0, "rental_uris": {"android": "https://dc.lft.to/lastmile_qr_scan", "ios": "https://dc.lft.to/lastmile_qr_scan"}, "lat": 38.9112345, "is_disabled": 0, "lon": -77.02200766666667}, {"fusion_lat": 0.0, "type": "electric_scooter", "name": "938c546bc9125a846df93041aee550a4", "fusion_lon": 0.0, "bike_id": "938c546bc9125a846df93041aee550a4", "is_reserved": 0, "rental_uris": {"android": "https://dc.lft.to/lastmile_qr_scan", "ios": "https://dc.lft.to/lastmile_qr_scan"}, "lat": 38.89226516666667, "is_disabled": 0, "lon": -77.050001}, {"fusion_lat": 0.0, "type": "electric_scooter", "name": "a0271242ee1bca77dd95bc02644ee653", "fusion_lon": 0.0, "bike_id": "a0271242ee1bca77dd95bc02644ee653", "is_reserved": 0, "rental_uris": {"android": "https://dc.lft.to/lastmile_qr_scan", "ios": "https://dc.lft.to/lastmile_qr_scan"}, "lat": 38.952816166666665, "is_disabled": 0, "lon": -77.068667}, {"fusion_lat": 0.0, "type": "electric_scooter", "name": "2bb2b50046b0a861a97a3150c91a91f7", "fusion_lon": 0.0, "bike_id": "2bb2b50046b0a861a97a3150c91a91f7", "is_reserved": 0, "rental_uris": {"android": "https://dc.lft.to/lastmile_qr_scan", "ios": "https://dc.lft.to/lastmile_qr_scan"}, "lat": 38.926161, "is_disabled": 0, "lon": -77.04325583333333}, {"fusion_lat": 0.0, "type": "electric_scooter", "name": "f08ff8d6fbaadeb97536cf1bc61b235c", "fusion_lon": 0.0, "bike_id": "f08ff8d6fbaadeb97536cf1bc61b235c", "is_reserved": 0, "rental_uris": {"android": "https://dc.lft.to/lastmile_qr_scan", "ios": "https://dc.lft.to/lastmile_qr_scan"}, "lat": 38.924753833333334, "is_disabled": 0, "lon": -77.02667133333334}, {"fusion_lat": 0.0, "type": "electric_scooter", "name": "c1bd913872b14e2ff8042e5599e81e43", "fusion_lon": 0.0, "bike_id": "c1bd913872b14e2ff8042e5599e81e43", "is_reserved": 0, "rental_uris": {"android": "https://dc.lft.to/lastmile_qr_scan", "ios": "https://dc.lft.to/lastmile_qr_scan"}, "lat": 38.8962995, "is_disabled": 0, "lon": -77.03204316666667}, {"fusion_lat": 0.0, "type": "electric_scooter", "name": "c49ed81c3556ec0f3138065bd164b1ab", "fusion_lon": 0.0, "bike_id": "c49ed81c3556ec0f3138065bd164b1ab", "is_reserved": 0, "rental_uris": {"android": "https://dc.lft.to/lastmile_qr_scan", "ios": "https://dc.lft.to/lastmile_qr_scan"}, "lat": 38.9245745, "is_disabled": 0, "lon": -77.02979616666667}, {"fusion_lat": 0.0, "type": "electric_scooter", "name": "fd1dc5562e9e9db8a035a05bf4374d7d", "fusion_lon": 0.0, "bike_id": "fd1dc5562e9e9db8a035a05bf4374d7d", "is_reserved": 0, "rental_uris": {"android": "https://dc.lft.to/lastmile_qr_scan", "ios": "https://dc.lft.to/lastmile_qr_scan"}, "lat": 38.95182366666667, "is_disabled": 0, "lon": -77.02613316666667}, {"fusion_lat": 0.0, "type": "electric_scooter", "name": "0a5670a653ba3ec7d523f995e1924b1b", "fusion_lon": 0.0, "bike_id": "0a5670a653ba3ec7d523f995e1924b1b", "is_reserved": 0, "rental_uris": {"android": "https://dc.lft.to/lastmile_qr_scan", "ios": "https://dc.lft.to/lastmile_qr_scan"}, "lat": 38.921633666666665, "is_disabled": 0, "lon": -77.0337995}, {"fusion_lat": 0.0, "type": "electric_scooter", "name": "0dd7904277ebb2c472b196b6a8d2abb3", "fusion_lon": 0.0, "bike_id": "0dd7904277ebb2c472b196b6a8d2abb3", "is_reserved": 0, "rental_uris": {"android": "https://dc.lft.to/lastmile_qr_scan", "ios": "https://dc.lft.to/lastmile_qr_scan"}, "lat": 38.8891395, "is_disabled": 0, "lon": -77.04909766666667}, {"fusion_lat": 0.0, "type": "electric_scooter", "name": "aff465fe8a76c86dbcdd9e6922e9ca61", "fusion_lon": 0.0, "bike_id": "aff465fe8a76c86dbcdd9e6922e9ca61", "is_reserved": 0, "rental_uris": {"android": "https://dc.lft.to/lastmile_qr_scan", "ios": "https://dc.lft.to/lastmile_qr_scan"}, "lat": 38.90961883333333, "is_disabled": 0, "lon": -77.034471}, {"fusion_lat": 0.0, "type": "electric_scooter", "name": "4000c4beb8f0586024a3d6f9134cb1ce", "fusion_lon": 0.0, "bike_id": "4000c4beb8f0586024a3d6f9134cb1ce", "is_reserved": 0, "rental_uris": {"android": "https://dc.lft.to/lastmile_qr_scan", "ios": "https://dc.lft.to/lastmile_qr_scan"}, "lat": 38.902982333333334, "is_disabled": 0, "lon": -77.05053316666667}, {"fusion_lat": 0.0, "type": "electric_bike", "name": "5e1d50073be26a183117994d36a39d31", "fusion_lon": 0.0, "bike_id": "5e1d50073be26a183117994d36a39d31", "is_reserved": 0, "rental_uris": {"android": "https://dc.lft.to/lastmile_qr_scan", "ios": "https://dc.lft.to/lastmile_qr_scan"}, "lat": 38.93221466666667, "is_disabled": 0, "lon": -77.18121733333334}, {"fusion_lat": 0.0, "type": "electric_scooter", "name": "05b6896af19d2b72fa31c6efc70718d7", "fusion_lon": 0.0, "bike_id": "05b6896af19d2b72fa31c6efc70718d7", "is_reserved": 0, "rental_uris": {"android": "https://dc.lft.to/lastmile_qr_scan", "ios": "https://dc.lft.to/lastmile_qr_scan"}, "lat": 38.91675816666667, "is_disabled": 0, "lon": -77.036931}, {"fusion_lat": 0.0, "type": "electric_scooter", "name": "aa941e272d8b356ac4fc2ea70e26f34c", "fusion_lon": 0.0, "bike_id": "aa941e272d8b356ac4fc2ea70e26f34c", "is_reserved": 0, "rental_uris": {"android": "https://dc.lft.to/lastmile_qr_scan", "ios": "https://dc.lft.to/lastmile_qr_scan"}, "lat": 38.91840333333333, "is_disabled": 0, "lon": -77.0595215}, {"fusion_lat": 0.0, "type": "electric_scooter", "name": "db0b758f4e7060d5d2f4b58c3206c940", "fusion_lon": 0.0, "bike_id": "db0b758f4e7060d5d2f4b58c3206c940", "is_reserved": 0, "rental_uris": {"android": "https://dc.lft.to/lastmile_qr_scan", "ios": "https://dc.lft.to/lastmile_qr_scan"}, "lat": 38.9136765, "is_disabled": 0, "lon": -77.031431}, {"fusion_lat": 0.0, "type": "electric_bike", "name": "0b41226b4177aba5d5b2e079cb775efc", "fusion_lon": 0.0, "bike_id": "0b41226b4177aba5d5b2e079cb775efc", "is_reserved": 0, "rental_uris": {"android": "https://dc.lft.to/lastmile_qr_scan", "ios": "https://dc.lft.to/lastmile_qr_scan"}, "lat": 38.953249, "is_disabled": 0, "lon": -76.95434483333334}, {"fusion_lat": 0.0, "type": "electric_scooter", "name": "29dd0219ac6e1117e250971a8a22ebe6", "fusion_lon": 0.0, "bike_id": "29dd0219ac6e1117e250971a8a22ebe6", "is_reserved": 0, "rental_uris": {"android": "https://dc.lft.to/lastmile_qr_scan", "ios": "https://dc.lft.to/lastmile_qr_scan"}, "lat": 38.89900816666667, "is_disabled": 0, "lon": -76.99384}, {"fusion_lat": 0.0, "type": "electric_scooter", "name": "856c67fe38ad7c8cea329276990abe2b", "fusion_lon": 0.0, "bike_id": "856c67fe38ad7c8cea329276990abe2b", "is_reserved": 0, "rental_uris": {"android": "https://dc.lft.to/lastmile_qr_scan", "ios": "https://dc.lft.to/lastmile_qr_scan"}, "lat": 38.897602, "is_disabled": 0, "lon": -77.02697266666667}, {"fusion_lat": 0.0, "type": "electric_scooter", "name": "8c4e4cf23ad5493f9302d17821209a6c", "fusion_lon": 0.0, "bike_id": "8c4e4cf23ad5493f9302d17821209a6c", "is_reserved": 0, "rental_uris": {"android": "https://dc.lft.to/lastmile_qr_scan", "ios": "https://dc.lft.to/lastmile_qr_scan"}, "lat": 38.88298966666667, "is_disabled": 0, "lon": -76.97865066666667}, {"fusion_lat": 0.0, "type": "electric_scooter", "name": "ae50d0f839f778bf543b8b75a0bdb088", "fusion_lon": 0.0, "bike_id": "ae50d0f839f778bf543b8b75a0bdb088", "is_reserved": 0, "rental_uris": {"android": "https://dc.lft.to/lastmile_qr_scan", "ios": "https://dc.lft.to/lastmile_qr_scan"}, "lat": 38.915499, "is_disabled": 0, "lon": -77.031255}, {"fusion_lat": 0.0, "type": "electric_scooter", "name": "ba14e792f2c22ee87b85f974406a6eb1", "fusion_lon": 0.0, "bike_id": "ba14e792f2c22ee87b85f974406a6eb1", "is_reserved": 0, "rental_uris": {"android": "https://dc.lft.to/lastmile_qr_scan", "ios": "https://dc.lft.to/lastmile_qr_scan"}, "lat": 38.89914133333333, "is_disabled": 0, "lon": -76.93375533333334}, {"fusion_lat": 0.0, "type": "electric_scooter", "name": "ddfe330887a4c642d7a3e8961f09b46f", "fusion_lon": 0.0, "bike_id": "ddfe330887a4c642d7a3e8961f09b46f", "is_reserved": 0, "rental_uris": {"android": "https://dc.lft.to/lastmile_qr_scan", "ios": "https://dc.lft.to/lastmile_qr_scan"}, "lat": 38.892498833333335, "is_disabled": 0, "lon": -77.04658466666666}, {"fusion_lat": 0.0, "type": "electric_bike", "name": "80188b1cb5796ed890b08a0a05309742", "fusion_lon": 0.0, "bike_id": "80188b1cb5796ed890b08a0a05309742", "is_reserved": 0, "rental_uris": {"android": "https://dc.lft.to/lastmile_qr_scan", "ios": "https://dc.lft.to/lastmile_qr_scan"}, "lat": 39.06293933333333, "is_disabled": 0, "lon": -77.0498065}, {"fusion_lat": 0.0, "type": "electric_scooter", "name": "dcc76424b9272783574387d0362cdf6b", "fusion_lon": 0.0, "bike_id": "dcc76424b9272783574387d0362cdf6b", "is_reserved": 0, "rental_uris": {"android": "https://dc.lft.to/lastmile_qr_scan", "ios": "https://dc.lft.to/lastmile_qr_scan"}, "lat": 38.91554716666667, "is_disabled": 0, "lon": -77.04178883333333}, {"fusion_lat": 0.0, "type": "electric_scooter", "name": "603babf6f8124f97800bac745c20c79b", "fusion_lon": 0.0, "bike_id": "603babf6f8124f97800bac745c20c79b", "is_reserved": 0, "rental_uris": {"android": "https://dc.lft.to/lastmile_qr_scan", "ios": "https://dc.lft.to/lastmile_qr_scan"}, "lat": 38.892244166666664, "is_disabled": 0, "lon": -77.02341466666667}, {"fusion_lat": 0.0, "type": "electric_scooter", "name": "0934abb45233c124a58e57063acc6b85", "fusion_lon": 0.0, "bike_id": "0934abb45233c124a58e57063acc6b85", "is_reserved": 0, "rental_uris": {"android": "https://dc.lft.to/lastmile_qr_scan", "ios": "https://dc.lft.to/lastmile_qr_scan"}, "lat": 38.92122533333333, "is_disabled": 0, "lon": -77.0365745}, {"fusion_lat": 0.0, "type": "electric_scooter", "name": "37977999e15e15dcb1e5b7216d7fc55d", "fusion_lon": 0.0, "bike_id": "37977999e15e15dcb1e5b7216d7fc55d", "is_reserved": 0, "rental_uris": {"android": "https://dc.lft.to/lastmile_qr_scan", "ios": "https://dc.lft.to/lastmile_qr_scan"}, "lat": 38.92093833333333, "is_disabled": 0, "lon": -77.031694}, {"fusion_lat": 0.0, "type": "electric_scooter", "name": "cfe1536ec30e2a4a420192d92b8132ac", "fusion_lon": 0.0, "bike_id": "cfe1536ec30e2a4a420192d92b8132ac", "is_reserved": 0, "rental_uris": {"android": "https://dc.lft.to/lastmile_qr_scan", "ios": "https://dc.lft.to/lastmile_qr_scan"}, "lat": 38.89913166666667, "is_disabled": 0, "lon": -76.93377716666667}, {"fusion_lat": 0.0, "type": "electric_scooter", "name": "aca52a902f5a8c54532d3605bf1aa5c7", "fusion_lon": 0.0, "bike_id": "aca52a902f5a8c54532d3605bf1aa5c7", "is_reserved": 0, "rental_uris": {"android": "https://dc.lft.to/lastmile_qr_scan", "ios": "https://dc.lft.to/lastmile_qr_scan"}, "lat": 38.93983016666667, "is_disabled": 0, "lon": -77.02982266666666},