{"data": {"bikes": [{"lon": -77.06346883333333, "is_reserved": 0, "is_disabled": 0, "type": "electric_scooter", "lat": 38.944518, "rental_uris": {"ios": "https://dc.lft.to/lastmile_qr_scan", "android": "https://dc.lft.to/lastmile_qr_scan"}, "fusion_lat": 0.0, "fusion_lon": 0.0, "bike_id": "dbc85a2b3a080c7e2b319061be2004f0", "name": "dbc85a2b3a080c7e2b319061be2004f0"}, {"lon": -77.02787883333333, "is_reserved": 0, "is_disabled": 0, "type": "electric_scooter", "lat": 38.96138916666666, "rental_uris": {"ios": "https://dc.lft.to/lastmile_qr_scan", "android": "https://dc.lft.to/lastmile_qr_scan"}, "fusion_lat": 0.0, "fusion_lon": 0.0, "bike_id": "c90aeb3eb2ab6596a6a220a7b7dc3c54", "name": "c90aeb3eb2ab6596a6a220a7b7dc3c54"}, {"lon": -77.0255365, "is_reserved": 0, "is_disabled": 0, "type": "electric_scooter", "lat": 38.897307, "rental_uris": {"ios": "https://dc.lft.to/lastmile_qr_scan", "android": "https://dc.lft.to/lastmile_qr_scan"}, "fusion_lat": 0.0, "fusion_lon": 0.0, "bike_id": "254855e832acc4ff6c94bacd3a57f51e", "name": "254855e832acc4ff6c94bacd3a57f51e"}, {"lon": -77.0200875, "is_reserved": 0, "is_disabled": 0, "type": "electric_scooter", "lat": 38.924186, "rental_uris": {"ios": "https://dc.lft.to/lastmile_qr_scan", "android": "https://dc.lft.to/lastmile_qr_scan"}, "fusion_lat": 0.0, "fusion_lon": 0.0, "bike_id": "11934a3b18e30246ceeef37b5ba7b8f6", "name": "11934a3b18e30246ceeef37b5ba7b8f6"}, {"lon": -77.00966016666666, "is_reserved": 0, "is_disabled": 0, "type": "electric_scooter", "lat": 38.881291, "rental_uris": {"ios": "https://dc.lft.to/lastmile_qr_scan", "android": "https://dc.lft.to/lastmile_qr_scan"}, "fusion_lat": 0.0, "fusion_lon": 0.0, "bike_id": "8af9925f90da2ba596cbea1edf52a850", "name": "8af9925f90da2ba596cbea1edf52a850"}, {"lon": -77.043936, "is_reserved": 0, "is_disabled": 0, "type": "electric_scooter", "lat": 38.9111755, "rental_uris": {"ios": "https://dc.lft.to/lastmile_qr_scan", "android": "https://dc.lft.to/lastmile_qr_scan"}, "fusion_lat": 0.0, "fusion_lon": 0.0, "bike_id": "97478d26369eb5ca300e02c9e17e3cde", "name": "97478d26369eb5ca300e02c9e17e3cde"}, {"lon": -77.0278345, "is_reserved": 0, "is_disabled": 0, "type": "electric_scooter", "lat": 38.89221283333333, "rental_uris": {"ios": "https://dc.lft.to/lastmile_qr_scan", "android": "https://dc.lft.to/lastmile_qr_scan"}, "fusion_lat": 0.0, "fusion_lon": 0.0, "bike_id": "414383353ccd0e605be6fa8adb008c50", "name": "414383353ccd0e605be6fa8adb008c50"}, {"lon": -77.044245, "is_reserved": 0, "is_disabled": 0, "type": "electric_scooter", "lat": 38.8743305, "rental_uris": {"ios": "https://dc.lft.to/lastmile_qr_scan", "android": "https://dc.lft.to/lastmile_qr_scan"}, "fusion_lat": 0.0, "fusion_lon": 0.0, "bike_id": "c760295e694b6cf5e5c42978b2ec1e5f", "name": "c760295e694b6cf5e5c42978b2ec1e5f"}, {"lon": -77.04655733333334, "is_reserved": 0, "is_disabled": 0, "type": "electric_scooter", "lat": 38.89302883333333, "rental_uris": {"ios": "https://dc.lft.to/lastmile_qr_scan", "android": "https://dc.lft.to/lastmile_qr_scan"}, "fusion_lat": 0.0, "fusion_lon": 0.0, "bike_id": "abd2d6eb7eea13e8e886d22cf3ca2226", "name": "abd2d6eb7eea13e8e886d22cf3ca2226"}, {"lon": -77.09163266666667, "is_reserved": 0, "is_disabled": 0, "type": "electric_bike", "lat": 38.96759866666667, "rental_uris": {"ios": "https://dc.lft.to/lastmile_qr_scan", "android": "https://dc.lft.to/lastmile_qr_scan"}, "fusion_lat": 0.0, "fusion_lon": 0.0, "bike_id": "0ec39330aaf6e3a7cb01810e1f36e5e3", "name": "0ec39330aaf6e3a7cb01810e1f36e5e3"}, {"lon": -77.073485, "is_reserved": 0, "is_disabled": 0, "type": "electric_bike", "lat": 38.91105116666667, "rental_uris": {"ios": "https://dc.lft.to/lastmile_qr_scan", "android": "https://dc.lft.to/lastmile_qr_scan"}, "fusion_lat": 0.0, "fusion_lon": 0.0, "bike_id": "50d1a963c9dcd3e299be7d2348d3af89", "name": "50d1a963c9dcd3e299be7d2348d3af89"}, {"lon": -76.99695383333334, "is_reserved": 0, "is_disabled": 0, "type": "electric_scooter", "lat": 38.83868533333333, "rental_uris": {"ios": "https://dc.lft.to/lastmile_qr_scan", "android": "https://dc.lft.to/lastmile_qr_scan"}, "fusion_lat": 0.0, "fusion_lon": 0.0, "bike_id": "badfde804d2efeae390b4c904ca4cf34", "name": "badfde804d2efeae390b4c904ca4cf34"}, {"lon": -77.03683116666667, "is_reserved": 0, "is_disabled": 0, "type": "electric_scooter", "lat": 38.9226035, "rental_uris": {"ios": "https://dc.lft.to/lastmile_qr_scan", "android": "https://dc.lft.to/lastmile_qr_scan"}, "fusion_lat": 0.0, "fusion_lon": 0.0, "bike_id": "496513ba5a05ccce6c373c69fca36c6b", "name": "496513ba5a05ccce6c373c69fca36c6b"}, {"lon": -77.03306283333333, "is_reserved": 0, "is_disabled": 0, "type": "electric_scooter", "lat": 38.9283425, "rental_uris": {"ios": "https://dc.lft.to/lastmile_qr_scan", "android": "https://dc.lft.to/lastmile_qr_scan"}, "fusion_lat": 0.0, "fusion_lon": 0.0, "bike_id": "f7b712c5dbd79fc8966b19e60ae3a8eb", "name": "f7b712c5dbd79fc8966b19e60ae3a8eb"}, {"lon": -77.00517383333333, "is_reserved": 0, "is_disabled": 0, "type": "electric_scooter", "lat": 38.874718, "rental_uris": {"ios": "https://dc.lft.to/lastmile_qr_scan", "android": "https://dc.lft.to/lastmile_qr_scan"}, "fusion_lat": 0.0, "fusion_lon": 0.0, "bike_id": "41ebaec68a9a95d05cd65baa584770a8", "name": "41ebaec68a9a95d05cd65baa584770a8"}, {"lon": -77.0058925, "is_reserved": 0, "is_disabled": 0, "type": "electric_scooter", "lat": 38.90562083333333, "rental_uris": {"ios": "https://dc.lft.to/lastmile_qr_scan", "android": "https://dc.lft.to/lastmile_qr_scan"}, "fusion_lat": 0.0, "fusion_lon": 0.0, "bike_id": "715f8e5acaa5e42f3c62f85cf472a41e", "name": "715f8e5acaa5e42f3c62f85cf472a41e"}, {"lon": -76.96699866666667, "is_reserved": 0, "is_disabled": 0, "type": "electric_scooter", "lat": 38.85893016666667, "rental_uris": {"ios": "https://dc.lft.to/lastmile_qr_scan", "android": "https://dc.lft.to/lastmile_qr_scan"}, "fusion_lat": 0.0, "fusion_lon": 0.0, "bike_id": "c6c0cae8a2a3b6b66e0c87b2f3b99d3c", "name": "c6c0cae8a2a3b6b66e0c87b2f3b99d3c"}, {"lon": -77.03731533333334, "is_reserved": 0, "is_disabled": 0, "type": "electric_scooter", "lat": 38.9182035, "rental_uris": {"ios": "https://dc.lft.to/lastmile_qr_scan", "android": "https://dc.lft.to/lastmile_qr_scan"}, "fusion_lat": 0.0, "fusion_lon": 0.0, "bike_id": "111831938d765eb1bc998f6bc585ed87", "name": "111831938d765eb1bc998f6bc585ed87"}, {"lon": -77.00384916666667, "is_reserved": 0, "is_disabled": 0, "type": "electric_scooter", "lat": 38.90607216666667, "rental_uris": {"ios": "https://dc.lft.to/lastmile_qr_scan", "android": "https://dc.lft.to/lastmile_qr_scan"}, "fusion_lat": 0.0, "fusion_lon": 0.0, "bike_id": "d7d33c27290d3c6adf02952442ddb019", "name": "d7d33c27290d3c6adf02952442ddb019"}, {"lon": -77.0347025, "is_reserved": 0, "is_disabled": 0, "type": "electric_scooter", "lat": 38.905018, "rental_uris": {"ios": "https://dc.lft.to/lastmile_qr_scan", "android": "https://dc.lft.to/lastmile_qr_scan"}, "fusion_lat": 0.0, "fusion_lon": 0.0, "bike_id": "c879ad0278085ded455b6e6506fd740a", "name": "c879ad0278085ded455b6e6506fd740a"}, {"lon": -76.9233995, "is_reserved": 0, "is_disabled": 0, "type": "electric_bike", "lat": 38.88790316666667, "rental_uris": {"ios": "https://dc.lft.to/lastmile_qr_scan", "android": "https://dc.lft.to/lastmile_qr_scan"}, "fusion_lat": 0.0, "fusion_lon": 0.0, "bike_id": "a98839778e034de573594c3307d7af4d", "name": "a98839778e034de573594c3307d7af4d"}, {"lon": -77.00213816666667, "is_reserved": 0, "is_disabled": 0, "type": "electric_scooter", "lat": 38.893871, "rental_uris": {"ios": "https://dc.lft.to/lastmile_qr_scan", "android": "https://dc.lft.to/lastmile_qr_scan"}, "fusion_lat": 0.0, "fusion_lon": 0.0, "bike_id": "df3d91d67c11b20aab7cafcec96ff589", "name": "df3d91d67c11b20aab7cafcec96ff589"}, {"lon": -77.01115433333334, "is_reserved": 0, "is_disabled": 0, "type": "electric_scooter", "lat": 38.89624533333333, "rental_uris": {"ios": "https://dc.lft.to/lastmile_qr_scan", "android": "https://dc.lft.to/lastmile_qr_scan"}, "fusion_lat": 0.0, "fusion_lon": 0.0, "bike_id": "80755bd25759f55ba9625d652f0b3333", "name": "80755bd25759f55ba9625d652f0b3333"}, {"lon": -77.02686433333334, "is_reserved": 0, "is_disabled": 0, "type": "electric_scooter", "lat": 38.912578, "rental_uris": {"ios": "https://dc.lft.to/lastmile_qr_scan", "android": "https://dc.lft.to/lastmile_qr_scan"}, "fusion_lat": 0.0, "fusion_lon": 0.0, "bike_id": "81691dde9d88bb3a341aaf86f99db0c6", "name": "81691dde9d88bb3a341aaf86f99db0c6"}, {"lon": -77.0270675, "is_reserved": 0, "is_disabled": 0, "type": "electric_scooter", "lat": 38.906675666666665, "rental_uris": {"ios": "https://dc.lft.to/lastmile_qr_scan", "android": "https://dc.lft.to/lastmile_qr_scan"}, "fusion_lat": 0.0, "fusion_lon": 0.0, "bike_id": "0145bf36d8c47bf0c6efdbacd209fcfc", "name": "0145bf36d8c47bf0c6efdbacd209fcfc"}, {"lon": -77.03265983333333, "is_reserved": 0, "is_disabled": 0, "type": "electric_scooter", "lat": 38.93521583333333, "rental_uris": {"ios": "https://dc.lft.to/lastmile_qr_scan", "android": "https://dc.lft.to/lastmile_qr_scan"}, "fusion_lat": 0.0, "fusion_lon": 0.0, "bike_id": "37ffb9702d5f44579931496aeaf906f7", "name": "37ffb9702d5f44579931496aeaf906f7"}, {"lon": -77.02451833333333, "is_reserved": 0, "is_disabled": 0, "type": "electric_scooter", "lat": 38.902415833333336, "rental_uris": {"ios": "https://dc.lft.to/lastmile_qr_scan", "android": "https://dc.lft.to/lastmile_qr_scan"}, "fusion_lat": 0.0, "fusion_lon": 0.0, "bike_id": "53a0b55cd8657610f910d49f753ad136", "name": "53a0b55cd8657610f910d49f753ad136"}, {"lon": -77.03227416666667, "is_reserved": 0, "is_disabled": 0, "type": "electric_scooter", "lat": 38.90529316666667, "rental_uris": {"ios": "https://dc.lft.to/lastmile_qr_scan", "android": "https://dc.lft.to/lastmile_qr_scan"}, "fusion_lat": 0.0, "fusion_lon": 0.0, "bike_id": "368b581ea618a3483fd08cbc6f2a0d24", "name": "368b581ea618a3483fd08cbc6f2a0d24"}, {"lon": -77.05278366666667, "is_reserved": 0, "is_disabled": 0, "type": "electric_scooter", "lat": 38.9225425, "rental_uris": {"ios": "https://dc.lft.to/lastmile_qr_scan", "android": "https://dc.lft.to/lastmile_qr_scan"}, "fusion_lat": 0.0, "fusion_lon": 0.0, "bike_id": "d81376124cce6e76ad655ec93b7fb5b7", "name": "d81376124cce6e76ad655ec93b7fb5b7"}, {"lon": -77.00600216666666, "is_reserved": 0, "is_disabled": 0, "type": "electric_bike", "lat": 38.8982375, "rental_uris": {"ios": "https://dc.lft.to/lastmile_qr_scan", "android": "https://dc.lft.to/lastmile_qr_scan"}, "fusion_lat": 0.0, "fusion_lon": 0.0, "bike_id": "ad2262ccc7f0827d53cdda22dfb2c768", "name": "ad2262ccc7f0827d53cdda22dfb2c768"}, {"lon": -76.98727766666667, "is_reserved": 0, "is_disabled": 0, "type": "electric_scooter", "lat": 38.86713866666667, "rental_uris": {"ios": "https://dc.lft.to/lastmile_qr_scan", "android": "https://dc.lft.to/lastmile_qr_scan"}, "fusion_lat": 0.0, "fusion_lon": 0.0, "bike_id": "85ba4d793503f2b64289e838979f4c80", "name": "85ba4d793503f2b64289e838979f4c80"}, {"lon": -77.04228016666667, "is_reserved": 0, "is_disabled": 0, "type": "electric_scooter", "lat": 38.909341166666664, "rental_uris": {"ios": "https://dc.lft.to/lastmile_qr_scan", "android": "https://dc.lft.to/lastmile_qr_scan"}, "fusion_lat": 0.0, "fusion_lon": 0.0, "bike_id": "8a0bf85f13f1055d019c02239f7c2688", "name": "8a0bf85f13f1055d019c02239f7c2688"}, {"lon": -77.02902183333333, "is_reserved": 0, "is_disabled": 0, "type": "electric_scooter", "lat": 38.95846683333333, "rental_uris": {"ios": "https://dc.lft.to/lastmile_qr_scan", "android": "https://dc.lft.to/lastmile_qr_scan"}, "fusion_lat": 0.0, "fusion_lon": 0.0, "bike_id": "9d46ce3151335fb5adad592d0f7b548f", "name": "9d46ce3151335fb5adad592d0f7b548f"}, {"lon": -77.001175, "is_reserved": 0, "is_disabled": 0, "type": "electric_scooter", "lat": 38.917113, "rental_uris": {"ios": "https://dc.lft.to/lastmile_qr_scan", "android": "https://dc.lft.to/lastmile_qr_scan"}, "fusion_lat": 0.0, "fusion_lon": 0.0, "bike_id": "ebe8a265afe473eb764eb5db400c4de0", "name": "ebe8a265afe473eb764eb5db400c4de0"}, {"lon": -77.03859666666666, "is_reserved": 0, "is_disabled": 0, "type": "electric_scooter", "lat": 38.9039615, "rental_uris": {"ios": "https://dc.lft.to/lastmile_qr_scan", "android": "https://dc.lft.to/lastmile_qr_scan"}, "fusion_lat": 0.0, "fusion_lon": 0.0, "bike_id": "03ad9e2d716886a7fcc9f6582c1e4232", "name": "03ad9e2d716886a7fcc9f6582c1e4232"}, {"lon": -77.02481683333333, "is_reserved": 0, "is_disabled": 0, "type": "electric_scooter", "lat": 38.880130333333334, "rental_uris": {"ios": "https://dc.lft.to/lastmile_qr_scan", "android": "https://dc.lft.to/lastmile_qr_scan"}, "fusion_lat": 0.0, "fusion_lon": 0.0, "bike_id": "462f4c3c1687e8f481da80f3a3dbfba0", "name": "462f4c3c1687e8f481da80f3a3dbfba0"}, {"lon": -77.0241925, "is_reserved": 0, "is_disabled": 0, "type": "electric_scooter", "lat": 38.8953715, "rental_uris": {"ios": "https://dc.lft.to/lastmile_qr_scan", "android": "https://dc.lft.to/lastmile_qr_scan"}, "fusion_lat": 0.0, "fusion_lon": 0.0, "bike_id": "7d51e690b1ec84a70348a1005ecfaeed", "name": "7d51e690b1ec84a70348a1005ecfaeed"}, {"lon": -77.023368, "is_reserved": 0, "is_disabled": 0, "type": "electric_scooter", "lat": 38.88468116666667, "rental_uris": {"ios": "https://dc.lft.to/lastmile_qr_scan", "android": "https://dc.lft.to/lastmile_qr_scan"}, "fusion_lat": 0.0, "fusion_lon": 0.0, "bike_id": "8754a697fecc8b4555e95c884f836302", "name": "8754a697fecc8b4555e95c884f836302"}, {"lon": -77.03385716666666, "is_reserved": 0, "is_disabled": 0, "type": "electric_scooter", "lat": 38.8865845, "rental_uris": {"ios": "https://dc.lft.to/lastmile_qr_scan", "android": "https://dc.lft.to/lastmile_qr_scan"}, "fusion_lat": 0.0, "fusion_lon": 0.0, "bike_id": "d93464cd5cb262bb28b3f4c01c7db3a3", "name": "d93464cd5cb262bb28b3f4c01c7db3a3"}, {"lon": -77.006023, "is_reserved": 0, "is_disabled": 0, "type": "electric_scooter", "lat": 38.903500666666666, "rental_uris": {"ios": "https://dc.lft.to/lastmile_qr_scan", "android": "https://dc.lft.to/lastmile_qr_scan"}, "fusion_lat": 0.0, "fusion_lon": 0.0, "bike_id": "24c0ec9865a7ed765c9c5b09a7ffde62", "name": "24c0ec9865a7ed765c9c5b09a7ffde62"}, {"lon": -76.94154733333333, "is_reserved": 0, "is_disabled": 0, "type": "electric_scooter", "lat": 38.88363283333333, "rental_uris": {"ios": "https://dc.lft.to/lastmile_qr_scan", "android": "https://dc.lft.to/lastmile_qr_scan"}, "fusion_lat": 0.0, "fusion_lon": 0.0, "bike_id": "a970825e032919aac463daecc849467e", "name": "a970825e032919aac463daecc849467e"}, {"lon": -77.02354433333333, "is_reserved": 0, "is_disabled": 0, "type": "electric_scooter", "lat": 38.93538083333333, "rental_uris": {"ios": "https://dc.lft.to/lastmile_qr_scan", "android": "https://dc.lft.to/lastmile_qr_scan"}, "fusion_lat": 0.0, "fusion_lon": 0.0, "bike_id": "d0aa3cb30354a9e26523e24974a1248c", "name": "d0aa3cb30354a9e26523e24974a1248c"}, {"lon": -77.02519516666666, "is_reserved": 0, "is_disabled": 0, "type": "electric_scooter", "lat": 38.920879666666664, "rental_uris": {"ios": "https://dc.lft.to/lastmile_qr_scan", "android": "https://dc.lft.to/lastmile_qr_scan"}, "fusion_lat": 0.0, "fusion_lon": 0.0, "bike_id": "5e8adcd366bc69e559ff66a3f59f549f", "name": "5e8adcd366bc69e559ff66a3f59f549f"}, {"lon": -76.99429916666666, "is_reserved": 0, "is_disabled": 0, "type": "electric_bike", "lat": 38.87671733333333, "rental_uris": {"ios": "https://dc.lft.to/lastmile_qr_scan", "android": "https://dc.lft.to/lastmile_qr_scan"}, "fusion_lat": 0.0, "fusion_lon": 0.0, "bike_id": "ee246a31cbcf1e69ec79a8e6e8c1741e", "name": "ee246a31cbcf1e69ec79a8e6e8c1741e"}, {"lon": -76.99085983333333, "is_reserved": 0, "is_disabled": 0, "type": "electric_scooter", "lat": 38.862364166666666, "rental_uris": {"ios": "https://dc.lft.to/lastmile_qr_scan", "android": "https://dc.lft.to/lastmile_qr_scan"}, "fusion_lat": 0.0, "fusion_lon": 0.0, "bike_id": "109fff29c535ac2aaaa6e2dbcb9f3387", "name": "109fff29c535ac2aaaa6e2dbcb9f3387"}, {"lon": -76.9873165, "is_reserved": 0, "is_disabled": 0, "type": "electric_scooter", "lat": 38.8671305, "rental_uris": {"ios": "https://dc.lft.to/lastmile_qr_scan", "android": "https://dc.lft.to/lastmile_qr_scan"}, "fusion_lat": 0.0, "fusion_lon": 0.0, "bike_id": "e95873a31a9ba40560fb5bc2a0d2cad8", "name": "e95873a31a9ba40560fb5bc2a0d2cad8"}, {"lon": -77.03002383333333, "is_reserved": 0, "is_disabled": 0, "type": "electric_scooter", "lat": 38.90258683333333, "rental_uris": {"ios": "https://dc.lft.to/lastmile_qr_scan", "android": "https://dc.lft.to/lastmile_qr_scan"}, "fusion_lat": 0.0, "fusion_lon": 0.0, "bike_id": "21751629b666d9ed26eeb92aade48086", "name": "21751629b666d9ed26eeb92aade48086"}, {"lon": -77.02981516666667, "is_reserved": 0, "is_disabled": 0, "type": "electric_scooter", "lat": 38.925408833333336, "rental_uris": {"ios": "https://dc.lft.to/lastmile_qr_scan", "android": "https://dc.lft.to/lastmile_qr_scan"}, "fusion_lat": 0.0, "fusion_lon": 0.0, "bike_id": "15a8800685634baa701c2870cf96f4bf", "name": "15a8800685634baa701c2870cf96f4bf"}, {"lon": -77.0365625, "is_reserved": 0, "is_disabled": 0, "type": "electric_scooter", "lat": 38.91277933333333, "rental_uris": {"ios": "https://dc.lft.to/lastmile_qr_scan", "android": "https://dc.lft.to/lastmile_qr_scan"}, "fusion_lat": 0.0, "fusion_lon": 0.0, "bike_id": "a704e729b8ab2e17e700d2b2e7b7093d", "name": "a704e729b8ab2e17e700d2b2e7b7093d"}, {"lon": -77.007381, "is_reserved": 0, "is_disabled": 0, "type": "electric_scooter", "lat": 38.89840216666666, "rental_uris": {"ios": "https://dc.lft.to/lastmile_qr_scan", "android": "https://dc.lft.to/lastmile_qr_scan"}, "fusion_lat": 0.0, "fusion_lon": 0.0, "bike_id": "f847d928c8c31338d8f16fee59204b07", "name": "f847d928c8c31338d8f16fee59204b07"}, {"lon": -76.9498735, "is_reserved": 0, "is_disabled": 0, "type": "electric_scooter", "lat": 38.894354166666666, "rental_uris": {"ios": "https://dc.lft.to/lastmile_qr_scan", "android": "https://dc.lft.to/lastmile_qr_scan"}, "fusion_lat": 0.0, "fusion_lon": 0.0, "bike_id": "39b989bcb1d862f67a9abfd52f38f869", "name": "39b989bcb1d862f67a9abfd52f38f869"}, {"lon": -76.98094816666666, "is_reserved": 0, "is_disabled": 0, "type": "electric_scooter", "lat": 38.85718683333333, "rental_uris": {"ios": "https://dc.lft.to/lastmile_qr_scan", "android": "https://dc.lft.to/lastmile_qr_scan"}, "fusion_lat": 0.0, "fusion_lon": 0.0, "bike_id": "480fdeb0a7c7fd0bef1fe71be4e357e3", "name": "480fdeb0a7c7fd0bef1fe71be4e357e3"}, {"lon": -77.02816916666667, "is_reserved": 0, "is_disabled": 0, "type": "electric_scooter", "lat": 38.914207, "rental_uris": {"ios": "https://dc.lft.to/lastmile_qr_scan", "android": "https://dc.lft.to/lastmile_qr_scan"}, "fusion_lat": 0.0, "fusion_lon": 0.0, "bike_id": "e2067415a4c68bc7fb472cb857fa13b3", "name": "e2067415a4c68bc7fb472cb857fa13b3"}, {"lon": -77.0248995, "is_reserved": 0, "is_disabled": 0, "type": "electric_scooter", "lat": 38.932849, "rental_uris": {"ios": "https://dc.lft.to/lastmile_qr_scan", "android": "https://dc.lft.to/lastmile_qr_scan"}, "fusion_lat": 0.0, "fusion_lon": 0.0, "bike_id": "4d53eebd49a8a397ea5a405667a7ae7e", "name": "4d53eebd49a8a397ea5a405667a7ae7e"}, {"lon": -77.041706, "is_reserved": 0, "is_disabled": 0, "type": "electric_scooter", "lat": 38.90929783333333, "rental_uris": {"ios": "https://dc.lft.to/lastmile_qr_scan", "android": "https://dc.lft.to/lastmile_qr_scan"}, "fusion_lat": 0.0, "fusion_lon": 0.0, "bike_id": "6cb8997f87605dd5048a5937089d1c93", "name": "6cb8997f87605dd5048a5937089d1c93"}, {"lon": -77.0340415, "is_reserved": 0, "is_disabled": 0, "type": "electric_scooter", "lat": 38.921577666666664, "rental_uris": {"ios": "https://dc.lft.to/lastmile_qr_scan", "android": "https://dc.lft.to/lastmile_qr_scan"}, "fusion_lat": 0.0, "fusion_lon": 0.0, "bike_id": "ee97bc8a6c167590e8f3da857279c917", "name": "ee97bc8a6c167590e8f3da857279c917"}, {"lon": -76.947707, "is_reserved": 0, "is_disabled": 0, "type": "electric_scooter", "lat": 38.896712, "rental_uris": {"ios": "https://dc.lft.to/lastmile_qr_scan", "android": "https://dc.lft.to/lastmile_qr_scan"}, "fusion_lat": 0.0, "fusion_lon": 0.0, "bike_id": "fc5a515da311c589ed89e20541596449", "name": "fc5a515da311c589ed89e20541596449"}, {"lon": -77.03642833333333, "is_reserved": 0, "is_disabled": 0, "type": "electric_scooter", "lat": 38.916184333333334, "rental_uris": {"ios": "https://dc.lft.to/lastmile_qr_scan", "android": "https://dc.lft.to/lastmile_qr_scan"}, "fusion_lat": 0.0, "fusion_lon": 0.0, "bike_id": "bc90c5e66b7e02331d8134bdb6f2c344", "name": "bc90c5e66b7e02331d8134bdb6f2c344"}, {"lon": -77.00298566666666, "is_reserved": 0, "is_disabled": 0, "type": "electric_scooter", "lat": 38.89226216666667, "rental_uris": {"ios": "https://dc.lft.to/lastmile_qr_scan", "android": "https://dc.lft.to/lastmile_qr_scan"}, "fusion_lat": 0.0, "fusion_lon": 0.0, "bike_id": "d62db65b261021e03348376b345d5686", "name": "d62db65b261021e03348376b345d5686"}, {"lon": -77.00214216666667, "is_reserved": 0, "is_disabled": 0, "type": "electric_scooter", "lat": 38.89497216666667, "rental_uris": {"ios": "https://dc.lft.to/lastmile_qr_scan", "android": "https://dc.lft.to/lastmile_qr_scan"}, "fusion_lat": 0.0, "fusion_lon": 0.0, "bike_id": "e0609c459b2be24afc77db7c88e6f6dc", "name": "e0609c459b2be24afc77db7c88e6f6dc"}, {"lon": -77.03201183333333, "is_reserved": 0, "is_disabled": 0, "type": "electric_scooter", "lat": 38.90787233333333, "rental_uris": {"ios": "https://dc.lft.to/lastmile_qr_scan", "android": "https://dc.lft.to/lastmile_qr_scan"}, "fusion_lat": 0.0, "fusion_lon": 0.0, "bike_id": "847f3528c8d181bb2b1b4f794f8bfe06", "name": "847f3528c8d181bb2b1b4f794f8bfe06"}, {"lon": -76.998163, "is_reserved": 0, "is_disabled": 0, "type": "electric_scooter", "lat": 38.9086485, "rental_uris": {"ios": "https://dc.lft.to/lastmile_qr_scan", "android": "https://dc.lft.to/lastmile_qr_scan"}, "fusion_lat": 0.0, "fusion_lon": 0.0, "bike_id": "e063e7b8c416e8060d8148f141af08ee", "name": "e063e7b8c416e8060d8148f141af08ee"}, {"lon": -77.036391, "is_reserved": 0, "is_disabled": 0, "type": "electric_scooter", "lat": 38.916165166666666, "rental_uris": {"ios": "https://dc.lft.to/lastmile_qr_scan", "android": "https://dc.lft.to/lastmile_qr_scan"}, "fusion_lat": 0.0, "fusion_lon": 0.0, "bike_id": "ea58c7d1e5f4cf97e12bfdd46bea47d5", "name": "ea58c7d1e5f4cf97e12bfdd46bea47d5"}, {"lon": -77.05302566666667, "is_reserved": 0, "is_disabled": 0, "type": "electric_scooter", "lat": 38.916964166666666, "rental_uris": {"ios": "https://dc.lft.to/lastmile_qr_scan", "android": "https://dc.lft.to/lastmile_qr_scan"}, "fusion_lat": 0.0, "fusion_lon": 0.0, "bike_id": "9013086adb471bae5a24950a119beadc", "name": "9013086adb471bae5a24950a119beadc"}, {"lon": -77.03426033333334, "is_reserved": 0, "is_disabled": 0, "type": "electric_scooter", "lat": 38.9045615, "rental_uris": {"ios": "https://dc.lft.to/lastmile_qr_scan", "android": "https://dc.lft.to/lastmile_qr_scan"}, "fusion_lat": 0.0, "fusion_lon": 0.0, "bike_id": "ffbd1f79d9b038d7558bf3418236dd31", "name": "ffbd1f79d9b038d7558bf3418236dd31"}, {"lon": -77.01795666666666, "is_reserved": 0, "is_disabled": 0, "type": "electric_bike", "lat": 38.989880666666664, "rental_uris": {"ios": "https://dc.lft.to/lastmile_qr_scan", "android": "https://dc.lft.to/lastmile_qr_scan"}, "fusion_lat": 0.0, "fusion_lon": 0.0, "bike_id": "3b61ede5941d0f8ca8f31983eb445a29", "name": "3b61ede5941d0f8ca8f31983eb445a29"}, {"lon": -77.00890283333334, "is_reserved": 0, "is_disabled": 0, "type": "electric_scooter", "lat": 38.873503, "rental_uris": {"ios": "https://dc.lft.to/lastmile_qr_scan", "android": "https://dc.lft.to/lastmile_qr_scan"}, "fusion_lat": 0.0, "fusion_lon": 0.0, "bike_id": "0fb4bb806b160f0b662c4721e9805ce6", "name": "0fb4bb806b160f0b662c4721e9805ce6"}, {"lon": -77.019975, "is_reserved": 0, "is_disabled": 0, "type": "electric_scooter", "lat": 38.91127983333333, "rental_uris": {"ios": "https://dc.lft.to/lastmile_qr_scan", "android": "https://dc.lft.to/lastmile_qr_scan"}, "fusion_lat": 0.0, "fusion_lon": 0.0, "bike_id": "b5bbf22ca007c1710f2f8c0663a46594", "name": "b5bbf22ca007c1710f2f8c0663a46594"}, {"lon": -77.038271, "is_reserved": 0, "is_disabled": 0, "type": "electric_scooter", "lat": 38.920713666666664, "rental_uris": {"ios": "https://dc.lft.to/lastmile_qr_scan", "android": "https://dc.lft.to/lastmile_qr_scan"}, "fusion_lat": 0.0, "fusion_lon": 0.0, "bike_id": "75ce2d133a4ab2ba8b5ddf07fd591c24", "name": "75ce2d133a4ab2ba8b5ddf07fd591c24"}, {"lon": -77.0122335, "is_reserved": 0, "is_disabled": 0, "type": "electric_scooter", "lat": 38.8934515, "rental_uris": {"ios": "https://dc.lft.to/lastmile_qr_scan", "android": "https://dc.lft.to/lastmile_qr_scan"}, "fusion_lat": 0.0, "fusion_lon": 0.0, "bike_id": "a2857c9eda4fdf3f19d41e16254a2a58", "name": "a2857c9eda4fdf3f19d41e16254a2a58"}, {"lon": -76.99737566666667, "is_reserved": 0, "is_disabled": 0, "type": "electric_scooter", "lat": 38.92041583333334, "rental_uris": {"ios": "https://dc.lft.to/lastmile_qr_scan", "android": "https://dc.lft.to/lastmile_qr_scan"}, "fusion_lat": 0.0, "fusion_lon": 0.0, "bike_id": "bf366998aca3b20048202c6e136ddfb4", "name": "bf366998aca3b20048202c6e136ddfb4"}, {"lon": -76.99485233333333, "is_reserved": 0, "is_disabled": 0, "type": "electric_scooter", "lat": 38.8999095, "rental_uris": {"ios": "https://dc.lft.to/lastmile_qr_scan", "android": "https://dc.lft.to/lastmile_qr_scan"}, "fusion_lat": 0.0, "fusion_lon": 0.0, "bike_id": "a59c312c8505be19b8f0110b5821da41", "name": "a59c312c8505be19b8f0110b5821da41"}, {"lon": -77.02698866666667, "is_reserved": 0, "is_disabled": 0, "type": "electric_scooter", "lat": 38.90851383333333, "rental_uris": {"ios": "https://dc.lft.to/lastmile_qr_scan", "android": "https://dc.lft.to/lastmile_qr_scan"}, "fusion_lat": 0.0, "fusion_lon": 0.0, "bike_id": "c8e037bcbd7a19aa10a2a39f78090db7", "name": "c8e037bcbd7a19aa10a2a39f78090db7"}, {"lon": -77.01218116666666, "is_reserved": 0, "is_disabled": 0, "type": "electric_scooter", "lat": 38.90032733333334, "rental_uris": {"ios": "https://dc.lft.to/lastmile_qr_scan", "android": "https://dc.lft.to/lastmile_qr_scan"}, "fusion_lat": 0.0, "fusion_lon": 0.0, "bike_id": "a7e6c896c84620db021f21eba8efd9c0", "name": "a7e6c896c84620db021f21eba8efd9c0"}, {"lon": -77.04079716666666, "is_reserved": 0, "is_disabled": 0, "type": "electric_scooter", "lat": 38.901560333333336, "rental_uris": {"ios": "https://dc.lft.to/lastmile_qr_scan", "android": "https://dc.lft.to/lastmile_qr_scan"}, "fusion_lat": 0.0, "fusion_lon": 0.0, "bike_id": "c9ba824d248ec3e47273d87df7344939", "name": "c9ba824d248ec3e47273d87df7344939"}, {"lon": -77.03638333333333, "is_reserved": 0, "is_disabled": 0, "type": "electric_scooter", "lat": 38.93169266666666, "rental_uris": {"ios": "https://dc.lft.to/lastmile_qr_scan", "android": "https://dc.lft.to/lastmile_qr_scan"}, "fusion_lat": 0.0, "fusion_lon": 0.0, "bike_id": "6105824d4fda5951f8ed372bfcc96a2b", "name": "6105824d4fda5951f8ed372bfcc96a2b"}, {"lon": -76.98884466666667, "is_reserved": 0, "is_disabled": 0, "type": "electric_scooter", "lat": 38.86672466666667, "rental_uris": {"ios": "https://dc.lft.to/lastmile_qr_scan", "android": "https://dc.lft.to/lastmile_qr_scan"}, "fusion_lat": 0.0, "fusion_lon": 0.0, "bike_id": "db23ffe628bf0b52a05d7077766aa0b0", "name": "db23ffe628bf0b52a05d7077766aa0b0"}, {"lon": -76.980196, "is_reserved": 0, "is_disabled": 0, "type": "electric_bike", "lat": 38.900945, "rental_uris": {"ios": "https://dc.lft.to/lastmile_qr_scan", "android": "https://dc.lft.to/lastmile_qr_scan"}, "fusion_lat": 0.0, "fusion_lon": 0.0, "bike_id": "8265b62a43e4a66a275b489fa1b1b459", "name": "8265b62a43e4a66a275b489fa1b1b459"}, {"lon": -76.94996883333333, "is_reserved": 0, "is_disabled": 0, "type": "electric_scooter", "lat": 38.893924166666665, "rental_uris": {"ios": "https://dc.lft.to/lastmile_qr_scan", "android": "https://dc.lft.to/lastmile_qr_scan"}, "fusion_lat": 0.0, "fusion_lon": 0.0, "bike_id": "819510645682385a7635db3da3587153", "name": "819510645682385a7635db3da3587153"}, {"lon": -77.06397083333333, "is_reserved": 0, "is_disabled": 0, "type": "electric_scooter", "lat": 38.944180333333335, "rental_uris": {"ios": "https://dc.lft.to/lastmile_qr_scan", "android": "https://dc.lft.to/lastmile_qr_scan"}, "fusion_lat": 0.0, "fusion_lon": 0.0, "bike_id": "c1e74f8b454204d4b6064128c996f252", "name": "c1e74f8b454204d4b6064128c996f252"}, {"lon": -76.960961, "is_reserved": 0, "is_disabled": 0, "type": "electric_bike", "lat": 38.91858533333333, "rental_uris": {"ios": "https://dc.lft.to/lastmile_qr_scan", "android": "https://dc.lft.to/lastmile_qr_scan"}, "fusion_lat": 0.0, "fusion_lon": 0.0, "bike_id": "4f5f7b351cf269bb4486e403ee25624c", "name": "4f5f7b351cf269bb4486e403ee25624c"}, {"lon": -77.01148116666667, "is_reserved": 0, "is_disabled": 0, "type": "electric_scooter", "lat": 38.895918333333334, "rental_uris": {"ios": "https://dc.lft.to/lastmile_qr_scan", "android": "https://dc.lft.to/lastmile_qr_scan"}, "fusion_lat": 0.0, "fusion_lon": 0.0, "bike_id": "2e4a0a500967661dc05e4945f734e034", "name": "2e4a0a500967661dc05e4945f734e034"}, {"lon": -77.03328916666666, "is_reserved": 0, "is_disabled": 0, "type": "electric_scooter", "lat": 38.902677, "rental_uris": {"ios": "https://dc.lft.to/lastmile_qr_scan", "android": "https://dc.lft.to/lastmile_qr_scan"}, "fusion_lat": 0.0, "fusion_lon": 0.0, "bike_id": "fd9e50794eed51286927782a3b908b3e", "name": "fd9e50794eed51286927782a3b908b3e"}, {"lon": -77.03283783333333, "is_reserved": 0, "is_disabled": 0, "type": "electric_bike", "lat": 38.937242166666664, "rental_uris": {"ios": "https://dc.lft.to/lastmile_qr_scan", "android": "https://dc.lft.to/lastmile_qr_scan"}, "fusion_lat": 0.0, "fusion_lon": 0.0, "bike_id": "c39a22e0d867cd10aea04ca50c5adb55", "name": "c39a22e0d867cd10aea04ca50c5adb55"}, {"lon": -77.06387866666667, "is_reserved": 0, "is_disabled": 0, "type": "electric_bike", "lat": 39.01735583333333, "rental_uris": {"ios": "https://dc.lft.to/lastmile_qr_scan", "android": "https://dc.lft.to/lastmile_qr_scan"}, "fusion_lat": 0.0, "fusion_lon": 0.0, "bike_id": "85c023737fab3a9d4f8e2feda3681342", "name": "85c023737fab3a9d4f8e2feda3681342"}, {"lon": -77.03462466666667, "is_reserved": 0, "is_disabled": 0, "type": "electric_scooter", "lat": 38.914263, "rental_uris": {"ios": "https://dc.lft.to/lastmile_qr_scan", "android": "https://dc.lft.to/lastmile_qr_scan"}, "fusion_lat": 0.0, "fusion_lon": 0.0, "bike_id": "c0c919f99d3430acdd381a0cbf9e0d5a", "name": "c0c919f99d3430acdd381a0cbf9e0d5a"}, {"lon": -77.05217083333334, "is_reserved": 0, "is_disabled": 0, "type": "electric_scooter", "lat": 38.89815633333333, "rental_uris": {"ios": "https://dc.lft.to/lastmile_qr_scan", "android": "https://dc.lft.to/lastmile_qr_scan"}, "fusion_lat": 0.0, "fusion_lon": 0.0, "bike_id": "0a3ef5ff885da7c07a5cd15bd31aedb1", "name": "0a3ef5ff885da7c07a5cd15bd31aedb1"}, {"lon": -77.0384115, "is_reserved": 0, "is_disabled": 0, "type": "electric_scooter", "lat": 38.917312833333334, "rental_uris": {"ios": "https://dc.lft.to/lastmile_qr_scan", "android": "https://dc.lft.to/lastmile_qr_scan"}, "fusion_lat": 0.0, "fusion_lon": 0.0, "bike_id": "40338f6e0596ab8bd919403f93d00390", "name": "40338f6e0596ab8bd919403f93d00390"}, {"lon": -77.18739766666667, "is_reserved": 0, "is_disabled": 0, "type": "electric_bike", "lat": 38.89350733333333, "rental_uris": {"ios": "https://dc.lft.to/lastmile_qr_scan", "android": "https://dc.lft.to/lastmile_qr_scan"}, "fusion_lat": 0.0, "fusion_lon": 0.0, "bike_id": "2070d230bd51c1f9e220052115ad2e7b", "name": "2070d230bd51c1f9e220052115ad2e7b"}, {"lon": -77.02778566666667, "is_reserved": 0, "is_disabled": 0, "type": "electric_scooter", "lat": 38.8921835, "rental_uris": {"ios": "https://dc.lft.to/lastmile_qr_scan", "android": "https://dc.lft.to/lastmile_qr_scan"}, "fusion_lat": 0.0, "fusion_lon": 0.0, "bike_id": "ac1bd4ccccab346aaa1a02183e209ac4", "name": "ac1bd4ccccab346aaa1a02183e209ac4"}, {"lon": -77.03456183333333, "is_reserved": 0, "is_disabled": 0, "type": "electric_scooter", "lat": 38.9180415, "rental_uris": {"ios": "https://dc.lft.to/lastmile_qr_scan", "android": "https://dc.lft.to/lastmile_qr_scan"}, "fusion_lat": 0.0, "fusion_lon": 0.0, "bike_id": "80df48de029c457c1e5141693b9f3167", "name": "80df48de029c457c1e5141693b9f3167"}, {"lon": -76.989298, "is_reserved": 0, "is_disabled": 0, "type": "electric_scooter", "lat": 38.86594433333333, "rental_uris": {"ios": "https://dc.lft.to/lastmile_qr_scan", "android": "https://dc.lft.to/lastmile_qr_scan"}, "fusion_lat": 0.0, "fusion_lon": 0.0, "bike_id": "96d66bbb78166549a130592a2506d8cd", "name": "96d66bbb78166549a130592a2506d8cd"}, {"lon": -77.03289333333333, "is_reserved": 0, "is_disabled": 0, "type": "electric_scooter", "lat": 38.930379333333335, "rental_uris": {"ios": "https://dc.lft.to/lastmile_qr_scan", "android": "https://dc.lft.to/lastmile_qr_scan"}, "fusion_lat": 0.0, "fusion_lon": 0.0, "bike_id": "c588abdd4dd6bd48bbba505ca5b65584", "name": "c588abdd4dd6bd48bbba505ca5b65584"}, {"lon": -76.9754845, "is_reserved": 0, "is_disabled": 0, "type": "electric_scooter", "lat": 38.90258583333333, "rental_uris": {"ios": "https://dc.lft.to/lastmile_qr_scan", "android": "https://dc.lft.to/lastmile_qr_scan"}, "fusion_lat": 0.0, "fusion_lon": 0.0, "bike_id": "960fda11f37dca5fea7325df6d748c58", "name": "960fda11f37dca5fea7325df6d748c58"}, {"lon": -77.03945083333333, "is_reserved": 0, "is_disabled": 0, "type": "electric_scooter", "lat": 38.9027775, "rental_uris": {"ios": "https://dc.lft.to/lastmile_qr_scan", "android": "https://dc.lft.to/lastmile_qr_scan"}, "fusion_lat": 0.0, "fusion_lon": 0.0, "bike_id": "73df3aef72aff10e4f0b9b6916f54d78", "name": "73df3aef72aff10e4f0b9b6916f54d78"}, {"lon": -77.00216066666667, "is_reserved": 0, "is_disabled": 0, "type": "electric_scooter", "lat": 38.905282666666665, "rental_uris": {"ios": "https://dc.lft.to/lastmile_qr_scan", "android": "https://dc.lft.to/lastmile_qr_scan"}, "fusion_lat": 0.0, "fusion_lon": 0.0, "bike_id": "525fdf1d3dd74930083dc17145e5e52d", "name": "525fdf1d3dd74930083dc17145e5e52d"}, {"lon": -77.039879, "is_reserved": 0, "is_disabled": 0, "type": "electric_bike", "lat": 38.80298283333333, "rental_uris": {"ios": "https://dc.lft.to/lastmile_qr_scan", "android": "https://dc.lft.to/lastmile_qr_scan"}, "fusion_lat": 0.0, "fusion_lon": 0.0, "bike_id": "d57ae9ce10ee21d14683b521756db886", "name": "d57ae9ce10ee21d14683b521756db886"}, {"lon": -77.01747166666667, "is_reserved": 0, "is_disabled": 0, "type": "electric_scooter", "lat": 38.876638166666666, "rental_uris": {"ios": "https://dc.lft.to/lastmile_qr_scan", "android": "https://dc.lft.to/lastmile_qr_scan"}, "fusion_lat": 0.0, "fusion_lon": 0.0, "bike_id": "f627f0c7076bec43ba27352329c23795", "name": "f627f0c7076bec43ba27352329c23795"}, {"lon": -76.988818, "is_reserved": 0, "is_disabled": 0, "type": "electric_scooter", "lat": 38.9021175, "rental_uris": {"ios": "https://dc.lft.to/lastmile_qr_scan", "android": "https://dc.lft.to/lastmile_qr_scan"}, "fusion_lat": 0.0, "fusion_lon": 0.0, "bike_id": "1e23a8e3eb5024b25e54da5777362d3d", "name": "1e23a8e3eb5024b25e54da5777362d3d"}, {"lon": -77.05253133333333, "is_reserved": 0, "is_disabled": 0, "type": "electric_scooter", "lat": 38.92572416666667, "rental_uris": {"ios": "https://dc.lft.to/lastmile_qr_scan", "android": "https://dc.lft.to/lastmile_qr_scan"}, "fusion_lat": 0.0, "fusion_lon": 0.0, "bike_id": "90b12017431221795821e7382fd69883", "name": "90b12017431221795821e7382fd69883"}, {"lon": -77.03459683333334, "is_reserved": 0, "is_disabled": 0, "type": "electric_scooter", "lat": 38.9100915, "rental_uris": {"ios": "https://dc.lft.to/lastmile_qr_scan", "android": "https://dc.lft.to/lastmile_qr_scan"}, "fusion_lat": 0.0, "fusion_lon": 0.0, "bike_id": "9430f36b37e51dc08057f21170006407", "name": "9430f36b37e51dc08057f21170006407"}, {"lon": -77.01564633333334, "is_reserved": 0, "is_disabled": 0, "type": "electric_scooter", "lat": 38.872596, "rental_uris": {"ios": "https://dc.lft.to/lastmile_qr_scan", "android": "https://dc.lft.to/lastmile_qr_scan"}, "fusion_lat": 0.0, "fusion_lon": 0.0, "bike_id": "7ec5c7cd9d1dcb12af2604ba603d3377", "name": "7ec5c7cd9d1dcb12af2604ba603d3377"}, {"lon": -76.994918, "is_reserved": 0, "is_disabled": 0, "type": "electric_scooter", "lat": 38.925833833333336, "rental_uris": {"ios": "https://dc.lft.to/lastmile_qr_scan", "android": "https://dc.lft.to/lastmile_qr_scan"}, "fusion_lat": 0.0, "fusion_lon": 0.0, "bike_id": "2d0c9a6ba40c746a3261932233b42fcd", "name": "2d0c9a6ba40c746a3261932233b42fcd"}, {"lon": -77.03909933333334, "is_reserved": 0, "is_disabled": 0, "type": "electric_scooter", "lat": 38.91272433333334, "rental_uris": {"ios": "https://dc.lft.to/lastmile_qr_scan", "android": "https://dc.lft.to/lastmile_qr_scan"}, "fusion_lat": 0.0, "fusion_lon": 0.0, "bike_id": "c88134daaee6899a9d1628f4a5982344", "name": "c88134daaee6899a9d1628f4a5982344"}, {"lon": -77.04362116666667, "is_reserved": 0, "is_disabled": 0, "type": "electric_scooter", "lat": 38.921083833333334, "rental_uris": {"ios": "https://dc.lft.to/lastmile_qr_scan", "android": "https://dc.lft.to/lastmile_qr_scan"}, "fusion_lat": 0.0, "fusion_lon": 0.0, "bike_id": "bc43bc15097ba7231560c77e62cca2cb", "name": "bc43bc15097ba7231560c77e62cca2cb"}, {"lon": -77.1273775, "is_reserved": 0, "is_disabled": 0, "type": "electric_bike", "lat": 38.89564016666667, "rental_uris": {"ios": "https://dc.lft.to/lastmile_qr_scan", "android": "https://dc.lft.to/lastmile_qr_scan"}, "fusion_lat": 0.0, "fusion_lon": 0.0, "bike_id": "f762d52ed456f09153d98aa6a3e74686", "name": "f762d52ed456f09153d98aa6a3e74686"}, {"lon": -77.03076766666666, "is_reserved": 0, "is_disabled": 0, "type": "electric_scooter", "lat": 38.90294, "rental_uris": {"ios": "https://dc.lft.to/lastmile_qr_scan", "android": "https://dc.lft.to/lastmile_qr_scan"}, "fusion_lat": 0.0, "fusion_lon": 0.0, "bike_id": "e1ae2f92439687e413e11aa4c4004c23", "name": "e1ae2f92439687e413e11aa4c4004c23"}, {"lon": -77.01589683333333, "is_reserved": 0, "is_disabled": 0, "type": "electric_scooter", "lat": 38.928440333333334, "rental_uris": {"ios": "https://dc.lft.to/lastmile_qr_scan", "android": "https://dc.lft.to/lastmile_qr_scan"}, "fusion_lat": 0.0, "fusion_lon": 0.0, "bike_id": "8ff328b21b35951604e179e1f426b399", "name": "8ff328b21b35951604e179e1f426b399"}, {"lon": -77.0177095, "is_reserved": 0, "is_disabled": 0, "type": "electric_scooter", "lat": 38.921017, "rental_uris": {"ios": "https://dc.lft.to/lastmile_qr_scan", "android": "https://dc.lft.to/lastmile_qr_scan"}, "fusion_lat": 0.0, "fusion_lon": 0.0, "bike_id": "5ac6a7295e71b0b337af63ea4bddf55e", "name": "5ac6a7295e71b0b337af63ea4bddf55e"}, {"lon": -77.02712683333333, "is_reserved": 0, "is_disabled": 0, "type": "electric_scooter", "lat": 38.9196415, "rental_uris": {"ios": "https://dc.lft.to/lastmile_qr_scan", "android": "https://dc.lft.to/lastmile_qr_scan"}, "fusion_lat": 0.0, "fusion_lon": 0.0, "bike_id": "6b480726e9e0b6f0e3648702d3c4aabd", "name": "6b480726e9e0b6f0e3648702d3c4aabd"}, {"lon": -76.9892645, "is_reserved": 0, "is_disabled": 0, "type": "electric_scooter", "lat": 38.882045, "rental_uris": {"ios": "https://dc.lft.to/lastmile_qr_scan", "android": "https://dc.lft.to/lastmile_qr_scan"}, "fusion_lat": 0.0, "fusion_lon": 0.0, "bike_id": "97bb7781bda9fa9671dfa8f86dc86a32", "name": "97bb7781bda9fa9671dfa8f86dc86a32"}, {"lon": -77.0248065, "is_reserved": 0, "is_disabled": 0, "type": "electric_scooter", "lat": 38.93879616666667, "rental_uris": {"ios": "https://dc.lft.to/lastmile_qr_scan", "android": "https://dc.lft.to/lastmile_qr_scan"}, "fusion_lat": 0.0, "fusion_lon": 0.0, "bike_id": "98c07db6dd01bd03dd312c2709bb43eb", "name": "98c07db6dd01bd03dd312c2709bb43eb"}, {"lon": -77.01059316666667, "is_reserved": 0, "is_disabled": 0, "type": "electric_scooter", "lat": 38.872418833333334, "rental_uris": {"ios": "https://dc.lft.to/lastmile_qr_scan", "android": "https://dc.lft.to/lastmile_qr_scan"}, "fusion_lat": 0.0, "fusion_lon": 0.0, "bike_id": "92dbe3283d4d0931b33424d04746c2d9", "name": "92dbe3283d4d0931b33424d04746c2d9"}, {"lon": -77.04484083333334, "is_reserved": 0, "is_disabled": 0, "type": "electric_scooter", "lat": 38.90546666666667, "rental_uris": {"ios": "https://dc.lft.to/lastmile_qr_scan", "android": "https://dc.lft.to/lastmile_qr_scan"}, "fusion_lat": 0.0, "fusion_lon": 0.0, "bike_id": "22330902f4dcb8a3760cc613854e1d24", "name": "22330902f4dcb8a3760cc613854e1d24"}, {"lon": -77.0498115, "is_reserved": 0, "is_disabled": 0, "type": "electric_scooter", "lat": 38.89602683333333, "rental_uris": {"ios": "https://dc.lft.to/lastmile_qr_scan", "android": "https://dc.lft.to/lastmile_qr_scan"}, "fusion_lat": 0.0, "fusion_lon": 0.0, "bike_id": "2f9b44950ccf2cb1e92d224ca9cb59e7", "name": "2f9b44950ccf2cb1e92d224ca9cb59e7"}, {"lon": -77.02022133333334, "is_reserved": 0, "is_disabled": 0, "type": "electric_scooter", "lat": 38.913035, "rental_uris": {"ios": "https://dc.lft.to/lastmile_qr_scan", "android": "https://dc.lft.to/lastmile_qr_scan"}, "fusion_lat": 0.0, "fusion_lon": 0.0, "bike_id": "4de93585bba4557484f5cd8474200231", "name": "4de93585bba4557484f5cd8474200231"}, {"lon": -77.0221835, "is_reserved": 0, "is_disabled": 0, "type": "electric_scooter", "lat": 38.9211195, "rental_uris": {"ios": "https://dc.lft.to/lastmile_qr_scan", "android": "https://dc.lft.to/lastmile_qr_scan"}, "fusion_lat": 0.0, "fusion_lon": 0.0, "bike_id": "67072a625b9fdd83b8a5ee38a628d95b", "name": "67072a625b9fdd83b8a5ee38a628d95b"}, {"lon": -77.029377, "is_reserved": 0, "is_disabled": 0, "type": "electric_scooter", "lat": 38.89542133333333, "rental_uris": {"ios": "https://dc.lft.to/lastmile_qr_scan", "android": "https://dc.lft.to/lastmile_qr_scan"}, "fusion_lat": 0.0, "fusion_lon": 0.0, "bike_id": "fae04763d9066d8b3d0a019038cb1484", "name": "fae04763d9066d8b3d0a019038cb1484"}, {"lon": -77.04179483333333, "is_reserved": 0, "is_disabled": 0, "type": "electric_scooter", "lat": 38.912659166666664, "rental_uris": {"ios": "https://dc.lft.to/lastmile_qr_scan", "android": "https://dc.lft.to/lastmile_qr_scan"}, "fusion_lat": 0.0, "fusion_lon": 0.0, "bike_id": "2219b5e6f2dc091ea56439a451eec3a6", "name": "2219b5e6f2dc091ea56439a451eec3a6"}, {"lon": -77.0238015, "is_reserved": 0, "is_disabled": 0, "type": "electric_scooter", "lat": 38.892353166666666, "rental_uris": {"ios": "https://dc.lft.to/lastmile_qr_scan", "android": "https://dc.lft.to/lastmile_qr_scan"}, "fusion_lat": 0.0, "fusion_lon": 0.0, "bike_id": "0431ef3c2c40d99c16b295bed1544ae7", "name": "0431ef3c2c40d99c16b295bed1544ae7"}, {"lon": -77.02783066666667, "is_reserved": 0, "is_disabled": 0, "type": "electric_scooter", "lat": 38.926858333333335, "rental_uris": {"ios": "https://dc.lft.to/lastmile_qr_scan", "android": "https://dc.lft.to/lastmile_qr_scan"}, "fusion_lat": 0.0, "fusion_lon": 0.0, "bike_id": "a314e50660912d12dc686deed5f68e5a", "name": "a314e50660912d12dc686deed5f68e5a"}, {"lon": -77.04196433333334, "is_reserved": 0, "is_disabled": 0, "type": "electric_scooter", "lat": 38.922971, "rental_uris": {"ios": "https://dc.lft.to/lastmile_qr_scan", "android": "https://dc.lft.to/lastmile_qr_scan"}, "fusion_lat": 0.0, "fusion_lon": 0.0, "bike_id": "251b09f4646575d78a5027731bc50446", "name": "251b09f4646575d78a5027731bc50446"}, {"lon": -77.05001783333333, "is_reserved": 0, "is_disabled": 0, "type": "electric_scooter", "lat": 38.9015315, "rental_uris": {"ios": "https://dc.lft.to/lastmile_qr_scan", "android": "https://dc.lft.to/lastmile_qr_scan"}, "fusion_lat": 0.0, "fusion_lon": 0.0, "bike_id": "20d4a14dd393f6d53a13b72da9bf8152", "name": "20d4a14dd393f6d53a13b72da9bf8152"}, {"lon": -77.0074675, "is_reserved": 0, "is_disabled": 0, "type": "electric_scooter", "lat": 38.8765735, "rental_uris": {"ios": "https://dc.lft.to/lastmile_qr_scan", "android": "https://dc.lft.to/lastmile_qr_scan"}, "fusion_lat": 0.0, "fusion_lon": 0.0, "bike_id": "a8f494be749a39ca89409f919b5cf22f", "name": "a8f494be749a39ca89409f919b5cf22f"}, {"lon": -77.01098683333333, "is_reserved": 0, "is_disabled": 0, "type": "electric_scooter", "lat": 38.903684166666665, "rental_uris": {"ios": "https://dc.lft.to/lastmile_qr_scan", "android": "https://dc.lft.to/lastmile_qr_scan"}, "fusion_lat": 0.0, "fusion_lon": 0.0, "bike_id": "4da218e6f29fa8a9496367ed3892cd8f", "name": "4da218e6f29fa8a9496367ed3892cd8f"}, {"lon": -77.00199233333333, "is_reserved": 0, "is_disabled": 0, "type": "electric_scooter", "lat": 38.893480333333336, "rental_uris": {"ios": "https://dc.lft.to/lastmile_qr_scan", "android": "https://dc.lft.to/lastmile_qr_scan"}, "fusion_lat": 0.0, "fusion_lon": 0.0, "bike_id": "e31bced800d424427203fb64be2f4b57", "name": "e31bced800d424427203fb64be2f4b57"}, {"lon": -77.0511615, "is_reserved": 0, "is_disabled": 0, "type": "electric_scooter", "lat": 38.91215316666667, "rental_uris": {"ios": "https://dc.lft.to/lastmile_qr_scan", "android": "https://dc.lft.to/lastmile_qr_scan"}, "fusion_lat": 0.0, "fusion_lon": 0.0, "bike_id": "d76e17fb618cd75a3e5c9fc0d687cc2c", "name": "d76e17fb618cd75a3e5c9fc0d687cc2c"}, {"lon": -76.94965633333334, "is_reserved": 0, "is_disabled": 0, "type": "electric_bike", "lat": 38.935035666666664, "rental_uris": {"ios": "https://dc.lft.to/lastmile_qr_scan", "android": "https://dc.lft.to/lastmile_qr_scan"}, "fusion_lat": 0.0, "fusion_lon": 0.0, "bike_id": "fb86e9828382f104c69ce7dd96bfb785", "name": "fb86e9828382f104c69ce7dd96bfb785"}, {"lon": -77.0275415, "is_reserved": 0, "is_disabled": 0, "type": "electric_scooter", "lat": 38.9541315, "rental_uris": {"ios": "https://dc.lft.to/lastmile_qr_scan", "android": "https://dc.lft.to/lastmile_qr_scan"}, "fusion_lat": 0.0, "fusion_lon": 0.0, "bike_id": "1e30204b32469a5bc5645983c80fbae5", "name": "1e30204b32469a5bc5645983c80fbae5"}, {"lon": -77.00695733333333, "is_reserved": 0, "is_disabled": 0, "type": "electric_scooter", "lat": 38.895973166666664, "rental_uris": {"ios": "https://dc.lft.to/lastmile_qr_scan", "android": "https://dc.lft.to/lastmile_qr_scan"}, "fusion_lat": 0.0, "fusion_lon": 0.0, "bike_id": "a32f4d5f4e1425de1eca948c41314cde", "name": "a32f4d5f4e1425de1eca948c41314cde"}, {"lon": -77.05140866666666, "is_reserved": 0, "is_disabled": 0, "type": "electric_scooter", "lat": 38.904494, "rental_uris": {"ios": "https://dc.lft.to/lastmile_qr_scan", "android": "https://dc.lft.to/lastmile_qr_scan"}, "fusion_lat": 0.0, "fusion_lon": 0.0, "bike_id": "9f1ca81329c0f3716437ccfb22a9b03b", "name": "9f1ca81329c0f3716437ccfb22a9b03b"}, {"lon": -77.0329665, "is_reserved": 0, "is_disabled": 0, "type": "electric_scooter", "lat": 38.89915766666667, "rental_uris": {"ios": "https://dc.lft.to/lastmile_qr_scan", "android": "https://dc.lft.to/lastmile_qr_scan"}, "fusion_lat": 0.0, "fusion_lon": 0.0, "bike_id": "819d4a0a4107413331c474202b7d45d9", "name": "819d4a0a4107413331c474202b7d45d9"}, {"lon": -77.06387916666667, "is_reserved": 0, "is_disabled": 0, "type": "electric_scooter", "lat": 38.9290785, "rental_uris": {"ios": "https://dc.lft.to/lastmile_qr_scan", "android": "https://dc.lft.to/lastmile_qr_scan"}, "fusion_lat": 0.0, "fusion_lon": 0.0, "bike_id": "7fa462746c07d3fab8bd38a9f94b3392", "name": "7fa462746c07d3fab8bd38a9f94b3392"}, {"lon": -77.060283, "is_reserved": 0, "is_disabled": 0, "type": "electric_scooter", "lat": 38.9394365, "rental_uris": {"ios": "https://dc.lft.to/lastmile_qr_scan", "android": "https://dc.lft.to/lastmile_qr_scan"}, "fusion_lat": 0.0, "fusion_lon": 0.0, "bike_id": "62c9c511885d72faa4936eea858ed427", "name": "62c9c511885d72faa4936eea858ed427"}, {"lon": -77.02273583333333, "is_reserved": 0, "is_disabled": 0, "type": "electric_scooter", "lat": 38.91619816666667, "rental_uris": {"ios": "https://dc.lft.to/lastmile_qr_scan", "android": "https://dc.lft.to/lastmile_qr_scan"}, "fusion_lat": 0.0, "fusion_lon": 0.0, "bike_id": "faac5302a6a472237bb7ff264f45d23a", "name": "faac5302a6a472237bb7ff264f45d23a"}, {"lon": -77.02708166666666, "is_reserved": 0, "is_disabled": 0, "type": "electric_scooter", "lat": 38.9175935, "rental_uris": {"ios": "https://dc.lft.to/lastmile_qr_scan", "android": "https://dc.lft.to/lastmile_qr_scan"}, "fusion_lat": 0.0, "fusion_lon": 0.0, "bike_id": "ba799dd6aa1a4ca48ff93d69d1bbecf8", "name": "ba799dd6aa1a4ca48ff93d69d1bbecf8"}, {"lon": -77.03658283333333, "is_reserved": 0, "is_disabled": 0, "type": "electric_scooter", "lat": 38.912858666666665, "rental_uris": {"ios": "https://dc.lft.to/lastmile_qr_scan", "android": "https://dc.lft.to/lastmile_qr_scan"}, "fusion_lat": 0.0, "fusion_lon": 0.0, "bike_id": "46f4071cde15d43d6cdf85e637a6b69e", "name": "46f4071cde15d43d6cdf85e637a6b69e"}, {"lon": -77.04236833333333, "is_reserved": 0, "is_disabled": 0, "type": "electric_scooter", "lat": 38.945552166666666, "rental_uris": {"ios": "https://dc.lft.to/lastmile_qr_scan", "android": "https://dc.lft.to/lastmile_qr_scan"}, "fusion_lat": 0.0, "fusion_lon": 0.0, "bike_id": "a4f45bd96e7cc8f01cb85362318101ff", "name": "a4f45bd96e7cc8f01cb85362318101ff"}, {"lon": -76.9412015, "is_reserved": 0, "is_disabled": 0, "type": "electric_scooter", "lat": 38.907923833333335, "rental_uris": {"ios": "https://dc.lft.to/lastmile_qr_scan", "android": "https://dc.lft.to/lastmile_qr_scan"}, "fusion_lat": 0.0, "fusion_lon": 0.0, "bike_id": "c3fc41d0f8b8bc2370b3e93be744ce41", "name": "c3fc41d0f8b8bc2370b3e93be744ce41"}, {"lon": -76.99209583333334, "is_reserved": 0, "is_disabled": 0, "type": "electric_scooter", "lat": 38.895201166666666, "rental_uris": {"ios": "https://dc.lft.to/lastmile_qr_scan", "android": "https://dc.lft.to/lastmile_qr_scan"}, "fusion_lat": 0.0, "fusion_lon": 0.0, "bike_id": "a98fbe9894558b40fa045f99ba68cb89", "name": "a98fbe9894558b40fa045f99ba68cb89"}, {"lon": -77.03173483333333, "is_reserved": 0, "is_disabled": 0, "type": "electric_scooter", "lat": 38.88662016666667, "rental_uris": {"ios": "https://dc.lft.to/lastmile_qr_scan", "android": "https://dc.lft.to/lastmile_qr_scan"}, "fusion_lat": 0.0, "fusion_lon": 0.0, "bike_id": "c66df1f66101b2a906cf35135013ab1e", "name": "c66df1f66101b2a906cf35135013ab1e"}, {"lon": -77.0215555, "is_reserved": 0, "is_disabled": 0, "type": "electric_scooter", "lat": 38.92602733333333, "rental_uris": {"ios": "https://dc.lft.to/lastmile_qr_scan", "android": "https://dc.lft.to/lastmile_qr_scan"}, "fusion_lat": 0.0, "fusion_lon": 0.0, "bike_id": "9d21071b04c5b87f8cdfbd37c82d6834", "name": "9d21071b04c5b87f8cdfbd37c82d6834"}, {"lon": -77.01559133333333, "is_reserved": 0, "is_disabled": 0, "type": "electric_scooter", "lat": 38.9137, "rental_uris": {"ios": "https://dc.lft.to/lastmile_qr_scan", "android": "https://dc.lft.to/lastmile_qr_scan"}, "fusion_lat": 0.0, "fusion_lon": 0.0, "bike_id": "bf43759b33cf210e3b7553460a1cce07", "name": "bf43759b33cf210e3b7553460a1cce07"}, {"lon": -77.022226, "is_reserved": 0, "is_disabled": 0, "type": "electric_scooter", "lat": 38.892208, "rental_uris": {"ios": "https://dc.lft.to/lastmile_qr_scan", "android": "https://dc.lft.to/lastmile_qr_scan"}, "fusion_lat": 0.0, "fusion_lon": 0.0, "bike_id": "0b99c889811691a3f323ff0d8f004674", "name": "0b99c889811691a3f323ff0d8f004674"}, {"lon": -77.03660533333333, "is_reserved": 0, "is_disabled": 0, "type": "electric_scooter", "lat": 38.917297, "rental_uris": {"ios": "https://dc.lft.to/lastmile_qr_scan", "android": "https://dc.lft.to/lastmile_qr_scan"}, "fusion_lat": 0.0, "fusion_lon": 0.0, "bike_id": "562105cb3dd2228f8841fdb4214c90c8", "name": "562105cb3dd2228f8841fdb4214c90c8"}, {"lon": -77.0418045, "is_reserved": 0, "is_disabled": 0, "type": "electric_scooter", "lat": 38.90729433333333, "rental_uris": {"ios": "https://dc.lft.to/lastmile_qr_scan", "android": "https://dc.lft.to/lastmile_qr_scan"}, "fusion_lat": 0.0, "fusion_lon": 0.0, "bike_id": "6294bbe06d85710da2fe3a2c83c56708", "name": "6294bbe06d85710da2fe3a2c83c56708"}, {"lon": -77.00772716666667, "is_reserved": 0, "is_disabled": 0, "type": "electric_scooter", "lat": 38.900577, "rental_uris": {"ios": "https://dc.lft.to/lastmile_qr_scan", "android": "https://dc.lft.to/lastmile_qr_scan"}, "fusion_lat": 0.0, "fusion_lon": 0.0, "bike_id": "f5644e15788f129a62205644307ebe4f", "name": "f5644e15788f129a62205644307ebe4f"}, {"lon": -77.026693, "is_reserved": 0, "is_disabled": 0, "type": "electric_bike", "lat": 38.954864666666666, "rental_uris": {"ios": "https://dc.lft.to/lastmile_qr_scan", "android": "https://dc.lft.to/lastmile_qr_scan"}, "fusion_lat": 0.0, "fusion_lon": 0.0, "bike_id": "8c534a4a2dd9ab748b61219a9a5bbf12", "name": "8c534a4a2dd9ab748b61219a9a5bbf12"}, {"lon": -77.04280633333333, "is_reserved": 0, "is_disabled": 0, "type": "electric_scooter", "lat": 38.914134833333335, "rental_uris": {"ios": "https://dc.lft.to/lastmile_qr_scan", "android": "https://dc.lft.to/lastmile_qr_scan"}, "fusion_lat": 0.0, "fusion_lon": 0.0, "bike_id": "c773eccc665d7614da942a3c6b7b7c7c", "name": "c773eccc665d7614da942a3c6b7b7c7c"}, {"lon": -77.00831183333334, "is_reserved": 0, "is_disabled": 0, "type": "electric_scooter", "lat": 38.9126025, "rental_uris": {"ios": "https://dc.lft.to/lastmile_qr_scan", "android": "https://dc.lft.to/lastmile_qr_scan"}, "fusion_lat": 0.0, "fusion_lon": 0.0, "bike_id": "2a1ab11a2fc14ab80e5d86c70a0710b7", "name": "2a1ab11a2fc14ab80e5d86c70a0710b7"}, {"lon": -77.02976666666666, "is_reserved": 0, "is_disabled": 0, "type": "electric_scooter", "lat": 38.927476666666664, "rental_uris": {"ios": "https://dc.lft.to/lastmile_qr_scan", "android": "https://dc.lft.to/lastmile_qr_scan"}, "fusion_lat": 0.0, "fusion_lon": 0.0, "bike_id": "ce4262af85a537ba5602e366afae23ae", "name": "ce4262af85a537ba5602e366afae23ae"}, {"lon": -76.88904166666667, "is_reserved": 0, "is_disabled": 0, "type": "electric_bike", "lat": 38.92590833333333, "rental_uris": {"ios": "https://dc.lft.to/lastmile_qr_scan", "android": "https://dc.lft.to/lastmile_qr_scan"}, "fusion_lat": 0.0, "fusion_lon": 0.0, "bike_id": "e1b222edbb3c41700b320e73c7560535", "name": "e1b222edbb3c41700b320e73c7560535"}, {"lon": -77.0384495, "is_reserved": 0, "is_disabled": 0, "type": "electric_scooter", "lat": 38.903513, "rental_uris": {"ios": "https://dc.lft.to/lastmile_qr_scan", "android": "https://dc.lft.to/lastmile_qr_scan"}, "fusion_lat": 0.0, "fusion_lon": 0.0, "bike_id": "a97c791205bd3321bb3cfe0ae8cba47d", "name": "a97c791205bd3321bb3cfe0ae8cba47d"}, {"lon": -77.00333933333333, "is_reserved": 0, "is_disabled": 0, "type": "electric_scooter", "lat": 38.893562333333335, "rental_uris": {"ios": "https://dc.lft.to/lastmile_qr_scan", "android": "https://dc.lft.to/lastmile_qr_scan"}, "fusion_lat": 0.0, "fusion_lon": 0.0, "bike_id": "6172552e3557ef82807834aa18649d96", "name": "6172552e3557ef82807834aa18649d96"}, {"lon": -77.03861883333333, "is_reserved": 0, "is_disabled": 0, "type": "electric_scooter", "lat": 38.9030925, "rental_uris": {"ios": "https://dc.lft.to/lastmile_qr_scan", "android": "https://dc.lft.to/lastmile_qr_scan"}, "fusion_lat": 0.0, "fusion_lon": 0.0, "bike_id": "a0be58b4056da2b200445534d29b1bea", "name": "a0be58b4056da2b200445534d29b1bea"}, {"lon": -76.95223916666667, "is_reserved": 0, "is_disabled": 0, "type": "electric_bike", "lat": 38.89236616666667, "rental_uris": {"ios": "https://dc.lft.to/lastmile_qr_scan", "android": "https://dc.lft.to/lastmile_qr_scan"}, "fusion_lat": 0.0, "fusion_lon": 0.0, "bike_id": "884c07fecf774b71e1fc003f42168ad2", "name": "884c07fecf774b71e1fc003f42168ad2"}, {"lon": -77.023178, "is_reserved": 0, "is_disabled": 0, "type": "electric_scooter", "lat": 38.927883666666666, "rental_uris": {"ios": "https://dc.lft.to/lastmile_qr_scan", "android": "https://dc.lft.to/lastmile_qr_scan"}, "fusion_lat": 0.0, "fusion_lon": 0.0, "bike_id": "6722ee596a77a5a7c2683a24c2c57549", "name": "6722ee596a77a5a7c2683a24c2c57549"}, {"lon": -77.0297685, "is_reserved": 0, "is_disabled": 0, "type": "electric_scooter", "lat": 38.924567, "rental_uris": {"ios": "https://dc.lft.to/lastmile_qr_scan", "android": "https://dc.lft.to/lastmile_qr_scan"}, "fusion_lat": 0.0, "fusion_lon": 0.0, "bike_id": "d8ea206c03b0da1f923e351198fa409e", "name": "d8ea206c03b0da1f923e351198fa409e"}, {"lon": -77.03740666666667, "is_reserved": 0, "is_disabled": 0, "type": "electric_scooter", "lat": 38.9022675, "rental_uris": {"ios": "https://dc.lft.to/lastmile_qr_scan", "android": "https://dc.lft.to/lastmile_qr_scan"}, "fusion_lat": 0.0, "fusion_lon": 0.0, "bike_id": "562ef24e7fe63baa4becc1eed55b18fb", "name": "562ef24e7fe63baa4becc1eed55b18fb"}, {"lon": -76.9476755, "is_reserved": 0, "is_disabled": 0, "type": "electric_bike", "lat": 38.89632016666667, "rental_uris": {"ios": "https://dc.lft.to/lastmile_qr_scan", "android": "https://dc.lft.to/lastmile_qr_scan"}, "fusion_lat": 0.0, "fusion_lon": 0.0, "bike_id": "87b2484a6a21001bfe1c8bec8a5fc6eb", "name": "87b2484a6a21001bfe1c8bec8a5fc6eb"}, {"lon": -77.03630233333334, "is_reserved": 0, "is_disabled": 0, "type": "electric_scooter", "lat": 38.902691833333336, "rental_uris": {"ios": "https://dc.lft.to/lastmile_qr_scan", "android": "https://dc.lft.to/lastmile_qr_scan"}, "fusion_lat": 0.0, "fusion_lon": 0.0, "bike_id": "4cade84ad6f05b0db6e4baca1ce8f382", "name": "4cade84ad6f05b0db6e4baca1ce8f382"}, {"lon": -77.04521166666666, "is_reserved": 0, "is_disabled": 0, "type": "electric_scooter", "lat": 38.90365116666667, "rental_uris": {"ios": "https://dc.lft.to/lastmile_qr_scan", "android": "https://dc.lft.to/lastmile_qr_scan"}, "fusion_lat": 0.0, "fusion_lon": 0.0, "bike_id": "ea09e6990ba6525a77befbba843876bd", "name": "ea09e6990ba6525a77befbba843876bd"}, {"lon": -76.99080066666667, "is_reserved": 0, "is_disabled": 0, "type": "electric_scooter", "lat": 38.84286916666667, "rental_uris": {"ios": "https://dc.lft.to/lastmile_qr_scan", "android": "https://dc.lft.to/lastmile_qr_scan"}, "fusion_lat": 0.0, "fusion_lon": 0.0, "bike_id": "81adc5e2d2350e7b799feb3d5d4902b5", "name": "81adc5e2d2350e7b799feb3d5d4902b5"}, {"lon": -77.02742466666666, "is_reserved": 0, "is_disabled": 0, "type": "electric_scooter", "lat": 38.924101, "rental_uris": {"ios": "https://dc.lft.to/lastmile_qr_scan", "android": "https://dc.lft.to/lastmile_qr_scan"}, "fusion_lat": 0.0, "fusion_lon": 0.0, "bike_id": "2d1a8df79113971b933eeb131311b25c", "name": "2d1a8df79113971b933eeb131311b25c"}, {"lon": -77.03335233333334, "is_reserved": 0, "is_disabled": 0, "type": "electric_scooter", "lat": 38.919198, "rental_uris": {"ios": "https://dc.lft.to/lastmile_qr_scan", "android": "https://dc.lft.to/lastmile_qr_scan"}, "fusion_lat": 0.0, "fusion_lon": 0.0, "bike_id": "9912b56deb792e1392405a5c8f603b6c", "name": "9912b56deb792e1392405a5c8f603b6c"}, {"lon": -76.9846445, "is_reserved": 0, "is_disabled": 0, "type": "electric_scooter", "lat": 38.893714833333334, "rental_uris": {"ios": "https://dc.lft.to/lastmile_qr_scan", "android": "https://dc.lft.to/lastmile_qr_scan"}, "fusion_lat": 0.0, "fusion_lon": 0.0, "bike_id": "73972332c4884a7e1e91ffd32716dadc", "name": "73972332c4884a7e1e91ffd32716dadc"}, {"lon": -77.004666, "is_reserved": 0, "is_disabled": 0, "type": "electric_scooter", "lat": 38.9119165, "rental_uris": {"ios": "https://dc.lft.to/lastmile_qr_scan", "android": "https://dc.lft.to/lastmile_qr_scan"}, "fusion_lat": 0.0, "fusion_lon": 0.0, "bike_id": "6eae603e435ca550a0cc4ff1283d2eeb", "name": "6eae603e435ca550a0cc4ff1283d2eeb"}, {"lon": -77.011312, "is_reserved": 0, "is_disabled": 0, "type": "electric_scooter", "lat": 38.870841166666665, "rental_uris": {"ios": "https://dc.lft.to/lastmile_qr_scan", "android": "https://dc.lft.to/lastmile_qr_scan"}, "fusion_lat": 0.0, "fusion_lon": 0.0, "bike_id": "ac9d1b5d4aa20d4f0335eaaea983fc27", "name": "ac9d1b5d4aa20d4f0335eaaea983fc27"}, {"lon": -77.01901116666667, "is_reserved": 0, "is_disabled": 0, "type": "electric_scooter", "lat": 38.9391715, "rental_uris": {"ios": "https://dc.lft.to/lastmile_qr_scan", "android": "https://dc.lft.to/lastmile_qr_scan"}, "fusion_lat": 0.0, "fusion_lon": 0.0, "bike_id": "14489572e34378a5c47ae0ede23d4a7a", "name": "14489572e34378a5c47ae0ede23d4a7a"}, {"lon": -77.02034616666667, "is_reserved": 0, "is_disabled": 0, "type": "electric_scooter", "lat": 38.892738, "rental_uris": {"ios": "https://dc.lft.to/lastmile_qr_scan", "android": "https://dc.lft.to/lastmile_qr_scan"}, "fusion_lat": 0.0, "fusion_lon": 0.0, "bike_id": "dceb203a9164e8d572dd96adc949695b", "name": "dceb203a9164e8d572dd96adc949695b"}, {"lon": -77.02392533333334, "is_reserved": 0, "is_disabled": 0, "type": "electric_scooter", "lat": 38.907493333333335, "rental_uris": {"ios": "https://dc.lft.to/lastmile_qr_scan", "android": "https://dc.lft.to/lastmile_qr_scan"}, "fusion_lat": 0.0, "fusion_lon": 0.0, "bike_id": "00cbbfd29fd60e9c5d7e7c2a259c9aef", "name": "00cbbfd29fd60e9c5d7e7c2a259c9aef"}, {"lon": -77.02944316666667, "is_reserved": 0, "is_disabled": 0, "type": "electric_scooter", "lat": 38.898274666666666, "rental_uris": {"ios": "https://dc.lft.to/lastmile_qr_scan", "android": "https://dc.lft.to/lastmile_qr_scan"}, "fusion_lat": 0.0, "fusion_lon": 0.0, "bike_id": "bcc8b67cc44355146e96051758eec368", "name": "bcc8b67cc44355146e96051758eec368"}, {"lon": -77.01996366666667, "is_reserved": 0, "is_disabled": 0, "type": "electric_scooter", "lat": 38.966282166666666, "rental_uris": {"ios": "https://dc.lft.to/lastmile_qr_scan", "android": "https://dc.lft.to/lastmile_qr_scan"}, "fusion_lat": 0.0, "fusion_lon": 0.0, "bike_id": "c0c8995cb1197dbffb19c4c8e2b13c42", "name": "c0c8995cb1197dbffb19c4c8e2b13c42"}, {"lon": -76.99165533333333, "is_reserved": 0, "is_disabled": 0, "type": "electric_scooter", "lat": 38.87342983333333, "rental_uris": {"ios": "https://dc.lft.to/lastmile_qr_scan", "android": "https://dc.lft.to/lastmile_qr_scan"}, "fusion_lat": 0.0, "fusion_lon": 0.0, "bike_id": "feed3476e5ebb91e39572024380b18c8", "name": "feed3476e5ebb91e39572024380b18c8"}, {"lon": -77.0107735, "is_reserved": 0, "is_disabled": 0, "type": "electric_bike", "lat": 38.96287066666667, "rental_uris": {"ios": "https://dc.lft.to/lastmile_qr_scan", "android": "https://dc.lft.to/lastmile_qr_scan"}, "fusion_lat": 0.0, "fusion_lon": 0.0, "bike_id": "8be0f89c11e879d8ebfaff0d2f0306e7", "name": "8be0f89c11e879d8ebfaff0d2f0306e7"}, {"lon": -77.03036816666666, "is_reserved": 0, "is_disabled": 0, "type": "electric_scooter", "lat": 38.89716966666667, "rental_uris": {"ios": "https://dc.lft.to/lastmile_qr_scan", "android": "https://dc.lft.to/lastmile_qr_scan"}, "fusion_lat": 0.0, "fusion_lon": 0.0, "bike_id": "74fc9b3cb770c326486fa7126457f01a", "name": "74fc9b3cb770c326486fa7126457f01a"}, {"lon": -77.03002283333333, "is_reserved": 0, "is_disabled": 0, "type": "electric_scooter", "lat": 38.902612500000004, "rental_uris": {"ios": "https://dc.lft.to/lastmile_qr_scan", "android": "https://dc.lft.to/lastmile_qr_scan"}, "fusion_lat": 0.0, "fusion_lon": 0.0, "bike_id": "458e81ce0358fb4779063a6d51aa4343", "name": "458e81ce0358fb4779063a6d51aa4343"}, {"lon": -77.0027325, "is_reserved": 0, "is_disabled": 0, "type": "electric_scooter", "lat": 38.907533, "rental_uris": {"ios": "https://dc.lft.to/lastmile_qr_scan", "android": "https://dc.lft.to/lastmile_qr_scan"}, "fusion_lat": 0.0, "fusion_lon": 0.0, "bike_id": "8ac03c3af5e45d792b5ad89976fe48ed", "name": "8ac03c3af5e45d792b5ad89976fe48ed"}, {"lon": -77.02883333333334, "is_reserved": 0, "is_disabled": 0, "type": "electric_scooter", "lat": 38.91412433333333, "rental_uris": {"ios": "https://dc.lft.to/lastmile_qr_scan", "android": "https://dc.lft.to/lastmile_qr_scan"}, "fusion_lat": 0.0, "fusion_lon": 0.0, "bike_id": "00d84fc6ad5384ceb83bb4ee0dc4c39b", "name": "00d84fc6ad5384ceb83bb4ee0dc4c39b"}, {"lon": -77.03640733333333, "is_reserved": 0, "is_disabled": 0, "type": "electric_scooter", "lat": 38.912251166666664, "rental_uris": {"ios": "https://dc.lft.to/lastmile_qr_scan", "android": "https://dc.lft.to/lastmile_qr_scan"}, "fusion_lat": 0.0, "fusion_lon": 0.0, "bike_id": "72586df353bb9467b64be64aa1ff2474", "name": "72586df353bb9467b64be64aa1ff2474"}, {"lon": -77.01463033333333, "is_reserved": 0, "is_disabled": 0, "type": "electric_scooter", "lat": 38.91041233333333, "rental_uris": {"ios": "https://dc.lft.to/lastmile_qr_scan", "android": "https://dc.lft.to/lastmile_qr_scan"}, "fusion_lat": 0.0, "fusion_lon": 0.0, "bike_id": "07915af62723fa597da1b41c34f17ec5", "name": "07915af62723fa597da1b41c34f17ec5"}, {"lon": -77.01929616666666, "is_reserved": 0, "is_disabled": 0, "type": "electric_scooter", "lat": 38.9025005, "rental_uris": {"ios": "https://dc.lft.to/lastmile_qr_scan", "android": "https://dc.lft.to/lastmile_qr_scan"}, "fusion_lat": 0.0, "fusion_lon": 0.0, "bike_id": "a1a7c42caf1f34f2eccc53379287e83e", "name": "a1a7c42caf1f34f2eccc53379287e83e"}, {"lon": -77.044178, "is_reserved": 0, "is_disabled": 0, "type": "electric_scooter", "lat": 38.91129633333333, "rental_uris": {"ios": "https://dc.lft.to/lastmile_qr_scan", "android": "https://dc.lft.to/lastmile_qr_scan"}, "fusion_lat": 0.0, "fusion_lon": 0.0, "bike_id": "bc7794cb9b10234e6f22d7dddd67509e", "name": "bc7794cb9b10234e6f22d7dddd67509e"}, {"lon": -77.02576766666667, "is_reserved": 0, "is_disabled": 0, "type": "electric_bike", "lat": 38.8960955, "rental_uris": {"ios": "https://dc.lft.to/lastmile_qr_scan", "android": "https://dc.lft.to/lastmile_qr_scan"}, "fusion_lat": 0.0, "fusion_lon": 0.0, "bike_id": "1bb403d2fbb462a2eb55c70ca5593973", "name": "1bb403d2fbb462a2eb55c70ca5593973"}, {"lon": -77.12978833333334, "is_reserved": 0, "is_disabled": 0, "type": "electric_bike", "lat": 38.79988733333333, "rental_uris": {"ios": "https://dc.lft.to/lastmile_qr_scan", "android": "https://dc.lft.to/lastmile_qr_scan"}, "fusion_lat": 0.0, "fusion_lon": 0.0, "bike_id": "363c7022c74a5ea8481217165d5d3f23", "name": "363c7022c74a5ea8481217165d5d3f23"}, {"lon": -76.96560516666666, "is_reserved": 0, "is_disabled": 0, "type": "electric_scooter", "lat": 38.91846533333333, "rental_uris": {"ios": "https://dc.lft.to/lastmile_qr_scan", "android": "https://dc.lft.to/lastmile_qr_scan"}, "fusion_lat": 0.0, "fusion_lon": 0.0, "bike_id": "4cf7500d50d36490211533856fdfaef4", "name": "4cf7500d50d36490211533856fdfaef4"}, {"lon": -76.94652533333333, "is_reserved": 0, "is_disabled": 0, "type": "electric_scooter", "lat": 38.898232666666665, "rental_uris": {"ios": "https://dc.lft.to/lastmile_qr_scan", "android": "https://dc.lft.to/lastmile_qr_scan"}, "fusion_lat": 0.0, "fusion_lon": 0.0, "bike_id": "984933c816012cd446e5449458b29704", "name": "984933c816012cd446e5449458b29704"}, {"lon": -76.98707216666666, "is_reserved": 0, "is_disabled": 0, "type": "electric_scooter", "lat": 38.86535933333333, "rental_uris": {"ios": "https://dc.lft.to/lastmile_qr_scan", "android": "https://dc.lft.to/lastmile_qr_scan"}, "fusion_lat": 0.0, "fusion_lon": 0.0, "bike_id": "4af87336c689052aa92d433083ee821e", "name": "4af87336c689052aa92d433083ee821e"}, {"lon": -77.02305866666667, "is_reserved": 0, "is_disabled": 0, "type": "electric_scooter", "lat": 38.90163716666667, "rental_uris": {"ios": "https://dc.lft.to/lastmile_qr_scan", "android": "https://dc.lft.to/lastmile_qr_scan"}, "fusion_lat": 0.0, "fusion_lon": 0.0, "bike_id": "0fff58d077ae5b968ddeb42c970905ba", "name": "0fff58d077ae5b968ddeb42c970905ba"}, {"lon": -77.06390083333334, "is_reserved": 0, "is_disabled": 0, "type": "electric_scooter", "lat": 38.929052666666664, "rental_uris": {"ios": "https://dc.lft.to/lastmile_qr_scan", "android": "https://dc.lft.to/lastmile_qr_scan"}, "fusion_lat": 0.0, "fusion_lon": 0.0, "bike_id": "4a05ebb6e749a3b1c93f60c902907634", "name": "4a05ebb6e749a3b1c93f60c902907634"}, {"lon": -76.95469616666666, "is_reserved": 0, "is_disabled": 0, "type": "electric_scooter", "lat": 38.888115, "rental_uris": {"ios": "https://dc.lft.to/lastmile_qr_scan", "android": "https://dc.lft.to/lastmile_qr_scan"}, "fusion_lat": 0.0, "fusion_lon": 0.0, "bike_id": "0ed656d50766583bcffecf2567c3bfd2", "name": "0ed656d50766583bcffecf2567c3bfd2"}, {"lon": -77.070455, "is_reserved": 0, "is_disabled": 0, "type": "electric_bike", "lat": 38.824472, "rental_uris": {"ios": "https://dc.lft.to/lastmile_qr_scan", "android": "https://dc.lft.to/lastmile_qr_scan"}, "fusion_lat": 0.0, "fusion_lon": 0.0, "bike_id": "98e9dcfc4ddbb4f821a659d4619f6a95", "name": "98e9dcfc4ddbb4f821a659d4619f6a95"}, {"lon": -77.0318335, "is_reserved": 0, "is_disabled": 0, "type": "electric_scooter", "lat": 38.896249166666664, "rental_uris": {"ios": "https://dc.lft.to/lastmile_qr_scan", "android": "https://dc.lft.to/lastmile_qr_scan"}, "fusion_lat": 0.0, "fusion_lon": 0.0, "bike_id": "048fcd1aaf102cda2e573ec52931fb90", "name": "048fcd1aaf102cda2e573ec52931fb90"}, {"lon": -77.036569, "is_reserved": 0, "is_disabled": 0, "type": "electric_bike", "lat": 38.9502265, "rental_uris": {"ios": "https://dc.lft.to/lastmile_qr_scan", "android": "https://dc.lft.to/lastmile_qr_scan"}, "fusion_lat": 0.0, "fusion_lon": 0.0, "bike_id": "b7b2be34e93958d4150502597abcb3af", "name": "b7b2be34e93958d4150502597abcb3af"}, {"lon": -76.99446916666666, "is_reserved": 0, "is_disabled": 0, "type": "electric_scooter", "lat": 38.9050685, "rental_uris": {"ios": "https://dc.lft.to/lastmile_qr_scan", "android": "https://dc.lft.to/lastmile_qr_scan"}, "fusion_lat": 0.0, "fusion_lon": 0.0, "bike_id": "70e011d158c527487a322808a7c0c7d2", "name": "70e011d158c527487a322808a7c0c7d2"}, {"lon": -76.900823, "is_reserved": 0, "is_disabled": 0, "type": "electric_bike", "lat": 38.88747716666666, "rental_uris": {"ios": "https://dc.lft.to/lastmile_qr_scan", "android": "https://dc.lft.to/lastmile_qr_scan"}, "fusion_lat": 0.0, "fusion_lon": 0.0, "bike_id": "6bb5518ef35a54d15bf117d039194dc2", "name": "6bb5518ef35a54d15bf117d039194dc2"}, {"lon": -77.03824366666667, "is_reserved": 0, "is_disabled": 0, "type": "electric_scooter", "lat": 38.9067625, "rental_uris": {"ios": "https://dc.lft.to/lastmile_qr_scan", "android": "https://dc.lft.to/lastmile_qr_scan"}, "fusion_lat": 0.0, "fusion_lon": 0.0, "bike_id": "b73a43977925362314e3af77b3cc4b7c", "name": "b73a43977925362314e3af77b3cc4b7c"}, {"lon": -77.00130916666667, "is_reserved": 0, "is_disabled": 0, "type": "electric_scooter", "lat": 38.89487233333333, "rental_uris": {"ios": "https://dc.lft.to/lastmile_qr_scan", "android": "https://dc.lft.to/lastmile_qr_scan"}, "fusion_lat": 0.0, "fusion_lon": 0.0, "bike_id": "a46f709592c3f603e4558391c05816ad", "name": "a46f709592c3f603e4558391c05816ad"}, {"lon": -77.12808966666667, "is_reserved": 0, "is_disabled": 0, "type": "electric_bike", "lat": 38.865295, "rental_uris": {"ios": "https://dc.lft.to/lastmile_qr_scan", "android": "https://dc.lft.to/lastmile_qr_scan"}, "fusion_lat": 0.0, "fusion_lon": 0.0, "bike_id": "1acd336c0a4486b60529410d3418c5e0", "name": "1acd336c0a4486b60529410d3418c5e0"}, {"lon": -77.04231883333334, "is_reserved": 0, "is_disabled": 0, "type": "electric_scooter", "lat": 38.92165716666667, "rental_uris": {"ios": "https://dc.lft.to/lastmile_qr_scan", "android": "https://dc.lft.to/lastmile_qr_scan"}, "fusion_lat": 0.0, "fusion_lon": 0.0, "bike_id": "0af039000e1f3d03f118f2244017a831", "name": "0af039000e1f3d03f118f2244017a831"}, {"lon": -77.07295, "is_reserved": 0, "is_disabled": 0, "type": "electric_bike", "lat": 38.92467166666667, "rental_uris": {"ios": "https://dc.lft.to/lastmile_qr_scan", "android": "https://dc.lft.to/lastmile_qr_scan"}, "fusion_lat": 0.0, "fusion_lon": 0.0, "bike_id": "222619cd27768b56cf2f28211e54469b", "name": "222619cd27768b56cf2f28211e54469b"}, {"lon": -77.032841, "is_reserved": 0, "is_disabled": 0, "type": "electric_scooter", "lat": 38.94660483333333, "rental_uris": {"ios": "https://dc.lft.to/lastmile_qr_scan", "android": "https://dc.lft.to/lastmile_qr_scan"}, "fusion_lat": 0.0, "fusion_lon": 0.0, "bike_id": "d3b792d5076a6efb378283f6811dac4c", "name": "d3b792d5076a6efb378283f6811dac4c"}, {"lon": -77.0725295, "is_reserved": 0, "is_disabled": 0, "type": "electric_scooter", "lat": 38.9077915, "rental_uris": {"ios": "https://dc.lft.to/lastmile_qr_scan", "android": "https://dc.lft.to/lastmile_qr_scan"}, "fusion_lat": 0.0, "fusion_lon": 0.0, "bike_id": "364d4f5b8c1e53ea58f91fd366698053", "name": "364d4f5b8c1e53ea58f91fd366698053"}, {"lon": -77.04481333333334, "is_reserved": 0, "is_disabled": 0, "type": "electric_scooter", "lat": 38.912695166666666, "rental_uris": {"ios": "https://dc.lft.to/lastmile_qr_scan", "android": "https://dc.lft.to/lastmile_qr_scan"}, "fusion_lat": 0.0, "fusion_lon": 0.0, "bike_id": "a975e4ab616d8d2c99cfcacfdebc6f9a", "name": "a975e4ab616d8d2c99cfcacfdebc6f9a"}, {"lon": -77.1779875, "is_reserved": 0, "is_disabled": 0, "type": "electric_bike", "lat": 39.0884405, "rental_uris": {"ios": "https://dc.lft.to/lastmile_qr_scan", "android": "https://dc.lft.to/lastmile_qr_scan"}, "fusion_lat": 0.0, "fusion_lon": 0.0, "bike_id": "8be01cc1fa8d3651f9313d8a9d7e068d", "name": "8be01cc1fa8d3651f9313d8a9d7e068d"}, {"lon": -77.04872966666667, "is_reserved": 0, "is_disabled": 0, "type": "electric_scooter", "lat": 38.8923345, "rental_uris": {"ios": "https://dc.lft.to/lastmile_qr_scan", "android": "https://dc.lft.to/lastmile_qr_scan"}, "fusion_lat": 0.0, "fusion_lon": 0.0, "bike_id": "078a88be1661945f3455851313781814", "name": "078a88be1661945f3455851313781814"}, {"lon": -77.04350983333333, "is_reserved": 0, "is_disabled": 0, "type": "electric_scooter", "lat": 38.90484166666667, "rental_uris": {"ios": "https://dc.lft.to/lastmile_qr_scan", "android": "https://dc.lft.to/lastmile_qr_scan"}, "fusion_lat": 0.0, "fusion_lon": 0.0, "bike_id": "20f2ba4fd0886b73a392b4679cc7e84e", "name": "20f2ba4fd0886b73a392b4679cc7e84e"}, {"lon": -76.99486033333334, "is_reserved": 0, "is_disabled": 0, "type": "electric_scooter", "lat": 38.84216283333333, "rental_uris": {"ios": "https://dc.lft.to/lastmile_qr_scan", "android": "https://dc.lft.to/lastmile_qr_scan"}, "fusion_lat": 0.0, "fusion_lon": 0.0, "bike_id": "2a0b50cfd577dd87ac02103daaffba42", "name": "2a0b50cfd577dd87ac02103daaffba42"}, {"lon": -77.00050083333333, "is_reserved": 0, "is_disabled": 0, "type": "electric_scooter", "lat": 38.876598666666666, "rental_uris": {"ios": "https://dc.lft.to/lastmile_qr_scan", "android": "https://dc.lft.to/lastmile_qr_scan"}, "fusion_lat": 0.0, "fusion_lon": 0.0, "bike_id": "55b1ada7ab5fcd772fec66d94de9a0fa", "name": "55b1ada7ab5fcd772fec66d94de9a0fa"}, {"lon": -77.06535166666667, "is_reserved": 0, "is_disabled": 0, "type": "electric_scooter", "lat": 38.950714833333336, "rental_uris": {"ios": "https://dc.lft.to/lastmile_qr_scan", "android": "https://dc.lft.to/lastmile_qr_scan"}, "fusion_lat": 0.0, "fusion_lon": 0.0, "bike_id": "464f198585167f24a7884c22074231af", "name": "464f198585167f24a7884c22074231af"}, {"lon": -77.02036183333334, "is_reserved": 0, "is_disabled": 0, "type": "electric_scooter", "lat": 38.89273416666666, "rental_uris": {"ios": "https://dc.lft.to/lastmile_qr_scan", "android": "https://dc.lft.to/lastmile_qr_scan"}, "fusion_lat": 0.0, "fusion_lon": 0.0, "bike_id": "1c9fc31cb2f00542c2e256efa6f8fc8f", "name": "1c9fc31cb2f00542c2e256efa6f8fc8f"}, {"lon": -76.98885883333334, "is_reserved": 0, "is_disabled": 0, "type": "electric_scooter", "lat": 38.8667715, "rental_uris": {"ios": "https://dc.lft.to/lastmile_qr_scan", "android": "https://dc.lft.to/lastmile_qr_scan"}, "fusion_lat": 0.0, "fusion_lon": 0.0, "bike_id": "28cc1dcc5b0ce6f170f8e1fa62811187", "name": "28cc1dcc5b0ce6f170f8e1fa62811187"}, {"lon": -77.020477, "is_reserved": 0, "is_disabled": 0, "type": "electric_scooter", "lat": 38.9155915, "rental_uris": {"ios": "https://dc.lft.to/lastmile_qr_scan", "android": "https://dc.lft.to/lastmile_qr_scan"}, "fusion_lat": 0.0, "fusion_lon": 0.0, "bike_id": "f58a9430c506e6176ff895e412708336", "name": "f58a9430c506e6176ff895e412708336"}, {"lon": -77.02597516666667, "is_reserved": 0, "is_disabled": 0, "type": "electric_scooter", "lat": 38.916932833333334, "rental_uris": {"ios": "https://dc.lft.to/lastmile_qr_scan", "android": "https://dc.lft.to/lastmile_qr_scan"}, "fusion_lat": 0.0, "fusion_lon": 0.0, "bike_id": "82fd84db3448a451ea74633a765bec8e", "name": "82fd84db3448a451ea74633a765bec8e"}, {"lon": -76.995033, "is_reserved": 0, "is_disabled": 0, "type": "electric_scooter", "lat": 38.88584516666667, "rental_uris": {"ios": "https://dc.lft.to/lastmile_qr_scan", "android": "https://dc.lft.to/lastmile_qr_scan"}, "fusion_lat": 0.0, "fusion_lon": 0.0, "bike_id": "417e60af5e117a5a49fdee9340eb0b5c", "name": "417e60af5e117a5a49fdee9340eb0b5c"}, {"lon": -76.99509766666667, "is_reserved": 0, "is_disabled": 0, "type": "electric_bike", "lat": 38.93382483333333, "rental_uris": {"ios": "https://dc.lft.to/lastmile_qr_scan", "android": "https://dc.lft.to/lastmile_qr_scan"}, "fusion_lat": 0.0, "fusion_lon": 0.0, "bike_id": "bd77f021b13b1b2b8496888153cb06e1", "name": "bd77f021b13b1b2b8496888153cb06e1"}, {"lon": -77.0021115, "is_reserved": 0, "is_disabled": 0, "type": "electric_scooter", "lat": 38.90007033333333, "rental_uris": {"ios": "https://dc.lft.to/lastmile_qr_scan", "android": "https://dc.lft.to/lastmile_qr_scan"}, "fusion_lat": 0.0, "fusion_lon": 0.0, "bike_id": "7fb5cfefa54cdb4c07510dce391ef67f", "name": "7fb5cfefa54cdb4c07510dce391ef67f"}, {"lon": -77.0244495, "is_reserved": 0, "is_disabled": 0, "type": "electric_scooter", "lat": 38.927958833333335, "rental_uris": {"ios": "https://dc.lft.to/lastmile_qr_scan", "android": "https://dc.lft.to/lastmile_qr_scan"}, "fusion_lat": 0.0, "fusion_lon": 0.0, "bike_id": "dbbc659e45ffb29068d549e374d6178d", "name": "dbbc659e45ffb29068d549e374d6178d"}, {"lon": -77.02660783333333, "is_reserved": 0, "is_disabled": 0, "type": "electric_scooter", "lat": 38.979376, "rental_uris": {"ios": "https://dc.lft.to/lastmile_qr_scan", "android": "https://dc.lft.to/lastmile_qr_scan"}, "fusion_lat": 0.0, "fusion_lon": 0.0, "bike_id": "b533cbeb38d822ea7582a2fba89de30e", "name": "b533cbeb38d822ea7582a2fba89de30e"}, {"lon": -76.98830483333333, "is_reserved": 0, "is_disabled": 0, "type": "electric_bike", "lat": 38.985624, "rental_uris": {"ios": "https://dc.lft.to/lastmile_qr_scan", "android": "https://dc.lft.to/lastmile_qr_scan"}, "fusion_lat": 0.0, "fusion_lon": 0.0, "bike_id": "7879a7975d93183234b6f0bbe30251c4", "name": "7879a7975d93183234b6f0bbe30251c4"}, {"lon": -77.034989, "is_reserved": 0, "is_disabled": 0, "type": "electric_scooter", "lat": 38.905090333333334, "rental_uris": {"ios": "https://dc.lft.to/lastmile_qr_scan", "android": "https://dc.lft.to/lastmile_qr_scan"}, "fusion_lat": 0.0, "fusion_lon": 0.0, "bike_id": "6b519c1e9990cbd5dae9076b2883222f", "name": "6b519c1e9990cbd5dae9076b2883222f"}, {"lon": -77.03263433333333, "is_reserved": 0, "is_disabled": 0, "type": "electric_scooter", "lat": 38.9321025, "rental_uris": {"ios": "https://dc.lft.to/lastmile_qr_scan", "android": "https://dc.lft.to/lastmile_qr_scan"}, "fusion_lat": 0.0, "fusion_lon": 0.0, "bike_id": "0622651ab4493a50d766d337a51b1c9d", "name": "0622651ab4493a50d766d337a51b1c9d"}, {"lon": -77.02389666666667, "is_reserved": 0, "is_disabled": 0, "type": "electric_scooter", "lat": 38.95737483333333, "rental_uris": {"ios": "https://dc.lft.to/lastmile_qr_scan", "android": "https://dc.lft.to/lastmile_qr_scan"}, "fusion_lat": 0.0, "fusion_lon": 0.0, "bike_id": "53d63b19cfa73fc5d2e01cc83d0b165a", "name": "53d63b19cfa73fc5d2e01cc83d0b165a"}, {"lon": -77.0302585, "is_reserved": 0, "is_disabled": 0, "type": "electric_scooter", "lat": 38.92240116666667, "rental_uris": {"ios": "https://dc.lft.to/lastmile_qr_scan", "android": "https://dc.lft.to/lastmile_qr_scan"}, "fusion_lat": 0.0, "fusion_lon": 0.0, "bike_id": "034a4462358cf7cfc399ea7118b23f87", "name": "034a4462358cf7cfc399ea7118b23f87"}, {"lon": -77.048331, "is_reserved": 0, "is_disabled": 0, "type": "electric_scooter", "lat": 38.90054, "rental_uris": {"ios": "https://dc.lft.to/lastmile_qr_scan", "android": "https://dc.lft.to/lastmile_qr_scan"}, "fusion_lat": 0.0, "fusion_lon": 0.0, "bike_id": "1bc4ef683b341544cc7fb766bcccc2a9", "name": "1bc4ef683b341544cc7fb766bcccc2a9"}, {"lon": -77.039599, "is_reserved": 0, "is_disabled": 0, "type": "electric_scooter", "lat": 38.90275283333333, "rental_uris": {"ios": "https://dc.lft.to/lastmile_qr_scan", "android": "https://dc.lft.to/lastmile_qr_scan"}, "fusion_lat": 0.0, "fusion_lon": 0.0, "bike_id": "c0488fd4c554687095bf97ec679c89ca", "name": "c0488fd4c554687095bf97ec679c89ca"}, {"lon": -77.04784316666667, "is_reserved": 0, "is_disabled": 0, "type": "electric_scooter", "lat": 38.90796866666667, "rental_uris": {"ios": "https://dc.lft.to/lastmile_qr_scan", "android": "https://dc.lft.to/lastmile_qr_scan"}, "fusion_lat": 0.0, "fusion_lon": 0.0, "bike_id": "6fcf34fd7b640ec8cbf0ce9793f96376", "name": "6fcf34fd7b640ec8cbf0ce9793f96376"}, {"lon": -77.04565083333334, "is_reserved": 0, "is_disabled": 0, "type": "electric_scooter", "lat": 38.914047, "rental_uris": {"ios": "https://dc.lft.to/lastmile_qr_scan", "android": "https://dc.lft.to/lastmile_qr_scan"}, "fusion_lat": 0.0, "fusion_lon": 0.0, "bike_id": "df52202fa92ac0931f292bbd7e03cfee", "name": "df52202fa92ac0931f292bbd7e03cfee"}, {"lon": -77.0458615, "is_reserved": 0, "is_disabled": 0, "type": "electric_scooter", "lat": 38.92141383333333, "rental_uris": {"ios": "https://dc.lft.to/lastmile_qr_scan", "android": "https://dc.lft.to/lastmile_qr_scan"}, "fusion_lat": 0.0, "fusion_lon": 0.0, "bike_id": "8ed214fe93ada2c0dbf8bb745d190fd5", "name": "8ed214fe93ada2c0dbf8bb745d190fd5"}, {"lon": -77.00544983333333, "is_reserved": 0, "is_disabled": 0, "type": "electric_scooter", "lat": 38.89613283333333, "rental_uris": {"ios": "https://dc.lft.to/lastmile_qr_scan", "android": "https://dc.lft.to/lastmile_qr_scan"}, "fusion_lat": 0.0, "fusion_lon": 0.0, "bike_id": "456a19a49a2d4dec25bebdc061c2698c", "name": "456a19a49a2d4dec25bebdc061c2698c"}, {"lon": -76.99458116666666, "is_reserved": 0, "is_disabled": 0, "type": "electric_scooter", "lat": 38.86220566666667, "rental_uris": {"ios": "https://dc.lft.to/lastmile_qr_scan", "android": "https://dc.lft.to/lastmile_qr_scan"}, "fusion_lat": 0.0, "fusion_lon": 0.0, "bike_id": "a59d5a68adaff927e4b9e6427c63f9b9", "name": "a59d5a68adaff927e4b9e6427c63f9b9"}, {"lon": -76.91595516666666, "is_reserved": 0, "is_disabled": 0, "type": "electric_bike", "lat": 38.88011133333333, "rental_uris": {"ios": "https://dc.lft.to/lastmile_qr_scan", "android": "https://dc.lft.to/lastmile_qr_scan"}, "fusion_lat": 0.0, "fusion_lon": 0.0, "bike_id": "f53f258655db4e80aece1848a5a4ae58", "name": "f53f258655db4e80aece1848a5a4ae58"}, {"lon": -77.02481666666667, "is_reserved": 0, "is_disabled": 0, "type": "electric_scooter", "lat": 38.9388035, "rental_uris": {"ios": "https://dc.lft.to/lastmile_qr_scan", "android": "https://dc.lft.to/lastmile_qr_scan"}, "fusion_lat": 0.0, "fusion_lon": 0.0, "bike_id": "f26e20215ec671f952a2791dffe716b2", "name": "f26e20215ec671f952a2791dffe716b2"}, {"lon": -76.90814283333333, "is_reserved": 0, "is_disabled": 0, "type": "electric_bike", "lat": 38.99453966666667, "rental_uris": {"ios": "https://dc.lft.to/lastmile_qr_scan", "android": "https://dc.lft.to/lastmile_qr_scan"}, "fusion_lat": 0.0, "fusion_lon": 0.0, "bike_id": "fc798eabc252e95f4e4aaa5df71e3c98", "name": "fc798eabc252e95f4e4aaa5df71e3c98"}, {"lon": -77.033205, "is_reserved": 0, "is_disabled": 0, "type": "electric_scooter", "lat": 38.960175666666665, "rental_uris": {"ios": "https://dc.lft.to/lastmile_qr_scan", "android": "https://dc.lft.to/lastmile_qr_scan"}, "fusion_lat": 0.0, "fusion_lon": 0.0, "bike_id": "d726094db16dd43c62b567740c0713ef", "name": "d726094db16dd43c62b567740c0713ef"}, {"lon": -77.0271415, "is_reserved": 0, "is_disabled": 0, "type": "electric_scooter", "lat": 38.90747066666667, "rental_uris": {"ios": "https://dc.lft.to/lastmile_qr_scan", "android": "https://dc.lft.to/lastmile_qr_scan"}, "fusion_lat": 0.0, "fusion_lon": 0.0, "bike_id": "95efc2f21acddd5bdbdaea1b1e319fd6", "name": "95efc2f21acddd5bdbdaea1b1e319fd6"}, {"lon": -77.03033566666667, "is_reserved": 0, "is_disabled": 0, "type": "electric_scooter", "lat": 38.9224735, "rental_uris": {"ios": "https://dc.lft.to/lastmile_qr_scan", "android": "https://dc.lft.to/lastmile_qr_scan"}, "fusion_lat": 0.0, "fusion_lon": 0.0, "bike_id": "e00b5bbb7181561c711635b57c919d29", "name": "e00b5bbb7181561c711635b57c919d29"}, {"lon": -76.95536033333333, "is_reserved": 0, "is_disabled": 0, "type": "electric_scooter", "lat": 38.8876955, "rental_uris": {"ios": "https://dc.lft.to/lastmile_qr_scan", "android": "https://dc.lft.to/lastmile_qr_scan"}, "fusion_lat": 0.0, "fusion_lon": 0.0, "bike_id": "84d0c6b9d290c0d210f62a563eeb920f", "name": "84d0c6b9d290c0d210f62a563eeb920f"}, {"lon": -77.03624483333333, "is_reserved": 0, "is_disabled": 0, "type": "electric_scooter", "lat": 38.95291316666667, "rental_uris": {"ios": "https://dc.lft.to/lastmile_qr_scan", "android": "https://dc.lft.to/lastmile_qr_scan"}, "fusion_lat": 0.0, "fusion_lon": 0.0, "bike_id": "9a66ba52128c5e2d996343950b42ca5f", "name": "9a66ba52128c5e2d996343950b42ca5f"}, {"lon": -77.06240533333333, "is_reserved": 0, "is_disabled": 0, "type": "electric_scooter", "lat": 38.90526466666667, "rental_uris": {"ios": "https://dc.lft.to/lastmile_qr_scan", "android": "https://dc.lft.to/lastmile_qr_scan"}, "fusion_lat": 0.0, "fusion_lon": 0.0, "bike_id": "ffef90785c478052a92fc15940666963", "name": "ffef90785c478052a92fc15940666963"}, {"lon": -76.97900533333333, "is_reserved": 0, "is_disabled": 0, "type": "electric_bike", "lat": 38.8549095, "rental_uris": {"ios": "https://dc.lft.to/lastmile_qr_scan", "android": "https://dc.lft.to/lastmile_qr_scan"}, "fusion_lat": 0.0, "fusion_lon": 0.0, "bike_id": "a410d6963ed978171e982144e698744b", "name": "a410d6963ed978171e982144e698744b"}, {"lon": -77.00735783333333, "is_reserved": 0, "is_disabled": 0, "type": "electric_scooter", "lat": 38.8769985, "rental_uris": {"ios": "https://dc.lft.to/lastmile_qr_scan", "android": "https://dc.lft.to/lastmile_qr_scan"}, "fusion_lat": 0.0, "fusion_lon": 0.0, "bike_id": "210d5ce5583586b6bbb745570ed5092e", "name": "210d5ce5583586b6bbb745570ed5092e"}, {"lon": -77.04252316666667, "is_reserved": 0, "is_disabled": 0, "type": "electric_scooter", "lat": 38.917812166666664, "rental_uris": {"ios": "https://dc.lft.to/lastmile_qr_scan", "android": "https://dc.lft.to/lastmile_qr_scan"}, "fusion_lat": 0.0, "fusion_lon": 0.0, "bike_id": "98980e4f90e17f8c34c432a49add7134", "name": "98980e4f90e17f8c34c432a49add7134"}, {"lon": -77.028571, "is_reserved": 0, "is_disabled": 0, "type": "electric_scooter", "lat": 38.93263916666667, "rental_uris": {"ios": "https://dc.lft.to/lastmile_qr_scan", "android": "https://dc.lft.to/lastmile_qr_scan"}, "fusion_lat": 0.0, "fusion_lon": 0.0, "bike_id": "0ee2adde0ee3b5de9436f3f8482934af", "name": "0ee2adde0ee3b5de9436f3f8482934af"}, {"lon": -77.028873, "is_reserved": 0, "is_disabled": 0, "type": "electric_scooter", "lat": 38.90119466666667, "rental_uris": {"ios": "https://dc.lft.to/lastmile_qr_scan", "android": "https://dc.lft.to/lastmile_qr_scan"}, "fusion_lat": 0.0, "fusion_lon": 0.0, "bike_id": "252ace4498d0c1535997c488cce969fd", "name": "252ace4498d0c1535997c488cce969fd"}, {"lon": -77.07266216666666, "is_reserved": 0, "is_disabled": 0, "type": "electric_scooter", "lat": 38.913259833333335, "rental_uris": {"ios": "https://dc.lft.to/lastmile_qr_scan", "android": "https://dc.lft.to/lastmile_qr_scan"}, "fusion_lat": 0.0, "fusion_lon": 0.0, "bike_id": "1af99bf4d2ae5758ed0ddccfd0aeb854", "name": "1af99bf4d2ae5758ed0ddccfd0aeb854"}, {"lon": -77.03242683333333, "is_reserved": 0, "is_disabled": 0, "type": "electric_scooter", "lat": 38.92894316666667, "rental_uris": {"ios": "https://dc.lft.to/lastmile_qr_scan", "android": "https://dc.lft.to/lastmile_qr_scan"}, "fusion_lat": 0.0, "fusion_lon": 0.0, "bike_id": "ccfe31f7b8c554ea91e33735db55fd38", "name": "ccfe31f7b8c554ea91e33735db55fd38"}, {"lon": -77.04328516666666, "is_reserved": 0, "is_disabled": 0, "type": "electric_scooter", "lat": 38.898369333333335, "rental_uris": {"ios": "https://dc.lft.to/lastmile_qr_scan", "android": "https://dc.lft.to/lastmile_qr_scan"}, "fusion_lat": 0.0, "fusion_lon": 0.0, "bike_id": "c3ec71c604dd6aa14ee8d8168970876b", "name": "c3ec71c604dd6aa14ee8d8168970876b"}, {"lon": -77.03958133333333, "is_reserved": 0, "is_disabled": 0, "type": "electric_scooter", "lat": 38.90135383333333, "rental_uris": {"ios": "https://dc.lft.to/lastmile_qr_scan", "android": "https://dc.lft.to/lastmile_qr_scan"}, "fusion_lat": 0.0, "fusion_lon": 0.0, "bike_id": "ce6e82e0c5c751de3b244a3b801243f1", "name": "ce6e82e0c5c751de3b244a3b801243f1"}, {"lon": -77.06581966666667, "is_reserved": 0, "is_disabled": 0, "type": "electric_scooter", "lat": 38.903546666666664, "rental_uris": {"ios": "https://dc.lft.to/lastmile_qr_scan", "android": "https://dc.lft.to/lastmile_qr_scan"}, "fusion_lat": 0.0, "fusion_lon": 0.0, "bike_id": "c6759d0ca2d3bd73dbcb48e51ad27311", "name": "c6759d0ca2d3bd73dbcb48e51ad27311"}, {"lon": -76.9521125, "is_reserved": 0, "is_disabled": 0, "type": "electric_scooter", "lat": 38.89250466666667, "rental_uris": {"ios": "https://dc.lft.to/lastmile_qr_scan", "android": "https://dc.lft.to/lastmile_qr_scan"}, "fusion_lat": 0.0, "fusion_lon": 0.0, "bike_id": "17330f871bbaf01fa6527ab29e83760a", "name": "17330f871bbaf01fa6527ab29e83760a"}, {"lon": -77.09580566666666, "is_reserved": 0, "is_disabled": 0, "type": "electric_bike", "lat": 38.83787516666666, "rental_uris": {"ios": "https://dc.lft.to/lastmile_qr_scan", "android": "https://dc.lft.to/lastmile_qr_scan"}, "fusion_lat": 0.0, "fusion_lon": 0.0, "bike_id": "5655a7469b4bf4eee8deb43b757dabc7", "name": "5655a7469b4bf4eee8deb43b757dabc7"}, {"lon": -77.03340566666667, "is_reserved": 0, "is_disabled": 0, "type": "electric_scooter", "lat": 38.90001, "rental_uris": {"ios": "https://dc.lft.to/lastmile_qr_scan", "android": "https://dc.lft.to/lastmile_qr_scan"}, "fusion_lat": 0.0, "fusion_lon": 0.0, "bike_id": "80616086538c48f9357b811fa8d1f6f3", "name": "80616086538c48f9357b811fa8d1f6f3"}, {"lon": -77.04355, "is_reserved": 0, "is_disabled": 0, "type": "electric_scooter", "lat": 38.91060066666667, "rental_uris": {"ios": "https://dc.lft.to/lastmile_qr_scan", "android": "https://dc.lft.to/lastmile_qr_scan"}, "fusion_lat": 0.0, "fusion_lon": 0.0, "bike_id": "51baca9f4b5bb6eed27f8ff2d77c1ea9", "name": "51baca9f4b5bb6eed27f8ff2d77c1ea9"}, {"lon": -77.01577533333334, "is_reserved": 0, "is_disabled": 0, "type": "electric_scooter", "lat": 38.87692716666667, "rental_uris": {"ios": "https://dc.lft.to/lastmile_qr_scan", "android": "https://dc.lft.to/lastmile_qr_scan"}, "fusion_lat": 0.0, "fusion_lon": 0.0, "bike_id": "99278ca8c1d2da0e5ab37c0d8b26702b", "name": "99278ca8c1d2da0e5ab37c0d8b26702b"}, {"lon": -77.10512033333333, "is_reserved": 0, "is_disabled": 0, "type": "electric_bike", "lat": 38.9284995, "rental_uris": {"ios": "https://dc.lft.to/lastmile_qr_scan", "android": "https://dc.lft.to/lastmile_qr_scan"}, "fusion_lat": 0.0, "fusion_lon": 0.0, "bike_id": "eabc358bbd3dd6a1cc50fe51dad1335b", "name": "eabc358bbd3dd6a1cc50fe51dad1335b"}, {"lon": -77.04675483333334, "is_reserved": 0, "is_disabled": 0, "type": "electric_scooter", "lat": 38.907207666666665, "rental_uris": {"ios": "https://dc.lft.to/lastmile_qr_scan", "android": "https://dc.lft.to/lastmile_qr_scan"}, "fusion_lat": 0.0, "fusion_lon": 0.0, "bike_id": "833a3a8cef7ad9d17011acb804cfe163", "name": "833a3a8cef7ad9d17011acb804cfe163"}, {"lon": -77.0002635, "is_reserved": 0, "is_disabled": 0, "type": "electric_scooter", "lat": 38.87371566666667, "rental_uris": {"ios": "https://dc.lft.to/lastmile_qr_scan", "android": "https://dc.lft.to/lastmile_qr_scan"}, "fusion_lat": 0.0, "fusion_lon": 0.0, "bike_id": "f448035b117ab10bb4cb94c80798e490", "name": "f448035b117ab10bb4cb94c80798e490"}, {"lon": -77.03791816666667, "is_reserved": 0, "is_disabled": 0, "type": "electric_scooter", "lat": 38.933238333333335, "rental_uris": {"ios": "https://dc.lft.to/lastmile_qr_scan", "android": "https://dc.lft.to/lastmile_qr_scan"}, "fusion_lat": 0.0, "fusion_lon": 0.0, "bike_id": "ab79971149909247098f2bd79260e24d", "name": "ab79971149909247098f2bd79260e24d"}, {"lon": -77.03194083333334, "is_reserved": 0, "is_disabled": 0, "type": "electric_scooter", "lat": 38.919355333333336, "rental_uris": {"ios": "https://dc.lft.to/lastmile_qr_scan", "android": "https://dc.lft.to/lastmile_qr_scan"}, "fusion_lat": 0.0, "fusion_lon": 0.0, "bike_id": "788ad7097947677c3aef1552e6d6bbd1", "name": "788ad7097947677c3aef1552e6d6bbd1"}, {"lon": -76.99030066666667, "is_reserved": 0, "is_disabled": 0, "type": "electric_scooter", "lat": 38.92868983333334, "rental_uris": {"ios": "https://dc.lft.to/lastmile_qr_scan", "android": "https://dc.lft.to/lastmile_qr_scan"}, "fusion_lat": 0.0, "fusion_lon": 0.0, "bike_id": "d9b1b7e53086d33420d6050697ba5d55", "name": "d9b1b7e53086d33420d6050697ba5d55"}, {"lon": -77.0435025, "is_reserved": 0, "is_disabled": 0, "type": "electric_scooter", "lat": 38.90841983333333, "rental_uris": {"ios": "https://dc.lft.to/lastmile_qr_scan", "android": "https://dc.lft.to/lastmile_qr_scan"}, "fusion_lat": 0.0, "fusion_lon": 0.0, "bike_id": "4efdf11b599ebd315fc41696cd2b1e9b", "name": "4efdf11b599ebd315fc41696cd2b1e9b"}, {"lon": -76.98768183333334, "is_reserved": 0, "is_disabled": 0, "type": "electric_scooter", "lat": 38.88314666666667, "rental_uris": {"ios": "https://dc.lft.to/lastmile_qr_scan", "android": "https://dc.lft.to/lastmile_qr_scan"}, "fusion_lat": 0.0, "fusion_lon": 0.0, "bike_id": "2ea0c417a31966f099943565a498313f", "name": "2ea0c417a31966f099943565a498313f"}, {"lon": -76.94619316666666, "is_reserved": 0, "is_disabled": 0, "type": "electric_bike", "lat": 38.832365333333335, "rental_uris": {"ios": "https://dc.lft.to/lastmile_qr_scan", "android": "https://dc.lft.to/lastmile_qr_scan"}, "fusion_lat": 0.0, "fusion_lon": 0.0, "bike_id": "de1da713c03ceed6b642e3f67d7afe0e", "name": "de1da713c03ceed6b642e3f67d7afe0e"}, {"lon": -77.02576816666667, "is_reserved": 0, "is_disabled": 0, "type": "electric_scooter", "lat": 38.92508633333333, "rental_uris": {"ios": "https://dc.lft.to/lastmile_qr_scan", "android": "https://dc.lft.to/lastmile_qr_scan"}, "fusion_lat": 0.0, "fusion_lon": 0.0, "bike_id": "17ee06acc6c0a7d1554d64e3709ee880", "name": "17ee06acc6c0a7d1554d64e3709ee880"}, {"lon": -77.06520266666666, "is_reserved": 0, "is_disabled": 0, "type": "electric_scooter", "lat": 38.905365833333335, "rental_uris": {"ios": "https://dc.lft.to/lastmile_qr_scan", "android": "https://dc.lft.to/lastmile_qr_scan"}, "fusion_lat": 0.0, "fusion_lon": 0.0, "bike_id": "d5f94be927421947d8bd5796ba785f3c", "name": "d5f94be927421947d8bd5796ba785f3c"}, {"lon": -77.07262133333333, "is_reserved": 0, "is_disabled": 0, "type": "electric_scooter", "lat": 38.9129815, "rental_uris": {"ios": "https://dc.lft.to/lastmile_qr_scan", "android": "https://dc.lft.to/lastmile_qr_scan"}, "fusion_lat": 0.0, "fusion_lon": 0.0, "bike_id": "0c36474b46d0fc02b699d7bf0172b13a", "name": "0c36474b46d0fc02b699d7bf0172b13a"}, {"lon": -77.03846516666667, "is_reserved": 0, "is_disabled": 0, "type": "electric_scooter", "lat": 38.9098845, "rental_uris": {"ios": "https://dc.lft.to/lastmile_qr_scan", "android": "https://dc.lft.to/lastmile_qr_scan"}, "fusion_lat": 0.0, "fusion_lon": 0.0, "bike_id": "60c6d7bf65a42a5c03aa591036238990", "name": "60c6d7bf65a42a5c03aa591036238990"}, {"lon": -77.03946583333334, "is_reserved": 0, "is_disabled": 0, "type": "electric_scooter", "lat": 38.91695166666667, "rental_uris": {"ios": "https://dc.lft.to/lastmile_qr_scan", "android": "https://dc.lft.to/lastmile_qr_scan"}, "fusion_lat": 0.0, "fusion_lon": 0.0, "bike_id": "e20591d4c337f67a683934afc5a46bf4", "name": "e20591d4c337f67a683934afc5a46bf4"}, {"lon": -76.9951115, "is_reserved": 0, "is_disabled": 0, "type": "electric_bike", "lat": 38.93382166666667, "rental_uris": {"ios": "https://dc.lft.to/lastmile_qr_scan", "android": "https://dc.lft.to/lastmile_qr_scan"}, "fusion_lat": 0.0, "fusion_lon": 0.0, "bike_id": "ecaccf312d8f07dec85e1c5b45565605", "name": "ecaccf312d8f07dec85e1c5b45565605"}, {"lon": -77.011072, "is_reserved": 0, "is_disabled": 0, "type": "electric_scooter", "lat": 38.90785666666667, "rental_uris": {"ios": "https://dc.lft.to/lastmile_qr_scan", "android": "https://dc.lft.to/lastmile_qr_scan"}, "fusion_lat": 0.0, "fusion_lon": 0.0, "bike_id": "52e01cc619c24e285433b227559c794e", "name": "52e01cc619c24e285433b227559c794e"}, {"lon": -76.985863, "is_reserved": 0, "is_disabled": 0, "type": "electric_scooter", "lat": 38.88410366666667, "rental_uris": {"ios": "https://dc.lft.to/lastmile_qr_scan", "android": "https://dc.lft.to/lastmile_qr_scan"}, "fusion_lat": 0.0, "fusion_lon": 0.0, "bike_id": "2e09b42ba56abe0364fa26ea8101feed", "name": "2e09b42ba56abe0364fa26ea8101feed"}, {"lon": -77.36087833333333, "is_reserved": 0, "is_disabled": 0, "type": "electric_bike", "lat": 38.9396165, "rental_uris": {"ios": "https://dc.lft.to/lastmile_qr_scan", "android": "https://dc.lft.to/lastmile_qr_scan"}, "fusion_lat": 0.0, "fusion_lon": 0.0, "bike_id": "a2bad12a46a2e2598ff1d0c0d0299ccd", "name": "a2bad12a46a2e2598ff1d0c0d0299ccd"}, {"lon": -77.02173016666667, "is_reserved": 0, "is_disabled": 0, "type": "electric_scooter", "lat": 38.94293283333333, "rental_uris": {"ios": "https://dc.lft.to/lastmile_qr_scan", "android": "https://dc.lft.to/lastmile_qr_scan"}, "fusion_lat": 0.0, "fusion_lon": 0.0, "bike_id": "c7ecbf79656779b2119b98a7642724ee", "name": "c7ecbf79656779b2119b98a7642724ee"}, {"lon": -77.031788, "is_reserved": 0, "is_disabled": 0, "type": "electric_scooter", "lat": 38.8999055, "rental_uris": {"ios": "https://dc.lft.to/lastmile_qr_scan", "android": "https://dc.lft.to/lastmile_qr_scan"}, "fusion_lat": 0.0, "fusion_lon": 0.0, "bike_id": "9f85559b8676c111872530314c593fb7", "name": "9f85559b8676c111872530314c593fb7"}, {"lon": -77.03051583333334, "is_reserved": 0, "is_disabled": 0, "type": "electric_scooter", "lat": 38.9398215, "rental_uris": {"ios": "https://dc.lft.to/lastmile_qr_scan", "android": "https://dc.lft.to/lastmile_qr_scan"}, "fusion_lat": 0.0, "fusion_lon": 0.0, "bike_id": "4a55d5cbb355af25624700518672aca7", "name": "4a55d5cbb355af25624700518672aca7"}, {"lon": -77.04190766666666, "is_reserved": 0, "is_disabled": 0, "type": "electric_scooter", "lat": 38.911431, "rental_uris": {"ios": "https://dc.lft.to/lastmile_qr_scan", "android": "https://dc.lft.to/lastmile_qr_scan"}, "fusion_lat": 0.0, "fusion_lon": 0.0, "bike_id": "7d563ec428cac3dfb12c11546c04e477", "name": "7d563ec428cac3dfb12c11546c04e477"}, {"lon": -77.04760916666666, "is_reserved": 0, "is_disabled": 0, "type": "electric_scooter", "lat": 38.90970633333333, "rental_uris": {"ios": "https://dc.lft.to/lastmile_qr_scan", "android": "https://dc.lft.to/lastmile_qr_scan"}, "fusion_lat": 0.0, "fusion_lon": 0.0, "bike_id": "ef99938f487d91621e46d28eb0dc3689", "name": "ef99938f487d91621e46d28eb0dc3689"}, {"lon": -77.01404383333333, "is_reserved": 0, "is_disabled": 0, "type": "electric_scooter", "lat": 38.879031499999996, "rental_uris": {"ios": "https://dc.lft.to/lastmile_qr_scan", "android": "https://dc.lft.to/lastmile_qr_scan"}, "fusion_lat": 0.0, "fusion_lon": 0.0, "bike_id": "b8920f6f99f9ac5eb0ef561c737f6f81", "name": "b8920f6f99f9ac5eb0ef561c737f6f81"}, {"lon": -77.02115266666667, "is_reserved": 0, "is_disabled": 0, "type": "electric_scooter", "lat": 38.91739333333334, "rental_uris": {"ios": "https://dc.lft.to/lastmile_qr_scan", "android": "https://dc.lft.to/lastmile_qr_scan"}, "fusion_lat": 0.0, "fusion_lon": 0.0, "bike_id": "981dca57fd29c1e0dec3469fc55b5e5f", "name": "981dca57fd29c1e0dec3469fc55b5e5f"}, {"lon": -77.0257195, "is_reserved": 0, "is_disabled": 0, "type": "electric_scooter", "lat": 38.890406166666665, "rental_uris": {"ios": "https://dc.lft.to/lastmile_qr_scan", "android": "https://dc.lft.to/lastmile_qr_scan"}, "fusion_lat": 0.0, "fusion_lon": 0.0, "bike_id": "621ee446b8304aac936b6dc25bfe3ed0", "name": "621ee446b8304aac936b6dc25bfe3ed0"}, {"lon": -77.03790083333334, "is_reserved": 0, "is_disabled": 0, "type": "electric_scooter", "lat": 38.9262955, "rental_uris": {"ios": "https://dc.lft.to/lastmile_qr_scan", "android": "https://dc.lft.to/lastmile_qr_scan"}, "fusion_lat": 0.0, "fusion_lon": 0.0, "bike_id": "468c9b414566f09e426c4ec5923d1bdb", "name": "468c9b414566f09e426c4ec5923d1bdb"},