{"data": {"bikes": [{"name": "9aa25c7a3850ca895c95f51128ed4274", "type": "electric_scooter", "lat": 38.8922795, "is_reserved": 0, "lon": -77.01273, "fusion_lon": 0.0, "is_disabled": 0, "fusion_lat": 0.0, "bike_id": "9aa25c7a3850ca895c95f51128ed4274", "rental_uris": {"ios": "https://dc.lft.to/lastmile_qr_scan", "android": "https://dc.lft.to/lastmile_qr_scan"}}, {"name": "89544064cfa953593408ad7658dbc770", "type": "electric_scooter", "lat": 38.880242333333335, "is_reserved": 0, "lon": -76.98834233333334, "fusion_lon": 0.0, "is_disabled": 0, "fusion_lat": 0.0, "bike_id": "89544064cfa953593408ad7658dbc770", "rental_uris": {"ios": "https://dc.lft.to/lastmile_qr_scan", "android": "https://dc.lft.to/lastmile_qr_scan"}}, {"name": "94e2121f950558e67d98a03188561ebc", "type": "electric_scooter", "lat": 38.93397516666667, "is_reserved": 0, "lon": -77.038866, "fusion_lon": 0.0, "is_disabled": 0, "fusion_lat": 0.0, "bike_id": "94e2121f950558e67d98a03188561ebc", "rental_uris": {"ios": "https://dc.lft.to/lastmile_qr_scan", "android": "https://dc.lft.to/lastmile_qr_scan"}}, {"name": "6695a3d261d24aba68ca9c5b9127e25c", "type": "electric_scooter", "lat": 38.87725233333333, "is_reserved": 0, "lon": -77.005866, "fusion_lon": 0.0, "is_disabled": 0, "fusion_lat": 0.0, "bike_id": "6695a3d261d24aba68ca9c5b9127e25c", "rental_uris": {"ios": "https://dc.lft.to/lastmile_qr_scan", "android": "https://dc.lft.to/lastmile_qr_scan"}}, {"name": "98c06cf9c970188bc3fe193d5bde969c", "type": "electric_scooter", "lat": 38.90525383333333, "is_reserved": 0, "lon": -77.0533455, "fusion_lon": 0.0, "is_disabled": 0, "fusion_lat": 0.0, "bike_id": "98c06cf9c970188bc3fe193d5bde969c", "rental_uris": {"ios": "https://dc.lft.to/lastmile_qr_scan", "android": "https://dc.lft.to/lastmile_qr_scan"}}, {"name": "a619b394c5cdd4f8da40c065e8618cf6", "type": "electric_scooter", "lat": 38.871285666666665, "is_reserved": 0, "lon": -77.00600333333334, "fusion_lon": 0.0, "is_disabled": 0, "fusion_lat": 0.0, "bike_id": "a619b394c5cdd4f8da40c065e8618cf6", "rental_uris": {"ios": "https://dc.lft.to/lastmile_qr_scan", "android": "https://dc.lft.to/lastmile_qr_scan"}}, {"name": "b04eef02b0dac94c6ebadd8c059000d7", "type": "electric_scooter", "lat": 38.914905166666664, "is_reserved": 0, "lon": -77.01845866666666, "fusion_lon": 0.0, "is_disabled": 0, "fusion_lat": 0.0, "bike_id": "b04eef02b0dac94c6ebadd8c059000d7", "rental_uris": {"ios": "https://dc.lft.to/lastmile_qr_scan", "android": "https://dc.lft.to/lastmile_qr_scan"}}, {"name": "6a07188d2875281eb1080e709ecad813", "type": "electric_scooter", "lat": 38.95905883333333, "is_reserved": 0, "lon": -77.08080416666667, "fusion_lon": 0.0, "is_disabled": 0, "fusion_lat": 0.0, "bike_id": "6a07188d2875281eb1080e709ecad813", "rental_uris": {"ios": "https://dc.lft.to/lastmile_qr_scan", "android": "https://dc.lft.to/lastmile_qr_scan"}}, {"name": "1443c1ec58707edb867f86ea358a60c5", "type": "electric_scooter", "lat": 38.930913, "is_reserved": 0, "lon": -77.03668616666667, "fusion_lon": 0.0, "is_disabled": 0, "fusion_lat": 0.0, "bike_id": "1443c1ec58707edb867f86ea358a60c5", "rental_uris": {"ios": "https://dc.lft.to/lastmile_qr_scan", "android": "https://dc.lft.to/lastmile_qr_scan"}}, {"name": "2ec8bf0ba0c18de63b5b2c7252d80bb8", "type": "electric_scooter", "lat": 38.9573625, "is_reserved": 0, "lon": -77.02402516666666, "fusion_lon": 0.0, "is_disabled": 0, "fusion_lat": 0.0, "bike_id": "2ec8bf0ba0c18de63b5b2c7252d80bb8", "rental_uris": {"ios": "https://dc.lft.to/lastmile_qr_scan", "android": "https://dc.lft.to/lastmile_qr_scan"}}, {"name": "4deef6827c0dff9e8cb1c2647e3aba05", "type": "electric_bike", "lat": 38.88403066666667, "is_reserved": 0, "lon": -77.0464575, "fusion_lon": 0.0, "is_disabled": 0, "fusion_lat": 0.0, "bike_id": "4deef6827c0dff9e8cb1c2647e3aba05", "rental_uris": {"ios": "https://dc.lft.to/lastmile_qr_scan", "android": "https://dc.lft.to/lastmile_qr_scan"}}, {"name": "effbefe97448d4b66131aacaf81537c4", "type": "electric_scooter", "lat": 38.922358833333334, "is_reserved": 0, "lon": -77.04624416666667, "fusion_lon": 0.0, "is_disabled": 0, "fusion_lat": 0.0, "bike_id": "effbefe97448d4b66131aacaf81537c4", "rental_uris": {"ios": "https://dc.lft.to/lastmile_qr_scan", "android": "https://dc.lft.to/lastmile_qr_scan"}}, {"name": "3ec3b91e6250c08f815786db7c70f60f", "type": "electric_scooter", "lat": 38.902433, "is_reserved": 0, "lon": -76.97928633333333, "fusion_lon": 0.0, "is_disabled": 0, "fusion_lat": 0.0, "bike_id": "3ec3b91e6250c08f815786db7c70f60f", "rental_uris": {"ios": "https://dc.lft.to/lastmile_qr_scan", "android": "https://dc.lft.to/lastmile_qr_scan"}}, {"name": "9f698a4bf35edea2cdbd92e126cefd1b", "type": "electric_scooter", "lat": 38.90136783333333, "is_reserved": 0, "lon": -77.04499583333333, "fusion_lon": 0.0, "is_disabled": 0, "fusion_lat": 0.0, "bike_id": "9f698a4bf35edea2cdbd92e126cefd1b", "rental_uris": {"ios": "https://dc.lft.to/lastmile_qr_scan", "android": "https://dc.lft.to/lastmile_qr_scan"}}, {"name": "281d1b53f86207bfd90188979d25a5e2", "type": "electric_scooter", "lat": 38.906573333333334, "is_reserved": 0, "lon": -77.0429485, "fusion_lon": 0.0, "is_disabled": 0, "fusion_lat": 0.0, "bike_id": "281d1b53f86207bfd90188979d25a5e2", "rental_uris": {"ios": "https://dc.lft.to/lastmile_qr_scan", "android": "https://dc.lft.to/lastmile_qr_scan"}}, {"name": "3d52b4df97dbec6763c90e7d8ce5e59c", "type": "electric_bike", "lat": 38.89842383333333, "is_reserved": 0, "lon": -77.00576533333333, "fusion_lon": 0.0, "is_disabled": 0, "fusion_lat": 0.0, "bike_id": "3d52b4df97dbec6763c90e7d8ce5e59c", "rental_uris": {"ios": "https://dc.lft.to/lastmile_qr_scan", "android": "https://dc.lft.to/lastmile_qr_scan"}}, {"name": "36753d7c10cbeb968581355bbdca1511", "type": "electric_scooter", "lat": 38.894756, "is_reserved": 0, "lon": -76.98401533333333, "fusion_lon": 0.0, "is_disabled": 0, "fusion_lat": 0.0, "bike_id": "36753d7c10cbeb968581355bbdca1511", "rental_uris": {"ios": "https://dc.lft.to/lastmile_qr_scan", "android": "https://dc.lft.to/lastmile_qr_scan"}}, {"name": "fc6e35bd3fa0f00cf38dc27abc2e8a4d", "type": "electric_bike", "lat": 38.91176083333333, "is_reserved": 0, "lon": -77.002677, "fusion_lon": 0.0, "is_disabled": 0, "fusion_lat": 0.0, "bike_id": "fc6e35bd3fa0f00cf38dc27abc2e8a4d", "rental_uris": {"ios": "https://dc.lft.to/lastmile_qr_scan", "android": "https://dc.lft.to/lastmile_qr_scan"}}, {"name": "a3a124e6767bdfad79621ffda58d0175", "type": "electric_scooter", "lat": 38.94309716666667, "is_reserved": 0, "lon": -77.0591785, "fusion_lon": 0.0, "is_disabled": 0, "fusion_lat": 0.0, "bike_id": "a3a124e6767bdfad79621ffda58d0175", "rental_uris": {"ios": "https://dc.lft.to/lastmile_qr_scan", "android": "https://dc.lft.to/lastmile_qr_scan"}}, {"name": "a4414c41de041b0fc3bcc9f4be384a47", "type": "electric_scooter", "lat": 38.865696, "is_reserved": 0, "lon": -76.98950316666667, "fusion_lon": 0.0, "is_disabled": 0, "fusion_lat": 0.0, "bike_id": "a4414c41de041b0fc3bcc9f4be384a47", "rental_uris": {"ios": "https://dc.lft.to/lastmile_qr_scan", "android": "https://dc.lft.to/lastmile_qr_scan"}}, {"name": "b8dd167b78b3349c76fa5846bb41c322", "type": "electric_scooter", "lat": 38.930566666666664, "is_reserved": 0, "lon": -77.039471, "fusion_lon": 0.0, "is_disabled": 0, "fusion_lat": 0.0, "bike_id": "b8dd167b78b3349c76fa5846bb41c322", "rental_uris": {"ios": "https://dc.lft.to/lastmile_qr_scan", "android": "https://dc.lft.to/lastmile_qr_scan"}}, {"name": "4fb6bcbc0e013cb3f95c9f76d68feb57", "type": "electric_scooter", "lat": 38.899164, "is_reserved": 0, "lon": -76.933819, "fusion_lon": 0.0, "is_disabled": 0, "fusion_lat": 0.0, "bike_id": "4fb6bcbc0e013cb3f95c9f76d68feb57", "rental_uris": {"ios": "https://dc.lft.to/lastmile_qr_scan", "android": "https://dc.lft.to/lastmile_qr_scan"}}, {"name": "22a4c31b2511e2db3af55bc50c2f32e9", "type": "electric_scooter", "lat": 38.924844, "is_reserved": 0, "lon": -77.02714633333333, "fusion_lon": 0.0, "is_disabled": 0, "fusion_lat": 0.0, "bike_id": "22a4c31b2511e2db3af55bc50c2f32e9", "rental_uris": {"ios": "https://dc.lft.to/lastmile_qr_scan", "android": "https://dc.lft.to/lastmile_qr_scan"}}, {"name": "3c427ffcc5ab13b29d9ad4228b44b3fc", "type": "electric_bike", "lat": 38.8515615, "is_reserved": 0, "lon": -77.12875633333333, "fusion_lon": 0.0, "is_disabled": 0, "fusion_lat": 0.0, "bike_id": "3c427ffcc5ab13b29d9ad4228b44b3fc", "rental_uris": {"ios": "https://dc.lft.to/lastmile_qr_scan", "android": "https://dc.lft.to/lastmile_qr_scan"}}, {"name": "0de9ffb671bfab30eb625fde74e47e62", "type": "electric_scooter", "lat": 38.922327, "is_reserved": 0, "lon": -77.03889016666666, "fusion_lon": 0.0, "is_disabled": 0, "fusion_lat": 0.0, "bike_id": "0de9ffb671bfab30eb625fde74e47e62", "rental_uris": {"ios": "https://dc.lft.to/lastmile_qr_scan", "android": "https://dc.lft.to/lastmile_qr_scan"}}, {"name": "60559def5ff8bfa807244e5fd5d8985b", "type": "electric_scooter", "lat": 38.90577916666667, "is_reserved": 0, "lon": -77.00569383333334, "fusion_lon": 0.0, "is_disabled": 0, "fusion_lat": 0.0, "bike_id": "60559def5ff8bfa807244e5fd5d8985b", "rental_uris": {"ios": "https://dc.lft.to/lastmile_qr_scan", "android": "https://dc.lft.to/lastmile_qr_scan"}}, {"name": "18931ac275600b40f49fa6ca221708ef", "type": "electric_scooter", "lat": 38.867013, "is_reserved": 0, "lon": -76.987138, "fusion_lon": 0.0, "is_disabled": 0, "fusion_lat": 0.0, "bike_id": "18931ac275600b40f49fa6ca221708ef", "rental_uris": {"ios": "https://dc.lft.to/lastmile_qr_scan", "android": "https://dc.lft.to/lastmile_qr_scan"}}, {"name": "2e5dd7195d77bc6bde8f176dc364af0b", "type": "electric_scooter", "lat": 38.93240216666667, "is_reserved": 0, "lon": -77.0295645, "fusion_lon": 0.0, "is_disabled": 0, "fusion_lat": 0.0, "bike_id": "2e5dd7195d77bc6bde8f176dc364af0b", "rental_uris": {"ios": "https://dc.lft.to/lastmile_qr_scan", "android": "https://dc.lft.to/lastmile_qr_scan"}}, {"name": "08710963d8edd0bb919d0b1ab087268b", "type": "electric_scooter", "lat": 38.90633783333333, "is_reserved": 0, "lon": -77.02974366666666, "fusion_lon": 0.0, "is_disabled": 0, "fusion_lat": 0.0, "bike_id": "08710963d8edd0bb919d0b1ab087268b", "rental_uris": {"ios": "https://dc.lft.to/lastmile_qr_scan", "android": "https://dc.lft.to/lastmile_qr_scan"}}, {"name": "fc74d29f7a0c18c6b313fbcbe83819ac", "type": "electric_scooter", "lat": 38.931208833333336, "is_reserved": 0, "lon": -77.03598933333333, "fusion_lon": 0.0, "is_disabled": 0, "fusion_lat": 0.0, "bike_id": "fc74d29f7a0c18c6b313fbcbe83819ac", "rental_uris": {"ios": "https://dc.lft.to/lastmile_qr_scan", "android": "https://dc.lft.to/lastmile_qr_scan"}}, {"name": "8cb0a3db12c4fec090bb8f2219970060", "type": "electric_scooter", "lat": 38.930952166666664, "is_reserved": 0, "lon": -77.034499, "fusion_lon": 0.0, "is_disabled": 0, "fusion_lat": 0.0, "bike_id": "8cb0a3db12c4fec090bb8f2219970060", "rental_uris": {"ios": "https://dc.lft.to/lastmile_qr_scan", "android": "https://dc.lft.to/lastmile_qr_scan"}}, {"name": "90cc4143ba97de6d50210b7ebc544cfb", "type": "electric_scooter", "lat": 38.897583166666664, "is_reserved": 0, "lon": -77.026809, "fusion_lon": 0.0, "is_disabled": 0, "fusion_lat": 0.0, "bike_id": "90cc4143ba97de6d50210b7ebc544cfb", "rental_uris": {"ios": "https://dc.lft.to/lastmile_qr_scan", "android": "https://dc.lft.to/lastmile_qr_scan"}}, {"name": "00fcc9e61ad058896cabfee28211f840", "type": "electric_scooter", "lat": 38.896625, "is_reserved": 0, "lon": -77.01180566666666, "fusion_lon": 0.0, "is_disabled": 0, "fusion_lat": 0.0, "bike_id": "00fcc9e61ad058896cabfee28211f840", "rental_uris": {"ios": "https://dc.lft.to/lastmile_qr_scan", "android": "https://dc.lft.to/lastmile_qr_scan"}}, {"name": "6f44cb23f9f095aa085083d83ba84246", "type": "electric_scooter", "lat": 38.89930966666667, "is_reserved": 0, "lon": -77.0315645, "fusion_lon": 0.0, "is_disabled": 0, "fusion_lat": 0.0, "bike_id": "6f44cb23f9f095aa085083d83ba84246", "rental_uris": {"ios": "https://dc.lft.to/lastmile_qr_scan", "android": "https://dc.lft.to/lastmile_qr_scan"}}, {"name": "e93e526b6a9987c21d178efc803437c1", "type": "electric_bike", "lat": 38.8976375, "is_reserved": 0, "lon": -76.90436366666667, "fusion_lon": 0.0, "is_disabled": 0, "fusion_lat": 0.0, "bike_id": "e93e526b6a9987c21d178efc803437c1", "rental_uris": {"ios": "https://dc.lft.to/lastmile_qr_scan", "android": "https://dc.lft.to/lastmile_qr_scan"}}, {"name": "d5ca576b42f4e6bcb77c44e2fff51555", "type": "electric_scooter", "lat": 38.8979615, "is_reserved": 0, "lon": -76.99163583333333, "fusion_lon": 0.0, "is_disabled": 0, "fusion_lat": 0.0, "bike_id": "d5ca576b42f4e6bcb77c44e2fff51555", "rental_uris": {"ios": "https://dc.lft.to/lastmile_qr_scan", "android": "https://dc.lft.to/lastmile_qr_scan"}}, {"name": "c555651607bd3685d26297ce076e9166", "type": "electric_scooter", "lat": 38.87077883333333, "is_reserved": 0, "lon": -77.01213433333334, "fusion_lon": 0.0, "is_disabled": 0, "fusion_lat": 0.0, "bike_id": "c555651607bd3685d26297ce076e9166", "rental_uris": {"ios": "https://dc.lft.to/lastmile_qr_scan", "android": "https://dc.lft.to/lastmile_qr_scan"}}, {"name": "0269764940aac674c6ac6161300ef6b1", "type": "electric_bike", "lat": 38.946243333333335, "is_reserved": 0, "lon": -76.9462535, "fusion_lon": 0.0, "is_disabled": 0, "fusion_lat": 0.0, "bike_id": "0269764940aac674c6ac6161300ef6b1", "rental_uris": {"ios": "https://dc.lft.to/lastmile_qr_scan", "android": "https://dc.lft.to/lastmile_qr_scan"}}, {"name": "32196bb951398145dca656c4326d10b9", "type": "electric_scooter", "lat": 38.9214945, "is_reserved": 0, "lon": -77.02406266666667, "fusion_lon": 0.0, "is_disabled": 0, "fusion_lat": 0.0, "bike_id": "32196bb951398145dca656c4326d10b9", "rental_uris": {"ios": "https://dc.lft.to/lastmile_qr_scan", "android": "https://dc.lft.to/lastmile_qr_scan"}}, {"name": "4bcafc10f0de261d9a217b58feaf8322", "type": "electric_scooter", "lat": 38.924805666666664, "is_reserved": 0, "lon": -77.03772883333333, "fusion_lon": 0.0, "is_disabled": 0, "fusion_lat": 0.0, "bike_id": "4bcafc10f0de261d9a217b58feaf8322", "rental_uris": {"ios": "https://dc.lft.to/lastmile_qr_scan", "android": "https://dc.lft.to/lastmile_qr_scan"}}, {"name": "12c6d7670ccce7b060cdeb9bae7a61c3", "type": "electric_scooter", "lat": 38.90800016666667, "is_reserved": 0, "lon": -77.00970733333334, "fusion_lon": 0.0, "is_disabled": 0, "fusion_lat": 0.0, "bike_id": "12c6d7670ccce7b060cdeb9bae7a61c3", "rental_uris": {"ios": "https://dc.lft.to/lastmile_qr_scan", "android": "https://dc.lft.to/lastmile_qr_scan"}}, {"name": "f77eb75871277a1e49fc25fd2506d98e", "type": "electric_scooter", "lat": 38.93446316666667, "is_reserved": 0, "lon": -77.02845516666666, "fusion_lon": 0.0, "is_disabled": 0, "fusion_lat": 0.0, "bike_id": "f77eb75871277a1e49fc25fd2506d98e", "rental_uris": {"ios": "https://dc.lft.to/lastmile_qr_scan", "android": "https://dc.lft.to/lastmile_qr_scan"}}, {"name": "fedd453c6d25ea1b44907c7ee18cd343", "type": "electric_scooter", "lat": 38.898014333333336, "is_reserved": 0, "lon": -77.02722833333333, "fusion_lon": 0.0, "is_disabled": 0, "fusion_lat": 0.0, "bike_id": "fedd453c6d25ea1b44907c7ee18cd343", "rental_uris": {"ios": "https://dc.lft.to/lastmile_qr_scan", "android": "https://dc.lft.to/lastmile_qr_scan"}}, {"name": "707fd9807ee4452d185bcc2e31184bc4", "type": "electric_scooter", "lat": 38.882074833333334, "is_reserved": 0, "lon": -77.01447583333334, "fusion_lon": 0.0, "is_disabled": 0, "fusion_lat": 0.0, "bike_id": "707fd9807ee4452d185bcc2e31184bc4", "rental_uris": {"ios": "https://dc.lft.to/lastmile_qr_scan", "android": "https://dc.lft.to/lastmile_qr_scan"}}, {"name": "ca9bfd73392a60899d2f2c951a955594", "type": "electric_scooter", "lat": 38.9067365, "is_reserved": 0, "lon": -77.0383895, "fusion_lon": 0.0, "is_disabled": 0, "fusion_lat": 0.0, "bike_id": "ca9bfd73392a60899d2f2c951a955594", "rental_uris": {"ios": "https://dc.lft.to/lastmile_qr_scan", "android": "https://dc.lft.to/lastmile_qr_scan"}}, {"name": "d2b2f2327847577a8c0221b4395105bf", "type": "electric_scooter", "lat": 38.92169166666667, "is_reserved": 0, "lon": -77.02679516666667, "fusion_lon": 0.0, "is_disabled": 0, "fusion_lat": 0.0, "bike_id": "d2b2f2327847577a8c0221b4395105bf", "rental_uris": {"ios": "https://dc.lft.to/lastmile_qr_scan", "android": "https://dc.lft.to/lastmile_qr_scan"}}, {"name": "1e4c2445bb746c07baff52974ba1b661", "type": "electric_scooter", "lat": 38.925229, "is_reserved": 0, "lon": -77.0352775, "fusion_lon": 0.0, "is_disabled": 0, "fusion_lat": 0.0, "bike_id": "1e4c2445bb746c07baff52974ba1b661", "rental_uris": {"ios": "https://dc.lft.to/lastmile_qr_scan", "android": "https://dc.lft.to/lastmile_qr_scan"}}, {"name": "d9b5b01bba836630b9c24b28581b87be", "type": "electric_scooter", "lat": 38.908403666666665, "is_reserved": 0, "lon": -77.026887, "fusion_lon": 0.0, "is_disabled": 0, "fusion_lat": 0.0, "bike_id": "d9b5b01bba836630b9c24b28581b87be", "rental_uris": {"ios": "https://dc.lft.to/lastmile_qr_scan", "android": "https://dc.lft.to/lastmile_qr_scan"}}, {"name": "76ed69f6a316b0649dbcb3ccf2cf1815", "type": "electric_scooter", "lat": 38.912045166666665, "is_reserved": 0, "lon": -77.00655033333334, "fusion_lon": 0.0, "is_disabled": 0, "fusion_lat": 0.0, "bike_id": "76ed69f6a316b0649dbcb3ccf2cf1815", "rental_uris": {"ios": "https://dc.lft.to/lastmile_qr_scan", "android": "https://dc.lft.to/lastmile_qr_scan"}}, {"name": "4bc876bffc34692657938283cda627d4", "type": "electric_scooter", "lat": 38.91959683333333, "is_reserved": 0, "lon": -77.014413, "fusion_lon": 0.0, "is_disabled": 0, "fusion_lat": 0.0, "bike_id": "4bc876bffc34692657938283cda627d4", "rental_uris": {"ios": "https://dc.lft.to/lastmile_qr_scan", "android": "https://dc.lft.to/lastmile_qr_scan"}}, {"name": "e8e3a6e516b4ae727fcf7f5f1e07bd4b", "type": "electric_scooter", "lat": 38.926988333333334, "is_reserved": 0, "lon": -77.02101083333334, "fusion_lon": 0.0, "is_disabled": 0, "fusion_lat": 0.0, "bike_id": "e8e3a6e516b4ae727fcf7f5f1e07bd4b", "rental_uris": {"ios": "https://dc.lft.to/lastmile_qr_scan", "android": "https://dc.lft.to/lastmile_qr_scan"}}, {"name": "d567b416a555540ba0126961c675dfd4", "type": "electric_bike", "lat": 38.93717133333333, "is_reserved": 0, "lon": -77.02096766666666, "fusion_lon": 0.0, "is_disabled": 0, "fusion_lat": 0.0, "bike_id": "d567b416a555540ba0126961c675dfd4", "rental_uris": {"ios": "https://dc.lft.to/lastmile_qr_scan", "android": "https://dc.lft.to/lastmile_qr_scan"}}, {"name": "4d8cc222bc7fa23d5cb89aadabbb7a92", "type": "electric_bike", "lat": 38.8747985, "is_reserved": 0, "lon": -76.96524566666666, "fusion_lon": 0.0, "is_disabled": 0, "fusion_lat": 0.0, "bike_id": "4d8cc222bc7fa23d5cb89aadabbb7a92", "rental_uris": {"ios": "https://dc.lft.to/lastmile_qr_scan", "android": "https://dc.lft.to/lastmile_qr_scan"}}, {"name": "8854b9b0d4cdc8dbc2679d1f27b7aea5", "type": "electric_scooter", "lat": 38.902365833333334, "is_reserved": 0, "lon": -77.05341716666666, "fusion_lon": 0.0, "is_disabled": 0, "fusion_lat": 0.0, "bike_id": "8854b9b0d4cdc8dbc2679d1f27b7aea5", "rental_uris": {"ios": "https://dc.lft.to/lastmile_qr_scan", "android": "https://dc.lft.to/lastmile_qr_scan"}}, {"name": "5b7b35315fe3ed41595bc6c8e1f8e946", "type": "electric_scooter", "lat": 38.9053225, "is_reserved": 0, "lon": -77.05140516666667, "fusion_lon": 0.0, "is_disabled": 0, "fusion_lat": 0.0, "bike_id": "5b7b35315fe3ed41595bc6c8e1f8e946", "rental_uris": {"ios": "https://dc.lft.to/lastmile_qr_scan", "android": "https://dc.lft.to/lastmile_qr_scan"}}, {"name": "9da9c2bc144ff8a74b7046175608691f", "type": "electric_scooter", "lat": 38.90857333333334, "is_reserved": 0, "lon": -77.0425965, "fusion_lon": 0.0, "is_disabled": 0, "fusion_lat": 0.0, "bike_id": "9da9c2bc144ff8a74b7046175608691f", "rental_uris": {"ios": "https://dc.lft.to/lastmile_qr_scan", "android": "https://dc.lft.to/lastmile_qr_scan"}}, {"name": "06774fee0ca4f2231ffb8bf49c497c7c", "type": "electric_scooter", "lat": 38.8937475, "is_reserved": 0, "lon": -76.94980633333333, "fusion_lon": 0.0, "is_disabled": 0, "fusion_lat": 0.0, "bike_id": "06774fee0ca4f2231ffb8bf49c497c7c", "rental_uris": {"ios": "https://dc.lft.to/lastmile_qr_scan", "android": "https://dc.lft.to/lastmile_qr_scan"}}, {"name": "017dae53b6f9a4c76622a44f338b5781", "type": "electric_scooter", "lat": 38.892237333333334, "is_reserved": 0, "lon": -77.046428, "fusion_lon": 0.0, "is_disabled": 0, "fusion_lat": 0.0, "bike_id": "017dae53b6f9a4c76622a44f338b5781", "rental_uris": {"ios": "https://dc.lft.to/lastmile_qr_scan", "android": "https://dc.lft.to/lastmile_qr_scan"}}, {"name": "df4466d26349592120d236d0264a0477", "type": "electric_scooter", "lat": 38.91270766666667, "is_reserved": 0, "lon": -77.03543316666666, "fusion_lon": 0.0, "is_disabled": 0, "fusion_lat": 0.0, "bike_id": "df4466d26349592120d236d0264a0477", "rental_uris": {"ios": "https://dc.lft.to/lastmile_qr_scan", "android": "https://dc.lft.to/lastmile_qr_scan"}}, {"name": "9c192f86253b691a318f870c65840d00", "type": "electric_scooter", "lat": 38.935450833333334, "is_reserved": 0, "lon": -77.034575, "fusion_lon": 0.0, "is_disabled": 0, "fusion_lat": 0.0, "bike_id": "9c192f86253b691a318f870c65840d00", "rental_uris": {"ios": "https://dc.lft.to/lastmile_qr_scan", "android": "https://dc.lft.to/lastmile_qr_scan"}}, {"name": "30993b941ac3ddd56061a35b3a9a48b5", "type": "electric_bike", "lat": 38.928517, "is_reserved": 0, "lon": -77.10679983333333, "fusion_lon": 0.0, "is_disabled": 0, "fusion_lat": 0.0, "bike_id": "30993b941ac3ddd56061a35b3a9a48b5", "rental_uris": {"ios": "https://dc.lft.to/lastmile_qr_scan", "android": "https://dc.lft.to/lastmile_qr_scan"}}, {"name": "de8b06b5c20dc75c28ca6777338fff01", "type": "electric_scooter", "lat": 38.8948035, "is_reserved": 0, "lon": -77.01090366666666, "fusion_lon": 0.0, "is_disabled": 0, "fusion_lat": 0.0, "bike_id": "de8b06b5c20dc75c28ca6777338fff01", "rental_uris": {"ios": "https://dc.lft.to/lastmile_qr_scan", "android": "https://dc.lft.to/lastmile_qr_scan"}}, {"name": "7833a0a63bdb0c5ca990e2128479dbaa", "type": "electric_scooter", "lat": 38.92562016666667, "is_reserved": 0, "lon": -77.062858, "fusion_lon": 0.0, "is_disabled": 0, "fusion_lat": 0.0, "bike_id": "7833a0a63bdb0c5ca990e2128479dbaa", "rental_uris": {"ios": "https://dc.lft.to/lastmile_qr_scan", "android": "https://dc.lft.to/lastmile_qr_scan"}}, {"name": "25d5a857a48d610b4762b74a9c1d5486", "type": "electric_scooter", "lat": 38.89220233333333, "is_reserved": 0, "lon": -77.04259, "fusion_lon": 0.0, "is_disabled": 0, "fusion_lat": 0.0, "bike_id": "25d5a857a48d610b4762b74a9c1d5486", "rental_uris": {"ios": "https://dc.lft.to/lastmile_qr_scan", "android": "https://dc.lft.to/lastmile_qr_scan"}}, {"name": "c2b18229ef03e1cd98bf238fcb8c9835", "type": "electric_scooter", "lat": 38.930615, "is_reserved": 0, "lon": -77.02316383333333, "fusion_lon": 0.0, "is_disabled": 0, "fusion_lat": 0.0, "bike_id": "c2b18229ef03e1cd98bf238fcb8c9835", "rental_uris": {"ios": "https://dc.lft.to/lastmile_qr_scan", "android": "https://dc.lft.to/lastmile_qr_scan"}}, {"name": "b3cf3f481943cd62f4f072e0d212de9b", "type": "electric_scooter", "lat": 38.863682, "is_reserved": 0, "lon": -77.013679, "fusion_lon": 0.0, "is_disabled": 0, "fusion_lat": 0.0, "bike_id": "b3cf3f481943cd62f4f072e0d212de9b", "rental_uris": {"ios": "https://dc.lft.to/lastmile_qr_scan", "android": "https://dc.lft.to/lastmile_qr_scan"}}, {"name": "29037a19493b3517dbe065bda57a6f68", "type": "electric_scooter", "lat": 38.90187433333333, "is_reserved": 0, "lon": -77.02192333333333, "fusion_lon": 0.0, "is_disabled": 0, "fusion_lat": 0.0, "bike_id": "29037a19493b3517dbe065bda57a6f68", "rental_uris": {"ios": "https://dc.lft.to/lastmile_qr_scan", "android": "https://dc.lft.to/lastmile_qr_scan"}}, {"name": "0535ad495c5ad5109d164bd821971e9c", "type": "electric_scooter", "lat": 38.92406366666667, "is_reserved": 0, "lon": -77.0563185, "fusion_lon": 0.0, "is_disabled": 0, "fusion_lat": 0.0, "bike_id": "0535ad495c5ad5109d164bd821971e9c", "rental_uris": {"ios": "https://dc.lft.to/lastmile_qr_scan", "android": "https://dc.lft.to/lastmile_qr_scan"}}, {"name": "7e60af446d63984de3a2852e61eb79af", "type": "electric_scooter", "lat": 38.883508166666665, "is_reserved": 0, "lon": -76.9493895, "fusion_lon": 0.0, "is_disabled": 0, "fusion_lat": 0.0, "bike_id": "7e60af446d63984de3a2852e61eb79af", "rental_uris": {"ios": "https://dc.lft.to/lastmile_qr_scan", "android": "https://dc.lft.to/lastmile_qr_scan"}}, {"name": "cc1dbf43f81bdb47f4c74add1d7a6ba1", "type": "electric_scooter", "lat": 38.92487233333333, "is_reserved": 0, "lon": -77.02714, "fusion_lon": 0.0, "is_disabled": 0, "fusion_lat": 0.0, "bike_id": "cc1dbf43f81bdb47f4c74add1d7a6ba1", "rental_uris": {"ios": "https://dc.lft.to/lastmile_qr_scan", "android": "https://dc.lft.to/lastmile_qr_scan"}}, {"name": "548a7949a0d02ecd788c62b708306e19", "type": "electric_scooter", "lat": 38.9215855, "is_reserved": 0, "lon": -77.0403895, "fusion_lon": 0.0, "is_disabled": 0, "fusion_lat": 0.0, "bike_id": "548a7949a0d02ecd788c62b708306e19", "rental_uris": {"ios": "https://dc.lft.to/lastmile_qr_scan", "android": "https://dc.lft.to/lastmile_qr_scan"}}, {"name": "4bc5f66f52f8b96322fb719600dbffdc", "type": "electric_scooter", "lat": 38.907332333333336, "is_reserved": 0, "lon": -77.041783, "fusion_lon": 0.0, "is_disabled": 0, "fusion_lat": 0.0, "bike_id": "4bc5f66f52f8b96322fb719600dbffdc", "rental_uris": {"ios": "https://dc.lft.to/lastmile_qr_scan", "android": "https://dc.lft.to/lastmile_qr_scan"}}, {"name": "329377a736d30542e13111038cbaceec", "type": "electric_scooter", "lat": 38.932818, "is_reserved": 0, "lon": -77.03977166666667, "fusion_lon": 0.0, "is_disabled": 0, "fusion_lat": 0.0, "bike_id": "329377a736d30542e13111038cbaceec", "rental_uris": {"ios": "https://dc.lft.to/lastmile_qr_scan", "android": "https://dc.lft.to/lastmile_qr_scan"}}, {"name": "5193ac02a964f74cd8359a0633490f32", "type": "electric_scooter", "lat": 38.892351166666664, "is_reserved": 0, "lon": -77.015313, "fusion_lon": 0.0, "is_disabled": 0, "fusion_lat": 0.0, "bike_id": "5193ac02a964f74cd8359a0633490f32", "rental_uris": {"ios": "https://dc.lft.to/lastmile_qr_scan", "android": "https://dc.lft.to/lastmile_qr_scan"}}, {"name": "92f53ec7be4af0740f846ff1d7e65a23", "type": "electric_scooter", "lat": 38.908402, "is_reserved": 0, "lon": -77.02694666666666, "fusion_lon": 0.0, "is_disabled": 0, "fusion_lat": 0.0, "bike_id": "92f53ec7be4af0740f846ff1d7e65a23", "rental_uris": {"ios": "https://dc.lft.to/lastmile_qr_scan", "android": "https://dc.lft.to/lastmile_qr_scan"}}, {"name": "9785fd5fd76d318c933cec5eeb84a250", "type": "electric_scooter", "lat": 38.865210166666664, "is_reserved": 0, "lon": -76.99027866666667, "fusion_lon": 0.0, "is_disabled": 0, "fusion_lat": 0.0, "bike_id": "9785fd5fd76d318c933cec5eeb84a250", "rental_uris": {"ios": "https://dc.lft.to/lastmile_qr_scan", "android": "https://dc.lft.to/lastmile_qr_scan"}}, {"name": "2b2b90911b775fdaafc6910906b8b294", "type": "electric_scooter", "lat": 38.89737866666667, "is_reserved": 0, "lon": -76.938439, "fusion_lon": 0.0, "is_disabled": 0, "fusion_lat": 0.0, "bike_id": "2b2b90911b775fdaafc6910906b8b294", "rental_uris": {"ios": "https://dc.lft.to/lastmile_qr_scan", "android": "https://dc.lft.to/lastmile_qr_scan"}}, {"name": "eced3d34a4e95472e06e70b01efe596f", "type": "electric_scooter", "lat": 38.9068805, "is_reserved": 0, "lon": -77.03821016666667, "fusion_lon": 0.0, "is_disabled": 0, "fusion_lat": 0.0, "bike_id": "eced3d34a4e95472e06e70b01efe596f", "rental_uris": {"ios": "https://dc.lft.to/lastmile_qr_scan", "android": "https://dc.lft.to/lastmile_qr_scan"}}, {"name": "dea9863837fcc30f56b8ccac7060ae48", "type": "electric_scooter", "lat": 38.8868675, "is_reserved": 0, "lon": -76.9575625, "fusion_lon": 0.0, "is_disabled": 0, "fusion_lat": 0.0, "bike_id": "dea9863837fcc30f56b8ccac7060ae48", "rental_uris": {"ios": "https://dc.lft.to/lastmile_qr_scan", "android": "https://dc.lft.to/lastmile_qr_scan"}}, {"name": "86bb7801fba62d1365270c38b25ad0f0", "type": "electric_scooter", "lat": 38.894553, "is_reserved": 0, "lon": -77.0191855, "fusion_lon": 0.0, "is_disabled": 0, "fusion_lat": 0.0, "bike_id": "86bb7801fba62d1365270c38b25ad0f0", "rental_uris": {"ios": "https://dc.lft.to/lastmile_qr_scan", "android": "https://dc.lft.to/lastmile_qr_scan"}}, {"name": "cbf4605df228cff5089928e418396dd0", "type": "electric_scooter", "lat": 38.876285, "is_reserved": 0, "lon": -76.96529316666667, "fusion_lon": 0.0, "is_disabled": 0, "fusion_lat": 0.0, "bike_id": "cbf4605df228cff5089928e418396dd0", "rental_uris": {"ios": "https://dc.lft.to/lastmile_qr_scan", "android": "https://dc.lft.to/lastmile_qr_scan"}}, {"name": "098ec6e402c38ccb9494208be66451e4", "type": "electric_bike", "lat": 38.838202833333334, "is_reserved": 0, "lon": -76.99681733333334, "fusion_lon": 0.0, "is_disabled": 0, "fusion_lat": 0.0, "bike_id": "098ec6e402c38ccb9494208be66451e4", "rental_uris": {"ios": "https://dc.lft.to/lastmile_qr_scan", "android": "https://dc.lft.to/lastmile_qr_scan"}}, {"name": "b088b4129073c8b680c7379f97e3cd4e", "type": "electric_scooter", "lat": 38.930916, "is_reserved": 0, "lon": -77.025399, "fusion_lon": 0.0, "is_disabled": 0, "fusion_lat": 0.0, "bike_id": "b088b4129073c8b680c7379f97e3cd4e", "rental_uris": {"ios": "https://dc.lft.to/lastmile_qr_scan", "android": "https://dc.lft.to/lastmile_qr_scan"}}, {"name": "a1edd092846297324ebd9d7b3ebdbb4f", "type": "electric_scooter", "lat": 38.92355583333333, "is_reserved": 0, "lon": -77.05314683333333, "fusion_lon": 0.0, "is_disabled": 0, "fusion_lat": 0.0, "bike_id": "a1edd092846297324ebd9d7b3ebdbb4f", "rental_uris": {"ios": "https://dc.lft.to/lastmile_qr_scan", "android": "https://dc.lft.to/lastmile_qr_scan"}}, {"name": "6ad91c2fae42101f87eb4ccbf2736bf9", "type": "electric_bike", "lat": 38.879770666666666, "is_reserved": 0, "lon": -76.91599066666667, "fusion_lon": 0.0, "is_disabled": 0, "fusion_lat": 0.0, "bike_id": "6ad91c2fae42101f87eb4ccbf2736bf9", "rental_uris": {"ios": "https://dc.lft.to/lastmile_qr_scan", "android": "https://dc.lft.to/lastmile_qr_scan"}}, {"name": "f5d8adaade2908c59bfaf3299c1ba898", "type": "electric_scooter", "lat": 38.91708833333333, "is_reserved": 0, "lon": -77.02300733333334, "fusion_lon": 0.0, "is_disabled": 0, "fusion_lat": 0.0, "bike_id": "f5d8adaade2908c59bfaf3299c1ba898", "rental_uris": {"ios": "https://dc.lft.to/lastmile_qr_scan", "android": "https://dc.lft.to/lastmile_qr_scan"}}, {"name": "adf33cd8ca7e4c1aa67007ce9b25d685", "type": "electric_scooter", "lat": 38.90372883333333, "is_reserved": 0, "lon": -77.01632983333333, "fusion_lon": 0.0, "is_disabled": 0, "fusion_lat": 0.0, "bike_id": "adf33cd8ca7e4c1aa67007ce9b25d685", "rental_uris": {"ios": "https://dc.lft.to/lastmile_qr_scan", "android": "https://dc.lft.to/lastmile_qr_scan"}}, {"name": "a42efdbd357e430d0b6ece6fe21091e2", "type": "electric_bike", "lat": 38.82442733333333, "is_reserved": 0, "lon": -77.07045716666667, "fusion_lon": 0.0, "is_disabled": 0, "fusion_lat": 0.0, "bike_id": "a42efdbd357e430d0b6ece6fe21091e2", "rental_uris": {"ios": "https://dc.lft.to/lastmile_qr_scan", "android": "https://dc.lft.to/lastmile_qr_scan"}}, {"name": "b7bcb6574609013a1e98e9efe27d9045", "type": "electric_bike", "lat": 38.918539833333334, "is_reserved": 0, "lon": -76.96088366666666, "fusion_lon": 0.0, "is_disabled": 0, "fusion_lat": 0.0, "bike_id": "b7bcb6574609013a1e98e9efe27d9045", "rental_uris": {"ios": "https://dc.lft.to/lastmile_qr_scan", "android": "https://dc.lft.to/lastmile_qr_scan"}}, {"name": "7108e8ada5d8fa28d4d145d36cba71cc", "type": "electric_scooter", "lat": 38.899155, "is_reserved": 0, "lon": -76.9338345, "fusion_lon": 0.0, "is_disabled": 0, "fusion_lat": 0.0, "bike_id": "7108e8ada5d8fa28d4d145d36cba71cc", "rental_uris": {"ios": "https://dc.lft.to/lastmile_qr_scan", "android": "https://dc.lft.to/lastmile_qr_scan"}}, {"name": "922472d78270b56baafe63352c614c2a", "type": "electric_bike", "lat": 38.90665933333333, "is_reserved": 0, "lon": -76.99959683333333, "fusion_lon": 0.0, "is_disabled": 0, "fusion_lat": 0.0, "bike_id": "922472d78270b56baafe63352c614c2a", "rental_uris": {"ios": "https://dc.lft.to/lastmile_qr_scan", "android": "https://dc.lft.to/lastmile_qr_scan"}}, {"name": "ee2cffd897d4bff6ec7bb4eb11d2b029", "type": "electric_scooter", "lat": 38.9224315, "is_reserved": 0, "lon": -77.04140833333334, "fusion_lon": 0.0, "is_disabled": 0, "fusion_lat": 0.0, "bike_id": "ee2cffd897d4bff6ec7bb4eb11d2b029", "rental_uris": {"ios": "https://dc.lft.to/lastmile_qr_scan", "android": "https://dc.lft.to/lastmile_qr_scan"}}, {"name": "cca1daf3eaea00d84255d02905229222", "type": "electric_bike", "lat": 38.92151583333333, "is_reserved": 0, "lon": -77.0349405, "fusion_lon": 0.0, "is_disabled": 0, "fusion_lat": 0.0, "bike_id": "cca1daf3eaea00d84255d02905229222", "rental_uris": {"ios": "https://dc.lft.to/lastmile_qr_scan", "android": "https://dc.lft.to/lastmile_qr_scan"}}, {"name": "533e14d87b196bba03d5c02b89e6dbab", "type": "electric_scooter", "lat": 38.92317466666667, "is_reserved": 0, "lon": -77.0448195, "fusion_lon": 0.0, "is_disabled": 0, "fusion_lat": 0.0, "bike_id": "533e14d87b196bba03d5c02b89e6dbab", "rental_uris": {"ios": "https://dc.lft.to/lastmile_qr_scan", "android": "https://dc.lft.to/lastmile_qr_scan"}}, {"name": "5f0b73eb45cc9cbbbc1a7ff3c0a9d6b3", "type": "electric_scooter", "lat": 38.8924795, "is_reserved": 0, "lon": -77.03182266666667, "fusion_lon": 0.0, "is_disabled": 0, "fusion_lat": 0.0, "bike_id": "5f0b73eb45cc9cbbbc1a7ff3c0a9d6b3", "rental_uris": {"ios": "https://dc.lft.to/lastmile_qr_scan", "android": "https://dc.lft.to/lastmile_qr_scan"}}, {"name": "5d4e9c87c3bdd6877e7abccee29c1f11", "type": "electric_scooter", "lat": 38.90896383333333, "is_reserved": 0, "lon": -77.08664616666667, "fusion_lon": 0.0, "is_disabled": 0, "fusion_lat": 0.0, "bike_id": "5d4e9c87c3bdd6877e7abccee29c1f11", "rental_uris": {"ios": "https://dc.lft.to/lastmile_qr_scan", "android": "https://dc.lft.to/lastmile_qr_scan"}}, {"name": "e2fc5abd0bfc3783fc00fd4364c1bdf6", "type": "electric_scooter", "lat": 38.932511833333336, "is_reserved": 0, "lon": -77.03280333333333, "fusion_lon": 0.0, "is_disabled": 0, "fusion_lat": 0.0, "bike_id": "e2fc5abd0bfc3783fc00fd4364c1bdf6", "rental_uris": {"ios": "https://dc.lft.to/lastmile_qr_scan", "android": "https://dc.lft.to/lastmile_qr_scan"}}, {"name": "b56d74f65d64d57f15d287398cda69f1", "type": "electric_scooter", "lat": 38.90640966666667, "is_reserved": 0, "lon": -76.98569183333333, "fusion_lon": 0.0, "is_disabled": 0, "fusion_lat": 0.0, "bike_id": "b56d74f65d64d57f15d287398cda69f1", "rental_uris": {"ios": "https://dc.lft.to/lastmile_qr_scan", "android": "https://dc.lft.to/lastmile_qr_scan"}}, {"name": "bce85e12bb4e9d5f64ac00187746d3e5", "type": "electric_scooter", "lat": 38.927192, "is_reserved": 0, "lon": -77.03076616666667, "fusion_lon": 0.0, "is_disabled": 0, "fusion_lat": 0.0, "bike_id": "bce85e12bb4e9d5f64ac00187746d3e5", "rental_uris": {"ios": "https://dc.lft.to/lastmile_qr_scan", "android": "https://dc.lft.to/lastmile_qr_scan"}}, {"name": "21a0d3a8d1012f127501223975a8b4ef", "type": "electric_scooter", "lat": 38.921707833333336, "is_reserved": 0, "lon": -77.04025116666666, "fusion_lon": 0.0, "is_disabled": 0, "fusion_lat": 0.0, "bike_id": "21a0d3a8d1012f127501223975a8b4ef", "rental_uris": {"ios": "https://dc.lft.to/lastmile_qr_scan", "android": "https://dc.lft.to/lastmile_qr_scan"}}, {"name": "99ddfce16d413700d2dc0d9426b9d292", "type": "electric_scooter", "lat": 38.918033, "is_reserved": 0, "lon": -77.03442966666667, "fusion_lon": 0.0, "is_disabled": 0, "fusion_lat": 0.0, "bike_id": "99ddfce16d413700d2dc0d9426b9d292", "rental_uris": {"ios": "https://dc.lft.to/lastmile_qr_scan", "android": "https://dc.lft.to/lastmile_qr_scan"}}, {"name": "83f33e6aea2e5503c49531258a10d17e", "type": "electric_bike", "lat": 38.8636725, "is_reserved": 0, "lon": -76.97006533333334, "fusion_lon": 0.0, "is_disabled": 0, "fusion_lat": 0.0, "bike_id": "83f33e6aea2e5503c49531258a10d17e", "rental_uris": {"ios": "https://dc.lft.to/lastmile_qr_scan", "android": "https://dc.lft.to/lastmile_qr_scan"}}, {"name": "d4ab5ab34403da0aaffdc63a614e3332", "type": "electric_scooter", "lat": 38.91104083333333, "is_reserved": 0, "lon": -77.03620966666666, "fusion_lon": 0.0, "is_disabled": 0, "fusion_lat": 0.0, "bike_id": "d4ab5ab34403da0aaffdc63a614e3332", "rental_uris": {"ios": "https://dc.lft.to/lastmile_qr_scan", "android": "https://dc.lft.to/lastmile_qr_scan"}}, {"name": "283d814a13dcf321920476145e9af706", "type": "electric_scooter", "lat": 38.902858, "is_reserved": 0, "lon": -77.0592245, "fusion_lon": 0.0, "is_disabled": 0, "fusion_lat": 0.0, "bike_id": "283d814a13dcf321920476145e9af706", "rental_uris": {"ios": "https://dc.lft.to/lastmile_qr_scan", "android": "https://dc.lft.to/lastmile_qr_scan"}}, {"name": "e36e96a8cc5a8754395f8541911e47b6", "type": "electric_scooter", "lat": 38.90684916666667, "is_reserved": 0, "lon": -77.013443, "fusion_lon": 0.0, "is_disabled": 0, "fusion_lat": 0.0, "bike_id": "e36e96a8cc5a8754395f8541911e47b6", "rental_uris": {"ios": "https://dc.lft.to/lastmile_qr_scan", "android": "https://dc.lft.to/lastmile_qr_scan"}}, {"name": "510fbfa921e325650b3b0157d8488c9c", "type": "electric_scooter", "lat": 38.9325115, "is_reserved": 0, "lon": -77.03279983333333, "fusion_lon": 0.0, "is_disabled": 0, "fusion_lat": 0.0, "bike_id": "510fbfa921e325650b3b0157d8488c9c", "rental_uris": {"ios": "https://dc.lft.to/lastmile_qr_scan", "android": "https://dc.lft.to/lastmile_qr_scan"}}, {"name": "98875725fd6a86d2991b9108bd3767d9", "type": "electric_scooter", "lat": 38.915472, "is_reserved": 0, "lon": -77.0385805, "fusion_lon": 0.0, "is_disabled": 0, "fusion_lat": 0.0, "bike_id": "98875725fd6a86d2991b9108bd3767d9", "rental_uris": {"ios": "https://dc.lft.to/lastmile_qr_scan", "android": "https://dc.lft.to/lastmile_qr_scan"}}, {"name": "9e4f4e51dbc1e2e23d8079ce1ca88235", "type": "electric_scooter", "lat": 38.896308166666664, "is_reserved": 0, "lon": -77.02817133333333, "fusion_lon": 0.0, "is_disabled": 0, "fusion_lat": 0.0, "bike_id": "9e4f4e51dbc1e2e23d8079ce1ca88235", "rental_uris": {"ios": "https://dc.lft.to/lastmile_qr_scan", "android": "https://dc.lft.to/lastmile_qr_scan"}}, {"name": "caf0f7d8bca078614b5a5086bdbfac71", "type": "electric_scooter", "lat": 38.91243983333333, "is_reserved": 0, "lon": -77.00077083333333, "fusion_lon": 0.0, "is_disabled": 0, "fusion_lat": 0.0, "bike_id": "caf0f7d8bca078614b5a5086bdbfac71", "rental_uris": {"ios": "https://dc.lft.to/lastmile_qr_scan", "android": "https://dc.lft.to/lastmile_qr_scan"}}, {"name": "ab783a5311ecf4b1f56ff7736b8834b0", "type": "electric_scooter", "lat": 38.90646733333333, "is_reserved": 0, "lon": -77.01142166666666, "fusion_lon": 0.0, "is_disabled": 0, "fusion_lat": 0.0, "bike_id": "ab783a5311ecf4b1f56ff7736b8834b0", "rental_uris": {"ios": "https://dc.lft.to/lastmile_qr_scan", "android": "https://dc.lft.to/lastmile_qr_scan"}}, {"name": "9566ae0d10ca198aee67c05cf94cd51f", "type": "electric_scooter", "lat": 38.902643833333336, "is_reserved": 0, "lon": -77.0317135, "fusion_lon": 0.0, "is_disabled": 0, "fusion_lat": 0.0, "bike_id": "9566ae0d10ca198aee67c05cf94cd51f", "rental_uris": {"ios": "https://dc.lft.to/lastmile_qr_scan", "android": "https://dc.lft.to/lastmile_qr_scan"}}, {"name": "389db014194b02196f411bef07b57117", "type": "electric_scooter", "lat": 38.90851083333333, "is_reserved": 0, "lon": -77.04408783333334, "fusion_lon": 0.0, "is_disabled": 0, "fusion_lat": 0.0, "bike_id": "389db014194b02196f411bef07b57117", "rental_uris": {"ios": "https://dc.lft.to/lastmile_qr_scan", "android": "https://dc.lft.to/lastmile_qr_scan"}}, {"name": "4fe72240ccfab7ca6aea24d8f8f264ed", "type": "electric_scooter", "lat": 38.8922115, "is_reserved": 0, "lon": -77.04261516666666, "fusion_lon": 0.0, "is_disabled": 0, "fusion_lat": 0.0, "bike_id": "4fe72240ccfab7ca6aea24d8f8f264ed", "rental_uris": {"ios": "https://dc.lft.to/lastmile_qr_scan", "android": "https://dc.lft.to/lastmile_qr_scan"}}, {"name": "c67d03db14cb123f5ff5e225f715237d", "type": "electric_scooter", "lat": 38.9223895, "is_reserved": 0, "lon": -77.01002666666666, "fusion_lon": 0.0, "is_disabled": 0, "fusion_lat": 0.0, "bike_id": "c67d03db14cb123f5ff5e225f715237d", "rental_uris": {"ios": "https://dc.lft.to/lastmile_qr_scan", "android": "https://dc.lft.to/lastmile_qr_scan"}}, {"name": "60407fe07150f8e519237eed780e45e8", "type": "electric_bike", "lat": 38.8690895, "is_reserved": 0, "lon": -77.13176216666666, "fusion_lon": 0.0, "is_disabled": 0, "fusion_lat": 0.0, "bike_id": "60407fe07150f8e519237eed780e45e8", "rental_uris": {"ios": "https://dc.lft.to/lastmile_qr_scan", "android": "https://dc.lft.to/lastmile_qr_scan"}}, {"name": "5dab932fb210a948892ba472f4bacfc7", "type": "electric_scooter", "lat": 38.90654283333333, "is_reserved": 0, "lon": -77.03853733333334, "fusion_lon": 0.0, "is_disabled": 0, "fusion_lat": 0.0, "bike_id": "5dab932fb210a948892ba472f4bacfc7", "rental_uris": {"ios": "https://dc.lft.to/lastmile_qr_scan", "android": "https://dc.lft.to/lastmile_qr_scan"}}, {"name": "3f5313ac06d4e3fd5605b4c52c573ea6", "type": "electric_scooter", "lat": 38.88216833333333, "is_reserved": 0, "lon": -76.941785, "fusion_lon": 0.0, "is_disabled": 0, "fusion_lat": 0.0, "bike_id": "3f5313ac06d4e3fd5605b4c52c573ea6", "rental_uris": {"ios": "https://dc.lft.to/lastmile_qr_scan", "android": "https://dc.lft.to/lastmile_qr_scan"}}, {"name": "0471384ea0bf3f029cdd28ab2860ff6a", "type": "electric_scooter", "lat": 38.922149, "is_reserved": 0, "lon": -77.04252133333334, "fusion_lon": 0.0, "is_disabled": 0, "fusion_lat": 0.0, "bike_id": "0471384ea0bf3f029cdd28ab2860ff6a", "rental_uris": {"ios": "https://dc.lft.to/lastmile_qr_scan", "android": "https://dc.lft.to/lastmile_qr_scan"}}, {"name": "00adfeb2fbbf3bde7df533b690dd2a1b", "type": "electric_scooter", "lat": 38.905574666666666, "is_reserved": 0, "lon": -77.00576016666666, "fusion_lon": 0.0, "is_disabled": 0, "fusion_lat": 0.0, "bike_id": "00adfeb2fbbf3bde7df533b690dd2a1b", "rental_uris": {"ios": "https://dc.lft.to/lastmile_qr_scan", "android": "https://dc.lft.to/lastmile_qr_scan"}}, {"name": "b5b15c4640772380c869d72da8be0764", "type": "electric_scooter", "lat": 38.90266783333333, "is_reserved": 0, "lon": -77.03188483333334, "fusion_lon": 0.0, "is_disabled": 0, "fusion_lat": 0.0, "bike_id": "b5b15c4640772380c869d72da8be0764", "rental_uris": {"ios": "https://dc.lft.to/lastmile_qr_scan", "android": "https://dc.lft.to/lastmile_qr_scan"}}, {"name": "aa3c2e0d588fe6906a3692091928c1d5", "type": "electric_scooter", "lat": 38.929719, "is_reserved": 0, "lon": -77.02334083333334, "fusion_lon": 0.0, "is_disabled": 0, "fusion_lat": 0.0, "bike_id": "aa3c2e0d588fe6906a3692091928c1d5", "rental_uris": {"ios": "https://dc.lft.to/lastmile_qr_scan", "android": "https://dc.lft.to/lastmile_qr_scan"}}, {"name": "f8676dd41fb90843557e462e7f9e8217", "type": "electric_scooter", "lat": 38.907241, "is_reserved": 0, "lon": -77.01134316666666, "fusion_lon": 0.0, "is_disabled": 0, "fusion_lat": 0.0, "bike_id": "f8676dd41fb90843557e462e7f9e8217", "rental_uris": {"ios": "https://dc.lft.to/lastmile_qr_scan", "android": "https://dc.lft.to/lastmile_qr_scan"}}, {"name": "358c6abba690eb0725ad7e65e1a1e8cd", "type": "electric_scooter", "lat": 38.903275, "is_reserved": 0, "lon": -76.989631, "fusion_lon": 0.0, "is_disabled": 0, "fusion_lat": 0.0, "bike_id": "358c6abba690eb0725ad7e65e1a1e8cd", "rental_uris": {"ios": "https://dc.lft.to/lastmile_qr_scan", "android": "https://dc.lft.to/lastmile_qr_scan"}}, {"name": "65b9afc8d515077d88317b0b4e31c3e0", "type": "electric_scooter", "lat": 38.92159566666667, "is_reserved": 0, "lon": -77.03382983333333, "fusion_lon": 0.0, "is_disabled": 0, "fusion_lat": 0.0, "bike_id": "65b9afc8d515077d88317b0b4e31c3e0", "rental_uris": {"ios": "https://dc.lft.to/lastmile_qr_scan", "android": "https://dc.lft.to/lastmile_qr_scan"}}, {"name": "e51691ad397e53ef2c17140846763e61", "type": "electric_scooter", "lat": 38.88609016666667, "is_reserved": 0, "lon": -76.9950745, "fusion_lon": 0.0, "is_disabled": 0, "fusion_lat": 0.0, "bike_id": "e51691ad397e53ef2c17140846763e61", "rental_uris": {"ios": "https://dc.lft.to/lastmile_qr_scan", "android": "https://dc.lft.to/lastmile_qr_scan"}}, {"name": "f17aea0bb4aa89dfa7a19f6121e5ed68", "type": "electric_scooter", "lat": 38.9398245, "is_reserved": 0, "lon": -77.02596133333333, "fusion_lon": 0.0, "is_disabled": 0, "fusion_lat": 0.0, "bike_id": "f17aea0bb4aa89dfa7a19f6121e5ed68", "rental_uris": {"ios": "https://dc.lft.to/lastmile_qr_scan", "android": "https://dc.lft.to/lastmile_qr_scan"}}, {"name": "ec3898f3927dac6f017c129ab4e233c1", "type": "electric_bike", "lat": 38.842758333333336, "is_reserved": 0, "lon": -76.98841966666667, "fusion_lon": 0.0, "is_disabled": 0, "fusion_lat": 0.0, "bike_id": "ec3898f3927dac6f017c129ab4e233c1", "rental_uris": {"ios": "https://dc.lft.to/lastmile_qr_scan", "android": "https://dc.lft.to/lastmile_qr_scan"}}, {"name": "3e3d2b8b3c12841e0f2cd1b1754a164c", "type": "electric_scooter", "lat": 38.9156755, "is_reserved": 0, "lon": -77.02193683333333, "fusion_lon": 0.0, "is_disabled": 0, "fusion_lat": 0.0, "bike_id": "3e3d2b8b3c12841e0f2cd1b1754a164c", "rental_uris": {"ios": "https://dc.lft.to/lastmile_qr_scan", "android": "https://dc.lft.to/lastmile_qr_scan"}}, {"name": "9252cb23af8cc605f91d966e6b121e5f", "type": "electric_scooter", "lat": 38.914906, "is_reserved": 0, "lon": -77.0391815, "fusion_lon": 0.0, "is_disabled": 0, "fusion_lat": 0.0, "bike_id": "9252cb23af8cc605f91d966e6b121e5f", "rental_uris": {"ios": "https://dc.lft.to/lastmile_qr_scan", "android": "https://dc.lft.to/lastmile_qr_scan"}}, {"name": "c74ad3968e42830f05a3d567c791e541", "type": "electric_scooter", "lat": 38.905883833333334, "is_reserved": 0, "lon": -77.01613216666667, "fusion_lon": 0.0, "is_disabled": 0, "fusion_lat": 0.0, "bike_id": "c74ad3968e42830f05a3d567c791e541", "rental_uris": {"ios": "https://dc.lft.to/lastmile_qr_scan", "android": "https://dc.lft.to/lastmile_qr_scan"}}, {"name": "9082cd621a7e61243aa77878f3d4c5c8", "type": "electric_scooter", "lat": 38.9146, "is_reserved": 0, "lon": -77.03846366666667, "fusion_lon": 0.0, "is_disabled": 0, "fusion_lat": 0.0, "bike_id": "9082cd621a7e61243aa77878f3d4c5c8", "rental_uris": {"ios": "https://dc.lft.to/lastmile_qr_scan", "android": "https://dc.lft.to/lastmile_qr_scan"}}, {"name": "80692c4cd97d30c8a8a84d8b208a1ea8", "type": "electric_scooter", "lat": 38.9002855, "is_reserved": 0, "lon": -77.01161083333334, "fusion_lon": 0.0, "is_disabled": 0, "fusion_lat": 0.0, "bike_id": "80692c4cd97d30c8a8a84d8b208a1ea8", "rental_uris": {"ios": "https://dc.lft.to/lastmile_qr_scan", "android": "https://dc.lft.to/lastmile_qr_scan"}}, {"name": "136e563ed63e45ff6e63ffdb126c7933", "type": "electric_bike", "lat": 38.880436333333336, "is_reserved": 0, "lon": -77.01325766666666, "fusion_lon": 0.0, "is_disabled": 0, "fusion_lat": 0.0, "bike_id": "136e563ed63e45ff6e63ffdb126c7933", "rental_uris": {"ios": "https://dc.lft.to/lastmile_qr_scan", "android": "https://dc.lft.to/lastmile_qr_scan"}}, {"name": "7fcbdfeda9c71228288ab1f81b21c20c", "type": "electric_scooter", "lat": 38.898015666666666, "is_reserved": 0, "lon": -77.03294816666667, "fusion_lon": 0.0, "is_disabled": 0, "fusion_lat": 0.0, "bike_id": "7fcbdfeda9c71228288ab1f81b21c20c", "rental_uris": {"ios": "https://dc.lft.to/lastmile_qr_scan", "android": "https://dc.lft.to/lastmile_qr_scan"}}, {"name": "252ea39b9982eb605e3fa95c76476877", "type": "electric_bike", "lat": 38.83931716666667, "is_reserved": 0, "lon": -77.0790825, "fusion_lon": 0.0, "is_disabled": 0, "fusion_lat": 0.0, "bike_id": "252ea39b9982eb605e3fa95c76476877", "rental_uris": {"ios": "https://dc.lft.to/lastmile_qr_scan", "android": "https://dc.lft.to/lastmile_qr_scan"}}, {"name": "0aaca4f2777480202cae8b4693f9dc05", "type": "electric_scooter", "lat": 38.911163, "is_reserved": 0, "lon": -77.03477633333334, "fusion_lon": 0.0, "is_disabled": 0, "fusion_lat": 0.0, "bike_id": "0aaca4f2777480202cae8b4693f9dc05", "rental_uris": {"ios": "https://dc.lft.to/lastmile_qr_scan", "android": "https://dc.lft.to/lastmile_qr_scan"}}, {"name": "efc80d0e31410d3a3c5645700578e1cc", "type": "electric_scooter", "lat": 38.903426333333336, "is_reserved": 0, "lon": -77.03375083333333, "fusion_lon": 0.0, "is_disabled": 0, "fusion_lat": 0.0, "bike_id": "efc80d0e31410d3a3c5645700578e1cc", "rental_uris": {"ios": "https://dc.lft.to/lastmile_qr_scan", "android": "https://dc.lft.to/lastmile_qr_scan"}}, {"name": "3ebf564e2e3d0935b3164604b5130fc8", "type": "electric_scooter", "lat": 38.8988155, "is_reserved": 0, "lon": -76.93175016666666, "fusion_lon": 0.0, "is_disabled": 0, "fusion_lat": 0.0, "bike_id": "3ebf564e2e3d0935b3164604b5130fc8", "rental_uris": {"ios": "https://dc.lft.to/lastmile_qr_scan", "android": "https://dc.lft.to/lastmile_qr_scan"}}, {"name": "cd0bf46b4d3a1818c0ba8680f3b1d447", "type": "electric_bike", "lat": 38.94271066666667, "is_reserved": 0, "lon": -76.98073316666667, "fusion_lon": 0.0, "is_disabled": 0, "fusion_lat": 0.0, "bike_id": "cd0bf46b4d3a1818c0ba8680f3b1d447", "rental_uris": {"ios": "https://dc.lft.to/lastmile_qr_scan", "android": "https://dc.lft.to/lastmile_qr_scan"}}, {"name": "9f5781b781b64236ccb14451444e5eea", "type": "electric_scooter", "lat": 38.928797, "is_reserved": 0, "lon": -77.03735866666666, "fusion_lon": 0.0, "is_disabled": 0, "fusion_lat": 0.0, "bike_id": "9f5781b781b64236ccb14451444e5eea", "rental_uris": {"ios": "https://dc.lft.to/lastmile_qr_scan", "android": "https://dc.lft.to/lastmile_qr_scan"}}, {"name": "844ea91260814b68d8db67eab81a64af", "type": "electric_scooter", "lat": 38.9275325, "is_reserved": 0, "lon": -77.02416966666667, "fusion_lon": 0.0, "is_disabled": 0, "fusion_lat": 0.0, "bike_id": "844ea91260814b68d8db67eab81a64af", "rental_uris": {"ios": "https://dc.lft.to/lastmile_qr_scan", "android": "https://dc.lft.to/lastmile_qr_scan"}}, {"name": "9ba74ec1c633e992cfcf383cfad37612", "type": "electric_scooter", "lat": 38.916377833333335, "is_reserved": 0, "lon": -77.04627116666667, "fusion_lon": 0.0, "is_disabled": 0, "fusion_lat": 0.0, "bike_id": "9ba74ec1c633e992cfcf383cfad37612", "rental_uris": {"ios": "https://dc.lft.to/lastmile_qr_scan", "android": "https://dc.lft.to/lastmile_qr_scan"}}, {"name": "23f25907bd18387a4533c4b00ecbdfaa", "type": "electric_scooter", "lat": 38.893953, "is_reserved": 0, "lon": -76.99365383333334, "fusion_lon": 0.0, "is_disabled": 0, "fusion_lat": 0.0, "bike_id": "23f25907bd18387a4533c4b00ecbdfaa", "rental_uris": {"ios": "https://dc.lft.to/lastmile_qr_scan", "android": "https://dc.lft.to/lastmile_qr_scan"}}, {"name": "d9f64dfbad4a567182db56a95d1a6257", "type": "electric_scooter", "lat": 38.905232166666664, "is_reserved": 0, "lon": -77.066295, "fusion_lon": 0.0, "is_disabled": 0, "fusion_lat": 0.0, "bike_id": "d9f64dfbad4a567182db56a95d1a6257", "rental_uris": {"ios": "https://dc.lft.to/lastmile_qr_scan", "android": "https://dc.lft.to/lastmile_qr_scan"}}, {"name": "ab21213646cc0b9d3dd0258eccec4b03", "type": "electric_scooter", "lat": 38.94635266666667, "is_reserved": 0, "lon": -77.01923833333333, "fusion_lon": 0.0, "is_disabled": 0, "fusion_lat": 0.0, "bike_id": "ab21213646cc0b9d3dd0258eccec4b03", "rental_uris": {"ios": "https://dc.lft.to/lastmile_qr_scan", "android": "https://dc.lft.to/lastmile_qr_scan"}}, {"name": "0e80a6a77b91331b6f4828e8771b4593", "type": "electric_scooter", "lat": 38.927345333333335, "is_reserved": 0, "lon": -77.02987916666666, "fusion_lon": 0.0, "is_disabled": 0, "fusion_lat": 0.0, "bike_id": "0e80a6a77b91331b6f4828e8771b4593", "rental_uris": {"ios": "https://dc.lft.to/lastmile_qr_scan", "android": "https://dc.lft.to/lastmile_qr_scan"}}, {"name": "0ad55a4f94ec3e4efaffcc8bec9e092f", "type": "electric_bike", "lat": 38.874773833333336, "is_reserved": 0, "lon": -76.96528683333334, "fusion_lon": 0.0, "is_disabled": 0, "fusion_lat": 0.0, "bike_id": "0ad55a4f94ec3e4efaffcc8bec9e092f", "rental_uris": {"ios": "https://dc.lft.to/lastmile_qr_scan", "android": "https://dc.lft.to/lastmile_qr_scan"}}, {"name": "1f70eba1baf5f0f23151cab177ac1a2b", "type": "electric_bike", "lat": 38.89886966666667, "is_reserved": 0, "lon": -76.98383366666667, "fusion_lon": 0.0, "is_disabled": 0, "fusion_lat": 0.0, "bike_id": "1f70eba1baf5f0f23151cab177ac1a2b", "rental_uris": {"ios": "https://dc.lft.to/lastmile_qr_scan", "android": "https://dc.lft.to/lastmile_qr_scan"}}, {"name": "60a0f8ac91944ab917033fa90dfc68dc", "type": "electric_scooter", "lat": 38.905278333333335, "is_reserved": 0, "lon": -77.05001066666667, "fusion_lon": 0.0, "is_disabled": 0, "fusion_lat": 0.0, "bike_id": "60a0f8ac91944ab917033fa90dfc68dc", "rental_uris": {"ios": "https://dc.lft.to/lastmile_qr_scan", "android": "https://dc.lft.to/lastmile_qr_scan"}}, {"name": "7f214cf69edcfeafed556a6f7d338f50", "type": "electric_scooter", "lat": 38.91011533333333, "is_reserved": 0, "lon": -76.99388933333333, "fusion_lon": 0.0, "is_disabled": 0, "fusion_lat": 0.0, "bike_id": "7f214cf69edcfeafed556a6f7d338f50", "rental_uris": {"ios": "https://dc.lft.to/lastmile_qr_scan", "android": "https://dc.lft.to/lastmile_qr_scan"}}, {"name": "4f319fcd0ce7652de80210a6b0d97ff1", "type": "electric_scooter", "lat": 38.900695166666665, "is_reserved": 0, "lon": -77.01335716666667, "fusion_lon": 0.0, "is_disabled": 0, "fusion_lat": 0.0, "bike_id": "4f319fcd0ce7652de80210a6b0d97ff1", "rental_uris": {"ios": "https://dc.lft.to/lastmile_qr_scan", "android": "https://dc.lft.to/lastmile_qr_scan"}}, {"name": "7e2bf41d93298ff82502918299bfbdee", "type": "electric_scooter", "lat": 38.9393855, "is_reserved": 0, "lon": -77.01705816666667, "fusion_lon": 0.0, "is_disabled": 0, "fusion_lat": 0.0, "bike_id": "7e2bf41d93298ff82502918299bfbdee", "rental_uris": {"ios": "https://dc.lft.to/lastmile_qr_scan", "android": "https://dc.lft.to/lastmile_qr_scan"}}, {"name": "cc6211ded15df6f22c8b5c140ca977a1", "type": "electric_bike", "lat": 38.967516, "is_reserved": 0, "lon": -77.027909, "fusion_lon": 0.0, "is_disabled": 0, "fusion_lat": 0.0, "bike_id": "cc6211ded15df6f22c8b5c140ca977a1", "rental_uris": {"ios": "https://dc.lft.to/lastmile_qr_scan", "android": "https://dc.lft.to/lastmile_qr_scan"}}, {"name": "21830eedd24966322ec982234a5ecb9f", "type": "electric_scooter", "lat": 38.883162, "is_reserved": 0, "lon": -77.0093965, "fusion_lon": 0.0, "is_disabled": 0, "fusion_lat": 0.0, "bike_id": "21830eedd24966322ec982234a5ecb9f", "rental_uris": {"ios": "https://dc.lft.to/lastmile_qr_scan", "android": "https://dc.lft.to/lastmile_qr_scan"}}, {"name": "b09718d07ea1dec5c44ba2561971e246", "type": "electric_scooter", "lat": 38.93454283333333, "is_reserved": 0, "lon": -77.07233766666667, "fusion_lon": 0.0, "is_disabled": 0, "fusion_lat": 0.0, "bike_id": "b09718d07ea1dec5c44ba2561971e246", "rental_uris": {"ios": "https://dc.lft.to/lastmile_qr_scan", "android": "https://dc.lft.to/lastmile_qr_scan"}}, {"name": "889bc981210290ee08c77ec3396e7c25", "type": "electric_scooter", "lat": 38.884517333333335, "is_reserved": 0, "lon": -77.00578016666667, "fusion_lon": 0.0, "is_disabled": 0, "fusion_lat": 0.0, "bike_id": "889bc981210290ee08c77ec3396e7c25", "rental_uris": {"ios": "https://dc.lft.to/lastmile_qr_scan", "android": "https://dc.lft.to/lastmile_qr_scan"}}, {"name": "0953c349bb54649d82a0f6ee77cb3284", "type": "electric_scooter", "lat": 38.9201365, "is_reserved": 0, "lon": -77.04404466666666, "fusion_lon": 0.0, "is_disabled": 0, "fusion_lat": 0.0, "bike_id": "0953c349bb54649d82a0f6ee77cb3284", "rental_uris": {"ios": "https://dc.lft.to/lastmile_qr_scan", "android": "https://dc.lft.to/lastmile_qr_scan"}}, {"name": "af85900c126059980285c651a0dc5096", "type": "electric_scooter", "lat": 38.89622266666667, "is_reserved": 0, "lon": -77.0101485, "fusion_lon": 0.0, "is_disabled": 0, "fusion_lat": 0.0, "bike_id": "af85900c126059980285c651a0dc5096", "rental_uris": {"ios": "https://dc.lft.to/lastmile_qr_scan", "android": "https://dc.lft.to/lastmile_qr_scan"}}, {"name": "31a3ba41174217db462b1a21d7eaba42", "type": "electric_scooter", "lat": 38.86658533333333, "is_reserved": 0, "lon": -76.988842, "fusion_lon": 0.0, "is_disabled": 0, "fusion_lat": 0.0, "bike_id": "31a3ba41174217db462b1a21d7eaba42", "rental_uris": {"ios": "https://dc.lft.to/lastmile_qr_scan", "android": "https://dc.lft.to/lastmile_qr_scan"}}, {"name": "93c32f95937c0d8acc9c2d7ae95a4dde", "type": "electric_scooter", "lat": 38.929465, "is_reserved": 0, "lon": -77.02322916666667, "fusion_lon": 0.0, "is_disabled": 0, "fusion_lat": 0.0, "bike_id": "93c32f95937c0d8acc9c2d7ae95a4dde", "rental_uris": {"ios": "https://dc.lft.to/lastmile_qr_scan", "android": "https://dc.lft.to/lastmile_qr_scan"}}, {"name": "a331d9ebfdd4663762886b26ab44670a", "type": "electric_scooter", "lat": 38.89183233333333, "is_reserved": 0, "lon": -77.015334, "fusion_lon": 0.0, "is_disabled": 0, "fusion_lat": 0.0, "bike_id": "a331d9ebfdd4663762886b26ab44670a", "rental_uris": {"ios": "https://dc.lft.to/lastmile_qr_scan", "android": "https://dc.lft.to/lastmile_qr_scan"}}, {"name": "7a5f9a8dc889321108ddee8cf2220eba", "type": "electric_scooter", "lat": 38.9258085, "is_reserved": 0, "lon": -77.02844616666667, "fusion_lon": 0.0, "is_disabled": 0, "fusion_lat": 0.0, "bike_id": "7a5f9a8dc889321108ddee8cf2220eba", "rental_uris": {"ios": "https://dc.lft.to/lastmile_qr_scan", "android": "https://dc.lft.to/lastmile_qr_scan"}}, {"name": "eb0bcb01e5c06b44e6b0c238f9c7eac8", "type": "electric_scooter", "lat": 38.93484466666666, "is_reserved": 0, "lon": -77.03286766666666, "fusion_lon": 0.0, "is_disabled": 0, "fusion_lat": 0.0, "bike_id": "eb0bcb01e5c06b44e6b0c238f9c7eac8", "rental_uris": {"ios": "https://dc.lft.to/lastmile_qr_scan", "android": "https://dc.lft.to/lastmile_qr_scan"}}, {"name": "ec7138cc6fc803c80fb73f89466d7498", "type": "electric_scooter", "lat": 38.91711866666667, "is_reserved": 0, "lon": -77.03855433333334, "fusion_lon": 0.0, "is_disabled": 0, "fusion_lat": 0.0, "bike_id": "ec7138cc6fc803c80fb73f89466d7498", "rental_uris": {"ios": "https://dc.lft.to/lastmile_qr_scan", "android": "https://dc.lft.to/lastmile_qr_scan"}}, {"name": "e9c0753905d85dbe5820672902b98931", "type": "electric_scooter", "lat": 38.91688583333333, "is_reserved": 0, "lon": -77.00923316666666, "fusion_lon": 0.0, "is_disabled": 0, "fusion_lat": 0.0, "bike_id": "e9c0753905d85dbe5820672902b98931", "rental_uris": {"ios": "https://dc.lft.to/lastmile_qr_scan", "android": "https://dc.lft.to/lastmile_qr_scan"}}, {"name": "55d460ffe9d033696168767fac1964a5", "type": "electric_scooter", "lat": 38.896364, "is_reserved": 0, "lon": -77.02743466666666, "fusion_lon": 0.0, "is_disabled": 0, "fusion_lat": 0.0, "bike_id": "55d460ffe9d033696168767fac1964a5", "rental_uris": {"ios": "https://dc.lft.to/lastmile_qr_scan", "android": "https://dc.lft.to/lastmile_qr_scan"}}, {"name": "acdf85a7dfd207de365e5f4dc8f409a5", "type": "electric_bike", "lat": 38.86163, "is_reserved": 0, "lon": -77.13091166666666, "fusion_lon": 0.0, "is_disabled": 0, "fusion_lat": 0.0, "bike_id": "acdf85a7dfd207de365e5f4dc8f409a5", "rental_uris": {"ios": "https://dc.lft.to/lastmile_qr_scan", "android": "https://dc.lft.to/lastmile_qr_scan"}}, {"name": "68c55b6bdd2f810150cdfceeba7c76e8", "type": "electric_scooter", "lat": 38.9140435, "is_reserved": 0, "lon": -77.008051, "fusion_lon": 0.0, "is_disabled": 0, "fusion_lat": 0.0, "bike_id": "68c55b6bdd2f810150cdfceeba7c76e8", "rental_uris": {"ios": "https://dc.lft.to/lastmile_qr_scan", "android": "https://dc.lft.to/lastmile_qr_scan"}}, {"name": "f36f4ecc73a4d9665c07cab61512ba23", "type": "electric_scooter", "lat": 38.90025583333333, "is_reserved": 0, "lon": -76.9985985, "fusion_lon": 0.0, "is_disabled": 0, "fusion_lat": 0.0, "bike_id": "f36f4ecc73a4d9665c07cab61512ba23", "rental_uris": {"ios": "https://dc.lft.to/lastmile_qr_scan", "android": "https://dc.lft.to/lastmile_qr_scan"}}, {"name": "ec25e22a31145c988c9febc6eab95900", "type": "electric_scooter", "lat": 38.9023425, "is_reserved": 0, "lon": -76.9741575, "fusion_lon": 0.0, "is_disabled": 0, "fusion_lat": 0.0, "bike_id": "ec25e22a31145c988c9febc6eab95900", "rental_uris": {"ios": "https://dc.lft.to/lastmile_qr_scan", "android": "https://dc.lft.to/lastmile_qr_scan"}}, {"name": "64cb065a263020533faa64fb5bea9da2", "type": "electric_scooter", "lat": 38.91690083333334, "is_reserved": 0, "lon": -77.02810383333333, "fusion_lon": 0.0, "is_disabled": 0, "fusion_lat": 0.0, "bike_id": "64cb065a263020533faa64fb5bea9da2", "rental_uris": {"ios": "https://dc.lft.to/lastmile_qr_scan", "android": "https://dc.lft.to/lastmile_qr_scan"}}, {"name": "48afd74f4f48fb0be47f31e69d9ef438", "type": "electric_scooter", "lat": 38.88493533333333, "is_reserved": 0, "lon": -77.00728766666667, "fusion_lon": 0.0, "is_disabled": 0, "fusion_lat": 0.0, "bike_id": "48afd74f4f48fb0be47f31e69d9ef438", "rental_uris": {"ios": "https://dc.lft.to/lastmile_qr_scan", "android": "https://dc.lft.to/lastmile_qr_scan"}}, {"name": "778ccc62d51082a492bb0e6aaf056591", "type": "electric_scooter", "lat": 38.894841666666665, "is_reserved": 0, "lon": -77.02409883333333, "fusion_lon": 0.0, "is_disabled": 0, "fusion_lat": 0.0, "bike_id": "778ccc62d51082a492bb0e6aaf056591", "rental_uris": {"ios": "https://dc.lft.to/lastmile_qr_scan", "android": "https://dc.lft.to/lastmile_qr_scan"}}, {"name": "668f7b70a3feca86801d760dbc98d5d3", "type": "electric_scooter", "lat": 38.8999885, "is_reserved": 0, "lon": -76.99734483333333, "fusion_lon": 0.0, "is_disabled": 0, "fusion_lat": 0.0, "bike_id": "668f7b70a3feca86801d760dbc98d5d3", "rental_uris": {"ios": "https://dc.lft.to/lastmile_qr_scan", "android": "https://dc.lft.to/lastmile_qr_scan"}}, {"name": "4df0bac10391bfbe0c6849d43ea9f335", "type": "electric_scooter", "lat": 38.93425233333333, "is_reserved": 0, "lon": -77.02421266666667, "fusion_lon": 0.0, "is_disabled": 0, "fusion_lat": 0.0, "bike_id": "4df0bac10391bfbe0c6849d43ea9f335", "rental_uris": {"ios": "https://dc.lft.to/lastmile_qr_scan", "android": "https://dc.lft.to/lastmile_qr_scan"}}, {"name": "d937907efe44a2dff8010597eb0d8a63", "type": "electric_scooter", "lat": 38.88870416666666, "is_reserved": 0, "lon": -76.990309, "fusion_lon": 0.0, "is_disabled": 0, "fusion_lat": 0.0, "bike_id": "d937907efe44a2dff8010597eb0d8a63", "rental_uris": {"ios": "https://dc.lft.to/lastmile_qr_scan", "android": "https://dc.lft.to/lastmile_qr_scan"}}, {"name": "2291e0c199591066cb9420abb2eab36b", "type": "electric_scooter", "lat": 38.900363666666664, "is_reserved": 0, "lon": -77.031838, "fusion_lon": 0.0, "is_disabled": 0, "fusion_lat": 0.0, "bike_id": "2291e0c199591066cb9420abb2eab36b", "rental_uris": {"ios": "https://dc.lft.to/lastmile_qr_scan", "android": "https://dc.lft.to/lastmile_qr_scan"}}, {"name": "33ec2420c7c58b2349ffb3901883711c", "type": "electric_scooter", "lat": 38.92060983333333, "is_reserved": 0, "lon": -77.0242395, "fusion_lon": 0.0, "is_disabled": 0, "fusion_lat": 0.0, "bike_id": "33ec2420c7c58b2349ffb3901883711c", "rental_uris": {"ios": "https://dc.lft.to/lastmile_qr_scan", "android": "https://dc.lft.to/lastmile_qr_scan"}}, {"name": "64df5fd6d8fb763222c37ef34062213d", "type": "electric_scooter", "lat": 38.89893816666667, "is_reserved": 0, "lon": -77.03278383333334, "fusion_lon": 0.0, "is_disabled": 0, "fusion_lat": 0.0, "bike_id": "64df5fd6d8fb763222c37ef34062213d", "rental_uris": {"ios": "https://dc.lft.to/lastmile_qr_scan", "android": "https://dc.lft.to/lastmile_qr_scan"}}, {"name": "c4fd4c99b7c1782dc965c192b89a34ed", "type": "electric_scooter", "lat": 38.90079266666667, "is_reserved": 0, "lon": -76.93872933333333, "fusion_lon": 0.0, "is_disabled": 0, "fusion_lat": 0.0, "bike_id": "c4fd4c99b7c1782dc965c192b89a34ed", "rental_uris": {"ios": "https://dc.lft.to/lastmile_qr_scan", "android": "https://dc.lft.to/lastmile_qr_scan"}}, {"name": "72f05c1f1c7b0ad5e13ce16f57a1251f", "type": "electric_scooter", "lat": 38.929764666666664, "is_reserved": 0, "lon": -77.02611866666666, "fusion_lon": 0.0, "is_disabled": 0, "fusion_lat": 0.0, "bike_id": "72f05c1f1c7b0ad5e13ce16f57a1251f", "rental_uris": {"ios": "https://dc.lft.to/lastmile_qr_scan", "android": "https://dc.lft.to/lastmile_qr_scan"}}, {"name": "f61704e123985698cf02cf94133c6c63", "type": "electric_scooter", "lat": 38.8803215, "is_reserved": 0, "lon": -76.931203, "fusion_lon": 0.0, "is_disabled": 0, "fusion_lat": 0.0, "bike_id": "f61704e123985698cf02cf94133c6c63", "rental_uris": {"ios": "https://dc.lft.to/lastmile_qr_scan", "android": "https://dc.lft.to/lastmile_qr_scan"}}, {"name": "a413a8688234f26153c7dce69fd8b35a", "type": "electric_scooter", "lat": 38.918923166666666, "is_reserved": 0, "lon": -77.05292933333334, "fusion_lon": 0.0, "is_disabled": 0, "fusion_lat": 0.0, "bike_id": "a413a8688234f26153c7dce69fd8b35a", "rental_uris": {"ios": "https://dc.lft.to/lastmile_qr_scan", "android": "https://dc.lft.to/lastmile_qr_scan"}}, {"name": "b9eddc04fe95ee73588f3b7a14ce2297", "type": "electric_bike", "lat": 38.8272905, "is_reserved": 0, "lon": -77.00858616666666, "fusion_lon": 0.0, "is_disabled": 0, "fusion_lat": 0.0, "bike_id": "b9eddc04fe95ee73588f3b7a14ce2297", "rental_uris": {"ios": "https://dc.lft.to/lastmile_qr_scan", "android": "https://dc.lft.to/lastmile_qr_scan"}}, {"name": "93229d0fdbd1cde89724ad055bda98a1", "type": "electric_scooter", "lat": 38.9081795, "is_reserved": 0, "lon": -77.03680566666667, "fusion_lon": 0.0, "is_disabled": 0, "fusion_lat": 0.0, "bike_id": "93229d0fdbd1cde89724ad055bda98a1", "rental_uris": {"ios": "https://dc.lft.to/lastmile_qr_scan", "android": "https://dc.lft.to/lastmile_qr_scan"}}, {"name": "ffeda5947b7303d8f7e6c89e054ad097", "type": "electric_scooter", "lat": 38.9105575, "is_reserved": 0, "lon": -77.0457485, "fusion_lon": 0.0, "is_disabled": 0, "fusion_lat": 0.0, "bike_id": "ffeda5947b7303d8f7e6c89e054ad097", "rental_uris": {"ios": "https://dc.lft.to/lastmile_qr_scan", "android": "https://dc.lft.to/lastmile_qr_scan"}}, {"name": "b1a87af9649f15f97538436c9db7c3f4", "type": "electric_scooter", "lat": 38.927920666666665, "is_reserved": 0, "lon": -77.0536845, "fusion_lon": 0.0, "is_disabled": 0, "fusion_lat": 0.0, "bike_id": "b1a87af9649f15f97538436c9db7c3f4", "rental_uris": {"ios": "https://dc.lft.to/lastmile_qr_scan", "android": "https://dc.lft.to/lastmile_qr_scan"}}, {"name": "20b64323c7ede5fbc404b90bdb1d1145", "type": "electric_scooter", "lat": 38.923362, "is_reserved": 0, "lon": -77.03519433333334, "fusion_lon": 0.0, "is_disabled": 0, "fusion_lat": 0.0, "bike_id": "20b64323c7ede5fbc404b90bdb1d1145", "rental_uris": {"ios": "https://dc.lft.to/lastmile_qr_scan", "android": "https://dc.lft.to/lastmile_qr_scan"}}, {"name": "27aa98d2b871b00b30f1d54a62952283", "type": "electric_scooter", "lat": 38.90442483333333, "is_reserved": 0, "lon": -76.98493416666666, "fusion_lon": 0.0, "is_disabled": 0, "fusion_lat": 0.0, "bike_id": "27aa98d2b871b00b30f1d54a62952283", "rental_uris": {"ios": "https://dc.lft.to/lastmile_qr_scan", "android": "https://dc.lft.to/lastmile_qr_scan"}}, {"name": "37e5653d9efd8afc7f15ec9c848e3905", "type": "electric_scooter", "lat": 38.88518666666667, "is_reserved": 0, "lon": -76.97709966666666, "fusion_lon": 0.0, "is_disabled": 0, "fusion_lat": 0.0, "bike_id": "37e5653d9efd8afc7f15ec9c848e3905", "rental_uris": {"ios": "https://dc.lft.to/lastmile_qr_scan", "android": "https://dc.lft.to/lastmile_qr_scan"}}, {"name": "303a5c34c276ecfa1f8332f8efa1a22f", "type": "electric_bike", "lat": 38.88267666666667, "is_reserved": 0, "lon": -76.99938783333333, "fusion_lon": 0.0, "is_disabled": 0, "fusion_lat": 0.0, "bike_id": "303a5c34c276ecfa1f8332f8efa1a22f", "rental_uris": {"ios": "https://dc.lft.to/lastmile_qr_scan", "android": "https://dc.lft.to/lastmile_qr_scan"}}, {"name": "29c3bb71fc6ce2e3b244b9d6ccb0f190", "type": "electric_scooter", "lat": 38.91011683333333, "is_reserved": 0, "lon": -77.02205883333333, "fusion_lon": 0.0, "is_disabled": 0, "fusion_lat": 0.0, "bike_id": "29c3bb71fc6ce2e3b244b9d6ccb0f190", "rental_uris": {"ios": "https://dc.lft.to/lastmile_qr_scan", "android": "https://dc.lft.to/lastmile_qr_scan"}}, {"name": "677a4c87f6ab78186a46d6923ce979de", "type": "electric_scooter", "lat": 38.91806966666667, "is_reserved": 0, "lon": -77.02784816666667, "fusion_lon": 0.0, "is_disabled": 0, "fusion_lat": 0.0, "bike_id": "677a4c87f6ab78186a46d6923ce979de", "rental_uris": {"ios": "https://dc.lft.to/lastmile_qr_scan", "android": "https://dc.lft.to/lastmile_qr_scan"}}, {"name": "6970345800e3858308ed84eb9eeee6bb", "type": "electric_scooter", "lat": 38.931708666666665, "is_reserved": 0, "lon": -77.0285195, "fusion_lon": 0.0, "is_disabled": 0, "fusion_lat": 0.0, "bike_id": "6970345800e3858308ed84eb9eeee6bb", "rental_uris": {"ios": "https://dc.lft.to/lastmile_qr_scan", "android": "https://dc.lft.to/lastmile_qr_scan"}}, {"name": "0515b37f29bef0fc9e8cc01c9fd04222", "type": "electric_scooter", "lat": 38.90565866666667, "is_reserved": 0, "lon": -77.0344825, "fusion_lon": 0.0, "is_disabled": 0, "fusion_lat": 0.0, "bike_id": "0515b37f29bef0fc9e8cc01c9fd04222", "rental_uris": {"ios": "https://dc.lft.to/lastmile_qr_scan", "android": "https://dc.lft.to/lastmile_qr_scan"}}, {"name": "6bfd80d77339a8b5fa4648134e267219", "type": "electric_scooter", "lat": 38.940114666666666, "is_reserved": 0, "lon": -77.07170333333333, "fusion_lon": 0.0, "is_disabled": 0, "fusion_lat": 0.0, "bike_id": "6bfd80d77339a8b5fa4648134e267219", "rental_uris": {"ios": "https://dc.lft.to/lastmile_qr_scan", "android": "https://dc.lft.to/lastmile_qr_scan"}}, {"name": "99bc864b1affb787c6d1742fe4eea635", "type": "electric_scooter", "lat": 38.9169285, "is_reserved": 0, "lon": -77.01231716666666, "fusion_lon": 0.0, "is_disabled": 0, "fusion_lat": 0.0, "bike_id": "99bc864b1affb787c6d1742fe4eea635", "rental_uris": {"ios": "https://dc.lft.to/lastmile_qr_scan", "android": "https://dc.lft.to/lastmile_qr_scan"}}, {"name": "69423dd9ab61666266e78eef441863f2", "type": "electric_scooter", "lat": 38.91915616666667, "is_reserved": 0, "lon": -77.03420466666667, "fusion_lon": 0.0, "is_disabled": 0, "fusion_lat": 0.0, "bike_id": "69423dd9ab61666266e78eef441863f2", "rental_uris": {"ios": "https://dc.lft.to/lastmile_qr_scan", "android": "https://dc.lft.to/lastmile_qr_scan"}}, {"name": "a024fa6db09bd5ce9400f48d37eb0cd4", "type": "electric_scooter", "lat": 38.9088955, "is_reserved": 0, "lon": -77.03151666666666, "fusion_lon": 0.0, "is_disabled": 0, "fusion_lat": 0.0, "bike_id": "a024fa6db09bd5ce9400f48d37eb0cd4", "rental_uris": {"ios": "https://dc.lft.to/lastmile_qr_scan", "android": "https://dc.lft.to/lastmile_qr_scan"}}, {"name": "04398fa8a457299312501757621087e5", "type": "electric_scooter", "lat": 38.920105166666666, "is_reserved": 0, "lon": -77.03871283333334, "fusion_lon": 0.0, "is_disabled": 0, "fusion_lat": 0.0, "bike_id": "04398fa8a457299312501757621087e5", "rental_uris": {"ios": "https://dc.lft.to/lastmile_qr_scan", "android": "https://dc.lft.to/lastmile_qr_scan"}}, {"name": "0626349de1d90e6f5858cac0e1c30da8", "type": "electric_scooter", "lat": 38.90407966666667, "is_reserved": 0, "lon": -76.97328616666667, "fusion_lon": 0.0, "is_disabled": 0, "fusion_lat": 0.0, "bike_id": "0626349de1d90e6f5858cac0e1c30da8", "rental_uris": {"ios": "https://dc.lft.to/lastmile_qr_scan", "android": "https://dc.lft.to/lastmile_qr_scan"}}, {"name": "a3ff79b6b35999d28b4ee3a167773570", "type": "electric_scooter", "lat": 38.92250266666667, "is_reserved": 0, "lon": -77.03085066666667, "fusion_lon": 0.0, "is_disabled": 0, "fusion_lat": 0.0, "bike_id": "a3ff79b6b35999d28b4ee3a167773570", "rental_uris": {"ios": "https://dc.lft.to/lastmile_qr_scan", "android": "https://dc.lft.to/lastmile_qr_scan"}}, {"name": "0477f646c30e7aa0a6c32d7f6b5f8599", "type": "electric_scooter", "lat": 38.88508683333333, "is_reserved": 0, "lon": -77.03356366666667, "fusion_lon": 0.0, "is_disabled": 0, "fusion_lat": 0.0, "bike_id": "0477f646c30e7aa0a6c32d7f6b5f8599", "rental_uris": {"ios": "https://dc.lft.to/lastmile_qr_scan", "android": "https://dc.lft.to/lastmile_qr_scan"}}, {"name": "907f9d46bb26b0de6604e067cb764b83", "type": "electric_scooter", "lat": 38.923313666666665, "is_reserved": 0, "lon": -77.035038, "fusion_lon": 0.0, "is_disabled": 0, "fusion_lat": 0.0, "bike_id": "907f9d46bb26b0de6604e067cb764b83", "rental_uris": {"ios": "https://dc.lft.to/lastmile_qr_scan", "android": "https://dc.lft.to/lastmile_qr_scan"}}, {"name": "bc179bdc8abd94f8660e7c54e77646d4", "type": "electric_scooter", "lat": 38.883146833333335, "is_reserved": 0, "lon": -77.01755083333333, "fusion_lon": 0.0, "is_disabled": 0, "fusion_lat": 0.0, "bike_id": "bc179bdc8abd94f8660e7c54e77646d4", "rental_uris": {"ios": "https://dc.lft.to/lastmile_qr_scan", "android": "https://dc.lft.to/lastmile_qr_scan"}}, {"name": "bfa7d40dc3aa666f6c160b9df4f22a31", "type": "electric_bike", "lat": 38.990671666666664, "is_reserved": 0, "lon": -77.10026166666667, "fusion_lon": 0.0, "is_disabled": 0, "fusion_lat": 0.0, "bike_id": "bfa7d40dc3aa666f6c160b9df4f22a31", "rental_uris": {"ios": "https://dc.lft.to/lastmile_qr_scan", "android": "https://dc.lft.to/lastmile_qr_scan"}}, {"name": "c231fda313d4f332c9d6777cce14bfd1", "type": "electric_scooter", "lat": 38.93822133333333, "is_reserved": 0, "lon": -77.02499, "fusion_lon": 0.0, "is_disabled": 0, "fusion_lat": 0.0, "bike_id": "c231fda313d4f332c9d6777cce14bfd1", "rental_uris": {"ios": "https://dc.lft.to/lastmile_qr_scan", "android": "https://dc.lft.to/lastmile_qr_scan"}}, {"name": "44830a039fecfd355f7388b533b82cae", "type": "electric_scooter", "lat": 38.913053, "is_reserved": 0, "lon": -77.04477716666666, "fusion_lon": 0.0, "is_disabled": 0, "fusion_lat": 0.0, "bike_id": "44830a039fecfd355f7388b533b82cae", "rental_uris": {"ios": "https://dc.lft.to/lastmile_qr_scan", "android": "https://dc.lft.to/lastmile_qr_scan"}}, {"name": "bc89a30795d6c64f1ff56e678cb6f4bf", "type": "electric_scooter", "lat": 38.9476085, "is_reserved": 0, "lon": -77.06547983333333, "fusion_lon": 0.0, "is_disabled": 0, "fusion_lat": 0.0, "bike_id": "bc89a30795d6c64f1ff56e678cb6f4bf", "rental_uris": {"ios": "https://dc.lft.to/lastmile_qr_scan", "android": "https://dc.lft.to/lastmile_qr_scan"}}, {"name": "4c414c5a149e34d4bf4d8badb21722bf", "type": "electric_scooter", "lat": 38.907395666666666, "is_reserved": 0, "lon": -77.0306085, "fusion_lon": 0.0, "is_disabled": 0, "fusion_lat": 0.0, "bike_id": "4c414c5a149e34d4bf4d8badb21722bf", "rental_uris": {"ios": "https://dc.lft.to/lastmile_qr_scan", "android": "https://dc.lft.to/lastmile_qr_scan"}}, {"name": "131519f5c332e4fd5278589167401c21", "type": "electric_scooter", "lat": 38.911939333333336, "is_reserved": 0, "lon": -77.00555066666666, "fusion_lon": 0.0, "is_disabled": 0, "fusion_lat": 0.0, "bike_id": "131519f5c332e4fd5278589167401c21", "rental_uris": {"ios": "https://dc.lft.to/lastmile_qr_scan", "android": "https://dc.lft.to/lastmile_qr_scan"}}, {"name": "b900857333dd32269afcf00a671036c8", "type": "electric_scooter", "lat": 38.93969283333333, "is_reserved": 0, "lon": -77.03259366666667, "fusion_lon": 0.0, "is_disabled": 0, "fusion_lat": 0.0, "bike_id": "b900857333dd32269afcf00a671036c8", "rental_uris": {"ios": "https://dc.lft.to/lastmile_qr_scan", "android": "https://dc.lft.to/lastmile_qr_scan"}}, {"name": "13c351f883630b5968d20c2188522368", "type": "electric_scooter", "lat": 38.881112333333334, "is_reserved": 0, "lon": -76.99946266666667, "fusion_lon": 0.0, "is_disabled": 0, "fusion_lat": 0.0, "bike_id": "13c351f883630b5968d20c2188522368", "rental_uris": {"ios": "https://dc.lft.to/lastmile_qr_scan", "android": "https://dc.lft.to/lastmile_qr_scan"}}, {"name": "a849fb53838e27e47474ea4bb3cdc550", "type": "electric_scooter", "lat": 38.939491333333336, "is_reserved": 0, "lon": -77.03273483333334, "fusion_lon": 0.0, "is_disabled": 0, "fusion_lat": 0.0, "bike_id": "a849fb53838e27e47474ea4bb3cdc550", "rental_uris": {"ios": "https://dc.lft.to/lastmile_qr_scan", "android": "https://dc.lft.to/lastmile_qr_scan"}}, {"name": "1c9ab4bbad2d3f2582e58d309db07a77", "type": "electric_scooter", "lat": 38.940757, "is_reserved": 0, "lon": -77.02697033333334, "fusion_lon": 0.0, "is_disabled": 0, "fusion_lat": 0.0, "bike_id": "1c9ab4bbad2d3f2582e58d309db07a77", "rental_uris": {"ios": "https://dc.lft.to/lastmile_qr_scan", "android": "https://dc.lft.to/lastmile_qr_scan"}}, {"name": "5d3de0431122322e6c054593b42df9b3", "type": "electric_scooter", "lat": 38.91796933333333, "is_reserved": 0, "lon": -77.02710233333333, "fusion_lon": 0.0, "is_disabled": 0, "fusion_lat": 0.0, "bike_id": "5d3de0431122322e6c054593b42df9b3", "rental_uris": {"ios": "https://dc.lft.to/lastmile_qr_scan", "android": "https://dc.lft.to/lastmile_qr_scan"}}, {"name": "3d5842a41bb623cb63994cd891e6cb48", "type": "electric_scooter", "lat": 38.929475, "is_reserved": 0, "lon": -77.03467883333333, "fusion_lon": 0.0, "is_disabled": 0, "fusion_lat": 0.0, "bike_id": "3d5842a41bb623cb63994cd891e6cb48", "rental_uris": {"ios": "https://dc.lft.to/lastmile_qr_scan", "android": "https://dc.lft.to/lastmile_qr_scan"}}, {"name": "31490c5dd123a01b82ca48b0122bfcf5", "type": "electric_scooter", "lat": 38.9197115, "is_reserved": 0, "lon": -77.03380266666667, "fusion_lon": 0.0, "is_disabled": 0, "fusion_lat": 0.0, "bike_id": "31490c5dd123a01b82ca48b0122bfcf5", "rental_uris": {"ios": "https://dc.lft.to/lastmile_qr_scan", "android": "https://dc.lft.to/lastmile_qr_scan"}}, {"name": "cf94a5ca2ce4fcc3e1de2fd8d337d564", "type": "electric_bike", "lat": 38.908624833333334, "is_reserved": 0, "lon": -77.08072583333333, "fusion_lon": 0.0, "is_disabled": 0, "fusion_lat": 0.0, "bike_id": "cf94a5ca2ce4fcc3e1de2fd8d337d564", "rental_uris": {"ios": "https://dc.lft.to/lastmile_qr_scan", "android": "https://dc.lft.to/lastmile_qr_scan"}}, {"name": "a966f570caaae805bd63d17d6da99b6d", "type": "electric_scooter", "lat": 38.92510883333333, "is_reserved": 0, "lon": -77.033236, "fusion_lon": 0.0, "is_disabled": 0, "fusion_lat": 0.0, "bike_id": "a966f570caaae805bd63d17d6da99b6d", "rental_uris": {"ios": "https://dc.lft.to/lastmile_qr_scan", "android": "https://dc.lft.to/lastmile_qr_scan"}}, {"name": "82efd14a2ab3f585801b93d9006605b9", "type": "electric_scooter", "lat": 38.91261733333333, "is_reserved": 0, "lon": -77.03723766666667, "fusion_lon": 0.0, "is_disabled": 0, "fusion_lat": 0.0, "bike_id": "82efd14a2ab3f585801b93d9006605b9", "rental_uris": {"ios": "https://dc.lft.to/lastmile_qr_scan", "android": "https://dc.lft.to/lastmile_qr_scan"}}, {"name": "90f7af296a019f2b1538aa00eb81db5d", "type": "electric_scooter", "lat": 38.927361, "is_reserved": 0, "lon": -77.022652, "fusion_lon": 0.0, "is_disabled": 0, "fusion_lat": 0.0, "bike_id": "90f7af296a019f2b1538aa00eb81db5d", "rental_uris": {"ios": "https://dc.lft.to/lastmile_qr_scan", "android": "https://dc.lft.to/lastmile_qr_scan"}}, {"name": "7f596090317e79bc539448f26ebd5bc9", "type": "electric_scooter", "lat": 38.892244, "is_reserved": 0, "lon": -77.04335333333333, "fusion_lon": 0.0, "is_disabled": 0, "fusion_lat": 0.0, "bike_id": "7f596090317e79bc539448f26ebd5bc9", "rental_uris": {"ios": "https://dc.lft.to/lastmile_qr_scan", "android": "https://dc.lft.to/lastmile_qr_scan"}}, {"name": "c383a8de8b376946f973e859afffa8ec", "type": "electric_scooter", "lat": 38.906106, "is_reserved": 0, "lon": -77.07491433333334, "fusion_lon": 0.0, "is_disabled": 0, "fusion_lat": 0.0, "bike_id": "c383a8de8b376946f973e859afffa8ec", "rental_uris": {"ios": "https://dc.lft.to/lastmile_qr_scan", "android": "https://dc.lft.to/lastmile_qr_scan"}}, {"name": "78d65e97360ce44ec1f97ba95cddb6b3", "type": "electric_scooter", "lat": 38.8666085, "is_reserved": 0, "lon": -76.98883033333334, "fusion_lon": 0.0, "is_disabled": 0, "fusion_lat": 0.0, "bike_id": "78d65e97360ce44ec1f97ba95cddb6b3", "rental_uris": {"ios": "https://dc.lft.to/lastmile_qr_scan", "android": "https://dc.lft.to/lastmile_qr_scan"}}, {"name": "5b9bf0f64282c9a3a05c1235bead54fa", "type": "electric_scooter", "lat": 38.92509416666667, "is_reserved": 0, "lon": -77.00179983333334, "fusion_lon": 0.0, "is_disabled": 0, "fusion_lat": 0.0, "bike_id": "5b9bf0f64282c9a3a05c1235bead54fa", "rental_uris": {"ios": "https://dc.lft.to/lastmile_qr_scan", "android": "https://dc.lft.to/lastmile_qr_scan"}}, {"name": "8acc1d0523542d68e59059663414004f", "type": "electric_scooter", "lat": 38.92118116666666, "is_reserved": 0, "lon": -77.036703, "fusion_lon": 0.0, "is_disabled": 0, "fusion_lat": 0.0, "bike_id": "8acc1d0523542d68e59059663414004f", "rental_uris": {"ios": "https://dc.lft.to/lastmile_qr_scan", "android": "https://dc.lft.to/lastmile_qr_scan"}}, {"name": "67487c47367305f7f44bfffd88e7c5b8", "type": "electric_scooter", "lat": 38.883735, "is_reserved": 0, "lon": -76.92374816666667, "fusion_lon": 0.0, "is_disabled": 0, "fusion_lat": 0.0, "bike_id": "67487c47367305f7f44bfffd88e7c5b8", "rental_uris": {"ios": "https://dc.lft.to/lastmile_qr_scan", "android": "https://dc.lft.to/lastmile_qr_scan"}}, {"name": "077264bd29d3589b9e8ba01824fa6f1c", "type": "electric_scooter", "lat": 38.907222, "is_reserved": 0, "lon": -77.03447916666667, "fusion_lon": 0.0, "is_disabled": 0, "fusion_lat": 0.0, "bike_id": "077264bd29d3589b9e8ba01824fa6f1c", "rental_uris": {"ios": "https://dc.lft.to/lastmile_qr_scan", "android": "https://dc.lft.to/lastmile_qr_scan"}}, {"name": "6f86fea30616b28a02b486de4dd0ce48", "type": "electric_scooter", "lat": 38.92363233333333, "is_reserved": 0, "lon": -77.058441, "fusion_lon": 0.0, "is_disabled": 0, "fusion_lat": 0.0, "bike_id": "6f86fea30616b28a02b486de4dd0ce48", "rental_uris": {"ios": "https://dc.lft.to/lastmile_qr_scan", "android": "https://dc.lft.to/lastmile_qr_scan"}}, {"name": "e9857c1fbdaffaad889afab3be82682d", "type": "electric_scooter", "lat": 38.896049166666664, "is_reserved": 0, "lon": -77.00923583333334, "fusion_lon": 0.0, "is_disabled": 0, "fusion_lat": 0.0, "bike_id": "e9857c1fbdaffaad889afab3be82682d", "rental_uris": {"ios": "https://dc.lft.to/lastmile_qr_scan", "android": "https://dc.lft.to/lastmile_qr_scan"}}, {"name": "b4e45e401189af6ba26dee0591c2cfcf", "type": "electric_scooter", "lat": 38.92746433333333, "is_reserved": 0, "lon": -77.02483483333333, "fusion_lon": 0.0, "is_disabled": 0, "fusion_lat": 0.0, "bike_id": "b4e45e401189af6ba26dee0591c2cfcf", "rental_uris": {"ios": "https://dc.lft.to/lastmile_qr_scan", "android": "https://dc.lft.to/lastmile_qr_scan"}}, {"name": "01a17249232409e72edca42990e4c068", "type": "electric_scooter", "lat": 38.9026575, "is_reserved": 0, "lon": -77.05316266666667, "fusion_lon": 0.0, "is_disabled": 0, "fusion_lat": 0.0, "bike_id": "01a17249232409e72edca42990e4c068", "rental_uris": {"ios": "https://dc.lft.to/lastmile_qr_scan", "android": "https://dc.lft.to/lastmile_qr_scan"}}, {"name": "51c55933e7daf6bec43bd636cbd9cae9", "type": "electric_bike", "lat": 38.89562266666667, "is_reserved": 0, "lon": -77.12735233333333, "fusion_lon": 0.0, "is_disabled": 0, "fusion_lat": 0.0, "bike_id": "51c55933e7daf6bec43bd636cbd9cae9", "rental_uris": {"ios": "https://dc.lft.to/lastmile_qr_scan", "android": "https://dc.lft.to/lastmile_qr_scan"}}, {"name": "124d2585593173c03a9111f6d8761330", "type": "electric_scooter", "lat": 38.92355666666667, "is_reserved": 0, "lon": -77.05031866666667, "fusion_lon": 0.0, "is_disabled": 0, "fusion_lat": 0.0, "bike_id": "124d2585593173c03a9111f6d8761330", "rental_uris": {"ios": "https://dc.lft.to/lastmile_qr_scan", "android": "https://dc.lft.to/lastmile_qr_scan"}}, {"name": "19ecbb77cb9d26cab7e607a102fb6ef2", "type": "electric_scooter", "lat": 38.899875, "is_reserved": 0, "lon": -77.050875, "fusion_lon": 0.0, "is_disabled": 0, "fusion_lat": 0.0, "bike_id": "19ecbb77cb9d26cab7e607a102fb6ef2", "rental_uris": {"ios": "https://dc.lft.to/lastmile_qr_scan", "android": "https://dc.lft.to/lastmile_qr_scan"}}, {"name": "33e160f1956c9a1d5cf7f20e5d8e5072", "type": "electric_scooter", "lat": 38.90793216666667, "is_reserved": 0, "lon": -77.04822066666667, "fusion_lon": 0.0, "is_disabled": 0, "fusion_lat": 0.0, "bike_id": "33e160f1956c9a1d5cf7f20e5d8e5072", "rental_uris": {"ios": "https://dc.lft.to/lastmile_qr_scan", "android": "https://dc.lft.to/lastmile_qr_scan"}}, {"name": "420b080e5f61752506fab552def2c28b", "type": "electric_scooter", "lat": 38.89840866666667, "is_reserved": 0, "lon": -77.04369733333333, "fusion_lon": 0.0, "is_disabled": 0, "fusion_lat": 0.0, "bike_id": "420b080e5f61752506fab552def2c28b", "rental_uris": {"ios": "https://dc.lft.to/lastmile_qr_scan", "android": "https://dc.lft.to/lastmile_qr_scan"}}, {"name": "6c9b0fe05266f01b1f87065af107218f", "type": "electric_scooter", "lat": 38.95086233333333, "is_reserved": 0, "lon": -77.02866483333334, "fusion_lon": 0.0, "is_disabled": 0, "fusion_lat": 0.0, "bike_id": "6c9b0fe05266f01b1f87065af107218f", "rental_uris": {"ios": "https://dc.lft.to/lastmile_qr_scan", "android": "https://dc.lft.to/lastmile_qr_scan"}}, {"name": "d7e9e50409e7d9286783ff69a6e582b7", "type": "electric_scooter", "lat": 38.90965716666667, "is_reserved": 0, "lon": -77.03675766666667, "fusion_lon": 0.0, "is_disabled": 0, "fusion_lat": 0.0, "bike_id": "d7e9e50409e7d9286783ff69a6e582b7", "rental_uris": {"ios": "https://dc.lft.to/lastmile_qr_scan", "android": "https://dc.lft.to/lastmile_qr_scan"}}, {"name": "a2fe553efd2de885a474e438b611d60d", "type": "electric_scooter", "lat": 38.902396333333336, "is_reserved": 0, "lon": -77.036367, "fusion_lon": 0.0, "is_disabled": 0, "fusion_lat": 0.0, "bike_id": "a2fe553efd2de885a474e438b611d60d", "rental_uris": {"ios": "https://dc.lft.to/lastmile_qr_scan", "android": "https://dc.lft.to/lastmile_qr_scan"}}, {"name": "117b1c49ec37b2c5eb16bae851e5eb64", "type": "electric_scooter", "lat": 38.914734333333335, "is_reserved": 0, "lon": -77.032096, "fusion_lon": 0.0, "is_disabled": 0, "fusion_lat": 0.0, "bike_id": "117b1c49ec37b2c5eb16bae851e5eb64", "rental_uris": {"ios": "https://dc.lft.to/lastmile_qr_scan", "android": "https://dc.lft.to/lastmile_qr_scan"}}, {"name": "a11fe192b2811127445dfee9cbba697f", "type": "electric_scooter", "lat": 38.91333616666667, "is_reserved": 0, "lon": -77.031271, "fusion_lon": 0.0, "is_disabled": 0, "fusion_lat": 0.0, "bike_id": "a11fe192b2811127445dfee9cbba697f", "rental_uris": {"ios": "https://dc.lft.to/lastmile_qr_scan", "android": "https://dc.lft.to/lastmile_qr_scan"}}, {"name": "344a3b3c2e69daa167293aaf879e870d", "type": "electric_scooter", "lat": 38.90952633333333, "is_reserved": 0, "lon": -76.98538766666667, "fusion_lon": 0.0, "is_disabled": 0, "fusion_lat": 0.0, "bike_id": "344a3b3c2e69daa167293aaf879e870d", "rental_uris": {"ios": "https://dc.lft.to/lastmile_qr_scan", "android": "https://dc.lft.to/lastmile_qr_scan"}}, {"name": "760ecc98278faec04245c891df07ea20", "type": "electric_scooter", "lat": 38.884123, "is_reserved": 0, "lon": -76.97603533333333, "fusion_lon": 0.0, "is_disabled": 0, "fusion_lat": 0.0, "bike_id": "760ecc98278faec04245c891df07ea20", "rental_uris": {"ios": "https://dc.lft.to/lastmile_qr_scan", "android": "https://dc.lft.to/lastmile_qr_scan"}}, {"name": "4a1e9f626b8e7a5aea775945aa3260e0", "type": "electric_scooter", "lat": 38.9032275, "is_reserved": 0, "lon": -77.03833383333334, "fusion_lon": 0.0, "is_disabled": 0, "fusion_lat": 0.0, "bike_id": "4a1e9f626b8e7a5aea775945aa3260e0", "rental_uris": {"ios": "https://dc.lft.to/lastmile_qr_scan", "android": "https://dc.lft.to/lastmile_qr_scan"}}, {"name": "d108c3784e5fbfb189fe91ee5a0e807a", "type": "electric_scooter", "lat": 38.92304983333333, "is_reserved": 0, "lon": -76.99397533333334, "fusion_lon": 0.0, "is_disabled": 0, "fusion_lat": 0.0, "bike_id": "d108c3784e5fbfb189fe91ee5a0e807a", "rental_uris": {"ios": "https://dc.lft.to/lastmile_qr_scan", "android": "https://dc.lft.to/lastmile_qr_scan"}}, {"name": "95fa494a70377810b3cea51496f597a7", "type": "electric_scooter", "lat": 38.92026, "is_reserved": 0, "lon": -77.02614883333334, "fusion_lon": 0.0, "is_disabled": 0, "fusion_lat": 0.0, "bike_id": "95fa494a70377810b3cea51496f597a7", "rental_uris": {"ios": "https://dc.lft.to/lastmile_qr_scan", "android": "https://dc.lft.to/lastmile_qr_scan"}}, {"name": "3c3aaa464e602b5dc0734c18c933450d", "type": "electric_scooter", "lat": 38.949635, "is_reserved": 0, "lon": -77.0792915, "fusion_lon": 0.0, "is_disabled": 0, "fusion_lat": 0.0, "bike_id": "3c3aaa464e602b5dc0734c18c933450d", "rental_uris": {"ios": "https://dc.lft.to/lastmile_qr_scan", "android": "https://dc.lft.to/lastmile_qr_scan"}}, {"name": "7911d10b2e1b8fbec149c83d185558e9", "type": "electric_bike", "lat": 38.965431333333335, "is_reserved": 0, "lon": -77.03517333333333, "fusion_lon": 0.0, "is_disabled": 0, "fusion_lat": 0.0, "bike_id": "7911d10b2e1b8fbec149c83d185558e9", "rental_uris": {"ios": "https://dc.lft.to/lastmile_qr_scan", "android": "https://dc.lft.to/lastmile_qr_scan"}}, {"name": "4b4733578fcd2c435a3f53f80743b655", "type": "electric_scooter", "lat": 38.96982666666667, "is_reserved": 0, "lon": -77.02716333333333, "fusion_lon": 0.0, "is_disabled": 0, "fusion_lat": 0.0, "bike_id": "4b4733578fcd2c435a3f53f80743b655", "rental_uris": {"ios": "https://dc.lft.to/lastmile_qr_scan", "android": "https://dc.lft.to/lastmile_qr_scan"}}, {"name": "f42acf35b5e2c436b21428cd38484742", "type": "electric_scooter", "lat": 38.876773166666666, "is_reserved": 0, "lon": -77.00071783333334, "fusion_lon": 0.0, "is_disabled": 0, "fusion_lat": 0.0, "bike_id": "f42acf35b5e2c436b21428cd38484742", "rental_uris": {"ios": "https://dc.lft.to/lastmile_qr_scan", "android": "https://dc.lft.to/lastmile_qr_scan"}}, {"name": "6ef84116e7838778ffcb7a80d0740f16", "type": "electric_scooter", "lat": 38.92014366666667, "is_reserved": 0, "lon": -77.039016, "fusion_lon": 0.0, "is_disabled": 0, "fusion_lat": 0.0, "bike_id": "6ef84116e7838778ffcb7a80d0740f16", "rental_uris": {"ios": "https://dc.lft.to/lastmile_qr_scan", "android": "https://dc.lft.to/lastmile_qr_scan"}}, {"name": "9ec72d47f35654b353c16cef6d662b30", "type": "electric_scooter", "lat": 38.8429025, "is_reserved": 0, "lon": -76.99946133333333, "fusion_lon": 0.0, "is_disabled": 0, "fusion_lat": 0.0, "bike_id": "9ec72d47f35654b353c16cef6d662b30", "rental_uris": {"ios": "https://dc.lft.to/lastmile_qr_scan", "android": "https://dc.lft.to/lastmile_qr_scan"}}, {"name": "c0c79f5d56c2b35dcece4e0b4aaff35a", "type": "electric_scooter", "lat": 38.867007666666666, "is_reserved": 0, "lon": -76.98709483333333, "fusion_lon": 0.0, "is_disabled": 0, "fusion_lat": 0.0, "bike_id": "c0c79f5d56c2b35dcece4e0b4aaff35a", "rental_uris": {"ios": "https://dc.lft.to/lastmile_qr_scan", "android": "https://dc.lft.to/lastmile_qr_scan"}}, {"name": "4f42cd93bd67dc77628d353080427965", "type": "electric_scooter", "lat": 38.9061335, "is_reserved": 0, "lon": -77.01282016666667, "fusion_lon": 0.0, "is_disabled": 0, "fusion_lat": 0.0, "bike_id": "4f42cd93bd67dc77628d353080427965", "rental_uris": {"ios": "https://dc.lft.to/lastmile_qr_scan", "android": "https://dc.lft.to/lastmile_qr_scan"}}, {"name": "96ad54b06ae46c6a17aa8210e9fcf8ab", "type": "electric_scooter", "lat": 38.9007225, "is_reserved": 0, "lon": -77.050734, "fusion_lon": 0.0, "is_disabled": 0, "fusion_lat": 0.0, "bike_id": "96ad54b06ae46c6a17aa8210e9fcf8ab", "rental_uris": {"ios": "https://dc.lft.to/lastmile_qr_scan", "android": "https://dc.lft.to/lastmile_qr_scan"}}, {"name": "27d2e77f0c57dcc727655771feec15dd", "type": "electric_scooter", "lat": 38.89733716666667, "is_reserved": 0, "lon": -77.01326116666667, "fusion_lon": 0.0, "is_disabled": 0, "fusion_lat": 0.0, "bike_id": "27d2e77f0c57dcc727655771feec15dd", "rental_uris": {"ios": "https://dc.lft.to/lastmile_qr_scan", "android": "https://dc.lft.to/lastmile_qr_scan"}}, {"name": "6ec2550fbc5e70d6b9b089b39e8c98c4", "type": "electric_scooter", "lat": 38.911944166666665, "is_reserved": 0, "lon": -77.060939, "fusion_lon": 0.0, "is_disabled": 0, "fusion_lat": 0.0, "bike_id": "6ec2550fbc5e70d6b9b089b39e8c98c4", "rental_uris": {"ios": "https://dc.lft.to/lastmile_qr_scan", "android": "https://dc.lft.to/lastmile_qr_scan"}}, {"name": "613a479b83044b1260700002045ebbb4", "type": "electric_scooter", "lat": 38.89530216666667, "is_reserved": 0, "lon": -76.94930583333333, "fusion_lon": 0.0, "is_disabled": 0, "fusion_lat": 0.0, "bike_id": "613a479b83044b1260700002045ebbb4", "rental_uris": {"ios": "https://dc.lft.to/lastmile_qr_scan", "android": "https://dc.lft.to/lastmile_qr_scan"}}, {"name": "2f34ffa89237da23d0f0697cf23f6aa4", "type": "electric_scooter", "lat": 38.900820333333336, "is_reserved": 0, "lon": -77.05052016666667, "fusion_lon": 0.0, "is_disabled": 0, "fusion_lat": 0.0, "bike_id": "2f34ffa89237da23d0f0697cf23f6aa4", "rental_uris": {"ios": "https://dc.lft.to/lastmile_qr_scan", "android": "https://dc.lft.to/lastmile_qr_scan"}}, {"name": "a2741d6a0db61ed09a43658414fdec7d", "type": "electric_scooter", "lat": 38.9358545, "is_reserved": 0, "lon": -77.0376275, "fusion_lon": 0.0, "is_disabled": 0, "fusion_lat": 0.0, "bike_id": "a2741d6a0db61ed09a43658414fdec7d", "rental_uris": {"ios": "https://dc.lft.to/lastmile_qr_scan", "android": "https://dc.lft.to/lastmile_qr_scan"}}, {"name": "38151a4e0cc34cb18fb4980fb08058b2", "type": "electric_scooter", "lat": 38.8921855, "is_reserved": 0, "lon": -77.0453445, "fusion_lon": 0.0, "is_disabled": 0, "fusion_lat": 0.0, "bike_id": "38151a4e0cc34cb18fb4980fb08058b2", "rental_uris": {"ios": "https://dc.lft.to/lastmile_qr_scan", "android": "https://dc.lft.to/lastmile_qr_scan"}}, {"name": "177db9b590590eaadf267b0224a9b54d", "type": "electric_scooter", "lat": 38.92906816666667, "is_reserved": 0, "lon": -77.02163316666666, "fusion_lon": 0.0, "is_disabled": 0, "fusion_lat": 0.0, "bike_id": "177db9b590590eaadf267b0224a9b54d", "rental_uris": {"ios": "https://dc.lft.to/lastmile_qr_scan", "android": "https://dc.lft.to/lastmile_qr_scan"}}, {"name": "9e81c68ffb0b460fe5cb09fa9e9fae07", "type": "electric_scooter", "lat": 38.934894, "is_reserved": 0, "lon": -77.028477, "fusion_lon": 0.0, "is_disabled": 0, "fusion_lat": 0.0, "bike_id": "9e81c68ffb0b460fe5cb09fa9e9fae07", "rental_uris": {"ios": "https://dc.lft.to/lastmile_qr_scan", "android": "https://dc.lft.to/lastmile_qr_scan"}}, {"name": "e1c222fa0318dbf8085d9ad76c425bf0", "type": "electric_bike", "lat": 38.85432383333333, "is_reserved": 0, "lon": -76.90965683333333, "fusion_lon": 0.0, "is_disabled": 0, "fusion_lat": 0.0, "bike_id": "e1c222fa0318dbf8085d9ad76c425bf0", "rental_uris": {"ios": "https://dc.lft.to/lastmile_qr_scan", "android": "https://dc.lft.to/lastmile_qr_scan"}}, {"name": "5f0843f9a15e734418ac531256b6cb88", "type": "electric_scooter", "lat": 38.93546116666667, "is_reserved": 0, "lon": -77.03420333333334, "fusion_lon": 0.0, "is_disabled": 0, "fusion_lat": 0.0, "bike_id": "5f0843f9a15e734418ac531256b6cb88", "rental_uris": {"ios": "https://dc.lft.to/lastmile_qr_scan", "android": "https://dc.lft.to/lastmile_qr_scan"}}, {"name": "55cf29761ce44091c9b3ea9da7b714a3", "type": "electric_scooter", "lat": 38.9002345, "is_reserved": 0, "lon": -76.987039, "fusion_lon": 0.0, "is_disabled": 0, "fusion_lat": 0.0, "bike_id": "55cf29761ce44091c9b3ea9da7b714a3", "rental_uris": {"ios": "https://dc.lft.to/lastmile_qr_scan", "android": "https://dc.lft.to/lastmile_qr_scan"}}, {"name": "cc3ffe1acb989ef553548af732146457", "type": "electric_bike", "lat": 38.81045816666666, "is_reserved": 0, "lon": -77.0850985, "fusion_lon": 0.0, "is_disabled": 0, "fusion_lat": 0.0, "bike_id": "cc3ffe1acb989ef553548af732146457", "rental_uris": {"ios": "https://dc.lft.to/lastmile_qr_scan", "android": "https://dc.lft.to/lastmile_qr_scan"}}, {"name": "df59afad11a4c210e6a67ea77204ec4d", "type": "electric_scooter", "lat": 38.9266625, "is_reserved": 0, "lon": -76.99537633333334, "fusion_lon": 0.0, "is_disabled": 0, "fusion_lat": 0.0, "bike_id": "df59afad11a4c210e6a67ea77204ec4d", "rental_uris": {"ios": "https://dc.lft.to/lastmile_qr_scan", "android": "https://dc.lft.to/lastmile_qr_scan"}}, {"name": "f06f557ac74a4e0d0b6029fdef3029c0", "type": "electric_scooter", "lat": 38.844234, "is_reserved": 0, "lon": -76.997749, "fusion_lon": 0.0, "is_disabled": 0, "fusion_lat": 0.0, "bike_id": "f06f557ac74a4e0d0b6029fdef3029c0", "rental_uris": {"ios": "https://dc.lft.to/lastmile_qr_scan", "android": "https://dc.lft.to/lastmile_qr_scan"}}, {"name": "ab58ba869c9fcd2fd6267e2611c36ceb", "type": "electric_bike", "lat": 39.02645183333333, "is_reserved": 0, "lon": -77.125412, "fusion_lon": 0.0, "is_disabled": 0, "fusion_lat": 0.0, "bike_id": "ab58ba869c9fcd2fd6267e2611c36ceb", "rental_uris": {"ios": "https://dc.lft.to/lastmile_qr_scan", "android": "https://dc.lft.to/lastmile_qr_scan"}}, {"name": "829db86a6707951e569d8de2b1956956", "type": "electric_scooter", "lat": 38.89897833333333, "is_reserved": 0, "lon": -77.03292816666666, "fusion_lon": 0.0, "is_disabled": 0, "fusion_lat": 0.0, "bike_id": "829db86a6707951e569d8de2b1956956", "rental_uris": {"ios": "https://dc.lft.to/lastmile_qr_scan", "android": "https://dc.lft.to/lastmile_qr_scan"}}, {"name": "87ff389ea1f147b45057fb90feff2f9b", "type": "electric_scooter", "lat": 38.88515616666667, "is_reserved": 0, "lon": -77.00571766666667, "fusion_lon": 0.0, "is_disabled": 0, "fusion_lat": 0.0, "bike_id": "87ff389ea1f147b45057fb90feff2f9b", "rental_uris": {"ios": "https://dc.lft.to/lastmile_qr_scan", "android": "https://dc.lft.to/lastmile_qr_scan"}}, {"name": "7f4683b78875a5ed41ff0464293bac91", "type": "electric_scooter", "lat": 38.91672166666667, "is_reserved": 0, "lon": -77.02401233333333, "fusion_lon": 0.0, "is_disabled": 0, "fusion_lat": 0.0, "bike_id": "7f4683b78875a5ed41ff0464293bac91", "rental_uris": {"ios": "https://dc.lft.to/lastmile_qr_scan", "android": "https://dc.lft.to/lastmile_qr_scan"}}, {"name": "630c1b545d45cf1dba652bf14e912256", "type": "electric_scooter", "lat": 38.87837916666667, "is_reserved": 0, "lon": -77.00050316666666, "fusion_lon": 0.0, "is_disabled": 0, "fusion_lat": 0.0, "bike_id": "630c1b545d45cf1dba652bf14e912256", "rental_uris": {"ios": "https://dc.lft.to/lastmile_qr_scan", "android": "https://dc.lft.to/lastmile_qr_scan"}}, {"name": "8db188e68bc5404972590beb1066cb08", "type": "electric_scooter", "lat": 38.910015666666666, "is_reserved": 0, "lon": -77.05278966666667, "fusion_lon": 0.0, "is_disabled": 0, "fusion_lat": 0.0, "bike_id": "8db188e68bc5404972590beb1066cb08", "rental_uris": {"ios": "https://dc.lft.to/lastmile_qr_scan", "android": "https://dc.lft.to/lastmile_qr_scan"}}, {"name": "d10d662305e3059e2b4fc91373909d72", "type": "electric_scooter", "lat": 38.900839500000004, "is_reserved": 0, "lon": -77.04897066666666, "fusion_lon": 0.0, "is_disabled": 0, "fusion_lat": 0.0, "bike_id": "d10d662305e3059e2b4fc91373909d72", "rental_uris": {"ios": "https://dc.lft.to/lastmile_qr_scan", "android": "https://dc.lft.to/lastmile_qr_scan"}}, {"name": "a0469728aaa69d40d0d1a24c018c69a5", "type": "electric_scooter", "lat": 38.911149, "is_reserved": 0, "lon": -77.01058783333333, "fusion_lon": 0.0, "is_disabled": 0, "fusion_lat": 0.0, "bike_id": "a0469728aaa69d40d0d1a24c018c69a5", "rental_uris": {"ios": "https://dc.lft.to/lastmile_qr_scan", "android": "https://dc.lft.to/lastmile_qr_scan"}}, {"name": "1fc8df590e05bb9611d44d40fc547647", "type": "electric_bike", "lat": 38.88019283333333, "is_reserved": 0, "lon": -76.989535, "fusion_lon": 0.0, "is_disabled": 0, "fusion_lat": 0.0, "bike_id": "1fc8df590e05bb9611d44d40fc547647", "rental_uris": {"ios": "https://dc.lft.to/lastmile_qr_scan", "android": "https://dc.lft.to/lastmile_qr_scan"}}, {"name": "629aa6a74b04a7a90cebfdf652749b80", "type": "electric_scooter", "lat": 38.892397, "is_reserved": 0, "lon": -77.031959, "fusion_lon": 0.0, "is_disabled": 0, "fusion_lat": 0.0, "bike_id": "629aa6a74b04a7a90cebfdf652749b80", "rental_uris": {"ios": "https://dc.lft.to/lastmile_qr_scan", "android": "https://dc.lft.to/lastmile_qr_scan"}}, {"name": "a2705f9774c39fd3b3bc8b4899d51190", "type": "electric_scooter", "lat": 38.91688833333333, "is_reserved": 0, "lon": -77.02525733333333, "fusion_lon": 0.0, "is_disabled": 0, "fusion_lat": 0.0, "bike_id": "a2705f9774c39fd3b3bc8b4899d51190", "rental_uris": {"ios": "https://dc.lft.to/lastmile_qr_scan", "android": "https://dc.lft.to/lastmile_qr_scan"}},