{"data": {"bikes": [{"fusion_lon": 0.0, "bike_id": "ed3a40d035f7f1eb1c1219aefb2d85df", "name": "ed3a40d035f7f1eb1c1219aefb2d85df", "type": "electric_scooter", "lon": -76.99157366666667, "rental_uris": {"android": "https://dc.lft.to/lastmile_qr_scan", "ios": "https://dc.lft.to/lastmile_qr_scan"}, "lat": 38.88671883333333, "is_reserved": 0, "is_disabled": 0, "fusion_lat": 0.0}, {"fusion_lon": 0.0, "bike_id": "8a769744d008c647d6e376d669ff8886", "name": "8a769744d008c647d6e376d669ff8886", "type": "electric_scooter", "lon": -77.02764366666666, "rental_uris": {"android": "https://dc.lft.to/lastmile_qr_scan", "ios": "https://dc.lft.to/lastmile_qr_scan"}, "lat": 38.9430145, "is_reserved": 0, "is_disabled": 0, "fusion_lat": 0.0}, {"fusion_lon": 0.0, "bike_id": "4492398cf0f5a972375fe8bf6440e622", "name": "4492398cf0f5a972375fe8bf6440e622", "type": "electric_scooter", "lon": -76.94941633333333, "rental_uris": {"android": "https://dc.lft.to/lastmile_qr_scan", "ios": "https://dc.lft.to/lastmile_qr_scan"}, "lat": 38.89363983333333, "is_reserved": 0, "is_disabled": 0, "fusion_lat": 0.0}, {"fusion_lon": 0.0, "bike_id": "f99fcc6968dbb9c951c60a5465b34a54", "name": "f99fcc6968dbb9c951c60a5465b34a54", "type": "electric_scooter", "lon": -77.008924, "rental_uris": {"android": "https://dc.lft.to/lastmile_qr_scan", "ios": "https://dc.lft.to/lastmile_qr_scan"}, "lat": 38.905771666666666, "is_reserved": 0, "is_disabled": 0, "fusion_lat": 0.0}, {"fusion_lon": 0.0, "bike_id": "95962cecee1834b1afb90ab7b4d05076", "name": "95962cecee1834b1afb90ab7b4d05076", "type": "electric_scooter", "lon": -77.0260975, "rental_uris": {"android": "https://dc.lft.to/lastmile_qr_scan", "ios": "https://dc.lft.to/lastmile_qr_scan"}, "lat": 38.918519333333336, "is_reserved": 0, "is_disabled": 0, "fusion_lat": 0.0}, {"fusion_lon": 0.0, "bike_id": "9100d3c06cbd5d575e6f69b510d7c033", "name": "9100d3c06cbd5d575e6f69b510d7c033", "type": "electric_scooter", "lon": -77.04479166666667, "rental_uris": {"android": "https://dc.lft.to/lastmile_qr_scan", "ios": "https://dc.lft.to/lastmile_qr_scan"}, "lat": 38.910825, "is_reserved": 0, "is_disabled": 0, "fusion_lat": 0.0}, {"fusion_lon": 0.0, "bike_id": "172fdd89b7c3a4ddf8cb4f089ee4da11", "name": "172fdd89b7c3a4ddf8cb4f089ee4da11", "type": "electric_scooter", "lon": -76.99032866666667, "rental_uris": {"android": "https://dc.lft.to/lastmile_qr_scan", "ios": "https://dc.lft.to/lastmile_qr_scan"}, "lat": 38.898829, "is_reserved": 0, "is_disabled": 0, "fusion_lat": 0.0}, {"fusion_lon": 0.0, "bike_id": "acf3038a5db1a93690b978a072fcd0d8", "name": "acf3038a5db1a93690b978a072fcd0d8", "type": "electric_bike", "lon": -76.9749855, "rental_uris": {"android": "https://dc.lft.to/lastmile_qr_scan", "ios": "https://dc.lft.to/lastmile_qr_scan"}, "lat": 38.919383833333335, "is_reserved": 0, "is_disabled": 0, "fusion_lat": 0.0}, {"fusion_lon": 0.0, "bike_id": "418a389f100aaf4734e0275b0876124f", "name": "418a389f100aaf4734e0275b0876124f", "type": "electric_scooter", "lon": -77.00943666666667, "rental_uris": {"android": "https://dc.lft.to/lastmile_qr_scan", "ios": "https://dc.lft.to/lastmile_qr_scan"}, "lat": 38.89497133333333, "is_reserved": 0, "is_disabled": 0, "fusion_lat": 0.0}, {"fusion_lon": 0.0, "bike_id": "ebd4eaa81a071c063d46579377b6f84a", "name": "ebd4eaa81a071c063d46579377b6f84a", "type": "electric_scooter", "lon": -76.97470533333333, "rental_uris": {"android": "https://dc.lft.to/lastmile_qr_scan", "ios": "https://dc.lft.to/lastmile_qr_scan"}, "lat": 38.895602, "is_reserved": 0, "is_disabled": 0, "fusion_lat": 0.0}, {"fusion_lon": 0.0, "bike_id": "574a237e41953bcd3ace53e33a8756d1", "name": "574a237e41953bcd3ace53e33a8756d1", "type": "electric_scooter", "lon": -77.00225866666666, "rental_uris": {"android": "https://dc.lft.to/lastmile_qr_scan", "ios": "https://dc.lft.to/lastmile_qr_scan"}, "lat": 38.91340566666667, "is_reserved": 0, "is_disabled": 0, "fusion_lat": 0.0}, {"fusion_lon": 0.0, "bike_id": "a9e57b10c8087f414f905958d70094b5", "name": "a9e57b10c8087f414f905958d70094b5", "type": "electric_scooter", "lon": -77.035137, "rental_uris": {"android": "https://dc.lft.to/lastmile_qr_scan", "ios": "https://dc.lft.to/lastmile_qr_scan"}, "lat": 38.91710066666667, "is_reserved": 0, "is_disabled": 0, "fusion_lat": 0.0}, {"fusion_lon": 0.0, "bike_id": "d7739a74b31278aff60861ffd479a080", "name": "d7739a74b31278aff60861ffd479a080", "type": "electric_scooter", "lon": -77.0233675, "rental_uris": {"android": "https://dc.lft.to/lastmile_qr_scan", "ios": "https://dc.lft.to/lastmile_qr_scan"}, "lat": 38.92232166666667, "is_reserved": 0, "is_disabled": 0, "fusion_lat": 0.0}, {"fusion_lon": 0.0, "bike_id": "3a887b22120577f900761be864164162", "name": "3a887b22120577f900761be864164162", "type": "electric_bike", "lon": -77.08439266666667, "rental_uris": {"android": "https://dc.lft.to/lastmile_qr_scan", "ios": "https://dc.lft.to/lastmile_qr_scan"}, "lat": 38.810253, "is_reserved": 0, "is_disabled": 0, "fusion_lat": 0.0}, {"fusion_lon": 0.0, "bike_id": "1c99e3cc636fe65e2ae66412f22fb496", "name": "1c99e3cc636fe65e2ae66412f22fb496", "type": "electric_scooter", "lon": -76.9967795, "rental_uris": {"android": "https://dc.lft.to/lastmile_qr_scan", "ios": "https://dc.lft.to/lastmile_qr_scan"}, "lat": 38.886999, "is_reserved": 0, "is_disabled": 0, "fusion_lat": 0.0}, {"fusion_lon": 0.0, "bike_id": "43e32f4debf71af75aefc218a2528558", "name": "43e32f4debf71af75aefc218a2528558", "type": "electric_scooter", "lon": -77.02606383333334, "rental_uris": {"android": "https://dc.lft.to/lastmile_qr_scan", "ios": "https://dc.lft.to/lastmile_qr_scan"}, "lat": 38.9244595, "is_reserved": 0, "is_disabled": 0, "fusion_lat": 0.0}, {"fusion_lon": 0.0, "bike_id": "2a451182f07a45308a9292babacc7fdf", "name": "2a451182f07a45308a9292babacc7fdf", "type": "electric_scooter", "lon": -77.041405, "rental_uris": {"android": "https://dc.lft.to/lastmile_qr_scan", "ios": "https://dc.lft.to/lastmile_qr_scan"}, "lat": 38.900142333333335, "is_reserved": 0, "is_disabled": 0, "fusion_lat": 0.0}, {"fusion_lon": 0.0, "bike_id": "0a958db65cb4b8666b61b5fd0f283290", "name": "0a958db65cb4b8666b61b5fd0f283290", "type": "electric_scooter", "lon": -77.030509, "rental_uris": {"android": "https://dc.lft.to/lastmile_qr_scan", "ios": "https://dc.lft.to/lastmile_qr_scan"}, "lat": 38.96424716666667, "is_reserved": 0, "is_disabled": 0, "fusion_lat": 0.0}, {"fusion_lon": 0.0, "bike_id": "5355e108c5e85df37d88cf5733a79f75", "name": "5355e108c5e85df37d88cf5733a79f75", "type": "electric_scooter", "lon": -77.0682105, "rental_uris": {"android": "https://dc.lft.to/lastmile_qr_scan", "ios": "https://dc.lft.to/lastmile_qr_scan"}, "lat": 38.904984666666664, "is_reserved": 0, "is_disabled": 0, "fusion_lat": 0.0}, {"fusion_lon": 0.0, "bike_id": "28980b3ac2ec94c221ec9c063f124e2e", "name": "28980b3ac2ec94c221ec9c063f124e2e", "type": "electric_scooter", "lon": -77.041015, "rental_uris": {"android": "https://dc.lft.to/lastmile_qr_scan", "ios": "https://dc.lft.to/lastmile_qr_scan"}, "lat": 38.90890133333333, "is_reserved": 0, "is_disabled": 0, "fusion_lat": 0.0}, {"fusion_lon": 0.0, "bike_id": "d215ff80a864c3a44f2dfbf9e74e1da1", "name": "d215ff80a864c3a44f2dfbf9e74e1da1", "type": "electric_scooter", "lon": -76.96528216666667, "rental_uris": {"android": "https://dc.lft.to/lastmile_qr_scan", "ios": "https://dc.lft.to/lastmile_qr_scan"}, "lat": 38.87627283333333, "is_reserved": 0, "is_disabled": 0, "fusion_lat": 0.0}, {"fusion_lon": 0.0, "bike_id": "720ff292a9bfbc983291aee2d31f1970", "name": "720ff292a9bfbc983291aee2d31f1970", "type": "electric_scooter", "lon": -77.0651955, "rental_uris": {"android": "https://dc.lft.to/lastmile_qr_scan", "ios": "https://dc.lft.to/lastmile_qr_scan"}, "lat": 38.905289, "is_reserved": 0, "is_disabled": 0, "fusion_lat": 0.0}, {"fusion_lon": 0.0, "bike_id": "2ff8b0c4381e5b8a9425858122f3c578", "name": "2ff8b0c4381e5b8a9425858122f3c578", "type": "electric_scooter", "lon": -77.003363, "rental_uris": {"android": "https://dc.lft.to/lastmile_qr_scan", "ios": "https://dc.lft.to/lastmile_qr_scan"}, "lat": 38.89523966666667, "is_reserved": 0, "is_disabled": 0, "fusion_lat": 0.0}, {"fusion_lon": 0.0, "bike_id": "a340e70882964ae11c7f84dc29bbfb54", "name": "a340e70882964ae11c7f84dc29bbfb54", "type": "electric_bike", "lon": -77.05618066666666, "rental_uris": {"android": "https://dc.lft.to/lastmile_qr_scan", "ios": "https://dc.lft.to/lastmile_qr_scan"}, "lat": 38.92963183333333, "is_reserved": 0, "is_disabled": 0, "fusion_lat": 0.0}, {"fusion_lon": 0.0, "bike_id": "e499608880dbe627977203a37aef4752", "name": "e499608880dbe627977203a37aef4752", "type": "electric_scooter", "lon": -77.025937, "rental_uris": {"android": "https://dc.lft.to/lastmile_qr_scan", "ios": "https://dc.lft.to/lastmile_qr_scan"}, "lat": 38.9127965, "is_reserved": 0, "is_disabled": 0, "fusion_lat": 0.0}, {"fusion_lon": 0.0, "bike_id": "ee117f757f21ae5ebac4d1560ebf732a", "name": "ee117f757f21ae5ebac4d1560ebf732a", "type": "electric_scooter", "lon": -76.99612883333333, "rental_uris": {"android": "https://dc.lft.to/lastmile_qr_scan", "ios": "https://dc.lft.to/lastmile_qr_scan"}, "lat": 38.8861985, "is_reserved": 0, "is_disabled": 0, "fusion_lat": 0.0}, {"fusion_lon": 0.0, "bike_id": "ada2e3a3aff605bf29f122d5b049f048", "name": "ada2e3a3aff605bf29f122d5b049f048", "type": "electric_scooter", "lon": -77.0094005, "rental_uris": {"android": "https://dc.lft.to/lastmile_qr_scan", "ios": "https://dc.lft.to/lastmile_qr_scan"}, "lat": 38.87661466666667, "is_reserved": 0, "is_disabled": 0, "fusion_lat": 0.0}, {"fusion_lon": 0.0, "bike_id": "c7d2671bad9a8b42f77dbf8c27133931", "name": "c7d2671bad9a8b42f77dbf8c27133931", "type": "electric_scooter", "lon": -76.9838305, "rental_uris": {"android": "https://dc.lft.to/lastmile_qr_scan", "ios": "https://dc.lft.to/lastmile_qr_scan"}, "lat": 38.90644266666666, "is_reserved": 0, "is_disabled": 0, "fusion_lat": 0.0}, {"fusion_lon": 0.0, "bike_id": "d6d71560f175e265b77a2df7e4eaf963", "name": "d6d71560f175e265b77a2df7e4eaf963", "type": "electric_scooter", "lon": -77.01915083333333, "rental_uris": {"android": "https://dc.lft.to/lastmile_qr_scan", "ios": "https://dc.lft.to/lastmile_qr_scan"}, "lat": 38.89745466666667, "is_reserved": 0, "is_disabled": 0, "fusion_lat": 0.0}, {"fusion_lon": 0.0, "bike_id": "b3feef8cdb4a8dc99e519ba3348a4d78", "name": "b3feef8cdb4a8dc99e519ba3348a4d78", "type": "electric_scooter", "lon": -77.072434, "rental_uris": {"android": "https://dc.lft.to/lastmile_qr_scan", "ios": "https://dc.lft.to/lastmile_qr_scan"}, "lat": 38.9226235, "is_reserved": 0, "is_disabled": 0, "fusion_lat": 0.0}, {"fusion_lon": 0.0, "bike_id": "a2f09668af0cef67553dc234db2c4ee2", "name": "a2f09668af0cef67553dc234db2c4ee2", "type": "electric_bike", "lon": -77.10182283333333, "rental_uris": {"android": "https://dc.lft.to/lastmile_qr_scan", "ios": "https://dc.lft.to/lastmile_qr_scan"}, "lat": 38.918092666666666, "is_reserved": 0, "is_disabled": 0, "fusion_lat": 0.0}, {"fusion_lon": 0.0, "bike_id": "c2b2631053bb33d418b2bda23eaee462", "name": "c2b2631053bb33d418b2bda23eaee462", "type": "electric_scooter", "lon": -77.02157466666667, "rental_uris": {"android": "https://dc.lft.to/lastmile_qr_scan", "ios": "https://dc.lft.to/lastmile_qr_scan"}, "lat": 38.92600483333333, "is_reserved": 0, "is_disabled": 0, "fusion_lat": 0.0}, {"fusion_lon": 0.0, "bike_id": "0da6628f8139eda22fe3a2241004ffea", "name": "0da6628f8139eda22fe3a2241004ffea", "type": "electric_bike", "lon": -77.11228133333333, "rental_uris": {"android": "https://dc.lft.to/lastmile_qr_scan", "ios": "https://dc.lft.to/lastmile_qr_scan"}, "lat": 38.8122315, "is_reserved": 0, "is_disabled": 0, "fusion_lat": 0.0}, {"fusion_lon": 0.0, "bike_id": "f8e1748162ddedc8efe61795cb1fb305", "name": "f8e1748162ddedc8efe61795cb1fb305", "type": "electric_bike", "lon": -76.9519955, "rental_uris": {"android": "https://dc.lft.to/lastmile_qr_scan", "ios": "https://dc.lft.to/lastmile_qr_scan"}, "lat": 38.90676916666666, "is_reserved": 0, "is_disabled": 0, "fusion_lat": 0.0}, {"fusion_lon": 0.0, "bike_id": "141596db6a9c46b496ee5948a6c19730", "name": "141596db6a9c46b496ee5948a6c19730", "type": "electric_scooter", "lon": -76.95020583333333, "rental_uris": {"android": "https://dc.lft.to/lastmile_qr_scan", "ios": "https://dc.lft.to/lastmile_qr_scan"}, "lat": 38.88393283333333, "is_reserved": 0, "is_disabled": 0, "fusion_lat": 0.0}, {"fusion_lon": 0.0, "bike_id": "dc837a14b51586e41f36fdef1e0d3a84", "name": "dc837a14b51586e41f36fdef1e0d3a84", "type": "electric_scooter", "lon": -77.064099, "rental_uris": {"android": "https://dc.lft.to/lastmile_qr_scan", "ios": "https://dc.lft.to/lastmile_qr_scan"}, "lat": 38.943232333333334, "is_reserved": 0, "is_disabled": 0, "fusion_lat": 0.0}, {"fusion_lon": 0.0, "bike_id": "3451590385dbde99b4f31ec04f28bbb8", "name": "3451590385dbde99b4f31ec04f28bbb8", "type": "electric_scooter", "lon": -77.03181616666667, "rental_uris": {"android": "https://dc.lft.to/lastmile_qr_scan", "ios": "https://dc.lft.to/lastmile_qr_scan"}, "lat": 38.91920533333333, "is_reserved": 0, "is_disabled": 0, "fusion_lat": 0.0}, {"fusion_lon": 0.0, "bike_id": "89b79203b332b3bc5d852facdac375d0", "name": "89b79203b332b3bc5d852facdac375d0", "type": "electric_scooter", "lon": -77.00740716666667, "rental_uris": {"android": "https://dc.lft.to/lastmile_qr_scan", "ios": "https://dc.lft.to/lastmile_qr_scan"}, "lat": 38.8763575, "is_reserved": 0, "is_disabled": 0, "fusion_lat": 0.0}, {"fusion_lon": 0.0, "bike_id": "fd5c453828ddeb69b6b8ebff688290ed", "name": "fd5c453828ddeb69b6b8ebff688290ed", "type": "electric_scooter", "lon": -77.03155733333334, "rental_uris": {"android": "https://dc.lft.to/lastmile_qr_scan", "ios": "https://dc.lft.to/lastmile_qr_scan"}, "lat": 38.927193833333334, "is_reserved": 0, "is_disabled": 0, "fusion_lat": 0.0}, {"fusion_lon": 0.0, "bike_id": "53588c873474ecb3fa9a5ac1c3a579f0", "name": "53588c873474ecb3fa9a5ac1c3a579f0", "type": "electric_bike", "lon": -76.982079, "rental_uris": {"android": "https://dc.lft.to/lastmile_qr_scan", "ios": "https://dc.lft.to/lastmile_qr_scan"}, "lat": 38.985030333333334, "is_reserved": 0, "is_disabled": 0, "fusion_lat": 0.0}, {"fusion_lon": 0.0, "bike_id": "f7df938b77b64f73ec5229606022d330", "name": "f7df938b77b64f73ec5229606022d330", "type": "electric_scooter", "lon": -77.0258545, "rental_uris": {"android": "https://dc.lft.to/lastmile_qr_scan", "ios": "https://dc.lft.to/lastmile_qr_scan"}, "lat": 38.9421335, "is_reserved": 0, "is_disabled": 0, "fusion_lat": 0.0}, {"fusion_lon": 0.0, "bike_id": "a7b2ea5c8b80c7b063ac37c5fa11f057", "name": "a7b2ea5c8b80c7b063ac37c5fa11f057", "type": "electric_scooter", "lon": -77.04491516666667, "rental_uris": {"android": "https://dc.lft.to/lastmile_qr_scan", "ios": "https://dc.lft.to/lastmile_qr_scan"}, "lat": 38.919282333333335, "is_reserved": 0, "is_disabled": 0, "fusion_lat": 0.0}, {"fusion_lon": 0.0, "bike_id": "947fefdb2d9fcb17eb4b54197dc32ac3", "name": "947fefdb2d9fcb17eb4b54197dc32ac3", "type": "electric_scooter", "lon": -77.0386005, "rental_uris": {"android": "https://dc.lft.to/lastmile_qr_scan", "ios": "https://dc.lft.to/lastmile_qr_scan"}, "lat": 38.918122833333335, "is_reserved": 0, "is_disabled": 0, "fusion_lat": 0.0}, {"fusion_lon": 0.0, "bike_id": "28544e341e423a04f9d20f2431e8ffdf", "name": "28544e341e423a04f9d20f2431e8ffdf", "type": "electric_scooter", "lon": -77.04180016666666, "rental_uris": {"android": "https://dc.lft.to/lastmile_qr_scan", "ios": "https://dc.lft.to/lastmile_qr_scan"}, "lat": 38.923345166666664, "is_reserved": 0, "is_disabled": 0, "fusion_lat": 0.0}, {"fusion_lon": 0.0, "bike_id": "17ffb9585d7eab7f9a756e03a8b4c150", "name": "17ffb9585d7eab7f9a756e03a8b4c150", "type": "electric_scooter", "lon": -77.00648283333334, "rental_uris": {"android": "https://dc.lft.to/lastmile_qr_scan", "ios": "https://dc.lft.to/lastmile_qr_scan"}, "lat": 38.9118015, "is_reserved": 0, "is_disabled": 0, "fusion_lat": 0.0}, {"fusion_lon": 0.0, "bike_id": "3a280e9a171f592e5e0610888ab72438", "name": "3a280e9a171f592e5e0610888ab72438", "type": "electric_scooter", "lon": -77.01298733333333, "rental_uris": {"android": "https://dc.lft.to/lastmile_qr_scan", "ios": "https://dc.lft.to/lastmile_qr_scan"}, "lat": 38.886431, "is_reserved": 0, "is_disabled": 0, "fusion_lat": 0.0}, {"fusion_lon": 0.0, "bike_id": "3ff3d0c607ad0375f9973b9690e2b41c", "name": "3ff3d0c607ad0375f9973b9690e2b41c", "type": "electric_scooter", "lon": -77.0306355, "rental_uris": {"android": "https://dc.lft.to/lastmile_qr_scan", "ios": "https://dc.lft.to/lastmile_qr_scan"}, "lat": 38.939814166666665, "is_reserved": 0, "is_disabled": 0, "fusion_lat": 0.0}, {"fusion_lon": 0.0, "bike_id": "fd3638b9560c39c28796538fa25050d3", "name": "fd3638b9560c39c28796538fa25050d3", "type": "electric_scooter", "lon": -77.03175533333334, "rental_uris": {"android": "https://dc.lft.to/lastmile_qr_scan", "ios": "https://dc.lft.to/lastmile_qr_scan"}, "lat": 38.919286166666666, "is_reserved": 0, "is_disabled": 0, "fusion_lat": 0.0}, {"fusion_lon": 0.0, "bike_id": "fb808e515722897a6287f3c2896a369d", "name": "fb808e515722897a6287f3c2896a369d", "type": "electric_scooter", "lon": -77.04402983333334, "rental_uris": {"android": "https://dc.lft.to/lastmile_qr_scan", "ios": "https://dc.lft.to/lastmile_qr_scan"}, "lat": 38.902266, "is_reserved": 0, "is_disabled": 0, "fusion_lat": 0.0}, {"fusion_lon": 0.0, "bike_id": "b23fddf0206e1795dbf71c723317dcce", "name": "b23fddf0206e1795dbf71c723317dcce", "type": "electric_scooter", "lon": -76.99964133333333, "rental_uris": {"android": "https://dc.lft.to/lastmile_qr_scan", "ios": "https://dc.lft.to/lastmile_qr_scan"}, "lat": 38.893209166666665, "is_reserved": 0, "is_disabled": 0, "fusion_lat": 0.0}, {"fusion_lon": 0.0, "bike_id": "966432048c593f7dc76807f5f14523d3", "name": "966432048c593f7dc76807f5f14523d3", "type": "electric_scooter", "lon": -77.02173633333334, "rental_uris": {"android": "https://dc.lft.to/lastmile_qr_scan", "ios": "https://dc.lft.to/lastmile_qr_scan"}, "lat": 38.942926, "is_reserved": 0, "is_disabled": 0, "fusion_lat": 0.0}, {"fusion_lon": 0.0, "bike_id": "05f5d208322038f28cb1dea0693c5826", "name": "05f5d208322038f28cb1dea0693c5826", "type": "electric_bike", "lon": -76.97995583333334, "rental_uris": {"android": "https://dc.lft.to/lastmile_qr_scan", "ios": "https://dc.lft.to/lastmile_qr_scan"}, "lat": 38.87755883333333, "is_reserved": 0, "is_disabled": 0, "fusion_lat": 0.0}, {"fusion_lon": 0.0, "bike_id": "14a2bf5862932169df57d63ec0dbf906", "name": "14a2bf5862932169df57d63ec0dbf906", "type": "electric_scooter", "lon": -77.0136465, "rental_uris": {"android": "https://dc.lft.to/lastmile_qr_scan", "ios": "https://dc.lft.to/lastmile_qr_scan"}, "lat": 38.8790345, "is_reserved": 0, "is_disabled": 0, "fusion_lat": 0.0}, {"fusion_lon": 0.0, "bike_id": "cd8b008f187b694cff5ac0dc3e3ccb65", "name": "cd8b008f187b694cff5ac0dc3e3ccb65", "type": "electric_bike", "lon": -77.360873, "rental_uris": {"android": "https://dc.lft.to/lastmile_qr_scan", "ios": "https://dc.lft.to/lastmile_qr_scan"}, "lat": 38.939630666666666, "is_reserved": 0, "is_disabled": 0, "fusion_lat": 0.0}, {"fusion_lon": 0.0, "bike_id": "14c9151800cae3fd3db0200a06d44a8d", "name": "14c9151800cae3fd3db0200a06d44a8d", "type": "electric_scooter", "lon": -77.04175783333334, "rental_uris": {"android": "https://dc.lft.to/lastmile_qr_scan", "ios": "https://dc.lft.to/lastmile_qr_scan"}, "lat": 38.915477833333334, "is_reserved": 0, "is_disabled": 0, "fusion_lat": 0.0}, {"fusion_lon": 0.0, "bike_id": "a6cfb89497bb8ddd65851a1cf8c58c1f", "name": "a6cfb89497bb8ddd65851a1cf8c58c1f", "type": "electric_scooter", "lon": -77.03601566666667, "rental_uris": {"android": "https://dc.lft.to/lastmile_qr_scan", "ios": "https://dc.lft.to/lastmile_qr_scan"}, "lat": 38.92864866666667, "is_reserved": 0, "is_disabled": 0, "fusion_lat": 0.0}, {"fusion_lon": 0.0, "bike_id": "923f504e8ceb8daa303380cd6c494cf9", "name": "923f504e8ceb8daa303380cd6c494cf9", "type": "electric_scooter", "lon": -77.0227585, "rental_uris": {"android": "https://dc.lft.to/lastmile_qr_scan", "ios": "https://dc.lft.to/lastmile_qr_scan"}, "lat": 38.916545, "is_reserved": 0, "is_disabled": 0, "fusion_lat": 0.0}, {"fusion_lon": 0.0, "bike_id": "96dd96c4a5941b6c40c83c3f6b373d2a", "name": "96dd96c4a5941b6c40c83c3f6b373d2a", "type": "electric_scooter", "lon": -77.03792666666666, "rental_uris": {"android": "https://dc.lft.to/lastmile_qr_scan", "ios": "https://dc.lft.to/lastmile_qr_scan"}, "lat": 38.926262333333334, "is_reserved": 0, "is_disabled": 0, "fusion_lat": 0.0}, {"fusion_lon": 0.0, "bike_id": "b746b86ec9b6b5dadd61b512283b7518", "name": "b746b86ec9b6b5dadd61b512283b7518", "type": "electric_scooter", "lon": -76.99523666666667, "rental_uris": {"android": "https://dc.lft.to/lastmile_qr_scan", "ios": "https://dc.lft.to/lastmile_qr_scan"}, "lat": 38.883692333333336, "is_reserved": 0, "is_disabled": 0, "fusion_lat": 0.0}, {"fusion_lon": 0.0, "bike_id": "034ff453ce761bc7bbf78f378c1deed7", "name": "034ff453ce761bc7bbf78f378c1deed7", "type": "electric_scooter", "lon": -77.04330733333333, "rental_uris": {"android": "https://dc.lft.to/lastmile_qr_scan", "ios": "https://dc.lft.to/lastmile_qr_scan"}, "lat": 38.91540783333333, "is_reserved": 0, "is_disabled": 0, "fusion_lat": 0.0}, {"fusion_lon": 0.0, "bike_id": "c05ca0d96fce14accb296ad22f0306b8", "name": "c05ca0d96fce14accb296ad22f0306b8", "type": "electric_scooter", "lon": -77.051383, "rental_uris": {"android": "https://dc.lft.to/lastmile_qr_scan", "ios": "https://dc.lft.to/lastmile_qr_scan"}, "lat": 38.9052495, "is_reserved": 0, "is_disabled": 0, "fusion_lat": 0.0}, {"fusion_lon": 0.0, "bike_id": "9d77067825b640fceed0c09ba344e5c3", "name": "9d77067825b640fceed0c09ba344e5c3", "type": "electric_scooter", "lon": -77.00220983333334, "rental_uris": {"android": "https://dc.lft.to/lastmile_qr_scan", "ios": "https://dc.lft.to/lastmile_qr_scan"}, "lat": 38.89455516666666, "is_reserved": 0, "is_disabled": 0, "fusion_lat": 0.0}, {"fusion_lon": 0.0, "bike_id": "ac728264be9dbd2c04355c3284523f0a", "name": "ac728264be9dbd2c04355c3284523f0a", "type": "electric_scooter", "lon": -77.03046416666666, "rental_uris": {"android": "https://dc.lft.to/lastmile_qr_scan", "ios": "https://dc.lft.to/lastmile_qr_scan"}, "lat": 38.939794, "is_reserved": 0, "is_disabled": 0, "fusion_lat": 0.0}, {"fusion_lon": 0.0, "bike_id": "a1795820592f9e584161a4b63cbecfce", "name": "a1795820592f9e584161a4b63cbecfce", "type": "electric_scooter", "lon": -77.02353833333333, "rental_uris": {"android": "https://dc.lft.to/lastmile_qr_scan", "ios": "https://dc.lft.to/lastmile_qr_scan"}, "lat": 38.935305666666665, "is_reserved": 0, "is_disabled": 0, "fusion_lat": 0.0}, {"fusion_lon": 0.0, "bike_id": "8198e211cd6d6941ad62c9e6d43c4d1d", "name": "8198e211cd6d6941ad62c9e6d43c4d1d", "type": "electric_scooter", "lon": -77.00589183333334, "rental_uris": {"android": "https://dc.lft.to/lastmile_qr_scan", "ios": "https://dc.lft.to/lastmile_qr_scan"}, "lat": 38.90569083333333, "is_reserved": 0, "is_disabled": 0, "fusion_lat": 0.0}, {"fusion_lon": 0.0, "bike_id": "0fe3f343af180d688c98e4d967107a88", "name": "0fe3f343af180d688c98e4d967107a88", "type": "electric_scooter", "lon": -77.04579466666667, "rental_uris": {"android": "https://dc.lft.to/lastmile_qr_scan", "ios": "https://dc.lft.to/lastmile_qr_scan"}, "lat": 38.924154, "is_reserved": 0, "is_disabled": 0, "fusion_lat": 0.0}, {"fusion_lon": 0.0, "bike_id": "79de159c145b9877b7efec2ee88d07b6", "name": "79de159c145b9877b7efec2ee88d07b6", "type": "electric_scooter", "lon": -77.01513866666667, "rental_uris": {"android": "https://dc.lft.to/lastmile_qr_scan", "ios": "https://dc.lft.to/lastmile_qr_scan"}, "lat": 38.910312833333336, "is_reserved": 0, "is_disabled": 0, "fusion_lat": 0.0}, {"fusion_lon": 0.0, "bike_id": "583ae95c7e333d29604fbc274e8f8ce4", "name": "583ae95c7e333d29604fbc274e8f8ce4", "type": "electric_bike", "lon": -76.94805633333333, "rental_uris": {"android": "https://dc.lft.to/lastmile_qr_scan", "ios": "https://dc.lft.to/lastmile_qr_scan"}, "lat": 38.86195566666667, "is_reserved": 0, "is_disabled": 0, "fusion_lat": 0.0}, {"fusion_lon": 0.0, "bike_id": "d106c634fcb6fddcd4281e31b203b7f2", "name": "d106c634fcb6fddcd4281e31b203b7f2", "type": "electric_bike", "lon": -77.02949966666667, "rental_uris": {"android": "https://dc.lft.to/lastmile_qr_scan", "ios": "https://dc.lft.to/lastmile_qr_scan"}, "lat": 38.92062816666667, "is_reserved": 0, "is_disabled": 0, "fusion_lat": 0.0}, {"fusion_lon": 0.0, "bike_id": "dc4f6330b86685fe0221a569a7f6e774", "name": "dc4f6330b86685fe0221a569a7f6e774", "type": "electric_scooter", "lon": -77.02717933333334, "rental_uris": {"android": "https://dc.lft.to/lastmile_qr_scan", "ios": "https://dc.lft.to/lastmile_qr_scan"}, "lat": 38.91101283333333, "is_reserved": 0, "is_disabled": 0, "fusion_lat": 0.0}, {"fusion_lon": 0.0, "bike_id": "c768120d35ee2faa45f8de6ea9193eaa", "name": "c768120d35ee2faa45f8de6ea9193eaa", "type": "electric_scooter", "lon": -77.01998316666666, "rental_uris": {"android": "https://dc.lft.to/lastmile_qr_scan", "ios": "https://dc.lft.to/lastmile_qr_scan"}, "lat": 38.966285666666664, "is_reserved": 0, "is_disabled": 0, "fusion_lat": 0.0}, {"fusion_lon": 0.0, "bike_id": "87711db727bf134159e04c251ebbd76e", "name": "87711db727bf134159e04c251ebbd76e", "type": "electric_scooter", "lon": -77.00574566666667, "rental_uris": {"android": "https://dc.lft.to/lastmile_qr_scan", "ios": "https://dc.lft.to/lastmile_qr_scan"}, "lat": 38.90398916666667, "is_reserved": 0, "is_disabled": 0, "fusion_lat": 0.0}, {"fusion_lon": 0.0, "bike_id": "6a79fdc03027a66a97bb5e6df0d7d173", "name": "6a79fdc03027a66a97bb5e6df0d7d173", "type": "electric_scooter", "lon": -77.030694, "rental_uris": {"android": "https://dc.lft.to/lastmile_qr_scan", "ios": "https://dc.lft.to/lastmile_qr_scan"}, "lat": 38.922461, "is_reserved": 0, "is_disabled": 0, "fusion_lat": 0.0}, {"fusion_lon": 0.0, "bike_id": "94fbfeecf3e21f5ada5fa4b2b4e6b041", "name": "94fbfeecf3e21f5ada5fa4b2b4e6b041", "type": "electric_bike", "lon": -77.03893466666666, "rental_uris": {"android": "https://dc.lft.to/lastmile_qr_scan", "ios": "https://dc.lft.to/lastmile_qr_scan"}, "lat": 38.943979166666665, "is_reserved": 0, "is_disabled": 0, "fusion_lat": 0.0}, {"fusion_lon": 0.0, "bike_id": "3eff82ee1ce4981dbb2ff2ba4f372a1a", "name": "3eff82ee1ce4981dbb2ff2ba4f372a1a", "type": "electric_scooter", "lon": -77.00917633333333, "rental_uris": {"android": "https://dc.lft.to/lastmile_qr_scan", "ios": "https://dc.lft.to/lastmile_qr_scan"}, "lat": 38.896469833333335, "is_reserved": 0, "is_disabled": 0, "fusion_lat": 0.0}, {"fusion_lon": 0.0, "bike_id": "857246542e3396a69381930378dc449a", "name": "857246542e3396a69381930378dc449a", "type": "electric_scooter", "lon": -77.05004266666667, "rental_uris": {"android": "https://dc.lft.to/lastmile_qr_scan", "ios": "https://dc.lft.to/lastmile_qr_scan"}, "lat": 38.905291166666665, "is_reserved": 0, "is_disabled": 0, "fusion_lat": 0.0}, {"fusion_lon": 0.0, "bike_id": "35f78e99413c2d1ebdb0aec18203de64", "name": "35f78e99413c2d1ebdb0aec18203de64", "type": "electric_scooter", "lon": -77.02276933333333, "rental_uris": {"android": "https://dc.lft.to/lastmile_qr_scan", "ios": "https://dc.lft.to/lastmile_qr_scan"}, "lat": 38.90962416666667, "is_reserved": 0, "is_disabled": 0, "fusion_lat": 0.0}, {"fusion_lon": 0.0, "bike_id": "6fb3dc2d86a38ba97042b57e19efc61e", "name": "6fb3dc2d86a38ba97042b57e19efc61e", "type": "electric_scooter", "lon": -77.03112633333333, "rental_uris": {"android": "https://dc.lft.to/lastmile_qr_scan", "ios": "https://dc.lft.to/lastmile_qr_scan"}, "lat": 38.920337333333336, "is_reserved": 0, "is_disabled": 0, "fusion_lat": 0.0}, {"fusion_lon": 0.0, "bike_id": "5caaa73bcc90e4c6c9b25a02e94796a5", "name": "5caaa73bcc90e4c6c9b25a02e94796a5", "type": "electric_scooter", "lon": -77.0417075, "rental_uris": {"android": "https://dc.lft.to/lastmile_qr_scan", "ios": "https://dc.lft.to/lastmile_qr_scan"}, "lat": 38.92005483333333, "is_reserved": 0, "is_disabled": 0, "fusion_lat": 0.0}, {"fusion_lon": 0.0, "bike_id": "14dad2160b5cc67608a07638def8b7a5", "name": "14dad2160b5cc67608a07638def8b7a5", "type": "electric_bike", "lon": -77.02301366666667, "rental_uris": {"android": "https://dc.lft.to/lastmile_qr_scan", "ios": "https://dc.lft.to/lastmile_qr_scan"}, "lat": 38.92327983333333, "is_reserved": 0, "is_disabled": 0, "fusion_lat": 0.0}, {"fusion_lon": 0.0, "bike_id": "c2df9f86c45c3ec5ead32b87180014e9", "name": "c2df9f86c45c3ec5ead32b87180014e9", "type": "electric_scooter", "lon": -76.99081716666667, "rental_uris": {"android": "https://dc.lft.to/lastmile_qr_scan", "ios": "https://dc.lft.to/lastmile_qr_scan"}, "lat": 38.8604955, "is_reserved": 0, "is_disabled": 0, "fusion_lat": 0.0}, {"fusion_lon": 0.0, "bike_id": "d76eb32ded44828ae62c49d4473d2499", "name": "d76eb32ded44828ae62c49d4473d2499", "type": "electric_scooter", "lon": -77.04500066666667, "rental_uris": {"android": "https://dc.lft.to/lastmile_qr_scan", "ios": "https://dc.lft.to/lastmile_qr_scan"}, "lat": 38.90354133333334, "is_reserved": 0, "is_disabled": 0, "fusion_lat": 0.0}, {"fusion_lon": 0.0, "bike_id": "6745f98313edebbf6c3e972a3f1144aa", "name": "6745f98313edebbf6c3e972a3f1144aa", "type": "electric_scooter", "lon": -77.02276183333333, "rental_uris": {"android": "https://dc.lft.to/lastmile_qr_scan", "ios": "https://dc.lft.to/lastmile_qr_scan"}, "lat": 38.917335333333334, "is_reserved": 0, "is_disabled": 0, "fusion_lat": 0.0}, {"fusion_lon": 0.0, "bike_id": "e720a835bd9f9ad894b92c4a6858c9fc", "name": "e720a835bd9f9ad894b92c4a6858c9fc", "type": "electric_scooter", "lon": -77.019973, "rental_uris": {"android": "https://dc.lft.to/lastmile_qr_scan", "ios": "https://dc.lft.to/lastmile_qr_scan"}, "lat": 38.966393, "is_reserved": 0, "is_disabled": 0, "fusion_lat": 0.0}, {"fusion_lon": 0.0, "bike_id": "09a28f32619f4429d38605ca3c5b30d6", "name": "09a28f32619f4429d38605ca3c5b30d6", "type": "electric_scooter", "lon": -77.04419683333333, "rental_uris": {"android": "https://dc.lft.to/lastmile_qr_scan", "ios": "https://dc.lft.to/lastmile_qr_scan"}, "lat": 38.909484, "is_reserved": 0, "is_disabled": 0, "fusion_lat": 0.0}, {"fusion_lon": 0.0, "bike_id": "30067a49708e01473231967999be39ce", "name": "30067a49708e01473231967999be39ce", "type": "electric_scooter", "lon": -77.03344033333333, "rental_uris": {"android": "https://dc.lft.to/lastmile_qr_scan", "ios": "https://dc.lft.to/lastmile_qr_scan"}, "lat": 38.932192666666666, "is_reserved": 0, "is_disabled": 0, "fusion_lat": 0.0}, {"fusion_lon": 0.0, "bike_id": "74e32d01d681e9498ea439d5e8abc9a7", "name": "74e32d01d681e9498ea439d5e8abc9a7", "type": "electric_scooter", "lon": -76.99026983333333, "rental_uris": {"android": "https://dc.lft.to/lastmile_qr_scan", "ios": "https://dc.lft.to/lastmile_qr_scan"}, "lat": 38.900355833333336, "is_reserved": 0, "is_disabled": 0, "fusion_lat": 0.0}, {"fusion_lon": 0.0, "bike_id": "0638fbb42b331d1714683b234158ae6b", "name": "0638fbb42b331d1714683b234158ae6b", "type": "electric_scooter", "lon": -77.06254766666666, "rental_uris": {"android": "https://dc.lft.to/lastmile_qr_scan", "ios": "https://dc.lft.to/lastmile_qr_scan"}, "lat": 38.913213666666664, "is_reserved": 0, "is_disabled": 0, "fusion_lat": 0.0}, {"fusion_lon": 0.0, "bike_id": "019590e39dfb481980baf56f8c8a56fe", "name": "019590e39dfb481980baf56f8c8a56fe", "type": "electric_scooter", "lon": -76.99006133333333, "rental_uris": {"android": "https://dc.lft.to/lastmile_qr_scan", "ios": "https://dc.lft.to/lastmile_qr_scan"}, "lat": 38.865034333333334, "is_reserved": 0, "is_disabled": 0, "fusion_lat": 0.0}, {"fusion_lon": 0.0, "bike_id": "d5d0ca3587f95e285cef18c052447951", "name": "d5d0ca3587f95e285cef18c052447951", "type": "electric_scooter", "lon": -76.94914066666666, "rental_uris": {"android": "https://dc.lft.to/lastmile_qr_scan", "ios": "https://dc.lft.to/lastmile_qr_scan"}, "lat": 38.89493083333333, "is_reserved": 0, "is_disabled": 0, "fusion_lat": 0.0}, {"fusion_lon": 0.0, "bike_id": "7f1a6a037069789018888eb791d2ff7e", "name": "7f1a6a037069789018888eb791d2ff7e", "type": "electric_scooter", "lon": -77.023151, "rental_uris": {"android": "https://dc.lft.to/lastmile_qr_scan", "ios": "https://dc.lft.to/lastmile_qr_scan"}, "lat": 38.896520333333335, "is_reserved": 0, "is_disabled": 0, "fusion_lat": 0.0}, {"fusion_lon": 0.0, "bike_id": "2ff767a6d13c0810f8c4feec791d7470", "name": "2ff767a6d13c0810f8c4feec791d7470", "type": "electric_scooter", "lon": -77.04184183333334, "rental_uris": {"android": "https://dc.lft.to/lastmile_qr_scan", "ios": "https://dc.lft.to/lastmile_qr_scan"}, "lat": 38.907925, "is_reserved": 0, "is_disabled": 0, "fusion_lat": 0.0}, {"fusion_lon": 0.0, "bike_id": "a07fc7cfbc79f438bbcf361dd41378c4", "name": "a07fc7cfbc79f438bbcf361dd41378c4", "type": "electric_scooter", "lon": -77.03464866666667, "rental_uris": {"android": "https://dc.lft.to/lastmile_qr_scan", "ios": "https://dc.lft.to/lastmile_qr_scan"}, "lat": 38.9072285, "is_reserved": 0, "is_disabled": 0, "fusion_lat": 0.0}, {"fusion_lon": 0.0, "bike_id": "ae1355eca5dac4b079110b0e24e32019", "name": "ae1355eca5dac4b079110b0e24e32019", "type": "electric_scooter", "lon": -77.01204733333333, "rental_uris": {"android": "https://dc.lft.to/lastmile_qr_scan", "ios": "https://dc.lft.to/lastmile_qr_scan"}, "lat": 38.925844, "is_reserved": 0, "is_disabled": 0, "fusion_lat": 0.0}, {"fusion_lon": 0.0, "bike_id": "5fa1f4feb9196eceac97b71a993310df", "name": "5fa1f4feb9196eceac97b71a993310df", "type": "electric_scooter", "lon": -77.03211233333333, "rental_uris": {"android": "https://dc.lft.to/lastmile_qr_scan", "ios": "https://dc.lft.to/lastmile_qr_scan"}, "lat": 38.915367833333335, "is_reserved": 0, "is_disabled": 0, "fusion_lat": 0.0}, {"fusion_lon": 0.0, "bike_id": "d185119d5f90cebc34e0fa529568e567", "name": "d185119d5f90cebc34e0fa529568e567", "type": "electric_scooter", "lon": -77.0161295, "rental_uris": {"android": "https://dc.lft.to/lastmile_qr_scan", "ios": "https://dc.lft.to/lastmile_qr_scan"}, "lat": 38.90594216666667, "is_reserved": 0, "is_disabled": 0, "fusion_lat": 0.0}, {"fusion_lon": 0.0, "bike_id": "2f75f869c40a2792bec2378907f696a7", "name": "2f75f869c40a2792bec2378907f696a7", "type": "electric_scooter", "lon": -76.9877495, "rental_uris": {"android": "https://dc.lft.to/lastmile_qr_scan", "ios": "https://dc.lft.to/lastmile_qr_scan"}, "lat": 38.844782, "is_reserved": 0, "is_disabled": 0, "fusion_lat": 0.0}, {"fusion_lon": 0.0, "bike_id": "5e9e15960e46c15aa818af979ad5a1cb", "name": "5e9e15960e46c15aa818af979ad5a1cb", "type": "electric_scooter", "lon": -76.99614433333333, "rental_uris": {"android": "https://dc.lft.to/lastmile_qr_scan", "ios": "https://dc.lft.to/lastmile_qr_scan"}, "lat": 38.90038116666667, "is_reserved": 0, "is_disabled": 0, "fusion_lat": 0.0}, {"fusion_lon": 0.0, "bike_id": "d40f5e7c978248551ea056ea948f7086", "name": "d40f5e7c978248551ea056ea948f7086", "type": "electric_scooter", "lon": -76.988774, "rental_uris": {"android": "https://dc.lft.to/lastmile_qr_scan", "ios": "https://dc.lft.to/lastmile_qr_scan"}, "lat": 38.866727, "is_reserved": 0, "is_disabled": 0, "fusion_lat": 0.0}, {"fusion_lon": 0.0, "bike_id": "cfa9e4eaa8402e49ff6c1b28934f7015", "name": "cfa9e4eaa8402e49ff6c1b28934f7015", "type": "electric_scooter", "lon": -76.995022, "rental_uris": {"android": "https://dc.lft.to/lastmile_qr_scan", "ios": "https://dc.lft.to/lastmile_qr_scan"}, "lat": 38.885844166666665, "is_reserved": 0, "is_disabled": 0, "fusion_lat": 0.0}, {"fusion_lon": 0.0, "bike_id": "382d7cae34685a97f6dc98d9171458a2", "name": "382d7cae34685a97f6dc98d9171458a2", "type": "electric_scooter", "lon": -77.03735166666667, "rental_uris": {"android": "https://dc.lft.to/lastmile_qr_scan", "ios": "https://dc.lft.to/lastmile_qr_scan"}, "lat": 38.9285675, "is_reserved": 0, "is_disabled": 0, "fusion_lat": 0.0}, {"fusion_lon": 0.0, "bike_id": "cbe5324ddf16a901e649f912552a9e28", "name": "cbe5324ddf16a901e649f912552a9e28", "type": "electric_scooter", "lon": -77.044678, "rental_uris": {"android": "https://dc.lft.to/lastmile_qr_scan", "ios": "https://dc.lft.to/lastmile_qr_scan"}, "lat": 38.898840666666665, "is_reserved": 0, "is_disabled": 0, "fusion_lat": 0.0}, {"fusion_lon": 0.0, "bike_id": "baabf2e7b85c3c035e72248b1020206a", "name": "baabf2e7b85c3c035e72248b1020206a", "type": "electric_scooter", "lon": -77.04165133333333, "rental_uris": {"android": "https://dc.lft.to/lastmile_qr_scan", "ios": "https://dc.lft.to/lastmile_qr_scan"}, "lat": 38.90139333333333, "is_reserved": 0, "is_disabled": 0, "fusion_lat": 0.0}, {"fusion_lon": 0.0, "bike_id": "ddf116ef481cc252bb3dca29afe16e31", "name": "ddf116ef481cc252bb3dca29afe16e31", "type": "electric_bike", "lon": -77.02719983333333, "rental_uris": {"android": "https://dc.lft.to/lastmile_qr_scan", "ios": "https://dc.lft.to/lastmile_qr_scan"}, "lat": 38.98188866666667, "is_reserved": 0, "is_disabled": 0, "fusion_lat": 0.0}, {"fusion_lon": 0.0, "bike_id": "aea0639cb987fd08d39cca668a16d419", "name": "aea0639cb987fd08d39cca668a16d419", "type": "electric_scooter", "lon": -77.0326505, "rental_uris": {"android": "https://dc.lft.to/lastmile_qr_scan", "ios": "https://dc.lft.to/lastmile_qr_scan"}, "lat": 38.91334333333333, "is_reserved": 0, "is_disabled": 0, "fusion_lat": 0.0}, {"fusion_lon": 0.0, "bike_id": "98b24e1d32338f5284a722bff82d2b1e", "name": "98b24e1d32338f5284a722bff82d2b1e", "type": "electric_scooter", "lon": -77.03303483333333, "rental_uris": {"android": "https://dc.lft.to/lastmile_qr_scan", "ios": "https://dc.lft.to/lastmile_qr_scan"}, "lat": 38.92069633333333, "is_reserved": 0, "is_disabled": 0, "fusion_lat": 0.0}, {"fusion_lon": 0.0, "bike_id": "89f7d1c325155a67193ddada23245ef4", "name": "89f7d1c325155a67193ddada23245ef4", "type": "electric_scooter", "lon": -77.05586283333334, "rental_uris": {"android": "https://dc.lft.to/lastmile_qr_scan", "ios": "https://dc.lft.to/lastmile_qr_scan"}, "lat": 38.9001635, "is_reserved": 0, "is_disabled": 0, "fusion_lat": 0.0}, {"fusion_lon": 0.0, "bike_id": "19c9ec64fd6d0bc03a41290ae94de7b6", "name": "19c9ec64fd6d0bc03a41290ae94de7b6", "type": "electric_scooter", "lon": -77.00418733333333, "rental_uris": {"android": "https://dc.lft.to/lastmile_qr_scan", "ios": "https://dc.lft.to/lastmile_qr_scan"}, "lat": 38.877058166666664, "is_reserved": 0, "is_disabled": 0, "fusion_lat": 0.0}, {"fusion_lon": 0.0, "bike_id": "36cb5259619f28ebfd45c498e6ac2bf1", "name": "36cb5259619f28ebfd45c498e6ac2bf1", "type": "electric_bike", "lon": -77.17803783333333, "rental_uris": {"android": "https://dc.lft.to/lastmile_qr_scan", "ios": "https://dc.lft.to/lastmile_qr_scan"}, "lat": 39.0884125, "is_reserved": 0, "is_disabled": 0, "fusion_lat": 0.0}, {"fusion_lon": 0.0, "bike_id": "24ab07c2f854855a819c3d440940c92a", "name": "24ab07c2f854855a819c3d440940c92a", "type": "electric_scooter", "lon": -77.05564216666667, "rental_uris": {"android": "https://dc.lft.to/lastmile_qr_scan", "ios": "https://dc.lft.to/lastmile_qr_scan"}, "lat": 38.89726683333333, "is_reserved": 0, "is_disabled": 0, "fusion_lat": 0.0}, {"fusion_lon": 0.0, "bike_id": "9cae14245bf0d9096fd09fb38b26bbe2", "name": "9cae14245bf0d9096fd09fb38b26bbe2", "type": "electric_scooter", "lon": -77.02402233333333, "rental_uris": {"android": "https://dc.lft.to/lastmile_qr_scan", "ios": "https://dc.lft.to/lastmile_qr_scan"}, "lat": 38.9370475, "is_reserved": 0, "is_disabled": 0, "fusion_lat": 0.0}, {"fusion_lon": 0.0, "bike_id": "1c9a87c7cdd7e9a1baad78f974e2e9f1", "name": "1c9a87c7cdd7e9a1baad78f974e2e9f1", "type": "electric_scooter", "lon": -77.03668483333334, "rental_uris": {"android": "https://dc.lft.to/lastmile_qr_scan", "ios": "https://dc.lft.to/lastmile_qr_scan"}, "lat": 38.93092566666667, "is_reserved": 0, "is_disabled": 0, "fusion_lat": 0.0}, {"fusion_lon": 0.0, "bike_id": "d6f67ac40e2be01ef41a1931f1f7b08a", "name": "d6f67ac40e2be01ef41a1931f1f7b08a", "type": "electric_scooter", "lon": -77.0197445, "rental_uris": {"android": "https://dc.lft.to/lastmile_qr_scan", "ios": "https://dc.lft.to/lastmile_qr_scan"}, "lat": 38.878436666666666, "is_reserved": 0, "is_disabled": 0, "fusion_lat": 0.0}, {"fusion_lon": 0.0, "bike_id": "42342c936648e3f5c75ed6b28a6b7d91", "name": "42342c936648e3f5c75ed6b28a6b7d91", "type": "electric_scooter", "lon": -77.0329805, "rental_uris": {"android": "https://dc.lft.to/lastmile_qr_scan", "ios": "https://dc.lft.to/lastmile_qr_scan"}, "lat": 38.90394966666667, "is_reserved": 0, "is_disabled": 0, "fusion_lat": 0.0}, {"fusion_lon": 0.0, "bike_id": "b6bddf9974bcb294d2bbc02528e3d9e2", "name": "b6bddf9974bcb294d2bbc02528e3d9e2", "type": "electric_scooter", "lon": -77.04460666666667, "rental_uris": {"android": "https://dc.lft.to/lastmile_qr_scan", "ios": "https://dc.lft.to/lastmile_qr_scan"}, "lat": 38.90859566666666, "is_reserved": 0, "is_disabled": 0, "fusion_lat": 0.0}, {"fusion_lon": 0.0, "bike_id": "203aea5fb98839b9403526c92e59d6ef", "name": "203aea5fb98839b9403526c92e59d6ef", "type": "electric_scooter", "lon": -77.03922016666667, "rental_uris": {"android": "https://dc.lft.to/lastmile_qr_scan", "ios": "https://dc.lft.to/lastmile_qr_scan"}, "lat": 38.911794666666665, "is_reserved": 0, "is_disabled": 0, "fusion_lat": 0.0}, {"fusion_lon": 0.0, "bike_id": "083ef1422637d5797fa0557ca9e34d39", "name": "083ef1422637d5797fa0557ca9e34d39", "type": "electric_scooter", "lon": -77.01711083333333, "rental_uris": {"android": "https://dc.lft.to/lastmile_qr_scan", "ios": "https://dc.lft.to/lastmile_qr_scan"}, "lat": 38.905075833333335, "is_reserved": 0, "is_disabled": 0, "fusion_lat": 0.0}, {"fusion_lon": 0.0, "bike_id": "8ce5dc536d8db27470898c3e110766de", "name": "8ce5dc536d8db27470898c3e110766de", "type": "electric_scooter", "lon": -77.01896283333333, "rental_uris": {"android": "https://dc.lft.to/lastmile_qr_scan", "ios": "https://dc.lft.to/lastmile_qr_scan"}, "lat": 38.9121915, "is_reserved": 0, "is_disabled": 0, "fusion_lat": 0.0}, {"fusion_lon": 0.0, "bike_id": "a22d72e4f36ecc9c089b747bc22f382c", "name": "a22d72e4f36ecc9c089b747bc22f382c", "type": "electric_bike", "lon": -77.09567066666666, "rental_uris": {"android": "https://dc.lft.to/lastmile_qr_scan", "ios": "https://dc.lft.to/lastmile_qr_scan"}, "lat": 38.9169735, "is_reserved": 0, "is_disabled": 0, "fusion_lat": 0.0}, {"fusion_lon": 0.0, "bike_id": "dabb76bcf7c166af9c9e1e1d2d98fdcf", "name": "dabb76bcf7c166af9c9e1e1d2d98fdcf", "type": "electric_scooter", "lon": -77.0319945, "rental_uris": {"android": "https://dc.lft.to/lastmile_qr_scan", "ios": "https://dc.lft.to/lastmile_qr_scan"}, "lat": 38.911294, "is_reserved": 0, "is_disabled": 0, "fusion_lat": 0.0}, {"fusion_lon": 0.0, "bike_id": "33a3dbd367cd8ae363c2408da90584c6", "name": "33a3dbd367cd8ae363c2408da90584c6", "type": "electric_scooter", "lon": -77.041743, "rental_uris": {"android": "https://dc.lft.to/lastmile_qr_scan", "ios": "https://dc.lft.to/lastmile_qr_scan"}, "lat": 38.91890016666667, "is_reserved": 0, "is_disabled": 0, "fusion_lat": 0.0}, {"fusion_lon": 0.0, "bike_id": "0002b18ce72c4a3c3a64063a5cade409", "name": "0002b18ce72c4a3c3a64063a5cade409", "type": "electric_scooter", "lon": -77.0349585, "rental_uris": {"android": "https://dc.lft.to/lastmile_qr_scan", "ios": "https://dc.lft.to/lastmile_qr_scan"}, "lat": 38.917064833333335, "is_reserved": 0, "is_disabled": 0, "fusion_lat": 0.0}, {"fusion_lon": 0.0, "bike_id": "8e6723cd0b976756706dacbb57ac8d7b", "name": "8e6723cd0b976756706dacbb57ac8d7b", "type": "electric_scooter", "lon": -76.96527833333333, "rental_uris": {"android": "https://dc.lft.to/lastmile_qr_scan", "ios": "https://dc.lft.to/lastmile_qr_scan"}, "lat": 38.87626933333333, "is_reserved": 0, "is_disabled": 0, "fusion_lat": 0.0}, {"fusion_lon": 0.0, "bike_id": "4de40d14b6a79af566e97d8b3eccb45d", "name": "4de40d14b6a79af566e97d8b3eccb45d", "type": "electric_scooter", "lon": -77.04487283333333, "rental_uris": {"android": "https://dc.lft.to/lastmile_qr_scan", "ios": "https://dc.lft.to/lastmile_qr_scan"}, "lat": 38.900453, "is_reserved": 0, "is_disabled": 0, "fusion_lat": 0.0}, {"fusion_lon": 0.0, "bike_id": "49346a591cdf7d338e43f5796d64f81c", "name": "49346a591cdf7d338e43f5796d64f81c", "type": "electric_scooter", "lon": -77.04491283333333, "rental_uris": {"android": "https://dc.lft.to/lastmile_qr_scan", "ios": "https://dc.lft.to/lastmile_qr_scan"}, "lat": 38.91569416666667, "is_reserved": 0, "is_disabled": 0, "fusion_lat": 0.0}, {"fusion_lon": 0.0, "bike_id": "185d76e297df2434a7d3716c96b00c07", "name": "185d76e297df2434a7d3716c96b00c07", "type": "electric_scooter", "lon": -77.03358733333333, "rental_uris": {"android": "https://dc.lft.to/lastmile_qr_scan", "ios": "https://dc.lft.to/lastmile_qr_scan"}, "lat": 38.90024066666667, "is_reserved": 0, "is_disabled": 0, "fusion_lat": 0.0}, {"fusion_lon": 0.0, "bike_id": "d0b34138d2ad1dbfb9c42b8830afaf6c", "name": "d0b34138d2ad1dbfb9c42b8830afaf6c", "type": "electric_scooter", "lon": -77.0409875, "rental_uris": {"android": "https://dc.lft.to/lastmile_qr_scan", "ios": "https://dc.lft.to/lastmile_qr_scan"}, "lat": 38.90799766666667, "is_reserved": 0, "is_disabled": 0, "fusion_lat": 0.0}, {"fusion_lon": 0.0, "bike_id": "cf3a8edf9ba8fd6b458be29b8fddbd35", "name": "cf3a8edf9ba8fd6b458be29b8fddbd35", "type": "electric_bike", "lon": -76.96558466666667, "rental_uris": {"android": "https://dc.lft.to/lastmile_qr_scan", "ios": "https://dc.lft.to/lastmile_qr_scan"}, "lat": 38.95088883333333, "is_reserved": 0, "is_disabled": 0, "fusion_lat": 0.0}, {"fusion_lon": 0.0, "bike_id": "c263112c25359b3967d03171d51496d5", "name": "c263112c25359b3967d03171d51496d5", "type": "electric_scooter", "lon": -77.0265725, "rental_uris": {"android": "https://dc.lft.to/lastmile_qr_scan", "ios": "https://dc.lft.to/lastmile_qr_scan"}, "lat": 38.90237166666667, "is_reserved": 0, "is_disabled": 0, "fusion_lat": 0.0}, {"fusion_lon": 0.0, "bike_id": "fc0dd162a8fad2f2587dd9972bff41c7", "name": "fc0dd162a8fad2f2587dd9972bff41c7", "type": "electric_scooter", "lon": -76.985662, "rental_uris": {"android": "https://dc.lft.to/lastmile_qr_scan", "ios": "https://dc.lft.to/lastmile_qr_scan"}, "lat": 38.86059866666667, "is_reserved": 0, "is_disabled": 0, "fusion_lat": 0.0}, {"fusion_lon": 0.0, "bike_id": "1923b6fcc222fda789847f5414821324", "name": "1923b6fcc222fda789847f5414821324", "type": "electric_scooter", "lon": -77.02962066666667, "rental_uris": {"android": "https://dc.lft.to/lastmile_qr_scan", "ios": "https://dc.lft.to/lastmile_qr_scan"}, "lat": 38.9214615, "is_reserved": 0, "is_disabled": 0, "fusion_lat": 0.0}, {"fusion_lon": 0.0, "bike_id": "30686c81ed0e1ce7dce8e1aa91aa2093", "name": "30686c81ed0e1ce7dce8e1aa91aa2093", "type": "electric_scooter", "lon": -77.02498833333334, "rental_uris": {"android": "https://dc.lft.to/lastmile_qr_scan", "ios": "https://dc.lft.to/lastmile_qr_scan"}, "lat": 38.918086833333334, "is_reserved": 0, "is_disabled": 0, "fusion_lat": 0.0}, {"fusion_lon": 0.0, "bike_id": "891db75ca9c1b13b435840f0b3a6375e", "name": "891db75ca9c1b13b435840f0b3a6375e", "type": "electric_scooter", "lon": -77.04015083333333, "rental_uris": {"android": "https://dc.lft.to/lastmile_qr_scan", "ios": "https://dc.lft.to/lastmile_qr_scan"}, "lat": 38.9037835, "is_reserved": 0, "is_disabled": 0, "fusion_lat": 0.0}, {"fusion_lon": 0.0, "bike_id": "edafb707578fdf61d41c5affb6d736ca", "name": "edafb707578fdf61d41c5affb6d736ca", "type": "electric_scooter", "lon": -77.0289515, "rental_uris": {"android": "https://dc.lft.to/lastmile_qr_scan", "ios": "https://dc.lft.to/lastmile_qr_scan"}, "lat": 38.899640166666664, "is_reserved": 0, "is_disabled": 0, "fusion_lat": 0.0}, {"fusion_lon": 0.0, "bike_id": "cd916fa2e632cbdbc03d0813fe8728b5", "name": "cd916fa2e632cbdbc03d0813fe8728b5", "type": "electric_scooter", "lon": -77.00466766666666, "rental_uris": {"android": "https://dc.lft.to/lastmile_qr_scan", "ios": "https://dc.lft.to/lastmile_qr_scan"}, "lat": 38.9114425, "is_reserved": 0, "is_disabled": 0, "fusion_lat": 0.0}, {"fusion_lon": 0.0, "bike_id": "d10dfff00e375acc17d28db7cfc3c274", "name": "d10dfff00e375acc17d28db7cfc3c274", "type": "electric_scooter", "lon": -77.02619416666667, "rental_uris": {"android": "https://dc.lft.to/lastmile_qr_scan", "ios": "https://dc.lft.to/lastmile_qr_scan"}, "lat": 38.8999995, "is_reserved": 0, "is_disabled": 0, "fusion_lat": 0.0}, {"fusion_lon": 0.0, "bike_id": "5fabe37dd292dadb27eb2e298e91b060", "name": "5fabe37dd292dadb27eb2e298e91b060", "type": "electric_scooter", "lon": -77.039456, "rental_uris": {"android": "https://dc.lft.to/lastmile_qr_scan", "ios": "https://dc.lft.to/lastmile_qr_scan"}, "lat": 38.899812, "is_reserved": 0, "is_disabled": 0, "fusion_lat": 0.0}, {"fusion_lon": 0.0, "bike_id": "6561d65214c9d28352d9db11c9a71057", "name": "6561d65214c9d28352d9db11c9a71057", "type": "electric_scooter", "lon": -77.0309085, "rental_uris": {"android": "https://dc.lft.to/lastmile_qr_scan", "ios": "https://dc.lft.to/lastmile_qr_scan"}, "lat": 38.9468195, "is_reserved": 0, "is_disabled": 0, "fusion_lat": 0.0}, {"fusion_lon": 0.0, "bike_id": "743677558308bf37a62d11816e6a33d6", "name": "743677558308bf37a62d11816e6a33d6", "type": "electric_scooter", "lon": -77.04717183333334, "rental_uris": {"android": "https://dc.lft.to/lastmile_qr_scan", "ios": "https://dc.lft.to/lastmile_qr_scan"}, "lat": 38.8995895, "is_reserved": 0, "is_disabled": 0, "fusion_lat": 0.0}, {"fusion_lon": 0.0, "bike_id": "c834602706352e9777eb6be27b141f81", "name": "c834602706352e9777eb6be27b141f81", "type": "electric_scooter", "lon": -77.03450233333334, "rental_uris": {"android": "https://dc.lft.to/lastmile_qr_scan", "ios": "https://dc.lft.to/lastmile_qr_scan"}, "lat": 38.964264, "is_reserved": 0, "is_disabled": 0, "fusion_lat": 0.0}, {"fusion_lon": 0.0, "bike_id": "627b3f2aac74d45a3511993685aa0e78", "name": "627b3f2aac74d45a3511993685aa0e78", "type": "electric_scooter", "lon": -77.02244366666666, "rental_uris": {"android": "https://dc.lft.to/lastmile_qr_scan", "ios": "https://dc.lft.to/lastmile_qr_scan"}, "lat": 38.89221216666667, "is_reserved": 0, "is_disabled": 0, "fusion_lat": 0.0}, {"fusion_lon": 0.0, "bike_id": "c48619ec7fa2dc0a1f12938732ce6121", "name": "c48619ec7fa2dc0a1f12938732ce6121", "type": "electric_bike", "lon": -76.968335, "rental_uris": {"android": "https://dc.lft.to/lastmile_qr_scan", "ios": "https://dc.lft.to/lastmile_qr_scan"}, "lat": 38.92444116666667, "is_reserved": 0, "is_disabled": 0, "fusion_lat": 0.0}, {"fusion_lon": 0.0, "bike_id": "f65534ea830578bca2f4ffaec2acb3c9", "name": "f65534ea830578bca2f4ffaec2acb3c9", "type": "electric_scooter", "lon": -77.04501866666666, "rental_uris": {"android": "https://dc.lft.to/lastmile_qr_scan", "ios": "https://dc.lft.to/lastmile_qr_scan"}, "lat": 38.896114, "is_reserved": 0, "is_disabled": 0, "fusion_lat": 0.0}, {"fusion_lon": 0.0, "bike_id": "ffb6eeb71ce83786a10b3a841ee318b9", "name": "ffb6eeb71ce83786a10b3a841ee318b9", "type": "electric_bike", "lon": -77.15266183333334, "rental_uris": {"android": "https://dc.lft.to/lastmile_qr_scan", "ios": "https://dc.lft.to/lastmile_qr_scan"}, "lat": 39.1056675, "is_reserved": 0, "is_disabled": 0, "fusion_lat": 0.0}, {"fusion_lon": 0.0, "bike_id": "bfbbe7249b08db9ba50412fcfea2f388", "name": "bfbbe7249b08db9ba50412fcfea2f388", "type": "electric_scooter", "lon": -77.05728716666667, "rental_uris": {"android": "https://dc.lft.to/lastmile_qr_scan", "ios": "https://dc.lft.to/lastmile_qr_scan"}, "lat": 38.933667666666665, "is_reserved": 0, "is_disabled": 0, "fusion_lat": 0.0}, {"fusion_lon": 0.0, "bike_id": "581a09340ac623129b840714378f2aa1", "name": "581a09340ac623129b840714378f2aa1", "type": "electric_scooter", "lon": -77.02229566666666, "rental_uris": {"android": "https://dc.lft.to/lastmile_qr_scan", "ios": "https://dc.lft.to/lastmile_qr_scan"}, "lat": 38.905742333333336, "is_reserved": 0, "is_disabled": 0, "fusion_lat": 0.0}, {"fusion_lon": 0.0, "bike_id": "0cb7499d12d99bd32435cbe2212e295f", "name": "0cb7499d12d99bd32435cbe2212e295f", "type": "electric_scooter", "lon": -76.983311, "rental_uris": {"android": "https://dc.lft.to/lastmile_qr_scan", "ios": "https://dc.lft.to/lastmile_qr_scan"}, "lat": 38.861725, "is_reserved": 0, "is_disabled": 0, "fusion_lat": 0.0}, {"fusion_lon": 0.0, "bike_id": "9270d67d012934236b8190e17d742c19", "name": "9270d67d012934236b8190e17d742c19", "type": "electric_scooter", "lon": -77.0312205, "rental_uris": {"android": "https://dc.lft.to/lastmile_qr_scan", "ios": "https://dc.lft.to/lastmile_qr_scan"}, "lat": 38.9044715, "is_reserved": 0, "is_disabled": 0, "fusion_lat": 0.0}, {"fusion_lon": 0.0, "bike_id": "bd353ce04d408713d29555e94fb33594", "name": "bd353ce04d408713d29555e94fb33594", "type": "electric_bike", "lon": -76.91601966666667, "rental_uris": {"android": "https://dc.lft.to/lastmile_qr_scan", "ios": "https://dc.lft.to/lastmile_qr_scan"}, "lat": 38.879755833333334, "is_reserved": 0, "is_disabled": 0, "fusion_lat": 0.0}, {"fusion_lon": 0.0, "bike_id": "5e4d91bbf1c30deac1acce443713e048", "name": "5e4d91bbf1c30deac1acce443713e048", "type": "electric_scooter", "lon": -77.03661066666666, "rental_uris": {"android": "https://dc.lft.to/lastmile_qr_scan", "ios": "https://dc.lft.to/lastmile_qr_scan"}, "lat": 38.92120383333334, "is_reserved": 0, "is_disabled": 0, "fusion_lat": 0.0}, {"fusion_lon": 0.0, "bike_id": "aa7810861ffed8941183038b26db125c", "name": "aa7810861ffed8941183038b26db125c", "type": "electric_scooter", "lon": -77.03217583333333, "rental_uris": {"android": "https://dc.lft.to/lastmile_qr_scan", "ios": "https://dc.lft.to/lastmile_qr_scan"}, "lat": 38.92504316666667, "is_reserved": 0, "is_disabled": 0, "fusion_lat": 0.0}, {"fusion_lon": 0.0, "bike_id": "92330a3b3f3170c10bce661c9417ccec", "name": "92330a3b3f3170c10bce661c9417ccec", "type": "electric_scooter", "lon": -77.04983733333333, "rental_uris": {"android": "https://dc.lft.to/lastmile_qr_scan", "ios": "https://dc.lft.to/lastmile_qr_scan"}, "lat": 38.90549816666667, "is_reserved": 0, "is_disabled": 0, "fusion_lat": 0.0}, {"fusion_lon": 0.0, "bike_id": "175a243df16295561ec19475ec248148", "name": "175a243df16295561ec19475ec248148", "type": "electric_scooter", "lon": -77.00214983333333, "rental_uris": {"android": "https://dc.lft.to/lastmile_qr_scan", "ios": "https://dc.lft.to/lastmile_qr_scan"}, "lat": 38.902884, "is_reserved": 0, "is_disabled": 0, "fusion_lat": 0.0}, {"fusion_lon": 0.0, "bike_id": "75f1548b98e1ee5c9adea5951d2b91e7", "name": "75f1548b98e1ee5c9adea5951d2b91e7", "type": "electric_scooter", "lon": -77.03365683333334, "rental_uris": {"android": "https://dc.lft.to/lastmile_qr_scan", "ios": "https://dc.lft.to/lastmile_qr_scan"}, "lat": 38.918168333333334, "is_reserved": 0, "is_disabled": 0, "fusion_lat": 0.0}, {"fusion_lon": 0.0, "bike_id": "f42f3fbf46eb41ce4631d1b97c51a8f2", "name": "f42f3fbf46eb41ce4631d1b97c51a8f2", "type": "electric_scooter", "lon": -76.98552166666667, "rental_uris": {"android": "https://dc.lft.to/lastmile_qr_scan", "ios": "https://dc.lft.to/lastmile_qr_scan"}, "lat": 38.904235166666666, "is_reserved": 0, "is_disabled": 0, "fusion_lat": 0.0}, {"fusion_lon": 0.0, "bike_id": "6147694f4f13e794880da0b073ea8f05", "name": "6147694f4f13e794880da0b073ea8f05", "type": "electric_scooter", "lon": -76.93558616666667, "rental_uris": {"android": "https://dc.lft.to/lastmile_qr_scan", "ios": "https://dc.lft.to/lastmile_qr_scan"}, "lat": 38.90160316666667, "is_reserved": 0, "is_disabled": 0, "fusion_lat": 0.0}, {"fusion_lon": 0.0, "bike_id": "20b8972f417e4943ff98faea93b53148", "name": "20b8972f417e4943ff98faea93b53148", "type": "electric_scooter", "lon": -77.015607, "rental_uris": {"android": "https://dc.lft.to/lastmile_qr_scan", "ios": "https://dc.lft.to/lastmile_qr_scan"}, "lat": 38.9140295, "is_reserved": 0, "is_disabled": 0, "fusion_lat": 0.0}, {"fusion_lon": 0.0, "bike_id": "d097dcc2144071b566d5819c7ea59dc3", "name": "d097dcc2144071b566d5819c7ea59dc3", "type": "electric_scooter", "lon": -77.02580866666666, "rental_uris": {"android": "https://dc.lft.to/lastmile_qr_scan", "ios": "https://dc.lft.to/lastmile_qr_scan"}, "lat": 38.942124166666666, "is_reserved": 0, "is_disabled": 0, "fusion_lat": 0.0}, {"fusion_lon": 0.0, "bike_id": "3f23c0d842d37a5c6c9186cf19b66093", "name": "3f23c0d842d37a5c6c9186cf19b66093", "type": "electric_scooter", "lon": -76.99339716666667, "rental_uris": {"android": "https://dc.lft.to/lastmile_qr_scan", "ios": "https://dc.lft.to/lastmile_qr_scan"}, "lat": 38.83873483333333, "is_reserved": 0, "is_disabled": 0, "fusion_lat": 0.0}, {"fusion_lon": 0.0, "bike_id": "9a95e5176d80acc89c78e29900225ecb", "name": "9a95e5176d80acc89c78e29900225ecb", "type": "electric_scooter", "lon": -77.02535433333334, "rental_uris": {"android": "https://dc.lft.to/lastmile_qr_scan", "ios": "https://dc.lft.to/lastmile_qr_scan"}, "lat": 38.94840716666667, "is_reserved": 0, "is_disabled": 0, "fusion_lat": 0.0}, {"fusion_lon": 0.0, "bike_id": "2aff1dd752f75036098e596b0658bc7a", "name": "2aff1dd752f75036098e596b0658bc7a", "type": "electric_scooter", "lon": -77.02211633333333, "rental_uris": {"android": "https://dc.lft.to/lastmile_qr_scan", "ios": "https://dc.lft.to/lastmile_qr_scan"}, "lat": 38.90105, "is_reserved": 0, "is_disabled": 0, "fusion_lat": 0.0}, {"fusion_lon": 0.0, "bike_id": "afdb8352dcb98bce1e3fcca8b1b6b191", "name": "afdb8352dcb98bce1e3fcca8b1b6b191", "type": "electric_scooter", "lon": -77.023045, "rental_uris": {"android": "https://dc.lft.to/lastmile_qr_scan", "ios": "https://dc.lft.to/lastmile_qr_scan"}, "lat": 38.90943583333333, "is_reserved": 0, "is_disabled": 0, "fusion_lat": 0.0}, {"fusion_lon": 0.0, "bike_id": "cf24953ee6f7a262de9b8690714458ae", "name": "cf24953ee6f7a262de9b8690714458ae", "type": "electric_bike", "lon": -76.94792616666666, "rental_uris": {"android": "https://dc.lft.to/lastmile_qr_scan", "ios": "https://dc.lft.to/lastmile_qr_scan"}, "lat": 38.8964535, "is_reserved": 0, "is_disabled": 0, "fusion_lat": 0.0}, {"fusion_lon": 0.0, "bike_id": "b416feeca114843f35e2b51a106cfef7", "name": "b416feeca114843f35e2b51a106cfef7", "type": "electric_scooter", "lon": -77.02836033333334, "rental_uris": {"android": "https://dc.lft.to/lastmile_qr_scan", "ios": "https://dc.lft.to/lastmile_qr_scan"}, "lat": 38.931908166666666, "is_reserved": 0, "is_disabled": 0, "fusion_lat": 0.0}, {"fusion_lon": 0.0, "bike_id": "7da9dcb74c34ca0c15197a4afc48f9e3", "name": "7da9dcb74c34ca0c15197a4afc48f9e3", "type": "electric_scooter", "lon": -77.025877, "rental_uris": {"android": "https://dc.lft.to/lastmile_qr_scan", "ios": "https://dc.lft.to/lastmile_qr_scan"}, "lat": 38.92038316666667, "is_reserved": 0, "is_disabled": 0, "fusion_lat": 0.0}, {"fusion_lon": 0.0, "bike_id": "ef115df1c5761bcacc1e90c487e80005", "name": "ef115df1c5761bcacc1e90c487e80005", "type": "electric_scooter", "lon": -77.0514455, "rental_uris": {"android": "https://dc.lft.to/lastmile_qr_scan", "ios": "https://dc.lft.to/lastmile_qr_scan"}, "lat": 38.90661633333333, "is_reserved": 0, "is_disabled": 0, "fusion_lat": 0.0}, {"fusion_lon": 0.0, "bike_id": "123819eee73529ed85adf23d0660ccbc", "name": "123819eee73529ed85adf23d0660ccbc", "type": "electric_scooter", "lon": -76.984642, "rental_uris": {"android": "https://dc.lft.to/lastmile_qr_scan", "ios": "https://dc.lft.to/lastmile_qr_scan"}, "lat": 38.893677833333335, "is_reserved": 0, "is_disabled": 0, "fusion_lat": 0.0}, {"fusion_lon": 0.0, "bike_id": "1a015fd07e398d59281e9ee6df6940ea", "name": "1a015fd07e398d59281e9ee6df6940ea", "type": "electric_scooter", "lon": -77.01203066666666, "rental_uris": {"android": "https://dc.lft.to/lastmile_qr_scan", "ios": "https://dc.lft.to/lastmile_qr_scan"}, "lat": 38.92743633333333, "is_reserved": 0, "is_disabled": 0, "fusion_lat": 0.0}, {"fusion_lon": 0.0, "bike_id": "ff3baec2145c7e6e5e49ede193457058", "name": "ff3baec2145c7e6e5e49ede193457058", "type": "electric_scooter", "lon": -77.03379833333334, "rental_uris": {"android": "https://dc.lft.to/lastmile_qr_scan", "ios": "https://dc.lft.to/lastmile_qr_scan"}, "lat": 38.90274333333333, "is_reserved": 0, "is_disabled": 0, "fusion_lat": 0.0}, {"fusion_lon": 0.0, "bike_id": "3354ccb2d67f184bb64845b99ec8dd28", "name": "3354ccb2d67f184bb64845b99ec8dd28", "type": "electric_bike", "lon": -77.12742816666666, "rental_uris": {"android": "https://dc.lft.to/lastmile_qr_scan", "ios": "https://dc.lft.to/lastmile_qr_scan"}, "lat": 38.888233, "is_reserved": 0, "is_disabled": 0, "fusion_lat": 0.0}, {"fusion_lon": 0.0, "bike_id": "6c12ef141dd907489b91a417e583a33b", "name": "6c12ef141dd907489b91a417e583a33b", "type": "electric_scooter", "lon": -77.0078, "rental_uris": {"android": "https://dc.lft.to/lastmile_qr_scan", "ios": "https://dc.lft.to/lastmile_qr_scan"}, "lat": 38.905781, "is_reserved": 0, "is_disabled": 0, "fusion_lat": 0.0}, {"fusion_lon": 0.0, "bike_id": "c6dbbc5b9c355b84194ac7ad2b91810c", "name": "c6dbbc5b9c355b84194ac7ad2b91810c", "type": "electric_scooter", "lon": -77.02800916666666, "rental_uris": {"android": "https://dc.lft.to/lastmile_qr_scan", "ios": "https://dc.lft.to/lastmile_qr_scan"}, "lat": 38.907395333333334, "is_reserved": 0, "is_disabled": 0, "fusion_lat": 0.0}, {"fusion_lon": 0.0, "bike_id": "8caa8d1ed75f9013f73d58f6571cdda7", "name": "8caa8d1ed75f9013f73d58f6571cdda7", "type": "electric_scooter", "lon": -77.00441766666667, "rental_uris": {"android": "https://dc.lft.to/lastmile_qr_scan", "ios": "https://dc.lft.to/lastmile_qr_scan"}, "lat": 38.91353466666666, "is_reserved": 0, "is_disabled": 0, "fusion_lat": 0.0}, {"fusion_lon": 0.0, "bike_id": "42ff986cc754c5a86e0a625df13c3097", "name": "42ff986cc754c5a86e0a625df13c3097", "type": "electric_scooter", "lon": -77.0245645, "rental_uris": {"android": "https://dc.lft.to/lastmile_qr_scan", "ios": "https://dc.lft.to/lastmile_qr_scan"}, "lat": 38.89749283333333, "is_reserved": 0, "is_disabled": 0, "fusion_lat": 0.0}, {"fusion_lon": 0.0, "bike_id": "14dbf7813125d3762f64b1c1b20e1c25", "name": "14dbf7813125d3762f64b1c1b20e1c25", "type": "electric_scooter", "lon": -77.018941, "rental_uris": {"android": "https://dc.lft.to/lastmile_qr_scan", "ios": "https://dc.lft.to/lastmile_qr_scan"}, "lat": 38.90139683333334, "is_reserved": 0, "is_disabled": 0, "fusion_lat": 0.0}, {"fusion_lon": 0.0, "bike_id": "d4ad66852054f2c1562759ab88a1b2e4", "name": "d4ad66852054f2c1562759ab88a1b2e4", "type": "electric_scooter", "lon": -77.03435183333333, "rental_uris": {"android": "https://dc.lft.to/lastmile_qr_scan", "ios": "https://dc.lft.to/lastmile_qr_scan"}, "lat": 38.90351733333333, "is_reserved": 0, "is_disabled": 0, "fusion_lat": 0.0}, {"fusion_lon": 0.0, "bike_id": "d26b5806be6f45699fc3f43325a84163", "name": "d26b5806be6f45699fc3f43325a84163", "type": "electric_scooter", "lon": -77.04668566666666, "rental_uris": {"android": "https://dc.lft.to/lastmile_qr_scan", "ios": "https://dc.lft.to/lastmile_qr_scan"}, "lat": 38.8969185, "is_reserved": 0, "is_disabled": 0, "fusion_lat": 0.0}, {"fusion_lon": 0.0, "bike_id": "16ba2856a3beaab854fb794c57ac3585", "name": "16ba2856a3beaab854fb794c57ac3585", "type": "electric_scooter", "lon": -77.01060133333333, "rental_uris": {"android": "https://dc.lft.to/lastmile_qr_scan", "ios": "https://dc.lft.to/lastmile_qr_scan"}, "lat": 38.872462, "is_reserved": 0, "is_disabled": 0, "fusion_lat": 0.0}, {"fusion_lon": 0.0, "bike_id": "8b722b1af3e6e10cec7b23de3d1f3f36", "name": "8b722b1af3e6e10cec7b23de3d1f3f36", "type": "electric_scooter", "lon": -77.03852616666667, "rental_uris": {"android": "https://dc.lft.to/lastmile_qr_scan", "ios": "https://dc.lft.to/lastmile_qr_scan"}, "lat": 38.9166705, "is_reserved": 0, "is_disabled": 0, "fusion_lat": 0.0}, {"fusion_lon": 0.0, "bike_id": "0298766b3ea9b92af055e77f8b92fce7", "name": "0298766b3ea9b92af055e77f8b92fce7", "type": "electric_scooter", "lon": -77.04228416666666, "rental_uris": {"android": "https://dc.lft.to/lastmile_qr_scan", "ios": "https://dc.lft.to/lastmile_qr_scan"}, "lat": 38.921129666666666, "is_reserved": 0, "is_disabled": 0, "fusion_lat": 0.0}, {"fusion_lon": 0.0, "bike_id": "e3dd659fb76fab54238589883418370e", "name": "e3dd659fb76fab54238589883418370e", "type": "electric_scooter", "lon": -77.00554383333333, "rental_uris": {"android": "https://dc.lft.to/lastmile_qr_scan", "ios": "https://dc.lft.to/lastmile_qr_scan"}, "lat": 38.87457716666667, "is_reserved": 0, "is_disabled": 0, "fusion_lat": 0.0}, {"fusion_lon": 0.0, "bike_id": "a99048319cb2a8a0540cd9ae64034d78", "name": "a99048319cb2a8a0540cd9ae64034d78", "type": "electric_scooter", "lon": -77.03181866666667, "rental_uris": {"android": "https://dc.lft.to/lastmile_qr_scan", "ios": "https://dc.lft.to/lastmile_qr_scan"}, "lat": 38.89177733333333, "is_reserved": 0, "is_disabled": 0, "fusion_lat": 0.0}, {"fusion_lon": 0.0, "bike_id": "53cf5ff692493566688c16fb3b5df470", "name": "53cf5ff692493566688c16fb3b5df470", "type": "electric_scooter", "lon": -77.0346835, "rental_uris": {"android": "https://dc.lft.to/lastmile_qr_scan", "ios": "https://dc.lft.to/lastmile_qr_scan"}, "lat": 38.9215045, "is_reserved": 0, "is_disabled": 0, "fusion_lat": 0.0}, {"fusion_lon": 0.0, "bike_id": "7ea61f2c915af5eb519db22b52e98ada", "name": "7ea61f2c915af5eb519db22b52e98ada", "type": "electric_scooter", "lon": -77.00430466666667, "rental_uris": {"android": "https://dc.lft.to/lastmile_qr_scan", "ios": "https://dc.lft.to/lastmile_qr_scan"}, "lat": 38.875342333333336, "is_reserved": 0, "is_disabled": 0, "fusion_lat": 0.0}, {"fusion_lon": 0.0, "bike_id": "4f1fe3d81aa914bb6bb9eb882c68ad9d", "name": "4f1fe3d81aa914bb6bb9eb882c68ad9d", "type": "electric_scooter", "lon": -77.01766433333333, "rental_uris": {"android": "https://dc.lft.to/lastmile_qr_scan", "ios": "https://dc.lft.to/lastmile_qr_scan"}, "lat": 38.92099533333333, "is_reserved": 0, "is_disabled": 0, "fusion_lat": 0.0}, {"fusion_lon": 0.0, "bike_id": "0ff8a0c4c9bfd401228929df751e4f12", "name": "0ff8a0c4c9bfd401228929df751e4f12", "type": "electric_scooter", "lon": -77.0271535, "rental_uris": {"android": "https://dc.lft.to/lastmile_qr_scan", "ios": "https://dc.lft.to/lastmile_qr_scan"}, "lat": 38.90867433333333, "is_reserved": 0, "is_disabled": 0, "fusion_lat": 0.0}, {"fusion_lon": 0.0, "bike_id": "97f5e3ec9a97c4543c2536cb662ebfd4", "name": "97f5e3ec9a97c4543c2536cb662ebfd4", "type": "electric_scooter", "lon": -77.01514283333333, "rental_uris": {"android": "https://dc.lft.to/lastmile_qr_scan", "ios": "https://dc.lft.to/lastmile_qr_scan"}, "lat": 38.91047733333333, "is_reserved": 0, "is_disabled": 0, "fusion_lat": 0.0}, {"fusion_lon": 0.0, "bike_id": "fa2109932c0de248320a5ce67c2b8c3d", "name": "fa2109932c0de248320a5ce67c2b8c3d", "type": "electric_scooter", "lon": -77.0389325, "rental_uris": {"android": "https://dc.lft.to/lastmile_qr_scan", "ios": "https://dc.lft.to/lastmile_qr_scan"}, "lat": 38.922189, "is_reserved": 0, "is_disabled": 0, "fusion_lat": 0.0}, {"fusion_lon": 0.0, "bike_id": "ec2fd33b43372a121f8d06e2341948a4", "name": "ec2fd33b43372a121f8d06e2341948a4", "type": "electric_scooter", "lon": -77.02333216666666, "rental_uris": {"android": "https://dc.lft.to/lastmile_qr_scan", "ios": "https://dc.lft.to/lastmile_qr_scan"}, "lat": 38.92229183333333, "is_reserved": 0, "is_disabled": 0, "fusion_lat": 0.0}, {"fusion_lon": 0.0, "bike_id": "e816a5db2de2e79974e5e969aaf29984", "name": "e816a5db2de2e79974e5e969aaf29984", "type": "electric_scooter", "lon": -77.006196, "rental_uris": {"android": "https://dc.lft.to/lastmile_qr_scan", "ios": "https://dc.lft.to/lastmile_qr_scan"}, "lat": 38.8717845, "is_reserved": 0, "is_disabled": 0, "fusion_lat": 0.0}, {"fusion_lon": 0.0, "bike_id": "feb5de38fcddb09c3c1b75cedf874b5f", "name": "feb5de38fcddb09c3c1b75cedf874b5f", "type": "electric_scooter", "lon": -77.0185615, "rental_uris": {"android": "https://dc.lft.to/lastmile_qr_scan", "ios": "https://dc.lft.to/lastmile_qr_scan"}, "lat": 38.95434133333333, "is_reserved": 0, "is_disabled": 0, "fusion_lat": 0.0}, {"fusion_lon": 0.0, "bike_id": "5eee909ac768c1c0c1bbb7b35f71fe92", "name": "5eee909ac768c1c0c1bbb7b35f71fe92", "type": "electric_scooter", "lon": -77.00749616666667, "rental_uris": {"android": "https://dc.lft.to/lastmile_qr_scan", "ios": "https://dc.lft.to/lastmile_qr_scan"}, "lat": 38.877854666666664, "is_reserved": 0, "is_disabled": 0, "fusion_lat": 0.0}, {"fusion_lon": 0.0, "bike_id": "63361ae6d8522def145d9e84bce1df3b", "name": "63361ae6d8522def145d9e84bce1df3b", "type": "electric_scooter", "lon": -77.00590483333333, "rental_uris": {"android": "https://dc.lft.to/lastmile_qr_scan", "ios": "https://dc.lft.to/lastmile_qr_scan"}, "lat": 38.92759566666667, "is_reserved": 0, "is_disabled": 0, "fusion_lat": 0.0}, {"fusion_lon": 0.0, "bike_id": "95b0bd9b5d98d17f3add41a69541faa5", "name": "95b0bd9b5d98d17f3add41a69541faa5", "type": "electric_bike", "lon": -76.93199, "rental_uris": {"android": "https://dc.lft.to/lastmile_qr_scan", "ios": "https://dc.lft.to/lastmile_qr_scan"}, "lat": 38.872371, "is_reserved": 0, "is_disabled": 0, "fusion_lat": 0.0}, {"fusion_lon": 0.0, "bike_id": "efca428f0a2648a91be2c4cbef1b2b7d", "name": "efca428f0a2648a91be2c4cbef1b2b7d", "type": "electric_scooter", "lon": -77.0216425, "rental_uris": {"android": "https://dc.lft.to/lastmile_qr_scan", "ios": "https://dc.lft.to/lastmile_qr_scan"}, "lat": 38.926126333333336, "is_reserved": 0, "is_disabled": 0, "fusion_lat": 0.0}, {"fusion_lon": 0.0, "bike_id": "a6636134bb1ffbdb9ec0c18fa6663916", "name": "a6636134bb1ffbdb9ec0c18fa6663916", "type": "electric_scooter", "lon": -77.03438783333333, "rental_uris": {"android": "https://dc.lft.to/lastmile_qr_scan", "ios": "https://dc.lft.to/lastmile_qr_scan"}, "lat": 38.9180395, "is_reserved": 0, "is_disabled": 0, "fusion_lat": 0.0}, {"fusion_lon": 0.0, "bike_id": "493bfecc347888187c052c7fbd2d65b2", "name": "493bfecc347888187c052c7fbd2d65b2", "type": "electric_scooter", "lon": -77.007636, "rental_uris": {"android": "https://dc.lft.to/lastmile_qr_scan", "ios": "https://dc.lft.to/lastmile_qr_scan"}, "lat": 38.8765135, "is_reserved": 0, "is_disabled": 0, "fusion_lat": 0.0}, {"fusion_lon": 0.0, "bike_id": "486550b4b1bfa9c493d2faa790ef4075", "name": "486550b4b1bfa9c493d2faa790ef4075", "type": "electric_scooter", "lon": -77.03349116666666, "rental_uris": {"android": "https://dc.lft.to/lastmile_qr_scan", "ios": "https://dc.lft.to/lastmile_qr_scan"}, "lat": 38.892283, "is_reserved": 0, "is_disabled": 0, "fusion_lat": 0.0}, {"fusion_lon": 0.0, "bike_id": "a23c9db76583fe3d0a6a3f87606e968f", "name": "a23c9db76583fe3d0a6a3f87606e968f", "type": "electric_scooter", "lon": -76.94198533333334, "rental_uris": {"android": "https://dc.lft.to/lastmile_qr_scan", "ios": "https://dc.lft.to/lastmile_qr_scan"}, "lat": 38.89375, "is_reserved": 0, "is_disabled": 0, "fusion_lat": 0.0}, {"fusion_lon": 0.0, "bike_id": "e80d645306b3ea59aef773e20212c75e", "name": "e80d645306b3ea59aef773e20212c75e", "type": "electric_scooter", "lon": -77.026466, "rental_uris": {"android": "https://dc.lft.to/lastmile_qr_scan", "ios": "https://dc.lft.to/lastmile_qr_scan"}, "lat": 38.93865683333333, "is_reserved": 0, "is_disabled": 0, "fusion_lat": 0.0}, {"fusion_lon": 0.0, "bike_id": "8b1b5450192c9a663ae5c8370c9aef36", "name": "8b1b5450192c9a663ae5c8370c9aef36", "type": "electric_scooter", "lon": -77.03857983333333, "rental_uris": {"android": "https://dc.lft.to/lastmile_qr_scan", "ios": "https://dc.lft.to/lastmile_qr_scan"}, "lat": 38.91200533333333, "is_reserved": 0, "is_disabled": 0, "fusion_lat": 0.0}, {"fusion_lon": 0.0, "bike_id": "a19211feb505ab9ecf8d43b23601155c", "name": "a19211feb505ab9ecf8d43b23601155c", "type": "electric_scooter", "lon": -76.98019516666666, "rental_uris": {"android": "https://dc.lft.to/lastmile_qr_scan", "ios": "https://dc.lft.to/lastmile_qr_scan"}, "lat": 38.86404666666667, "is_reserved": 0, "is_disabled": 0, "fusion_lat": 0.0}, {"fusion_lon": 0.0, "bike_id": "c7b00de94bb84ee8784ca73510075032", "name": "c7b00de94bb84ee8784ca73510075032", "type": "electric_scooter", "lon": -77.05114766666667, "rental_uris": {"android": "https://dc.lft.to/lastmile_qr_scan", "ios": "https://dc.lft.to/lastmile_qr_scan"}, "lat": 38.92366533333333, "is_reserved": 0, "is_disabled": 0, "fusion_lat": 0.0}, {"fusion_lon": 0.0, "bike_id": "03ca195df1fb3bd12da3a52d8636a47e", "name": "03ca195df1fb3bd12da3a52d8636a47e", "type": "electric_scooter", "lon": -77.048417, "rental_uris": {"android": "https://dc.lft.to/lastmile_qr_scan", "ios": "https://dc.lft.to/lastmile_qr_scan"}, "lat": 38.916142666666666, "is_reserved": 0, "is_disabled": 0, "fusion_lat": 0.0}, {"fusion_lon": 0.0, "bike_id": "341d6fa0cfeaeb2f43413230083584fa", "name": "341d6fa0cfeaeb2f43413230083584fa", "type": "electric_scooter", "lon": -77.0241195, "rental_uris": {"android": "https://dc.lft.to/lastmile_qr_scan", "ios": "https://dc.lft.to/lastmile_qr_scan"}, "lat": 38.91565383333333, "is_reserved": 0, "is_disabled": 0, "fusion_lat": 0.0}, {"fusion_lon": 0.0, "bike_id": "16b271b0f448763a0b46feb68a5a07f4", "name": "16b271b0f448763a0b46feb68a5a07f4", "type": "electric_bike", "lon": -77.07800666666667, "rental_uris": {"android": "https://dc.lft.to/lastmile_qr_scan", "ios": "https://dc.lft.to/lastmile_qr_scan"}, "lat": 38.84512016666667, "is_reserved": 0, "is_disabled": 0, "fusion_lat": 0.0}, {"fusion_lon": 0.0, "bike_id": "8405ea1aab51c64488ee1ed9877edb2a", "name": "8405ea1aab51c64488ee1ed9877edb2a", "type": "electric_scooter", "lon": -76.99492783333334, "rental_uris": {"android": "https://dc.lft.to/lastmile_qr_scan", "ios": "https://dc.lft.to/lastmile_qr_scan"}, "lat": 38.925807666666664, "is_reserved": 0, "is_disabled": 0, "fusion_lat": 0.0}, {"fusion_lon": 0.0, "bike_id": "9272090f5e8b7fea937d51bb3cfa1291", "name": "9272090f5e8b7fea937d51bb3cfa1291", "type": "electric_scooter", "lon": -76.995969, "rental_uris": {"android": "https://dc.lft.to/lastmile_qr_scan", "ios": "https://dc.lft.to/lastmile_qr_scan"}, "lat": 38.88739316666667, "is_reserved": 0, "is_disabled": 0, "fusion_lat": 0.0}, {"fusion_lon": 0.0, "bike_id": "9dc359994d27cc26810354265c4efaea", "name": "9dc359994d27cc26810354265c4efaea", "type": "electric_scooter", "lon": -77.00065966666666, "rental_uris": {"android": "https://dc.lft.to/lastmile_qr_scan", "ios": "https://dc.lft.to/lastmile_qr_scan"}, "lat": 38.89293033333333, "is_reserved": 0, "is_disabled": 0, "fusion_lat": 0.0}, {"fusion_lon": 0.0, "bike_id": "ddd8acf997429d05415eb64064322097", "name": "ddd8acf997429d05415eb64064322097", "type": "electric_scooter", "lon": -77.03396566666666, "rental_uris": {"android": "https://dc.lft.to/lastmile_qr_scan", "ios": "https://dc.lft.to/lastmile_qr_scan"}, "lat": 38.920495833333334, "is_reserved": 0, "is_disabled": 0, "fusion_lat": 0.0}, {"fusion_lon": 0.0, "bike_id": "f0679c2d922b59c7621b21ca577aabd1", "name": "f0679c2d922b59c7621b21ca577aabd1", "type": "electric_scooter", "lon": -77.07290133333333, "rental_uris": {"android": "https://dc.lft.to/lastmile_qr_scan", "ios": "https://dc.lft.to/lastmile_qr_scan"}, "lat": 38.931892166666664, "is_reserved": 0, "is_disabled": 0, "fusion_lat": 0.0}, {"fusion_lon": 0.0, "bike_id": "d6b8e182e0d8dcc864c8c0b8d363fe71", "name": "d6b8e182e0d8dcc864c8c0b8d363fe71", "type": "electric_scooter", "lon": -77.04072316666667, "rental_uris": {"android": "https://dc.lft.to/lastmile_qr_scan", "ios": "https://dc.lft.to/lastmile_qr_scan"}, "lat": 38.90506666666667, "is_reserved": 0, "is_disabled": 0, "fusion_lat": 0.0}, {"fusion_lon": 0.0, "bike_id": "6afd54e921a803aa94c818c668e307bf", "name": "6afd54e921a803aa94c818c668e307bf", "type": "electric_scooter", "lon": -77.04151816666666, "rental_uris": {"android": "https://dc.lft.to/lastmile_qr_scan", "ios": "https://dc.lft.to/lastmile_qr_scan"}, "lat": 38.919155833333335, "is_reserved": 0, "is_disabled": 0, "fusion_lat": 0.0}, {"fusion_lon": 0.0, "bike_id": "be49cd0159fdcdf8d45984ca5ef00a32", "name": "be49cd0159fdcdf8d45984ca5ef00a32", "type": "electric_scooter", "lon": -77.04490666666666, "rental_uris": {"android": "https://dc.lft.to/lastmile_qr_scan", "ios": "https://dc.lft.to/lastmile_qr_scan"}, "lat": 38.89746816666667, "is_reserved": 0, "is_disabled": 0, "fusion_lat": 0.0}, {"fusion_lon": 0.0, "bike_id": "2d504a9cb1c874f660a6b66680dbcdc1", "name": "2d504a9cb1c874f660a6b66680dbcdc1", "type": "electric_scooter", "lon": -77.05807283333333, "rental_uris": {"android": "https://dc.lft.to/lastmile_qr_scan", "ios": "https://dc.lft.to/lastmile_qr_scan"}, "lat": 38.902986, "is_reserved": 0, "is_disabled": 0, "fusion_lat": 0.0}, {"fusion_lon": 0.0, "bike_id": "e25eb5d94491eaf0673bee37eb1171e6", "name": "e25eb5d94491eaf0673bee37eb1171e6", "type": "electric_scooter", "lon": -77.02958166666667, "rental_uris": {"android": "https://dc.lft.to/lastmile_qr_scan", "ios": "https://dc.lft.to/lastmile_qr_scan"}, "lat": 38.92146266666666, "is_reserved": 0, "is_disabled": 0, "fusion_lat": 0.0}, {"fusion_lon": 0.0, "bike_id": "e902ca720952116a4ca8a69476dc8610", "name": "e902ca720952116a4ca8a69476dc8610", "type": "electric_scooter", "lon": -77.05853416666666, "rental_uris": {"android": "https://dc.lft.to/lastmile_qr_scan", "ios": "https://dc.lft.to/lastmile_qr_scan"}, "lat": 38.936991166666665, "is_reserved": 0, "is_disabled": 0, "fusion_lat": 0.0}, {"fusion_lon": 0.0, "bike_id": "cdf72575f5805f470b77fbeeb05c0f63", "name": "cdf72575f5805f470b77fbeeb05c0f63", "type": "electric_scooter", "lon": -77.02495516666667, "rental_uris": {"android": "https://dc.lft.to/lastmile_qr_scan", "ios": "https://dc.lft.to/lastmile_qr_scan"}, "lat": 38.94185816666667, "is_reserved": 0, "is_disabled": 0, "fusion_lat": 0.0}, {"fusion_lon": 0.0, "bike_id": "3a05ad2958d35365e3719558743f2662", "name": "3a05ad2958d35365e3719558743f2662", "type": "electric_scooter", "lon": -77.0462795, "rental_uris": {"android": "https://dc.lft.to/lastmile_qr_scan", "ios": "https://dc.lft.to/lastmile_qr_scan"}, "lat": 38.904777833333334, "is_reserved": 0, "is_disabled": 0, "fusion_lat": 0.0}, {"fusion_lon": 0.0, "bike_id": "cb62feb7003461e7f5201c945b80a026", "name": "cb62feb7003461e7f5201c945b80a026", "type": "electric_scooter", "lon": -77.0243385, "rental_uris": {"android": "https://dc.lft.to/lastmile_qr_scan", "ios": "https://dc.lft.to/lastmile_qr_scan"}, "lat": 38.92059883333334, "is_reserved": 0, "is_disabled": 0, "fusion_lat": 0.0}, {"fusion_lon": 0.0, "bike_id": "3ddb4806de9443669c2392dc0f7d07a2", "name": "3ddb4806de9443669c2392dc0f7d07a2", "type": "electric_scooter", "lon": -76.98807983333333, "rental_uris": {"android": "https://dc.lft.to/lastmile_qr_scan", "ios": "https://dc.lft.to/lastmile_qr_scan"}, "lat": 38.9082495, "is_reserved": 0, "is_disabled": 0, "fusion_lat": 0.0}, {"fusion_lon": 0.0, "bike_id": "c2d3c00f2ca4131a1a2331462792b486", "name": "c2d3c00f2ca4131a1a2331462792b486", "type": "electric_scooter", "lon": -77.03800033333333, "rental_uris": {"android": "https://dc.lft.to/lastmile_qr_scan", "ios": "https://dc.lft.to/lastmile_qr_scan"}, "lat": 38.93608183333333, "is_reserved": 0, "is_disabled": 0, "fusion_lat": 0.0}, {"fusion_lon": 0.0, "bike_id": "2e4e3ab693763bca58e5887a373c2af6", "name": "2e4e3ab693763bca58e5887a373c2af6", "type": "electric_scooter", "lon": -77.04083816666666, "rental_uris": {"android": "https://dc.lft.to/lastmile_qr_scan", "ios": "https://dc.lft.to/lastmile_qr_scan"}, "lat": 38.916958666666666, "is_reserved": 0, "is_disabled": 0, "fusion_lat": 0.0}, {"fusion_lon": 0.0, "bike_id": "aeffe07b2e2dcfcdbd50981177ff2734", "name": "aeffe07b2e2dcfcdbd50981177ff2734", "type": "electric_scooter", "lon": -76.9985535, "rental_uris": {"android": "https://dc.lft.to/lastmile_qr_scan", "ios": "https://dc.lft.to/lastmile_qr_scan"}, "lat": 38.9004525, "is_reserved": 0, "is_disabled": 0, "fusion_lat": 0.0}, {"fusion_lon": 0.0, "bike_id": "467c5a448feee32624624fcc49831936", "name": "467c5a448feee32624624fcc49831936", "type": "electric_scooter", "lon": -76.912354, "rental_uris": {"android": "https://dc.lft.to/lastmile_qr_scan", "ios": "https://dc.lft.to/lastmile_qr_scan"}, "lat": 38.89397133333333, "is_reserved": 0, "is_disabled": 0, "fusion_lat": 0.0}, {"fusion_lon": 0.0, "bike_id": "ebb8dfaaf58395921cd97fb3dd70a664", "name": "ebb8dfaaf58395921cd97fb3dd70a664", "type": "electric_scooter", "lon": -77.0223725, "rental_uris": {"android": "https://dc.lft.to/lastmile_qr_scan", "ios": "https://dc.lft.to/lastmile_qr_scan"}, "lat": 38.911187, "is_reserved": 0, "is_disabled": 0, "fusion_lat": 0.0}, {"fusion_lon": 0.0, "bike_id": "5dbad31f41ce0ca5abd47fd7e41be8ba", "name": "5dbad31f41ce0ca5abd47fd7e41be8ba", "type": "electric_scooter", "lon": -77.04351333333334, "rental_uris": {"android": "https://dc.lft.to/lastmile_qr_scan", "ios": "https://dc.lft.to/lastmile_qr_scan"}, "lat": 38.91359516666667, "is_reserved": 0, "is_disabled": 0, "fusion_lat": 0.0}, {"fusion_lon": 0.0, "bike_id": "485f1e157e76808f1fa5debaa445c3a1", "name": "485f1e157e76808f1fa5debaa445c3a1", "type": "electric_scooter", "lon": -77.02272533333333, "rental_uris": {"android": "https://dc.lft.to/lastmile_qr_scan", "ios": "https://dc.lft.to/lastmile_qr_scan"}, "lat": 38.92466116666667, "is_reserved": 0, "is_disabled": 0, "fusion_lat": 0.0}, {"fusion_lon": 0.0, "bike_id": "02c9cd7effa1e2347c1fdfc08213c391", "name": "02c9cd7effa1e2347c1fdfc08213c391", "type": "electric_scooter", "lon": -77.01042, "rental_uris": {"android": "https://dc.lft.to/lastmile_qr_scan", "ios": "https://dc.lft.to/lastmile_qr_scan"}, "lat": 38.88448183333333, "is_reserved": 0, "is_disabled": 0, "fusion_lat": 0.0}, {"fusion_lon": 0.0, "bike_id": "d7da359722aa15002b8899355b85aa01", "name": "d7da359722aa15002b8899355b85aa01", "type": "electric_scooter", "lon": -77.06733216666667, "rental_uris": {"android": "https://dc.lft.to/lastmile_qr_scan", "ios": "https://dc.lft.to/lastmile_qr_scan"}, "lat": 38.93365383333333, "is_reserved": 0, "is_disabled": 0, "fusion_lat": 0.0}, {"fusion_lon": 0.0, "bike_id": "c5a1df06904e1cbdbaf8230c24df5250", "name": "c5a1df06904e1cbdbaf8230c24df5250", "type": "electric_scooter", "lon": -76.95754833333334, "rental_uris": {"android": "https://dc.lft.to/lastmile_qr_scan", "ios": "https://dc.lft.to/lastmile_qr_scan"}, "lat": 38.884336166666664, "is_reserved": 0, "is_disabled": 0, "fusion_lat": 0.0}, {"fusion_lon": 0.0, "bike_id": "1fed2ca426a85af3667802416cdca6d6", "name": "1fed2ca426a85af3667802416cdca6d6", "type": "electric_scooter", "lon": -77.01358866666666, "rental_uris": {"android": "https://dc.lft.to/lastmile_qr_scan", "ios": "https://dc.lft.to/lastmile_qr_scan"}, "lat": 38.9037915, "is_reserved": 0, "is_disabled": 0, "fusion_lat": 0.0}, {"fusion_lon": 0.0, "bike_id": "ce7742ba4472a79c809e5875bb270feb", "name": "ce7742ba4472a79c809e5875bb270feb", "type": "electric_scooter", "lon": -77.039791, "rental_uris": {"android": "https://dc.lft.to/lastmile_qr_scan", "ios": "https://dc.lft.to/lastmile_qr_scan"}, "lat": 38.9181555, "is_reserved": 0, "is_disabled": 0, "fusion_lat": 0.0}, {"fusion_lon": 0.0, "bike_id": "88e6f59667794d702d0e9297e73a1483", "name": "88e6f59667794d702d0e9297e73a1483", "type": "electric_scooter", "lon": -76.99601816666667, "rental_uris": {"android": "https://dc.lft.to/lastmile_qr_scan", "ios": "https://dc.lft.to/lastmile_qr_scan"}, "lat": 38.88478116666667, "is_reserved": 0, "is_disabled": 0, "fusion_lat": 0.0}, {"fusion_lon": 0.0, "bike_id": "04d7ffef8d4812a8b00fd29308dd34d0", "name": "04d7ffef8d4812a8b00fd29308dd34d0", "type": "electric_bike", "lon": -76.92158166666667, "rental_uris": {"android": "https://dc.lft.to/lastmile_qr_scan", "ios": "https://dc.lft.to/lastmile_qr_scan"}, "lat": 39.010413666666665, "is_reserved": 0, "is_disabled": 0, "fusion_lat": 0.0}, {"fusion_lon": 0.0, "bike_id": "19fc78156a0736d266b7daa4b2883a85", "name": "19fc78156a0736d266b7daa4b2883a85", "type": "electric_scooter", "lon": -77.05917116666667, "rental_uris": {"android": "https://dc.lft.to/lastmile_qr_scan", "ios": "https://dc.lft.to/lastmile_qr_scan"}, "lat": 38.900839833333336, "is_reserved": 0, "is_disabled": 0, "fusion_lat": 0.0}, {"fusion_lon": 0.0, "bike_id": "1ebd0009698f88b3c0292b91f465badb", "name": "1ebd0009698f88b3c0292b91f465badb", "type": "electric_scooter", "lon": -76.98467983333333, "rental_uris": {"android": "https://dc.lft.to/lastmile_qr_scan", "ios": "https://dc.lft.to/lastmile_qr_scan"}, "lat": 38.893577666666665, "is_reserved": 0, "is_disabled": 0, "fusion_lat": 0.0}, {"fusion_lon": 0.0, "bike_id": "1b004c17f7647120d651d6651cfe14d9", "name": "1b004c17f7647120d651d6651cfe14d9", "type": "electric_scooter", "lon": -77.03446166666667, "rental_uris": {"android": "https://dc.lft.to/lastmile_qr_scan", "ios": "https://dc.lft.to/lastmile_qr_scan"}, "lat": 38.915841666666665, "is_reserved": 0, "is_disabled": 0, "fusion_lat": 0.0}, {"fusion_lon": 0.0, "bike_id": "d05b6beec43704b41da9f217840ae843", "name": "d05b6beec43704b41da9f217840ae843", "type": "electric_scooter", "lon": -76.97997833333334, "rental_uris": {"android": "https://dc.lft.to/lastmile_qr_scan", "ios": "https://dc.lft.to/lastmile_qr_scan"}, "lat": 38.88870766666667, "is_reserved": 0, "is_disabled": 0, "fusion_lat": 0.0}, {"fusion_lon": 0.0, "bike_id": "54b9786d27507d04c8c6f34f42fb2b28", "name": "54b9786d27507d04c8c6f34f42fb2b28", "type": "electric_scooter", "lon": -76.99695533333333, "rental_uris": {"android": "https://dc.lft.to/lastmile_qr_scan", "ios": "https://dc.lft.to/lastmile_qr_scan"}, "lat": 38.88418466666667, "is_reserved": 0, "is_disabled": 0, "fusion_lat": 0.0}, {"fusion_lon": 0.0, "bike_id": "f2b54be767675ce1fbc15c144623c51b", "name": "f2b54be767675ce1fbc15c144623c51b", "type": "electric_scooter", "lon": -77.0330005, "rental_uris": {"android": "https://dc.lft.to/lastmile_qr_scan", "ios": "https://dc.lft.to/lastmile_qr_scan"}, "lat": 38.91490833333334, "is_reserved": 0, "is_disabled": 0, "fusion_lat": 0.0}, {"fusion_lon": 0.0, "bike_id": "9126d20f1d6d7f3c068bdf9980dc3337", "name": "9126d20f1d6d7f3c068bdf9980dc3337", "type": "electric_scooter", "lon": -77.03285683333333, "rental_uris": {"android": "https://dc.lft.to/lastmile_qr_scan", "ios": "https://dc.lft.to/lastmile_qr_scan"}, "lat": 38.91650883333333, "is_reserved": 0, "is_disabled": 0, "fusion_lat": 0.0}, {"fusion_lon": 0.0, "bike_id": "58621b1167ce0a98526c847ab0213826", "name": "58621b1167ce0a98526c847ab0213826", "type": "electric_scooter", "lon": -77.024015, "rental_uris": {"android": "https://dc.lft.to/lastmile_qr_scan", "ios": "https://dc.lft.to/lastmile_qr_scan"}, "lat": 38.9346655, "is_reserved": 0, "is_disabled": 0, "fusion_lat": 0.0}, {"fusion_lon": 0.0, "bike_id": "32c604a7e536bf27666ebab9bc51bf65", "name": "32c604a7e536bf27666ebab9bc51bf65", "type": "electric_scooter", "lon": -77.03224083333333, "rental_uris": {"android": "https://dc.lft.to/lastmile_qr_scan", "ios": "https://dc.lft.to/lastmile_qr_scan"}, "lat": 38.9087, "is_reserved": 0, "is_disabled": 0, "fusion_lat": 0.0}, {"fusion_lon": 0.0, "bike_id": "d308b2b0b185d82deb7872f519818ce9", "name": "d308b2b0b185d82deb7872f519818ce9", "type": "electric_scooter", "lon": -77.042722, "rental_uris": {"android": "https://dc.lft.to/lastmile_qr_scan", "ios": "https://dc.lft.to/lastmile_qr_scan"}, "lat": 38.9170185, "is_reserved": 0, "is_disabled": 0, "fusion_lat": 0.0}, {"fusion_lon": 0.0, "bike_id": "18ac9d6e27bce427fe0f850cfdbcfe36", "name": "18ac9d6e27bce427fe0f850cfdbcfe36", "type": "electric_scooter", "lon": -77.00057966666667, "rental_uris": {"android": "https://dc.lft.to/lastmile_qr_scan", "ios": "https://dc.lft.to/lastmile_qr_scan"}, "lat": 38.87621566666667, "is_reserved": 0, "is_disabled": 0, "fusion_lat": 0.0}, {"fusion_lon": 0.0, "bike_id": "32afa1f3f0130dad85ec12a9fb8217d4", "name": "32afa1f3f0130dad85ec12a9fb8217d4", "type": "electric_scooter", "lon": -77.02567183333333, "rental_uris": {"android": "https://dc.lft.to/lastmile_qr_scan", "ios": "https://dc.lft.to/lastmile_qr_scan"}, "lat": 38.8957855, "is_reserved": 0, "is_disabled": 0, "fusion_lat": 0.0}, {"fusion_lon": 0.0, "bike_id": "58c8a01924b72f1819320d33e01c7c97", "name": "58c8a01924b72f1819320d33e01c7c97", "type": "electric_scooter", "lon": -77.02235233333333, "rental_uris": {"android": "https://dc.lft.to/lastmile_qr_scan", "ios": "https://dc.lft.to/lastmile_qr_scan"}, "lat": 38.9141535, "is_reserved": 0, "is_disabled": 0, "fusion_lat": 0.0}, {"fusion_lon": 0.0, "bike_id": "422786a08378ac0afa7bc7c0bc9b5eb3", "name": "422786a08378ac0afa7bc7c0bc9b5eb3", "type": "electric_scooter", "lon": -77.032001, "rental_uris": {"android": "https://dc.lft.to/lastmile_qr_scan", "ios": "https://dc.lft.to/lastmile_qr_scan"}, "lat": 38.910109166666665, "is_reserved": 0, "is_disabled": 0, "fusion_lat": 0.0}, {"fusion_lon": 0.0, "bike_id": "ee4f96717a9d86582cb3d2900ef4b0d4", "name": "ee4f96717a9d86582cb3d2900ef4b0d4", "type": "electric_scooter", "lon": -76.99612483333334, "rental_uris": {"android": "https://dc.lft.to/lastmile_qr_scan", "ios": "https://dc.lft.to/lastmile_qr_scan"}, "lat": 38.901207, "is_reserved": 0, "is_disabled": 0, "fusion_lat": 0.0}, {"fusion_lon": 0.0, "bike_id": "582c5780141094eae311e1c9740e107d", "name": "582c5780141094eae311e1c9740e107d", "type": "electric_scooter", "lon": -77.02792383333333, "rental_uris": {"android": "https://dc.lft.to/lastmile_qr_scan", "ios": "https://dc.lft.to/lastmile_qr_scan"}, "lat": 38.929737333333335, "is_reserved": 0, "is_disabled": 0, "fusion_lat": 0.0}, {"fusion_lon": 0.0, "bike_id": "6fa4773ba580e861fd91b93b2bc92b70", "name": "6fa4773ba580e861fd91b93b2bc92b70", "type": "electric_scooter", "lon": -77.0400395, "rental_uris": {"android": "https://dc.lft.to/lastmile_qr_scan", "ios": "https://dc.lft.to/lastmile_qr_scan"}, "lat": 38.91636366666667, "is_reserved": 0, "is_disabled": 0, "fusion_lat": 0.0}, {"fusion_lon": 0.0, "bike_id": "b42761ae1ecf2fab33c8f3178bb89d24", "name": "b42761ae1ecf2fab33c8f3178bb89d24", "type": "electric_bike", "lon": -77.04977866666667, "rental_uris": {"android": "https://dc.lft.to/lastmile_qr_scan", "ios": "https://dc.lft.to/lastmile_qr_scan"}, "lat": 38.9924705, "is_reserved": 0, "is_disabled": 0, "fusion_lat": 0.0}, {"fusion_lon": 0.0, "bike_id": "34324f4d213022b86b23505de96bf740", "name": "34324f4d213022b86b23505de96bf740", "type": "electric_scooter", "lon": -77.04695133333334, "rental_uris": {"android": "https://dc.lft.to/lastmile_qr_scan", "ios": "https://dc.lft.to/lastmile_qr_scan"}, "lat": 38.91576033333333, "is_reserved": 0, "is_disabled": 0, "fusion_lat": 0.0}, {"fusion_lon": 0.0, "bike_id": "8afc0dfa2e2aeef48344cc193cc824a2", "name": "8afc0dfa2e2aeef48344cc193cc824a2", "type": "electric_bike", "lon": -77.00327666666666, "rental_uris": {"android": "https://dc.lft.to/lastmile_qr_scan", "ios": "https://dc.lft.to/lastmile_qr_scan"}, "lat": 38.911653333333334, "is_reserved": 0, "is_disabled": 0, "fusion_lat": 0.0}, {"fusion_lon": 0.0, "bike_id": "27687a665e79a8944bf5eec2684438e9", "name": "27687a665e79a8944bf5eec2684438e9", "type": "electric_scooter", "lon": -77.02348233333333, "rental_uris": {"android": "https://dc.lft.to/lastmile_qr_scan", "ios": "https://dc.lft.to/lastmile_qr_scan"}, "lat": 38.94293666666667, "is_reserved": 0, "is_disabled": 0, "fusion_lat": 0.0}, {"fusion_lon": 0.0, "bike_id": "1d34429535956244ff994d68bac47698", "name": "1d34429535956244ff994d68bac47698", "type": "electric_scooter", "lon": -77.03711916666667, "rental_uris": {"android": "https://dc.lft.to/lastmile_qr_scan", "ios": "https://dc.lft.to/lastmile_qr_scan"}, "lat": 38.92779133333333, "is_reserved": 0, "is_disabled": 0, "fusion_lat": 0.0}, {"fusion_lon": 0.0, "bike_id": "1ec9f5d8d0582e717160ca568fce7d49", "name": "1ec9f5d8d0582e717160ca568fce7d49", "type": "electric_bike", "lon": -77.19548783333333, "rental_uris": {"android": "https://dc.lft.to/lastmile_qr_scan", "ios": "https://dc.lft.to/lastmile_qr_scan"}, "lat": 39.11510066666666, "is_reserved": 0, "is_disabled": 0, "fusion_lat": 0.0}, {"fusion_lon": 0.0, "bike_id": "909970eea3881760d862da59c12c0039", "name": "909970eea3881760d862da59c12c0039", "type": "electric_bike", "lon": -76.97821916666666, "rental_uris": {"android": "https://dc.lft.to/lastmile_qr_scan", "ios": "https://dc.lft.to/lastmile_qr_scan"}, "lat": 38.871927, "is_reserved": 0, "is_disabled": 0, "fusion_lat": 0.0}, {"fusion_lon": 0.0, "bike_id": "f9bc6855e8b13459d35c99a8f0623494", "name": "f9bc6855e8b13459d35c99a8f0623494", "type": "electric_scooter", "lon": -77.01736683333333, "rental_uris": {"android": "https://dc.lft.to/lastmile_qr_scan", "ios": "https://dc.lft.to/lastmile_qr_scan"}, "lat": 38.88588583333333, "is_reserved": 0, "is_disabled": 0, "fusion_lat": 0.0}, {"fusion_lon": 0.0, "bike_id": "f4449817f6a97be5d026677422c9e5b7", "name": "f4449817f6a97be5d026677422c9e5b7", "type": "electric_scooter", "lon": -77.017971, "rental_uris": {"android": "https://dc.lft.to/lastmile_qr_scan", "ios": "https://dc.lft.to/lastmile_qr_scan"}, "lat": 38.902784, "is_reserved": 0, "is_disabled": 0, "fusion_lat": 0.0}, {"fusion_lon": 0.0, "bike_id": "2964b8a072908afaef588d49106645c0", "name": "2964b8a072908afaef588d49106645c0", "type": "electric_scooter", "lon": -76.99672233333334, "rental_uris": {"android": "https://dc.lft.to/lastmile_qr_scan", "ios": "https://dc.lft.to/lastmile_qr_scan"}, "lat": 38.908173833333336, "is_reserved": 0, "is_disabled": 0, "fusion_lat": 0.0}, {"fusion_lon": 0.0, "bike_id": "56941ba1dd2f37189250557ffae938d0", "name": "56941ba1dd2f37189250557ffae938d0", "type": "electric_scooter", "lon": -77.0341625, "rental_uris": {"android": "https://dc.lft.to/lastmile_qr_scan", "ios": "https://dc.lft.to/lastmile_qr_scan"}, "lat": 38.929474166666665, "is_reserved": 0, "is_disabled": 0, "fusion_lat": 0.0}, {"fusion_lon": 0.0, "bike_id": "489d62c80bf1b4dffae852b5025ea514", "name": "489d62c80bf1b4dffae852b5025ea514", "type": "electric_scooter", "lon": -77.01623666666667, "rental_uris": {"android": "https://dc.lft.to/lastmile_qr_scan", "ios": "https://dc.lft.to/lastmile_qr_scan"}, "lat": 38.89539933333333, "is_reserved": 0, "is_disabled": 0, "fusion_lat": 0.0}, {"fusion_lon": 0.0, "bike_id": "b851b064402c6924ca9df23fd65c8209", "name": "b851b064402c6924ca9df23fd65c8209", "type": "electric_scooter", "lon": -77.02809766666667, "rental_uris": {"android": "https://dc.lft.to/lastmile_qr_scan", "ios": "https://dc.lft.to/lastmile_qr_scan"}, "lat": 38.9104295, "is_reserved": 0, "is_disabled": 0, "fusion_lat": 0.0}, {"fusion_lon": 0.0, "bike_id": "4afd5bc92a2535f4b7bf90de8bde81e8", "name": "4afd5bc92a2535f4b7bf90de8bde81e8", "type": "electric_scooter", "lon": -77.03175616666667, "rental_uris": {"android": "https://dc.lft.to/lastmile_qr_scan", "ios": "https://dc.lft.to/lastmile_qr_scan"}, "lat": 38.91928433333333, "is_reserved": 0, "is_disabled": 0, "fusion_lat": 0.0}, {"fusion_lon": 0.0, "bike_id": "3a1416f22d1f9f6b3d765f343d97908b", "name": "3a1416f22d1f9f6b3d765f343d97908b", "type": "electric_bike", "lon": -77.1317935, "rental_uris": {"android": "https://dc.lft.to/lastmile_qr_scan", "ios": "https://dc.lft.to/lastmile_qr_scan"}, "lat": 38.869128333333336, "is_reserved": 0, "is_disabled": 0, "fusion_lat": 0.0}, {"fusion_lon": 0.0, "bike_id": "b1be387e4a27cb3714cbbe037fd7289f", "name": "b1be387e4a27cb3714cbbe037fd7289f", "type": "electric_scooter", "lon": -77.03171016666667, "rental_uris": {"android": "https://dc.lft.to/lastmile_qr_scan", "ios": "https://dc.lft.to/lastmile_qr_scan"}, "lat": 38.911125, "is_reserved": 0, "is_disabled": 0, "fusion_lat": 0.0}, {"fusion_lon": 0.0, "bike_id": "ecff662ad5b64b6279a2405a064688f0", "name": "ecff662ad5b64b6279a2405a064688f0", "type": "electric_scooter", "lon": -76.99573933333333, "rental_uris": {"android": "https://dc.lft.to/lastmile_qr_scan", "ios": "https://dc.lft.to/lastmile_qr_scan"}, "lat": 38.87759916666667, "is_reserved": 0, "is_disabled": 0, "fusion_lat": 0.0}, {"fusion_lon": 0.0, "bike_id": "baf57b6c21633d333370df71173f3288", "name": "baf57b6c21633d333370df71173f3288", "type": "electric_scooter", "lon": -77.030629, "rental_uris": {"android": "https://dc.lft.to/lastmile_qr_scan", "ios": "https://dc.lft.to/lastmile_qr_scan"}, "lat": 38.880446, "is_reserved": 0, "is_disabled": 0, "fusion_lat": 0.0}, {"fusion_lon": 0.0, "bike_id": "4132b284e5d9cdd76910faa78504f70d", "name": "4132b284e5d9cdd76910faa78504f70d", "type": "electric_scooter", "lon": -77.04688933333334, "rental_uris": {"android": "https://dc.lft.to/lastmile_qr_scan", "ios": "https://dc.lft.to/lastmile_qr_scan"}, "lat": 38.90267133333333, "is_reserved": 0, "is_disabled": 0, "fusion_lat": 0.0}, {"fusion_lon": 0.0, "bike_id": "153bb627fcb909b5d83215ae805a265a", "name": "153bb627fcb909b5d83215ae805a265a", "type": "electric_scooter", "lon": -76.94635033333333, "rental_uris": {"android": "https://dc.lft.to/lastmile_qr_scan", "ios": "https://dc.lft.to/lastmile_qr_scan"}, "lat": 38.898358333333334, "is_reserved": 0, "is_disabled": 0, "fusion_lat": 0.0}, {"fusion_lon": 0.0, "bike_id": "d0606da9572306b3d538e709226baf82", "name": "d0606da9572306b3d538e709226baf82", "type": "electric_scooter", "lon": -77.02782133333334, "rental_uris": {"android": "https://dc.lft.to/lastmile_qr_scan", "ios": "https://dc.lft.to/lastmile_qr_scan"}, "lat": 38.8816055, "is_reserved": 0, "is_disabled": 0, "fusion_lat": 0.0}, {"fusion_lon": 0.0, "bike_id": "e7ee6120b0b91e8efb105c2222ae45ab", "name": "e7ee6120b0b91e8efb105c2222ae45ab", "type": "electric_scooter", "lon": -77.03816816666667, "rental_uris": {"android": "https://dc.lft.to/lastmile_qr_scan", "ios": "https://dc.lft.to/lastmile_qr_scan"}, "lat": 38.91968716666667, "is_reserved": 0, "is_disabled": 0, "fusion_lat": 0.0}, {"fusion_lon": 0.0, "bike_id": "b35b1f4021e88b053700a99cadf2e407", "name": "b35b1f4021e88b053700a99cadf2e407", "type": "electric_scooter", "lon": -77.0281635, "rental_uris": {"android": "https://dc.lft.to/lastmile_qr_scan", "ios": "https://dc.lft.to/lastmile_qr_scan"}, "lat": 38.90624733333333, "is_reserved": 0, "is_disabled": 0, "fusion_lat": 0.0}, {"fusion_lon": 0.0, "bike_id": "6555ad59c2f70b537a48e4e060ca4f9b", "name": "6555ad59c2f70b537a48e4e060ca4f9b", "type": "electric_scooter", "lon": -77.02961916666666, "rental_uris": {"android": "https://dc.lft.to/lastmile_qr_scan", "ios": "https://dc.lft.to/lastmile_qr_scan"}, "lat": 38.923731, "is_reserved": 0, "is_disabled": 0, "fusion_lat": 0.0}, {"fusion_lon": 0.0, "bike_id": "9454f1a26dd5bc0a4683f87217fcda33", "name": "9454f1a26dd5bc0a4683f87217fcda33", "type": "electric_scooter", "lon": -77.03381016666667, "rental_uris": {"android": "https://dc.lft.to/lastmile_qr_scan", "ios": "https://dc.lft.to/lastmile_qr_scan"}, "lat": 38.92533533333334, "is_reserved": 0, "is_disabled": 0, "fusion_lat": 0.0}, {"fusion_lon": 0.0, "bike_id": "0e7e12131bce1cd8c6fe0b99b4271c88", "name": "0e7e12131bce1cd8c6fe0b99b4271c88", "type": "electric_scooter", "lon": -77.03286816666666, "rental_uris": {"android": "https://dc.lft.to/lastmile_qr_scan", "ios": "https://dc.lft.to/lastmile_qr_scan"}, "lat": 38.91905783333333, "is_reserved": 0, "is_disabled": 0, "fusion_lat": 0.0}, {"fusion_lon": 0.0, "bike_id": "e640cb435d8326cba7efc78d457a3fae", "name": "e640cb435d8326cba7efc78d457a3fae", "type": "electric_scooter", "lon": -76.9847525, "rental_uris": {"android": "https://dc.lft.to/lastmile_qr_scan", "ios": "https://dc.lft.to/lastmile_qr_scan"}, "lat": 38.9290155, "is_reserved": 0, "is_disabled": 0, "fusion_lat": 0.0}, {"fusion_lon": 0.0, "bike_id": "969fd82ea1a62072cd61b67b7a780e20", "name": "969fd82ea1a62072cd61b67b7a780e20", "type": "electric_scooter", "lon": -76.9985115, "rental_uris": {"android": "https://dc.lft.to/lastmile_qr_scan", "ios": "https://dc.lft.to/lastmile_qr_scan"}, "lat": 38.900363166666665, "is_reserved": 0, "is_disabled": 0, "fusion_lat": 0.0}, {"fusion_lon": 0.0, "bike_id": "10f43514f2db40904b8e00ef68d4a05d", "name": "10f43514f2db40904b8e00ef68d4a05d", "type": "electric_scooter", "lon": -77.03250833333334, "rental_uris": {"android": "https://dc.lft.to/lastmile_qr_scan", "ios": "https://dc.lft.to/lastmile_qr_scan"}, "lat": 38.904455166666665, "is_reserved": 0, "is_disabled": 0, "fusion_lat": 0.0}, {"fusion_lon": 0.0, "bike_id": "203f1a4929878d57527bdd3f526cda99", "name": "203f1a4929878d57527bdd3f526cda99", "type": "electric_scooter", "lon": -77.02725166666667, "rental_uris": {"android": "https://dc.lft.to/lastmile_qr_scan", "ios": "https://dc.lft.to/lastmile_qr_scan"}, "lat": 38.903729166666665, "is_reserved": 0, "is_disabled": 0, "fusion_lat": 0.0},