{"data": {"bikes": [{"lon": -77.0245035, "is_disabled": 0, "lat": 38.918647166666666, "fusion_lat": 0.0, "is_reserved": 0, "rental_uris": {"ios": "https://dc.lft.to/lastmile_qr_scan", "android": "https://dc.lft.to/lastmile_qr_scan"}, "fusion_lon": 0.0, "type": "electric_scooter", "bike_id": "62edb0bfd06ab611815f015c9df82fd3", "name": "62edb0bfd06ab611815f015c9df82fd3"}, {"lon": -76.998695, "is_disabled": 0, "lat": 38.9101075, "fusion_lat": 0.0, "is_reserved": 0, "rental_uris": {"ios": "https://dc.lft.to/lastmile_qr_scan", "android": "https://dc.lft.to/lastmile_qr_scan"}, "fusion_lon": 0.0, "type": "electric_scooter", "bike_id": "a20c3c68401d6f7497d5b4f4463252ea", "name": "a20c3c68401d6f7497d5b4f4463252ea"}, {"lon": -77.034525, "is_disabled": 0, "lat": 38.907234333333335, "fusion_lat": 0.0, "is_reserved": 0, "rental_uris": {"ios": "https://dc.lft.to/lastmile_qr_scan", "android": "https://dc.lft.to/lastmile_qr_scan"}, "fusion_lon": 0.0, "type": "electric_scooter", "bike_id": "70d230025c3cc47b7c9c09125a66da0b", "name": "70d230025c3cc47b7c9c09125a66da0b"}, {"lon": -77.0238515, "is_disabled": 0, "lat": 38.91290933333333, "fusion_lat": 0.0, "is_reserved": 0, "rental_uris": {"ios": "https://dc.lft.to/lastmile_qr_scan", "android": "https://dc.lft.to/lastmile_qr_scan"}, "fusion_lon": 0.0, "type": "electric_scooter", "bike_id": "301ac68e077720c22bc39be12dfd02b4", "name": "301ac68e077720c22bc39be12dfd02b4"}, {"lon": -77.03185583333334, "is_disabled": 0, "lat": 38.908904666666665, "fusion_lat": 0.0, "is_reserved": 0, "rental_uris": {"ios": "https://dc.lft.to/lastmile_qr_scan", "android": "https://dc.lft.to/lastmile_qr_scan"}, "fusion_lon": 0.0, "type": "electric_scooter", "bike_id": "6953fa2175f659d588576f3ceac631e4", "name": "6953fa2175f659d588576f3ceac631e4"}, {"lon": -76.99840983333333, "is_disabled": 0, "lat": 38.90047216666667, "fusion_lat": 0.0, "is_reserved": 0, "rental_uris": {"ios": "https://dc.lft.to/lastmile_qr_scan", "android": "https://dc.lft.to/lastmile_qr_scan"}, "fusion_lon": 0.0, "type": "electric_scooter", "bike_id": "4e40e6394df8feb5b07c57429e003945", "name": "4e40e6394df8feb5b07c57429e003945"}, {"lon": -77.04959816666667, "is_disabled": 0, "lat": 38.901002166666665, "fusion_lat": 0.0, "is_reserved": 0, "rental_uris": {"ios": "https://dc.lft.to/lastmile_qr_scan", "android": "https://dc.lft.to/lastmile_qr_scan"}, "fusion_lon": 0.0, "type": "electric_scooter", "bike_id": "d4b9f7b2ac2cff788e69ad991b68ebdd", "name": "d4b9f7b2ac2cff788e69ad991b68ebdd"}, {"lon": -77.00441716666667, "is_disabled": 0, "lat": 38.99014016666667, "fusion_lat": 0.0, "is_reserved": 0, "rental_uris": {"ios": "https://dc.lft.to/lastmile_qr_scan", "android": "https://dc.lft.to/lastmile_qr_scan"}, "fusion_lon": 0.0, "type": "electric_bike", "bike_id": "e0a339365d25a49f34bf3f792842c27b", "name": "e0a339365d25a49f34bf3f792842c27b"}, {"lon": -76.97392666666667, "is_disabled": 0, "lat": 38.84524316666667, "fusion_lat": 0.0, "is_reserved": 0, "rental_uris": {"ios": "https://dc.lft.to/lastmile_qr_scan", "android": "https://dc.lft.to/lastmile_qr_scan"}, "fusion_lon": 0.0, "type": "electric_bike", "bike_id": "e23fcb0026230c84a042c2b6c5ff4379", "name": "e23fcb0026230c84a042c2b6c5ff4379"}, {"lon": -77.08348966666667, "is_disabled": 0, "lat": 38.92960383333333, "fusion_lat": 0.0, "is_reserved": 0, "rental_uris": {"ios": "https://dc.lft.to/lastmile_qr_scan", "android": "https://dc.lft.to/lastmile_qr_scan"}, "fusion_lon": 0.0, "type": "electric_scooter", "bike_id": "d31a1deb259f6360d2d7950d2e022b62", "name": "d31a1deb259f6360d2d7950d2e022b62"}, {"lon": -77.010831, "is_disabled": 0, "lat": 38.91750966666667, "fusion_lat": 0.0, "is_reserved": 0, "rental_uris": {"ios": "https://dc.lft.to/lastmile_qr_scan", "android": "https://dc.lft.to/lastmile_qr_scan"}, "fusion_lon": 0.0, "type": "electric_scooter", "bike_id": "d4565ab3cde7b21d2035ee78b66825eb", "name": "d4565ab3cde7b21d2035ee78b66825eb"}, {"lon": -77.03447916666667, "is_disabled": 0, "lat": 38.9073945, "fusion_lat": 0.0, "is_reserved": 0, "rental_uris": {"ios": "https://dc.lft.to/lastmile_qr_scan", "android": "https://dc.lft.to/lastmile_qr_scan"}, "fusion_lon": 0.0, "type": "electric_scooter", "bike_id": "b988d2a72c356e032eb4b6d71362b46c", "name": "b988d2a72c356e032eb4b6d71362b46c"}, {"lon": -77.02388266666667, "is_disabled": 0, "lat": 38.917553, "fusion_lat": 0.0, "is_reserved": 0, "rental_uris": {"ios": "https://dc.lft.to/lastmile_qr_scan", "android": "https://dc.lft.to/lastmile_qr_scan"}, "fusion_lon": 0.0, "type": "electric_scooter", "bike_id": "6384868eb4c74a1c1c62badbe4100492", "name": "6384868eb4c74a1c1c62badbe4100492"}, {"lon": -77.022989, "is_disabled": 0, "lat": 38.91603116666667, "fusion_lat": 0.0, "is_reserved": 0, "rental_uris": {"ios": "https://dc.lft.to/lastmile_qr_scan", "android": "https://dc.lft.to/lastmile_qr_scan"}, "fusion_lon": 0.0, "type": "electric_scooter", "bike_id": "a4234958b5ee0a8e443e6adef8d1c177", "name": "a4234958b5ee0a8e443e6adef8d1c177"}, {"lon": -77.029384, "is_disabled": 0, "lat": 38.90385366666667, "fusion_lat": 0.0, "is_reserved": 0, "rental_uris": {"ios": "https://dc.lft.to/lastmile_qr_scan", "android": "https://dc.lft.to/lastmile_qr_scan"}, "fusion_lon": 0.0, "type": "electric_scooter", "bike_id": "ffb11ec8b3737c89c078d1a29cc8a893", "name": "ffb11ec8b3737c89c078d1a29cc8a893"}, {"lon": -77.02532333333333, "is_disabled": 0, "lat": 38.946227666666665, "fusion_lat": 0.0, "is_reserved": 0, "rental_uris": {"ios": "https://dc.lft.to/lastmile_qr_scan", "android": "https://dc.lft.to/lastmile_qr_scan"}, "fusion_lon": 0.0, "type": "electric_scooter", "bike_id": "635afddeea867d221a71d006a46db729", "name": "635afddeea867d221a71d006a46db729"}, {"lon": -76.99033433333334, "is_disabled": 0, "lat": 38.8888105, "fusion_lat": 0.0, "is_reserved": 0, "rental_uris": {"ios": "https://dc.lft.to/lastmile_qr_scan", "android": "https://dc.lft.to/lastmile_qr_scan"}, "fusion_lon": 0.0, "type": "electric_scooter", "bike_id": "abe5c513812f6cc74014d6ef27e2f8ad", "name": "abe5c513812f6cc74014d6ef27e2f8ad"}, {"lon": -77.02203516666667, "is_disabled": 0, "lat": 38.8962685, "fusion_lat": 0.0, "is_reserved": 0, "rental_uris": {"ios": "https://dc.lft.to/lastmile_qr_scan", "android": "https://dc.lft.to/lastmile_qr_scan"}, "fusion_lon": 0.0, "type": "electric_scooter", "bike_id": "e630493f8a22838996b39427967847f0", "name": "e630493f8a22838996b39427967847f0"}, {"lon": -77.03206283333333, "is_disabled": 0, "lat": 38.91780683333333, "fusion_lat": 0.0, "is_reserved": 0, "rental_uris": {"ios": "https://dc.lft.to/lastmile_qr_scan", "android": "https://dc.lft.to/lastmile_qr_scan"}, "fusion_lon": 0.0, "type": "electric_scooter", "bike_id": "c63f6e166e4ccb652b3f561655d8662a", "name": "c63f6e166e4ccb652b3f561655d8662a"}, {"lon": -76.9916, "is_disabled": 0, "lat": 38.859685, "fusion_lat": 0.0, "is_reserved": 0, "rental_uris": {"ios": "https://dc.lft.to/lastmile_qr_scan", "android": "https://dc.lft.to/lastmile_qr_scan"}, "fusion_lon": 0.0, "type": "electric_scooter", "bike_id": "cd0d851c68a0e8e13f85c906378f9d3a", "name": "cd0d851c68a0e8e13f85c906378f9d3a"}, {"lon": -77.0791925, "is_disabled": 0, "lat": 38.92963816666666, "fusion_lat": 0.0, "is_reserved": 0, "rental_uris": {"ios": "https://dc.lft.to/lastmile_qr_scan", "android": "https://dc.lft.to/lastmile_qr_scan"}, "fusion_lon": 0.0, "type": "electric_scooter", "bike_id": "dc9310700efc91934028a32077043b2f", "name": "dc9310700efc91934028a32077043b2f"}, {"lon": -77.03286883333334, "is_disabled": 0, "lat": 38.919773166666666, "fusion_lat": 0.0, "is_reserved": 0, "rental_uris": {"ios": "https://dc.lft.to/lastmile_qr_scan", "android": "https://dc.lft.to/lastmile_qr_scan"}, "fusion_lon": 0.0, "type": "electric_scooter", "bike_id": "35882994ec5f1968410a8352f1ce3c98", "name": "35882994ec5f1968410a8352f1ce3c98"}, {"lon": -77.02491083333334, "is_disabled": 0, "lat": 38.94184416666667, "fusion_lat": 0.0, "is_reserved": 0, "rental_uris": {"ios": "https://dc.lft.to/lastmile_qr_scan", "android": "https://dc.lft.to/lastmile_qr_scan"}, "fusion_lon": 0.0, "type": "electric_scooter", "bike_id": "8310004afd400b1adfa9a40b300901ac", "name": "8310004afd400b1adfa9a40b300901ac"}, {"lon": -77.01964883333333, "is_disabled": 0, "lat": 38.956557, "fusion_lat": 0.0, "is_reserved": 0, "rental_uris": {"ios": "https://dc.lft.to/lastmile_qr_scan", "android": "https://dc.lft.to/lastmile_qr_scan"}, "fusion_lon": 0.0, "type": "electric_scooter", "bike_id": "d8cba4695fff94c4f3514587e906fcf2", "name": "d8cba4695fff94c4f3514587e906fcf2"}, {"lon": -76.9409305, "is_disabled": 0, "lat": 38.892377833333335, "fusion_lat": 0.0, "is_reserved": 0, "rental_uris": {"ios": "https://dc.lft.to/lastmile_qr_scan", "android": "https://dc.lft.to/lastmile_qr_scan"}, "fusion_lon": 0.0, "type": "electric_scooter", "bike_id": "6c737484d4636b63475a9a36ce3a603c", "name": "6c737484d4636b63475a9a36ce3a603c"}, {"lon": -77.02484366666667, "is_disabled": 0, "lat": 38.898092, "fusion_lat": 0.0, "is_reserved": 0, "rental_uris": {"ios": "https://dc.lft.to/lastmile_qr_scan", "android": "https://dc.lft.to/lastmile_qr_scan"}, "fusion_lon": 0.0, "type": "electric_scooter", "bike_id": "8ed5c345928eb8dcccb9885311defc46", "name": "8ed5c345928eb8dcccb9885311defc46"}, {"lon": -77.0971795, "is_disabled": 0, "lat": 38.951012, "fusion_lat": 0.0, "is_reserved": 0, "rental_uris": {"ios": "https://dc.lft.to/lastmile_qr_scan", "android": "https://dc.lft.to/lastmile_qr_scan"}, "fusion_lon": 0.0, "type": "electric_scooter", "bike_id": "a69b4642c899334f017f393e4ef11765", "name": "a69b4642c899334f017f393e4ef11765"}, {"lon": -77.0178125, "is_disabled": 0, "lat": 38.8771205, "fusion_lat": 0.0, "is_reserved": 0, "rental_uris": {"ios": "https://dc.lft.to/lastmile_qr_scan", "android": "https://dc.lft.to/lastmile_qr_scan"}, "fusion_lon": 0.0, "type": "electric_scooter", "bike_id": "28e41b2e0005ac2fefe4ea7a1902aedc", "name": "28e41b2e0005ac2fefe4ea7a1902aedc"}, {"lon": -76.987032, "is_disabled": 0, "lat": 38.900220166666664, "fusion_lat": 0.0, "is_reserved": 0, "rental_uris": {"ios": "https://dc.lft.to/lastmile_qr_scan", "android": "https://dc.lft.to/lastmile_qr_scan"}, "fusion_lon": 0.0, "type": "electric_scooter", "bike_id": "b28267ded2a9e52a6ded03b580d061d3", "name": "b28267ded2a9e52a6ded03b580d061d3"}, {"lon": -77.044637, "is_disabled": 0, "lat": 38.9230865, "fusion_lat": 0.0, "is_reserved": 0, "rental_uris": {"ios": "https://dc.lft.to/lastmile_qr_scan", "android": "https://dc.lft.to/lastmile_qr_scan"}, "fusion_lon": 0.0, "type": "electric_scooter", "bike_id": "a7a25952e8694ef1b54d7fd55ca44c33", "name": "a7a25952e8694ef1b54d7fd55ca44c33"}, {"lon": -77.03446766666667, "is_disabled": 0, "lat": 38.90690466666667, "fusion_lat": 0.0, "is_reserved": 0, "rental_uris": {"ios": "https://dc.lft.to/lastmile_qr_scan", "android": "https://dc.lft.to/lastmile_qr_scan"}, "fusion_lon": 0.0, "type": "electric_scooter", "bike_id": "caa642f412feb6df958fe01e46a69035", "name": "caa642f412feb6df958fe01e46a69035"}, {"lon": -77.02645316666667, "is_disabled": 0, "lat": 38.89622416666667, "fusion_lat": 0.0, "is_reserved": 0, "rental_uris": {"ios": "https://dc.lft.to/lastmile_qr_scan", "android": "https://dc.lft.to/lastmile_qr_scan"}, "fusion_lon": 0.0, "type": "electric_scooter", "bike_id": "e95230c2a81ffb62ba442f6225a2e9ca", "name": "e95230c2a81ffb62ba442f6225a2e9ca"}, {"lon": -77.04445566666666, "is_disabled": 0, "lat": 38.898387666666665, "fusion_lat": 0.0, "is_reserved": 0, "rental_uris": {"ios": "https://dc.lft.to/lastmile_qr_scan", "android": "https://dc.lft.to/lastmile_qr_scan"}, "fusion_lon": 0.0, "type": "electric_scooter", "bike_id": "1e392ace9ed895af85c27e7c753f1dc0", "name": "1e392ace9ed895af85c27e7c753f1dc0"}, {"lon": -77.03656133333334, "is_disabled": 0, "lat": 38.912396333333334, "fusion_lat": 0.0, "is_reserved": 0, "rental_uris": {"ios": "https://dc.lft.to/lastmile_qr_scan", "android": "https://dc.lft.to/lastmile_qr_scan"}, "fusion_lon": 0.0, "type": "electric_scooter", "bike_id": "934a68d3fffb4239b8443daddbdb424e", "name": "934a68d3fffb4239b8443daddbdb424e"}, {"lon": -76.98839933333333, "is_disabled": 0, "lat": 38.89666033333334, "fusion_lat": 0.0, "is_reserved": 0, "rental_uris": {"ios": "https://dc.lft.to/lastmile_qr_scan", "android": "https://dc.lft.to/lastmile_qr_scan"}, "fusion_lon": 0.0, "type": "electric_scooter", "bike_id": "e374d2638323fa363f9f5a007a73edea", "name": "e374d2638323fa363f9f5a007a73edea"}, {"lon": -76.996286, "is_disabled": 0, "lat": 38.88719566666666, "fusion_lat": 0.0, "is_reserved": 0, "rental_uris": {"ios": "https://dc.lft.to/lastmile_qr_scan", "android": "https://dc.lft.to/lastmile_qr_scan"}, "fusion_lon": 0.0, "type": "electric_scooter", "bike_id": "e6ec5e39057a20ad08e65949c1c2f7f3", "name": "e6ec5e39057a20ad08e65949c1c2f7f3"}, {"lon": -77.02170533333333, "is_disabled": 0, "lat": 38.942931333333334, "fusion_lat": 0.0, "is_reserved": 0, "rental_uris": {"ios": "https://dc.lft.to/lastmile_qr_scan", "android": "https://dc.lft.to/lastmile_qr_scan"}, "fusion_lon": 0.0, "type": "electric_scooter", "bike_id": "3a34bdf0c43da7373ee86727d91919b0", "name": "3a34bdf0c43da7373ee86727d91919b0"}, {"lon": -77.02538966666667, "is_disabled": 0, "lat": 38.92403, "fusion_lat": 0.0, "is_reserved": 0, "rental_uris": {"ios": "https://dc.lft.to/lastmile_qr_scan", "android": "https://dc.lft.to/lastmile_qr_scan"}, "fusion_lon": 0.0, "type": "electric_scooter", "bike_id": "f9477bb6db302e4cff814451ec0bd6d0", "name": "f9477bb6db302e4cff814451ec0bd6d0"}, {"lon": -77.00342083333334, "is_disabled": 0, "lat": 38.895237, "fusion_lat": 0.0, "is_reserved": 0, "rental_uris": {"ios": "https://dc.lft.to/lastmile_qr_scan", "android": "https://dc.lft.to/lastmile_qr_scan"}, "fusion_lon": 0.0, "type": "electric_scooter", "bike_id": "d875ddc8917db872a6bd7fd2b40565d6", "name": "d875ddc8917db872a6bd7fd2b40565d6"}, {"lon": -77.04224233333333, "is_disabled": 0, "lat": 38.926271666666665, "fusion_lat": 0.0, "is_reserved": 0, "rental_uris": {"ios": "https://dc.lft.to/lastmile_qr_scan", "android": "https://dc.lft.to/lastmile_qr_scan"}, "fusion_lon": 0.0, "type": "electric_scooter", "bike_id": "33d188e167c6373ab509bf9e2a49cb7a", "name": "33d188e167c6373ab509bf9e2a49cb7a"}, {"lon": -77.0522575, "is_disabled": 0, "lat": 38.925151666666665, "fusion_lat": 0.0, "is_reserved": 0, "rental_uris": {"ios": "https://dc.lft.to/lastmile_qr_scan", "android": "https://dc.lft.to/lastmile_qr_scan"}, "fusion_lon": 0.0, "type": "electric_scooter", "bike_id": "b69b71df0a3b73966426c2c09d92f1e2", "name": "b69b71df0a3b73966426c2c09d92f1e2"}, {"lon": -76.992183, "is_disabled": 0, "lat": 38.940244, "fusion_lat": 0.0, "is_reserved": 0, "rental_uris": {"ios": "https://dc.lft.to/lastmile_qr_scan", "android": "https://dc.lft.to/lastmile_qr_scan"}, "fusion_lon": 0.0, "type": "electric_bike", "bike_id": "f77f65eda2939e706f3e02c62e838f84", "name": "f77f65eda2939e706f3e02c62e838f84"}, {"lon": -77.00048533333333, "is_disabled": 0, "lat": 38.87396016666667, "fusion_lat": 0.0, "is_reserved": 0, "rental_uris": {"ios": "https://dc.lft.to/lastmile_qr_scan", "android": "https://dc.lft.to/lastmile_qr_scan"}, "fusion_lon": 0.0, "type": "electric_scooter", "bike_id": "2482b2576abe0375039a0f850085e985", "name": "2482b2576abe0375039a0f850085e985"}, {"lon": -77.08574966666667, "is_disabled": 0, "lat": 38.874233333333336, "fusion_lat": 0.0, "is_reserved": 0, "rental_uris": {"ios": "https://dc.lft.to/lastmile_qr_scan", "android": "https://dc.lft.to/lastmile_qr_scan"}, "fusion_lon": 0.0, "type": "electric_bike", "bike_id": "e128829e7306a2c470efff3e2c36bdbd", "name": "e128829e7306a2c470efff3e2c36bdbd"}, {"lon": -77.0237515, "is_disabled": 0, "lat": 38.91403116666667, "fusion_lat": 0.0, "is_reserved": 0, "rental_uris": {"ios": "https://dc.lft.to/lastmile_qr_scan", "android": "https://dc.lft.to/lastmile_qr_scan"}, "fusion_lon": 0.0, "type": "electric_scooter", "bike_id": "8d512a97cf362f3ce501f716b22fddb0", "name": "8d512a97cf362f3ce501f716b22fddb0"}, {"lon": -77.05439133333333, "is_disabled": 0, "lat": 38.92846433333333, "fusion_lat": 0.0, "is_reserved": 0, "rental_uris": {"ios": "https://dc.lft.to/lastmile_qr_scan", "android": "https://dc.lft.to/lastmile_qr_scan"}, "fusion_lon": 0.0, "type": "electric_scooter", "bike_id": "eef3b7b696a47b764424d0575771a7cf", "name": "eef3b7b696a47b764424d0575771a7cf"}, {"lon": -77.04014466666666, "is_disabled": 0, "lat": 38.909982, "fusion_lat": 0.0, "is_reserved": 0, "rental_uris": {"ios": "https://dc.lft.to/lastmile_qr_scan", "android": "https://dc.lft.to/lastmile_qr_scan"}, "fusion_lon": 0.0, "type": "electric_scooter", "bike_id": "eccc84c9e3e0f64718d0680810b58762", "name": "eccc84c9e3e0f64718d0680810b58762"}, {"lon": -77.01834366666667, "is_disabled": 0, "lat": 38.949872166666665, "fusion_lat": 0.0, "is_reserved": 0, "rental_uris": {"ios": "https://dc.lft.to/lastmile_qr_scan", "android": "https://dc.lft.to/lastmile_qr_scan"}, "fusion_lon": 0.0, "type": "electric_scooter", "bike_id": "647e57145bd40cd7098f45691eff0efd", "name": "647e57145bd40cd7098f45691eff0efd"}, {"lon": -76.98816083333334, "is_disabled": 0, "lat": 38.9006875, "fusion_lat": 0.0, "is_reserved": 0, "rental_uris": {"ios": "https://dc.lft.to/lastmile_qr_scan", "android": "https://dc.lft.to/lastmile_qr_scan"}, "fusion_lon": 0.0, "type": "electric_scooter", "bike_id": "7772e66f93d92c00ad461ba3fc07d204", "name": "7772e66f93d92c00ad461ba3fc07d204"}, {"lon": -76.9859975, "is_disabled": 0, "lat": 38.900187333333335, "fusion_lat": 0.0, "is_reserved": 0, "rental_uris": {"ios": "https://dc.lft.to/lastmile_qr_scan", "android": "https://dc.lft.to/lastmile_qr_scan"}, "fusion_lon": 0.0, "type": "electric_scooter", "bike_id": "5cf5d1a20bb650c5720f8585ecbdb393", "name": "5cf5d1a20bb650c5720f8585ecbdb393"}, {"lon": -76.927363, "is_disabled": 0, "lat": 38.90061133333333, "fusion_lat": 0.0, "is_reserved": 0, "rental_uris": {"ios": "https://dc.lft.to/lastmile_qr_scan", "android": "https://dc.lft.to/lastmile_qr_scan"}, "fusion_lon": 0.0, "type": "electric_scooter", "bike_id": "ff467d56e5d9e4aef37fd3698459c25a", "name": "ff467d56e5d9e4aef37fd3698459c25a"}, {"lon": -77.021243, "is_disabled": 0, "lat": 38.9357705, "fusion_lat": 0.0, "is_reserved": 0, "rental_uris": {"ios": "https://dc.lft.to/lastmile_qr_scan", "android": "https://dc.lft.to/lastmile_qr_scan"}, "fusion_lon": 0.0, "type": "electric_bike", "bike_id": "03a4fd0c51e80689ddb6c50662b5d641", "name": "03a4fd0c51e80689ddb6c50662b5d641"}, {"lon": -76.99482033333334, "is_disabled": 0, "lat": 38.88341583333333, "fusion_lat": 0.0, "is_reserved": 0, "rental_uris": {"ios": "https://dc.lft.to/lastmile_qr_scan", "android": "https://dc.lft.to/lastmile_qr_scan"}, "fusion_lon": 0.0, "type": "electric_scooter", "bike_id": "c819b711412508c7c7b80c775128e7ea", "name": "c819b711412508c7c7b80c775128e7ea"}, {"lon": -77.02089516666666, "is_disabled": 0, "lat": 38.881837166666664, "fusion_lat": 0.0, "is_reserved": 0, "rental_uris": {"ios": "https://dc.lft.to/lastmile_qr_scan", "android": "https://dc.lft.to/lastmile_qr_scan"}, "fusion_lon": 0.0, "type": "electric_scooter", "bike_id": "1a334d64d2e7aaad118163c645d78a30", "name": "1a334d64d2e7aaad118163c645d78a30"}, {"lon": -76.96528183333334, "is_disabled": 0, "lat": 38.87617633333333, "fusion_lat": 0.0, "is_reserved": 0, "rental_uris": {"ios": "https://dc.lft.to/lastmile_qr_scan", "android": "https://dc.lft.to/lastmile_qr_scan"}, "fusion_lon": 0.0, "type": "electric_scooter", "bike_id": "fcd12769dc50ed4047d569041a80d999", "name": "fcd12769dc50ed4047d569041a80d999"}, {"lon": -77.00674033333334, "is_disabled": 0, "lat": 38.94511083333333, "fusion_lat": 0.0, "is_reserved": 0, "rental_uris": {"ios": "https://dc.lft.to/lastmile_qr_scan", "android": "https://dc.lft.to/lastmile_qr_scan"}, "fusion_lon": 0.0, "type": "electric_bike", "bike_id": "aa91bc9b4f994d1464ba076cb099747c", "name": "aa91bc9b4f994d1464ba076cb099747c"}, {"lon": -77.01692233333333, "is_disabled": 0, "lat": 38.93899716666667, "fusion_lat": 0.0, "is_reserved": 0, "rental_uris": {"ios": "https://dc.lft.to/lastmile_qr_scan", "android": "https://dc.lft.to/lastmile_qr_scan"}, "fusion_lon": 0.0, "type": "electric_bike", "bike_id": "a73151f0352ac4acb8d08110eeb8d6c7", "name": "a73151f0352ac4acb8d08110eeb8d6c7"}, {"lon": -77.01593833333334, "is_disabled": 0, "lat": 38.87651833333334, "fusion_lat": 0.0, "is_reserved": 0, "rental_uris": {"ios": "https://dc.lft.to/lastmile_qr_scan", "android": "https://dc.lft.to/lastmile_qr_scan"}, "fusion_lon": 0.0, "type": "electric_scooter", "bike_id": "772bb947ca8a9a02f394ed8090395598", "name": "772bb947ca8a9a02f394ed8090395598"}, {"lon": -77.0415685, "is_disabled": 0, "lat": 38.914190833333336, "fusion_lat": 0.0, "is_reserved": 0, "rental_uris": {"ios": "https://dc.lft.to/lastmile_qr_scan", "android": "https://dc.lft.to/lastmile_qr_scan"}, "fusion_lon": 0.0, "type": "electric_scooter", "bike_id": "8ea16ef3562bcbe9acd29b622277e9b7", "name": "8ea16ef3562bcbe9acd29b622277e9b7"}, {"lon": -77.03658216666666, "is_disabled": 0, "lat": 38.92258283333334, "fusion_lat": 0.0, "is_reserved": 0, "rental_uris": {"ios": "https://dc.lft.to/lastmile_qr_scan", "android": "https://dc.lft.to/lastmile_qr_scan"}, "fusion_lon": 0.0, "type": "electric_scooter", "bike_id": "aa3a8547ddd017e3f89a723ead36b17d", "name": "aa3a8547ddd017e3f89a723ead36b17d"}, {"lon": -77.02314433333333, "is_disabled": 0, "lat": 38.90968216666667, "fusion_lat": 0.0, "is_reserved": 0, "rental_uris": {"ios": "https://dc.lft.to/lastmile_qr_scan", "android": "https://dc.lft.to/lastmile_qr_scan"}, "fusion_lon": 0.0, "type": "electric_scooter", "bike_id": "f2f45de9a588e48d036fb3f22354cc52", "name": "f2f45de9a588e48d036fb3f22354cc52"}, {"lon": -77.02013183333334, "is_disabled": 0, "lat": 38.914081833333334, "fusion_lat": 0.0, "is_reserved": 0, "rental_uris": {"ios": "https://dc.lft.to/lastmile_qr_scan", "android": "https://dc.lft.to/lastmile_qr_scan"}, "fusion_lon": 0.0, "type": "electric_scooter", "bike_id": "0979af1c19fc21231814676a03435db5", "name": "0979af1c19fc21231814676a03435db5"}, {"lon": -77.04168683333333, "is_disabled": 0, "lat": 38.911341666666665, "fusion_lat": 0.0, "is_reserved": 0, "rental_uris": {"ios": "https://dc.lft.to/lastmile_qr_scan", "android": "https://dc.lft.to/lastmile_qr_scan"}, "fusion_lon": 0.0, "type": "electric_scooter", "bike_id": "8bcfe893072b3f93336ee6acbb94208e", "name": "8bcfe893072b3f93336ee6acbb94208e"}, {"lon": -77.02379083333334, "is_disabled": 0, "lat": 38.896355, "fusion_lat": 0.0, "is_reserved": 0, "rental_uris": {"ios": "https://dc.lft.to/lastmile_qr_scan", "android": "https://dc.lft.to/lastmile_qr_scan"}, "fusion_lon": 0.0, "type": "electric_scooter", "bike_id": "448f6af73c4e18fc010cba864ac0f585", "name": "448f6af73c4e18fc010cba864ac0f585"}, {"lon": -77.02488766666667, "is_disabled": 0, "lat": 38.941852, "fusion_lat": 0.0, "is_reserved": 0, "rental_uris": {"ios": "https://dc.lft.to/lastmile_qr_scan", "android": "https://dc.lft.to/lastmile_qr_scan"}, "fusion_lon": 0.0, "type": "electric_scooter", "bike_id": "2ecf246530f021d9bb9a99472f6fafef", "name": "2ecf246530f021d9bb9a99472f6fafef"}, {"lon": -77.003136, "is_disabled": 0, "lat": 38.877115833333335, "fusion_lat": 0.0, "is_reserved": 0, "rental_uris": {"ios": "https://dc.lft.to/lastmile_qr_scan", "android": "https://dc.lft.to/lastmile_qr_scan"}, "fusion_lon": 0.0, "type": "electric_scooter", "bike_id": "9e19cad57226ac21b99aca640dfbd8e9", "name": "9e19cad57226ac21b99aca640dfbd8e9"}, {"lon": -77.05339616666667, "is_disabled": 0, "lat": 38.9027465, "fusion_lat": 0.0, "is_reserved": 0, "rental_uris": {"ios": "https://dc.lft.to/lastmile_qr_scan", "android": "https://dc.lft.to/lastmile_qr_scan"}, "fusion_lon": 0.0, "type": "electric_scooter", "bike_id": "79e613609d29bef1e8530256aafb954b", "name": "79e613609d29bef1e8530256aafb954b"}, {"lon": -77.04036666666667, "is_disabled": 0, "lat": 38.90398666666667, "fusion_lat": 0.0, "is_reserved": 0, "rental_uris": {"ios": "https://dc.lft.to/lastmile_qr_scan", "android": "https://dc.lft.to/lastmile_qr_scan"}, "fusion_lon": 0.0, "type": "electric_scooter", "bike_id": "bd56a99997850430199d8f22ea01f0c4", "name": "bd56a99997850430199d8f22ea01f0c4"}, {"lon": -77.02311566666667, "is_disabled": 0, "lat": 38.9178375, "fusion_lat": 0.0, "is_reserved": 0, "rental_uris": {"ios": "https://dc.lft.to/lastmile_qr_scan", "android": "https://dc.lft.to/lastmile_qr_scan"}, "fusion_lon": 0.0, "type": "electric_scooter", "bike_id": "8ca8cbf1ce4b6ff236c36170d2d120ef", "name": "8ca8cbf1ce4b6ff236c36170d2d120ef"}, {"lon": -76.981872, "is_disabled": 0, "lat": 38.862141666666666, "fusion_lat": 0.0, "is_reserved": 0, "rental_uris": {"ios": "https://dc.lft.to/lastmile_qr_scan", "android": "https://dc.lft.to/lastmile_qr_scan"}, "fusion_lon": 0.0, "type": "electric_scooter", "bike_id": "c83875fd2b74aef440ac5eaa99f8315d", "name": "c83875fd2b74aef440ac5eaa99f8315d"}, {"lon": -77.02474483333333, "is_disabled": 0, "lat": 38.897447666666665, "fusion_lat": 0.0, "is_reserved": 0, "rental_uris": {"ios": "https://dc.lft.to/lastmile_qr_scan", "android": "https://dc.lft.to/lastmile_qr_scan"}, "fusion_lon": 0.0, "type": "electric_scooter", "bike_id": "a90197130b84c0d9f83cea4f642d24d0", "name": "a90197130b84c0d9f83cea4f642d24d0"}, {"lon": -77.02300333333334, "is_disabled": 0, "lat": 38.9162045, "fusion_lat": 0.0, "is_reserved": 0, "rental_uris": {"ios": "https://dc.lft.to/lastmile_qr_scan", "android": "https://dc.lft.to/lastmile_qr_scan"}, "fusion_lon": 0.0, "type": "electric_scooter", "bike_id": "661c9c00527331b157cb9c619cc1dc1c", "name": "661c9c00527331b157cb9c619cc1dc1c"}, {"lon": -77.03582566666667, "is_disabled": 0, "lat": 38.94246033333334, "fusion_lat": 0.0, "is_reserved": 0, "rental_uris": {"ios": "https://dc.lft.to/lastmile_qr_scan", "android": "https://dc.lft.to/lastmile_qr_scan"}, "fusion_lon": 0.0, "type": "electric_scooter", "bike_id": "7b36829ece24985bd18b2f59c49a41a9", "name": "7b36829ece24985bd18b2f59c49a41a9"}, {"lon": -77.03437883333334, "is_disabled": 0, "lat": 38.90597266666666, "fusion_lat": 0.0, "is_reserved": 0, "rental_uris": {"ios": "https://dc.lft.to/lastmile_qr_scan", "android": "https://dc.lft.to/lastmile_qr_scan"}, "fusion_lon": 0.0, "type": "electric_scooter", "bike_id": "52c8bed082366eabb54caa0d0df99fed", "name": "52c8bed082366eabb54caa0d0df99fed"}, {"lon": -77.03910533333334, "is_disabled": 0, "lat": 38.92413416666667, "fusion_lat": 0.0, "is_reserved": 0, "rental_uris": {"ios": "https://dc.lft.to/lastmile_qr_scan", "android": "https://dc.lft.to/lastmile_qr_scan"}, "fusion_lon": 0.0, "type": "electric_scooter", "bike_id": "3db0766df043bc0f66e30851b6a38047", "name": "3db0766df043bc0f66e30851b6a38047"}, {"lon": -76.95758116666667, "is_disabled": 0, "lat": 38.8843395, "fusion_lat": 0.0, "is_reserved": 0, "rental_uris": {"ios": "https://dc.lft.to/lastmile_qr_scan", "android": "https://dc.lft.to/lastmile_qr_scan"}, "fusion_lon": 0.0, "type": "electric_scooter", "bike_id": "43564350b4df334e5173cfc633fb0f91", "name": "43564350b4df334e5173cfc633fb0f91"}, {"lon": -77.038131, "is_disabled": 0, "lat": 38.906789, "fusion_lat": 0.0, "is_reserved": 0, "rental_uris": {"ios": "https://dc.lft.to/lastmile_qr_scan", "android": "https://dc.lft.to/lastmile_qr_scan"}, "fusion_lon": 0.0, "type": "electric_scooter", "bike_id": "679a26f4114306cee878cf3b0b5c2295", "name": "679a26f4114306cee878cf3b0b5c2295"}, {"lon": -77.01991733333334, "is_disabled": 0, "lat": 38.915517666666666, "fusion_lat": 0.0, "is_reserved": 0, "rental_uris": {"ios": "https://dc.lft.to/lastmile_qr_scan", "android": "https://dc.lft.to/lastmile_qr_scan"}, "fusion_lon": 0.0, "type": "electric_scooter", "bike_id": "109f46970fddc33ddd4a8a53c470a87c", "name": "109f46970fddc33ddd4a8a53c470a87c"}, {"lon": -77.038675, "is_disabled": 0, "lat": 38.92152516666667, "fusion_lat": 0.0, "is_reserved": 0, "rental_uris": {"ios": "https://dc.lft.to/lastmile_qr_scan", "android": "https://dc.lft.to/lastmile_qr_scan"}, "fusion_lon": 0.0, "type": "electric_scooter", "bike_id": "c2527a03bc869178297fd1e5d9303fe7", "name": "c2527a03bc869178297fd1e5d9303fe7"}, {"lon": -77.03336233333333, "is_disabled": 0, "lat": 38.920533166666665, "fusion_lat": 0.0, "is_reserved": 0, "rental_uris": {"ios": "https://dc.lft.to/lastmile_qr_scan", "android": "https://dc.lft.to/lastmile_qr_scan"}, "fusion_lon": 0.0, "type": "electric_scooter", "bike_id": "0c0399ce189eefae8f0aac980d80cfff", "name": "0c0399ce189eefae8f0aac980d80cfff"}, {"lon": -77.057414, "is_disabled": 0, "lat": 38.93391916666667, "fusion_lat": 0.0, "is_reserved": 0, "rental_uris": {"ios": "https://dc.lft.to/lastmile_qr_scan", "android": "https://dc.lft.to/lastmile_qr_scan"}, "fusion_lon": 0.0, "type": "electric_scooter", "bike_id": "616980a80a3c8e6ff19960a2e0fd1647", "name": "616980a80a3c8e6ff19960a2e0fd1647"}, {"lon": -77.038439, "is_disabled": 0, "lat": 38.92171833333333, "fusion_lat": 0.0, "is_reserved": 0, "rental_uris": {"ios": "https://dc.lft.to/lastmile_qr_scan", "android": "https://dc.lft.to/lastmile_qr_scan"}, "fusion_lon": 0.0, "type": "electric_scooter", "bike_id": "f2d4e1525150095d0470c99583466ccf", "name": "f2d4e1525150095d0470c99583466ccf"}, {"lon": -77.02027783333334, "is_disabled": 0, "lat": 38.92440883333333, "fusion_lat": 0.0, "is_reserved": 0, "rental_uris": {"ios": "https://dc.lft.to/lastmile_qr_scan", "android": "https://dc.lft.to/lastmile_qr_scan"}, "fusion_lon": 0.0, "type": "electric_scooter", "bike_id": "72b609676048d7484b57a2442cf97165", "name": "72b609676048d7484b57a2442cf97165"}, {"lon": -77.02943483333334, "is_disabled": 0, "lat": 38.905046166666665, "fusion_lat": 0.0, "is_reserved": 0, "rental_uris": {"ios": "https://dc.lft.to/lastmile_qr_scan", "android": "https://dc.lft.to/lastmile_qr_scan"}, "fusion_lon": 0.0, "type": "electric_scooter", "bike_id": "a5941c93dc3f03b3da2677c331a0e9e5", "name": "a5941c93dc3f03b3da2677c331a0e9e5"}, {"lon": -77.1392885, "is_disabled": 0, "lat": 38.872953333333335, "fusion_lat": 0.0, "is_reserved": 0, "rental_uris": {"ios": "https://dc.lft.to/lastmile_qr_scan", "android": "https://dc.lft.to/lastmile_qr_scan"}, "fusion_lon": 0.0, "type": "electric_bike", "bike_id": "fca748e9156010ef2c6141f7f3ef08ec", "name": "fca748e9156010ef2c6141f7f3ef08ec"}, {"lon": -77.02966016666667, "is_disabled": 0, "lat": 38.927533333333336, "fusion_lat": 0.0, "is_reserved": 0, "rental_uris": {"ios": "https://dc.lft.to/lastmile_qr_scan", "android": "https://dc.lft.to/lastmile_qr_scan"}, "fusion_lon": 0.0, "type": "electric_scooter", "bike_id": "93eeaa2268e71e37cb153344471e4367", "name": "93eeaa2268e71e37cb153344471e4367"}, {"lon": -77.02557616666667, "is_disabled": 0, "lat": 38.91916783333333, "fusion_lat": 0.0, "is_reserved": 0, "rental_uris": {"ios": "https://dc.lft.to/lastmile_qr_scan", "android": "https://dc.lft.to/lastmile_qr_scan"}, "fusion_lon": 0.0, "type": "electric_scooter", "bike_id": "af9960862829e2e8f3d1004328136341", "name": "af9960862829e2e8f3d1004328136341"}, {"lon": -76.98839416666667, "is_disabled": 0, "lat": 38.84280233333333, "fusion_lat": 0.0, "is_reserved": 0, "rental_uris": {"ios": "https://dc.lft.to/lastmile_qr_scan", "android": "https://dc.lft.to/lastmile_qr_scan"}, "fusion_lon": 0.0, "type": "electric_bike", "bike_id": "731772e75c69f19000b8ca75fc9f063a", "name": "731772e75c69f19000b8ca75fc9f063a"}, {"lon": -77.04346433333333, "is_disabled": 0, "lat": 38.92190433333333, "fusion_lat": 0.0, "is_reserved": 0, "rental_uris": {"ios": "https://dc.lft.to/lastmile_qr_scan", "android": "https://dc.lft.to/lastmile_qr_scan"}, "fusion_lon": 0.0, "type": "electric_scooter", "bike_id": "75a7f4ff69a9b6c01fb62f018b5e9f36", "name": "75a7f4ff69a9b6c01fb62f018b5e9f36"}, {"lon": -77.028484, "is_disabled": 0, "lat": 38.917035166666665, "fusion_lat": 0.0, "is_reserved": 0, "rental_uris": {"ios": "https://dc.lft.to/lastmile_qr_scan", "android": "https://dc.lft.to/lastmile_qr_scan"}, "fusion_lon": 0.0, "type": "electric_scooter", "bike_id": "8d94a33495a7ecdb93202a203d5984fc", "name": "8d94a33495a7ecdb93202a203d5984fc"}, {"lon": -76.96060366666667, "is_disabled": 0, "lat": 38.883226, "fusion_lat": 0.0, "is_reserved": 0, "rental_uris": {"ios": "https://dc.lft.to/lastmile_qr_scan", "android": "https://dc.lft.to/lastmile_qr_scan"}, "fusion_lon": 0.0, "type": "electric_bike", "bike_id": "b6de24f12ea096c28777a35cf1a83a8e", "name": "b6de24f12ea096c28777a35cf1a83a8e"}, {"lon": -77.00250866666667, "is_disabled": 0, "lat": 38.874889333333336, "fusion_lat": 0.0, "is_reserved": 0, "rental_uris": {"ios": "https://dc.lft.to/lastmile_qr_scan", "android": "https://dc.lft.to/lastmile_qr_scan"}, "fusion_lon": 0.0, "type": "electric_scooter", "bike_id": "a547cfe40086ea08ec6bd40d42fe0437", "name": "a547cfe40086ea08ec6bd40d42fe0437"}, {"lon": -76.97025683333334, "is_disabled": 0, "lat": 38.873582666666664, "fusion_lat": 0.0, "is_reserved": 0, "rental_uris": {"ios": "https://dc.lft.to/lastmile_qr_scan", "android": "https://dc.lft.to/lastmile_qr_scan"}, "fusion_lon": 0.0, "type": "electric_scooter", "bike_id": "8a1745cede65de71a8110dc0b173d0a9", "name": "8a1745cede65de71a8110dc0b173d0a9"}, {"lon": -76.9794795, "is_disabled": 0, "lat": 38.904299333333334, "fusion_lat": 0.0, "is_reserved": 0, "rental_uris": {"ios": "https://dc.lft.to/lastmile_qr_scan", "android": "https://dc.lft.to/lastmile_qr_scan"}, "fusion_lon": 0.0, "type": "electric_scooter", "bike_id": "d79fa30b7e442df0409ec7facb041d5e", "name": "d79fa30b7e442df0409ec7facb041d5e"}, {"lon": -77.0229055, "is_disabled": 0, "lat": 38.9156595, "fusion_lat": 0.0, "is_reserved": 0, "rental_uris": {"ios": "https://dc.lft.to/lastmile_qr_scan", "android": "https://dc.lft.to/lastmile_qr_scan"}, "fusion_lon": 0.0, "type": "electric_scooter", "bike_id": "86c053b5a4b6167efda51f820c80cd0f", "name": "86c053b5a4b6167efda51f820c80cd0f"}, {"lon": -77.04109, "is_disabled": 0, "lat": 38.923193166666664, "fusion_lat": 0.0, "is_reserved": 0, "rental_uris": {"ios": "https://dc.lft.to/lastmile_qr_scan", "android": "https://dc.lft.to/lastmile_qr_scan"}, "fusion_lon": 0.0, "type": "electric_scooter", "bike_id": "96698e0cc6c2bd6db93fdb67182e7bb9", "name": "96698e0cc6c2bd6db93fdb67182e7bb9"}, {"lon": -77.02449783333333, "is_disabled": 0, "lat": 38.918319333333336, "fusion_lat": 0.0, "is_reserved": 0, "rental_uris": {"ios": "https://dc.lft.to/lastmile_qr_scan", "android": "https://dc.lft.to/lastmile_qr_scan"}, "fusion_lon": 0.0, "type": "electric_scooter", "bike_id": "b28c23f51b7fa5c43095a99c497c898d", "name": "b28c23f51b7fa5c43095a99c497c898d"}, {"lon": -77.01543483333333, "is_disabled": 0, "lat": 38.88587233333333, "fusion_lat": 0.0, "is_reserved": 0, "rental_uris": {"ios": "https://dc.lft.to/lastmile_qr_scan", "android": "https://dc.lft.to/lastmile_qr_scan"}, "fusion_lon": 0.0, "type": "electric_scooter", "bike_id": "ffb7f8bc5f353290c28f5c55090b7b2f", "name": "ffb7f8bc5f353290c28f5c55090b7b2f"}, {"lon": -77.05372716666666, "is_disabled": 0, "lat": 38.927001833333335, "fusion_lat": 0.0, "is_reserved": 0, "rental_uris": {"ios": "https://dc.lft.to/lastmile_qr_scan", "android": "https://dc.lft.to/lastmile_qr_scan"}, "fusion_lon": 0.0, "type": "electric_scooter", "bike_id": "cd7c6a5ff0738b7ce924d4a05e8fd61e", "name": "cd7c6a5ff0738b7ce924d4a05e8fd61e"}, {"lon": -77.03769766666667, "is_disabled": 0, "lat": 38.929368, "fusion_lat": 0.0, "is_reserved": 0, "rental_uris": {"ios": "https://dc.lft.to/lastmile_qr_scan", "android": "https://dc.lft.to/lastmile_qr_scan"}, "fusion_lon": 0.0, "type": "electric_scooter", "bike_id": "95e45dd66ee6d4643e2065f8eb66bca3", "name": "95e45dd66ee6d4643e2065f8eb66bca3"}, {"lon": -77.0019155, "is_disabled": 0, "lat": 38.90036516666667, "fusion_lat": 0.0, "is_reserved": 0, "rental_uris": {"ios": "https://dc.lft.to/lastmile_qr_scan", "android": "https://dc.lft.to/lastmile_qr_scan"}, "fusion_lon": 0.0, "type": "electric_scooter", "bike_id": "6d1afe50d5aa1e79ddf164a1b4bebe5c", "name": "6d1afe50d5aa1e79ddf164a1b4bebe5c"}, {"lon": -76.93364383333333, "is_disabled": 0, "lat": 38.899170166666664, "fusion_lat": 0.0, "is_reserved": 0, "rental_uris": {"ios": "https://dc.lft.to/lastmile_qr_scan", "android": "https://dc.lft.to/lastmile_qr_scan"}, "fusion_lon": 0.0, "type": "electric_scooter", "bike_id": "2b1e5485890c4a7ead1a3e9824bb32f6", "name": "2b1e5485890c4a7ead1a3e9824bb32f6"}, {"lon": -77.02135566666666, "is_disabled": 0, "lat": 38.915586166666664, "fusion_lat": 0.0, "is_reserved": 0, "rental_uris": {"ios": "https://dc.lft.to/lastmile_qr_scan", "android": "https://dc.lft.to/lastmile_qr_scan"}, "fusion_lon": 0.0, "type": "electric_scooter", "bike_id": "69672660800e059d8155a09b83bd1924", "name": "69672660800e059d8155a09b83bd1924"}, {"lon": -77.05063033333333, "is_disabled": 0, "lat": 38.92539466666667, "fusion_lat": 0.0, "is_reserved": 0, "rental_uris": {"ios": "https://dc.lft.to/lastmile_qr_scan", "android": "https://dc.lft.to/lastmile_qr_scan"}, "fusion_lon": 0.0, "type": "electric_scooter", "bike_id": "ef4bc8f794eecc0dc24af5367c725907", "name": "ef4bc8f794eecc0dc24af5367c725907"}, {"lon": -77.01313483333334, "is_disabled": 0, "lat": 38.901374, "fusion_lat": 0.0, "is_reserved": 0, "rental_uris": {"ios": "https://dc.lft.to/lastmile_qr_scan", "android": "https://dc.lft.to/lastmile_qr_scan"}, "fusion_lon": 0.0, "type": "electric_scooter", "bike_id": "355d9b66eb240c2349dbba8d1b98670e", "name": "355d9b66eb240c2349dbba8d1b98670e"}, {"lon": -76.98572983333334, "is_disabled": 0, "lat": 38.86681316666667, "fusion_lat": 0.0, "is_reserved": 0, "rental_uris": {"ios": "https://dc.lft.to/lastmile_qr_scan", "android": "https://dc.lft.to/lastmile_qr_scan"}, "fusion_lon": 0.0, "type": "electric_scooter", "bike_id": "6a58d14a7228e2073d952fc4531d321e", "name": "6a58d14a7228e2073d952fc4531d321e"}, {"lon": -76.985947, "is_disabled": 0, "lat": 38.90372716666667, "fusion_lat": 0.0, "is_reserved": 0, "rental_uris": {"ios": "https://dc.lft.to/lastmile_qr_scan", "android": "https://dc.lft.to/lastmile_qr_scan"}, "fusion_lon": 0.0, "type": "electric_scooter", "bike_id": "fbffc394f13c6ac67081fcd0805539e3", "name": "fbffc394f13c6ac67081fcd0805539e3"}, {"lon": -77.03217166666667, "is_disabled": 0, "lat": 38.907081166666664, "fusion_lat": 0.0, "is_reserved": 0, "rental_uris": {"ios": "https://dc.lft.to/lastmile_qr_scan", "android": "https://dc.lft.to/lastmile_qr_scan"}, "fusion_lon": 0.0, "type": "electric_scooter", "bike_id": "6a458f39bf981a9601ded72a91748cfb", "name": "6a458f39bf981a9601ded72a91748cfb"}, {"lon": -76.97972483333334, "is_disabled": 0, "lat": 38.89746183333333, "fusion_lat": 0.0, "is_reserved": 0, "rental_uris": {"ios": "https://dc.lft.to/lastmile_qr_scan", "android": "https://dc.lft.to/lastmile_qr_scan"}, "fusion_lon": 0.0, "type": "electric_scooter", "bike_id": "5732f85b9a12f902d9e3b0befdc35b18", "name": "5732f85b9a12f902d9e3b0befdc35b18"}, {"lon": -77.03401533333333, "is_disabled": 0, "lat": 38.926459666666666, "fusion_lat": 0.0, "is_reserved": 0, "rental_uris": {"ios": "https://dc.lft.to/lastmile_qr_scan", "android": "https://dc.lft.to/lastmile_qr_scan"}, "fusion_lon": 0.0, "type": "electric_scooter", "bike_id": "65bf794facb3f98efa868b31d36f7be8", "name": "65bf794facb3f98efa868b31d36f7be8"}, {"lon": -77.0268985, "is_disabled": 0, "lat": 38.90871666666666, "fusion_lat": 0.0, "is_reserved": 0, "rental_uris": {"ios": "https://dc.lft.to/lastmile_qr_scan", "android": "https://dc.lft.to/lastmile_qr_scan"}, "fusion_lon": 0.0, "type": "electric_scooter", "bike_id": "1f5e02e0a238920c5151b90a6757c1e0", "name": "1f5e02e0a238920c5151b90a6757c1e0"}, {"lon": -77.02186633333334, "is_disabled": 0, "lat": 38.89906366666666, "fusion_lat": 0.0, "is_reserved": 0, "rental_uris": {"ios": "https://dc.lft.to/lastmile_qr_scan", "android": "https://dc.lft.to/lastmile_qr_scan"}, "fusion_lon": 0.0, "type": "electric_scooter", "bike_id": "9c1721c359b5f34264d10c4d02556004", "name": "9c1721c359b5f34264d10c4d02556004"}, {"lon": -77.02706383333333, "is_disabled": 0, "lat": 38.90461333333333, "fusion_lat": 0.0, "is_reserved": 0, "rental_uris": {"ios": "https://dc.lft.to/lastmile_qr_scan", "android": "https://dc.lft.to/lastmile_qr_scan"}, "fusion_lon": 0.0, "type": "electric_scooter", "bike_id": "aac9d0b8183043e68679b126c57dbf4c", "name": "aac9d0b8183043e68679b126c57dbf4c"}, {"lon": -77.048183, "is_disabled": 0, "lat": 38.916329, "fusion_lat": 0.0, "is_reserved": 0, "rental_uris": {"ios": "https://dc.lft.to/lastmile_qr_scan", "android": "https://dc.lft.to/lastmile_qr_scan"}, "fusion_lon": 0.0, "type": "electric_scooter", "bike_id": "351c91cc62cc8e0d21d8e3aa9301abd9", "name": "351c91cc62cc8e0d21d8e3aa9301abd9"}, {"lon": -77.13457516666666, "is_disabled": 0, "lat": 38.853604, "fusion_lat": 0.0, "is_reserved": 0, "rental_uris": {"ios": "https://dc.lft.to/lastmile_qr_scan", "android": "https://dc.lft.to/lastmile_qr_scan"}, "fusion_lon": 0.0, "type": "electric_bike", "bike_id": "d594c2b18aa75ca688a923e916c70d2a", "name": "d594c2b18aa75ca688a923e916c70d2a"}, {"lon": -77.02984966666666, "is_disabled": 0, "lat": 38.907390666666664, "fusion_lat": 0.0, "is_reserved": 0, "rental_uris": {"ios": "https://dc.lft.to/lastmile_qr_scan", "android": "https://dc.lft.to/lastmile_qr_scan"}, "fusion_lon": 0.0, "type": "electric_scooter", "bike_id": "1733a136e00de3faa9e1f222d87cfc97", "name": "1733a136e00de3faa9e1f222d87cfc97"}, {"lon": -77.0352475, "is_disabled": 0, "lat": 38.93605216666667, "fusion_lat": 0.0, "is_reserved": 0, "rental_uris": {"ios": "https://dc.lft.to/lastmile_qr_scan", "android": "https://dc.lft.to/lastmile_qr_scan"}, "fusion_lon": 0.0, "type": "electric_scooter", "bike_id": "fb62cd68906b8821c5b1af9103bc5f4c", "name": "fb62cd68906b8821c5b1af9103bc5f4c"}, {"lon": -77.02386816666667, "is_disabled": 0, "lat": 38.9897155, "fusion_lat": 0.0, "is_reserved": 0, "rental_uris": {"ios": "https://dc.lft.to/lastmile_qr_scan", "android": "https://dc.lft.to/lastmile_qr_scan"}, "fusion_lon": 0.0, "type": "electric_bike", "bike_id": "ee1d373dec38b4a5e2b873b0624b335c", "name": "ee1d373dec38b4a5e2b873b0624b335c"}, {"lon": -77.01408316666667, "is_disabled": 0, "lat": 38.928547, "fusion_lat": 0.0, "is_reserved": 0, "rental_uris": {"ios": "https://dc.lft.to/lastmile_qr_scan", "android": "https://dc.lft.to/lastmile_qr_scan"}, "fusion_lon": 0.0, "type": "electric_scooter", "bike_id": "4b72ac89ccb5fd0fdc166b9bce540432", "name": "4b72ac89ccb5fd0fdc166b9bce540432"}, {"lon": -76.99120766666667, "is_disabled": 0, "lat": 38.908652333333336, "fusion_lat": 0.0, "is_reserved": 0, "rental_uris": {"ios": "https://dc.lft.to/lastmile_qr_scan", "android": "https://dc.lft.to/lastmile_qr_scan"}, "fusion_lon": 0.0, "type": "electric_bike", "bike_id": "2acc418c8f4f541db03f729fd1086679", "name": "2acc418c8f4f541db03f729fd1086679"}, {"lon": -76.9489135, "is_disabled": 0, "lat": 38.89533083333333, "fusion_lat": 0.0, "is_reserved": 0, "rental_uris": {"ios": "https://dc.lft.to/lastmile_qr_scan", "android": "https://dc.lft.to/lastmile_qr_scan"}, "fusion_lon": 0.0, "type": "electric_scooter", "bike_id": "eaa864f4b243e5f4b4f6106ddede0276", "name": "eaa864f4b243e5f4b4f6106ddede0276"}, {"lon": -77.0333935, "is_disabled": 0, "lat": 38.915660333333335, "fusion_lat": 0.0, "is_reserved": 0, "rental_uris": {"ios": "https://dc.lft.to/lastmile_qr_scan", "android": "https://dc.lft.to/lastmile_qr_scan"}, "fusion_lon": 0.0, "type": "electric_scooter", "bike_id": "a6dab542b71a4bfc507b789ea1cda333", "name": "a6dab542b71a4bfc507b789ea1cda333"}, {"lon": -77.032042, "is_disabled": 0, "lat": 38.892318333333336, "fusion_lat": 0.0, "is_reserved": 0, "rental_uris": {"ios": "https://dc.lft.to/lastmile_qr_scan", "android": "https://dc.lft.to/lastmile_qr_scan"}, "fusion_lon": 0.0, "type": "electric_scooter", "bike_id": "ef0aa7f5de8fd3496ae153cfe5df5a19", "name": "ef0aa7f5de8fd3496ae153cfe5df5a19"}, {"lon": -77.03210516666667, "is_disabled": 0, "lat": 38.8923495, "fusion_lat": 0.0, "is_reserved": 0, "rental_uris": {"ios": "https://dc.lft.to/lastmile_qr_scan", "android": "https://dc.lft.to/lastmile_qr_scan"}, "fusion_lon": 0.0, "type": "electric_scooter", "bike_id": "46ebe9d9a397034b682c05f259bfd2c5", "name": "46ebe9d9a397034b682c05f259bfd2c5"}, {"lon": -76.91598, "is_disabled": 0, "lat": 38.87985583333333, "fusion_lat": 0.0, "is_reserved": 0, "rental_uris": {"ios": "https://dc.lft.to/lastmile_qr_scan", "android": "https://dc.lft.to/lastmile_qr_scan"}, "fusion_lon": 0.0, "type": "electric_bike", "bike_id": "851f0ca408f09f5e2a473ad7912f1acf", "name": "851f0ca408f09f5e2a473ad7912f1acf"}, {"lon": -76.985374, "is_disabled": 0, "lat": 38.9095355, "fusion_lat": 0.0, "is_reserved": 0, "rental_uris": {"ios": "https://dc.lft.to/lastmile_qr_scan", "android": "https://dc.lft.to/lastmile_qr_scan"}, "fusion_lon": 0.0, "type": "electric_scooter", "bike_id": "39ce00064524f830799bec82a093f693", "name": "39ce00064524f830799bec82a093f693"}, {"lon": -76.9650905, "is_disabled": 0, "lat": 38.876487166666664, "fusion_lat": 0.0, "is_reserved": 0, "rental_uris": {"ios": "https://dc.lft.to/lastmile_qr_scan", "android": "https://dc.lft.to/lastmile_qr_scan"}, "fusion_lon": 0.0, "type": "electric_scooter", "bike_id": "3672ff5652ed36b1c14864e4331a34c2", "name": "3672ff5652ed36b1c14864e4331a34c2"}, {"lon": -76.99171483333333, "is_disabled": 0, "lat": 38.90137633333333, "fusion_lat": 0.0, "is_reserved": 0, "rental_uris": {"ios": "https://dc.lft.to/lastmile_qr_scan", "android": "https://dc.lft.to/lastmile_qr_scan"}, "fusion_lon": 0.0, "type": "electric_scooter", "bike_id": "b55c48f7df9e5e09134a002ec4256b6e", "name": "b55c48f7df9e5e09134a002ec4256b6e"}, {"lon": -77.03261183333333, "is_disabled": 0, "lat": 38.92898016666667, "fusion_lat": 0.0, "is_reserved": 0, "rental_uris": {"ios": "https://dc.lft.to/lastmile_qr_scan", "android": "https://dc.lft.to/lastmile_qr_scan"}, "fusion_lon": 0.0, "type": "electric_scooter", "bike_id": "58831c5ed546b227248897b36ebca353", "name": "58831c5ed546b227248897b36ebca353"}, {"lon": -77.05262033333334, "is_disabled": 0, "lat": 38.92778766666667, "fusion_lat": 0.0, "is_reserved": 0, "rental_uris": {"ios": "https://dc.lft.to/lastmile_qr_scan", "android": "https://dc.lft.to/lastmile_qr_scan"}, "fusion_lon": 0.0, "type": "electric_scooter", "bike_id": "8eac8971771375647f06084738e7b889", "name": "8eac8971771375647f06084738e7b889"}, {"lon": -77.06950066666667, "is_disabled": 0, "lat": 38.995376666666665, "fusion_lat": 0.0, "is_reserved": 0, "rental_uris": {"ios": "https://dc.lft.to/lastmile_qr_scan", "android": "https://dc.lft.to/lastmile_qr_scan"}, "fusion_lon": 0.0, "type": "electric_bike", "bike_id": "8686247290419ed3974bc0abba36689b", "name": "8686247290419ed3974bc0abba36689b"}, {"lon": -77.01245683333333, "is_disabled": 0, "lat": 38.91576466666667, "fusion_lat": 0.0, "is_reserved": 0, "rental_uris": {"ios": "https://dc.lft.to/lastmile_qr_scan", "android": "https://dc.lft.to/lastmile_qr_scan"}, "fusion_lon": 0.0, "type": "electric_scooter", "bike_id": "3564a2605bcac2c404ba7eea4217bff4", "name": "3564a2605bcac2c404ba7eea4217bff4"}, {"lon": -77.02484516666667, "is_disabled": 0, "lat": 38.93880816666667, "fusion_lat": 0.0, "is_reserved": 0, "rental_uris": {"ios": "https://dc.lft.to/lastmile_qr_scan", "android": "https://dc.lft.to/lastmile_qr_scan"}, "fusion_lon": 0.0, "type": "electric_scooter", "bike_id": "c04e8b83bc62cfcc23ddb02935f29dfa", "name": "c04e8b83bc62cfcc23ddb02935f29dfa"}, {"lon": -76.99449983333334, "is_disabled": 0, "lat": 38.90031033333333, "fusion_lat": 0.0, "is_reserved": 0, "rental_uris": {"ios": "https://dc.lft.to/lastmile_qr_scan", "android": "https://dc.lft.to/lastmile_qr_scan"}, "fusion_lon": 0.0, "type": "electric_scooter", "bike_id": "047fdda0553900e6aa9067c9266b1f76", "name": "047fdda0553900e6aa9067c9266b1f76"}, {"lon": -77.0466565, "is_disabled": 0, "lat": 38.89874016666667, "fusion_lat": 0.0, "is_reserved": 0, "rental_uris": {"ios": "https://dc.lft.to/lastmile_qr_scan", "android": "https://dc.lft.to/lastmile_qr_scan"}, "fusion_lon": 0.0, "type": "electric_scooter", "bike_id": "92660181106a65254e6c6b36aef86fda", "name": "92660181106a65254e6c6b36aef86fda"}, {"lon": -77.02854316666667, "is_disabled": 0, "lat": 38.9268055, "fusion_lat": 0.0, "is_reserved": 0, "rental_uris": {"ios": "https://dc.lft.to/lastmile_qr_scan", "android": "https://dc.lft.to/lastmile_qr_scan"}, "fusion_lon": 0.0, "type": "electric_scooter", "bike_id": "006d64afe6e5f6a1310e1122c449811f", "name": "006d64afe6e5f6a1310e1122c449811f"}, {"lon": -77.0365735, "is_disabled": 0, "lat": 38.941944666666664, "fusion_lat": 0.0, "is_reserved": 0, "rental_uris": {"ios": "https://dc.lft.to/lastmile_qr_scan", "android": "https://dc.lft.to/lastmile_qr_scan"}, "fusion_lon": 0.0, "type": "electric_scooter", "bike_id": "f8aa2ac172c7775e07e518de93af5df6", "name": "f8aa2ac172c7775e07e518de93af5df6"}, {"lon": -77.03618666666667, "is_disabled": 0, "lat": 38.91493283333333, "fusion_lat": 0.0, "is_reserved": 0, "rental_uris": {"ios": "https://dc.lft.to/lastmile_qr_scan", "android": "https://dc.lft.to/lastmile_qr_scan"}, "fusion_lon": 0.0, "type": "electric_scooter", "bike_id": "c8da59f134a13b03f3f077da2367c6d7", "name": "c8da59f134a13b03f3f077da2367c6d7"}, {"lon": -77.03349033333333, "is_disabled": 0, "lat": 38.898569333333334, "fusion_lat": 0.0, "is_reserved": 0, "rental_uris": {"ios": "https://dc.lft.to/lastmile_qr_scan", "android": "https://dc.lft.to/lastmile_qr_scan"}, "fusion_lon": 0.0, "type": "electric_scooter", "bike_id": "3c3b7b00158778df621a01b7354d9d08", "name": "3c3b7b00158778df621a01b7354d9d08"}, {"lon": -77.00065866666667, "is_disabled": 0, "lat": 38.838890166666665, "fusion_lat": 0.0, "is_reserved": 0, "rental_uris": {"ios": "https://dc.lft.to/lastmile_qr_scan", "android": "https://dc.lft.to/lastmile_qr_scan"}, "fusion_lon": 0.0, "type": "electric_scooter", "bike_id": "730a82b616d9a70c60c201e572e8d439", "name": "730a82b616d9a70c60c201e572e8d439"}, {"lon": -77.001992, "is_disabled": 0, "lat": 38.90269766666667, "fusion_lat": 0.0, "is_reserved": 0, "rental_uris": {"ios": "https://dc.lft.to/lastmile_qr_scan", "android": "https://dc.lft.to/lastmile_qr_scan"}, "fusion_lon": 0.0, "type": "electric_scooter", "bike_id": "edd9aa99f7eb334c7d60bfc3c0a0f16a", "name": "edd9aa99f7eb334c7d60bfc3c0a0f16a"}, {"lon": -76.95541283333333, "is_disabled": 0, "lat": 38.948044, "fusion_lat": 0.0, "is_reserved": 0, "rental_uris": {"ios": "https://dc.lft.to/lastmile_qr_scan", "android": "https://dc.lft.to/lastmile_qr_scan"}, "fusion_lon": 0.0, "type": "electric_bike", "bike_id": "fd4ada94bd3d09f9b4959ae6093629dd", "name": "fd4ada94bd3d09f9b4959ae6093629dd"}, {"lon": -76.982289, "is_disabled": 0, "lat": 38.86622583333333, "fusion_lat": 0.0, "is_reserved": 0, "rental_uris": {"ios": "https://dc.lft.to/lastmile_qr_scan", "android": "https://dc.lft.to/lastmile_qr_scan"}, "fusion_lon": 0.0, "type": "electric_scooter", "bike_id": "d44e49f37cc42b2ddb2cc6fd0efd02b4", "name": "d44e49f37cc42b2ddb2cc6fd0efd02b4"}, {"lon": -77.03262566666666, "is_disabled": 0, "lat": 38.93579733333333, "fusion_lat": 0.0, "is_reserved": 0, "rental_uris": {"ios": "https://dc.lft.to/lastmile_qr_scan", "android": "https://dc.lft.to/lastmile_qr_scan"}, "fusion_lon": 0.0, "type": "electric_scooter", "bike_id": "673e36037fdcb91c6409c4b80749627a", "name": "673e36037fdcb91c6409c4b80749627a"}, {"lon": -77.00316666666667, "is_disabled": 0, "lat": 38.8771705, "fusion_lat": 0.0, "is_reserved": 0, "rental_uris": {"ios": "https://dc.lft.to/lastmile_qr_scan", "android": "https://dc.lft.to/lastmile_qr_scan"}, "fusion_lon": 0.0, "type": "electric_scooter", "bike_id": "f16c73ce6cbebff3154afd9c87403771", "name": "f16c73ce6cbebff3154afd9c87403771"}, {"lon": -77.019794, "is_disabled": 0, "lat": 38.89372016666667, "fusion_lat": 0.0, "is_reserved": 0, "rental_uris": {"ios": "https://dc.lft.to/lastmile_qr_scan", "android": "https://dc.lft.to/lastmile_qr_scan"}, "fusion_lon": 0.0, "type": "electric_scooter", "bike_id": "72a7f7294ca6480f59d68caa40c9383d", "name": "72a7f7294ca6480f59d68caa40c9383d"}, {"lon": -77.02216366666667, "is_disabled": 0, "lat": 38.912696333333336, "fusion_lat": 0.0, "is_reserved": 0, "rental_uris": {"ios": "https://dc.lft.to/lastmile_qr_scan", "android": "https://dc.lft.to/lastmile_qr_scan"}, "fusion_lon": 0.0, "type": "electric_scooter", "bike_id": "6d9200473998deb345c9d49ecd14b3cf", "name": "6d9200473998deb345c9d49ecd14b3cf"}, {"lon": -77.0509225, "is_disabled": 0, "lat": 38.92344333333333, "fusion_lat": 0.0, "is_reserved": 0, "rental_uris": {"ios": "https://dc.lft.to/lastmile_qr_scan", "android": "https://dc.lft.to/lastmile_qr_scan"}, "fusion_lon": 0.0, "type": "electric_scooter", "bike_id": "cf172120670060d67bb9804b1cde1503", "name": "cf172120670060d67bb9804b1cde1503"}, {"lon": -77.00339116666666, "is_disabled": 0, "lat": 38.895270833333335, "fusion_lat": 0.0, "is_reserved": 0, "rental_uris": {"ios": "https://dc.lft.to/lastmile_qr_scan", "android": "https://dc.lft.to/lastmile_qr_scan"}, "fusion_lon": 0.0, "type": "electric_scooter", "bike_id": "059858f56ce8f7dfa1d70f42d7b1bb09", "name": "059858f56ce8f7dfa1d70f42d7b1bb09"}, {"lon": -77.04338716666666, "is_disabled": 0, "lat": 38.873869166666665, "fusion_lat": 0.0, "is_reserved": 0, "rental_uris": {"ios": "https://dc.lft.to/lastmile_qr_scan", "android": "https://dc.lft.to/lastmile_qr_scan"}, "fusion_lon": 0.0, "type": "electric_scooter", "bike_id": "8efa1c7ca34170c05aa102d5480fbc3c", "name": "8efa1c7ca34170c05aa102d5480fbc3c"}, {"lon": -76.95058216666666, "is_disabled": 0, "lat": 38.89335966666667, "fusion_lat": 0.0, "is_reserved": 0, "rental_uris": {"ios": "https://dc.lft.to/lastmile_qr_scan", "android": "https://dc.lft.to/lastmile_qr_scan"}, "fusion_lon": 0.0, "type": "electric_scooter", "bike_id": "c7a6b5317252655adbba5b4061df7327", "name": "c7a6b5317252655adbba5b4061df7327"}, {"lon": -77.05032483333333, "is_disabled": 0, "lat": 38.92367933333333, "fusion_lat": 0.0, "is_reserved": 0, "rental_uris": {"ios": "https://dc.lft.to/lastmile_qr_scan", "android": "https://dc.lft.to/lastmile_qr_scan"}, "fusion_lon": 0.0, "type": "electric_scooter", "bike_id": "e6df1ee7fb080b62de5c116e8bb535c0", "name": "e6df1ee7fb080b62de5c116e8bb535c0"}, {"lon": -77.01754733333334, "is_disabled": 0, "lat": 38.87712616666666, "fusion_lat": 0.0, "is_reserved": 0, "rental_uris": {"ios": "https://dc.lft.to/lastmile_qr_scan", "android": "https://dc.lft.to/lastmile_qr_scan"}, "fusion_lon": 0.0, "type": "electric_scooter", "bike_id": "2d9ce3a805afad0ccba51c9e0d9f6147", "name": "2d9ce3a805afad0ccba51c9e0d9f6147"}, {"lon": -77.04394766666667, "is_disabled": 0, "lat": 38.922345, "fusion_lat": 0.0, "is_reserved": 0, "rental_uris": {"ios": "https://dc.lft.to/lastmile_qr_scan", "android": "https://dc.lft.to/lastmile_qr_scan"}, "fusion_lon": 0.0, "type": "electric_scooter", "bike_id": "9c6d9920c23f9a7785bccbe5575492b8", "name": "9c6d9920c23f9a7785bccbe5575492b8"}, {"lon": -77.1502245, "is_disabled": 0, "lat": 39.057847333333335, "fusion_lat": 0.0, "is_reserved": 0, "rental_uris": {"ios": "https://dc.lft.to/lastmile_qr_scan", "android": "https://dc.lft.to/lastmile_qr_scan"}, "fusion_lon": 0.0, "type": "electric_bike", "bike_id": "1559951c6fd445a469f33bb622d9f399", "name": "1559951c6fd445a469f33bb622d9f399"}, {"lon": -76.9824475, "is_disabled": 0, "lat": 38.8712465, "fusion_lat": 0.0, "is_reserved": 0, "rental_uris": {"ios": "https://dc.lft.to/lastmile_qr_scan", "android": "https://dc.lft.to/lastmile_qr_scan"}, "fusion_lon": 0.0, "type": "electric_scooter", "bike_id": "32078c1e3cdb73205dcdea8aa10d1394", "name": "32078c1e3cdb73205dcdea8aa10d1394"}, {"lon": -77.00345466666667, "is_disabled": 0, "lat": 38.89532716666667, "fusion_lat": 0.0, "is_reserved": 0, "rental_uris": {"ios": "https://dc.lft.to/lastmile_qr_scan", "android": "https://dc.lft.to/lastmile_qr_scan"}, "fusion_lon": 0.0, "type": "electric_scooter", "bike_id": "476afae89f0b97cf06e60363a3599cac", "name": "476afae89f0b97cf06e60363a3599cac"}, {"lon": -76.991886, "is_disabled": 0, "lat": 38.85834666666667, "fusion_lat": 0.0, "is_reserved": 0, "rental_uris": {"ios": "https://dc.lft.to/lastmile_qr_scan", "android": "https://dc.lft.to/lastmile_qr_scan"}, "fusion_lon": 0.0, "type": "electric_scooter", "bike_id": "a4065e6e5b8387ea701772b97280977d", "name": "a4065e6e5b8387ea701772b97280977d"}, {"lon": -77.0296595, "is_disabled": 0, "lat": 38.92288633333333, "fusion_lat": 0.0, "is_reserved": 0, "rental_uris": {"ios": "https://dc.lft.to/lastmile_qr_scan", "android": "https://dc.lft.to/lastmile_qr_scan"}, "fusion_lon": 0.0, "type": "electric_scooter", "bike_id": "b1cd6c419703b61338419b46647e62b4", "name": "b1cd6c419703b61338419b46647e62b4"}, {"lon": -77.0241415, "is_disabled": 0, "lat": 38.90585516666667, "fusion_lat": 0.0, "is_reserved": 0, "rental_uris": {"ios": "https://dc.lft.to/lastmile_qr_scan", "android": "https://dc.lft.to/lastmile_qr_scan"}, "fusion_lon": 0.0, "type": "electric_scooter", "bike_id": "6f787d0c38dd7401ddc000cb5813e517", "name": "6f787d0c38dd7401ddc000cb5813e517"}, {"lon": -77.04360116666666, "is_disabled": 0, "lat": 38.911130666666665, "fusion_lat": 0.0, "is_reserved": 0, "rental_uris": {"ios": "https://dc.lft.to/lastmile_qr_scan", "android": "https://dc.lft.to/lastmile_qr_scan"}, "fusion_lon": 0.0, "type": "electric_scooter", "bike_id": "71c619a0181e7e33b8b1568776ed6529", "name": "71c619a0181e7e33b8b1568776ed6529"}, {"lon": -77.0322555, "is_disabled": 0, "lat": 38.91937266666667, "fusion_lat": 0.0, "is_reserved": 0, "rental_uris": {"ios": "https://dc.lft.to/lastmile_qr_scan", "android": "https://dc.lft.to/lastmile_qr_scan"}, "fusion_lon": 0.0, "type": "electric_scooter", "bike_id": "42f61a68b93a13ec0c92129524ce848e", "name": "42f61a68b93a13ec0c92129524ce848e"}, {"lon": -76.99806666666667, "is_disabled": 0, "lat": 38.8198025, "fusion_lat": 0.0, "is_reserved": 0, "rental_uris": {"ios": "https://dc.lft.to/lastmile_qr_scan", "android": "https://dc.lft.to/lastmile_qr_scan"}, "fusion_lon": 0.0, "type": "electric_bike", "bike_id": "41dd5a1968f886c73a4dd4da96930a37", "name": "41dd5a1968f886c73a4dd4da96930a37"}, {"lon": -77.032114, "is_disabled": 0, "lat": 38.892341333333334, "fusion_lat": 0.0, "is_reserved": 0, "rental_uris": {"ios": "https://dc.lft.to/lastmile_qr_scan", "android": "https://dc.lft.to/lastmile_qr_scan"}, "fusion_lon": 0.0, "type": "electric_scooter", "bike_id": "5950396be2753335e4a3141ec3a6fba8", "name": "5950396be2753335e4a3141ec3a6fba8"}, {"lon": -77.03214016666666, "is_disabled": 0, "lat": 38.89235266666667, "fusion_lat": 0.0, "is_reserved": 0, "rental_uris": {"ios": "https://dc.lft.to/lastmile_qr_scan", "android": "https://dc.lft.to/lastmile_qr_scan"}, "fusion_lon": 0.0, "type": "electric_scooter", "bike_id": "a88152f5fdd2deebe3f55f7a2160a74e", "name": "a88152f5fdd2deebe3f55f7a2160a74e"}, {"lon": -77.02538633333333, "is_disabled": 0, "lat": 38.9056135, "fusion_lat": 0.0, "is_reserved": 0, "rental_uris": {"ios": "https://dc.lft.to/lastmile_qr_scan", "android": "https://dc.lft.to/lastmile_qr_scan"}, "fusion_lon": 0.0, "type": "electric_scooter", "bike_id": "f7d5fbdf28fef539ec4b80902e001576", "name": "f7d5fbdf28fef539ec4b80902e001576"}, {"lon": -77.01492566666667, "is_disabled": 0, "lat": 38.92706883333334, "fusion_lat": 0.0, "is_reserved": 0, "rental_uris": {"ios": "https://dc.lft.to/lastmile_qr_scan", "android": "https://dc.lft.to/lastmile_qr_scan"}, "fusion_lon": 0.0, "type": "electric_scooter", "bike_id": "abb1163406fd998e5df66e271608b978", "name": "abb1163406fd998e5df66e271608b978"}, {"lon": -76.9954535, "is_disabled": 0, "lat": 38.831571833333335, "fusion_lat": 0.0, "is_reserved": 0, "rental_uris": {"ios": "https://dc.lft.to/lastmile_qr_scan", "android": "https://dc.lft.to/lastmile_qr_scan"}, "fusion_lon": 0.0, "type": "electric_bike", "bike_id": "4b38f2b8da35dd6b785083712f34c6b1", "name": "4b38f2b8da35dd6b785083712f34c6b1"}, {"lon": -77.03213633333333, "is_disabled": 0, "lat": 38.920696, "fusion_lat": 0.0, "is_reserved": 0, "rental_uris": {"ios": "https://dc.lft.to/lastmile_qr_scan", "android": "https://dc.lft.to/lastmile_qr_scan"}, "fusion_lon": 0.0, "type": "electric_scooter", "bike_id": "f74aede04059c7933f0ec0efabdf04e8", "name": "f74aede04059c7933f0ec0efabdf04e8"}, {"lon": -77.024912, "is_disabled": 0, "lat": 38.941837166666666, "fusion_lat": 0.0, "is_reserved": 0, "rental_uris": {"ios": "https://dc.lft.to/lastmile_qr_scan", "android": "https://dc.lft.to/lastmile_qr_scan"}, "fusion_lon": 0.0, "type": "electric_scooter", "bike_id": "efbb3730828142b70a84525440b34bd9", "name": "efbb3730828142b70a84525440b34bd9"}, {"lon": -76.949605, "is_disabled": 0, "lat": 38.89472933333333, "fusion_lat": 0.0, "is_reserved": 0, "rental_uris": {"ios": "https://dc.lft.to/lastmile_qr_scan", "android": "https://dc.lft.to/lastmile_qr_scan"}, "fusion_lon": 0.0, "type": "electric_scooter", "bike_id": "3079ade3bc427ef8eada5aea3d8edfef", "name": "3079ade3bc427ef8eada5aea3d8edfef"}, {"lon": -77.037793, "is_disabled": 0, "lat": 38.924659166666665, "fusion_lat": 0.0, "is_reserved": 0, "rental_uris": {"ios": "https://dc.lft.to/lastmile_qr_scan", "android": "https://dc.lft.to/lastmile_qr_scan"}, "fusion_lon": 0.0, "type": "electric_bike", "bike_id": "a3ecdfb053241b5c15933351be7ec873", "name": "a3ecdfb053241b5c15933351be7ec873"}, {"lon": -77.050439, "is_disabled": 0, "lat": 38.9019885, "fusion_lat": 0.0, "is_reserved": 0, "rental_uris": {"ios": "https://dc.lft.to/lastmile_qr_scan", "android": "https://dc.lft.to/lastmile_qr_scan"}, "fusion_lon": 0.0, "type": "electric_scooter", "bike_id": "46a36e10ce031f9ca77520d97160af36", "name": "46a36e10ce031f9ca77520d97160af36"}, {"lon": -77.0328135, "is_disabled": 0, "lat": 38.93248716666667, "fusion_lat": 0.0, "is_reserved": 0, "rental_uris": {"ios": "https://dc.lft.to/lastmile_qr_scan", "android": "https://dc.lft.to/lastmile_qr_scan"}, "fusion_lon": 0.0, "type": "electric_scooter", "bike_id": "843e35e54282d146a418aa32e205e164", "name": "843e35e54282d146a418aa32e205e164"}, {"lon": -76.9856775, "is_disabled": 0, "lat": 38.908216833333334, "fusion_lat": 0.0, "is_reserved": 0, "rental_uris": {"ios": "https://dc.lft.to/lastmile_qr_scan", "android": "https://dc.lft.to/lastmile_qr_scan"}, "fusion_lon": 0.0, "type": "electric_scooter", "bike_id": "7d91129ebb2b551f55ce926b0c0202d4", "name": "7d91129ebb2b551f55ce926b0c0202d4"}, {"lon": -77.02919483333334, "is_disabled": 0, "lat": 38.91033183333333, "fusion_lat": 0.0, "is_reserved": 0, "rental_uris": {"ios": "https://dc.lft.to/lastmile_qr_scan", "android": "https://dc.lft.to/lastmile_qr_scan"}, "fusion_lon": 0.0, "type": "electric_scooter", "bike_id": "49313f23b136e5d9cddf36024a0ce1c5", "name": "49313f23b136e5d9cddf36024a0ce1c5"}, {"lon": -77.0238435, "is_disabled": 0, "lat": 38.93637983333333, "fusion_lat": 0.0, "is_reserved": 0, "rental_uris": {"ios": "https://dc.lft.to/lastmile_qr_scan", "android": "https://dc.lft.to/lastmile_qr_scan"}, "fusion_lon": 0.0, "type": "electric_scooter", "bike_id": "34ad02bac06922879f96b4af994967a2", "name": "34ad02bac06922879f96b4af994967a2"}, {"lon": -77.00118266666666, "is_disabled": 0, "lat": 38.873631833333334, "fusion_lat": 0.0, "is_reserved": 0, "rental_uris": {"ios": "https://dc.lft.to/lastmile_qr_scan", "android": "https://dc.lft.to/lastmile_qr_scan"}, "fusion_lon": 0.0, "type": "electric_scooter", "bike_id": "d5b2b7996f0de8c64dd632ecf4c123ed", "name": "d5b2b7996f0de8c64dd632ecf4c123ed"}, {"lon": -77.07657666666667, "is_disabled": 0, "lat": 38.94327216666667, "fusion_lat": 0.0, "is_reserved": 0, "rental_uris": {"ios": "https://dc.lft.to/lastmile_qr_scan", "android": "https://dc.lft.to/lastmile_qr_scan"}, "fusion_lon": 0.0, "type": "electric_scooter", "bike_id": "6a754b7622f3a303f4de42e935b69f08", "name": "6a754b7622f3a303f4de42e935b69f08"}, {"lon": -77.024509, "is_disabled": 0, "lat": 38.93832, "fusion_lat": 0.0, "is_reserved": 0, "rental_uris": {"ios": "https://dc.lft.to/lastmile_qr_scan", "android": "https://dc.lft.to/lastmile_qr_scan"}, "fusion_lon": 0.0, "type": "electric_scooter", "bike_id": "c3e4e256656d40dbfad643f19d76f06e", "name": "c3e4e256656d40dbfad643f19d76f06e"}, {"lon": -77.040031, "is_disabled": 0, "lat": 38.93429416666667, "fusion_lat": 0.0, "is_reserved": 0, "rental_uris": {"ios": "https://dc.lft.to/lastmile_qr_scan", "android": "https://dc.lft.to/lastmile_qr_scan"}, "fusion_lon": 0.0, "type": "electric_scooter", "bike_id": "81f4a1c3b6b359a6a5b96d558687ae9b", "name": "81f4a1c3b6b359a6a5b96d558687ae9b"}, {"lon": -77.03520083333333, "is_disabled": 0, "lat": 38.92340883333333, "fusion_lat": 0.0, "is_reserved": 0, "rental_uris": {"ios": "https://dc.lft.to/lastmile_qr_scan", "android": "https://dc.lft.to/lastmile_qr_scan"}, "fusion_lon": 0.0, "type": "electric_scooter", "bike_id": "e4ccc7b772b22da647393f8094a1946c", "name": "e4ccc7b772b22da647393f8094a1946c"}, {"lon": -77.0269275, "is_disabled": 0, "lat": 38.89683483333334, "fusion_lat": 0.0, "is_reserved": 0, "rental_uris": {"ios": "https://dc.lft.to/lastmile_qr_scan", "android": "https://dc.lft.to/lastmile_qr_scan"}, "fusion_lon": 0.0, "type": "electric_scooter", "bike_id": "ed13c5d16efa2c69dfb00f32a02f0e25", "name": "ed13c5d16efa2c69dfb00f32a02f0e25"}, {"lon": -77.04453983333333, "is_disabled": 0, "lat": 38.91545633333333, "fusion_lat": 0.0, "is_reserved": 0, "rental_uris": {"ios": "https://dc.lft.to/lastmile_qr_scan", "android": "https://dc.lft.to/lastmile_qr_scan"}, "fusion_lon": 0.0, "type": "electric_scooter", "bike_id": "3864d08b26a69f831f5ee55cf63698ab", "name": "3864d08b26a69f831f5ee55cf63698ab"}, {"lon": -77.02358016666666, "is_disabled": 0, "lat": 38.924155, "fusion_lat": 0.0, "is_reserved": 0, "rental_uris": {"ios": "https://dc.lft.to/lastmile_qr_scan", "android": "https://dc.lft.to/lastmile_qr_scan"}, "fusion_lon": 0.0, "type": "electric_scooter", "bike_id": "9233016ea82192d0f6661b94f54942c5", "name": "9233016ea82192d0f6661b94f54942c5"}, {"lon": -77.043377, "is_disabled": 0, "lat": 38.92219383333333, "fusion_lat": 0.0, "is_reserved": 0, "rental_uris": {"ios": "https://dc.lft.to/lastmile_qr_scan", "android": "https://dc.lft.to/lastmile_qr_scan"}, "fusion_lon": 0.0, "type": "electric_scooter", "bike_id": "18bfeac3d8657bc7a0d9c674e6523d52", "name": "18bfeac3d8657bc7a0d9c674e6523d52"}, {"lon": -77.0239995, "is_disabled": 0, "lat": 38.91991516666667, "fusion_lat": 0.0, "is_reserved": 0, "rental_uris": {"ios": "https://dc.lft.to/lastmile_qr_scan", "android": "https://dc.lft.to/lastmile_qr_scan"}, "fusion_lon": 0.0, "type": "electric_scooter", "bike_id": "8eeef336a51dbc8a64a5142eb51d80ac", "name": "8eeef336a51dbc8a64a5142eb51d80ac"}, {"lon": -77.02082483333334, "is_disabled": 0, "lat": 38.8819035, "fusion_lat": 0.0, "is_reserved": 0, "rental_uris": {"ios": "https://dc.lft.to/lastmile_qr_scan", "android": "https://dc.lft.to/lastmile_qr_scan"}, "fusion_lon": 0.0, "type": "electric_scooter", "bike_id": "78c6bdb55e681206a65aa4bb8c275b96", "name": "78c6bdb55e681206a65aa4bb8c275b96"}, {"lon": -77.005663, "is_disabled": 0, "lat": 38.9058995, "fusion_lat": 0.0, "is_reserved": 0, "rental_uris": {"ios": "https://dc.lft.to/lastmile_qr_scan", "android": "https://dc.lft.to/lastmile_qr_scan"}, "fusion_lon": 0.0, "type": "electric_scooter", "bike_id": "d33859e16588c05eca97cea8f0814ed3", "name": "d33859e16588c05eca97cea8f0814ed3"}, {"lon": -77.05052116666667, "is_disabled": 0, "lat": 38.92425183333334, "fusion_lat": 0.0, "is_reserved": 0, "rental_uris": {"ios": "https://dc.lft.to/lastmile_qr_scan", "android": "https://dc.lft.to/lastmile_qr_scan"}, "fusion_lon": 0.0, "type": "electric_bike", "bike_id": "5dc700b08fd030b50522fc53ea595a03", "name": "5dc700b08fd030b50522fc53ea595a03"}, {"lon": -77.03360516666666, "is_disabled": 0, "lat": 38.920501333333334, "fusion_lat": 0.0, "is_reserved": 0, "rental_uris": {"ios": "https://dc.lft.to/lastmile_qr_scan", "android": "https://dc.lft.to/lastmile_qr_scan"}, "fusion_lon": 0.0, "type": "electric_scooter", "bike_id": "952836f96a9bcda72fe94a9c883ed09f", "name": "952836f96a9bcda72fe94a9c883ed09f"}, {"lon": -76.92659483333334, "is_disabled": 0, "lat": 38.90175716666667, "fusion_lat": 0.0, "is_reserved": 0, "rental_uris": {"ios": "https://dc.lft.to/lastmile_qr_scan", "android": "https://dc.lft.to/lastmile_qr_scan"}, "fusion_lon": 0.0, "type": "electric_scooter", "bike_id": "61d1fa40a79f9f830ed09c446a492463", "name": "61d1fa40a79f9f830ed09c446a492463"}, {"lon": -77.01976033333334, "is_disabled": 0, "lat": 38.915304166666665, "fusion_lat": 0.0, "is_reserved": 0, "rental_uris": {"ios": "https://dc.lft.to/lastmile_qr_scan", "android": "https://dc.lft.to/lastmile_qr_scan"}, "fusion_lon": 0.0, "type": "electric_scooter", "bike_id": "272e8827d9cd6681c86663512cacab97", "name": "272e8827d9cd6681c86663512cacab97"}, {"lon": -77.05084866666667, "is_disabled": 0, "lat": 38.923381666666664, "fusion_lat": 0.0, "is_reserved": 0, "rental_uris": {"ios": "https://dc.lft.to/lastmile_qr_scan", "android": "https://dc.lft.to/lastmile_qr_scan"}, "fusion_lon": 0.0, "type": "electric_scooter", "bike_id": "b478b86c575de4f5ffe0e3e768e2323f", "name": "b478b86c575de4f5ffe0e3e768e2323f"}, {"lon": -77.00103333333334, "is_disabled": 0, "lat": 38.90757116666666, "fusion_lat": 0.0, "is_reserved": 0, "rental_uris": {"ios": "https://dc.lft.to/lastmile_qr_scan", "android": "https://dc.lft.to/lastmile_qr_scan"}, "fusion_lon": 0.0, "type": "electric_scooter", "bike_id": "97323253ada606b53f64c473fa780a41", "name": "97323253ada606b53f64c473fa780a41"}, {"lon": -77.02378533333334, "is_disabled": 0, "lat": 38.90211583333333, "fusion_lat": 0.0, "is_reserved": 0, "rental_uris": {"ios": "https://dc.lft.to/lastmile_qr_scan", "android": "https://dc.lft.to/lastmile_qr_scan"}, "fusion_lon": 0.0, "type": "electric_scooter", "bike_id": "f99b67e375ee96bebc3cb4a7160d2a0f", "name": "f99b67e375ee96bebc3cb4a7160d2a0f"}, {"lon": -77.021239, "is_disabled": 0, "lat": 38.93002116666667, "fusion_lat": 0.0, "is_reserved": 0, "rental_uris": {"ios": "https://dc.lft.to/lastmile_qr_scan", "android": "https://dc.lft.to/lastmile_qr_scan"}, "fusion_lon": 0.0, "type": "electric_scooter", "bike_id": "2abe04ac849fcc46f2e2283ceb5a9650", "name": "2abe04ac849fcc46f2e2283ceb5a9650"}, {"lon": -77.03768966666667, "is_disabled": 0, "lat": 38.915638666666666, "fusion_lat": 0.0, "is_reserved": 0, "rental_uris": {"ios": "https://dc.lft.to/lastmile_qr_scan", "android": "https://dc.lft.to/lastmile_qr_scan"}, "fusion_lon": 0.0, "type": "electric_scooter", "bike_id": "f7aad0d23838571d6287573614695909", "name": "f7aad0d23838571d6287573614695909"}, {"lon": -77.04730183333334, "is_disabled": 0, "lat": 38.91331666666667, "fusion_lat": 0.0, "is_reserved": 0, "rental_uris": {"ios": "https://dc.lft.to/lastmile_qr_scan", "android": "https://dc.lft.to/lastmile_qr_scan"}, "fusion_lon": 0.0, "type": "electric_scooter", "bike_id": "4b742f3d0e8acc09e567fb3651e6980d", "name": "4b742f3d0e8acc09e567fb3651e6980d"}, {"lon": -77.02946783333333, "is_disabled": 0, "lat": 38.90232833333334, "fusion_lat": 0.0, "is_reserved": 0, "rental_uris": {"ios": "https://dc.lft.to/lastmile_qr_scan", "android": "https://dc.lft.to/lastmile_qr_scan"}, "fusion_lon": 0.0, "type": "electric_scooter", "bike_id": "5a9c3c350c30d5d76607934b83b51beb", "name": "5a9c3c350c30d5d76607934b83b51beb"}, {"lon": -77.000379, "is_disabled": 0, "lat": 38.87381883333333, "fusion_lat": 0.0, "is_reserved": 0, "rental_uris": {"ios": "https://dc.lft.to/lastmile_qr_scan", "android": "https://dc.lft.to/lastmile_qr_scan"}, "fusion_lon": 0.0, "type": "electric_scooter", "bike_id": "23c7d4c8e8a840e02a79db341fd88a9a", "name": "23c7d4c8e8a840e02a79db341fd88a9a"}, {"lon": -77.0383575, "is_disabled": 0, "lat": 38.921686, "fusion_lat": 0.0, "is_reserved": 0, "rental_uris": {"ios": "https://dc.lft.to/lastmile_qr_scan", "android": "https://dc.lft.to/lastmile_qr_scan"}, "fusion_lon": 0.0, "type": "electric_scooter", "bike_id": "a958b1a6f87d5095406b71dd94bc5e62", "name": "a958b1a6f87d5095406b71dd94bc5e62"}, {"lon": -77.027109, "is_disabled": 0, "lat": 38.9066735, "fusion_lat": 0.0, "is_reserved": 0, "rental_uris": {"ios": "https://dc.lft.to/lastmile_qr_scan", "android": "https://dc.lft.to/lastmile_qr_scan"}, "fusion_lon": 0.0, "type": "electric_scooter", "bike_id": "496ed655a1f6dd57ddda508d2db307a0", "name": "496ed655a1f6dd57ddda508d2db307a0"}, {"lon": -77.033404, "is_disabled": 0, "lat": 38.92357916666667, "fusion_lat": 0.0, "is_reserved": 0, "rental_uris": {"ios": "https://dc.lft.to/lastmile_qr_scan", "android": "https://dc.lft.to/lastmile_qr_scan"}, "fusion_lon": 0.0, "type": "electric_scooter", "bike_id": "cc25ff2e23dabee7da52fc55971afd2b", "name": "cc25ff2e23dabee7da52fc55971afd2b"}, {"lon": -77.01111316666666, "is_disabled": 0, "lat": 38.90795683333333, "fusion_lat": 0.0, "is_reserved": 0, "rental_uris": {"ios": "https://dc.lft.to/lastmile_qr_scan", "android": "https://dc.lft.to/lastmile_qr_scan"}, "fusion_lon": 0.0, "type": "electric_scooter", "bike_id": "4dc0b5392a12b4567ba09ae4abdc1b37", "name": "4dc0b5392a12b4567ba09ae4abdc1b37"}, {"lon": -76.95587566666667, "is_disabled": 0, "lat": 38.8876575, "fusion_lat": 0.0, "is_reserved": 0, "rental_uris": {"ios": "https://dc.lft.to/lastmile_qr_scan", "android": "https://dc.lft.to/lastmile_qr_scan"}, "fusion_lon": 0.0, "type": "electric_scooter", "bike_id": "c0038d2db789da2cf3e439143946ba27", "name": "c0038d2db789da2cf3e439143946ba27"}, {"lon": -77.02525183333333, "is_disabled": 0, "lat": 38.99697, "fusion_lat": 0.0, "is_reserved": 0, "rental_uris": {"ios": "https://dc.lft.to/lastmile_qr_scan", "android": "https://dc.lft.to/lastmile_qr_scan"}, "fusion_lon": 0.0, "type": "electric_bike", "bike_id": "2452da0b0c351f2259e8e01b71a0d768", "name": "2452da0b0c351f2259e8e01b71a0d768"}, {"lon": -77.027647, "is_disabled": 0, "lat": 38.897502333333335, "fusion_lat": 0.0, "is_reserved": 0, "rental_uris": {"ios": "https://dc.lft.to/lastmile_qr_scan", "android": "https://dc.lft.to/lastmile_qr_scan"}, "fusion_lon": 0.0, "type": "electric_scooter", "bike_id": "b0186fb8e346f0aa10f10c0919725349", "name": "b0186fb8e346f0aa10f10c0919725349"}, {"lon": -77.00010533333334, "is_disabled": 0, "lat": 38.907828333333335, "fusion_lat": 0.0, "is_reserved": 0, "rental_uris": {"ios": "https://dc.lft.to/lastmile_qr_scan", "android": "https://dc.lft.to/lastmile_qr_scan"}, "fusion_lon": 0.0, "type": "electric_scooter", "bike_id": "d1f6ad8097829456c4ef55c478f6d38a", "name": "d1f6ad8097829456c4ef55c478f6d38a"}, {"lon": -77.08934333333333, "is_disabled": 0, "lat": 38.887800166666665, "fusion_lat": 0.0, "is_reserved": 0, "rental_uris": {"ios": "https://dc.lft.to/lastmile_qr_scan", "android": "https://dc.lft.to/lastmile_qr_scan"}, "fusion_lon": 0.0, "type": "electric_bike", "bike_id": "9aa3c6d7456d61f4aa0b25524e08dbde", "name": "9aa3c6d7456d61f4aa0b25524e08dbde"}, {"lon": -77.07075433333333, "is_disabled": 0, "lat": 38.89642333333333, "fusion_lat": 0.0, "is_reserved": 0, "rental_uris": {"ios": "https://dc.lft.to/lastmile_qr_scan", "android": "https://dc.lft.to/lastmile_qr_scan"}, "fusion_lon": 0.0, "type": "electric_scooter", "bike_id": "0dc8907772a2e17669029aca6acc711f", "name": "0dc8907772a2e17669029aca6acc711f"}, {"lon": -77.02276783333333, "is_disabled": 0, "lat": 38.926684, "fusion_lat": 0.0, "is_reserved": 0, "rental_uris": {"ios": "https://dc.lft.to/lastmile_qr_scan", "android": "https://dc.lft.to/lastmile_qr_scan"}, "fusion_lon": 0.0, "type": "electric_scooter", "bike_id": "6299a0f456168b552e42a7e6db12d3bb", "name": "6299a0f456168b552e42a7e6db12d3bb"}, {"lon": -77.03926333333334, "is_disabled": 0, "lat": 38.92876066666667, "fusion_lat": 0.0, "is_reserved": 0, "rental_uris": {"ios": "https://dc.lft.to/lastmile_qr_scan", "android": "https://dc.lft.to/lastmile_qr_scan"}, "fusion_lon": 0.0, "type": "electric_scooter", "bike_id": "0e306ceb67e5347e3d3b720818a72b5c", "name": "0e306ceb67e5347e3d3b720818a72b5c"}, {"lon": -77.03130416666667, "is_disabled": 0, "lat": 38.923802, "fusion_lat": 0.0, "is_reserved": 0, "rental_uris": {"ios": "https://dc.lft.to/lastmile_qr_scan", "android": "https://dc.lft.to/lastmile_qr_scan"}, "fusion_lon": 0.0, "type": "electric_scooter", "bike_id": "e1119e790d6e1d0c8de1080c0e5740de", "name": "e1119e790d6e1d0c8de1080c0e5740de"}, {"lon": -77.03289933333333, "is_disabled": 0, "lat": 38.9198305, "fusion_lat": 0.0, "is_reserved": 0, "rental_uris": {"ios": "https://dc.lft.to/lastmile_qr_scan", "android": "https://dc.lft.to/lastmile_qr_scan"}, "fusion_lon": 0.0, "type": "electric_scooter", "bike_id": "592ebac8c43ae2afdfa2aba7e38e7583", "name": "592ebac8c43ae2afdfa2aba7e38e7583"}, {"lon": -77.005811, "is_disabled": 0, "lat": 38.875747, "fusion_lat": 0.0, "is_reserved": 0, "rental_uris": {"ios": "https://dc.lft.to/lastmile_qr_scan", "android": "https://dc.lft.to/lastmile_qr_scan"}, "fusion_lon": 0.0, "type": "electric_scooter", "bike_id": "621897de96dc98c82d3029d7028051fd", "name": "621897de96dc98c82d3029d7028051fd"}, {"lon": -76.9871415, "is_disabled": 0, "lat": 38.86630616666667, "fusion_lat": 0.0, "is_reserved": 0, "rental_uris": {"ios": "https://dc.lft.to/lastmile_qr_scan", "android": "https://dc.lft.to/lastmile_qr_scan"}, "fusion_lon": 0.0, "type": "electric_scooter", "bike_id": "8d5b8f7a3e0cbeedd84765b2620a72ca", "name": "8d5b8f7a3e0cbeedd84765b2620a72ca"}, {"lon": -77.04052166666666, "is_disabled": 0, "lat": 38.928875, "fusion_lat": 0.0, "is_reserved": 0, "rental_uris": {"ios": "https://dc.lft.to/lastmile_qr_scan", "android": "https://dc.lft.to/lastmile_qr_scan"}, "fusion_lon": 0.0, "type": "electric_scooter", "bike_id": "f04107e1646ca0e3e88fa12d3b3e5794", "name": "f04107e1646ca0e3e88fa12d3b3e5794"}, {"lon": -77.02746216666667, "is_disabled": 0, "lat": 38.90964483333333, "fusion_lat": 0.0, "is_reserved": 0, "rental_uris": {"ios": "https://dc.lft.to/lastmile_qr_scan", "android": "https://dc.lft.to/lastmile_qr_scan"}, "fusion_lon": 0.0, "type": "electric_scooter", "bike_id": "6a9f1448947df0082bec68ef7b06f2a9", "name": "6a9f1448947df0082bec68ef7b06f2a9"}, {"lon": -77.03830433333333, "is_disabled": 0, "lat": 38.907763833333334, "fusion_lat": 0.0, "is_reserved": 0, "rental_uris": {"ios": "https://dc.lft.to/lastmile_qr_scan", "android": "https://dc.lft.to/lastmile_qr_scan"}, "fusion_lon": 0.0, "type": "electric_scooter", "bike_id": "e9f81efbb7e7567d5bbee61d1631460f", "name": "e9f81efbb7e7567d5bbee61d1631460f"}, {"lon": -77.00050616666667, "is_disabled": 0, "lat": 38.908378166666665, "fusion_lat": 0.0, "is_reserved": 0, "rental_uris": {"ios": "https://dc.lft.to/lastmile_qr_scan", "android": "https://dc.lft.to/lastmile_qr_scan"}, "fusion_lon": 0.0, "type": "electric_scooter", "bike_id": "e6a4e60f6ede71d55071440ab0e0b3a3", "name": "e6a4e60f6ede71d55071440ab0e0b3a3"}, {"lon": -77.04407083333334, "is_disabled": 0, "lat": 38.90952166666667, "fusion_lat": 0.0, "is_reserved": 0, "rental_uris": {"ios": "https://dc.lft.to/lastmile_qr_scan", "android": "https://dc.lft.to/lastmile_qr_scan"}, "fusion_lon": 0.0, "type": "electric_scooter", "bike_id": "a4d02669c3286071f657a7efaff65801", "name": "a4d02669c3286071f657a7efaff65801"}, {"lon": -77.00196166666667, "is_disabled": 0, "lat": 38.902342, "fusion_lat": 0.0, "is_reserved": 0, "rental_uris": {"ios": "https://dc.lft.to/lastmile_qr_scan", "android": "https://dc.lft.to/lastmile_qr_scan"}, "fusion_lon": 0.0, "type": "electric_scooter", "bike_id": "c48ab6ea36e6304982ef24fcc885bd2d", "name": "c48ab6ea36e6304982ef24fcc885bd2d"}, {"lon": -77.04771383333333, "is_disabled": 0, "lat": 38.91762633333333, "fusion_lat": 0.0, "is_reserved": 0, "rental_uris": {"ios": "https://dc.lft.to/lastmile_qr_scan", "android": "https://dc.lft.to/lastmile_qr_scan"}, "fusion_lon": 0.0, "type": "electric_scooter", "bike_id": "8fd81c03f8d704b683f1bf9b583b9bf0", "name": "8fd81c03f8d704b683f1bf9b583b9bf0"}, {"lon": -77.034269, "is_disabled": 0, "lat": 38.9079645, "fusion_lat": 0.0, "is_reserved": 0, "rental_uris": {"ios": "https://dc.lft.to/lastmile_qr_scan", "android": "https://dc.lft.to/lastmile_qr_scan"}, "fusion_lon": 0.0, "type": "electric_scooter", "bike_id": "bd03e347d60c049122947f85ad7f1ac4", "name": "bd03e347d60c049122947f85ad7f1ac4"}, {"lon": -77.03183116666666, "is_disabled": 0, "lat": 38.90893583333333, "fusion_lat": 0.0, "is_reserved": 0, "rental_uris": {"ios": "https://dc.lft.to/lastmile_qr_scan", "android": "https://dc.lft.to/lastmile_qr_scan"}, "fusion_lon": 0.0, "type": "electric_scooter", "bike_id": "04346511f153fe186de8af216444709c", "name": "04346511f153fe186de8af216444709c"}, {"lon": -77.03827533333333, "is_disabled": 0, "lat": 38.90776683333333, "fusion_lat": 0.0, "is_reserved": 0, "rental_uris": {"ios": "https://dc.lft.to/lastmile_qr_scan", "android": "https://dc.lft.to/lastmile_qr_scan"}, "fusion_lon": 0.0, "type": "electric_scooter", "bike_id": "bff93140cd144cb091db1902bff39c6c", "name": "bff93140cd144cb091db1902bff39c6c"}, {"lon": -77.01092833333334, "is_disabled": 0, "lat": 38.872973333333334, "fusion_lat": 0.0, "is_reserved": 0, "rental_uris": {"ios": "https://dc.lft.to/lastmile_qr_scan", "android": "https://dc.lft.to/lastmile_qr_scan"}, "fusion_lon": 0.0, "type": "electric_bike", "bike_id": "d63b98c968ba3fb19487e3b7a49182b6", "name": "d63b98c968ba3fb19487e3b7a49182b6"}, {"lon": -76.99869666666666, "is_disabled": 0, "lat": 38.844344166666666, "fusion_lat": 0.0, "is_reserved": 0, "rental_uris": {"ios": "https://dc.lft.to/lastmile_qr_scan", "android": "https://dc.lft.to/lastmile_qr_scan"}, "fusion_lon": 0.0, "type": "electric_scooter", "bike_id": "15a3cbe4695f1e22b0aaaeaaf0baa077", "name": "15a3cbe4695f1e22b0aaaeaaf0baa077"}, {"lon": -77.03179216666666, "is_disabled": 0, "lat": 38.91324766666666, "fusion_lat": 0.0, "is_reserved": 0, "rental_uris": {"ios": "https://dc.lft.to/lastmile_qr_scan", "android": "https://dc.lft.to/lastmile_qr_scan"}, "fusion_lon": 0.0, "type": "electric_scooter", "bike_id": "d9db4322198608c5d0edb100ee154c4e", "name": "d9db4322198608c5d0edb100ee154c4e"}, {"lon": -77.0019995, "is_disabled": 0, "lat": 38.9650355, "fusion_lat": 0.0, "is_reserved": 0, "rental_uris": {"ios": "https://dc.lft.to/lastmile_qr_scan", "android": "https://dc.lft.to/lastmile_qr_scan"}, "fusion_lon": 0.0, "type": "electric_scooter", "bike_id": "54ac0e3eb8f7994f8f1512327d884eb8", "name": "54ac0e3eb8f7994f8f1512327d884eb8"}, {"lon": -77.01962933333333, "is_disabled": 0, "lat": 38.8768125, "fusion_lat": 0.0, "is_reserved": 0, "rental_uris": {"ios": "https://dc.lft.to/lastmile_qr_scan", "android": "https://dc.lft.to/lastmile_qr_scan"}, "fusion_lon": 0.0, "type": "electric_scooter", "bike_id": "9184182e40642a6dca97393be298d3a0", "name": "9184182e40642a6dca97393be298d3a0"}, {"lon": -77.03252766666667, "is_disabled": 0, "lat": 38.92164966666667, "fusion_lat": 0.0, "is_reserved": 0, "rental_uris": {"ios": "https://dc.lft.to/lastmile_qr_scan", "android": "https://dc.lft.to/lastmile_qr_scan"}, "fusion_lon": 0.0, "type": "electric_scooter", "bike_id": "68c8ac4c5026ec15236db0ca08108160", "name": "68c8ac4c5026ec15236db0ca08108160"}, {"lon": -77.02977633333333, "is_disabled": 0, "lat": 38.98696566666667, "fusion_lat": 0.0, "is_reserved": 0, "rental_uris": {"ios": "https://dc.lft.to/lastmile_qr_scan", "android": "https://dc.lft.to/lastmile_qr_scan"}, "fusion_lon": 0.0, "type": "electric_scooter", "bike_id": "1c5f31c16db282721bfafbefec14c102", "name": "1c5f31c16db282721bfafbefec14c102"}, {"lon": -76.98083533333333, "is_disabled": 0, "lat": 38.926309, "fusion_lat": 0.0, "is_reserved": 0, "rental_uris": {"ios": "https://dc.lft.to/lastmile_qr_scan", "android": "https://dc.lft.to/lastmile_qr_scan"}, "fusion_lon": 0.0, "type": "electric_scooter", "bike_id": "11bc3b66031334ea365addf287905881", "name": "11bc3b66031334ea365addf287905881"}, {"lon": -77.0011675, "is_disabled": 0, "lat": 38.873626, "fusion_lat": 0.0, "is_reserved": 0, "rental_uris": {"ios": "https://dc.lft.to/lastmile_qr_scan", "android": "https://dc.lft.to/lastmile_qr_scan"}, "fusion_lon": 0.0, "type": "electric_scooter", "bike_id": "8f3d94b84c432ac12322d3dc50ead6c3", "name": "8f3d94b84c432ac12322d3dc50ead6c3"}, {"lon": -77.036381, "is_disabled": 0, "lat": 38.91873416666667, "fusion_lat": 0.0, "is_reserved": 0, "rental_uris": {"ios": "https://dc.lft.to/lastmile_qr_scan", "android": "https://dc.lft.to/lastmile_qr_scan"}, "fusion_lon": 0.0, "type": "electric_scooter", "bike_id": "a8bc8afffca7563a304cef6d2fc3fa67", "name": "a8bc8afffca7563a304cef6d2fc3fa67"}, {"lon": -77.03254916666667, "is_disabled": 0, "lat": 38.92799816666667, "fusion_lat": 0.0, "is_reserved": 0, "rental_uris": {"ios": "https://dc.lft.to/lastmile_qr_scan", "android": "https://dc.lft.to/lastmile_qr_scan"}, "fusion_lon": 0.0, "type": "electric_scooter", "bike_id": "2b157bba2585de25dce58ea2eb77dcef", "name": "2b157bba2585de25dce58ea2eb77dcef"}, {"lon": -77.012227, "is_disabled": 0, "lat": 38.9240375, "fusion_lat": 0.0, "is_reserved": 0, "rental_uris": {"ios": "https://dc.lft.to/lastmile_qr_scan", "android": "https://dc.lft.to/lastmile_qr_scan"}, "fusion_lon": 0.0, "type": "electric_scooter", "bike_id": "c91c8f510d66c2adcb5f1cad354a056f", "name": "c91c8f510d66c2adcb5f1cad354a056f"}, {"lon": -77.033292, "is_disabled": 0, "lat": 38.92166683333333, "fusion_lat": 0.0, "is_reserved": 0, "rental_uris": {"ios": "https://dc.lft.to/lastmile_qr_scan", "android": "https://dc.lft.to/lastmile_qr_scan"}, "fusion_lon": 0.0, "type": "electric_scooter", "bike_id": "9c5fb19bc4fd52e8f0e4bb94fad4a8ce", "name": "9c5fb19bc4fd52e8f0e4bb94fad4a8ce"}, {"lon": -77.02079516666667, "is_disabled": 0, "lat": 38.92711383333334, "fusion_lat": 0.0, "is_reserved": 0, "rental_uris": {"ios": "https://dc.lft.to/lastmile_qr_scan", "android": "https://dc.lft.to/lastmile_qr_scan"}, "fusion_lon": 0.0, "type": "electric_scooter", "bike_id": "24264ecf92f0c254f96a79a169b48dd5", "name": "24264ecf92f0c254f96a79a169b48dd5"}, {"lon": -77.03516816666667, "is_disabled": 0, "lat": 38.9224195, "fusion_lat": 0.0, "is_reserved": 0, "rental_uris": {"ios": "https://dc.lft.to/lastmile_qr_scan", "android": "https://dc.lft.to/lastmile_qr_scan"}, "fusion_lon": 0.0, "type": "electric_scooter", "bike_id": "6526d746d887179f8995d94e3b99fcb8", "name": "6526d746d887179f8995d94e3b99fcb8"}, {"lon": -77.0342875, "is_disabled": 0, "lat": 38.9059065, "fusion_lat": 0.0, "is_reserved": 0, "rental_uris": {"ios": "https://dc.lft.to/lastmile_qr_scan", "android": "https://dc.lft.to/lastmile_qr_scan"}, "fusion_lon": 0.0, "type": "electric_scooter", "bike_id": "ca5dd0f708f196206d131e0a9a647c4b", "name": "ca5dd0f708f196206d131e0a9a647c4b"}, {"lon": -77.0220995, "is_disabled": 0, "lat": 38.91573133333333, "fusion_lat": 0.0, "is_reserved": 0, "rental_uris": {"ios": "https://dc.lft.to/lastmile_qr_scan", "android": "https://dc.lft.to/lastmile_qr_scan"}, "fusion_lon": 0.0, "type": "electric_scooter", "bike_id": "9252fa31cefceed4559f461161287745", "name": "9252fa31cefceed4559f461161287745"}, {"lon": -77.041683, "is_disabled": 0, "lat": 38.91127216666667, "fusion_lat": 0.0, "is_reserved": 0, "rental_uris": {"ios": "https://dc.lft.to/lastmile_qr_scan", "android": "https://dc.lft.to/lastmile_qr_scan"}, "fusion_lon": 0.0, "type": "electric_scooter", "bike_id": "305ec4d75291489898fed4253caffdfa", "name": "305ec4d75291489898fed4253caffdfa"}, {"lon": -76.97868483333333, "is_disabled": 0, "lat": 38.867452166666666, "fusion_lat": 0.0, "is_reserved": 0, "rental_uris": {"ios": "https://dc.lft.to/lastmile_qr_scan", "android": "https://dc.lft.to/lastmile_qr_scan"}, "fusion_lon": 0.0, "type": "electric_scooter", "bike_id": "ab69fbdcc571f2d10a704fce4f78a54f", "name": "ab69fbdcc571f2d10a704fce4f78a54f"}, {"lon": -77.03943366666667, "is_disabled": 0, "lat": 38.91411766666667, "fusion_lat": 0.0, "is_reserved": 0, "rental_uris": {"ios": "https://dc.lft.to/lastmile_qr_scan", "android": "https://dc.lft.to/lastmile_qr_scan"}, "fusion_lon": 0.0, "type": "electric_scooter", "bike_id": "1ed4d9b7e1f9d5c7ebbd4436f70c1108", "name": "1ed4d9b7e1f9d5c7ebbd4436f70c1108"}, {"lon": -76.989636, "is_disabled": 0, "lat": 38.858819833333335, "fusion_lat": 0.0, "is_reserved": 0, "rental_uris": {"ios": "https://dc.lft.to/lastmile_qr_scan", "android": "https://dc.lft.to/lastmile_qr_scan"}, "fusion_lon": 0.0, "type": "electric_scooter", "bike_id": "b9288f1c5a168b5c3427a6676a34f642", "name": "b9288f1c5a168b5c3427a6676a34f642"}, {"lon": -77.03101, "is_disabled": 0, "lat": 38.883228833333334, "fusion_lat": 0.0, "is_reserved": 0, "rental_uris": {"ios": "https://dc.lft.to/lastmile_qr_scan", "android": "https://dc.lft.to/lastmile_qr_scan"}, "fusion_lon": 0.0, "type": "electric_scooter", "bike_id": "d9b3597bfefb917c8a61a6ac8913d4b6", "name": "d9b3597bfefb917c8a61a6ac8913d4b6"}, {"lon": -76.9290535, "is_disabled": 0, "lat": 38.89849066666667, "fusion_lat": 0.0, "is_reserved": 0, "rental_uris": {"ios": "https://dc.lft.to/lastmile_qr_scan", "android": "https://dc.lft.to/lastmile_qr_scan"}, "fusion_lon": 0.0, "type": "electric_scooter", "bike_id": "7dd31b5c7781fccb6f54e8ad45dfc780", "name": "7dd31b5c7781fccb6f54e8ad45dfc780"}, {"lon": -77.01051383333333, "is_disabled": 0, "lat": 38.87768066666667, "fusion_lat": 0.0, "is_reserved": 0, "rental_uris": {"ios": "https://dc.lft.to/lastmile_qr_scan", "android": "https://dc.lft.to/lastmile_qr_scan"}, "fusion_lon": 0.0, "type": "electric_bike", "bike_id": "a88ebb1376893d4033139f8c348ae0c0", "name": "a88ebb1376893d4033139f8c348ae0c0"}, {"lon": -77.04831083333333, "is_disabled": 0, "lat": 38.89837516666667, "fusion_lat": 0.0, "is_reserved": 0, "rental_uris": {"ios": "https://dc.lft.to/lastmile_qr_scan", "android": "https://dc.lft.to/lastmile_qr_scan"}, "fusion_lon": 0.0, "type": "electric_scooter", "bike_id": "3be5cf67afca693185036b9cb884fcd5", "name": "3be5cf67afca693185036b9cb884fcd5"}, {"lon": -77.04306383333333, "is_disabled": 0, "lat": 38.9318705, "fusion_lat": 0.0, "is_reserved": 0, "rental_uris": {"ios": "https://dc.lft.to/lastmile_qr_scan", "android": "https://dc.lft.to/lastmile_qr_scan"}, "fusion_lon": 0.0, "type": "electric_scooter", "bike_id": "26baca927e24f182573cd06fa9b3e57c", "name": "26baca927e24f182573cd06fa9b3e57c"}, {"lon": -77.0022585, "is_disabled": 0, "lat": 38.92510766666667, "fusion_lat": 0.0, "is_reserved": 0, "rental_uris": {"ios": "https://dc.lft.to/lastmile_qr_scan", "android": "https://dc.lft.to/lastmile_qr_scan"}, "fusion_lon": 0.0, "type": "electric_scooter", "bike_id": "436f5c228c5489b10823e5292b89299d", "name": "436f5c228c5489b10823e5292b89299d"}, {"lon": -77.02981533333333, "is_disabled": 0, "lat": 38.91993816666667, "fusion_lat": 0.0, "is_reserved": 0, "rental_uris": {"ios": "https://dc.lft.to/lastmile_qr_scan", "android": "https://dc.lft.to/lastmile_qr_scan"}, "fusion_lon": 0.0, "type": "electric_scooter", "bike_id": "731ea100f66ffd8750b62f1097a4716a", "name": "731ea100f66ffd8750b62f1097a4716a"}, {"lon": -77.049307, "is_disabled": 0, "lat": 38.918263, "fusion_lat": 0.0, "is_reserved": 0, "rental_uris": {"ios": "https://dc.lft.to/lastmile_qr_scan", "android": "https://dc.lft.to/lastmile_qr_scan"}, "fusion_lon": 0.0, "type": "electric_scooter", "bike_id": "b98caac209540b2bf9f49bdc70291b48", "name": "b98caac209540b2bf9f49bdc70291b48"}, {"lon": -77.028012, "is_disabled": 0, "lat": 38.911373, "fusion_lat": 0.0, "is_reserved": 0, "rental_uris": {"ios": "https://dc.lft.to/lastmile_qr_scan", "android": "https://dc.lft.to/lastmile_qr_scan"}, "fusion_lon": 0.0, "type": "electric_scooter", "bike_id": "3d22810444d4e09e1fe38327e95e472d", "name": "3d22810444d4e09e1fe38327e95e472d"}, {"lon": -77.05265916666667, "is_disabled": 0, "lat": 38.92774566666667, "fusion_lat": 0.0, "is_reserved": 0, "rental_uris": {"ios": "https://dc.lft.to/lastmile_qr_scan", "android": "https://dc.lft.to/lastmile_qr_scan"}, "fusion_lon": 0.0, "type": "electric_scooter", "bike_id": "944e709463e21c71c1168b188eb7fbaf", "name": "944e709463e21c71c1168b188eb7fbaf"}, {"lon": -77.03225616666667, "is_disabled": 0, "lat": 38.90868183333333, "fusion_lat": 0.0, "is_reserved": 0, "rental_uris": {"ios": "https://dc.lft.to/lastmile_qr_scan", "android": "https://dc.lft.to/lastmile_qr_scan"}, "fusion_lon": 0.0, "type": "electric_scooter", "bike_id": "a7ef9c8152978643a45b701fc56bce9b", "name": "a7ef9c8152978643a45b701fc56bce9b"}, {"lon": -77.02059316666667, "is_disabled": 0, "lat": 38.92849433333333, "fusion_lat": 0.0, "is_reserved": 0, "rental_uris": {"ios": "https://dc.lft.to/lastmile_qr_scan", "android": "https://dc.lft.to/lastmile_qr_scan"}, "fusion_lon": 0.0, "type": "electric_bike", "bike_id": "45f558de37ee48323d4bd4c25fc2386b", "name": "45f558de37ee48323d4bd4c25fc2386b"}, {"lon": -77.0387395, "is_disabled": 0, "lat": 38.92152, "fusion_lat": 0.0, "is_reserved": 0, "rental_uris": {"ios": "https://dc.lft.to/lastmile_qr_scan", "android": "https://dc.lft.to/lastmile_qr_scan"}, "fusion_lon": 0.0, "type": "electric_scooter", "bike_id": "f7e09ad97d33deba20fbeee58fa4e3e6", "name": "f7e09ad97d33deba20fbeee58fa4e3e6"}, {"lon": -77.03866883333333, "is_disabled": 0, "lat": 38.92154166666667, "fusion_lat": 0.0, "is_reserved": 0, "rental_uris": {"ios": "https://dc.lft.to/lastmile_qr_scan", "android": "https://dc.lft.to/lastmile_qr_scan"}, "fusion_lon": 0.0, "type": "electric_scooter", "bike_id": "5f0f0c5f012bf5b98c694d4dc5407c06", "name": "5f0f0c5f012bf5b98c694d4dc5407c06"}, {"lon": -77.05336583333333, "is_disabled": 0, "lat": 39.040828166666664, "fusion_lat": 0.0, "is_reserved": 0, "rental_uris": {"ios": "https://dc.lft.to/lastmile_qr_scan", "android": "https://dc.lft.to/lastmile_qr_scan"}, "fusion_lon": 0.0, "type": "electric_bike", "bike_id": "5a4c2b3e09bce9634b04b0afd7b492d8", "name": "5a4c2b3e09bce9634b04b0afd7b492d8"}, {"lon": -77.02454416666667, "is_disabled": 0, "lat": 38.9385475, "fusion_lat": 0.0, "is_reserved": 0, "rental_uris": {"ios": "https://dc.lft.to/lastmile_qr_scan", "android": "https://dc.lft.to/lastmile_qr_scan"}, "fusion_lon": 0.0, "type": "electric_scooter", "bike_id": "896b959cc284207a0375fda1b6748c00", "name": "896b959cc284207a0375fda1b6748c00"}, {"lon": -77.03287766666666, "is_disabled": 0, "lat": 38.93512533333333, "fusion_lat": 0.0, "is_reserved": 0, "rental_uris": {"ios": "https://dc.lft.to/lastmile_qr_scan", "android": "https://dc.lft.to/lastmile_qr_scan"}, "fusion_lon": 0.0, "type": "electric_scooter", "bike_id": "53c3f070322ac0db8c935dd4f7229eda", "name": "53c3f070322ac0db8c935dd4f7229eda"}, {"lon": -77.05170633333333, "is_disabled": 0, "lat": 38.9055385, "fusion_lat": 0.0, "is_reserved": 0, "rental_uris": {"ios": "https://dc.lft.to/lastmile_qr_scan", "android": "https://dc.lft.to/lastmile_qr_scan"}, "fusion_lon": 0.0, "type": "electric_scooter", "bike_id": "da41571a0475f5ac2fca87a0153e7679", "name": "da41571a0475f5ac2fca87a0153e7679"}, {"lon": -77.00069033333334, "is_disabled": 0, "lat": 38.873856833333335, "fusion_lat": 0.0, "is_reserved": 0, "rental_uris": {"ios": "https://dc.lft.to/lastmile_qr_scan", "android": "https://dc.lft.to/lastmile_qr_scan"}, "fusion_lon": 0.0, "type": "electric_scooter", "bike_id": "f05b22fecffd2fe8c5fcf10ce2022a60", "name": "f05b22fecffd2fe8c5fcf10ce2022a60"}, {"lon": -77.02649483333333, "is_disabled": 0, "lat": 38.90263733333333, "fusion_lat": 0.0, "is_reserved": 0, "rental_uris": {"ios": "https://dc.lft.to/lastmile_qr_scan", "android": "https://dc.lft.to/lastmile_qr_scan"}, "fusion_lon": 0.0, "type": "electric_scooter", "bike_id": "b1beaa650ae60367c36dfa36876de606", "name": "b1beaa650ae60367c36dfa36876de606"}, {"lon": -77.01487383333334, "is_disabled": 0, "lat": 38.89224, "fusion_lat": 0.0, "is_reserved": 0, "rental_uris": {"ios": "https://dc.lft.to/lastmile_qr_scan", "android": "https://dc.lft.to/lastmile_qr_scan"}, "fusion_lon": 0.0, "type": "electric_scooter", "bike_id": "aa02552080e752aefdf4ab736bfed0dd", "name": "aa02552080e752aefdf4ab736bfed0dd"}, {"lon": -77.025085, "is_disabled": 0, "lat": 38.919255166666666, "fusion_lat": 0.0, "is_reserved": 0, "rental_uris": {"ios": "https://dc.lft.to/lastmile_qr_scan", "android": "https://dc.lft.to/lastmile_qr_scan"}, "fusion_lon": 0.0, "type": "electric_scooter", "bike_id": "22fd947792a71b96d62f931864e6b588", "name": "22fd947792a71b96d62f931864e6b588"}, {"lon": -77.0289105, "is_disabled": 0, "lat": 38.904447833333336, "fusion_lat": 0.0, "is_reserved": 0, "rental_uris": {"ios": "https://dc.lft.to/lastmile_qr_scan", "android": "https://dc.lft.to/lastmile_qr_scan"}, "fusion_lon": 0.0, "type": "electric_scooter", "bike_id": "387df22c0e651f0abc7816e4f4800490", "name": "387df22c0e651f0abc7816e4f4800490"}, {"lon": -76.9509445, "is_disabled": 0, "lat": 38.88448066666667, "fusion_lat": 0.0, "is_reserved": 0, "rental_uris": {"ios": "https://dc.lft.to/lastmile_qr_scan", "android": "https://dc.lft.to/lastmile_qr_scan"}, "fusion_lon": 0.0, "type": "electric_scooter", "bike_id": "4de7a1966618d8127a1f86bf05f17d2c", "name": "4de7a1966618d8127a1f86bf05f17d2c"}, {"lon": -77.04158233333334, "is_disabled": 0, "lat": 38.91770283333334, "fusion_lat": 0.0, "is_reserved": 0, "rental_uris": {"ios": "https://dc.lft.to/lastmile_qr_scan", "android": "https://dc.lft.to/lastmile_qr_scan"}, "fusion_lon": 0.0, "type": "electric_scooter", "bike_id": "e87b726c28e57e5461528a0f30307c6b", "name": "e87b726c28e57e5461528a0f30307c6b"}, {"lon": -77.04359733333334, "is_disabled": 0, "lat": 38.92135833333333, "fusion_lat": 0.0, "is_reserved": 0, "rental_uris": {"ios": "https://dc.lft.to/lastmile_qr_scan", "android": "https://dc.lft.to/lastmile_qr_scan"}, "fusion_lon": 0.0, "type": "electric_scooter", "bike_id": "d12526598ca431df35c3ab1e897beb6c", "name": "d12526598ca431df35c3ab1e897beb6c"}, {"lon": -77.03304533333333, "is_disabled": 0, "lat": 38.92884816666667, "fusion_lat": 0.0, "is_reserved": 0, "rental_uris": {"ios": "https://dc.lft.to/lastmile_qr_scan", "android": "https://dc.lft.to/lastmile_qr_scan"}, "fusion_lon": 0.0, "type": "electric_scooter", "bike_id": "52c0d3876d56b77c6fe9751649c6a060", "name": "52c0d3876d56b77c6fe9751649c6a060"}, {"lon": -77.04098766666667, "is_disabled": 0, "lat": 38.91777966666667, "fusion_lat": 0.0, "is_reserved": 0, "rental_uris": {"ios": "https://dc.lft.to/lastmile_qr_scan", "android": "https://dc.lft.to/lastmile_qr_scan"}, "fusion_lon": 0.0, "type": "electric_scooter", "bike_id": "0a278aba99adbb6f6acae3f3f0826d73", "name": "0a278aba99adbb6f6acae3f3f0826d73"}, {"lon": -77.02950016666666, "is_disabled": 0, "lat": 38.90503266666666, "fusion_lat": 0.0, "is_reserved": 0, "rental_uris": {"ios": "https://dc.lft.to/lastmile_qr_scan", "android": "https://dc.lft.to/lastmile_qr_scan"}, "fusion_lon": 0.0, "type": "electric_bike", "bike_id": "c9ba60fcab81a4f6c0e5fa08b5e50f48", "name": "c9ba60fcab81a4f6c0e5fa08b5e50f48"}, {"lon": -77.07350816666667, "is_disabled": 0, "lat": 38.922741, "fusion_lat": 0.0, "is_reserved": 0, "rental_uris": {"ios": "https://dc.lft.to/lastmile_qr_scan", "android": "https://dc.lft.to/lastmile_qr_scan"}, "fusion_lon": 0.0, "type": "electric_scooter", "bike_id": "a0cfd136f1044a1f9d9e7bf2f7490246", "name": "a0cfd136f1044a1f9d9e7bf2f7490246"}, {"lon": -77.01902116666666, "is_disabled": 0, "lat": 38.909278, "fusion_lat": 0.0, "is_reserved": 0, "rental_uris": {"ios": "https://dc.lft.to/lastmile_qr_scan", "android": "https://dc.lft.to/lastmile_qr_scan"}, "fusion_lon": 0.0, "type": "electric_scooter", "bike_id": "ee3450ffe8dccf9a6ac899e28f28f758", "name": "ee3450ffe8dccf9a6ac899e28f28f758"}, {"lon": -77.01984666666667, "is_disabled": 0, "lat": 38.9142395, "fusion_lat": 0.0, "is_reserved": 0, "rental_uris": {"ios": "https://dc.lft.to/lastmile_qr_scan", "android": "https://dc.lft.to/lastmile_qr_scan"}, "fusion_lon": 0.0, "type": "electric_scooter", "bike_id": "060499f6c73a1f10d80b725db2dc2bec", "name": "060499f6c73a1f10d80b725db2dc2bec"}, {"lon": -77.00193916666667, "is_disabled": 0, "lat": 38.9026775, "fusion_lat": 0.0, "is_reserved": 0, "rental_uris": {"ios": "https://dc.lft.to/lastmile_qr_scan", "android": "https://dc.lft.to/lastmile_qr_scan"}, "fusion_lon": 0.0, "type": "electric_scooter", "bike_id": "613ad3b1792bf9f477fb19f1e40b9646", "name": "613ad3b1792bf9f477fb19f1e40b9646"}, {"lon": -77.03835433333333, "is_disabled": 0, "lat": 38.91221866666667, "fusion_lat": 0.0, "is_reserved": 0, "rental_uris": {"ios": "https://dc.lft.to/lastmile_qr_scan", "android": "https://dc.lft.to/lastmile_qr_scan"}, "fusion_lon": 0.0, "type": "electric_scooter", "bike_id": "ed02b2b296aebf1fa38506b21be89be2", "name": "ed02b2b296aebf1fa38506b21be89be2"},