{"data": {"bikes": [{"type": "electric_scooter", "name": "edde5d4617e5072d30a60ac3d13ba86f", "is_reserved": 0, "fusion_lat": 0.0, "lon": -77.05742483333333, "is_disabled": 0, "rental_uris": {"android": "https://dc.lft.to/lastmile_qr_scan", "ios": "https://dc.lft.to/lastmile_qr_scan"}, "bike_id": "edde5d4617e5072d30a60ac3d13ba86f", "fusion_lon": 0.0, "lat": 38.93391283333333}, {"type": "electric_bike", "name": "0c3dda3fec3ae25524e1fa1f158eca61", "is_reserved": 0, "fusion_lat": 0.0, "lon": -77.06169483333333, "is_disabled": 0, "rental_uris": {"android": "https://dc.lft.to/lastmile_qr_scan", "ios": "https://dc.lft.to/lastmile_qr_scan"}, "bike_id": "0c3dda3fec3ae25524e1fa1f158eca61", "fusion_lon": 0.0, "lat": 38.9053}, {"type": "electric_scooter", "name": "f0fe1e702d508a8937be746dd1e2ccbb", "is_reserved": 0, "fusion_lat": 0.0, "lon": -76.948817, "is_disabled": 0, "rental_uris": {"android": "https://dc.lft.to/lastmile_qr_scan", "ios": "https://dc.lft.to/lastmile_qr_scan"}, "bike_id": "f0fe1e702d508a8937be746dd1e2ccbb", "fusion_lon": 0.0, "lat": 38.895546}, {"type": "electric_scooter", "name": "edde6a0c99ae54ab5f813c478e378252", "is_reserved": 0, "fusion_lat": 0.0, "lon": -76.996367, "is_disabled": 0, "rental_uris": {"android": "https://dc.lft.to/lastmile_qr_scan", "ios": "https://dc.lft.to/lastmile_qr_scan"}, "bike_id": "edde6a0c99ae54ab5f813c478e378252", "fusion_lon": 0.0, "lat": 38.9001775}, {"type": "electric_bike", "name": "81a0307f42cf4e8a9b067f34bc8afc98", "is_reserved": 0, "fusion_lat": 0.0, "lon": -76.99376233333334, "is_disabled": 0, "rental_uris": {"android": "https://dc.lft.to/lastmile_qr_scan", "ios": "https://dc.lft.to/lastmile_qr_scan"}, "bike_id": "81a0307f42cf4e8a9b067f34bc8afc98", "fusion_lon": 0.0, "lat": 38.9718635}, {"type": "electric_scooter", "name": "6fac9f3a9eb31ce27a94d4e7c3c26d2d", "is_reserved": 0, "fusion_lat": 0.0, "lon": -77.01863133333333, "is_disabled": 0, "rental_uris": {"android": "https://dc.lft.to/lastmile_qr_scan", "ios": "https://dc.lft.to/lastmile_qr_scan"}, "bike_id": "6fac9f3a9eb31ce27a94d4e7c3c26d2d", "fusion_lon": 0.0, "lat": 38.973695}, {"type": "electric_scooter", "name": "2d029664e2b5adf680b2c83438ea0a43", "is_reserved": 0, "fusion_lat": 0.0, "lon": -77.073217, "is_disabled": 0, "rental_uris": {"android": "https://dc.lft.to/lastmile_qr_scan", "ios": "https://dc.lft.to/lastmile_qr_scan"}, "bike_id": "2d029664e2b5adf680b2c83438ea0a43", "fusion_lon": 0.0, "lat": 38.92608716666667}, {"type": "electric_scooter", "name": "60f5227cd79784d0ae06be24dc1ff473", "is_reserved": 0, "fusion_lat": 0.0, "lon": -77.024904, "is_disabled": 0, "rental_uris": {"android": "https://dc.lft.to/lastmile_qr_scan", "ios": "https://dc.lft.to/lastmile_qr_scan"}, "bike_id": "60f5227cd79784d0ae06be24dc1ff473", "fusion_lon": 0.0, "lat": 38.9376345}, {"type": "electric_scooter", "name": "ce5adfefe00278150aa6d06b929a01ff", "is_reserved": 0, "fusion_lat": 0.0, "lon": -77.02174866666667, "is_disabled": 0, "rental_uris": {"android": "https://dc.lft.to/lastmile_qr_scan", "ios": "https://dc.lft.to/lastmile_qr_scan"}, "bike_id": "ce5adfefe00278150aa6d06b929a01ff", "fusion_lon": 0.0, "lat": 38.91555866666667}, {"type": "electric_scooter", "name": "762c832c865241044f468b86eb9ec836", "is_reserved": 0, "fusion_lat": 0.0, "lon": -77.03264316666667, "is_disabled": 0, "rental_uris": {"android": "https://dc.lft.to/lastmile_qr_scan", "ios": "https://dc.lft.to/lastmile_qr_scan"}, "bike_id": "762c832c865241044f468b86eb9ec836", "fusion_lon": 0.0, "lat": 38.938919166666665}, {"type": "electric_scooter", "name": "7a0008cdd9f22c30b133e932ca955cda", "is_reserved": 0, "fusion_lat": 0.0, "lon": -77.0416785, "is_disabled": 0, "rental_uris": {"android": "https://dc.lft.to/lastmile_qr_scan", "ios": "https://dc.lft.to/lastmile_qr_scan"}, "bike_id": "7a0008cdd9f22c30b133e932ca955cda", "fusion_lon": 0.0, "lat": 38.92005666666667}, {"type": "electric_scooter", "name": "a227673108aeceee0000f9cd237aed34", "is_reserved": 0, "fusion_lat": 0.0, "lon": -77.02978216666666, "is_disabled": 0, "rental_uris": {"android": "https://dc.lft.to/lastmile_qr_scan", "ios": "https://dc.lft.to/lastmile_qr_scan"}, "bike_id": "a227673108aeceee0000f9cd237aed34", "fusion_lon": 0.0, "lat": 38.90725966666667}, {"type": "electric_scooter", "name": "4513f97e198a713a59b9de29cf378ee7", "is_reserved": 0, "fusion_lat": 0.0, "lon": -77.00087866666667, "is_disabled": 0, "rental_uris": {"android": "https://dc.lft.to/lastmile_qr_scan", "ios": "https://dc.lft.to/lastmile_qr_scan"}, "bike_id": "4513f97e198a713a59b9de29cf378ee7", "fusion_lon": 0.0, "lat": 38.92030966666667}, {"type": "electric_bike", "name": "3ba4caf27672f66977d59dd7b86fa837", "is_reserved": 0, "fusion_lat": 0.0, "lon": -77.187375, "is_disabled": 0, "rental_uris": {"android": "https://dc.lft.to/lastmile_qr_scan", "ios": "https://dc.lft.to/lastmile_qr_scan"}, "bike_id": "3ba4caf27672f66977d59dd7b86fa837", "fusion_lon": 0.0, "lat": 38.8935145}, {"type": "electric_scooter", "name": "11eddb494a2cfaaf8674e6e74f769089", "is_reserved": 0, "fusion_lat": 0.0, "lon": -77.02714133333333, "is_disabled": 0, "rental_uris": {"android": "https://dc.lft.to/lastmile_qr_scan", "ios": "https://dc.lft.to/lastmile_qr_scan"}, "bike_id": "11eddb494a2cfaaf8674e6e74f769089", "fusion_lon": 0.0, "lat": 38.93694333333333}, {"type": "electric_bike", "name": "8b8e60a4bcaa62660d6b5a9328d58e02", "is_reserved": 0, "fusion_lat": 0.0, "lon": -77.1072805, "is_disabled": 0, "rental_uris": {"android": "https://dc.lft.to/lastmile_qr_scan", "ios": "https://dc.lft.to/lastmile_qr_scan"}, "bike_id": "8b8e60a4bcaa62660d6b5a9328d58e02", "fusion_lon": 0.0, "lat": 38.85547616666667}, {"type": "electric_scooter", "name": "8318bea1bd4eef75b5a250ea4d46fa95", "is_reserved": 0, "fusion_lat": 0.0, "lon": -77.0273095, "is_disabled": 0, "rental_uris": {"android": "https://dc.lft.to/lastmile_qr_scan", "ios": "https://dc.lft.to/lastmile_qr_scan"}, "bike_id": "8318bea1bd4eef75b5a250ea4d46fa95", "fusion_lon": 0.0, "lat": 38.928504333333336}, {"type": "electric_scooter", "name": "fc06052fa63386e7114f728846c0a0d7", "is_reserved": 0, "fusion_lat": 0.0, "lon": -77.036621, "is_disabled": 0, "rental_uris": {"android": "https://dc.lft.to/lastmile_qr_scan", "ios": "https://dc.lft.to/lastmile_qr_scan"}, "bike_id": "fc06052fa63386e7114f728846c0a0d7", "fusion_lon": 0.0, "lat": 38.91543383333333}, {"type": "electric_scooter", "name": "10e943e44a5921650a020b9499b7a3a1", "is_reserved": 0, "fusion_lat": 0.0, "lon": -77.05914616666666, "is_disabled": 0, "rental_uris": {"android": "https://dc.lft.to/lastmile_qr_scan", "ios": "https://dc.lft.to/lastmile_qr_scan"}, "bike_id": "10e943e44a5921650a020b9499b7a3a1", "fusion_lon": 0.0, "lat": 38.90232983333333}, {"type": "electric_bike", "name": "22b3f542d3bd7eb9a23172ff5c097c24", "is_reserved": 0, "fusion_lat": 0.0, "lon": -77.0845835, "is_disabled": 0, "rental_uris": {"android": "https://dc.lft.to/lastmile_qr_scan", "ios": "https://dc.lft.to/lastmile_qr_scan"}, "bike_id": "22b3f542d3bd7eb9a23172ff5c097c24", "fusion_lon": 0.0, "lat": 38.84818716666667}, {"type": "electric_scooter", "name": "2010284ed0a79a483d7e0c1ab2274214", "is_reserved": 0, "fusion_lat": 0.0, "lon": -77.0344915, "is_disabled": 0, "rental_uris": {"android": "https://dc.lft.to/lastmile_qr_scan", "ios": "https://dc.lft.to/lastmile_qr_scan"}, "bike_id": "2010284ed0a79a483d7e0c1ab2274214", "fusion_lon": 0.0, "lat": 38.905132333333334}, {"type": "electric_scooter", "name": "d3968a0e47b862b27f8f5dd05f2ec30f", "is_reserved": 0, "fusion_lat": 0.0, "lon": -77.02165866666667, "is_disabled": 0, "rental_uris": {"android": "https://dc.lft.to/lastmile_qr_scan", "ios": "https://dc.lft.to/lastmile_qr_scan"}, "bike_id": "d3968a0e47b862b27f8f5dd05f2ec30f", "fusion_lon": 0.0, "lat": 38.8972885}, {"type": "electric_scooter", "name": "751d012e924758a99f1ca7298f01dbf0", "is_reserved": 0, "fusion_lat": 0.0, "lon": -77.02281933333333, "is_disabled": 0, "rental_uris": {"android": "https://dc.lft.to/lastmile_qr_scan", "ios": "https://dc.lft.to/lastmile_qr_scan"}, "bike_id": "751d012e924758a99f1ca7298f01dbf0", "fusion_lon": 0.0, "lat": 38.916818166666665}, {"type": "electric_scooter", "name": "891dc44b27e805e0557248066bad1dfd", "is_reserved": 0, "fusion_lat": 0.0, "lon": -77.007679, "is_disabled": 0, "rental_uris": {"android": "https://dc.lft.to/lastmile_qr_scan", "ios": "https://dc.lft.to/lastmile_qr_scan"}, "bike_id": "891dc44b27e805e0557248066bad1dfd", "fusion_lon": 0.0, "lat": 38.92675416666667}, {"type": "electric_scooter", "name": "b69a9aced653fa3d72cf30af2af38b14", "is_reserved": 0, "fusion_lat": 0.0, "lon": -77.0231925, "is_disabled": 0, "rental_uris": {"android": "https://dc.lft.to/lastmile_qr_scan", "ios": "https://dc.lft.to/lastmile_qr_scan"}, "bike_id": "b69a9aced653fa3d72cf30af2af38b14", "fusion_lon": 0.0, "lat": 38.94092966666667}, {"type": "electric_scooter", "name": "241f597d1c222534b1c72a699f17780e", "is_reserved": 0, "fusion_lat": 0.0, "lon": -77.01169333333333, "is_disabled": 0, "rental_uris": {"android": "https://dc.lft.to/lastmile_qr_scan", "ios": "https://dc.lft.to/lastmile_qr_scan"}, "bike_id": "241f597d1c222534b1c72a699f17780e", "fusion_lon": 0.0, "lat": 38.87665333333333}, {"type": "electric_scooter", "name": "d5292608a373c95a017de478e200721a", "is_reserved": 0, "fusion_lat": 0.0, "lon": -77.026108, "is_disabled": 0, "rental_uris": {"android": "https://dc.lft.to/lastmile_qr_scan", "ios": "https://dc.lft.to/lastmile_qr_scan"}, "bike_id": "d5292608a373c95a017de478e200721a", "fusion_lon": 0.0, "lat": 38.901651666666666}, {"type": "electric_scooter", "name": "5ca38c606206e436130e3ba2e93cb6a6", "is_reserved": 0, "fusion_lat": 0.0, "lon": -77.00049983333334, "is_disabled": 0, "rental_uris": {"android": "https://dc.lft.to/lastmile_qr_scan", "ios": "https://dc.lft.to/lastmile_qr_scan"}, "bike_id": "5ca38c606206e436130e3ba2e93cb6a6", "fusion_lon": 0.0, "lat": 38.87657183333334}, {"type": "electric_scooter", "name": "e6b3349a926f54d23deef761a7135115", "is_reserved": 0, "fusion_lat": 0.0, "lon": -77.03983583333333, "is_disabled": 0, "rental_uris": {"android": "https://dc.lft.to/lastmile_qr_scan", "ios": "https://dc.lft.to/lastmile_qr_scan"}, "bike_id": "e6b3349a926f54d23deef761a7135115", "fusion_lon": 0.0, "lat": 38.917576833333335}, {"type": "electric_scooter", "name": "e9a07993901c9c94c91d8a23b62f5fbf", "is_reserved": 0, "fusion_lat": 0.0, "lon": -77.05132816666666, "is_disabled": 0, "rental_uris": {"android": "https://dc.lft.to/lastmile_qr_scan", "ios": "https://dc.lft.to/lastmile_qr_scan"}, "bike_id": "e9a07993901c9c94c91d8a23b62f5fbf", "fusion_lon": 0.0, "lat": 38.92362}, {"type": "electric_scooter", "name": "20c4d054c8ae3e891702bcd875c14a6b", "is_reserved": 0, "fusion_lat": 0.0, "lon": -77.03350283333333, "is_disabled": 0, "rental_uris": {"android": "https://dc.lft.to/lastmile_qr_scan", "ios": "https://dc.lft.to/lastmile_qr_scan"}, "bike_id": "20c4d054c8ae3e891702bcd875c14a6b", "fusion_lon": 0.0, "lat": 38.89238}, {"type": "electric_scooter", "name": "44b4492566b2eea36ab4ad7f4e764888", "is_reserved": 0, "fusion_lat": 0.0, "lon": -77.00795933333333, "is_disabled": 0, "rental_uris": {"android": "https://dc.lft.to/lastmile_qr_scan", "ios": "https://dc.lft.to/lastmile_qr_scan"}, "bike_id": "44b4492566b2eea36ab4ad7f4e764888", "fusion_lon": 0.0, "lat": 38.897190333333334}, {"type": "electric_scooter", "name": "7faa8e7cc6fa40795fbb454e315f9052", "is_reserved": 0, "fusion_lat": 0.0, "lon": -77.0307925, "is_disabled": 0, "rental_uris": {"android": "https://dc.lft.to/lastmile_qr_scan", "ios": "https://dc.lft.to/lastmile_qr_scan"}, "bike_id": "7faa8e7cc6fa40795fbb454e315f9052", "fusion_lon": 0.0, "lat": 38.897493}, {"type": "electric_scooter", "name": "4e51b0a483986e7a2fe0dce4f3c45fc8", "is_reserved": 0, "fusion_lat": 0.0, "lon": -77.00375216666667, "is_disabled": 0, "rental_uris": {"android": "https://dc.lft.to/lastmile_qr_scan", "ios": "https://dc.lft.to/lastmile_qr_scan"}, "bike_id": "4e51b0a483986e7a2fe0dce4f3c45fc8", "fusion_lon": 0.0, "lat": 38.89734216666667}, {"type": "electric_bike", "name": "c9f13e7df694e84a4db9ad2585677f22", "is_reserved": 0, "fusion_lat": 0.0, "lon": -77.13476616666667, "is_disabled": 0, "rental_uris": {"android": "https://dc.lft.to/lastmile_qr_scan", "ios": "https://dc.lft.to/lastmile_qr_scan"}, "bike_id": "c9f13e7df694e84a4db9ad2585677f22", "fusion_lon": 0.0, "lat": 38.853518666666666}, {"type": "electric_scooter", "name": "4283f43efc5ef9dd002b0d7ef4e64368", "is_reserved": 0, "fusion_lat": 0.0, "lon": -77.03225133333333, "is_disabled": 0, "rental_uris": {"android": "https://dc.lft.to/lastmile_qr_scan", "ios": "https://dc.lft.to/lastmile_qr_scan"}, "bike_id": "4283f43efc5ef9dd002b0d7ef4e64368", "fusion_lon": 0.0, "lat": 38.93162983333333}, {"type": "electric_scooter", "name": "3cfde5c47d31fe4e753f3b4f85d15fc1", "is_reserved": 0, "fusion_lat": 0.0, "lon": -77.03592616666667, "is_disabled": 0, "rental_uris": {"android": "https://dc.lft.to/lastmile_qr_scan", "ios": "https://dc.lft.to/lastmile_qr_scan"}, "bike_id": "3cfde5c47d31fe4e753f3b4f85d15fc1", "fusion_lon": 0.0, "lat": 38.916284833333336}, {"type": "electric_bike", "name": "f87b004c58eb388e676801c4cc42cd4e", "is_reserved": 0, "fusion_lat": 0.0, "lon": -76.97118033333334, "is_disabled": 0, "rental_uris": {"android": "https://dc.lft.to/lastmile_qr_scan", "ios": "https://dc.lft.to/lastmile_qr_scan"}, "bike_id": "f87b004c58eb388e676801c4cc42cd4e", "fusion_lon": 0.0, "lat": 38.9196155}, {"type": "electric_scooter", "name": "5bee1624637472141fe409aabcc1123c", "is_reserved": 0, "fusion_lat": 0.0, "lon": -76.9861555, "is_disabled": 0, "rental_uris": {"android": "https://dc.lft.to/lastmile_qr_scan", "ios": "https://dc.lft.to/lastmile_qr_scan"}, "bike_id": "5bee1624637472141fe409aabcc1123c", "fusion_lon": 0.0, "lat": 38.938253333333336}, {"type": "electric_bike", "name": "f0531eeace867aa9578bb1a15b1d1b5c", "is_reserved": 0, "fusion_lat": 0.0, "lon": -77.063552, "is_disabled": 0, "rental_uris": {"android": "https://dc.lft.to/lastmile_qr_scan", "ios": "https://dc.lft.to/lastmile_qr_scan"}, "bike_id": "f0531eeace867aa9578bb1a15b1d1b5c", "fusion_lon": 0.0, "lat": 38.906564}, {"type": "electric_scooter", "name": "07a534dfdf275be4ecdf0a5e986c1be0", "is_reserved": 0, "fusion_lat": 0.0, "lon": -77.04421983333333, "is_disabled": 0, "rental_uris": {"android": "https://dc.lft.to/lastmile_qr_scan", "ios": "https://dc.lft.to/lastmile_qr_scan"}, "bike_id": "07a534dfdf275be4ecdf0a5e986c1be0", "fusion_lon": 0.0, "lat": 38.9112875}, {"type": "electric_scooter", "name": "00fc0a9e1d584ec8eab69e25f219d68c", "is_reserved": 0, "fusion_lat": 0.0, "lon": -77.01133783333333, "is_disabled": 0, "rental_uris": {"android": "https://dc.lft.to/lastmile_qr_scan", "ios": "https://dc.lft.to/lastmile_qr_scan"}, "bike_id": "00fc0a9e1d584ec8eab69e25f219d68c", "fusion_lon": 0.0, "lat": 38.880446166666665}, {"type": "electric_scooter", "name": "47caf15337313d1574f57c54e75b5086", "is_reserved": 0, "fusion_lat": 0.0, "lon": -77.02155333333333, "is_disabled": 0, "rental_uris": {"android": "https://dc.lft.to/lastmile_qr_scan", "ios": "https://dc.lft.to/lastmile_qr_scan"}, "bike_id": "47caf15337313d1574f57c54e75b5086", "fusion_lon": 0.0, "lat": 38.89412816666667}, {"type": "electric_scooter", "name": "03460554983b7f3d1ee74a118300017b", "is_reserved": 0, "fusion_lat": 0.0, "lon": -77.0507005, "is_disabled": 0, "rental_uris": {"android": "https://dc.lft.to/lastmile_qr_scan", "ios": "https://dc.lft.to/lastmile_qr_scan"}, "bike_id": "03460554983b7f3d1ee74a118300017b", "fusion_lon": 0.0, "lat": 38.90093666666667}, {"type": "electric_scooter", "name": "d3c42a98e5f4ebbf6bb5697e0e2bb08a", "is_reserved": 0, "fusion_lat": 0.0, "lon": -77.02718883333333, "is_disabled": 0, "rental_uris": {"android": "https://dc.lft.to/lastmile_qr_scan", "ios": "https://dc.lft.to/lastmile_qr_scan"}, "bike_id": "d3c42a98e5f4ebbf6bb5697e0e2bb08a", "fusion_lon": 0.0, "lat": 38.916684333333336}, {"type": "electric_scooter", "name": "d3d56fb7965d7b261d1a2f177c6d9139", "is_reserved": 0, "fusion_lat": 0.0, "lon": -76.99962716666667, "is_disabled": 0, "rental_uris": {"android": "https://dc.lft.to/lastmile_qr_scan", "ios": "https://dc.lft.to/lastmile_qr_scan"}, "bike_id": "d3d56fb7965d7b261d1a2f177c6d9139", "fusion_lon": 0.0, "lat": 38.90862833333333}, {"type": "electric_scooter", "name": "757739222c31fa14b5fd8e826c03f5bf", "is_reserved": 0, "fusion_lat": 0.0, "lon": -77.03198716666667, "is_disabled": 0, "rental_uris": {"android": "https://dc.lft.to/lastmile_qr_scan", "ios": "https://dc.lft.to/lastmile_qr_scan"}, "bike_id": "757739222c31fa14b5fd8e826c03f5bf", "fusion_lon": 0.0, "lat": 38.903514}, {"type": "electric_scooter", "name": "12eac8c334178cb10f1bbcb842dec42f", "is_reserved": 0, "fusion_lat": 0.0, "lon": -77.02736183333333, "is_disabled": 0, "rental_uris": {"android": "https://dc.lft.to/lastmile_qr_scan", "ios": "https://dc.lft.to/lastmile_qr_scan"}, "bike_id": "12eac8c334178cb10f1bbcb842dec42f", "fusion_lon": 0.0, "lat": 38.927646}, {"type": "electric_bike", "name": "16d3d254ea31a0502a7d3131afb081b3", "is_reserved": 0, "fusion_lat": 0.0, "lon": -76.9388125, "is_disabled": 0, "rental_uris": {"android": "https://dc.lft.to/lastmile_qr_scan", "ios": "https://dc.lft.to/lastmile_qr_scan"}, "bike_id": "16d3d254ea31a0502a7d3131afb081b3", "fusion_lon": 0.0, "lat": 38.95641333333333}, {"type": "electric_scooter", "name": "75416af5ff7695501ff0c469d159e407", "is_reserved": 0, "fusion_lat": 0.0, "lon": -77.0319065, "is_disabled": 0, "rental_uris": {"android": "https://dc.lft.to/lastmile_qr_scan", "ios": "https://dc.lft.to/lastmile_qr_scan"}, "bike_id": "75416af5ff7695501ff0c469d159e407", "fusion_lon": 0.0, "lat": 38.90356383333334}, {"type": "electric_scooter", "name": "f83d0a358ed4c1cc19d1b987fa538a54", "is_reserved": 0, "fusion_lat": 0.0, "lon": -77.04369016666666, "is_disabled": 0, "rental_uris": {"android": "https://dc.lft.to/lastmile_qr_scan", "ios": "https://dc.lft.to/lastmile_qr_scan"}, "bike_id": "f83d0a358ed4c1cc19d1b987fa538a54", "fusion_lon": 0.0, "lat": 38.90525866666667}, {"type": "electric_scooter", "name": "50096949c488c47279e4165b110c914c", "is_reserved": 0, "fusion_lat": 0.0, "lon": -77.04395216666667, "is_disabled": 0, "rental_uris": {"android": "https://dc.lft.to/lastmile_qr_scan", "ios": "https://dc.lft.to/lastmile_qr_scan"}, "bike_id": "50096949c488c47279e4165b110c914c", "fusion_lon": 0.0, "lat": 38.91414966666667}, {"type": "electric_scooter", "name": "b88e7097895040e2be810fbb405506fd", "is_reserved": 0, "fusion_lat": 0.0, "lon": -77.02771016666667, "is_disabled": 0, "rental_uris": {"android": "https://dc.lft.to/lastmile_qr_scan", "ios": "https://dc.lft.to/lastmile_qr_scan"}, "bike_id": "b88e7097895040e2be810fbb405506fd", "fusion_lon": 0.0, "lat": 38.954257}, {"type": "electric_scooter", "name": "57c2420e901874473409443362f10fce", "is_reserved": 0, "fusion_lat": 0.0, "lon": -77.06525883333333, "is_disabled": 0, "rental_uris": {"android": "https://dc.lft.to/lastmile_qr_scan", "ios": "https://dc.lft.to/lastmile_qr_scan"}, "bike_id": "57c2420e901874473409443362f10fce", "fusion_lon": 0.0, "lat": 38.90535066666666}, {"type": "electric_scooter", "name": "0f5b9052d9f816464b4c9d221e48f067", "is_reserved": 0, "fusion_lat": 0.0, "lon": -77.03433983333333, "is_disabled": 0, "rental_uris": {"android": "https://dc.lft.to/lastmile_qr_scan", "ios": "https://dc.lft.to/lastmile_qr_scan"}, "bike_id": "0f5b9052d9f816464b4c9d221e48f067", "fusion_lon": 0.0, "lat": 38.918078666666666}, {"type": "electric_scooter", "name": "c363448ea2fb1f2f4495735f829f3ae8", "is_reserved": 0, "fusion_lat": 0.0, "lon": -77.03207233333333, "is_disabled": 0, "rental_uris": {"android": "https://dc.lft.to/lastmile_qr_scan", "ios": "https://dc.lft.to/lastmile_qr_scan"}, "bike_id": "c363448ea2fb1f2f4495735f829f3ae8", "fusion_lon": 0.0, "lat": 38.908928333333336}, {"type": "electric_scooter", "name": "cd0a96c6eae9c748d2f845bd6341c3c9", "is_reserved": 0, "fusion_lat": 0.0, "lon": -77.02173233333333, "is_disabled": 0, "rental_uris": {"android": "https://dc.lft.to/lastmile_qr_scan", "ios": "https://dc.lft.to/lastmile_qr_scan"}, "bike_id": "cd0a96c6eae9c748d2f845bd6341c3c9", "fusion_lon": 0.0, "lat": 38.94291666666667}, {"type": "electric_scooter", "name": "4ccb80217c326562c7f06795308fef4e", "is_reserved": 0, "fusion_lat": 0.0, "lon": -77.02943766666667, "is_disabled": 0, "rental_uris": {"android": "https://dc.lft.to/lastmile_qr_scan", "ios": "https://dc.lft.to/lastmile_qr_scan"}, "bike_id": "4ccb80217c326562c7f06795308fef4e", "fusion_lon": 0.0, "lat": 38.898644833333336}, {"type": "electric_scooter", "name": "1f1144ac0f5dccd4c70389cadb733a10", "is_reserved": 0, "fusion_lat": 0.0, "lon": -77.03872683333333, "is_disabled": 0, "rental_uris": {"android": "https://dc.lft.to/lastmile_qr_scan", "ios": "https://dc.lft.to/lastmile_qr_scan"}, "bike_id": "1f1144ac0f5dccd4c70389cadb733a10", "fusion_lon": 0.0, "lat": 38.921503}, {"type": "electric_scooter", "name": "8ca66f27aa680d2b781c329029438faa", "is_reserved": 0, "fusion_lat": 0.0, "lon": -77.043649, "is_disabled": 0, "rental_uris": {"android": "https://dc.lft.to/lastmile_qr_scan", "ios": "https://dc.lft.to/lastmile_qr_scan"}, "bike_id": "8ca66f27aa680d2b781c329029438faa", "fusion_lon": 0.0, "lat": 38.921393}, {"type": "electric_scooter", "name": "90e1c6f4a1f96597a9e9922efd608bd7", "is_reserved": 0, "fusion_lat": 0.0, "lon": -77.04787916666666, "is_disabled": 0, "rental_uris": {"android": "https://dc.lft.to/lastmile_qr_scan", "ios": "https://dc.lft.to/lastmile_qr_scan"}, "bike_id": "90e1c6f4a1f96597a9e9922efd608bd7", "fusion_lon": 0.0, "lat": 38.89374933333333}, {"type": "electric_scooter", "name": "e7f9ca7b4c89dc034b8b12a122d333f7", "is_reserved": 0, "fusion_lat": 0.0, "lon": -77.0714695, "is_disabled": 0, "rental_uris": {"android": "https://dc.lft.to/lastmile_qr_scan", "ios": "https://dc.lft.to/lastmile_qr_scan"}, "bike_id": "e7f9ca7b4c89dc034b8b12a122d333f7", "fusion_lon": 0.0, "lat": 38.945625666666665}, {"type": "electric_scooter", "name": "b8a2b369be2a5969c65bba50a8939243", "is_reserved": 0, "fusion_lat": 0.0, "lon": -77.02959033333333, "is_disabled": 0, "rental_uris": {"android": "https://dc.lft.to/lastmile_qr_scan", "ios": "https://dc.lft.to/lastmile_qr_scan"}, "bike_id": "b8a2b369be2a5969c65bba50a8939243", "fusion_lon": 0.0, "lat": 38.91025466666667}, {"type": "electric_bike", "name": "b5435dab3305a0ed936d397a1bba1047", "is_reserved": 0, "fusion_lat": 0.0, "lon": -77.02626066666667, "is_disabled": 0, "rental_uris": {"android": "https://dc.lft.to/lastmile_qr_scan", "ios": "https://dc.lft.to/lastmile_qr_scan"}, "bike_id": "b5435dab3305a0ed936d397a1bba1047", "fusion_lon": 0.0, "lat": 38.962292}, {"type": "electric_scooter", "name": "97c07c942073bee6f824a88e93cfafac", "is_reserved": 0, "fusion_lat": 0.0, "lon": -76.9653, "is_disabled": 0, "rental_uris": {"android": "https://dc.lft.to/lastmile_qr_scan", "ios": "https://dc.lft.to/lastmile_qr_scan"}, "bike_id": "97c07c942073bee6f824a88e93cfafac", "fusion_lon": 0.0, "lat": 38.876321}, {"type": "electric_scooter", "name": "b57bff276b35d3aafb5e7602d3cec96a", "is_reserved": 0, "fusion_lat": 0.0, "lon": -77.04181116666666, "is_disabled": 0, "rental_uris": {"android": "https://dc.lft.to/lastmile_qr_scan", "ios": "https://dc.lft.to/lastmile_qr_scan"}, "bike_id": "b57bff276b35d3aafb5e7602d3cec96a", "fusion_lon": 0.0, "lat": 38.91974416666667}, {"type": "electric_scooter", "name": "e6b62c8e72a7fcef1def805baf97d816", "is_reserved": 0, "fusion_lat": 0.0, "lon": -76.98513983333333, "is_disabled": 0, "rental_uris": {"android": "https://dc.lft.to/lastmile_qr_scan", "ios": "https://dc.lft.to/lastmile_qr_scan"}, "bike_id": "e6b62c8e72a7fcef1def805baf97d816", "fusion_lon": 0.0, "lat": 38.88080133333333}, {"type": "electric_scooter", "name": "de8ca9206a546c86b15f1ac10900c195", "is_reserved": 0, "fusion_lat": 0.0, "lon": -77.02964283333333, "is_disabled": 0, "rental_uris": {"android": "https://dc.lft.to/lastmile_qr_scan", "ios": "https://dc.lft.to/lastmile_qr_scan"}, "bike_id": "de8ca9206a546c86b15f1ac10900c195", "fusion_lon": 0.0, "lat": 38.907228}, {"type": "electric_scooter", "name": "cd80169308c5389c90a329ee0bb4d03b", "is_reserved": 0, "fusion_lat": 0.0, "lon": -77.00747266666667, "is_disabled": 0, "rental_uris": {"android": "https://dc.lft.to/lastmile_qr_scan", "ios": "https://dc.lft.to/lastmile_qr_scan"}, "bike_id": "cd80169308c5389c90a329ee0bb4d03b", "fusion_lon": 0.0, "lat": 38.898453}, {"type": "electric_scooter", "name": "f2ff685743398e07657064ea3980120d", "is_reserved": 0, "fusion_lat": 0.0, "lon": -77.03780733333333, "is_disabled": 0, "rental_uris": {"android": "https://dc.lft.to/lastmile_qr_scan", "ios": "https://dc.lft.to/lastmile_qr_scan"}, "bike_id": "f2ff685743398e07657064ea3980120d", "fusion_lon": 0.0, "lat": 38.91693633333333}, {"type": "electric_scooter", "name": "375267c4f3189679ea786e45092b684b", "is_reserved": 0, "fusion_lat": 0.0, "lon": -76.9888425, "is_disabled": 0, "rental_uris": {"android": "https://dc.lft.to/lastmile_qr_scan", "ios": "https://dc.lft.to/lastmile_qr_scan"}, "bike_id": "375267c4f3189679ea786e45092b684b", "fusion_lon": 0.0, "lat": 38.866585}, {"type": "electric_scooter", "name": "cdbde4d38bd144365a3356cf715a46c9", "is_reserved": 0, "fusion_lat": 0.0, "lon": -77.0461875, "is_disabled": 0, "rental_uris": {"android": "https://dc.lft.to/lastmile_qr_scan", "ios": "https://dc.lft.to/lastmile_qr_scan"}, "bike_id": "cdbde4d38bd144365a3356cf715a46c9", "fusion_lon": 0.0, "lat": 38.90967033333333}, {"type": "electric_scooter", "name": "a3754c7e7b38e93141a0919e69ec0746", "is_reserved": 0, "fusion_lat": 0.0, "lon": -77.04871283333334, "is_disabled": 0, "rental_uris": {"android": "https://dc.lft.to/lastmile_qr_scan", "ios": "https://dc.lft.to/lastmile_qr_scan"}, "bike_id": "a3754c7e7b38e93141a0919e69ec0746", "fusion_lon": 0.0, "lat": 38.91962683333333}, {"type": "electric_scooter", "name": "5aa11f8ed1147cc1bfa9b6bf78ed48ea", "is_reserved": 0, "fusion_lat": 0.0, "lon": -77.05581733333334, "is_disabled": 0, "rental_uris": {"android": "https://dc.lft.to/lastmile_qr_scan", "ios": "https://dc.lft.to/lastmile_qr_scan"}, "bike_id": "5aa11f8ed1147cc1bfa9b6bf78ed48ea", "fusion_lon": 0.0, "lat": 38.89326283333333}, {"type": "electric_scooter", "name": "9b054fd37343f9a82f0541895d902f50", "is_reserved": 0, "fusion_lat": 0.0, "lon": -77.025293, "is_disabled": 0, "rental_uris": {"android": "https://dc.lft.to/lastmile_qr_scan", "ios": "https://dc.lft.to/lastmile_qr_scan"}, "bike_id": "9b054fd37343f9a82f0541895d902f50", "fusion_lon": 0.0, "lat": 38.94258683333334}, {"type": "electric_scooter", "name": "a6d3aa257290d60658963a5eb3be2668", "is_reserved": 0, "fusion_lat": 0.0, "lon": -77.05172816666666, "is_disabled": 0, "rental_uris": {"android": "https://dc.lft.to/lastmile_qr_scan", "ios": "https://dc.lft.to/lastmile_qr_scan"}, "bike_id": "a6d3aa257290d60658963a5eb3be2668", "fusion_lon": 0.0, "lat": 38.923433333333335}, {"type": "electric_scooter", "name": "a207130a058e19eba1be6e1900f43734", "is_reserved": 0, "fusion_lat": 0.0, "lon": -77.005693, "is_disabled": 0, "rental_uris": {"android": "https://dc.lft.to/lastmile_qr_scan", "ios": "https://dc.lft.to/lastmile_qr_scan"}, "bike_id": "a207130a058e19eba1be6e1900f43734", "fusion_lon": 0.0, "lat": 38.878948666666666}, {"type": "electric_scooter", "name": "3d32a005af297e450b8569b5ddbbf547", "is_reserved": 0, "fusion_lat": 0.0, "lon": -77.0248885, "is_disabled": 0, "rental_uris": {"android": "https://dc.lft.to/lastmile_qr_scan", "ios": "https://dc.lft.to/lastmile_qr_scan"}, "bike_id": "3d32a005af297e450b8569b5ddbbf547", "fusion_lon": 0.0, "lat": 38.93870416666667}, {"type": "electric_scooter", "name": "7e2daa74d717e843fd0c0a5c204e705d", "is_reserved": 0, "fusion_lat": 0.0, "lon": -77.03360966666666, "is_disabled": 0, "rental_uris": {"android": "https://dc.lft.to/lastmile_qr_scan", "ios": "https://dc.lft.to/lastmile_qr_scan"}, "bike_id": "7e2daa74d717e843fd0c0a5c204e705d", "fusion_lon": 0.0, "lat": 38.91929066666667}, {"type": "electric_scooter", "name": "02284933b96f119bdf7df6c6f66e8621", "is_reserved": 0, "fusion_lat": 0.0, "lon": -77.02166333333334, "is_disabled": 0, "rental_uris": {"android": "https://dc.lft.to/lastmile_qr_scan", "ios": "https://dc.lft.to/lastmile_qr_scan"}, "bike_id": "02284933b96f119bdf7df6c6f66e8621", "fusion_lon": 0.0, "lat": 38.90971183333333}, {"type": "electric_scooter", "name": "8ddcaa710f2aba87fcc43b75da24b527", "is_reserved": 0, "fusion_lat": 0.0, "lon": -77.05004533333333, "is_disabled": 0, "rental_uris": {"android": "https://dc.lft.to/lastmile_qr_scan", "ios": "https://dc.lft.to/lastmile_qr_scan"}, "bike_id": "8ddcaa710f2aba87fcc43b75da24b527", "fusion_lon": 0.0, "lat": 38.89226516666667}, {"type": "electric_scooter", "name": "38e7a0c1e6a944f9d93203dba3abafe7", "is_reserved": 0, "fusion_lat": 0.0, "lon": -77.04762983333333, "is_disabled": 0, "rental_uris": {"android": "https://dc.lft.to/lastmile_qr_scan", "ios": "https://dc.lft.to/lastmile_qr_scan"}, "bike_id": "38e7a0c1e6a944f9d93203dba3abafe7", "fusion_lon": 0.0, "lat": 38.9054855}, {"type": "electric_scooter", "name": "51205087e99c8eab9d4d35e4982d1237", "is_reserved": 0, "fusion_lat": 0.0, "lon": -76.97700566666667, "is_disabled": 0, "rental_uris": {"android": "https://dc.lft.to/lastmile_qr_scan", "ios": "https://dc.lft.to/lastmile_qr_scan"}, "bike_id": "51205087e99c8eab9d4d35e4982d1237", "fusion_lon": 0.0, "lat": 38.9025345}, {"type": "electric_scooter", "name": "be3033f6a0ae294da1fdd3ddd0c7fff4", "is_reserved": 0, "fusion_lat": 0.0, "lon": -77.03268266666667, "is_disabled": 0, "rental_uris": {"android": "https://dc.lft.to/lastmile_qr_scan", "ios": "https://dc.lft.to/lastmile_qr_scan"}, "bike_id": "be3033f6a0ae294da1fdd3ddd0c7fff4", "fusion_lon": 0.0, "lat": 38.94151383333333}, {"type": "electric_scooter", "name": "8c0b1237e45abcc6ed20bb9b9c80ea27", "is_reserved": 0, "fusion_lat": 0.0, "lon": -77.07266983333334, "is_disabled": 0, "rental_uris": {"android": "https://dc.lft.to/lastmile_qr_scan", "ios": "https://dc.lft.to/lastmile_qr_scan"}, "bike_id": "8c0b1237e45abcc6ed20bb9b9c80ea27", "fusion_lon": 0.0, "lat": 38.911497833333335}, {"type": "electric_scooter", "name": "e8b6e29ef431040a8757eb9974473b0c", "is_reserved": 0, "fusion_lat": 0.0, "lon": -77.03438, "is_disabled": 0, "rental_uris": {"android": "https://dc.lft.to/lastmile_qr_scan", "ios": "https://dc.lft.to/lastmile_qr_scan"}, "bike_id": "e8b6e29ef431040a8757eb9974473b0c", "fusion_lon": 0.0, "lat": 38.918104166666666}, {"type": "electric_scooter", "name": "e7a7b4bde477c4a3e41b3b37472b257b", "is_reserved": 0, "fusion_lat": 0.0, "lon": -77.02156883333333, "is_disabled": 0, "rental_uris": {"android": "https://dc.lft.to/lastmile_qr_scan", "ios": "https://dc.lft.to/lastmile_qr_scan"}, "bike_id": "e7a7b4bde477c4a3e41b3b37472b257b", "fusion_lon": 0.0, "lat": 38.92606333333333}, {"type": "electric_scooter", "name": "a9b66736f5864fff520eead924fc253c", "is_reserved": 0, "fusion_lat": 0.0, "lon": -77.0043605, "is_disabled": 0, "rental_uris": {"android": "https://dc.lft.to/lastmile_qr_scan", "ios": "https://dc.lft.to/lastmile_qr_scan"}, "bike_id": "a9b66736f5864fff520eead924fc253c", "fusion_lon": 0.0, "lat": 38.87674066666666}, {"type": "electric_scooter", "name": "c3b844efa738fa387ab6710da39cebfb", "is_reserved": 0, "fusion_lat": 0.0, "lon": -77.04742883333333, "is_disabled": 0, "rental_uris": {"android": "https://dc.lft.to/lastmile_qr_scan", "ios": "https://dc.lft.to/lastmile_qr_scan"}, "bike_id": "c3b844efa738fa387ab6710da39cebfb", "fusion_lon": 0.0, "lat": 38.90965816666667}, {"type": "electric_scooter", "name": "8383e958c7e521f36a0a4fe9b876d338", "is_reserved": 0, "fusion_lat": 0.0, "lon": -77.03174683333333, "is_disabled": 0, "rental_uris": {"android": "https://dc.lft.to/lastmile_qr_scan", "ios": "https://dc.lft.to/lastmile_qr_scan"}, "bike_id": "8383e958c7e521f36a0a4fe9b876d338", "fusion_lon": 0.0, "lat": 38.91770016666667}, {"type": "electric_scooter", "name": "87ed439039c34020bf06917375959195", "is_reserved": 0, "fusion_lat": 0.0, "lon": -77.04198716666667, "is_disabled": 0, "rental_uris": {"android": "https://dc.lft.to/lastmile_qr_scan", "ios": "https://dc.lft.to/lastmile_qr_scan"}, "bike_id": "87ed439039c34020bf06917375959195", "fusion_lon": 0.0, "lat": 38.9187965}, {"type": "electric_scooter", "name": "7d2828852f47cbe98cf03a192a67cc03", "is_reserved": 0, "fusion_lat": 0.0, "lon": -77.0290965, "is_disabled": 0, "rental_uris": {"android": "https://dc.lft.to/lastmile_qr_scan", "ios": "https://dc.lft.to/lastmile_qr_scan"}, "bike_id": "7d2828852f47cbe98cf03a192a67cc03", "fusion_lon": 0.0, "lat": 38.924826333333336}, {"type": "electric_scooter", "name": "58236170acf144f07a76603fb0126db7", "is_reserved": 0, "fusion_lat": 0.0, "lon": -77.03278083333333, "is_disabled": 0, "rental_uris": {"android": "https://dc.lft.to/lastmile_qr_scan", "ios": "https://dc.lft.to/lastmile_qr_scan"}, "bike_id": "58236170acf144f07a76603fb0126db7", "fusion_lon": 0.0, "lat": 38.932487}, {"type": "electric_scooter", "name": "e19303357d0cd5e503e1914468b56c6b", "is_reserved": 0, "fusion_lat": 0.0, "lon": -77.03058466666667, "is_disabled": 0, "rental_uris": {"android": "https://dc.lft.to/lastmile_qr_scan", "ios": "https://dc.lft.to/lastmile_qr_scan"}, "bike_id": "e19303357d0cd5e503e1914468b56c6b", "fusion_lon": 0.0, "lat": 38.92245616666666}, {"type": "electric_scooter", "name": "d1df2581d3c383418dd96f895d6eeb2e", "is_reserved": 0, "fusion_lat": 0.0, "lon": -77.02321933333333, "is_disabled": 0, "rental_uris": {"android": "https://dc.lft.to/lastmile_qr_scan", "ios": "https://dc.lft.to/lastmile_qr_scan"}, "bike_id": "d1df2581d3c383418dd96f895d6eeb2e", "fusion_lon": 0.0, "lat": 38.9305765}, {"type": "electric_bike", "name": "638009c2c911621e4e587202a5c4d35f", "is_reserved": 0, "fusion_lat": 0.0, "lon": -77.10598216666666, "is_disabled": 0, "rental_uris": {"android": "https://dc.lft.to/lastmile_qr_scan", "ios": "https://dc.lft.to/lastmile_qr_scan"}, "bike_id": "638009c2c911621e4e587202a5c4d35f", "fusion_lon": 0.0, "lat": 38.928916}, {"type": "electric_scooter", "name": "ab502664c6ad72339dc7699b67a2ce98", "is_reserved": 0, "fusion_lat": 0.0, "lon": -76.95758133333334, "is_disabled": 0, "rental_uris": {"android": "https://dc.lft.to/lastmile_qr_scan", "ios": "https://dc.lft.to/lastmile_qr_scan"}, "bike_id": "ab502664c6ad72339dc7699b67a2ce98", "fusion_lon": 0.0, "lat": 38.884313166666665}, {"type": "electric_scooter", "name": "e39297f4e0351957887455a31e3c3639", "is_reserved": 0, "fusion_lat": 0.0, "lon": -77.04327283333333, "is_disabled": 0, "rental_uris": {"android": "https://dc.lft.to/lastmile_qr_scan", "ios": "https://dc.lft.to/lastmile_qr_scan"}, "bike_id": "e39297f4e0351957887455a31e3c3639", "fusion_lon": 0.0, "lat": 38.90401816666667}, {"type": "electric_scooter", "name": "8a23ea1e763980665aa308a0192a08b8", "is_reserved": 0, "fusion_lat": 0.0, "lon": -77.04556583333333, "is_disabled": 0, "rental_uris": {"android": "https://dc.lft.to/lastmile_qr_scan", "ios": "https://dc.lft.to/lastmile_qr_scan"}, "bike_id": "8a23ea1e763980665aa308a0192a08b8", "fusion_lon": 0.0, "lat": 38.913047}, {"type": "electric_scooter", "name": "b6b6fb25d1fc5af59dcff4a0d59556bf", "is_reserved": 0, "fusion_lat": 0.0, "lon": -77.00337616666667, "is_disabled": 0, "rental_uris": {"android": "https://dc.lft.to/lastmile_qr_scan", "ios": "https://dc.lft.to/lastmile_qr_scan"}, "bike_id": "b6b6fb25d1fc5af59dcff4a0d59556bf", "fusion_lon": 0.0, "lat": 38.89356}, {"type": "electric_scooter", "name": "8548dda14cf8d428b240ecfd3d8f5c45", "is_reserved": 0, "fusion_lat": 0.0, "lon": -77.02379716666667, "is_disabled": 0, "rental_uris": {"android": "https://dc.lft.to/lastmile_qr_scan", "ios": "https://dc.lft.to/lastmile_qr_scan"}, "bike_id": "8548dda14cf8d428b240ecfd3d8f5c45", "fusion_lon": 0.0, "lat": 38.919926333333336}, {"type": "electric_scooter", "name": "15e52637bcbc25aae524485295c7c05f", "is_reserved": 0, "fusion_lat": 0.0, "lon": -77.02009833333334, "is_disabled": 0, "rental_uris": {"android": "https://dc.lft.to/lastmile_qr_scan", "ios": "https://dc.lft.to/lastmile_qr_scan"}, "bike_id": "15e52637bcbc25aae524485295c7c05f", "fusion_lon": 0.0, "lat": 38.89873083333333}, {"type": "electric_scooter", "name": "54b3e4308437a29fab58cbc5ea285963", "is_reserved": 0, "fusion_lat": 0.0, "lon": -77.02282783333334, "is_disabled": 0, "rental_uris": {"android": "https://dc.lft.to/lastmile_qr_scan", "ios": "https://dc.lft.to/lastmile_qr_scan"}, "bike_id": "54b3e4308437a29fab58cbc5ea285963", "fusion_lon": 0.0, "lat": 38.9167625}, {"type": "electric_scooter", "name": "59250c2cdfbbe4582e6d93e9a8ac2f23", "is_reserved": 0, "fusion_lat": 0.0, "lon": -77.0022475, "is_disabled": 0, "rental_uris": {"android": "https://dc.lft.to/lastmile_qr_scan", "ios": "https://dc.lft.to/lastmile_qr_scan"}, "bike_id": "59250c2cdfbbe4582e6d93e9a8ac2f23", "fusion_lon": 0.0, "lat": 38.9004895}, {"type": "electric_scooter", "name": "e9186f5294682ae98f46d12f9e8a7201", "is_reserved": 0, "fusion_lat": 0.0, "lon": -77.029186, "is_disabled": 0, "rental_uris": {"android": "https://dc.lft.to/lastmile_qr_scan", "ios": "https://dc.lft.to/lastmile_qr_scan"}, "bike_id": "e9186f5294682ae98f46d12f9e8a7201", "fusion_lon": 0.0, "lat": 38.9332855}, {"type": "electric_scooter", "name": "59916f3df598d039ef18f5bc184e28dc", "is_reserved": 0, "fusion_lat": 0.0, "lon": -77.0453675, "is_disabled": 0, "rental_uris": {"android": "https://dc.lft.to/lastmile_qr_scan", "ios": "https://dc.lft.to/lastmile_qr_scan"}, "bike_id": "59916f3df598d039ef18f5bc184e28dc", "fusion_lon": 0.0, "lat": 38.902253}, {"type": "electric_scooter", "name": "fd47b8499b11e59dc04848197edf7ced", "is_reserved": 0, "fusion_lat": 0.0, "lon": -77.04486783333333, "is_disabled": 0, "rental_uris": {"android": "https://dc.lft.to/lastmile_qr_scan", "ios": "https://dc.lft.to/lastmile_qr_scan"}, "bike_id": "fd47b8499b11e59dc04848197edf7ced", "fusion_lon": 0.0, "lat": 38.909754166666666}, {"type": "electric_scooter", "name": "aae242a5508462738a255887a12dab68", "is_reserved": 0, "fusion_lat": 0.0, "lon": -76.99778566666667, "is_disabled": 0, "rental_uris": {"android": "https://dc.lft.to/lastmile_qr_scan", "ios": "https://dc.lft.to/lastmile_qr_scan"}, "bike_id": "aae242a5508462738a255887a12dab68", "fusion_lon": 0.0, "lat": 38.844280833333336}, {"type": "electric_scooter", "name": "be602f9585e2eca6df4895d55904cd30", "is_reserved": 0, "fusion_lat": 0.0, "lon": -77.0354455, "is_disabled": 0, "rental_uris": {"android": "https://dc.lft.to/lastmile_qr_scan", "ios": "https://dc.lft.to/lastmile_qr_scan"}, "bike_id": "be602f9585e2eca6df4895d55904cd30", "fusion_lon": 0.0, "lat": 38.923112833333334}, {"type": "electric_scooter", "name": "d564ad22712d3fa674bd0edd34427641", "is_reserved": 0, "fusion_lat": 0.0, "lon": -77.02464466666666, "is_disabled": 0, "rental_uris": {"android": "https://dc.lft.to/lastmile_qr_scan", "ios": "https://dc.lft.to/lastmile_qr_scan"}, "bike_id": "d564ad22712d3fa674bd0edd34427641", "fusion_lon": 0.0, "lat": 38.91887783333333}, {"type": "electric_scooter", "name": "2108db516c048bc64c88bb3027c0dd06", "is_reserved": 0, "fusion_lat": 0.0, "lon": -77.05316383333333, "is_disabled": 0, "rental_uris": {"android": "https://dc.lft.to/lastmile_qr_scan", "ios": "https://dc.lft.to/lastmile_qr_scan"}, "bike_id": "2108db516c048bc64c88bb3027c0dd06", "fusion_lon": 0.0, "lat": 38.92659666666667}, {"type": "electric_scooter", "name": "1cc4d74e8a5c6e72873cc4c1b4d26412", "is_reserved": 0, "fusion_lat": 0.0, "lon": -76.9994635, "is_disabled": 0, "rental_uris": {"android": "https://dc.lft.to/lastmile_qr_scan", "ios": "https://dc.lft.to/lastmile_qr_scan"}, "bike_id": "1cc4d74e8a5c6e72873cc4c1b4d26412", "fusion_lon": 0.0, "lat": 38.8429345}, {"type": "electric_scooter", "name": "b246ec37cc673a967a32fbf6618e45f9", "is_reserved": 0, "fusion_lat": 0.0, "lon": -76.99390583333333, "is_disabled": 0, "rental_uris": {"android": "https://dc.lft.to/lastmile_qr_scan", "ios": "https://dc.lft.to/lastmile_qr_scan"}, "bike_id": "b246ec37cc673a967a32fbf6618e45f9", "fusion_lon": 0.0, "lat": 38.89730333333333}, {"type": "electric_scooter", "name": "48b6860fe4b5014dfaa5ec7402f9bb1e", "is_reserved": 0, "fusion_lat": 0.0, "lon": -77.03264866666666, "is_disabled": 0, "rental_uris": {"android": "https://dc.lft.to/lastmile_qr_scan", "ios": "https://dc.lft.to/lastmile_qr_scan"}, "bike_id": "48b6860fe4b5014dfaa5ec7402f9bb1e", "fusion_lon": 0.0, "lat": 38.93363766666667}, {"type": "electric_scooter", "name": "3418f03b770601f3c7a357d22fbeb72b", "is_reserved": 0, "fusion_lat": 0.0, "lon": -77.03762633333334, "is_disabled": 0, "rental_uris": {"android": "https://dc.lft.to/lastmile_qr_scan", "ios": "https://dc.lft.to/lastmile_qr_scan"}, "bike_id": "3418f03b770601f3c7a357d22fbeb72b", "fusion_lon": 0.0, "lat": 38.916941333333334}, {"type": "electric_bike", "name": "ace5424248a4d10785f004fb1251c8e8", "is_reserved": 0, "fusion_lat": 0.0, "lon": -77.10331066666667, "is_disabled": 0, "rental_uris": {"android": "https://dc.lft.to/lastmile_qr_scan", "ios": "https://dc.lft.to/lastmile_qr_scan"}, "bike_id": "ace5424248a4d10785f004fb1251c8e8", "fusion_lon": 0.0, "lat": 38.8741875}, {"type": "electric_scooter", "name": "7285924c7d405155af24cb4800584ce5", "is_reserved": 0, "fusion_lat": 0.0, "lon": -76.97663183333333, "is_disabled": 0, "rental_uris": {"android": "https://dc.lft.to/lastmile_qr_scan", "ios": "https://dc.lft.to/lastmile_qr_scan"}, "bike_id": "7285924c7d405155af24cb4800584ce5", "fusion_lon": 0.0, "lat": 38.89856}, {"type": "electric_scooter", "name": "7763191f8f87eebb54fa4a097ff758e8", "is_reserved": 0, "fusion_lat": 0.0, "lon": -76.9373115, "is_disabled": 0, "rental_uris": {"android": "https://dc.lft.to/lastmile_qr_scan", "ios": "https://dc.lft.to/lastmile_qr_scan"}, "bike_id": "7763191f8f87eebb54fa4a097ff758e8", "fusion_lon": 0.0, "lat": 38.89013766666667}, {"type": "electric_scooter", "name": "3d7ffad3b1c500da1a6de2f81ca3a593", "is_reserved": 0, "fusion_lat": 0.0, "lon": -77.03080383333334, "is_disabled": 0, "rental_uris": {"android": "https://dc.lft.to/lastmile_qr_scan", "ios": "https://dc.lft.to/lastmile_qr_scan"}, "bike_id": "3d7ffad3b1c500da1a6de2f81ca3a593", "fusion_lon": 0.0, "lat": 38.9175055}, {"type": "electric_scooter", "name": "a4248f54028610789b9dde89a676e9a3", "is_reserved": 0, "fusion_lat": 0.0, "lon": -77.03194333333333, "is_disabled": 0, "rental_uris": {"android": "https://dc.lft.to/lastmile_qr_scan", "ios": "https://dc.lft.to/lastmile_qr_scan"}, "bike_id": "a4248f54028610789b9dde89a676e9a3", "fusion_lon": 0.0, "lat": 38.918055}, {"type": "electric_scooter", "name": "3f10f5c082cdea4d51db5d2f0ecc3fdd", "is_reserved": 0, "fusion_lat": 0.0, "lon": -77.0215385, "is_disabled": 0, "rental_uris": {"android": "https://dc.lft.to/lastmile_qr_scan", "ios": "https://dc.lft.to/lastmile_qr_scan"}, "bike_id": "3f10f5c082cdea4d51db5d2f0ecc3fdd", "fusion_lon": 0.0, "lat": 38.8974595}, {"type": "electric_scooter", "name": "851976a2f9738c4958dbcdafb00b66fa", "is_reserved": 0, "fusion_lat": 0.0, "lon": -77.030963, "is_disabled": 0, "rental_uris": {"android": "https://dc.lft.to/lastmile_qr_scan", "ios": "https://dc.lft.to/lastmile_qr_scan"}, "bike_id": "851976a2f9738c4958dbcdafb00b66fa", "fusion_lon": 0.0, "lat": 38.910582}, {"type": "electric_scooter", "name": "5360a8e62f6cf2632ef75b8983f754f7", "is_reserved": 0, "fusion_lat": 0.0, "lon": -77.01607866666667, "is_disabled": 0, "rental_uris": {"android": "https://dc.lft.to/lastmile_qr_scan", "ios": "https://dc.lft.to/lastmile_qr_scan"}, "bike_id": "5360a8e62f6cf2632ef75b8983f754f7", "fusion_lon": 0.0, "lat": 38.8951}, {"type": "electric_scooter", "name": "f764cc4cfeb198cbeabb830526b79f05", "is_reserved": 0, "fusion_lat": 0.0, "lon": -77.034067, "is_disabled": 0, "rental_uris": {"android": "https://dc.lft.to/lastmile_qr_scan", "ios": "https://dc.lft.to/lastmile_qr_scan"}, "bike_id": "f764cc4cfeb198cbeabb830526b79f05", "fusion_lon": 0.0, "lat": 38.923121333333334}, {"type": "electric_scooter", "name": "87e1a7ba72aff6bc89c899a0e339ef9d", "is_reserved": 0, "fusion_lat": 0.0, "lon": -77.0016845, "is_disabled": 0, "rental_uris": {"android": "https://dc.lft.to/lastmile_qr_scan", "ios": "https://dc.lft.to/lastmile_qr_scan"}, "bike_id": "87e1a7ba72aff6bc89c899a0e339ef9d", "fusion_lon": 0.0, "lat": 38.87631016666667}, {"type": "electric_scooter", "name": "0d0b9897b72edc05f851b7e5f0464d6b", "is_reserved": 0, "fusion_lat": 0.0, "lon": -77.0150485, "is_disabled": 0, "rental_uris": {"android": "https://dc.lft.to/lastmile_qr_scan", "ios": "https://dc.lft.to/lastmile_qr_scan"}, "bike_id": "0d0b9897b72edc05f851b7e5f0464d6b", "fusion_lon": 0.0, "lat": 38.89299916666667}, {"type": "electric_scooter", "name": "a665d5a64d6bff0b5552ce5feabd95f0", "is_reserved": 0, "fusion_lat": 0.0, "lon": -77.00493933333334, "is_disabled": 0, "rental_uris": {"android": "https://dc.lft.to/lastmile_qr_scan", "ios": "https://dc.lft.to/lastmile_qr_scan"}, "bike_id": "a665d5a64d6bff0b5552ce5feabd95f0", "fusion_lon": 0.0, "lat": 38.897082833333336}, {"type": "electric_scooter", "name": "c33b80a2108c4d8dce5626373c9c1bc1", "is_reserved": 0, "fusion_lat": 0.0, "lon": -77.00914783333333, "is_disabled": 0, "rental_uris": {"android": "https://dc.lft.to/lastmile_qr_scan", "ios": "https://dc.lft.to/lastmile_qr_scan"}, "bike_id": "c33b80a2108c4d8dce5626373c9c1bc1", "fusion_lon": 0.0, "lat": 38.901881833333334}, {"type": "electric_scooter", "name": "1bedcb6e23a52687c842b6d6ee39a2b8", "is_reserved": 0, "fusion_lat": 0.0, "lon": -77.033628, "is_disabled": 0, "rental_uris": {"android": "https://dc.lft.to/lastmile_qr_scan", "ios": "https://dc.lft.to/lastmile_qr_scan"}, "bike_id": "1bedcb6e23a52687c842b6d6ee39a2b8", "fusion_lon": 0.0, "lat": 38.897386166666664}, {"type": "electric_scooter", "name": "a640961333f01fd67aeb8f8691e0d579", "is_reserved": 0, "fusion_lat": 0.0, "lon": -77.01281433333334, "is_disabled": 0, "rental_uris": {"android": "https://dc.lft.to/lastmile_qr_scan", "ios": "https://dc.lft.to/lastmile_qr_scan"}, "bike_id": "a640961333f01fd67aeb8f8691e0d579", "fusion_lon": 0.0, "lat": 38.897443333333335}, {"type": "electric_scooter", "name": "6ef0b6584c17f92f4efc2a81814218d8", "is_reserved": 0, "fusion_lat": 0.0, "lon": -76.99628083333333, "is_disabled": 0, "rental_uris": {"android": "https://dc.lft.to/lastmile_qr_scan", "ios": "https://dc.lft.to/lastmile_qr_scan"}, "bike_id": "6ef0b6584c17f92f4efc2a81814218d8", "fusion_lon": 0.0, "lat": 38.885546166666664}, {"type": "electric_scooter", "name": "5294f518fe125a0ca05540e98aee5b19", "is_reserved": 0, "fusion_lat": 0.0, "lon": -76.956611, "is_disabled": 0, "rental_uris": {"android": "https://dc.lft.to/lastmile_qr_scan", "ios": "https://dc.lft.to/lastmile_qr_scan"}, "bike_id": "5294f518fe125a0ca05540e98aee5b19", "fusion_lon": 0.0, "lat": 38.894112666666665}, {"type": "electric_bike", "name": "f72e6421088d01589786f99bec84e1b9", "is_reserved": 0, "fusion_lat": 0.0, "lon": -76.9482165, "is_disabled": 0, "rental_uris": {"android": "https://dc.lft.to/lastmile_qr_scan", "ios": "https://dc.lft.to/lastmile_qr_scan"}, "bike_id": "f72e6421088d01589786f99bec84e1b9", "fusion_lon": 0.0, "lat": 38.893808}, {"type": "electric_scooter", "name": "1beaca147d39a4c46cc52d63b7998953", "is_reserved": 0, "fusion_lat": 0.0, "lon": -76.99520583333333, "is_disabled": 0, "rental_uris": {"android": "https://dc.lft.to/lastmile_qr_scan", "ios": "https://dc.lft.to/lastmile_qr_scan"}, "bike_id": "1beaca147d39a4c46cc52d63b7998953", "fusion_lon": 0.0, "lat": 38.89544433333333}, {"type": "electric_scooter", "name": "aae482ed57dff542e0ced8940ab6c768", "is_reserved": 0, "fusion_lat": 0.0, "lon": -77.03200483333333, "is_disabled": 0, "rental_uris": {"android": "https://dc.lft.to/lastmile_qr_scan", "ios": "https://dc.lft.to/lastmile_qr_scan"}, "bike_id": "aae482ed57dff542e0ced8940ab6c768", "fusion_lon": 0.0, "lat": 38.91347616666667}, {"type": "electric_scooter", "name": "62b094da1617aa5a183ebb7c3fb39c0f", "is_reserved": 0, "fusion_lat": 0.0, "lon": -76.9677585, "is_disabled": 0, "rental_uris": {"android": "https://dc.lft.to/lastmile_qr_scan", "ios": "https://dc.lft.to/lastmile_qr_scan"}, "bike_id": "62b094da1617aa5a183ebb7c3fb39c0f", "fusion_lon": 0.0, "lat": 38.859251666666665}, {"type": "electric_scooter", "name": "8ff8d1ed44f3e5c6caa9faaa831e494c", "is_reserved": 0, "fusion_lat": 0.0, "lon": -77.0180235, "is_disabled": 0, "rental_uris": {"android": "https://dc.lft.to/lastmile_qr_scan", "ios": "https://dc.lft.to/lastmile_qr_scan"}, "bike_id": "8ff8d1ed44f3e5c6caa9faaa831e494c", "fusion_lon": 0.0, "lat": 38.876724}, {"type": "electric_scooter", "name": "a70e3563c2c5c1a3fbdc8f67c64711c7", "is_reserved": 0, "fusion_lat": 0.0, "lon": -77.07236833333333, "is_disabled": 0, "rental_uris": {"android": "https://dc.lft.to/lastmile_qr_scan", "ios": "https://dc.lft.to/lastmile_qr_scan"}, "bike_id": "a70e3563c2c5c1a3fbdc8f67c64711c7", "fusion_lon": 0.0, "lat": 38.940059833333336}, {"type": "electric_scooter", "name": "9a3809a4988ccac59be0cc170591c2ce", "is_reserved": 0, "fusion_lat": 0.0, "lon": -77.02814566666666, "is_disabled": 0, "rental_uris": {"android": "https://dc.lft.to/lastmile_qr_scan", "ios": "https://dc.lft.to/lastmile_qr_scan"}, "bike_id": "9a3809a4988ccac59be0cc170591c2ce", "fusion_lon": 0.0, "lat": 38.96081783333333}, {"type": "electric_scooter", "name": "94c560a5ef15561f3eb15ce17bf17c11", "is_reserved": 0, "fusion_lat": 0.0, "lon": -76.983806, "is_disabled": 0, "rental_uris": {"android": "https://dc.lft.to/lastmile_qr_scan", "ios": "https://dc.lft.to/lastmile_qr_scan"}, "bike_id": "94c560a5ef15561f3eb15ce17bf17c11", "fusion_lon": 0.0, "lat": 38.8612505}, {"type": "electric_scooter", "name": "0686350ac02a7599acea7de87fcb0410", "is_reserved": 0, "fusion_lat": 0.0, "lon": -76.937548, "is_disabled": 0, "rental_uris": {"android": "https://dc.lft.to/lastmile_qr_scan", "ios": "https://dc.lft.to/lastmile_qr_scan"}, "bike_id": "0686350ac02a7599acea7de87fcb0410", "fusion_lon": 0.0, "lat": 38.8904795}, {"type": "electric_scooter", "name": "1bbb98066cc993c566bc8c8bb4990045", "is_reserved": 0, "fusion_lat": 0.0, "lon": -77.026981, "is_disabled": 0, "rental_uris": {"android": "https://dc.lft.to/lastmile_qr_scan", "ios": "https://dc.lft.to/lastmile_qr_scan"}, "bike_id": "1bbb98066cc993c566bc8c8bb4990045", "fusion_lon": 0.0, "lat": 38.906641}, {"type": "electric_scooter", "name": "b1dd0152299f307ccf74e08622b460cc", "is_reserved": 0, "fusion_lat": 0.0, "lon": -77.07072883333333, "is_disabled": 0, "rental_uris": {"android": "https://dc.lft.to/lastmile_qr_scan", "ios": "https://dc.lft.to/lastmile_qr_scan"}, "bike_id": "b1dd0152299f307ccf74e08622b460cc", "fusion_lon": 0.0, "lat": 38.93169133333333}, {"type": "electric_scooter", "name": "92d19c282455344bfeff3180a4e114d1", "is_reserved": 0, "fusion_lat": 0.0, "lon": -77.03180466666667, "is_disabled": 0, "rental_uris": {"android": "https://dc.lft.to/lastmile_qr_scan", "ios": "https://dc.lft.to/lastmile_qr_scan"}, "bike_id": "92d19c282455344bfeff3180a4e114d1", "fusion_lon": 0.0, "lat": 38.9104565}, {"type": "electric_scooter", "name": "2ac3c8f0c6192b1c47d5f0199ab23794", "is_reserved": 0, "fusion_lat": 0.0, "lon": -77.0180115, "is_disabled": 0, "rental_uris": {"android": "https://dc.lft.to/lastmile_qr_scan", "ios": "https://dc.lft.to/lastmile_qr_scan"}, "bike_id": "2ac3c8f0c6192b1c47d5f0199ab23794", "fusion_lon": 0.0, "lat": 38.902553166666664}, {"type": "electric_scooter", "name": "df081b661d58c11a790d3bba1e1fec09", "is_reserved": 0, "fusion_lat": 0.0, "lon": -77.024939, "is_disabled": 0, "rental_uris": {"android": "https://dc.lft.to/lastmile_qr_scan", "ios": "https://dc.lft.to/lastmile_qr_scan"}, "bike_id": "df081b661d58c11a790d3bba1e1fec09", "fusion_lon": 0.0, "lat": 38.91807166666667}, {"type": "electric_scooter", "name": "a81f8cecff80e53248bb51b9ec027116", "is_reserved": 0, "fusion_lat": 0.0, "lon": -77.04333516666667, "is_disabled": 0, "rental_uris": {"android": "https://dc.lft.to/lastmile_qr_scan", "ios": "https://dc.lft.to/lastmile_qr_scan"}, "bike_id": "a81f8cecff80e53248bb51b9ec027116", "fusion_lon": 0.0, "lat": 38.89792216666667}, {"type": "electric_scooter", "name": "3232416d77df51599c43f8fc8feb053a", "is_reserved": 0, "fusion_lat": 0.0, "lon": -77.00969616666667, "is_disabled": 0, "rental_uris": {"android": "https://dc.lft.to/lastmile_qr_scan", "ios": "https://dc.lft.to/lastmile_qr_scan"}, "bike_id": "3232416d77df51599c43f8fc8feb053a", "fusion_lon": 0.0, "lat": 38.91412033333334}, {"type": "electric_scooter", "name": "9a353e0c0b773f579d50fc2e94c3b432", "is_reserved": 0, "fusion_lat": 0.0, "lon": -77.03639716666666, "is_disabled": 0, "rental_uris": {"android": "https://dc.lft.to/lastmile_qr_scan", "ios": "https://dc.lft.to/lastmile_qr_scan"}, "bike_id": "9a353e0c0b773f579d50fc2e94c3b432", "fusion_lon": 0.0, "lat": 38.902854166666664}, {"type": "electric_scooter", "name": "3cbbf2663b6940c9a0f3b5732b932a6a", "is_reserved": 0, "fusion_lat": 0.0, "lon": -77.01769833333333, "is_disabled": 0, "rental_uris": {"android": "https://dc.lft.to/lastmile_qr_scan", "ios": "https://dc.lft.to/lastmile_qr_scan"}, "bike_id": "3cbbf2663b6940c9a0f3b5732b932a6a", "fusion_lon": 0.0, "lat": 38.8827255}, {"type": "electric_scooter", "name": "47e66e405044f2d9eb68371dccb80268", "is_reserved": 0, "fusion_lat": 0.0, "lon": -76.99839433333334, "is_disabled": 0, "rental_uris": {"android": "https://dc.lft.to/lastmile_qr_scan", "ios": "https://dc.lft.to/lastmile_qr_scan"}, "bike_id": "47e66e405044f2d9eb68371dccb80268", "fusion_lon": 0.0, "lat": 38.89082333333333}, {"type": "electric_scooter", "name": "1828c4ce49a07c1191e3f7919ac948f2", "is_reserved": 0, "fusion_lat": 0.0, "lon": -77.02773716666667, "is_disabled": 0, "rental_uris": {"android": "https://dc.lft.to/lastmile_qr_scan", "ios": "https://dc.lft.to/lastmile_qr_scan"}, "bike_id": "1828c4ce49a07c1191e3f7919ac948f2", "fusion_lon": 0.0, "lat": 38.939583}, {"type": "electric_scooter", "name": "f64808dc395232d8a194f9f545704e52", "is_reserved": 0, "fusion_lat": 0.0, "lon": -77.03374283333333, "is_disabled": 0, "rental_uris": {"android": "https://dc.lft.to/lastmile_qr_scan", "ios": "https://dc.lft.to/lastmile_qr_scan"}, "bike_id": "f64808dc395232d8a194f9f545704e52", "fusion_lon": 0.0, "lat": 38.903889666666664}, {"type": "electric_scooter", "name": "7edb918543031108991369e80b74aa65", "is_reserved": 0, "fusion_lat": 0.0, "lon": -77.03845416666667, "is_disabled": 0, "rental_uris": {"android": "https://dc.lft.to/lastmile_qr_scan", "ios": "https://dc.lft.to/lastmile_qr_scan"}, "bike_id": "7edb918543031108991369e80b74aa65", "fusion_lon": 0.0, "lat": 38.90723466666667}, {"type": "electric_scooter", "name": "5512b11474ac64f7e395373ac171914f", "is_reserved": 0, "fusion_lat": 0.0, "lon": -77.03931, "is_disabled": 0, "rental_uris": {"android": "https://dc.lft.to/lastmile_qr_scan", "ios": "https://dc.lft.to/lastmile_qr_scan"}, "bike_id": "5512b11474ac64f7e395373ac171914f", "fusion_lon": 0.0, "lat": 38.92493316666667}, {"type": "electric_scooter", "name": "42b6edeaa56b5423cedcad5f2f203192", "is_reserved": 0, "fusion_lat": 0.0, "lon": -77.03187266666667, "is_disabled": 0, "rental_uris": {"android": "https://dc.lft.to/lastmile_qr_scan", "ios": "https://dc.lft.to/lastmile_qr_scan"}, "bike_id": "42b6edeaa56b5423cedcad5f2f203192", "fusion_lon": 0.0, "lat": 38.91803933333333}, {"type": "electric_scooter", "name": "d9badb28ed1c7486b22dd5b59ab5b4c7", "is_reserved": 0, "fusion_lat": 0.0, "lon": -77.03751633333333, "is_disabled": 0, "rental_uris": {"android": "https://dc.lft.to/lastmile_qr_scan", "ios": "https://dc.lft.to/lastmile_qr_scan"}, "bike_id": "d9badb28ed1c7486b22dd5b59ab5b4c7", "fusion_lon": 0.0, "lat": 38.90660116666667}, {"type": "electric_scooter", "name": "2c28e212fd43441de10eb3839812eac1", "is_reserved": 0, "fusion_lat": 0.0, "lon": -77.06105033333333, "is_disabled": 0, "rental_uris": {"android": "https://dc.lft.to/lastmile_qr_scan", "ios": "https://dc.lft.to/lastmile_qr_scan"}, "bike_id": "2c28e212fd43441de10eb3839812eac1", "fusion_lon": 0.0, "lat": 38.93707166666667}, {"type": "electric_bike", "name": "a8e28b39832b20175a19d97f4337e5c7", "is_reserved": 0, "fusion_lat": 0.0, "lon": -76.98477483333333, "is_disabled": 0, "rental_uris": {"android": "https://dc.lft.to/lastmile_qr_scan", "ios": "https://dc.lft.to/lastmile_qr_scan"}, "bike_id": "a8e28b39832b20175a19d97f4337e5c7", "fusion_lon": 0.0, "lat": 38.91099416666667}, {"type": "electric_scooter", "name": "0142ce4852dd29d387fdb235ac162432", "is_reserved": 0, "fusion_lat": 0.0, "lon": -77.0245115, "is_disabled": 0, "rental_uris": {"android": "https://dc.lft.to/lastmile_qr_scan", "ios": "https://dc.lft.to/lastmile_qr_scan"}, "bike_id": "0142ce4852dd29d387fdb235ac162432", "fusion_lon": 0.0, "lat": 38.92407516666667}, {"type": "electric_scooter", "name": "64ad93b0b3ffbe7786c5139ea522fd13", "is_reserved": 0, "fusion_lat": 0.0, "lon": -77.03229233333333, "is_disabled": 0, "rental_uris": {"android": "https://dc.lft.to/lastmile_qr_scan", "ios": "https://dc.lft.to/lastmile_qr_scan"}, "bike_id": "64ad93b0b3ffbe7786c5139ea522fd13", "fusion_lon": 0.0, "lat": 38.91408233333333}, {"type": "electric_scooter", "name": "4a663ee90a9d86064e7d1063da1be580", "is_reserved": 0, "fusion_lat": 0.0, "lon": -76.98268466666667, "is_disabled": 0, "rental_uris": {"android": "https://dc.lft.to/lastmile_qr_scan", "ios": "https://dc.lft.to/lastmile_qr_scan"}, "bike_id": "4a663ee90a9d86064e7d1063da1be580", "fusion_lon": 0.0, "lat": 38.88534283333333}, {"type": "electric_scooter", "name": "183f93bcf15358aec475a9921ee6d3c4", "is_reserved": 0, "fusion_lat": 0.0, "lon": -77.05037733333333, "is_disabled": 0, "rental_uris": {"android": "https://dc.lft.to/lastmile_qr_scan", "ios": "https://dc.lft.to/lastmile_qr_scan"}, "bike_id": "183f93bcf15358aec475a9921ee6d3c4", "fusion_lon": 0.0, "lat": 38.923571833333334}, {"type": "electric_scooter", "name": "9f2d5f1c0196bc4eca2b9c9acc7df6e9", "is_reserved": 0, "fusion_lat": 0.0, "lon": -77.0280885, "is_disabled": 0, "rental_uris": {"android": "https://dc.lft.to/lastmile_qr_scan", "ios": "https://dc.lft.to/lastmile_qr_scan"}, "bike_id": "9f2d5f1c0196bc4eca2b9c9acc7df6e9", "fusion_lon": 0.0, "lat": 38.904743}, {"type": "electric_bike", "name": "47999201affacee5b73707f4e819cef9", "is_reserved": 0, "fusion_lat": 0.0, "lon": -76.981205, "is_disabled": 0, "rental_uris": {"android": "https://dc.lft.to/lastmile_qr_scan", "ios": "https://dc.lft.to/lastmile_qr_scan"}, "bike_id": "47999201affacee5b73707f4e819cef9", "fusion_lon": 0.0, "lat": 38.9146475}, {"type": "electric_scooter", "name": "92ab4ec0fe2f73aa304398ef62afe4d2", "is_reserved": 0, "fusion_lat": 0.0, "lon": -77.04443383333333, "is_disabled": 0, "rental_uris": {"android": "https://dc.lft.to/lastmile_qr_scan", "ios": "https://dc.lft.to/lastmile_qr_scan"}, "bike_id": "92ab4ec0fe2f73aa304398ef62afe4d2", "fusion_lon": 0.0, "lat": 38.911062}, {"type": "electric_bike", "name": "e342039709b3f928d52dd030e3b61e9e", "is_reserved": 0, "fusion_lat": 0.0, "lon": -77.2332125, "is_disabled": 0, "rental_uris": {"android": "https://dc.lft.to/lastmile_qr_scan", "ios": "https://dc.lft.to/lastmile_qr_scan"}, "bike_id": "e342039709b3f928d52dd030e3b61e9e", "fusion_lon": 0.0, "lat": 38.87287283333333}, {"type": "electric_scooter", "name": "19a0c565b18ea9cecce60b192fb1baba", "is_reserved": 0, "fusion_lat": 0.0, "lon": -77.02794983333334, "is_disabled": 0, "rental_uris": {"android": "https://dc.lft.to/lastmile_qr_scan", "ios": "https://dc.lft.to/lastmile_qr_scan"}, "bike_id": "19a0c565b18ea9cecce60b192fb1baba", "fusion_lon": 0.0, "lat": 38.91217316666667}, {"type": "electric_scooter", "name": "637eaeaf6b0582179355a4e572e5df4d", "is_reserved": 0, "fusion_lat": 0.0, "lon": -77.04325833333333, "is_disabled": 0, "rental_uris": {"android": "https://dc.lft.to/lastmile_qr_scan", "ios": "https://dc.lft.to/lastmile_qr_scan"}, "bike_id": "637eaeaf6b0582179355a4e572e5df4d", "fusion_lon": 0.0, "lat": 38.89226166666667}, {"type": "electric_scooter", "name": "84e82dd82ca9791d7105a3bcceec2169", "is_reserved": 0, "fusion_lat": 0.0, "lon": -77.03647383333333, "is_disabled": 0, "rental_uris": {"android": "https://dc.lft.to/lastmile_qr_scan", "ios": "https://dc.lft.to/lastmile_qr_scan"}, "bike_id": "84e82dd82ca9791d7105a3bcceec2169", "fusion_lon": 0.0, "lat": 38.91787333333333}, {"type": "electric_scooter", "name": "a502d033e6db9208d7370752d7f9c5de", "is_reserved": 0, "fusion_lat": 0.0, "lon": -76.98531316666667, "is_disabled": 0, "rental_uris": {"android": "https://dc.lft.to/lastmile_qr_scan", "ios": "https://dc.lft.to/lastmile_qr_scan"}, "bike_id": "a502d033e6db9208d7370752d7f9c5de", "fusion_lon": 0.0, "lat": 38.853631666666665}, {"type": "electric_bike", "name": "45869f6e07aea45478b3c03a2583048a", "is_reserved": 0, "fusion_lat": 0.0, "lon": -76.98389333333333, "is_disabled": 0, "rental_uris": {"android": "https://dc.lft.to/lastmile_qr_scan", "ios": "https://dc.lft.to/lastmile_qr_scan"}, "bike_id": "45869f6e07aea45478b3c03a2583048a", "fusion_lon": 0.0, "lat": 38.91315383333333}, {"type": "electric_scooter", "name": "a10f6d1e102eca9cd6b3603b11d63bdc", "is_reserved": 0, "fusion_lat": 0.0, "lon": -76.93754983333334, "is_disabled": 0, "rental_uris": {"android": "https://dc.lft.to/lastmile_qr_scan", "ios": "https://dc.lft.to/lastmile_qr_scan"}, "bike_id": "a10f6d1e102eca9cd6b3603b11d63bdc", "fusion_lon": 0.0, "lat": 38.8904425}, {"type": "electric_scooter", "name": "bffac5e2846e9c840b89207775e59d17", "is_reserved": 0, "fusion_lat": 0.0, "lon": -77.04480333333333, "is_disabled": 0, "rental_uris": {"android": "https://dc.lft.to/lastmile_qr_scan", "ios": "https://dc.lft.to/lastmile_qr_scan"}, "bike_id": "bffac5e2846e9c840b89207775e59d17", "fusion_lon": 0.0, "lat": 38.92423316666667}, {"type": "electric_scooter", "name": "83f9d54b6db80fb9e7f7b5b0e0312515", "is_reserved": 0, "fusion_lat": 0.0, "lon": -77.04703616666667, "is_disabled": 0, "rental_uris": {"android": "https://dc.lft.to/lastmile_qr_scan", "ios": "https://dc.lft.to/lastmile_qr_scan"}, "bike_id": "83f9d54b6db80fb9e7f7b5b0e0312515", "fusion_lon": 0.0, "lat": 38.905907166666665}, {"type": "electric_scooter", "name": "2740a22da7adbfd327cccf6449a40bab", "is_reserved": 0, "fusion_lat": 0.0, "lon": -77.03128916666667, "is_disabled": 0, "rental_uris": {"android": "https://dc.lft.to/lastmile_qr_scan", "ios": "https://dc.lft.to/lastmile_qr_scan"}, "bike_id": "2740a22da7adbfd327cccf6449a40bab", "fusion_lon": 0.0, "lat": 38.91694733333333}, {"type": "electric_scooter", "name": "f5d4da28a000d07f3c460b874c50f97e", "is_reserved": 0, "fusion_lat": 0.0, "lon": -77.04309266666667, "is_disabled": 0, "rental_uris": {"android": "https://dc.lft.to/lastmile_qr_scan", "ios": "https://dc.lft.to/lastmile_qr_scan"}, "bike_id": "f5d4da28a000d07f3c460b874c50f97e", "fusion_lon": 0.0, "lat": 38.918821}, {"type": "electric_scooter", "name": "0fc2fffcea4ac5624279eeca4cc0df70", "is_reserved": 0, "fusion_lat": 0.0, "lon": -77.03247066666667, "is_disabled": 0, "rental_uris": {"android": "https://dc.lft.to/lastmile_qr_scan", "ios": "https://dc.lft.to/lastmile_qr_scan"}, "bike_id": "0fc2fffcea4ac5624279eeca4cc0df70", "fusion_lon": 0.0, "lat": 38.961625166666664}, {"type": "electric_scooter", "name": "f18d24eb8d7d9d1cc5e764c4b12f3898", "is_reserved": 0, "fusion_lat": 0.0, "lon": -77.0550455, "is_disabled": 0, "rental_uris": {"android": "https://dc.lft.to/lastmile_qr_scan", "ios": "https://dc.lft.to/lastmile_qr_scan"}, "bike_id": "f18d24eb8d7d9d1cc5e764c4b12f3898", "fusion_lon": 0.0, "lat": 38.92972666666667}, {"type": "electric_scooter", "name": "bdc149a9b7cdb8da67cfee0accb58364", "is_reserved": 0, "fusion_lat": 0.0, "lon": -77.041794, "is_disabled": 0, "rental_uris": {"android": "https://dc.lft.to/lastmile_qr_scan", "ios": "https://dc.lft.to/lastmile_qr_scan"}, "bike_id": "bdc149a9b7cdb8da67cfee0accb58364", "fusion_lon": 0.0, "lat": 38.91822333333333}, {"type": "electric_scooter", "name": "5929c7f869898ef09f650be2e6848655", "is_reserved": 0, "fusion_lat": 0.0, "lon": -77.02167116666666, "is_disabled": 0, "rental_uris": {"android": "https://dc.lft.to/lastmile_qr_scan", "ios": "https://dc.lft.to/lastmile_qr_scan"}, "bike_id": "5929c7f869898ef09f650be2e6848655", "fusion_lon": 0.0, "lat": 38.88326766666667}, {"type": "electric_scooter", "name": "54f60b0c025605a727b16b261ec08ac5", "is_reserved": 0, "fusion_lat": 0.0, "lon": -77.05499966666666, "is_disabled": 0, "rental_uris": {"android": "https://dc.lft.to/lastmile_qr_scan", "ios": "https://dc.lft.to/lastmile_qr_scan"}, "bike_id": "54f60b0c025605a727b16b261ec08ac5", "fusion_lon": 0.0, "lat": 38.9297855}, {"type": "electric_scooter", "name": "c4e57bf609c521264ac53546d5abec11", "is_reserved": 0, "fusion_lat": 0.0, "lon": -77.02134066666666, "is_disabled": 0, "rental_uris": {"android": "https://dc.lft.to/lastmile_qr_scan", "ios": "https://dc.lft.to/lastmile_qr_scan"}, "bike_id": "c4e57bf609c521264ac53546d5abec11", "fusion_lon": 0.0, "lat": 38.92417366666667}, {"type": "electric_scooter", "name": "d3dc68711e4977f4dac42e836b130645", "is_reserved": 0, "fusion_lat": 0.0, "lon": -77.0116205, "is_disabled": 0, "rental_uris": {"android": "https://dc.lft.to/lastmile_qr_scan", "ios": "https://dc.lft.to/lastmile_qr_scan"}, "bike_id": "d3dc68711e4977f4dac42e836b130645", "fusion_lon": 0.0, "lat": 38.900241333333334}, {"type": "electric_scooter", "name": "fda470228945a8b94462068b0ac94043", "is_reserved": 0, "fusion_lat": 0.0, "lon": -77.02204266666666, "is_disabled": 0, "rental_uris": {"android": "https://dc.lft.to/lastmile_qr_scan", "ios": "https://dc.lft.to/lastmile_qr_scan"}, "bike_id": "fda470228945a8b94462068b0ac94043", "fusion_lon": 0.0, "lat": 38.88720383333333}, {"type": "electric_scooter", "name": "0f5aa4a4e902b5d015918ca0577bda72", "is_reserved": 0, "fusion_lat": 0.0, "lon": -77.01316783333333, "is_disabled": 0, "rental_uris": {"android": "https://dc.lft.to/lastmile_qr_scan", "ios": "https://dc.lft.to/lastmile_qr_scan"}, "bike_id": "0f5aa4a4e902b5d015918ca0577bda72", "fusion_lon": 0.0, "lat": 38.901846}, {"type": "electric_scooter", "name": "84e1318bdd03707507577a269b8f2302", "is_reserved": 0, "fusion_lat": 0.0, "lon": -77.06332233333333, "is_disabled": 0, "rental_uris": {"android": "https://dc.lft.to/lastmile_qr_scan", "ios": "https://dc.lft.to/lastmile_qr_scan"}, "bike_id": "84e1318bdd03707507577a269b8f2302", "fusion_lon": 0.0, "lat": 38.90768816666667}, {"type": "electric_scooter", "name": "8a6b720909493bb8ef9c2813e09ba7a5", "is_reserved": 0, "fusion_lat": 0.0, "lon": -77.02974566666667, "is_disabled": 0, "rental_uris": {"android": "https://dc.lft.to/lastmile_qr_scan", "ios": "https://dc.lft.to/lastmile_qr_scan"}, "bike_id": "8a6b720909493bb8ef9c2813e09ba7a5", "fusion_lon": 0.0, "lat": 38.91675983333333}, {"type": "electric_scooter", "name": "fa10ccb7371d13527315099d210e2d63", "is_reserved": 0, "fusion_lat": 0.0, "lon": -77.02746116666667, "is_disabled": 0, "rental_uris": {"android": "https://dc.lft.to/lastmile_qr_scan", "ios": "https://dc.lft.to/lastmile_qr_scan"}, "bike_id": "fa10ccb7371d13527315099d210e2d63", "fusion_lon": 0.0, "lat": 38.93578816666667}, {"type": "electric_scooter", "name": "b4176cfbaf89f95a4f86673aebfaf891", "is_reserved": 0, "fusion_lat": 0.0, "lon": -77.02959916666667, "is_disabled": 0, "rental_uris": {"android": "https://dc.lft.to/lastmile_qr_scan", "ios": "https://dc.lft.to/lastmile_qr_scan"}, "bike_id": "b4176cfbaf89f95a4f86673aebfaf891", "fusion_lon": 0.0, "lat": 38.916934166666664}, {"type": "electric_scooter", "name": "b31cfd9e98cdfacd255d446d54a1a0d5", "is_reserved": 0, "fusion_lat": 0.0, "lon": -76.99736333333334, "is_disabled": 0, "rental_uris": {"android": "https://dc.lft.to/lastmile_qr_scan", "ios": "https://dc.lft.to/lastmile_qr_scan"}, "bike_id": "b31cfd9e98cdfacd255d446d54a1a0d5", "fusion_lon": 0.0, "lat": 38.90131566666667}, {"type": "electric_bike", "name": "ee78888b5879f5253e288e5bc20d928a", "is_reserved": 0, "fusion_lat": 0.0, "lon": -77.008914, "is_disabled": 0, "rental_uris": {"android": "https://dc.lft.to/lastmile_qr_scan", "ios": "https://dc.lft.to/lastmile_qr_scan"}, "bike_id": "ee78888b5879f5253e288e5bc20d928a", "fusion_lon": 0.0, "lat": 38.89929933333333}, {"type": "electric_scooter", "name": "d3249a7b76ee96be9f0616fb3494e3cc", "is_reserved": 0, "fusion_lat": 0.0, "lon": -77.05439166666666, "is_disabled": 0, "rental_uris": {"android": "https://dc.lft.to/lastmile_qr_scan", "ios": "https://dc.lft.to/lastmile_qr_scan"}, "bike_id": "d3249a7b76ee96be9f0616fb3494e3cc", "fusion_lon": 0.0, "lat": 38.928262333333336}, {"type": "electric_scooter", "name": "11bb669d6d5fe7de0accf48c8d023dda", "is_reserved": 0, "fusion_lat": 0.0, "lon": -77.03318833333333, "is_disabled": 0, "rental_uris": {"android": "https://dc.lft.to/lastmile_qr_scan", "ios": "https://dc.lft.to/lastmile_qr_scan"}, "bike_id": "11bb669d6d5fe7de0accf48c8d023dda", "fusion_lon": 0.0, "lat": 38.92155366666667}, {"type": "electric_scooter", "name": "059879b9ec2036e4bd6fe34d55b0e7d3", "is_reserved": 0, "fusion_lat": 0.0, "lon": -77.02766933333334, "is_disabled": 0, "rental_uris": {"android": "https://dc.lft.to/lastmile_qr_scan", "ios": "https://dc.lft.to/lastmile_qr_scan"}, "bike_id": "059879b9ec2036e4bd6fe34d55b0e7d3", "fusion_lon": 0.0, "lat": 38.954216}, {"type": "electric_scooter", "name": "644539986d5f49552064e0a7e87f189a", "is_reserved": 0, "fusion_lat": 0.0, "lon": -77.05345233333334, "is_disabled": 0, "rental_uris": {"android": "https://dc.lft.to/lastmile_qr_scan", "ios": "https://dc.lft.to/lastmile_qr_scan"}, "bike_id": "644539986d5f49552064e0a7e87f189a", "fusion_lon": 0.0, "lat": 38.92358016666667}, {"type": "electric_scooter", "name": "4c70d7ec70cd00a07f221a0b7cf5011c", "is_reserved": 0, "fusion_lat": 0.0, "lon": -77.0327995, "is_disabled": 0, "rental_uris": {"android": "https://dc.lft.to/lastmile_qr_scan", "ios": "https://dc.lft.to/lastmile_qr_scan"}, "bike_id": "4c70d7ec70cd00a07f221a0b7cf5011c", "fusion_lon": 0.0, "lat": 38.93669716666667}, {"type": "electric_scooter", "name": "36ea587f8fc44717c5fc15a716bd3190", "is_reserved": 0, "fusion_lat": 0.0, "lon": -77.0320855, "is_disabled": 0, "rental_uris": {"android": "https://dc.lft.to/lastmile_qr_scan", "ios": "https://dc.lft.to/lastmile_qr_scan"}, "bike_id": "36ea587f8fc44717c5fc15a716bd3190", "fusion_lon": 0.0, "lat": 38.919088}, {"type": "electric_scooter", "name": "2ed54107fa0faad6f7a6fd5322b664f7", "is_reserved": 0, "fusion_lat": 0.0, "lon": -76.987009, "is_disabled": 0, "rental_uris": {"android": "https://dc.lft.to/lastmile_qr_scan", "ios": "https://dc.lft.to/lastmile_qr_scan"}, "bike_id": "2ed54107fa0faad6f7a6fd5322b664f7", "fusion_lon": 0.0, "lat": 38.86255166666667}, {"type": "electric_scooter", "name": "364ea2d640e6449f64891bebe0f94070", "is_reserved": 0, "fusion_lat": 0.0, "lon": -77.0213525, "is_disabled": 0, "rental_uris": {"android": "https://dc.lft.to/lastmile_qr_scan", "ios": "https://dc.lft.to/lastmile_qr_scan"}, "bike_id": "364ea2d640e6449f64891bebe0f94070", "fusion_lon": 0.0, "lat": 38.9232105}, {"type": "electric_scooter", "name": "b350d7b937ee894193d84baab0ef44a9", "is_reserved": 0, "fusion_lat": 0.0, "lon": -76.99839366666667, "is_disabled": 0, "rental_uris": {"android": "https://dc.lft.to/lastmile_qr_scan", "ios": "https://dc.lft.to/lastmile_qr_scan"}, "bike_id": "b350d7b937ee894193d84baab0ef44a9", "fusion_lon": 0.0, "lat": 38.88475733333333}, {"type": "electric_scooter", "name": "785bd5d41aff75a38f63cdc499b3ce2b", "is_reserved": 0, "fusion_lat": 0.0, "lon": -77.047545, "is_disabled": 0, "rental_uris": {"android": "https://dc.lft.to/lastmile_qr_scan", "ios": "https://dc.lft.to/lastmile_qr_scan"}, "bike_id": "785bd5d41aff75a38f63cdc499b3ce2b", "fusion_lon": 0.0, "lat": 38.90063}, {"type": "electric_bike", "name": "19753497180c9087b8ab7c48fc1bdd90", "is_reserved": 0, "fusion_lat": 0.0, "lon": -76.99776866666667, "is_disabled": 0, "rental_uris": {"android": "https://dc.lft.to/lastmile_qr_scan", "ios": "https://dc.lft.to/lastmile_qr_scan"}, "bike_id": "19753497180c9087b8ab7c48fc1bdd90", "fusion_lon": 0.0, "lat": 38.86212183333333}, {"type": "electric_scooter", "name": "6f6e41acaa8570e893336fa54efff496", "is_reserved": 0, "fusion_lat": 0.0, "lon": -77.03481483333333, "is_disabled": 0, "rental_uris": {"android": "https://dc.lft.to/lastmile_qr_scan", "ios": "https://dc.lft.to/lastmile_qr_scan"}, "bike_id": "6f6e41acaa8570e893336fa54efff496", "fusion_lon": 0.0, "lat": 38.905938666666664}, {"type": "electric_scooter", "name": "72bfe3434bd9d36e8efd9c884f0330db", "is_reserved": 0, "fusion_lat": 0.0, "lon": -77.02726133333333, "is_disabled": 0, "rental_uris": {"android": "https://dc.lft.to/lastmile_qr_scan", "ios": "https://dc.lft.to/lastmile_qr_scan"}, "bike_id": "72bfe3434bd9d36e8efd9c884f0330db", "fusion_lon": 0.0, "lat": 38.90484716666667}, {"type": "electric_scooter", "name": "74cae6723fc1b93957aa24358301490a", "is_reserved": 0, "fusion_lat": 0.0, "lon": -77.02514533333333, "is_disabled": 0, "rental_uris": {"android": "https://dc.lft.to/lastmile_qr_scan", "ios": "https://dc.lft.to/lastmile_qr_scan"}, "bike_id": "74cae6723fc1b93957aa24358301490a", "fusion_lon": 0.0, "lat": 38.921294}, {"type": "electric_bike", "name": "92781b0c561910da9bc51160c6dbbf60", "is_reserved": 0, "fusion_lat": 0.0, "lon": -76.96905266666667, "is_disabled": 0, "rental_uris": {"android": "https://dc.lft.to/lastmile_qr_scan", "ios": "https://dc.lft.to/lastmile_qr_scan"}, "bike_id": "92781b0c561910da9bc51160c6dbbf60", "fusion_lon": 0.0, "lat": 38.84620866666667}, {"type": "electric_scooter", "name": "aaa0ff82e8717d0ea0b26f5e8317728d", "is_reserved": 0, "fusion_lat": 0.0, "lon": -76.93371333333333, "is_disabled": 0, "rental_uris": {"android": "https://dc.lft.to/lastmile_qr_scan", "ios": "https://dc.lft.to/lastmile_qr_scan"}, "bike_id": "aaa0ff82e8717d0ea0b26f5e8317728d", "fusion_lon": 0.0, "lat": 38.89911983333333}, {"type": "electric_bike", "name": "6f8abcdbcf5b661b88d5fddc590f7956", "is_reserved": 0, "fusion_lat": 0.0, "lon": -77.0451205, "is_disabled": 0, "rental_uris": {"android": "https://dc.lft.to/lastmile_qr_scan", "ios": "https://dc.lft.to/lastmile_qr_scan"}, "bike_id": "6f8abcdbcf5b661b88d5fddc590f7956", "fusion_lon": 0.0, "lat": 38.842854}, {"type": "electric_scooter", "name": "79b09dcc926f59c2ae33dee40bfc1790", "is_reserved": 0, "fusion_lat": 0.0, "lon": -77.03100716666667, "is_disabled": 0, "rental_uris": {"android": "https://dc.lft.to/lastmile_qr_scan", "ios": "https://dc.lft.to/lastmile_qr_scan"}, "bike_id": "79b09dcc926f59c2ae33dee40bfc1790", "fusion_lon": 0.0, "lat": 38.95074283333334}, {"type": "electric_scooter", "name": "b81739a20491fb88ce074f10c9de1fde", "is_reserved": 0, "fusion_lat": 0.0, "lon": -77.083999, "is_disabled": 0, "rental_uris": {"android": "https://dc.lft.to/lastmile_qr_scan", "ios": "https://dc.lft.to/lastmile_qr_scan"}, "bike_id": "b81739a20491fb88ce074f10c9de1fde", "fusion_lon": 0.0, "lat": 38.90804766666667}, {"type": "electric_scooter", "name": "b9c427d4e73e9c6b41ca17826dc7a2fc", "is_reserved": 0, "fusion_lat": 0.0, "lon": -77.04188483333333, "is_disabled": 0, "rental_uris": {"android": "https://dc.lft.to/lastmile_qr_scan", "ios": "https://dc.lft.to/lastmile_qr_scan"}, "bike_id": "b9c427d4e73e9c6b41ca17826dc7a2fc", "fusion_lon": 0.0, "lat": 38.9074165}, {"type": "electric_bike", "name": "bf5b9fcbc1a4e370a39294f4cb863b46", "is_reserved": 0, "fusion_lat": 0.0, "lon": -77.01422766666667, "is_disabled": 0, "rental_uris": {"android": "https://dc.lft.to/lastmile_qr_scan", "ios": "https://dc.lft.to/lastmile_qr_scan"}, "bike_id": "bf5b9fcbc1a4e370a39294f4cb863b46", "fusion_lon": 0.0, "lat": 38.90572233333333}, {"type": "electric_scooter", "name": "9de50c00c4360581a5a8ce256b15f86a", "is_reserved": 0, "fusion_lat": 0.0, "lon": -76.94933, "is_disabled": 0, "rental_uris": {"android": "https://dc.lft.to/lastmile_qr_scan", "ios": "https://dc.lft.to/lastmile_qr_scan"}, "bike_id": "9de50c00c4360581a5a8ce256b15f86a", "fusion_lon": 0.0, "lat": 38.893507666666665}, {"type": "electric_scooter", "name": "8735d3a5875c3c6975f10f85844953a5", "is_reserved": 0, "fusion_lat": 0.0, "lon": -77.03837266666666, "is_disabled": 0, "rental_uris": {"android": "https://dc.lft.to/lastmile_qr_scan", "ios": "https://dc.lft.to/lastmile_qr_scan"}, "bike_id": "8735d3a5875c3c6975f10f85844953a5", "fusion_lon": 0.0, "lat": 38.90276516666667}, {"type": "electric_scooter", "name": "6b0b14edd00076a38861a0ef689b64e7", "is_reserved": 0, "fusion_lat": 0.0, "lon": -76.98494, "is_disabled": 0, "rental_uris": {"android": "https://dc.lft.to/lastmile_qr_scan", "ios": "https://dc.lft.to/lastmile_qr_scan"}, "bike_id": "6b0b14edd00076a38861a0ef689b64e7", "fusion_lon": 0.0, "lat": 38.91515}, {"type": "electric_scooter", "name": "becd9ddf3ec75f3961aa6db1631792bf", "is_reserved": 0, "fusion_lat": 0.0, "lon": -77.04304183333333, "is_disabled": 0, "rental_uris": {"android": "https://dc.lft.to/lastmile_qr_scan", "ios": "https://dc.lft.to/lastmile_qr_scan"}, "bike_id": "becd9ddf3ec75f3961aa6db1631792bf", "fusion_lon": 0.0, "lat": 38.92335166666667}, {"type": "electric_scooter", "name": "e85d1be1cedd5bce00053dc7e4acbd60", "is_reserved": 0, "fusion_lat": 0.0, "lon": -76.97333283333333, "is_disabled": 0, "rental_uris": {"android": "https://dc.lft.to/lastmile_qr_scan", "ios": "https://dc.lft.to/lastmile_qr_scan"}, "bike_id": "e85d1be1cedd5bce00053dc7e4acbd60", "fusion_lon": 0.0, "lat": 38.9177455}, {"type": "electric_scooter", "name": "36841bb19ae79c5125cc89a5da8ce3f6", "is_reserved": 0, "fusion_lat": 0.0, "lon": -77.0434335, "is_disabled": 0, "rental_uris": {"android": "https://dc.lft.to/lastmile_qr_scan", "ios": "https://dc.lft.to/lastmile_qr_scan"}, "bike_id": "36841bb19ae79c5125cc89a5da8ce3f6", "fusion_lon": 0.0, "lat": 38.9031135}, {"type": "electric_bike", "name": "eb5a1c1676829c8b631c6a7ae0ee4266", "is_reserved": 0, "fusion_lat": 0.0, "lon": -77.08588883333333, "is_disabled": 0, "rental_uris": {"android": "https://dc.lft.to/lastmile_qr_scan", "ios": "https://dc.lft.to/lastmile_qr_scan"}, "bike_id": "eb5a1c1676829c8b631c6a7ae0ee4266", "fusion_lon": 0.0, "lat": 38.844385333333335}, {"type": "electric_bike", "name": "f8e162d18062e4f141b47b0ff38eb868", "is_reserved": 0, "fusion_lat": 0.0, "lon": -76.972419, "is_disabled": 0, "rental_uris": {"android": "https://dc.lft.to/lastmile_qr_scan", "ios": "https://dc.lft.to/lastmile_qr_scan"}, "bike_id": "f8e162d18062e4f141b47b0ff38eb868", "fusion_lon": 0.0, "lat": 38.949052333333334}, {"type": "electric_scooter", "name": "545d47fea7080c80c04696f0d4a40f3f", "is_reserved": 0, "fusion_lat": 0.0, "lon": -77.00674533333333, "is_disabled": 0, "rental_uris": {"android": "https://dc.lft.to/lastmile_qr_scan", "ios": "https://dc.lft.to/lastmile_qr_scan"}, "bike_id": "545d47fea7080c80c04696f0d4a40f3f", "fusion_lon": 0.0, "lat": 38.900101166666666}, {"type": "electric_scooter", "name": "e097a327e9114dd28edfc8cad1f4ec7c", "is_reserved": 0, "fusion_lat": 0.0, "lon": -77.02205666666667, "is_disabled": 0, "rental_uris": {"android": "https://dc.lft.to/lastmile_qr_scan", "ios": "https://dc.lft.to/lastmile_qr_scan"}, "bike_id": "e097a327e9114dd28edfc8cad1f4ec7c", "fusion_lon": 0.0, "lat": 38.886418166666665}, {"type": "electric_scooter", "name": "db8612aa9416b53faeef4a75c5b65e2f", "is_reserved": 0, "fusion_lat": 0.0, "lon": -77.05743283333334, "is_disabled": 0, "rental_uris": {"android": "https://dc.lft.to/lastmile_qr_scan", "ios": "https://dc.lft.to/lastmile_qr_scan"}, "bike_id": "db8612aa9416b53faeef4a75c5b65e2f", "fusion_lon": 0.0, "lat": 38.933918}, {"type": "electric_scooter", "name": "634f64a73f2ae4bbea2d77d16ed9f25d", "is_reserved": 0, "fusion_lat": 0.0, "lon": -77.0569015, "is_disabled": 0, "rental_uris": {"android": "https://dc.lft.to/lastmile_qr_scan", "ios": "https://dc.lft.to/lastmile_qr_scan"}, "bike_id": "634f64a73f2ae4bbea2d77d16ed9f25d", "fusion_lon": 0.0, "lat": 38.905275833333334}, {"type": "electric_scooter", "name": "f33a7f15deb8082b11b412a3c08107f6", "is_reserved": 0, "fusion_lat": 0.0, "lon": -77.0342665, "is_disabled": 0, "rental_uris": {"android": "https://dc.lft.to/lastmile_qr_scan", "ios": "https://dc.lft.to/lastmile_qr_scan"}, "bike_id": "f33a7f15deb8082b11b412a3c08107f6", "fusion_lon": 0.0, "lat": 38.919365666666664}, {"type": "electric_scooter", "name": "9b599eb71d3291140b10af67932d9ac9", "is_reserved": 0, "fusion_lat": 0.0, "lon": -76.9906745, "is_disabled": 0, "rental_uris": {"android": "https://dc.lft.to/lastmile_qr_scan", "ios": "https://dc.lft.to/lastmile_qr_scan"}, "bike_id": "9b599eb71d3291140b10af67932d9ac9", "fusion_lon": 0.0, "lat": 38.86356466666667}, {"type": "electric_scooter", "name": "9e31b074f7a5c8122528a56cf950a8fa", "is_reserved": 0, "fusion_lat": 0.0, "lon": -77.00726383333334, "is_disabled": 0, "rental_uris": {"android": "https://dc.lft.to/lastmile_qr_scan", "ios": "https://dc.lft.to/lastmile_qr_scan"}, "bike_id": "9e31b074f7a5c8122528a56cf950a8fa", "fusion_lon": 0.0, "lat": 38.884928}, {"type": "electric_scooter", "name": "c05520531064ba340802bda378718399", "is_reserved": 0, "fusion_lat": 0.0, "lon": -77.04335983333333, "is_disabled": 0, "rental_uris": {"android": "https://dc.lft.to/lastmile_qr_scan", "ios": "https://dc.lft.to/lastmile_qr_scan"}, "bike_id": "c05520531064ba340802bda378718399", "fusion_lon": 0.0, "lat": 38.895267}, {"type": "electric_scooter", "name": "1d9cdd65ede8b109fe638a53bcc32e11", "is_reserved": 0, "fusion_lat": 0.0, "lon": -77.02475216666667, "is_disabled": 0, "rental_uris": {"android": "https://dc.lft.to/lastmile_qr_scan", "ios": "https://dc.lft.to/lastmile_qr_scan"}, "bike_id": "1d9cdd65ede8b109fe638a53bcc32e11", "fusion_lon": 0.0, "lat": 38.8940845}, {"type": "electric_scooter", "name": "d8e8a962014e1dd9492bd86dc58d6d46", "is_reserved": 0, "fusion_lat": 0.0, "lon": -77.04433083333333, "is_disabled": 0, "rental_uris": {"android": "https://dc.lft.to/lastmile_qr_scan", "ios": "https://dc.lft.to/lastmile_qr_scan"}, "bike_id": "d8e8a962014e1dd9492bd86dc58d6d46", "fusion_lon": 0.0, "lat": 38.92124466666667}, {"type": "electric_bike", "name": "44bc3462655b67fe29fcbcaaf9a7ed14", "is_reserved": 0, "fusion_lat": 0.0, "lon": -77.051116, "is_disabled": 0, "rental_uris": {"android": "https://dc.lft.to/lastmile_qr_scan", "ios": "https://dc.lft.to/lastmile_qr_scan"}, "bike_id": "44bc3462655b67fe29fcbcaaf9a7ed14", "fusion_lon": 0.0, "lat": 39.03670866666667}, {"type": "electric_scooter", "name": "1f3494d8cdc75df9b4570810378068b4", "is_reserved": 0, "fusion_lat": 0.0, "lon": -77.030649, "is_disabled": 0, "rental_uris": {"android": "https://dc.lft.to/lastmile_qr_scan", "ios": "https://dc.lft.to/lastmile_qr_scan"}, "bike_id": "1f3494d8cdc75df9b4570810378068b4", "fusion_lon": 0.0, "lat": 38.90265}, {"type": "electric_scooter", "name": "a2ffc6e4a8cfa55028a2a2850250c100", "is_reserved": 0, "fusion_lat": 0.0, "lon": -77.02980133333334, "is_disabled": 0, "rental_uris": {"android": "https://dc.lft.to/lastmile_qr_scan", "ios": "https://dc.lft.to/lastmile_qr_scan"}, "bike_id": "a2ffc6e4a8cfa55028a2a2850250c100", "fusion_lon": 0.0, "lat": 38.9141435}, {"type": "electric_scooter", "name": "be21730d50a39877a756d6fddd785cc5", "is_reserved": 0, "fusion_lat": 0.0, "lon": -77.04335783333333, "is_disabled": 0, "rental_uris": {"android": "https://dc.lft.to/lastmile_qr_scan", "ios": "https://dc.lft.to/lastmile_qr_scan"}, "bike_id": "be21730d50a39877a756d6fddd785cc5", "fusion_lon": 0.0, "lat": 38.9079385}, {"type": "electric_bike", "name": "a9c171bc50d85f74707c3c68d08157a6", "is_reserved": 0, "fusion_lat": 0.0, "lon": -77.11219183333333, "is_disabled": 0, "rental_uris": {"android": "https://dc.lft.to/lastmile_qr_scan", "ios": "https://dc.lft.to/lastmile_qr_scan"}, "bike_id": "a9c171bc50d85f74707c3c68d08157a6", "fusion_lon": 0.0, "lat": 38.9004295}, {"type": "electric_scooter", "name": "e53ed50fb90053ecdd21394f13f4762a", "is_reserved": 0, "fusion_lat": 0.0, "lon": -77.0199975, "is_disabled": 0, "rental_uris": {"android": "https://dc.lft.to/lastmile_qr_scan", "ios": "https://dc.lft.to/lastmile_qr_scan"}, "bike_id": "e53ed50fb90053ecdd21394f13f4762a", "fusion_lon": 0.0, "lat": 38.915792}, {"type": "electric_scooter", "name": "28e54dbfba42b420ff24d848daddff14", "is_reserved": 0, "fusion_lat": 0.0, "lon": -77.04612266666666, "is_disabled": 0, "rental_uris": {"android": "https://dc.lft.to/lastmile_qr_scan", "ios": "https://dc.lft.to/lastmile_qr_scan"}, "bike_id": "28e54dbfba42b420ff24d848daddff14", "fusion_lon": 0.0, "lat": 38.90243}, {"type": "electric_scooter", "name": "cc86c57bc4a9a25a59c37ee4fa475c62", "is_reserved": 0, "fusion_lat": 0.0, "lon": -77.0263525, "is_disabled": 0, "rental_uris": {"android": "https://dc.lft.to/lastmile_qr_scan", "ios": "https://dc.lft.to/lastmile_qr_scan"}, "bike_id": "cc86c57bc4a9a25a59c37ee4fa475c62", "fusion_lon": 0.0, "lat": 38.9171255}, {"type": "electric_scooter", "name": "c71eb1633538b7183bd173edaf9cb9fc", "is_reserved": 0, "fusion_lat": 0.0, "lon": -76.93734033333334, "is_disabled": 0, "rental_uris": {"android": "https://dc.lft.to/lastmile_qr_scan", "ios": "https://dc.lft.to/lastmile_qr_scan"}, "bike_id": "c71eb1633538b7183bd173edaf9cb9fc", "fusion_lon": 0.0, "lat": 38.89016316666667}, {"type": "electric_bike", "name": "d1f2fa15dd201e9f38ed6c9b528ee93a", "is_reserved": 0, "fusion_lat": 0.0, "lon": -76.99081966666667, "is_disabled": 0, "rental_uris": {"android": "https://dc.lft.to/lastmile_qr_scan", "ios": "https://dc.lft.to/lastmile_qr_scan"}, "bike_id": "d1f2fa15dd201e9f38ed6c9b528ee93a", "fusion_lon": 0.0, "lat": 38.86243}, {"type": "electric_scooter", "name": "f2b390d70d491af3696825ea0ce6716d", "is_reserved": 0, "fusion_lat": 0.0, "lon": -77.03308233333334, "is_disabled": 0, "rental_uris": {"android": "https://dc.lft.to/lastmile_qr_scan", "ios": "https://dc.lft.to/lastmile_qr_scan"}, "bike_id": "f2b390d70d491af3696825ea0ce6716d", "fusion_lon": 0.0, "lat": 38.9563485}, {"type": "electric_scooter", "name": "3f6200c3f6d076df80efbb47f45d0f7a", "is_reserved": 0, "fusion_lat": 0.0, "lon": -77.02843466666667, "is_disabled": 0, "rental_uris": {"android": "https://dc.lft.to/lastmile_qr_scan", "ios": "https://dc.lft.to/lastmile_qr_scan"}, "bike_id": "3f6200c3f6d076df80efbb47f45d0f7a", "fusion_lon": 0.0, "lat": 38.90441466666667}, {"type": "electric_scooter", "name": "baf65c931a739ea0df4ac54843a4fcc5", "is_reserved": 0, "fusion_lat": 0.0, "lon": -77.05891066666666, "is_disabled": 0, "rental_uris": {"android": "https://dc.lft.to/lastmile_qr_scan", "ios": "https://dc.lft.to/lastmile_qr_scan"}, "bike_id": "baf65c931a739ea0df4ac54843a4fcc5", "fusion_lon": 0.0, "lat": 38.943107833333336}, {"type": "electric_scooter", "name": "36f138fd82f3ff57b1b8aa21e794b532", "is_reserved": 0, "fusion_lat": 0.0, "lon": -77.02781183333333, "is_disabled": 0, "rental_uris": {"android": "https://dc.lft.to/lastmile_qr_scan", "ios": "https://dc.lft.to/lastmile_qr_scan"}, "bike_id": "36f138fd82f3ff57b1b8aa21e794b532", "fusion_lon": 0.0, "lat": 38.954231666666665}, {"type": "electric_bike", "name": "8f1da388b5abbd40d5510c68641e9e17", "is_reserved": 0, "fusion_lat": 0.0, "lon": -76.98993933333334, "is_disabled": 0, "rental_uris": {"android": "https://dc.lft.to/lastmile_qr_scan", "ios": "https://dc.lft.to/lastmile_qr_scan"}, "bike_id": "8f1da388b5abbd40d5510c68641e9e17", "fusion_lon": 0.0, "lat": 38.8639045}, {"type": "electric_bike", "name": "4159cafdccf49700d4cc66144c5c5f66", "is_reserved": 0, "fusion_lat": 0.0, "lon": -76.98476483333333, "is_disabled": 0, "rental_uris": {"android": "https://dc.lft.to/lastmile_qr_scan", "ios": "https://dc.lft.to/lastmile_qr_scan"}, "bike_id": "4159cafdccf49700d4cc66144c5c5f66", "fusion_lon": 0.0, "lat": 38.88004083333333}, {"type": "electric_scooter", "name": "010734b1d72fd2fd8c05b5617099613c", "is_reserved": 0, "fusion_lat": 0.0, "lon": -77.0326525, "is_disabled": 0, "rental_uris": {"android": "https://dc.lft.to/lastmile_qr_scan", "ios": "https://dc.lft.to/lastmile_qr_scan"}, "bike_id": "010734b1d72fd2fd8c05b5617099613c", "fusion_lon": 0.0, "lat": 38.9356955}, {"type": "electric_scooter", "name": "de344dae8ff081c1a7c87dffd96e6936", "is_reserved": 0, "fusion_lat": 0.0, "lon": -77.03261516666667, "is_disabled": 0, "rental_uris": {"android": "https://dc.lft.to/lastmile_qr_scan", "ios": "https://dc.lft.to/lastmile_qr_scan"}, "bike_id": "de344dae8ff081c1a7c87dffd96e6936", "fusion_lon": 0.0, "lat": 38.932625}, {"type": "electric_scooter", "name": "aafdb6d7eabf0fe340eff805abaea883", "is_reserved": 0, "fusion_lat": 0.0, "lon": -76.99159666666667, "is_disabled": 0, "rental_uris": {"android": "https://dc.lft.to/lastmile_qr_scan", "ios": "https://dc.lft.to/lastmile_qr_scan"}, "bike_id": "aafdb6d7eabf0fe340eff805abaea883", "fusion_lon": 0.0, "lat": 38.89802666666667}, {"type": "electric_scooter", "name": "163db5d688e0627b9d5947ca014673f8", "is_reserved": 0, "fusion_lat": 0.0, "lon": -77.034686, "is_disabled": 0, "rental_uris": {"android": "https://dc.lft.to/lastmile_qr_scan", "ios": "https://dc.lft.to/lastmile_qr_scan"}, "bike_id": "163db5d688e0627b9d5947ca014673f8", "fusion_lon": 0.0, "lat": 38.905692}, {"type": "electric_bike", "name": "865a6925fd0b01a2e02fdf05d0762807", "is_reserved": 0, "fusion_lat": 0.0, "lon": -77.17842616666667, "is_disabled": 0, "rental_uris": {"android": "https://dc.lft.to/lastmile_qr_scan", "ios": "https://dc.lft.to/lastmile_qr_scan"}, "bike_id": "865a6925fd0b01a2e02fdf05d0762807", "fusion_lon": 0.0, "lat": 39.0886285}, {"type": "electric_scooter", "name": "b0ea02915e586c5368202d974cfb929a", "is_reserved": 0, "fusion_lat": 0.0, "lon": -76.956428, "is_disabled": 0, "rental_uris": {"android": "https://dc.lft.to/lastmile_qr_scan", "ios": "https://dc.lft.to/lastmile_qr_scan"}, "bike_id": "b0ea02915e586c5368202d974cfb929a", "fusion_lon": 0.0, "lat": 38.895567166666666}, {"type": "electric_bike", "name": "26cdf97f8bec760046683d5cf98ee072", "is_reserved": 0, "fusion_lat": 0.0, "lon": -77.08625616666667, "is_disabled": 0, "rental_uris": {"android": "https://dc.lft.to/lastmile_qr_scan", "ios": "https://dc.lft.to/lastmile_qr_scan"}, "bike_id": "26cdf97f8bec760046683d5cf98ee072", "fusion_lon": 0.0, "lat": 38.88184233333333}, {"type": "electric_scooter", "name": "7e0f2c879299f552f2120dc60fad3694", "is_reserved": 0, "fusion_lat": 0.0, "lon": -77.03506183333333, "is_disabled": 0, "rental_uris": {"android": "https://dc.lft.to/lastmile_qr_scan", "ios": "https://dc.lft.to/lastmile_qr_scan"}, "bike_id": "7e0f2c879299f552f2120dc60fad3694", "fusion_lon": 0.0, "lat": 38.907134666666664}, {"type": "electric_scooter", "name": "8fe4f3b093dfbddbefb68170eae8fecf", "is_reserved": 0, "fusion_lat": 0.0, "lon": -77.04348383333334, "is_disabled": 0, "rental_uris": {"android": "https://dc.lft.to/lastmile_qr_scan", "ios": "https://dc.lft.to/lastmile_qr_scan"}, "bike_id": "8fe4f3b093dfbddbefb68170eae8fecf", "fusion_lon": 0.0, "lat": 38.91705533333333}, {"type": "electric_scooter", "name": "8896b19fddcd2e10678fd24e4477e34c", "is_reserved": 0, "fusion_lat": 0.0, "lon": -77.0318335, "is_disabled": 0, "rental_uris": {"android": "https://dc.lft.to/lastmile_qr_scan", "ios": "https://dc.lft.to/lastmile_qr_scan"}, "bike_id": "8896b19fddcd2e10678fd24e4477e34c", "fusion_lon": 0.0, "lat": 38.917836}, {"type": "electric_bike", "name": "496b83bd21a55ada1b96b5fd58db2a43", "is_reserved": 0, "fusion_lat": 0.0, "lon": -76.99847366666667, "is_disabled": 0, "rental_uris": {"android": "https://dc.lft.to/lastmile_qr_scan", "ios": "https://dc.lft.to/lastmile_qr_scan"}, "bike_id": "496b83bd21a55ada1b96b5fd58db2a43", "fusion_lon": 0.0, "lat": 38.900621666666666}, {"type": "electric_scooter", "name": "204ca5cdc779e60af36776204be27d25", "is_reserved": 0, "fusion_lat": 0.0, "lon": -76.98301483333333, "is_disabled": 0, "rental_uris": {"android": "https://dc.lft.to/lastmile_qr_scan", "ios": "https://dc.lft.to/lastmile_qr_scan"}, "bike_id": "204ca5cdc779e60af36776204be27d25", "fusion_lon": 0.0, "lat": 38.90525683333333}, {"type": "electric_scooter", "name": "166ba7069c42850a14f2dd5bf5dc21fa", "is_reserved": 0, "fusion_lat": 0.0, "lon": -77.03850283333334, "is_disabled": 0, "rental_uris": {"android": "https://dc.lft.to/lastmile_qr_scan", "ios": "https://dc.lft.to/lastmile_qr_scan"}, "bike_id": "166ba7069c42850a14f2dd5bf5dc21fa", "fusion_lon": 0.0, "lat": 38.92524316666667}, {"type": "electric_scooter", "name": "3709bf4e9b47e42f511475fa43a3ddc0", "is_reserved": 0, "fusion_lat": 0.0, "lon": -77.03595166666666, "is_disabled": 0, "rental_uris": {"android": "https://dc.lft.to/lastmile_qr_scan", "ios": "https://dc.lft.to/lastmile_qr_scan"}, "bike_id": "3709bf4e9b47e42f511475fa43a3ddc0", "fusion_lon": 0.0, "lat": 38.93937183333333}, {"type": "electric_scooter", "name": "4e52c89d1440317e593792cf376c74fc", "is_reserved": 0, "fusion_lat": 0.0, "lon": -77.046321, "is_disabled": 0, "rental_uris": {"android": "https://dc.lft.to/lastmile_qr_scan", "ios": "https://dc.lft.to/lastmile_qr_scan"}, "bike_id": "4e52c89d1440317e593792cf376c74fc", "fusion_lon": 0.0, "lat": 38.9193575}, {"type": "electric_scooter", "name": "475717876b16d107f064f2ddf063da54", "is_reserved": 0, "fusion_lat": 0.0, "lon": -77.04306866666667, "is_disabled": 0, "rental_uris": {"android": "https://dc.lft.to/lastmile_qr_scan", "ios": "https://dc.lft.to/lastmile_qr_scan"}, "bike_id": "475717876b16d107f064f2ddf063da54", "fusion_lon": 0.0, "lat": 38.923292000000004}, {"type": "electric_scooter", "name": "31e2690c73567291fa0ecb51296f6055", "is_reserved": 0, "fusion_lat": 0.0, "lon": -77.01412916666666, "is_disabled": 0, "rental_uris": {"android": "https://dc.lft.to/lastmile_qr_scan", "ios": "https://dc.lft.to/lastmile_qr_scan"}, "bike_id": "31e2690c73567291fa0ecb51296f6055", "fusion_lon": 0.0, "lat": 38.8812335}, {"type": "electric_scooter", "name": "33eb10f54f45ed0fbf72c4aa894f0ae4", "is_reserved": 0, "fusion_lat": 0.0, "lon": -76.99602283333333, "is_disabled": 0, "rental_uris": {"android": "https://dc.lft.to/lastmile_qr_scan", "ios": "https://dc.lft.to/lastmile_qr_scan"}, "bike_id": "33eb10f54f45ed0fbf72c4aa894f0ae4", "fusion_lon": 0.0, "lat": 38.88630716666667}, {"type": "electric_scooter", "name": "df55eca96396fa0a2df9f57982189ea2", "is_reserved": 0, "fusion_lat": 0.0, "lon": -77.02538983333334, "is_disabled": 0, "rental_uris": {"android": "https://dc.lft.to/lastmile_qr_scan", "ios": "https://dc.lft.to/lastmile_qr_scan"}, "bike_id": "df55eca96396fa0a2df9f57982189ea2", "fusion_lon": 0.0, "lat": 38.924062166666666}, {"type": "electric_bike", "name": "5a113c95bc513ee1be04f157942c4358", "is_reserved": 0, "fusion_lat": 0.0, "lon": -77.00379133333334, "is_disabled": 0, "rental_uris": {"android": "https://dc.lft.to/lastmile_qr_scan", "ios": "https://dc.lft.to/lastmile_qr_scan"}, "bike_id": "5a113c95bc513ee1be04f157942c4358", "fusion_lon": 0.0, "lat": 38.83609783333333}, {"type": "electric_scooter", "name": "0b0b66d708cf1b1729ca158fc45da046", "is_reserved": 0, "fusion_lat": 0.0, "lon": -77.0317365, "is_disabled": 0, "rental_uris": {"android": "https://dc.lft.to/lastmile_qr_scan", "ios": "https://dc.lft.to/lastmile_qr_scan"}, "bike_id": "0b0b66d708cf1b1729ca158fc45da046", "fusion_lon": 0.0, "lat": 38.90357433333333}, {"type": "electric_scooter", "name": "29ad4f1c95461ec224984299fbe63614", "is_reserved": 0, "fusion_lat": 0.0, "lon": -77.038538, "is_disabled": 0, "rental_uris": {"android": "https://dc.lft.to/lastmile_qr_scan", "ios": "https://dc.lft.to/lastmile_qr_scan"}, "bike_id": "29ad4f1c95461ec224984299fbe63614", "fusion_lon": 0.0, "lat": 38.932013}, {"type": "electric_scooter", "name": "c337f916d0db9cd7d0371bff7901a921", "is_reserved": 0, "fusion_lat": 0.0, "lon": -77.0255835, "is_disabled": 0, "rental_uris": {"android": "https://dc.lft.to/lastmile_qr_scan", "ios": "https://dc.lft.to/lastmile_qr_scan"}, "bike_id": "c337f916d0db9cd7d0371bff7901a921", "fusion_lon": 0.0, "lat": 38.924849}, {"type": "electric_bike", "name": "1c1b2a1c380a91651e4f3b5301cf7089", "is_reserved": 0, "fusion_lat": 0.0, "lon": -76.96807116666666, "is_disabled": 0, "rental_uris": {"android": "https://dc.lft.to/lastmile_qr_scan", "ios": "https://dc.lft.to/lastmile_qr_scan"}, "bike_id": "1c1b2a1c380a91651e4f3b5301cf7089", "fusion_lon": 0.0, "lat": 38.955316333333336}, {"type": "electric_scooter", "name": "a033752356cff3e041e755c00d65310a", "is_reserved": 0, "fusion_lat": 0.0, "lon": -77.03287066666667, "is_disabled": 0, "rental_uris": {"android": "https://dc.lft.to/lastmile_qr_scan", "ios": "https://dc.lft.to/lastmile_qr_scan"}, "bike_id": "a033752356cff3e041e755c00d65310a", "fusion_lon": 0.0, "lat": 38.90235666666667}, {"type": "electric_scooter", "name": "746e75606240dd6dad04473c13735ad3", "is_reserved": 0, "fusion_lat": 0.0, "lon": -77.02488733333334, "is_disabled": 0, "rental_uris": {"android": "https://dc.lft.to/lastmile_qr_scan", "ios": "https://dc.lft.to/lastmile_qr_scan"}, "bike_id": "746e75606240dd6dad04473c13735ad3", "fusion_lon": 0.0, "lat": 38.94181716666667}, {"type": "electric_bike", "name": "d2a60af6d1fc8ca8dd3f3c3df1fd9e34", "is_reserved": 0, "fusion_lat": 0.0, "lon": -77.1185425, "is_disabled": 0, "rental_uris": {"android": "https://dc.lft.to/lastmile_qr_scan", "ios": "https://dc.lft.to/lastmile_qr_scan"}, "bike_id": "d2a60af6d1fc8ca8dd3f3c3df1fd9e34", "fusion_lon": 0.0, "lat": 38.87737533333333}, {"type": "electric_scooter", "name": "cf3560d7a61bf102c5d689f179e6c813", "is_reserved": 0, "fusion_lat": 0.0, "lon": -77.021157, "is_disabled": 0, "rental_uris": {"android": "https://dc.lft.to/lastmile_qr_scan", "ios": "https://dc.lft.to/lastmile_qr_scan"}, "bike_id": "cf3560d7a61bf102c5d689f179e6c813", "fusion_lon": 0.0, "lat": 38.92466816666666}, {"type": "electric_bike", "name": "24a60f678877b196d8c9ce01d7a6e3c4", "is_reserved": 0, "fusion_lat": 0.0, "lon": -76.935425, "is_disabled": 0, "rental_uris": {"android": "https://dc.lft.to/lastmile_qr_scan", "ios": "https://dc.lft.to/lastmile_qr_scan"}, "bike_id": "24a60f678877b196d8c9ce01d7a6e3c4", "fusion_lon": 0.0, "lat": 38.951863}, {"type": "electric_scooter", "name": "18b1a45e14e561536bd866909338e5a5", "is_reserved": 0, "fusion_lat": 0.0, "lon": -77.01960766666667, "is_disabled": 0, "rental_uris": {"android": "https://dc.lft.to/lastmile_qr_scan", "ios": "https://dc.lft.to/lastmile_qr_scan"}, "bike_id": "18b1a45e14e561536bd866909338e5a5", "fusion_lon": 0.0, "lat": 38.923776833333335}, {"type": "electric_scooter", "name": "e416fbb0649fff5ab10a7f83ccdc1746", "is_reserved": 0, "fusion_lat": 0.0, "lon": -77.00757883333333, "is_disabled": 0, "rental_uris": {"android": "https://dc.lft.to/lastmile_qr_scan", "ios": "https://dc.lft.to/lastmile_qr_scan"}, "bike_id": "e416fbb0649fff5ab10a7f83ccdc1746", "fusion_lon": 0.0, "lat": 38.92675066666666}, {"type": "electric_scooter", "name": "77ee84af53236ef0a2ecc3d339457c94", "is_reserved": 0, "fusion_lat": 0.0, "lon": -76.99869866666667, "is_disabled": 0, "rental_uris": {"android": "https://dc.lft.to/lastmile_qr_scan", "ios": "https://dc.lft.to/lastmile_qr_scan"}, "bike_id": "77ee84af53236ef0a2ecc3d339457c94", "fusion_lon": 0.0, "lat": 38.900344833333335}, {"type": "electric_scooter", "name": "709f01735dca79f449603cd08a13acce", "is_reserved": 0, "fusion_lat": 0.0, "lon": -77.01364316666667, "is_disabled": 0, "rental_uris": {"android": "https://dc.lft.to/lastmile_qr_scan", "ios": "https://dc.lft.to/lastmile_qr_scan"}, "bike_id": "709f01735dca79f449603cd08a13acce", "fusion_lon": 0.0, "lat": 38.86968566666667}, {"type": "electric_scooter", "name": "681196f7d2ff64ccf2acec2126fbe419", "is_reserved": 0, "fusion_lat": 0.0, "lon": -77.02491966666666, "is_disabled": 0, "rental_uris": {"android": "https://dc.lft.to/lastmile_qr_scan", "ios": "https://dc.lft.to/lastmile_qr_scan"}, "bike_id": "681196f7d2ff64ccf2acec2126fbe419", "fusion_lon": 0.0, "lat": 38.938688166666665}, {"type": "electric_scooter", "name": "02480e98b51dcfc99393abfa702ce485", "is_reserved": 0, "fusion_lat": 0.0, "lon": -77.03350966666666, "is_disabled": 0, "rental_uris": {"android": "https://dc.lft.to/lastmile_qr_scan", "ios": "https://dc.lft.to/lastmile_qr_scan"}, "bike_id": "02480e98b51dcfc99393abfa702ce485", "fusion_lon": 0.0, "lat": 38.892432166666666},