{"data": {"bikes": [{"lon": -77.04672, "fusion_lat": 0.0, "type": "electric_scooter", "lat": 38.9002345, "is_disabled": 0, "name": "700968a9b598598a7cba71f0c7eab64c", "is_reserved": 0, "bike_id": "700968a9b598598a7cba71f0c7eab64c", "fusion_lon": 0.0, "rental_uris": {"ios": "https://dc.lft.to/lastmile_qr_scan", "android": "https://dc.lft.to/lastmile_qr_scan"}}, {"lon": -77.05056683333333, "fusion_lat": 0.0, "type": "electric_scooter", "lat": 38.923600666666665, "is_disabled": 0, "name": "3a1963725314158bf3fc1fd9b3755a00", "is_reserved": 0, "bike_id": "3a1963725314158bf3fc1fd9b3755a00", "fusion_lon": 0.0, "rental_uris": {"ios": "https://dc.lft.to/lastmile_qr_scan", "android": "https://dc.lft.to/lastmile_qr_scan"}}, {"lon": -77.019464, "fusion_lat": 0.0, "type": "electric_scooter", "lat": 38.9242245, "is_disabled": 0, "name": "c7da71a59e008bcaf28a61e0a883d222", "is_reserved": 0, "bike_id": "c7da71a59e008bcaf28a61e0a883d222", "fusion_lon": 0.0, "rental_uris": {"ios": "https://dc.lft.to/lastmile_qr_scan", "android": "https://dc.lft.to/lastmile_qr_scan"}}, {"lon": -77.01910816666667, "fusion_lat": 0.0, "type": "electric_scooter", "lat": 38.923385333333336, "is_disabled": 0, "name": "7c1cdce8d95f83e2aacc7b42e0787d2b", "is_reserved": 0, "bike_id": "7c1cdce8d95f83e2aacc7b42e0787d2b", "fusion_lon": 0.0, "rental_uris": {"ios": "https://dc.lft.to/lastmile_qr_scan", "android": "https://dc.lft.to/lastmile_qr_scan"}}, {"lon": -77.04371866666666, "fusion_lat": 0.0, "type": "electric_scooter", "lat": 38.898432166666666, "is_disabled": 0, "name": "0e169580e228052aafff2853b78e6941", "is_reserved": 0, "bike_id": "0e169580e228052aafff2853b78e6941", "fusion_lon": 0.0, "rental_uris": {"ios": "https://dc.lft.to/lastmile_qr_scan", "android": "https://dc.lft.to/lastmile_qr_scan"}}, {"lon": -77.06497666666667, "fusion_lat": 0.0, "type": "electric_scooter", "lat": 38.905247333333335, "is_disabled": 0, "name": "0b594ff4411205308d49f3fe9821b42f", "is_reserved": 0, "bike_id": "0b594ff4411205308d49f3fe9821b42f", "fusion_lon": 0.0, "rental_uris": {"ios": "https://dc.lft.to/lastmile_qr_scan", "android": "https://dc.lft.to/lastmile_qr_scan"}}, {"lon": -77.03208266666667, "fusion_lat": 0.0, "type": "electric_scooter", "lat": 38.916301833333335, "is_disabled": 0, "name": "76d220449832e6f6ebc52e480e1e9b2e", "is_reserved": 0, "bike_id": "76d220449832e6f6ebc52e480e1e9b2e", "fusion_lon": 0.0, "rental_uris": {"ios": "https://dc.lft.to/lastmile_qr_scan", "android": "https://dc.lft.to/lastmile_qr_scan"}}, {"lon": -76.93854216666666, "fusion_lat": 0.0, "type": "electric_scooter", "lat": 38.89966316666667, "is_disabled": 0, "name": "00c2d1f0b763570c1647ffc85fa43307", "is_reserved": 0, "bike_id": "00c2d1f0b763570c1647ffc85fa43307", "fusion_lon": 0.0, "rental_uris": {"ios": "https://dc.lft.to/lastmile_qr_scan", "android": "https://dc.lft.to/lastmile_qr_scan"}}, {"lon": -77.03205866666667, "fusion_lat": 0.0, "type": "electric_scooter", "lat": 38.91598883333333, "is_disabled": 0, "name": "9debb939661b9c6b75c341048e17b0a0", "is_reserved": 0, "bike_id": "9debb939661b9c6b75c341048e17b0a0", "fusion_lon": 0.0, "rental_uris": {"ios": "https://dc.lft.to/lastmile_qr_scan", "android": "https://dc.lft.to/lastmile_qr_scan"}}, {"lon": -77.02407033333333, "fusion_lat": 0.0, "type": "electric_scooter", "lat": 38.905616333333334, "is_disabled": 0, "name": "c764d40d986bb8a951ec56bc2f2705e1", "is_reserved": 0, "bike_id": "c764d40d986bb8a951ec56bc2f2705e1", "fusion_lon": 0.0, "rental_uris": {"ios": "https://dc.lft.to/lastmile_qr_scan", "android": "https://dc.lft.to/lastmile_qr_scan"}}, {"lon": -77.02058083333333, "fusion_lat": 0.0, "type": "electric_scooter", "lat": 38.919091333333334, "is_disabled": 0, "name": "3644069fd3ee288d18e130645b23ffe7", "is_reserved": 0, "bike_id": "3644069fd3ee288d18e130645b23ffe7", "fusion_lon": 0.0, "rental_uris": {"ios": "https://dc.lft.to/lastmile_qr_scan", "android": "https://dc.lft.to/lastmile_qr_scan"}}, {"lon": -77.03667766666666, "fusion_lat": 0.0, "type": "electric_scooter", "lat": 38.92601366666667, "is_disabled": 0, "name": "4c581ed321cd56608f8f2010ece1c2ea", "is_reserved": 0, "bike_id": "4c581ed321cd56608f8f2010ece1c2ea", "fusion_lon": 0.0, "rental_uris": {"ios": "https://dc.lft.to/lastmile_qr_scan", "android": "https://dc.lft.to/lastmile_qr_scan"}}, {"lon": -77.025962, "fusion_lat": 0.0, "type": "electric_scooter", "lat": 38.9172815, "is_disabled": 0, "name": "1a9e24cace3043a78f894453c1f33120", "is_reserved": 0, "bike_id": "1a9e24cace3043a78f894453c1f33120", "fusion_lon": 0.0, "rental_uris": {"ios": "https://dc.lft.to/lastmile_qr_scan", "android": "https://dc.lft.to/lastmile_qr_scan"}}, {"lon": -77.029802, "fusion_lat": 0.0, "type": "electric_scooter", "lat": 38.9227795, "is_disabled": 0, "name": "3d976d3a74255087bf7671c5d4596b1d", "is_reserved": 0, "bike_id": "3d976d3a74255087bf7671c5d4596b1d", "fusion_lon": 0.0, "rental_uris": {"ios": "https://dc.lft.to/lastmile_qr_scan", "android": "https://dc.lft.to/lastmile_qr_scan"}}, {"lon": -77.01363633333334, "fusion_lat": 0.0, "type": "electric_scooter", "lat": 38.8870315, "is_disabled": 0, "name": "19330c5901eea473ee1a9dc3620d1ebc", "is_reserved": 0, "bike_id": "19330c5901eea473ee1a9dc3620d1ebc", "fusion_lon": 0.0, "rental_uris": {"ios": "https://dc.lft.to/lastmile_qr_scan", "android": "https://dc.lft.to/lastmile_qr_scan"}}, {"lon": -76.97428716666667, "fusion_lat": 0.0, "type": "electric_scooter", "lat": 38.89835266666667, "is_disabled": 0, "name": "a2bca527acc0892ac88eeee2534a055c", "is_reserved": 0, "bike_id": "a2bca527acc0892ac88eeee2534a055c", "fusion_lon": 0.0, "rental_uris": {"ios": "https://dc.lft.to/lastmile_qr_scan", "android": "https://dc.lft.to/lastmile_qr_scan"}}, {"lon": -77.00360366666666, "fusion_lat": 0.0, "type": "electric_scooter", "lat": 38.910942, "is_disabled": 0, "name": "a4edd8a6adc214161225a69214db5c00", "is_reserved": 0, "bike_id": "a4edd8a6adc214161225a69214db5c00", "fusion_lon": 0.0, "rental_uris": {"ios": "https://dc.lft.to/lastmile_qr_scan", "android": "https://dc.lft.to/lastmile_qr_scan"}}, {"lon": -77.02495666666667, "fusion_lat": 0.0, "type": "electric_scooter", "lat": 38.920644333333335, "is_disabled": 0, "name": "79fb2f0189bc214a5f867252f2cd6082", "is_reserved": 0, "bike_id": "79fb2f0189bc214a5f867252f2cd6082", "fusion_lon": 0.0, "rental_uris": {"ios": "https://dc.lft.to/lastmile_qr_scan", "android": "https://dc.lft.to/lastmile_qr_scan"}}, {"lon": -77.01906983333333, "fusion_lat": 0.0, "type": "electric_scooter", "lat": 38.91419116666667, "is_disabled": 0, "name": "42711f0e0957ee2436bfdc8d5af379dd", "is_reserved": 0, "bike_id": "42711f0e0957ee2436bfdc8d5af379dd", "fusion_lon": 0.0, "rental_uris": {"ios": "https://dc.lft.to/lastmile_qr_scan", "android": "https://dc.lft.to/lastmile_qr_scan"}}, {"lon": -77.0322875, "fusion_lat": 0.0, "type": "electric_scooter", "lat": 38.92989033333333, "is_disabled": 0, "name": "fe5ff9965bc3049ae414571dff46721a", "is_reserved": 0, "bike_id": "fe5ff9965bc3049ae414571dff46721a", "fusion_lon": 0.0, "rental_uris": {"ios": "https://dc.lft.to/lastmile_qr_scan", "android": "https://dc.lft.to/lastmile_qr_scan"}}, {"lon": -76.98205316666666, "fusion_lat": 0.0, "type": "electric_scooter", "lat": 38.9056685, "is_disabled": 0, "name": "5e1c24cd2509543ef96743a08b89b373", "is_reserved": 0, "bike_id": "5e1c24cd2509543ef96743a08b89b373", "fusion_lon": 0.0, "rental_uris": {"ios": "https://dc.lft.to/lastmile_qr_scan", "android": "https://dc.lft.to/lastmile_qr_scan"}}, {"lon": -77.01690316666667, "fusion_lat": 0.0, "type": "electric_scooter", "lat": 38.881191666666666, "is_disabled": 0, "name": "0c517ab1da3922ea9424b6efbbd7a1cf", "is_reserved": 0, "bike_id": "0c517ab1da3922ea9424b6efbbd7a1cf", "fusion_lon": 0.0, "rental_uris": {"ios": "https://dc.lft.to/lastmile_qr_scan", "android": "https://dc.lft.to/lastmile_qr_scan"}}, {"lon": -77.04494, "fusion_lat": 0.0, "type": "electric_scooter", "lat": 38.897123666666666, "is_disabled": 0, "name": "4fc299ef521fbd21dc57ee289da842a0", "is_reserved": 0, "bike_id": "4fc299ef521fbd21dc57ee289da842a0", "fusion_lon": 0.0, "rental_uris": {"ios": "https://dc.lft.to/lastmile_qr_scan", "android": "https://dc.lft.to/lastmile_qr_scan"}}, {"lon": -77.033749, "fusion_lat": 0.0, "type": "electric_scooter", "lat": 38.89231866666667, "is_disabled": 0, "name": "9323f358f1991316a9d5d89188b8c10f", "is_reserved": 0, "bike_id": "9323f358f1991316a9d5d89188b8c10f", "fusion_lon": 0.0, "rental_uris": {"ios": "https://dc.lft.to/lastmile_qr_scan", "android": "https://dc.lft.to/lastmile_qr_scan"}}, {"lon": -77.02209916666666, "fusion_lat": 0.0, "type": "electric_scooter", "lat": 38.90362066666667, "is_disabled": 0, "name": "70b155d6d3a2f9a72f7881f2fd36808f", "is_reserved": 0, "bike_id": "70b155d6d3a2f9a72f7881f2fd36808f", "fusion_lon": 0.0, "rental_uris": {"ios": "https://dc.lft.to/lastmile_qr_scan", "android": "https://dc.lft.to/lastmile_qr_scan"}}, {"lon": -77.03089533333333, "fusion_lat": 0.0, "type": "electric_scooter", "lat": 38.926666166666664, "is_disabled": 0, "name": "5d2131bd8c5465d4a425859fb475f2bd", "is_reserved": 0, "bike_id": "5d2131bd8c5465d4a425859fb475f2bd", "fusion_lon": 0.0, "rental_uris": {"ios": "https://dc.lft.to/lastmile_qr_scan", "android": "https://dc.lft.to/lastmile_qr_scan"}}, {"lon": -76.98213383333334, "fusion_lat": 0.0, "type": "electric_scooter", "lat": 38.857069833333334, "is_disabled": 0, "name": "d56546e30abf85c82d547afd24fafdea", "is_reserved": 0, "bike_id": "d56546e30abf85c82d547afd24fafdea", "fusion_lon": 0.0, "rental_uris": {"ios": "https://dc.lft.to/lastmile_qr_scan", "android": "https://dc.lft.to/lastmile_qr_scan"}}, {"lon": -77.02364633333333, "fusion_lat": 0.0, "type": "electric_scooter", "lat": 38.920586666666665, "is_disabled": 0, "name": "339064943455ab184eb9c4c100bd2d3d", "is_reserved": 0, "bike_id": "339064943455ab184eb9c4c100bd2d3d", "fusion_lon": 0.0, "rental_uris": {"ios": "https://dc.lft.to/lastmile_qr_scan", "android": "https://dc.lft.to/lastmile_qr_scan"}}, {"lon": -76.99163833333333, "fusion_lat": 0.0, "type": "electric_scooter", "lat": 38.88074866666667, "is_disabled": 0, "name": "38bd61df596fb7b2197b527e1d87d941", "is_reserved": 0, "bike_id": "38bd61df596fb7b2197b527e1d87d941", "fusion_lon": 0.0, "rental_uris": {"ios": "https://dc.lft.to/lastmile_qr_scan", "android": "https://dc.lft.to/lastmile_qr_scan"}}, {"lon": -76.96897233333334, "fusion_lat": 0.0, "type": "electric_scooter", "lat": 38.865066166666665, "is_disabled": 0, "name": "72b1ca737d8f95649da722e9215072ef", "is_reserved": 0, "bike_id": "72b1ca737d8f95649da722e9215072ef", "fusion_lon": 0.0, "rental_uris": {"ios": "https://dc.lft.to/lastmile_qr_scan", "android": "https://dc.lft.to/lastmile_qr_scan"}}, {"lon": -77.00580033333334, "fusion_lat": 0.0, "type": "electric_scooter", "lat": 38.875547166666664, "is_disabled": 0, "name": "8cebbfda10ecf5ee326755bb744a05aa", "is_reserved": 0, "bike_id": "8cebbfda10ecf5ee326755bb744a05aa", "fusion_lon": 0.0, "rental_uris": {"ios": "https://dc.lft.to/lastmile_qr_scan", "android": "https://dc.lft.to/lastmile_qr_scan"}}, {"lon": -77.02290566666667, "fusion_lat": 0.0, "type": "electric_scooter", "lat": 38.9149135, "is_disabled": 0, "name": "912ef374967bb31f98a40ea12e8865b2", "is_reserved": 0, "bike_id": "912ef374967bb31f98a40ea12e8865b2", "fusion_lon": 0.0, "rental_uris": {"ios": "https://dc.lft.to/lastmile_qr_scan", "android": "https://dc.lft.to/lastmile_qr_scan"}}, {"lon": -77.038082, "fusion_lat": 0.0, "type": "electric_scooter", "lat": 38.90978783333333, "is_disabled": 0, "name": "dc819cf7a1fd2e7e64181200ea54114f", "is_reserved": 0, "bike_id": "dc819cf7a1fd2e7e64181200ea54114f", "fusion_lon": 0.0, "rental_uris": {"ios": "https://dc.lft.to/lastmile_qr_scan", "android": "https://dc.lft.to/lastmile_qr_scan"}}, {"lon": -76.982265, "fusion_lat": 0.0, "type": "electric_scooter", "lat": 38.864656, "is_disabled": 0, "name": "7ce349540bd64aec4d87f929666d21d9", "is_reserved": 0, "bike_id": "7ce349540bd64aec4d87f929666d21d9", "fusion_lon": 0.0, "rental_uris": {"ios": "https://dc.lft.to/lastmile_qr_scan", "android": "https://dc.lft.to/lastmile_qr_scan"}}, {"lon": -77.0281725, "fusion_lat": 0.0, "type": "electric_scooter", "lat": 38.89823883333333, "is_disabled": 0, "name": "4eab69129322816751dc6e4cc7baa4c4", "is_reserved": 0, "bike_id": "4eab69129322816751dc6e4cc7baa4c4", "fusion_lon": 0.0, "rental_uris": {"ios": "https://dc.lft.to/lastmile_qr_scan", "android": "https://dc.lft.to/lastmile_qr_scan"}}, {"lon": -77.02590166666667, "fusion_lat": 0.0, "type": "electric_scooter", "lat": 38.90425233333333, "is_disabled": 0, "name": "40bd0da69142675ab31e2b1ca8a4d31e", "is_reserved": 0, "bike_id": "40bd0da69142675ab31e2b1ca8a4d31e", "fusion_lon": 0.0, "rental_uris": {"ios": "https://dc.lft.to/lastmile_qr_scan", "android": "https://dc.lft.to/lastmile_qr_scan"}}, {"lon": -77.024996, "fusion_lat": 0.0, "type": "electric_scooter", "lat": 38.925908, "is_disabled": 0, "name": "1ba9dc28b3829e4251e81c2ff84d7d31", "is_reserved": 0, "bike_id": "1ba9dc28b3829e4251e81c2ff84d7d31", "fusion_lon": 0.0, "rental_uris": {"ios": "https://dc.lft.to/lastmile_qr_scan", "android": "https://dc.lft.to/lastmile_qr_scan"}}, {"lon": -77.2341, "fusion_lat": 0.0, "type": "electric_bike", "lat": 38.87580633333334, "is_disabled": 0, "name": "cfe958ecbf6cbc885d0c822aa19969b4", "is_reserved": 0, "bike_id": "cfe958ecbf6cbc885d0c822aa19969b4", "fusion_lon": 0.0, "rental_uris": {"ios": "https://dc.lft.to/lastmile_qr_scan", "android": "https://dc.lft.to/lastmile_qr_scan"}}, {"lon": -77.0247855, "fusion_lat": 0.0, "type": "electric_scooter", "lat": 38.941929333333334, "is_disabled": 0, "name": "baeb92fd9f71de871c2f3f8b90ebd5ed", "is_reserved": 0, "bike_id": "baeb92fd9f71de871c2f3f8b90ebd5ed", "fusion_lon": 0.0, "rental_uris": {"ios": "https://dc.lft.to/lastmile_qr_scan", "android": "https://dc.lft.to/lastmile_qr_scan"}}, {"lon": -77.0344845, "fusion_lat": 0.0, "type": "electric_scooter", "lat": 38.919068833333334, "is_disabled": 0, "name": "96eff0b3ef071d082e3d48fbd042cc33", "is_reserved": 0, "bike_id": "96eff0b3ef071d082e3d48fbd042cc33", "fusion_lon": 0.0, "rental_uris": {"ios": "https://dc.lft.to/lastmile_qr_scan", "android": "https://dc.lft.to/lastmile_qr_scan"}}, {"lon": -77.03013933333334, "fusion_lat": 0.0, "type": "electric_scooter", "lat": 38.91803216666667, "is_disabled": 0, "name": "4c9eb06bcfeb8694ca67cb30a9916f2e", "is_reserved": 0, "bike_id": "4c9eb06bcfeb8694ca67cb30a9916f2e", "fusion_lon": 0.0, "rental_uris": {"ios": "https://dc.lft.to/lastmile_qr_scan", "android": "https://dc.lft.to/lastmile_qr_scan"}}, {"lon": -77.0175275, "fusion_lat": 0.0, "type": "electric_scooter", "lat": 38.90231383333333, "is_disabled": 0, "name": "fadbaf86f8b2a2079b6759cf8f3c5e1f", "is_reserved": 0, "bike_id": "fadbaf86f8b2a2079b6759cf8f3c5e1f", "fusion_lon": 0.0, "rental_uris": {"ios": "https://dc.lft.to/lastmile_qr_scan", "android": "https://dc.lft.to/lastmile_qr_scan"}}, {"lon": -77.01118266666667, "fusion_lat": 0.0, "type": "electric_scooter", "lat": 38.885108333333335, "is_disabled": 0, "name": "4335c9c5f6ff2bc9b3a537c7de003946", "is_reserved": 0, "bike_id": "4335c9c5f6ff2bc9b3a537c7de003946", "fusion_lon": 0.0, "rental_uris": {"ios": "https://dc.lft.to/lastmile_qr_scan", "android": "https://dc.lft.to/lastmile_qr_scan"}}, {"lon": -77.1423055, "fusion_lat": 0.0, "type": "electric_bike", "lat": 38.8860825, "is_disabled": 0, "name": "74193e63772c17bdbe081ca69f3fc60e", "is_reserved": 0, "bike_id": "74193e63772c17bdbe081ca69f3fc60e", "fusion_lon": 0.0, "rental_uris": {"ios": "https://dc.lft.to/lastmile_qr_scan", "android": "https://dc.lft.to/lastmile_qr_scan"}}, {"lon": -77.07833933333333, "fusion_lat": 0.0, "type": "electric_scooter", "lat": 38.93147183333333, "is_disabled": 0, "name": "67eef397ee83065d565a5d2ad87cb6cd", "is_reserved": 0, "bike_id": "67eef397ee83065d565a5d2ad87cb6cd", "fusion_lon": 0.0, "rental_uris": {"ios": "https://dc.lft.to/lastmile_qr_scan", "android": "https://dc.lft.to/lastmile_qr_scan"}}, {"lon": -77.04999283333333, "fusion_lat": 0.0, "type": "electric_scooter", "lat": 38.892289833333336, "is_disabled": 0, "name": "24d2517880d77c591dd71cb47cf3f463", "is_reserved": 0, "bike_id": "24d2517880d77c591dd71cb47cf3f463", "fusion_lon": 0.0, "rental_uris": {"ios": "https://dc.lft.to/lastmile_qr_scan", "android": "https://dc.lft.to/lastmile_qr_scan"}}, {"lon": -77.04582966666666, "fusion_lat": 0.0, "type": "electric_scooter", "lat": 38.921273166666666, "is_disabled": 0, "name": "b917147fb6ff101a18d26893d37aac45", "is_reserved": 0, "bike_id": "b917147fb6ff101a18d26893d37aac45", "fusion_lon": 0.0, "rental_uris": {"ios": "https://dc.lft.to/lastmile_qr_scan", "android": "https://dc.lft.to/lastmile_qr_scan"}}, {"lon": -77.04500166666666, "fusion_lat": 0.0, "type": "electric_scooter", "lat": 38.9132665, "is_disabled": 0, "name": "4300e8f883835c4d943d145f2654da54", "is_reserved": 0, "bike_id": "4300e8f883835c4d943d145f2654da54", "fusion_lon": 0.0, "rental_uris": {"ios": "https://dc.lft.to/lastmile_qr_scan", "android": "https://dc.lft.to/lastmile_qr_scan"}}, {"lon": -77.00338816666667, "fusion_lat": 0.0, "type": "electric_scooter", "lat": 38.893517, "is_disabled": 0, "name": "7b8c8b2274cbf62c0b298fdf9c077a30", "is_reserved": 0, "bike_id": "7b8c8b2274cbf62c0b298fdf9c077a30", "fusion_lon": 0.0, "rental_uris": {"ios": "https://dc.lft.to/lastmile_qr_scan", "android": "https://dc.lft.to/lastmile_qr_scan"}}, {"lon": -76.99339116666667, "fusion_lat": 0.0, "type": "electric_bike", "lat": 38.9466585, "is_disabled": 0, "name": "38586f5a4aa214da9f60fa26536b779c", "is_reserved": 0, "bike_id": "38586f5a4aa214da9f60fa26536b779c", "fusion_lon": 0.0, "rental_uris": {"ios": "https://dc.lft.to/lastmile_qr_scan", "android": "https://dc.lft.to/lastmile_qr_scan"}}, {"lon": -77.00178983333333, "fusion_lat": 0.0, "type": "electric_scooter", "lat": 38.92477266666667, "is_disabled": 0, "name": "41476869ac5cfb56fd7897d0d0244b6d", "is_reserved": 0, "bike_id": "41476869ac5cfb56fd7897d0d0244b6d", "fusion_lon": 0.0, "rental_uris": {"ios": "https://dc.lft.to/lastmile_qr_scan", "android": "https://dc.lft.to/lastmile_qr_scan"}}, {"lon": -76.9425475, "fusion_lat": 0.0, "type": "electric_bike", "lat": 38.947953166666665, "is_disabled": 0, "name": "47e482c8d3dc1754a488a51eb597d6d5", "is_reserved": 0, "bike_id": "47e482c8d3dc1754a488a51eb597d6d5", "fusion_lon": 0.0, "rental_uris": {"ios": "https://dc.lft.to/lastmile_qr_scan", "android": "https://dc.lft.to/lastmile_qr_scan"}}, {"lon": -77.0035645, "fusion_lat": 0.0, "type": "electric_scooter", "lat": 38.941089166666664, "is_disabled": 0, "name": "17fe52be21089e652908442f421e6d79", "is_reserved": 0, "bike_id": "17fe52be21089e652908442f421e6d79", "fusion_lon": 0.0, "rental_uris": {"ios": "https://dc.lft.to/lastmile_qr_scan", "android": "https://dc.lft.to/lastmile_qr_scan"}}, {"lon": -77.0177265, "fusion_lat": 0.0, "type": "electric_scooter", "lat": 38.881115666666666, "is_disabled": 0, "name": "defe1df95656ef3687881a4a91c93b70", "is_reserved": 0, "bike_id": "defe1df95656ef3687881a4a91c93b70", "fusion_lon": 0.0, "rental_uris": {"ios": "https://dc.lft.to/lastmile_qr_scan", "android": "https://dc.lft.to/lastmile_qr_scan"}}, {"lon": -76.98338833333334, "fusion_lat": 0.0, "type": "electric_scooter", "lat": 38.895408, "is_disabled": 0, "name": "a567d91bd08b9298f54708303d9384a1", "is_reserved": 0, "bike_id": "a567d91bd08b9298f54708303d9384a1", "fusion_lon": 0.0, "rental_uris": {"ios": "https://dc.lft.to/lastmile_qr_scan", "android": "https://dc.lft.to/lastmile_qr_scan"}}, {"lon": -76.99626133333334, "fusion_lat": 0.0, "type": "electric_scooter", "lat": 38.87665483333333, "is_disabled": 0, "name": "139e178e5153e385955c742bffcb9256", "is_reserved": 0, "bike_id": "139e178e5153e385955c742bffcb9256", "fusion_lon": 0.0, "rental_uris": {"ios": "https://dc.lft.to/lastmile_qr_scan", "android": "https://dc.lft.to/lastmile_qr_scan"}}, {"lon": -77.02276583333334, "fusion_lat": 0.0, "type": "electric_scooter", "lat": 38.924835, "is_disabled": 0, "name": "30fb5d07cd16bddbc74bee0ad732eda0", "is_reserved": 0, "bike_id": "30fb5d07cd16bddbc74bee0ad732eda0", "fusion_lon": 0.0, "rental_uris": {"ios": "https://dc.lft.to/lastmile_qr_scan", "android": "https://dc.lft.to/lastmile_qr_scan"}}, {"lon": -77.04146683333333, "fusion_lat": 0.0, "type": "electric_scooter", "lat": 38.922946, "is_disabled": 0, "name": "412f838e1d5e61785e6afcfbc8410488", "is_reserved": 0, "bike_id": "412f838e1d5e61785e6afcfbc8410488", "fusion_lon": 0.0, "rental_uris": {"ios": "https://dc.lft.to/lastmile_qr_scan", "android": "https://dc.lft.to/lastmile_qr_scan"}}, {"lon": -77.017914, "fusion_lat": 0.0, "type": "electric_scooter", "lat": 38.919715333333336, "is_disabled": 0, "name": "79de42faafa5518a4abe25f278e23507", "is_reserved": 0, "bike_id": "79de42faafa5518a4abe25f278e23507", "fusion_lon": 0.0, "rental_uris": {"ios": "https://dc.lft.to/lastmile_qr_scan", "android": "https://dc.lft.to/lastmile_qr_scan"}}, {"lon": -77.04181866666667, "fusion_lat": 0.0, "type": "electric_scooter", "lat": 38.90687366666667, "is_disabled": 0, "name": "6f5d180afdac2cd4f50240497edf7a3c", "is_reserved": 0, "bike_id": "6f5d180afdac2cd4f50240497edf7a3c", "fusion_lon": 0.0, "rental_uris": {"ios": "https://dc.lft.to/lastmile_qr_scan", "android": "https://dc.lft.to/lastmile_qr_scan"}}, {"lon": -77.03205716666666, "fusion_lat": 0.0, "type": "electric_scooter", "lat": 38.913386333333335, "is_disabled": 0, "name": "3a402ae4bba20ec74071bc9c169e3850", "is_reserved": 0, "bike_id": "3a402ae4bba20ec74071bc9c169e3850", "fusion_lon": 0.0, "rental_uris": {"ios": "https://dc.lft.to/lastmile_qr_scan", "android": "https://dc.lft.to/lastmile_qr_scan"}}, {"lon": -77.0580735, "fusion_lat": 0.0, "type": "electric_scooter", "lat": 38.9346535, "is_disabled": 0, "name": "d4b0624a46f9b3d1a0f5824ea205fc7c", "is_reserved": 0, "bike_id": "d4b0624a46f9b3d1a0f5824ea205fc7c", "fusion_lon": 0.0, "rental_uris": {"ios": "https://dc.lft.to/lastmile_qr_scan", "android": "https://dc.lft.to/lastmile_qr_scan"}}, {"lon": -77.01585616666667, "fusion_lat": 0.0, "type": "electric_scooter", "lat": 38.91674783333333, "is_disabled": 0, "name": "ca5f5530775a5da35e30fe1d714645aa", "is_reserved": 0, "bike_id": "ca5f5530775a5da35e30fe1d714645aa", "fusion_lon": 0.0, "rental_uris": {"ios": "https://dc.lft.to/lastmile_qr_scan", "android": "https://dc.lft.to/lastmile_qr_scan"}}, {"lon": -76.9854605, "fusion_lat": 0.0, "type": "electric_scooter", "lat": 38.87829516666667, "is_disabled": 0, "name": "bcc9dfaa4327d42a64e4d6e509388a37", "is_reserved": 0, "bike_id": "bcc9dfaa4327d42a64e4d6e509388a37", "fusion_lon": 0.0, "rental_uris": {"ios": "https://dc.lft.to/lastmile_qr_scan", "android": "https://dc.lft.to/lastmile_qr_scan"}}, {"lon": -77.088697, "fusion_lat": 0.0, "type": "electric_bike", "lat": 38.95111416666667, "is_disabled": 0, "name": "21f395fce87deab1be6e52cdaff7c5ca", "is_reserved": 0, "bike_id": "21f395fce87deab1be6e52cdaff7c5ca", "fusion_lon": 0.0, "rental_uris": {"ios": "https://dc.lft.to/lastmile_qr_scan", "android": "https://dc.lft.to/lastmile_qr_scan"}}, {"lon": -77.019126, "fusion_lat": 0.0, "type": "electric_scooter", "lat": 38.923658, "is_disabled": 0, "name": "d187db56731b20bc226a202e6d2713ae", "is_reserved": 0, "bike_id": "d187db56731b20bc226a202e6d2713ae", "fusion_lon": 0.0, "rental_uris": {"ios": "https://dc.lft.to/lastmile_qr_scan", "android": "https://dc.lft.to/lastmile_qr_scan"}}, {"lon": -77.04126783333334, "fusion_lat": 0.0, "type": "electric_scooter", "lat": 38.933601333333336, "is_disabled": 0, "name": "c7a98524a048d21d0fc208dd7771a2df", "is_reserved": 0, "bike_id": "c7a98524a048d21d0fc208dd7771a2df", "fusion_lon": 0.0, "rental_uris": {"ios": "https://dc.lft.to/lastmile_qr_scan", "android": "https://dc.lft.to/lastmile_qr_scan"}}, {"lon": -77.026212, "fusion_lat": 0.0, "type": "electric_scooter", "lat": 38.9034045, "is_disabled": 0, "name": "6e695331674041c502818720fba7be08", "is_reserved": 0, "bike_id": "6e695331674041c502818720fba7be08", "fusion_lon": 0.0, "rental_uris": {"ios": "https://dc.lft.to/lastmile_qr_scan", "android": "https://dc.lft.to/lastmile_qr_scan"}}, {"lon": -76.98409, "fusion_lat": 0.0, "type": "electric_scooter", "lat": 38.905177, "is_disabled": 0, "name": "5e0d3da0712c39b24b06039134720cd7", "is_reserved": 0, "bike_id": "5e0d3da0712c39b24b06039134720cd7", "fusion_lon": 0.0, "rental_uris": {"ios": "https://dc.lft.to/lastmile_qr_scan", "android": "https://dc.lft.to/lastmile_qr_scan"}}, {"lon": -77.03500616666666, "fusion_lat": 0.0, "type": "electric_scooter", "lat": 38.903548, "is_disabled": 0, "name": "7feb7ff3aadb1facdca7c58ca2c3c794", "is_reserved": 0, "bike_id": "7feb7ff3aadb1facdca7c58ca2c3c794", "fusion_lon": 0.0, "rental_uris": {"ios": "https://dc.lft.to/lastmile_qr_scan", "android": "https://dc.lft.to/lastmile_qr_scan"}}, {"lon": -77.01103566666667, "fusion_lat": 0.0, "type": "electric_scooter", "lat": 38.910352833333334, "is_disabled": 0, "name": "52fb877b1e56749cf7118e32de5fd21b", "is_reserved": 0, "bike_id": "52fb877b1e56749cf7118e32de5fd21b", "fusion_lon": 0.0, "rental_uris": {"ios": "https://dc.lft.to/lastmile_qr_scan", "android": "https://dc.lft.to/lastmile_qr_scan"}}, {"lon": -77.0121795, "fusion_lat": 0.0, "type": "electric_scooter", "lat": 38.897970666666666, "is_disabled": 0, "name": "8ebd9a1301011205602eade01c14342f", "is_reserved": 0, "bike_id": "8ebd9a1301011205602eade01c14342f", "fusion_lon": 0.0, "rental_uris": {"ios": "https://dc.lft.to/lastmile_qr_scan", "android": "https://dc.lft.to/lastmile_qr_scan"}}, {"lon": -77.02716466666666, "fusion_lat": 0.0, "type": "electric_scooter", "lat": 38.91884566666667, "is_disabled": 0, "name": "da2638a24e743b4bc313d8838db42449", "is_reserved": 0, "bike_id": "da2638a24e743b4bc313d8838db42449", "fusion_lon": 0.0, "rental_uris": {"ios": "https://dc.lft.to/lastmile_qr_scan", "android": "https://dc.lft.to/lastmile_qr_scan"}}, {"lon": -76.992568, "fusion_lat": 0.0, "type": "electric_bike", "lat": 38.80732183333333, "is_disabled": 0, "name": "90f33e4c25dabc5a72056bd51554876d", "is_reserved": 0, "bike_id": "90f33e4c25dabc5a72056bd51554876d", "fusion_lon": 0.0, "rental_uris": {"ios": "https://dc.lft.to/lastmile_qr_scan", "android": "https://dc.lft.to/lastmile_qr_scan"}}, {"lon": -77.03154583333334, "fusion_lat": 0.0, "type": "electric_scooter", "lat": 38.9059795, "is_disabled": 0, "name": "fa62ff82b6f6044829302f2549e3979e", "is_reserved": 0, "bike_id": "fa62ff82b6f6044829302f2549e3979e", "fusion_lon": 0.0, "rental_uris": {"ios": "https://dc.lft.to/lastmile_qr_scan", "android": "https://dc.lft.to/lastmile_qr_scan"}}, {"lon": -77.02968783333333, "fusion_lat": 0.0, "type": "electric_scooter", "lat": 38.926821, "is_disabled": 0, "name": "70532edac29a4c0adc3d04fd47f99904", "is_reserved": 0, "bike_id": "70532edac29a4c0adc3d04fd47f99904", "fusion_lon": 0.0, "rental_uris": {"ios": "https://dc.lft.to/lastmile_qr_scan", "android": "https://dc.lft.to/lastmile_qr_scan"}}, {"lon": -77.02198, "fusion_lat": 0.0, "type": "electric_scooter", "lat": 38.900163166666665, "is_disabled": 0, "name": "47d5104fa88a9cb931d63dfd3d1f7494", "is_reserved": 0, "bike_id": "47d5104fa88a9cb931d63dfd3d1f7494", "fusion_lon": 0.0, "rental_uris": {"ios": "https://dc.lft.to/lastmile_qr_scan", "android": "https://dc.lft.to/lastmile_qr_scan"}}, {"lon": -77.01375983333334, "fusion_lat": 0.0, "type": "electric_scooter", "lat": 38.88687066666667, "is_disabled": 0, "name": "5ad419af68255ac792eaa44886338af5", "is_reserved": 0, "bike_id": "5ad419af68255ac792eaa44886338af5", "fusion_lon": 0.0, "rental_uris": {"ios": "https://dc.lft.to/lastmile_qr_scan", "android": "https://dc.lft.to/lastmile_qr_scan"}}, {"lon": -77.04157933333333, "fusion_lat": 0.0, "type": "electric_scooter", "lat": 38.9173545, "is_disabled": 0, "name": "f589f23c2ef176cfc176d15c0e4fbdb4", "is_reserved": 0, "bike_id": "f589f23c2ef176cfc176d15c0e4fbdb4", "fusion_lon": 0.0, "rental_uris": {"ios": "https://dc.lft.to/lastmile_qr_scan", "android": "https://dc.lft.to/lastmile_qr_scan"}}, {"lon": -77.03577066666666, "fusion_lat": 0.0, "type": "electric_scooter", "lat": 38.905542, "is_disabled": 0, "name": "37c25964d686b469f14049361264099c", "is_reserved": 0, "bike_id": "37c25964d686b469f14049361264099c", "fusion_lon": 0.0, "rental_uris": {"ios": "https://dc.lft.to/lastmile_qr_scan", "android": "https://dc.lft.to/lastmile_qr_scan"}}, {"lon": -76.93027133333334, "fusion_lat": 0.0, "type": "electric_scooter", "lat": 38.90168333333333, "is_disabled": 0, "name": "ff8b535ed5e66413146587e61023e565", "is_reserved": 0, "bike_id": "ff8b535ed5e66413146587e61023e565", "fusion_lon": 0.0, "rental_uris": {"ios": "https://dc.lft.to/lastmile_qr_scan", "android": "https://dc.lft.to/lastmile_qr_scan"}}, {"lon": -77.032256, "fusion_lat": 0.0, "type": "electric_scooter", "lat": 38.916379, "is_disabled": 0, "name": "9a81349ccf824a9120cac4b421cb99f5", "is_reserved": 0, "bike_id": "9a81349ccf824a9120cac4b421cb99f5", "fusion_lon": 0.0, "rental_uris": {"ios": "https://dc.lft.to/lastmile_qr_scan", "android": "https://dc.lft.to/lastmile_qr_scan"}}, {"lon": -77.03740933333333, "fusion_lat": 0.0, "type": "electric_scooter", "lat": 38.87991783333333, "is_disabled": 0, "name": "c89cb8dea0c537303e6e21b65ebba588", "is_reserved": 0, "bike_id": "c89cb8dea0c537303e6e21b65ebba588", "fusion_lon": 0.0, "rental_uris": {"ios": "https://dc.lft.to/lastmile_qr_scan", "android": "https://dc.lft.to/lastmile_qr_scan"}}, {"lon": -76.97633033333334, "fusion_lat": 0.0, "type": "electric_scooter", "lat": 38.90485966666667, "is_disabled": 0, "name": "bed1cc388a9f4bf53c84371760a1763e", "is_reserved": 0, "bike_id": "bed1cc388a9f4bf53c84371760a1763e", "fusion_lon": 0.0, "rental_uris": {"ios": "https://dc.lft.to/lastmile_qr_scan", "android": "https://dc.lft.to/lastmile_qr_scan"}}, {"lon": -77.0057145, "fusion_lat": 0.0, "type": "electric_scooter", "lat": 38.9023245, "is_disabled": 0, "name": "1e473f35588cb2b679b8e67e9647ba4c", "is_reserved": 0, "bike_id": "1e473f35588cb2b679b8e67e9647ba4c", "fusion_lon": 0.0, "rental_uris": {"ios": "https://dc.lft.to/lastmile_qr_scan", "android": "https://dc.lft.to/lastmile_qr_scan"}}, {"lon": -77.00320166666667, "fusion_lat": 0.0, "type": "electric_scooter", "lat": 38.889874, "is_disabled": 0, "name": "d69f8c4c712600a71cbc8c81e6701cf0", "is_reserved": 0, "bike_id": "d69f8c4c712600a71cbc8c81e6701cf0", "fusion_lon": 0.0, "rental_uris": {"ios": "https://dc.lft.to/lastmile_qr_scan", "android": "https://dc.lft.to/lastmile_qr_scan"}}, {"lon": -76.9957245, "fusion_lat": 0.0, "type": "electric_scooter", "lat": 38.955403, "is_disabled": 0, "name": "a66f33f046cedd7848fab20ce56479ba", "is_reserved": 0, "bike_id": "a66f33f046cedd7848fab20ce56479ba", "fusion_lon": 0.0, "rental_uris": {"ios": "https://dc.lft.to/lastmile_qr_scan", "android": "https://dc.lft.to/lastmile_qr_scan"}}, {"lon": -77.05084783333334, "fusion_lat": 0.0, "type": "electric_scooter", "lat": 38.9235065, "is_disabled": 0, "name": "549a91fc7e9ceeabc23c527587411f8d", "is_reserved": 0, "bike_id": "549a91fc7e9ceeabc23c527587411f8d", "fusion_lon": 0.0, "rental_uris": {"ios": "https://dc.lft.to/lastmile_qr_scan", "android": "https://dc.lft.to/lastmile_qr_scan"}}, {"lon": -77.0462195, "fusion_lat": 0.0, "type": "electric_scooter", "lat": 38.91605883333333, "is_disabled": 0, "name": "bc9c8dfcda23c9450f70bb93bd8ec6bb", "is_reserved": 0, "bike_id": "bc9c8dfcda23c9450f70bb93bd8ec6bb", "fusion_lon": 0.0, "rental_uris": {"ios": "https://dc.lft.to/lastmile_qr_scan", "android": "https://dc.lft.to/lastmile_qr_scan"}}, {"lon": -77.00212116666667, "fusion_lat": 0.0, "type": "electric_scooter", "lat": 38.89099916666667, "is_disabled": 0, "name": "28f6e8879283365aa53891562a7756a2", "is_reserved": 0, "bike_id": "28f6e8879283365aa53891562a7756a2", "fusion_lon": 0.0, "rental_uris": {"ios": "https://dc.lft.to/lastmile_qr_scan", "android": "https://dc.lft.to/lastmile_qr_scan"}}, {"lon": -77.03359183333333, "fusion_lat": 0.0, "type": "electric_scooter", "lat": 38.895253333333336, "is_disabled": 0, "name": "a311d4efec35aee68f24b76814badc1a", "is_reserved": 0, "bike_id": "a311d4efec35aee68f24b76814badc1a", "fusion_lon": 0.0, "rental_uris": {"ios": "https://dc.lft.to/lastmile_qr_scan", "android": "https://dc.lft.to/lastmile_qr_scan"}}, {"lon": -77.03625966666667, "fusion_lat": 0.0, "type": "electric_scooter", "lat": 38.92420966666667, "is_disabled": 0, "name": "1093545de6588ab26cb9b90461403950", "is_reserved": 0, "bike_id": "1093545de6588ab26cb9b90461403950", "fusion_lon": 0.0, "rental_uris": {"ios": "https://dc.lft.to/lastmile_qr_scan", "android": "https://dc.lft.to/lastmile_qr_scan"}}, {"lon": -77.01944883333333, "fusion_lat": 0.0, "type": "electric_scooter", "lat": 38.9241675, "is_disabled": 0, "name": "856f46336ad7cc67b7114d5d73047c14", "is_reserved": 0, "bike_id": "856f46336ad7cc67b7114d5d73047c14", "fusion_lon": 0.0, "rental_uris": {"ios": "https://dc.lft.to/lastmile_qr_scan", "android": "https://dc.lft.to/lastmile_qr_scan"}}, {"lon": -77.1017445, "fusion_lat": 0.0, "type": "electric_bike", "lat": 38.918913, "is_disabled": 0, "name": "386a3c119694a07e0f8f9e8532340491", "is_reserved": 0, "bike_id": "386a3c119694a07e0f8f9e8532340491", "fusion_lon": 0.0, "rental_uris": {"ios": "https://dc.lft.to/lastmile_qr_scan", "android": "https://dc.lft.to/lastmile_qr_scan"}}, {"lon": -77.01924766666667, "fusion_lat": 0.0, "type": "electric_scooter", "lat": 38.941152333333335, "is_disabled": 0, "name": "05ddba018ba3a41e9a6591a9e628b7de", "is_reserved": 0, "bike_id": "05ddba018ba3a41e9a6591a9e628b7de", "fusion_lon": 0.0, "rental_uris": {"ios": "https://dc.lft.to/lastmile_qr_scan", "android": "https://dc.lft.to/lastmile_qr_scan"}}, {"lon": -76.97778966666667, "fusion_lat": 0.0, "type": "electric_scooter", "lat": 38.897962166666666, "is_disabled": 0, "name": "ce4d5e92ca28b8442b78b43072df8eb6", "is_reserved": 0, "bike_id": "ce4d5e92ca28b8442b78b43072df8eb6", "fusion_lon": 0.0, "rental_uris": {"ios": "https://dc.lft.to/lastmile_qr_scan", "android": "https://dc.lft.to/lastmile_qr_scan"}}, {"lon": -77.04639816666666, "fusion_lat": 0.0, "type": "electric_scooter", "lat": 38.9192955, "is_disabled": 0, "name": "3ba7a1bc6e8b7021d11b481be575e74c", "is_reserved": 0, "bike_id": "3ba7a1bc6e8b7021d11b481be575e74c", "fusion_lon": 0.0, "rental_uris": {"ios": "https://dc.lft.to/lastmile_qr_scan", "android": "https://dc.lft.to/lastmile_qr_scan"}}, {"lon": -77.01776566666666, "fusion_lat": 0.0, "type": "electric_scooter", "lat": 38.90032216666667, "is_disabled": 0, "name": "0be544ac75dba146b80431f11488bd11", "is_reserved": 0, "bike_id": "0be544ac75dba146b80431f11488bd11", "fusion_lon": 0.0, "rental_uris": {"ios": "https://dc.lft.to/lastmile_qr_scan", "android": "https://dc.lft.to/lastmile_qr_scan"}}, {"lon": -76.98140116666667, "fusion_lat": 0.0, "type": "electric_bike", "lat": 39.007193, "is_disabled": 0, "name": "06f20200e0bf98cfac19bb95758569f1", "is_reserved": 0, "bike_id": "06f20200e0bf98cfac19bb95758569f1", "fusion_lon": 0.0, "rental_uris": {"ios": "https://dc.lft.to/lastmile_qr_scan", "android": "https://dc.lft.to/lastmile_qr_scan"}}, {"lon": -77.02253616666667, "fusion_lat": 0.0, "type": "electric_scooter", "lat": 38.88133416666667, "is_disabled": 0, "name": "709197fa61100ffbbd445eb1ccc3e3e9", "is_reserved": 0, "bike_id": "709197fa61100ffbbd445eb1ccc3e3e9", "fusion_lon": 0.0, "rental_uris": {"ios": "https://dc.lft.to/lastmile_qr_scan", "android": "https://dc.lft.to/lastmile_qr_scan"}}, {"lon": -77.04618533333333, "fusion_lat": 0.0, "type": "electric_scooter", "lat": 38.923256, "is_disabled": 0, "name": "03fccd76600946de3d1c87f6f8d26b0b", "is_reserved": 0, "bike_id": "03fccd76600946de3d1c87f6f8d26b0b", "fusion_lon": 0.0, "rental_uris": {"ios": "https://dc.lft.to/lastmile_qr_scan", "android": "https://dc.lft.to/lastmile_qr_scan"}}, {"lon": -77.07807516666666, "fusion_lat": 0.0, "type": "electric_bike", "lat": 38.849033166666665, "is_disabled": 0, "name": "8da30aff576bfcac60748eb97da576da", "is_reserved": 0, "bike_id": "8da30aff576bfcac60748eb97da576da", "fusion_lon": 0.0, "rental_uris": {"ios": "https://dc.lft.to/lastmile_qr_scan", "android": "https://dc.lft.to/lastmile_qr_scan"}}, {"lon": -77.0415085, "fusion_lat": 0.0, "type": "electric_scooter", "lat": 38.91706416666667, "is_disabled": 0, "name": "0d7cfbf975c86c064644b3060507a189", "is_reserved": 0, "bike_id": "0d7cfbf975c86c064644b3060507a189", "fusion_lon": 0.0, "rental_uris": {"ios": "https://dc.lft.to/lastmile_qr_scan", "android": "https://dc.lft.to/lastmile_qr_scan"}}, {"lon": -76.99436566666667, "fusion_lat": 0.0, "type": "electric_scooter", "lat": 38.90783, "is_disabled": 0, "name": "49e2b2199d4924c85a9fd073b8330e03", "is_reserved": 0, "bike_id": "49e2b2199d4924c85a9fd073b8330e03", "fusion_lon": 0.0, "rental_uris": {"ios": "https://dc.lft.to/lastmile_qr_scan", "android": "https://dc.lft.to/lastmile_qr_scan"}}, {"lon": -77.03222016666666, "fusion_lat": 0.0, "type": "electric_scooter", "lat": 38.9205175, "is_disabled": 0, "name": "aa139843f7cc98f3d9e9109714fbcaed", "is_reserved": 0, "bike_id": "aa139843f7cc98f3d9e9109714fbcaed", "fusion_lon": 0.0, "rental_uris": {"ios": "https://dc.lft.to/lastmile_qr_scan", "android": "https://dc.lft.to/lastmile_qr_scan"}}, {"lon": -77.03168033333333, "fusion_lat": 0.0, "type": "electric_scooter", "lat": 38.90960116666667, "is_disabled": 0, "name": "b7950431de2a3edbc47927dd7a38d3b2", "is_reserved": 0, "bike_id": "b7950431de2a3edbc47927dd7a38d3b2", "fusion_lon": 0.0, "rental_uris": {"ios": "https://dc.lft.to/lastmile_qr_scan", "android": "https://dc.lft.to/lastmile_qr_scan"}}, {"lon": -77.03644266666667, "fusion_lat": 0.0, "type": "electric_scooter", "lat": 38.92341733333333, "is_disabled": 0, "name": "58a0c19fe3c9e5c828bbd2e0c9a95d25", "is_reserved": 0, "bike_id": "58a0c19fe3c9e5c828bbd2e0c9a95d25", "fusion_lon": 0.0, "rental_uris": {"ios": "https://dc.lft.to/lastmile_qr_scan", "android": "https://dc.lft.to/lastmile_qr_scan"}}, {"lon": -77.02114933333333, "fusion_lat": 0.0, "type": "electric_scooter", "lat": 38.8995025, "is_disabled": 0, "name": "146e6d21f83eb4e70c02c518bf95603e", "is_reserved": 0, "bike_id": "146e6d21f83eb4e70c02c518bf95603e", "fusion_lon": 0.0, "rental_uris": {"ios": "https://dc.lft.to/lastmile_qr_scan", "android": "https://dc.lft.to/lastmile_qr_scan"}}, {"lon": -77.059306, "fusion_lat": 0.0, "type": "electric_scooter", "lat": 38.9430295, "is_disabled": 0, "name": "7d56d7467aae34bb4fb11245a33037ff", "is_reserved": 0, "bike_id": "7d56d7467aae34bb4fb11245a33037ff", "fusion_lon": 0.0, "rental_uris": {"ios": "https://dc.lft.to/lastmile_qr_scan", "android": "https://dc.lft.to/lastmile_qr_scan"}}, {"lon": -77.0466515, "fusion_lat": 0.0, "type": "electric_scooter", "lat": 38.892452, "is_disabled": 0, "name": "209878b54b449ce64ec25e85dcec4513", "is_reserved": 0, "bike_id": "209878b54b449ce64ec25e85dcec4513", "fusion_lon": 0.0, "rental_uris": {"ios": "https://dc.lft.to/lastmile_qr_scan", "android": "https://dc.lft.to/lastmile_qr_scan"}}, {"lon": -77.05158566666667, "fusion_lat": 0.0, "type": "electric_scooter", "lat": 38.898002166666664, "is_disabled": 0, "name": "f2dc401fcce540a7fecf96ce27130ecf", "is_reserved": 0, "bike_id": "f2dc401fcce540a7fecf96ce27130ecf", "fusion_lon": 0.0, "rental_uris": {"ios": "https://dc.lft.to/lastmile_qr_scan", "android": "https://dc.lft.to/lastmile_qr_scan"}}, {"lon": -76.98987116666666, "fusion_lat": 0.0, "type": "electric_bike", "lat": 38.93675966666667, "is_disabled": 0, "name": "3815b5e001e21816051958761c93f3ab", "is_reserved": 0, "bike_id": "3815b5e001e21816051958761c93f3ab", "fusion_lon": 0.0, "rental_uris": {"ios": "https://dc.lft.to/lastmile_qr_scan", "android": "https://dc.lft.to/lastmile_qr_scan"}}, {"lon": -77.03505766666666, "fusion_lat": 0.0, "type": "electric_scooter", "lat": 38.91625333333333, "is_disabled": 0, "name": "4b24249ef7206f5d05cfdaeedb82f345", "is_reserved": 0, "bike_id": "4b24249ef7206f5d05cfdaeedb82f345", "fusion_lon": 0.0, "rental_uris": {"ios": "https://dc.lft.to/lastmile_qr_scan", "android": "https://dc.lft.to/lastmile_qr_scan"}}, {"lon": -76.94733516666666, "fusion_lat": 0.0, "type": "electric_scooter", "lat": 38.89684166666667, "is_disabled": 0, "name": "beb51d25c595e013bb5bfa53a057fb99", "is_reserved": 0, "bike_id": "beb51d25c595e013bb5bfa53a057fb99", "fusion_lon": 0.0, "rental_uris": {"ios": "https://dc.lft.to/lastmile_qr_scan", "android": "https://dc.lft.to/lastmile_qr_scan"}}, {"lon": -77.0957655, "fusion_lat": 0.0, "type": "electric_bike", "lat": 38.91702633333333, "is_disabled": 0, "name": "e78796af4a7afaeb3139acedf3aa92d0", "is_reserved": 0, "bike_id": "e78796af4a7afaeb3139acedf3aa92d0", "fusion_lon": 0.0, "rental_uris": {"ios": "https://dc.lft.to/lastmile_qr_scan", "android": "https://dc.lft.to/lastmile_qr_scan"}}, {"lon": -77.03450883333333, "fusion_lat": 0.0, "type": "electric_scooter", "lat": 38.921391, "is_disabled": 0, "name": "685ebf3acb7a04c33c1149e969f88e43", "is_reserved": 0, "bike_id": "685ebf3acb7a04c33c1149e969f88e43", "fusion_lon": 0.0, "rental_uris": {"ios": "https://dc.lft.to/lastmile_qr_scan", "android": "https://dc.lft.to/lastmile_qr_scan"}}, {"lon": -76.94786283333333, "fusion_lat": 0.0, "type": "electric_scooter", "lat": 38.896369666666665, "is_disabled": 0, "name": "2fa1595353cf0f6818638af9285087b6", "is_reserved": 0, "bike_id": "2fa1595353cf0f6818638af9285087b6", "fusion_lon": 0.0, "rental_uris": {"ios": "https://dc.lft.to/lastmile_qr_scan", "android": "https://dc.lft.to/lastmile_qr_scan"}}, {"lon": -77.040755, "fusion_lat": 0.0, "type": "electric_scooter", "lat": 38.89347, "is_disabled": 0, "name": "2b5ac7af21b003d3b434013e90aff35b", "is_reserved": 0, "bike_id": "2b5ac7af21b003d3b434013e90aff35b", "fusion_lon": 0.0, "rental_uris": {"ios": "https://dc.lft.to/lastmile_qr_scan", "android": "https://dc.lft.to/lastmile_qr_scan"}}, {"lon": -77.19134566666666, "fusion_lat": 0.0, "type": "electric_bike", "lat": 38.894550833333334, "is_disabled": 0, "name": "7b9e2e8bbf67bfe4b74daf06c29c2a5c", "is_reserved": 0, "bike_id": "7b9e2e8bbf67bfe4b74daf06c29c2a5c", "fusion_lon": 0.0, "rental_uris": {"ios": "https://dc.lft.to/lastmile_qr_scan", "android": "https://dc.lft.to/lastmile_qr_scan"}}, {"lon": -77.00684183333334, "fusion_lat": 0.0, "type": "electric_scooter", "lat": 38.900100333333334, "is_disabled": 0, "name": "68921b287770787e1b0e7fbc4cd112d9", "is_reserved": 0, "bike_id": "68921b287770787e1b0e7fbc4cd112d9", "fusion_lon": 0.0, "rental_uris": {"ios": "https://dc.lft.to/lastmile_qr_scan", "android": "https://dc.lft.to/lastmile_qr_scan"}}, {"lon": -77.11691383333333, "fusion_lat": 0.0, "type": "electric_bike", "lat": 38.88551266666666, "is_disabled": 0, "name": "cd82ca9512cc56919a193d3df9a4b11d", "is_reserved": 0, "bike_id": "cd82ca9512cc56919a193d3df9a4b11d", "fusion_lon": 0.0, "rental_uris": {"ios": "https://dc.lft.to/lastmile_qr_scan", "android": "https://dc.lft.to/lastmile_qr_scan"}}, {"lon": -76.93185883333334, "fusion_lat": 0.0, "type": "electric_scooter", "lat": 38.898750666666665, "is_disabled": 0, "name": "68dc5dac16eb8c0d8b730e185e566ffc", "is_reserved": 0, "bike_id": "68dc5dac16eb8c0d8b730e185e566ffc", "fusion_lon": 0.0, "rental_uris": {"ios": "https://dc.lft.to/lastmile_qr_scan", "android": "https://dc.lft.to/lastmile_qr_scan"}}, {"lon": -77.018271, "fusion_lat": 0.0, "type": "electric_scooter", "lat": 38.92225533333333, "is_disabled": 0, "name": "2f20f1c63bdc6669d8381c2a4ff907ec", "is_reserved": 0, "bike_id": "2f20f1c63bdc6669d8381c2a4ff907ec", "fusion_lon": 0.0, "rental_uris": {"ios": "https://dc.lft.to/lastmile_qr_scan", "android": "https://dc.lft.to/lastmile_qr_scan"}}, {"lon": -77.02459866666666, "fusion_lat": 0.0, "type": "electric_scooter", "lat": 38.8973525, "is_disabled": 0, "name": "7cdd94d370104dafd128d9b0f5e25676", "is_reserved": 0, "bike_id": "7cdd94d370104dafd128d9b0f5e25676", "fusion_lon": 0.0, "rental_uris": {"ios": "https://dc.lft.to/lastmile_qr_scan", "android": "https://dc.lft.to/lastmile_qr_scan"}}, {"lon": -76.937181, "fusion_lat": 0.0, "type": "electric_scooter", "lat": 38.89011266666667, "is_disabled": 0, "name": "7d24ec25d51bc6ce7be83aa37f94135f", "is_reserved": 0, "bike_id": "7d24ec25d51bc6ce7be83aa37f94135f", "fusion_lon": 0.0, "rental_uris": {"ios": "https://dc.lft.to/lastmile_qr_scan", "android": "https://dc.lft.to/lastmile_qr_scan"}}, {"lon": -77.026961, "fusion_lat": 0.0, "type": "electric_scooter", "lat": 38.906949166666664, "is_disabled": 0, "name": "f0afdfe5f194ea461fe33bd8faf5d064", "is_reserved": 0, "bike_id": "f0afdfe5f194ea461fe33bd8faf5d064", "fusion_lon": 0.0, "rental_uris": {"ios": "https://dc.lft.to/lastmile_qr_scan", "android": "https://dc.lft.to/lastmile_qr_scan"}}, {"lon": -77.021562, "fusion_lat": 0.0, "type": "electric_scooter", "lat": 38.92602133333333, "is_disabled": 0, "name": "bc2aaadc072d0252ad59d524421991d4", "is_reserved": 0, "bike_id": "bc2aaadc072d0252ad59d524421991d4", "fusion_lon": 0.0, "rental_uris": {"ios": "https://dc.lft.to/lastmile_qr_scan", "android": "https://dc.lft.to/lastmile_qr_scan"}}, {"lon": -76.99819083333334, "fusion_lat": 0.0, "type": "electric_scooter", "lat": 38.929161, "is_disabled": 0, "name": "b685836aeafe928b0bc852e60dcd4002", "is_reserved": 0, "bike_id": "b685836aeafe928b0bc852e60dcd4002", "fusion_lon": 0.0, "rental_uris": {"ios": "https://dc.lft.to/lastmile_qr_scan", "android": "https://dc.lft.to/lastmile_qr_scan"}}, {"lon": -77.03381483333334, "fusion_lat": 0.0, "type": "electric_scooter", "lat": 38.92157866666667, "is_disabled": 0, "name": "ddc9db558cad1c9318d5a612e4894c75", "is_reserved": 0, "bike_id": "ddc9db558cad1c9318d5a612e4894c75", "fusion_lon": 0.0, "rental_uris": {"ios": "https://dc.lft.to/lastmile_qr_scan", "android": "https://dc.lft.to/lastmile_qr_scan"}}, {"lon": -77.04368233333334, "fusion_lat": 0.0, "type": "electric_scooter", "lat": 38.89677283333333, "is_disabled": 0, "name": "2404c18c9bbb7f4e0ea2227af5d1982a", "is_reserved": 0, "bike_id": "2404c18c9bbb7f4e0ea2227af5d1982a", "fusion_lon": 0.0, "rental_uris": {"ios": "https://dc.lft.to/lastmile_qr_scan", "android": "https://dc.lft.to/lastmile_qr_scan"}}, {"lon": -77.0288015, "fusion_lat": 0.0, "type": "electric_scooter", "lat": 38.897140666666665, "is_disabled": 0, "name": "d673448467fd5fcae350b1e9fe184eda", "is_reserved": 0, "bike_id": "d673448467fd5fcae350b1e9fe184eda", "fusion_lon": 0.0, "rental_uris": {"ios": "https://dc.lft.to/lastmile_qr_scan", "android": "https://dc.lft.to/lastmile_qr_scan"}}, {"lon": -77.0192195, "fusion_lat": 0.0, "type": "electric_scooter", "lat": 38.921762666666666, "is_disabled": 0, "name": "4198d524894075e5501f0cff5376b404", "is_reserved": 0, "bike_id": "4198d524894075e5501f0cff5376b404", "fusion_lon": 0.0, "rental_uris": {"ios": "https://dc.lft.to/lastmile_qr_scan", "android": "https://dc.lft.to/lastmile_qr_scan"}}, {"lon": -77.04484, "fusion_lat": 0.0, "type": "electric_scooter", "lat": 38.9108355, "is_disabled": 0, "name": "36abac434655c066b51101685f70891c", "is_reserved": 0, "bike_id": "36abac434655c066b51101685f70891c", "fusion_lon": 0.0, "rental_uris": {"ios": "https://dc.lft.to/lastmile_qr_scan", "android": "https://dc.lft.to/lastmile_qr_scan"}}, {"lon": -77.04375966666667, "fusion_lat": 0.0, "type": "electric_scooter", "lat": 38.910502666666666, "is_disabled": 0, "name": "90493c8ea888da5d300596a982fd13d2", "is_reserved": 0, "bike_id": "90493c8ea888da5d300596a982fd13d2", "fusion_lon": 0.0, "rental_uris": {"ios": "https://dc.lft.to/lastmile_qr_scan", "android": "https://dc.lft.to/lastmile_qr_scan"}}, {"lon": -77.03360983333333, "fusion_lat": 0.0, "type": "electric_scooter", "lat": 38.928012833333334, "is_disabled": 0, "name": "a47d5a0d46859146c0374c040314cfbd", "is_reserved": 0, "bike_id": "a47d5a0d46859146c0374c040314cfbd", "fusion_lon": 0.0, "rental_uris": {"ios": "https://dc.lft.to/lastmile_qr_scan", "android": "https://dc.lft.to/lastmile_qr_scan"}}, {"lon": -77.00290783333334, "fusion_lat": 0.0, "type": "electric_scooter", "lat": 38.90549933333333, "is_disabled": 0, "name": "898183918dc3a3f1e75da14fb31f449e", "is_reserved": 0, "bike_id": "898183918dc3a3f1e75da14fb31f449e", "fusion_lon": 0.0, "rental_uris": {"ios": "https://dc.lft.to/lastmile_qr_scan", "android": "https://dc.lft.to/lastmile_qr_scan"}}, {"lon": -76.9317755, "fusion_lat": 0.0, "type": "electric_scooter", "lat": 38.898814333333334, "is_disabled": 0, "name": "a0e367eb798b3a0ea6c17de1200d9618", "is_reserved": 0, "bike_id": "a0e367eb798b3a0ea6c17de1200d9618", "fusion_lon": 0.0, "rental_uris": {"ios": "https://dc.lft.to/lastmile_qr_scan", "android": "https://dc.lft.to/lastmile_qr_scan"}}, {"lon": -77.021176, "fusion_lat": 0.0, "type": "electric_scooter", "lat": 38.9021695, "is_disabled": 0, "name": "2062e6003df2e297a9a1cc3ba845acf5", "is_reserved": 0, "bike_id": "2062e6003df2e297a9a1cc3ba845acf5", "fusion_lon": 0.0, "rental_uris": {"ios": "https://dc.lft.to/lastmile_qr_scan", "android": "https://dc.lft.to/lastmile_qr_scan"}}, {"lon": -77.04868566666667, "fusion_lat": 0.0, "type": "electric_scooter", "lat": 38.90051316666667, "is_disabled": 0, "name": "04502e78369339093365d6a3f181bdb8", "is_reserved": 0, "bike_id": "04502e78369339093365d6a3f181bdb8", "fusion_lon": 0.0, "rental_uris": {"ios": "https://dc.lft.to/lastmile_qr_scan", "android": "https://dc.lft.to/lastmile_qr_scan"}}, {"lon": -77.03954, "fusion_lat": 0.0, "type": "electric_scooter", "lat": 38.8991455, "is_disabled": 0, "name": "ab8866eb46775dcaef345d24f516f1d5", "is_reserved": 0, "bike_id": "ab8866eb46775dcaef345d24f516f1d5", "fusion_lon": 0.0, "rental_uris": {"ios": "https://dc.lft.to/lastmile_qr_scan", "android": "https://dc.lft.to/lastmile_qr_scan"}}, {"lon": -77.03984533333333, "fusion_lat": 0.0, "type": "electric_scooter", "lat": 38.91809716666667, "is_disabled": 0, "name": "08bb9edbf08616db1af4a61a47a5dce8", "is_reserved": 0, "bike_id": "08bb9edbf08616db1af4a61a47a5dce8", "fusion_lon": 0.0, "rental_uris": {"ios": "https://dc.lft.to/lastmile_qr_scan", "android": "https://dc.lft.to/lastmile_qr_scan"}}, {"lon": -77.0222685, "fusion_lat": 0.0, "type": "electric_scooter", "lat": 38.9126385, "is_disabled": 0, "name": "2663bb8df495b6ce2a500e612458961b", "is_reserved": 0, "bike_id": "2663bb8df495b6ce2a500e612458961b", "fusion_lon": 0.0, "rental_uris": {"ios": "https://dc.lft.to/lastmile_qr_scan", "android": "https://dc.lft.to/lastmile_qr_scan"}}, {"lon": -77.04869666666667, "fusion_lat": 0.0, "type": "electric_scooter", "lat": 38.89936983333333, "is_disabled": 0, "name": "96d60fc31e565f7138f8af9fea8e3f42", "is_reserved": 0, "bike_id": "96d60fc31e565f7138f8af9fea8e3f42", "fusion_lon": 0.0, "rental_uris": {"ios": "https://dc.lft.to/lastmile_qr_scan", "android": "https://dc.lft.to/lastmile_qr_scan"}}, {"lon": -77.02361216666667, "fusion_lat": 0.0, "type": "electric_scooter", "lat": 38.91557366666667, "is_disabled": 0, "name": "03f442b6218c7fdc3b70cd36ecbe392b", "is_reserved": 0, "bike_id": "03f442b6218c7fdc3b70cd36ecbe392b", "fusion_lon": 0.0, "rental_uris": {"ios": "https://dc.lft.to/lastmile_qr_scan", "android": "https://dc.lft.to/lastmile_qr_scan"}}, {"lon": -77.03092383333333, "fusion_lat": 0.0, "type": "electric_scooter", "lat": 38.9324935, "is_disabled": 0, "name": "43a5c3fdcbf30d8066d38bc9b85ea240", "is_reserved": 0, "bike_id": "43a5c3fdcbf30d8066d38bc9b85ea240", "fusion_lon": 0.0, "rental_uris": {"ios": "https://dc.lft.to/lastmile_qr_scan", "android": "https://dc.lft.to/lastmile_qr_scan"}}, {"lon": -77.02232616666667, "fusion_lat": 0.0, "type": "electric_scooter", "lat": 38.92465166666667, "is_disabled": 0, "name": "74bc207c9a81c128a18746c3aad6fd44", "is_reserved": 0, "bike_id": "74bc207c9a81c128a18746c3aad6fd44", "fusion_lon": 0.0, "rental_uris": {"ios": "https://dc.lft.to/lastmile_qr_scan", "android": "https://dc.lft.to/lastmile_qr_scan"}}, {"lon": -77.022069, "fusion_lat": 0.0, "type": "electric_scooter", "lat": 38.89564383333333, "is_disabled": 0, "name": "4a2b62842757b227fa72ed4708625398", "is_reserved": 0, "bike_id": "4a2b62842757b227fa72ed4708625398", "fusion_lon": 0.0, "rental_uris": {"ios": "https://dc.lft.to/lastmile_qr_scan", "android": "https://dc.lft.to/lastmile_qr_scan"}}, {"lon": -77.01671683333333, "fusion_lat": 0.0, "type": "electric_scooter", "lat": 38.897429833333334, "is_disabled": 0, "name": "e8a07f7d9541f062f621e47cb00c4a02", "is_reserved": 0, "bike_id": "e8a07f7d9541f062f621e47cb00c4a02", "fusion_lon": 0.0, "rental_uris": {"ios": "https://dc.lft.to/lastmile_qr_scan", "android": "https://dc.lft.to/lastmile_qr_scan"}}, {"lon": -77.049087, "fusion_lat": 0.0, "type": "electric_scooter", "lat": 38.900624666666666, "is_disabled": 0, "name": "a4748a4c9368ac6ce35b3c58672e5c36", "is_reserved": 0, "bike_id": "a4748a4c9368ac6ce35b3c58672e5c36", "fusion_lon": 0.0, "rental_uris": {"ios": "https://dc.lft.to/lastmile_qr_scan", "android": "https://dc.lft.to/lastmile_qr_scan"}}, {"lon": -77.03429583333333, "fusion_lat": 0.0, "type": "electric_scooter", "lat": 38.9449715, "is_disabled": 0, "name": "3281291e56196cb076fc373e026e93a4", "is_reserved": 0, "bike_id": "3281291e56196cb076fc373e026e93a4", "fusion_lon": 0.0, "rental_uris": {"ios": "https://dc.lft.to/lastmile_qr_scan", "android": "https://dc.lft.to/lastmile_qr_scan"}}, {"lon": -77.022182, "fusion_lat": 0.0, "type": "electric_scooter", "lat": 38.89853733333333, "is_disabled": 0, "name": "dc20f6fd07f037acc75fc5f031c2fd66", "is_reserved": 0, "bike_id": "dc20f6fd07f037acc75fc5f031c2fd66", "fusion_lon": 0.0, "rental_uris": {"ios": "https://dc.lft.to/lastmile_qr_scan", "android": "https://dc.lft.to/lastmile_qr_scan"}}, {"lon": -77.0213655, "fusion_lat": 0.0, "type": "electric_scooter", "lat": 38.923866333333336, "is_disabled": 0, "name": "e87988300fc7422a6875684ed0fb79e7", "is_reserved": 0, "bike_id": "e87988300fc7422a6875684ed0fb79e7", "fusion_lon": 0.0, "rental_uris": {"ios": "https://dc.lft.to/lastmile_qr_scan", "android": "https://dc.lft.to/lastmile_qr_scan"}}, {"lon": -76.99281133333334, "fusion_lat": 0.0, "type": "electric_bike", "lat": 38.97258516666667, "is_disabled": 0, "name": "cb64ebb82387a9353df90aff0348fc72", "is_reserved": 0, "bike_id": "cb64ebb82387a9353df90aff0348fc72", "fusion_lon": 0.0, "rental_uris": {"ios": "https://dc.lft.to/lastmile_qr_scan", "android": "https://dc.lft.to/lastmile_qr_scan"}}, {"lon": -77.01932333333333, "fusion_lat": 0.0, "type": "electric_scooter", "lat": 38.8948235, "is_disabled": 0, "name": "24d51e9310ea187e4edfd9949a52bb7e", "is_reserved": 0, "bike_id": "24d51e9310ea187e4edfd9949a52bb7e", "fusion_lon": 0.0, "rental_uris": {"ios": "https://dc.lft.to/lastmile_qr_scan", "android": "https://dc.lft.to/lastmile_qr_scan"}}, {"lon": -77.02190366666666, "fusion_lat": 0.0, "type": "electric_scooter", "lat": 38.914684666666666, "is_disabled": 0, "name": "43bf91b99469bbb8ef13c02889c3b58b", "is_reserved": 0, "bike_id": "43bf91b99469bbb8ef13c02889c3b58b", "fusion_lon": 0.0, "rental_uris": {"ios": "https://dc.lft.to/lastmile_qr_scan", "android": "https://dc.lft.to/lastmile_qr_scan"}}, {"lon": -77.007301, "fusion_lat": 0.0, "type": "electric_scooter", "lat": 38.911876166666666, "is_disabled": 0, "name": "091204f91ff423a8b6c962f9005732f8", "is_reserved": 0, "bike_id": "091204f91ff423a8b6c962f9005732f8", "fusion_lon": 0.0, "rental_uris": {"ios": "https://dc.lft.to/lastmile_qr_scan", "android": "https://dc.lft.to/lastmile_qr_scan"}}, {"lon": -76.983784, "fusion_lat": 0.0, "type": "electric_scooter", "lat": 38.88726366666667, "is_disabled": 0, "name": "10ad85ce5aa0624948280b2c84fb0fd6", "is_reserved": 0, "bike_id": "10ad85ce5aa0624948280b2c84fb0fd6", "fusion_lon": 0.0, "rental_uris": {"ios": "https://dc.lft.to/lastmile_qr_scan", "android": "https://dc.lft.to/lastmile_qr_scan"}}, {"lon": -76.9903505, "fusion_lat": 0.0, "type": "electric_scooter", "lat": 38.88879083333333, "is_disabled": 0, "name": "d145835f6bb1fea198600fdbc041b2f4", "is_reserved": 0, "bike_id": "d145835f6bb1fea198600fdbc041b2f4", "fusion_lon": 0.0, "rental_uris": {"ios": "https://dc.lft.to/lastmile_qr_scan", "android": "https://dc.lft.to/lastmile_qr_scan"}}, {"lon": -77.01604766666667, "fusion_lat": 0.0, "type": "electric_scooter", "lat": 38.9097095, "is_disabled": 0, "name": "902c898c7b332b04c1743ca579c9a56a", "is_reserved": 0, "bike_id": "902c898c7b332b04c1743ca579c9a56a", "fusion_lon": 0.0, "rental_uris": {"ios": "https://dc.lft.to/lastmile_qr_scan", "android": "https://dc.lft.to/lastmile_qr_scan"}}, {"lon": -77.02561633333333, "fusion_lat": 0.0, "type": "electric_scooter", "lat": 38.920682, "is_disabled": 0, "name": "0daddcedfe142f81db35dbe18cd32ac8", "is_reserved": 0, "bike_id": "0daddcedfe142f81db35dbe18cd32ac8", "fusion_lon": 0.0, "rental_uris": {"ios": "https://dc.lft.to/lastmile_qr_scan", "android": "https://dc.lft.to/lastmile_qr_scan"}}, {"lon": -77.03037933333333, "fusion_lat": 0.0, "type": "electric_scooter", "lat": 38.896205333333334, "is_disabled": 0, "name": "cebdfe5b6f5029a3a02843d73013845f", "is_reserved": 0, "bike_id": "cebdfe5b6f5029a3a02843d73013845f", "fusion_lon": 0.0, "rental_uris": {"ios": "https://dc.lft.to/lastmile_qr_scan", "android": "https://dc.lft.to/lastmile_qr_scan"}}, {"lon": -77.03363583333334, "fusion_lat": 0.0, "type": "electric_scooter", "lat": 38.928815166666666, "is_disabled": 0, "name": "2be5c0452434fb194ca19f5ab2cd9619", "is_reserved": 0, "bike_id": "2be5c0452434fb194ca19f5ab2cd9619", "fusion_lon": 0.0, "rental_uris": {"ios": "https://dc.lft.to/lastmile_qr_scan", "android": "https://dc.lft.to/lastmile_qr_scan"}}, {"lon": -77.0326885, "fusion_lat": 0.0, "type": "electric_scooter", "lat": 38.9394195, "is_disabled": 0, "name": "4e28bd643851320fe296afa97445b08f", "is_reserved": 0, "bike_id": "4e28bd643851320fe296afa97445b08f", "fusion_lon": 0.0, "rental_uris": {"ios": "https://dc.lft.to/lastmile_qr_scan", "android": "https://dc.lft.to/lastmile_qr_scan"}}, {"lon": -77.03222883333333, "fusion_lat": 0.0, "type": "electric_scooter", "lat": 38.90243733333333, "is_disabled": 0, "name": "8ad53d4e05bf04ae72ab784a66ba78a3", "is_reserved": 0, "bike_id": "8ad53d4e05bf04ae72ab784a66ba78a3", "fusion_lon": 0.0, "rental_uris": {"ios": "https://dc.lft.to/lastmile_qr_scan", "android": "https://dc.lft.to/lastmile_qr_scan"}}, {"lon": -77.0076005, "fusion_lat": 0.0, "type": "electric_scooter", "lat": 38.90047333333333, "is_disabled": 0, "name": "f17ec094886b7401ee053eacddcc2d96", "is_reserved": 0, "bike_id": "f17ec094886b7401ee053eacddcc2d96", "fusion_lon": 0.0, "rental_uris": {"ios": "https://dc.lft.to/lastmile_qr_scan", "android": "https://dc.lft.to/lastmile_qr_scan"}}, {"lon": -76.93266916666667, "fusion_lat": 0.0, "type": "electric_scooter", "lat": 38.887668833333336, "is_disabled": 0, "name": "305149c0a026c38e21f7a9c377e6b123", "is_reserved": 0, "bike_id": "305149c0a026c38e21f7a9c377e6b123", "fusion_lon": 0.0, "rental_uris": {"ios": "https://dc.lft.to/lastmile_qr_scan", "android": "https://dc.lft.to/lastmile_qr_scan"}}, {"lon": -77.02277466666666, "fusion_lat": 0.0, "type": "electric_scooter", "lat": 38.926832166666664, "is_disabled": 0, "name": "ea78066294dcc208b9f7299edcf73b20", "is_reserved": 0, "bike_id": "ea78066294dcc208b9f7299edcf73b20", "fusion_lon": 0.0, "rental_uris": {"ios": "https://dc.lft.to/lastmile_qr_scan", "android": "https://dc.lft.to/lastmile_qr_scan"}}, {"lon": -77.061201, "fusion_lat": 0.0, "type": "electric_scooter", "lat": 38.90254783333334, "is_disabled": 0, "name": "1dd92ab18524af0af39118b1892b2a65", "is_reserved": 0, "bike_id": "1dd92ab18524af0af39118b1892b2a65", "fusion_lon": 0.0, "rental_uris": {"ios": "https://dc.lft.to/lastmile_qr_scan", "android": "https://dc.lft.to/lastmile_qr_scan"}}, {"lon": -77.033852, "fusion_lat": 0.0, "type": "electric_scooter", "lat": 38.90179116666667, "is_disabled": 0, "name": "779f2c65390c7159592e5bd771c6ef96", "is_reserved": 0, "bike_id": "779f2c65390c7159592e5bd771c6ef96", "fusion_lon": 0.0, "rental_uris": {"ios": "https://dc.lft.to/lastmile_qr_scan", "android": "https://dc.lft.to/lastmile_qr_scan"}}, {"lon": -76.99677783333334, "fusion_lat": 0.0, "type": "electric_scooter", "lat": 38.88725183333333, "is_disabled": 0, "name": "ece96e3a013ff46a9382224e8a8c2a64", "is_reserved": 0, "bike_id": "ece96e3a013ff46a9382224e8a8c2a64", "fusion_lon": 0.0, "rental_uris": {"ios": "https://dc.lft.to/lastmile_qr_scan", "android": "https://dc.lft.to/lastmile_qr_scan"}}, {"lon": -77.03178366666667, "fusion_lat": 0.0, "type": "electric_scooter", "lat": 38.88739483333333, "is_disabled": 0, "name": "9ba00401941e5d4bf8003d7839d8d93b", "is_reserved": 0, "bike_id": "9ba00401941e5d4bf8003d7839d8d93b", "fusion_lon": 0.0, "rental_uris": {"ios": "https://dc.lft.to/lastmile_qr_scan", "android": "https://dc.lft.to/lastmile_qr_scan"}}, {"lon": -77.00243, "fusion_lat": 0.0, "type": "electric_scooter", "lat": 38.8870815, "is_disabled": 0, "name": "6e61e8d4254b4dd175c7dd0979c56a8d", "is_reserved": 0, "bike_id": "6e61e8d4254b4dd175c7dd0979c56a8d", "fusion_lon": 0.0, "rental_uris": {"ios": "https://dc.lft.to/lastmile_qr_scan", "android": "https://dc.lft.to/lastmile_qr_scan"}}, {"lon": -76.99286033333334, "fusion_lat": 0.0, "type": "electric_scooter", "lat": 38.8812215, "is_disabled": 0, "name": "a6dffde4e23d6d10f5ef9e662adf3399", "is_reserved": 0, "bike_id": "a6dffde4e23d6d10f5ef9e662adf3399", "fusion_lon": 0.0, "rental_uris": {"ios": "https://dc.lft.to/lastmile_qr_scan", "android": "https://dc.lft.to/lastmile_qr_scan"}}, {"lon": -77.04161116666667, "fusion_lat": 0.0, "type": "electric_scooter", "lat": 38.923576, "is_disabled": 0, "name": "9f3f020a0f87d98c033a1b7842080a83", "is_reserved": 0, "bike_id": "9f3f020a0f87d98c033a1b7842080a83", "fusion_lon": 0.0, "rental_uris": {"ios": "https://dc.lft.to/lastmile_qr_scan", "android": "https://dc.lft.to/lastmile_qr_scan"}}, {"lon": -77.042562, "fusion_lat": 0.0, "type": "electric_scooter", "lat": 38.92627816666667, "is_disabled": 0, "name": "af917aa0341fa1d13e6b0e7b77631295", "is_reserved": 0, "bike_id": "af917aa0341fa1d13e6b0e7b77631295", "fusion_lon": 0.0, "rental_uris": {"ios": "https://dc.lft.to/lastmile_qr_scan", "android": "https://dc.lft.to/lastmile_qr_scan"}}, {"lon": -77.026364, "fusion_lat": 0.0, "type": "electric_scooter", "lat": 38.8944325, "is_disabled": 0, "name": "a41e8afea5f00ff0e90527d99623b77b", "is_reserved": 0, "bike_id": "a41e8afea5f00ff0e90527d99623b77b", "fusion_lon": 0.0, "rental_uris": {"ios": "https://dc.lft.to/lastmile_qr_scan", "android": "https://dc.lft.to/lastmile_qr_scan"}}, {"lon": -76.99962383333333, "fusion_lat": 0.0, "type": "electric_scooter", "lat": 38.9256155, "is_disabled": 0, "name": "aca727a89b27663a69830cec3040d963", "is_reserved": 0, "bike_id": "aca727a89b27663a69830cec3040d963", "fusion_lon": 0.0, "rental_uris": {"ios": "https://dc.lft.to/lastmile_qr_scan", "android": "https://dc.lft.to/lastmile_qr_scan"}}, {"lon": -77.022106, "fusion_lat": 0.0, "type": "electric_scooter", "lat": 38.90360833333333, "is_disabled": 0, "name": "c6c0bcdf636c1e9be59f8df44e50e6df", "is_reserved": 0, "bike_id": "c6c0bcdf636c1e9be59f8df44e50e6df", "fusion_lon": 0.0, "rental_uris": {"ios": "https://dc.lft.to/lastmile_qr_scan", "android": "https://dc.lft.to/lastmile_qr_scan"}}, {"lon": -77.0193735, "fusion_lat": 0.0, "type": "electric_scooter", "lat": 38.919227666666664, "is_disabled": 0, "name": "7d1ebbeacca4592c15eded10e23af6f9", "is_reserved": 0, "bike_id": "7d1ebbeacca4592c15eded10e23af6f9", "fusion_lon": 0.0, "rental_uris": {"ios": "https://dc.lft.to/lastmile_qr_scan", "android": "https://dc.lft.to/lastmile_qr_scan"}}, {"lon": -77.031338, "fusion_lat": 0.0, "type": "electric_scooter", "lat": 38.91688966666667, "is_disabled": 0, "name": "6bea094bc567645d385df02498a6d0b8", "is_reserved": 0, "bike_id": "6bea094bc567645d385df02498a6d0b8", "fusion_lon": 0.0, "rental_uris": {"ios": "https://dc.lft.to/lastmile_qr_scan", "android": "https://dc.lft.to/lastmile_qr_scan"}}, {"lon": -77.032025, "fusion_lat": 0.0, "type": "electric_scooter", "lat": 38.9133955, "is_disabled": 0, "name": "2b5c3e0bec39e8e9fc925ea7f3ba7a21", "is_reserved": 0, "bike_id": "2b5c3e0bec39e8e9fc925ea7f3ba7a21", "fusion_lon": 0.0, "rental_uris": {"ios": "https://dc.lft.to/lastmile_qr_scan", "android": "https://dc.lft.to/lastmile_qr_scan"}}, {"lon": -77.024981, "fusion_lat": 0.0, "type": "electric_scooter", "lat": 38.897338, "is_disabled": 0, "name": "d084d5800b2bc4b32b9f2b6c7a6a6f76", "is_reserved": 0, "bike_id": "d084d5800b2bc4b32b9f2b6c7a6a6f76", "fusion_lon": 0.0, "rental_uris": {"ios": "https://dc.lft.to/lastmile_qr_scan", "android": "https://dc.lft.to/lastmile_qr_scan"}}, {"lon": -77.04141266666667, "fusion_lat": 0.0, "type": "electric_scooter", "lat": 38.916787666666664, "is_disabled": 0, "name": "af2d8a64128b40d4fb4cd6e4581213ab", "is_reserved": 0, "bike_id": "af2d8a64128b40d4fb4cd6e4581213ab", "fusion_lon": 0.0, "rental_uris": {"ios": "https://dc.lft.to/lastmile_qr_scan", "android": "https://dc.lft.to/lastmile_qr_scan"}}, {"lon": -77.04819516666667, "fusion_lat": 0.0, "type": "electric_scooter", "lat": 38.9203005, "is_disabled": 0, "name": "8e2f764b16085244d2b5cbad96af51fa", "is_reserved": 0, "bike_id": "8e2f764b16085244d2b5cbad96af51fa", "fusion_lon": 0.0, "rental_uris": {"ios": "https://dc.lft.to/lastmile_qr_scan", "android": "https://dc.lft.to/lastmile_qr_scan"}}, {"lon": -76.9821055, "fusion_lat": 0.0, "type": "electric_scooter", "lat": 38.85706666666667, "is_disabled": 0, "name": "b257535a665310eb35de3cfeaaa6277f", "is_reserved": 0, "bike_id": "b257535a665310eb35de3cfeaaa6277f", "fusion_lon": 0.0, "rental_uris": {"ios": "https://dc.lft.to/lastmile_qr_scan", "android": "https://dc.lft.to/lastmile_qr_scan"}}, {"lon": -76.99272033333334, "fusion_lat": 0.0, "type": "electric_scooter", "lat": 38.88353683333333, "is_disabled": 0, "name": "e87496ddb2bc6d2646708531bb0cb7e3", "is_reserved": 0, "bike_id": "e87496ddb2bc6d2646708531bb0cb7e3", "fusion_lon": 0.0, "rental_uris": {"ios": "https://dc.lft.to/lastmile_qr_scan", "android": "https://dc.lft.to/lastmile_qr_scan"}}, {"lon": -76.94679166666667, "fusion_lat": 0.0, "type": "electric_scooter", "lat": 38.89864516666667, "is_disabled": 0, "name": "be9fc1a5421e6a72a75bf6f69c598bff", "is_reserved": 0, "bike_id": "be9fc1a5421e6a72a75bf6f69c598bff", "fusion_lon": 0.0, "rental_uris": {"ios": "https://dc.lft.to/lastmile_qr_scan", "android": "https://dc.lft.to/lastmile_qr_scan"}}, {"lon": -76.97912483333333, "fusion_lat": 0.0, "type": "electric_scooter", "lat": 38.870684, "is_disabled": 0, "name": "e02008461a2394808af4746196b76807", "is_reserved": 0, "bike_id": "e02008461a2394808af4746196b76807", "fusion_lon": 0.0, "rental_uris": {"ios": "https://dc.lft.to/lastmile_qr_scan", "android": "https://dc.lft.to/lastmile_qr_scan"}}, {"lon": -77.00066566666666, "fusion_lat": 0.0, "type": "electric_scooter", "lat": 38.87374783333333, "is_disabled": 0, "name": "d618a76d3e6eb3faa5b1fcc5cc0e7aba", "is_reserved": 0, "bike_id": "d618a76d3e6eb3faa5b1fcc5cc0e7aba", "fusion_lon": 0.0, "rental_uris": {"ios": "https://dc.lft.to/lastmile_qr_scan", "android": "https://dc.lft.to/lastmile_qr_scan"}}, {"lon": -77.05821816666666, "fusion_lat": 0.0, "type": "electric_scooter", "lat": 38.90292316666667, "is_disabled": 0, "name": "634111a6a2c432ffc06700fb153427c5", "is_reserved": 0, "bike_id": "634111a6a2c432ffc06700fb153427c5", "fusion_lon": 0.0, "rental_uris": {"ios": "https://dc.lft.to/lastmile_qr_scan", "android": "https://dc.lft.to/lastmile_qr_scan"}}, {"lon": -77.02140716666666, "fusion_lat": 0.0, "type": "electric_scooter", "lat": 38.91549783333333, "is_disabled": 0, "name": "7002b70a8503d58bed559443f9acd3e2", "is_reserved": 0, "bike_id": "7002b70a8503d58bed559443f9acd3e2", "fusion_lon": 0.0, "rental_uris": {"ios": "https://dc.lft.to/lastmile_qr_scan", "android": "https://dc.lft.to/lastmile_qr_scan"}}, {"lon": -77.03209983333333, "fusion_lat": 0.0, "type": "electric_scooter", "lat": 38.886190166666665, "is_disabled": 0, "name": "a9237c52d146860f24d472ad244c7c54", "is_reserved": 0, "bike_id": "a9237c52d146860f24d472ad244c7c54", "fusion_lon": 0.0, "rental_uris": {"ios": "https://dc.lft.to/lastmile_qr_scan", "android": "https://dc.lft.to/lastmile_qr_scan"}}, {"lon": -77.05840066666667, "fusion_lat": 0.0, "type": "electric_scooter", "lat": 38.90925083333333, "is_disabled": 0, "name": "e438a333cde13d2a9529b3790fbd31a8", "is_reserved": 0, "bike_id": "e438a333cde13d2a9529b3790fbd31a8", "fusion_lon": 0.0, "rental_uris": {"ios": "https://dc.lft.to/lastmile_qr_scan", "android": "https://dc.lft.to/lastmile_qr_scan"}}, {"lon": -77.0400315, "fusion_lat": 0.0, "type": "electric_scooter", "lat": 38.888672166666666, "is_disabled": 0, "name": "49c5722e461e5bc47954847d8eef9ff7", "is_reserved": 0, "bike_id": "49c5722e461e5bc47954847d8eef9ff7", "fusion_lon": 0.0, "rental_uris": {"ios": "https://dc.lft.to/lastmile_qr_scan", "android": "https://dc.lft.to/lastmile_qr_scan"}}, {"lon": -77.0240225, "fusion_lat": 0.0, "type": "electric_scooter", "lat": 38.91325483333333, "is_disabled": 0, "name": "749bea6fddfe8d6bcf58230dab9128c4", "is_reserved": 0, "bike_id": "749bea6fddfe8d6bcf58230dab9128c4", "fusion_lon": 0.0, "rental_uris": {"ios": "https://dc.lft.to/lastmile_qr_scan", "android": "https://dc.lft.to/lastmile_qr_scan"}}, {"lon": -77.0323225, "fusion_lat": 0.0, "type": "electric_scooter", "lat": 38.919931, "is_disabled": 0, "name": "f1318acb3c7e360a470ffdf746ea9741", "is_reserved": 0, "bike_id": "f1318acb3c7e360a470ffdf746ea9741", "fusion_lon": 0.0, "rental_uris": {"ios": "https://dc.lft.to/lastmile_qr_scan", "android": "https://dc.lft.to/lastmile_qr_scan"}}, {"lon": -77.03376666666666, "fusion_lat": 0.0, "type": "electric_scooter", "lat": 38.89457783333334, "is_disabled": 0, "name": "f18a0abf786f3732a290534d1392514f", "is_reserved": 0, "bike_id": "f18a0abf786f3732a290534d1392514f", "fusion_lon": 0.0, "rental_uris": {"ios": "https://dc.lft.to/lastmile_qr_scan", "android": "https://dc.lft.to/lastmile_qr_scan"}}, {"lon": -77.024007, "fusion_lat": 0.0, "type": "electric_scooter", "lat": 38.936967, "is_disabled": 0, "name": "16881e7b523c4e564141e37e13a993a7", "is_reserved": 0, "bike_id": "16881e7b523c4e564141e37e13a993a7", "fusion_lon": 0.0, "rental_uris": {"ios": "https://dc.lft.to/lastmile_qr_scan", "android": "https://dc.lft.to/lastmile_qr_scan"}}, {"lon": -77.03174966666667, "fusion_lat": 0.0, "type": "electric_scooter", "lat": 38.9140315, "is_disabled": 0, "name": "42c36dbe93eaf44fe91696e69b37a37d", "is_reserved": 0, "bike_id": "42c36dbe93eaf44fe91696e69b37a37d", "fusion_lon": 0.0, "rental_uris": {"ios": "https://dc.lft.to/lastmile_qr_scan", "android": "https://dc.lft.to/lastmile_qr_scan"}}, {"lon": -77.00403966666667, "fusion_lat": 0.0, "type": "electric_scooter", "lat": 38.88604216666667, "is_disabled": 0, "name": "a64fac1d50aa7fe71ea4faddfa08ca9c", "is_reserved": 0, "bike_id": "a64fac1d50aa7fe71ea4faddfa08ca9c", "fusion_lon": 0.0, "rental_uris": {"ios": "https://dc.lft.to/lastmile_qr_scan", "android": "https://dc.lft.to/lastmile_qr_scan"}}, {"lon": -77.0307915, "fusion_lat": 0.0, "type": "electric_scooter", "lat": 38.897239666666664, "is_disabled": 0, "name": "bec4ea35038825a316c5a2369f4f023a", "is_reserved": 0, "bike_id": "bec4ea35038825a316c5a2369f4f023a", "fusion_lon": 0.0, "rental_uris": {"ios": "https://dc.lft.to/lastmile_qr_scan", "android": "https://dc.lft.to/lastmile_qr_scan"}}, {"lon": -77.01554, "fusion_lat": 0.0, "type": "electric_scooter", "lat": 38.891719, "is_disabled": 0, "name": "eb6cf4eee634f820b876e0fd80d969fd", "is_reserved": 0, "bike_id": "eb6cf4eee634f820b876e0fd80d969fd", "fusion_lon": 0.0, "rental_uris": {"ios": "https://dc.lft.to/lastmile_qr_scan", "android": "https://dc.lft.to/lastmile_qr_scan"}}, {"lon": -77.046804, "fusion_lat": 0.0, "type": "electric_scooter", "lat": 38.898827833333335, "is_disabled": 0, "name": "ae667282b8fb5dcd45dfb5dbe4013fbb", "is_reserved": 0, "bike_id": "ae667282b8fb5dcd45dfb5dbe4013fbb", "fusion_lon": 0.0, "rental_uris": {"ios": "https://dc.lft.to/lastmile_qr_scan", "android": "https://dc.lft.to/lastmile_qr_scan"}}, {"lon": -77.02594483333333, "fusion_lat": 0.0, "type": "electric_scooter", "lat": 38.90147533333333, "is_disabled": 0, "name": "f240b9751397a64d60d55cdf9f1f911e", "is_reserved": 0, "bike_id": "f240b9751397a64d60d55cdf9f1f911e", "fusion_lon": 0.0, "rental_uris": {"ios": "https://dc.lft.to/lastmile_qr_scan", "android": "https://dc.lft.to/lastmile_qr_scan"}}, {"lon": -77.027128, "fusion_lat": 0.0, "type": "electric_scooter", "lat": 38.9058845, "is_disabled": 0, "name": "f9ae364224694ac14f32a0b27051c658", "is_reserved": 0, "bike_id": "f9ae364224694ac14f32a0b27051c658", "fusion_lon": 0.0, "rental_uris": {"ios": "https://dc.lft.to/lastmile_qr_scan", "android": "https://dc.lft.to/lastmile_qr_scan"}}, {"lon": -77.03335616666666, "fusion_lat": 0.0, "type": "electric_scooter", "lat": 38.903632333333334, "is_disabled": 0, "name": "f5d318abf06e566e140da2ec480e7455", "is_reserved": 0, "bike_id": "f5d318abf06e566e140da2ec480e7455", "fusion_lon": 0.0, "rental_uris": {"ios": "https://dc.lft.to/lastmile_qr_scan", "android": "https://dc.lft.to/lastmile_qr_scan"}}, {"lon": -77.03210266666666, "fusion_lat": 0.0, "type": "electric_scooter", "lat": 38.91337733333334, "is_disabled": 0, "name": "bcc7d01aa4773d4224a2d779892e1d5a", "is_reserved": 0, "bike_id": "bcc7d01aa4773d4224a2d779892e1d5a", "fusion_lon": 0.0, "rental_uris": {"ios": "https://dc.lft.to/lastmile_qr_scan", "android": "https://dc.lft.to/lastmile_qr_scan"}}, {"lon": -77.04168633333333, "fusion_lat": 0.0, "type": "electric_scooter", "lat": 38.9073685, "is_disabled": 0, "name": "069a8ee6201c9102e68d08be91e6a979", "is_reserved": 0, "bike_id": "069a8ee6201c9102e68d08be91e6a979", "fusion_lon": 0.0, "rental_uris": {"ios": "https://dc.lft.to/lastmile_qr_scan", "android": "https://dc.lft.to/lastmile_qr_scan"}}, {"lon": -77.05274666666666, "fusion_lat": 0.0, "type": "electric_scooter", "lat": 38.910198333333334, "is_disabled": 0, "name": "3dfd5d4d192e2a4738dac89f667ebe5d", "is_reserved": 0, "bike_id": "3dfd5d4d192e2a4738dac89f667ebe5d", "fusion_lon": 0.0, "rental_uris": {"ios": "https://dc.lft.to/lastmile_qr_scan", "android": "https://dc.lft.to/lastmile_qr_scan"}}, {"lon": -77.02340116666667, "fusion_lat": 0.0, "type": "electric_scooter", "lat": 38.894066, "is_disabled": 0, "name": "16d2c1f839e1bd16385b46db0c9add6c", "is_reserved": 0, "bike_id": "16d2c1f839e1bd16385b46db0c9add6c", "fusion_lon": 0.0, "rental_uris": {"ios": "https://dc.lft.to/lastmile_qr_scan", "android": "https://dc.lft.to/lastmile_qr_scan"}}, {"lon": -77.02717583333333, "fusion_lat": 0.0, "type": "electric_bike", "lat": 38.931183833333336, "is_disabled": 0, "name": "4fd68259b2724ed4d1af75c57af74cfa", "is_reserved": 0, "bike_id": "4fd68259b2724ed4d1af75c57af74cfa", "fusion_lon": 0.0, "rental_uris": {"ios": "https://dc.lft.to/lastmile_qr_scan", "android": "https://dc.lft.to/lastmile_qr_scan"}}, {"lon": -77.01260233333333, "fusion_lat": 0.0, "type": "electric_scooter", "lat": 38.915685333333336, "is_disabled": 0, "name": "4751cfc5aead398fbe07e8a056731063", "is_reserved": 0, "bike_id": "4751cfc5aead398fbe07e8a056731063", "fusion_lon": 0.0, "rental_uris": {"ios": "https://dc.lft.to/lastmile_qr_scan", "android": "https://dc.lft.to/lastmile_qr_scan"}}, {"lon": -77.00347066666667, "fusion_lat": 0.0, "type": "electric_scooter", "lat": 38.884376333333336, "is_disabled": 0, "name": "ad9e0645f00a4677ce5fcec106d398a0", "is_reserved": 0, "bike_id": "ad9e0645f00a4677ce5fcec106d398a0", "fusion_lon": 0.0, "rental_uris": {"ios": "https://dc.lft.to/lastmile_qr_scan", "android": "https://dc.lft.to/lastmile_qr_scan"}}, {"lon": -76.99034883333333, "fusion_lat": 0.0, "type": "electric_scooter", "lat": 38.88873816666667, "is_disabled": 0, "name": "2f3f7af8c22765d5fa0c476884c4bded", "is_reserved": 0, "bike_id": "2f3f7af8c22765d5fa0c476884c4bded", "fusion_lon": 0.0, "rental_uris": {"ios": "https://dc.lft.to/lastmile_qr_scan", "android": "https://dc.lft.to/lastmile_qr_scan"}}, {"lon": -77.003209, "fusion_lat": 0.0, "type": "electric_scooter", "lat": 38.90905266666667, "is_disabled": 0, "name": "e9c94240bedb1dd290ca7e82ddc2cf6b", "is_reserved": 0, "bike_id": "e9c94240bedb1dd290ca7e82ddc2cf6b", "fusion_lon": 0.0, "rental_uris": {"ios": "https://dc.lft.to/lastmile_qr_scan", "android": "https://dc.lft.to/lastmile_qr_scan"}}, {"lon": -77.0372445, "fusion_lat": 0.0, "type": "electric_scooter", "lat": 38.926573166666664, "is_disabled": 0, "name": "f00c8b82f0be20ca9fdf50d382dd2cfa", "is_reserved": 0, "bike_id": "f00c8b82f0be20ca9fdf50d382dd2cfa", "fusion_lon": 0.0, "rental_uris": {"ios": "https://dc.lft.to/lastmile_qr_scan", "android": "https://dc.lft.to/lastmile_qr_scan"}}, {"lon": -77.03189383333333, "fusion_lat": 0.0, "type": "electric_scooter", "lat": 38.9107905, "is_disabled": 0, "name": "7b6c533c20915b93aacd1377843c6c34", "is_reserved": 0, "bike_id": "7b6c533c20915b93aacd1377843c6c34", "fusion_lon": 0.0, "rental_uris": {"ios": "https://dc.lft.to/lastmile_qr_scan", "android": "https://dc.lft.to/lastmile_qr_scan"}}, {"lon": -77.04960716666666, "fusion_lat": 0.0, "type": "electric_scooter", "lat": 38.900605166666665, "is_disabled": 0, "name": "50d7204f9b9a49cd11e1d73e3708a1ce", "is_reserved": 0, "bike_id": "50d7204f9b9a49cd11e1d73e3708a1ce", "fusion_lon": 0.0, "rental_uris": {"ios": "https://dc.lft.to/lastmile_qr_scan", "android": "https://dc.lft.to/lastmile_qr_scan"}}, {"lon": -77.0400615, "fusion_lat": 0.0, "type": "electric_scooter", "lat": 38.888626, "is_disabled": 0, "name": "678d016d23473f9f275a24d3eb5fb878", "is_reserved": 0, "bike_id": "678d016d23473f9f275a24d3eb5fb878", "fusion_lon": 0.0, "rental_uris": {"ios": "https://dc.lft.to/lastmile_qr_scan", "android": "https://dc.lft.to/lastmile_qr_scan"}}, {"lon": -77.0339915, "fusion_lat": 0.0, "type": "electric_scooter", "lat": 38.924464, "is_disabled": 0, "name": "450052c3296e6dd04263409df3ec6eda", "is_reserved": 0, "bike_id": "450052c3296e6dd04263409df3ec6eda", "fusion_lon": 0.0, "rental_uris": {"ios": "https://dc.lft.to/lastmile_qr_scan", "android": "https://dc.lft.to/lastmile_qr_scan"}}, {"lon": -77.05906816666666, "fusion_lat": 0.0, "type": "electric_bike", "lat": 38.828450833333335, "is_disabled": 0, "name": "b1ffd09317deb1819dbaaabe7aea2cb8", "is_reserved": 0, "bike_id": "b1ffd09317deb1819dbaaabe7aea2cb8", "fusion_lon": 0.0, "rental_uris": {"ios": "https://dc.lft.to/lastmile_qr_scan", "android": "https://dc.lft.to/lastmile_qr_scan"}}, {"lon": -77.01211683333334, "fusion_lat": 0.0, "type": "electric_scooter", "lat": 38.870922, "is_disabled": 0, "name": "ed6ba9bc9e6d8456600f285979ecd01f", "is_reserved": 0, "bike_id": "ed6ba9bc9e6d8456600f285979ecd01f", "fusion_lon": 0.0, "rental_uris": {"ios": "https://dc.lft.to/lastmile_qr_scan", "android": "https://dc.lft.to/lastmile_qr_scan"}}, {"lon": -77.0309885, "fusion_lat": 0.0, "type": "electric_scooter", "lat": 38.919208166666664, "is_disabled": 0, "name": "5404f8597286dae95de35ecf951e0903", "is_reserved": 0, "bike_id": "5404f8597286dae95de35ecf951e0903", "fusion_lon": 0.0, "rental_uris": {"ios": "https://dc.lft.to/lastmile_qr_scan", "android": "https://dc.lft.to/lastmile_qr_scan"}}, {"lon": -77.060229, "fusion_lat": 0.0, "type": "electric_scooter", "lat": 38.936908833333334, "is_disabled": 0, "name": "fbd7131b3a876f40a89a204ee905454f", "is_reserved": 0, "bike_id": "fbd7131b3a876f40a89a204ee905454f", "fusion_lon": 0.0, "rental_uris": {"ios": "https://dc.lft.to/lastmile_qr_scan", "android": "https://dc.lft.to/lastmile_qr_scan"}}, {"lon": -77.0308165, "fusion_lat": 0.0, "type": "electric_scooter", "lat": 38.9278635, "is_disabled": 0, "name": "6c6e11e00a993ab0ef91245d2e0c19f0", "is_reserved": 0, "bike_id": "6c6e11e00a993ab0ef91245d2e0c19f0", "fusion_lon": 0.0, "rental_uris": {"ios": "https://dc.lft.to/lastmile_qr_scan", "android": "https://dc.lft.to/lastmile_qr_scan"}}, {"lon": -77.05296783333333, "fusion_lat": 0.0, "type": "electric_scooter", "lat": 38.916900166666665, "is_disabled": 0, "name": "dcf81e60501370d894d48e8b58172361", "is_reserved": 0, "bike_id": "dcf81e60501370d894d48e8b58172361", "fusion_lon": 0.0, "rental_uris": {"ios": "https://dc.lft.to/lastmile_qr_scan", "android": "https://dc.lft.to/lastmile_qr_scan"}}, {"lon": -76.98827016666667, "fusion_lat": 0.0, "type": "electric_scooter", "lat": 38.89901966666667, "is_disabled": 0, "name": "12ea2fe29471456650d5d6cb77bce0d7", "is_reserved": 0, "bike_id": "12ea2fe29471456650d5d6cb77bce0d7", "fusion_lon": 0.0, "rental_uris": {"ios": "https://dc.lft.to/lastmile_qr_scan", "android": "https://dc.lft.to/lastmile_qr_scan"}}, {"lon": -77.01773783333333, "fusion_lat": 0.0, "type": "electric_scooter", "lat": 38.920335333333334, "is_disabled": 0, "name": "cd00edc37d69b32669daa7399b1aead7", "is_reserved": 0, "bike_id": "cd00edc37d69b32669daa7399b1aead7", "fusion_lon": 0.0, "rental_uris": {"ios": "https://dc.lft.to/lastmile_qr_scan", "android": "https://dc.lft.to/lastmile_qr_scan"}}, {"lon": -77.03213633333333, "fusion_lat": 0.0, "type": "electric_scooter", "lat": 38.908863833333335, "is_disabled": 0, "name": "b63da79147db11277988d6a125176676", "is_reserved": 0, "bike_id": "b63da79147db11277988d6a125176676", "fusion_lon": 0.0, "rental_uris": {"ios": "https://dc.lft.to/lastmile_qr_scan", "android": "https://dc.lft.to/lastmile_qr_scan"}}, {"lon": -77.04548166666666, "fusion_lat": 0.0, "type": "electric_scooter", "lat": 38.894539, "is_disabled": 0, "name": "25b4446ad5ea41f6ad2c33ee8fb84dc0", "is_reserved": 0, "bike_id": "25b4446ad5ea41f6ad2c33ee8fb84dc0", "fusion_lon": 0.0, "rental_uris": {"ios": "https://dc.lft.to/lastmile_qr_scan", "android": "https://dc.lft.to/lastmile_qr_scan"}}, {"lon": -77.036568, "fusion_lat": 0.0, "type": "electric_scooter", "lat": 38.916457, "is_disabled": 0, "name": "d1714f75c1bcedb7536ca43db80a57ec", "is_reserved": 0, "bike_id": "d1714f75c1bcedb7536ca43db80a57ec", "fusion_lon": 0.0, "rental_uris": {"ios": "https://dc.lft.to/lastmile_qr_scan", "android": "https://dc.lft.to/lastmile_qr_scan"}}, {"lon": -77.02010133333333, "fusion_lat": 0.0, "type": "electric_scooter", "lat": 38.90262533333333, "is_disabled": 0, "name": "d85914b0590dff0c5f0ff7dd24041730", "is_reserved": 0, "bike_id": "d85914b0590dff0c5f0ff7dd24041730", "fusion_lon": 0.0, "rental_uris": {"ios": "https://dc.lft.to/lastmile_qr_scan", "android": "https://dc.lft.to/lastmile_qr_scan"}}, {"lon": -76.98996466666667, "fusion_lat": 0.0, "type": "electric_scooter", "lat": 38.90270983333333, "is_disabled": 0, "name": "13970a48b0a19b70169d474cecfc1ec8", "is_reserved": 0, "bike_id": "13970a48b0a19b70169d474cecfc1ec8", "fusion_lon": 0.0, "rental_uris": {"ios": "https://dc.lft.to/lastmile_qr_scan", "android": "https://dc.lft.to/lastmile_qr_scan"}}, {"lon": -77.02314283333334, "fusion_lat": 0.0, "type": "electric_scooter", "lat": 38.920605333333334, "is_disabled": 0, "name": "80c081699ce2c399e460d13eb59afda3", "is_reserved": 0, "bike_id": "80c081699ce2c399e460d13eb59afda3", "fusion_lon": 0.0, "rental_uris": {"ios": "https://dc.lft.to/lastmile_qr_scan", "android": "https://dc.lft.to/lastmile_qr_scan"}}, {"lon": -77.040654, "fusion_lat": 0.0, "type": "electric_scooter", "lat": 38.917624, "is_disabled": 0, "name": "3685604e7a75dcde8446bb6c760e4c39", "is_reserved": 0, "bike_id": "3685604e7a75dcde8446bb6c760e4c39", "fusion_lon": 0.0, "rental_uris": {"ios": "https://dc.lft.to/lastmile_qr_scan", "android": "https://dc.lft.to/lastmile_qr_scan"}}, {"lon": -77.05812316666666, "fusion_lat": 0.0, "type": "electric_scooter", "lat": 38.902539, "is_disabled": 0, "name": "1556e9a4370915cc68dbd4c55c682450", "is_reserved": 0, "bike_id": "1556e9a4370915cc68dbd4c55c682450", "fusion_lon": 0.0, "rental_uris": {"ios": "https://dc.lft.to/lastmile_qr_scan", "android": "https://dc.lft.to/lastmile_qr_scan"}}, {"lon": -76.992911, "fusion_lat": 0.0, "type": "electric_scooter", "lat": 38.90009766666667, "is_disabled": 0, "name": "8a262e2fa7217df2520911936bc9afaf", "is_reserved": 0, "bike_id": "8a262e2fa7217df2520911936bc9afaf", "fusion_lon": 0.0, "rental_uris": {"ios": "https://dc.lft.to/lastmile_qr_scan", "android": "https://dc.lft.to/lastmile_qr_scan"}}, {"lon": -76.99136, "fusion_lat": 0.0, "type": "electric_scooter", "lat": 38.910705666666665, "is_disabled": 0, "name": "44102f98596becbbf2fcb8c557a9fae1", "is_reserved": 0, "bike_id": "44102f98596becbbf2fcb8c557a9fae1", "fusion_lon": 0.0, "rental_uris": {"ios": "https://dc.lft.to/lastmile_qr_scan", "android": "https://dc.lft.to/lastmile_qr_scan"}}, {"lon": -77.01229516666666, "fusion_lat": 0.0, "type": "electric_scooter", "lat": 38.87520516666667, "is_disabled": 0, "name": "a81f3f271f33f8fdec9f1d00ae1f4e0c", "is_reserved": 0, "bike_id": "a81f3f271f33f8fdec9f1d00ae1f4e0c", "fusion_lon": 0.0, "rental_uris": {"ios": "https://dc.lft.to/lastmile_qr_scan", "android": "https://dc.lft.to/lastmile_qr_scan"}}, {"lon": -77.031025, "fusion_lat": 0.0, "type": "electric_scooter", "lat": 38.896158666666665, "is_disabled": 0, "name": "dc07747e1c5c15976f10d12c21ce20b5", "is_reserved": 0, "bike_id": "dc07747e1c5c15976f10d12c21ce20b5", "fusion_lon": 0.0, "rental_uris": {"ios": "https://dc.lft.to/lastmile_qr_scan", "android": "https://dc.lft.to/lastmile_qr_scan"}}, {"lon": -77.02313866666667, "fusion_lat": 0.0, "type": "electric_scooter", "lat": 38.92075033333333, "is_disabled": 0, "name": "9607036a7e542e8a270ee4e0f6f191e0", "is_reserved": 0, "bike_id": "9607036a7e542e8a270ee4e0f6f191e0", "fusion_lon": 0.0, "rental_uris": {"ios": "https://dc.lft.to/lastmile_qr_scan", "android": "https://dc.lft.to/lastmile_qr_scan"}}, {"lon": -77.0837245, "fusion_lat": 0.0, "type": "electric_bike", "lat": 38.849160499999996, "is_disabled": 0, "name": "8cff944a9a9cb0db574e59a893171ef6", "is_reserved": 0, "bike_id": "8cff944a9a9cb0db574e59a893171ef6", "fusion_lon": 0.0, "rental_uris": {"ios": "https://dc.lft.to/lastmile_qr_scan", "android": "https://dc.lft.to/lastmile_qr_scan"}}, {"lon": -76.99771283333334, "fusion_lat": 0.0, "type": "electric_scooter", "lat": 38.9070555, "is_disabled": 0, "name": "c61cc427bf9a1ed8488491b5dc67ab9e", "is_reserved": 0, "bike_id": "c61cc427bf9a1ed8488491b5dc67ab9e", "fusion_lon": 0.0, "rental_uris": {"ios": "https://dc.lft.to/lastmile_qr_scan", "android": "https://dc.lft.to/lastmile_qr_scan"}}, {"lon": -77.03366783333334, "fusion_lat": 0.0, "type": "electric_scooter", "lat": 38.919159, "is_disabled": 0, "name": "6c677e8ecff9ef0bd0156828f47df845", "is_reserved": 0, "bike_id": "6c677e8ecff9ef0bd0156828f47df845", "fusion_lon": 0.0, "rental_uris": {"ios": "https://dc.lft.to/lastmile_qr_scan", "android": "https://dc.lft.to/lastmile_qr_scan"}}, {"lon": -77.01798416666666, "fusion_lat": 0.0, "type": "electric_bike", "lat": 38.99412016666667, "is_disabled": 0, "name": "3cdf919a8db9eba6301502f174ed3b04", "is_reserved": 0, "bike_id": "3cdf919a8db9eba6301502f174ed3b04", "fusion_lon": 0.0, "rental_uris": {"ios": "https://dc.lft.to/lastmile_qr_scan", "android": "https://dc.lft.to/lastmile_qr_scan"}}, {"lon": -77.01325233333333, "fusion_lat": 0.0, "type": "electric_scooter", "lat": 38.89711633333334, "is_disabled": 0, "name": "de8ca5110be1f9d1cdd4db025c39790b", "is_reserved": 0, "bike_id": "de8ca5110be1f9d1cdd4db025c39790b", "fusion_lon": 0.0, "rental_uris": {"ios": "https://dc.lft.to/lastmile_qr_scan", "android": "https://dc.lft.to/lastmile_qr_scan"}}, {"lon": -76.995356, "fusion_lat": 0.0, "type": "electric_bike", "lat": 38.838617666666664, "is_disabled": 0, "name": "1fec6d73d39ab683219f745033fd33db", "is_reserved": 0, "bike_id": "1fec6d73d39ab683219f745033fd33db", "fusion_lon": 0.0, "rental_uris": {"ios": "https://dc.lft.to/lastmile_qr_scan", "android": "https://dc.lft.to/lastmile_qr_scan"}}, {"lon": -76.994899, "fusion_lat": 0.0, "type": "electric_scooter", "lat": 38.89474933333333, "is_disabled": 0, "name": "811c436269d765749b608f832c6d5bf7", "is_reserved": 0, "bike_id": "811c436269d765749b608f832c6d5bf7", "fusion_lon": 0.0, "rental_uris": {"ios": "https://dc.lft.to/lastmile_qr_scan", "android": "https://dc.lft.to/lastmile_qr_scan"}}, {"lon": -77.0240455, "fusion_lat": 0.0, "type": "electric_scooter", "lat": 38.905994166666666, "is_disabled": 0, "name": "6a069173ecd3dd3940c9719fe24d1c96", "is_reserved": 0, "bike_id": "6a069173ecd3dd3940c9719fe24d1c96", "fusion_lon": 0.0, "rental_uris": {"ios": "https://dc.lft.to/lastmile_qr_scan", "android": "https://dc.lft.to/lastmile_qr_scan"}}, {"lon": -77.02402366666666, "fusion_lat": 0.0, "type": "electric_scooter", "lat": 38.92494816666667, "is_disabled": 0, "name": "a4480c68d62516682e9a466b70e200bb", "is_reserved": 0, "bike_id": "a4480c68d62516682e9a466b70e200bb", "fusion_lon": 0.0, "rental_uris": {"ios": "https://dc.lft.to/lastmile_qr_scan", "android": "https://dc.lft.to/lastmile_qr_scan"}}, {"lon": -77.03265916666666, "fusion_lat": 0.0, "type": "electric_scooter", "lat": 38.9394315, "is_disabled": 0, "name": "c843adb341e9576e7400aa60dfb89ff0", "is_reserved": 0, "bike_id": "c843adb341e9576e7400aa60dfb89ff0", "fusion_lon": 0.0, "rental_uris": {"ios": "https://dc.lft.to/lastmile_qr_scan", "android": "https://dc.lft.to/lastmile_qr_scan"}}, {"lon": -77.03234883333333, "fusion_lat": 0.0, "type": "electric_scooter", "lat": 38.904458166666664, "is_disabled": 0, "name": "bed73f347349a9ea45e265845f5ac420", "is_reserved": 0, "bike_id": "bed73f347349a9ea45e265845f5ac420", "fusion_lon": 0.0, "rental_uris": {"ios": "https://dc.lft.to/lastmile_qr_scan", "android": "https://dc.lft.to/lastmile_qr_scan"}}, {"lon": -77.0321065, "fusion_lat": 0.0, "type": "electric_scooter", "lat": 38.89236416666667, "is_disabled": 0, "name": "db8b59dc8c05ad5cc245eba291f92835", "is_reserved": 0, "bike_id": "db8b59dc8c05ad5cc245eba291f92835", "fusion_lon": 0.0, "rental_uris": {"ios": "https://dc.lft.to/lastmile_qr_scan", "android": "https://dc.lft.to/lastmile_qr_scan"}}, {"lon": -77.02176233333333, "fusion_lat": 0.0, "type": "electric_scooter", "lat": 38.90187616666667, "is_disabled": 0, "name": "2db4121787a690ac1693db34297996b3", "is_reserved": 0, "bike_id": "2db4121787a690ac1693db34297996b3", "fusion_lon": 0.0, "rental_uris": {"ios": "https://dc.lft.to/lastmile_qr_scan", "android": "https://dc.lft.to/lastmile_qr_scan"}}, {"lon": -76.99699083333333, "fusion_lat": 0.0, "type": "electric_scooter", "lat": 38.90833833333333, "is_disabled": 0, "name": "fa59078ac66dd048a4cc76f5f0ec272a", "is_reserved": 0, "bike_id": "fa59078ac66dd048a4cc76f5f0ec272a", "fusion_lon": 0.0, "rental_uris": {"ios": "https://dc.lft.to/lastmile_qr_scan", "android": "https://dc.lft.to/lastmile_qr_scan"}}, {"lon": -77.031707, "fusion_lat": 0.0, "type": "electric_scooter", "lat": 38.914188833333334, "is_disabled": 0, "name": "cf51f2155c644eaefbb8b62e0f6d537e", "is_reserved": 0, "bike_id": "cf51f2155c644eaefbb8b62e0f6d537e", "fusion_lon": 0.0, "rental_uris": {"ios": "https://dc.lft.to/lastmile_qr_scan", "android": "https://dc.lft.to/lastmile_qr_scan"}}, {"lon": -77.03796966666667, "fusion_lat": 0.0, "type": "electric_scooter", "lat": 38.906735, "is_disabled": 0, "name": "7d9d6b3e4cbc7c50b12c32c0c25fed09", "is_reserved": 0, "bike_id": "7d9d6b3e4cbc7c50b12c32c0c25fed09", "fusion_lon": 0.0, "rental_uris": {"ios": "https://dc.lft.to/lastmile_qr_scan", "android": "https://dc.lft.to/lastmile_qr_scan"}}, {"lon": -77.02117283333334, "fusion_lat": 0.0, "type": "electric_scooter", "lat": 38.89954433333333, "is_disabled": 0, "name": "d605c06959abdb08e5148ce1076f8d4a", "is_reserved": 0, "bike_id": "d605c06959abdb08e5148ce1076f8d4a", "fusion_lon": 0.0, "rental_uris": {"ios": "https://dc.lft.to/lastmile_qr_scan", "android": "https://dc.lft.to/lastmile_qr_scan"}}, {"lon": -77.01466583333334, "fusion_lat": 0.0, "type": "electric_scooter", "lat": 38.926665, "is_disabled": 0, "name": "d93af8026d25177d16c7706ce642cbbe", "is_reserved": 0, "bike_id": "d93af8026d25177d16c7706ce642cbbe", "fusion_lon": 0.0, "rental_uris": {"ios": "https://dc.lft.to/lastmile_qr_scan", "android": "https://dc.lft.to/lastmile_qr_scan"}}, {"lon": -77.03701183333334, "fusion_lat": 0.0, "type": "electric_scooter", "lat": 38.90118966666667, "is_disabled": 0, "name": "6e59920dda12192847c02854dad50624", "is_reserved": 0, "bike_id": "6e59920dda12192847c02854dad50624", "fusion_lon": 0.0, "rental_uris": {"ios": "https://dc.lft.to/lastmile_qr_scan", "android": "https://dc.lft.to/lastmile_qr_scan"}}, {"lon": -77.07277183333333, "fusion_lat": 0.0, "type": "electric_scooter", "lat": 38.909045166666665, "is_disabled": 0, "name": "618e5513da7a2114c28a8f1cec4c784e", "is_reserved": 0, "bike_id": "618e5513da7a2114c28a8f1cec4c784e", "fusion_lon": 0.0, "rental_uris": {"ios": "https://dc.lft.to/lastmile_qr_scan", "android": "https://dc.lft.to/lastmile_qr_scan"}}, {"lon": -76.95762266666667, "fusion_lat": 0.0, "type": "electric_scooter", "lat": 38.88442716666667, "is_disabled": 0, "name": "7b7f553ba286c45dc9c5320958187cb1", "is_reserved": 0, "bike_id": "7b7f553ba286c45dc9c5320958187cb1", "fusion_lon": 0.0, "rental_uris": {"ios": "https://dc.lft.to/lastmile_qr_scan", "android": "https://dc.lft.to/lastmile_qr_scan"}}, {"lon": -77.03853766666667, "fusion_lat": 0.0, "type": "electric_scooter", "lat": 38.9165785, "is_disabled": 0, "name": "7d6fc72047b2c3c6a9a576700d3991ce", "is_reserved": 0, "bike_id": "7d6fc72047b2c3c6a9a576700d3991ce", "fusion_lon": 0.0, "rental_uris": {"ios": "https://dc.lft.to/lastmile_qr_scan", "android": "https://dc.lft.to/lastmile_qr_scan"}}, {"lon": -77.038475, "fusion_lat": 0.0, "type": "electric_scooter", "lat": 38.916621666666664, "is_disabled": 0, "name": "84869159e5dc311914041327e851207d", "is_reserved": 0, "bike_id": "84869159e5dc311914041327e851207d", "fusion_lon": 0.0, "rental_uris": {"ios": "https://dc.lft.to/lastmile_qr_scan", "android": "https://dc.lft.to/lastmile_qr_scan"}}, {"lon": -77.01715633333333, "fusion_lat": 0.0, "type": "electric_scooter", "lat": 38.87929416666667, "is_disabled": 0, "name": "980b713682d1988b99b52c51073e2b26", "is_reserved": 0, "bike_id": "980b713682d1988b99b52c51073e2b26", "fusion_lon": 0.0, "rental_uris": {"ios": "https://dc.lft.to/lastmile_qr_scan", "android": "https://dc.lft.to/lastmile_qr_scan"}}, {"lon": -77.02433416666666, "fusion_lat": 0.0, "type": "electric_scooter", "lat": 38.8988765, "is_disabled": 0, "name": "bd391f5830b5793a05b93d150a6e2935", "is_reserved": 0, "bike_id": "bd391f5830b5793a05b93d150a6e2935", "fusion_lon": 0.0, "rental_uris": {"ios": "https://dc.lft.to/lastmile_qr_scan", "android": "https://dc.lft.to/lastmile_qr_scan"}}, {"lon": -77.00580816666667, "fusion_lat": 0.0, "type": "electric_scooter", "lat": 38.87566733333333, "is_disabled": 0, "name": "ca56d41bf5f304fab4977ae428f340eb", "is_reserved": 0, "bike_id": "ca56d41bf5f304fab4977ae428f340eb", "fusion_lon": 0.0, "rental_uris": {"ios": "https://dc.lft.to/lastmile_qr_scan", "android": "https://dc.lft.to/lastmile_qr_scan"}}, {"lon": -77.02510283333334, "fusion_lat": 0.0, "type": "electric_scooter", "lat": 38.9062965, "is_disabled": 0, "name": "581b18da58cb9851a287ade8ca023158", "is_reserved": 0, "bike_id": "581b18da58cb9851a287ade8ca023158", "fusion_lon": 0.0, "rental_uris": {"ios": "https://dc.lft.to/lastmile_qr_scan", "android": "https://dc.lft.to/lastmile_qr_scan"}}, {"lon": -77.08410583333334, "fusion_lat": 0.0, "type": "electric_bike", "lat": 38.832939, "is_disabled": 0, "name": "69b31cc73b7893263be8e69ab38b7c3e", "is_reserved": 0, "bike_id": "69b31cc73b7893263be8e69ab38b7c3e", "fusion_lon": 0.0, "rental_uris": {"ios": "https://dc.lft.to/lastmile_qr_scan", "android": "https://dc.lft.to/lastmile_qr_scan"}}, {"lon": -77.00197516666667, "fusion_lat": 0.0, "type": "electric_bike", "lat": 38.95795916666667, "is_disabled": 0, "name": "88acee94e24c232ab007c44e2b813bd1", "is_reserved": 0, "bike_id": "88acee94e24c232ab007c44e2b813bd1", "fusion_lon": 0.0, "rental_uris": {"ios": "https://dc.lft.to/lastmile_qr_scan", "android": "https://dc.lft.to/lastmile_qr_scan"}}, {"lon": -77.0420795, "fusion_lat": 0.0, "type": "electric_scooter", "lat": 38.907362, "is_disabled": 0, "name": "f552748354b1e2c704f5741c15665e78", "is_reserved": 0, "bike_id": "f552748354b1e2c704f5741c15665e78", "fusion_lon": 0.0, "rental_uris": {"ios": "https://dc.lft.to/lastmile_qr_scan", "android": "https://dc.lft.to/lastmile_qr_scan"}}, {"lon": -77.00729916666667, "fusion_lat": 0.0, "type": "electric_scooter", "lat": 38.954226166666665, "is_disabled": 0, "name": "b9fa4cfb22ebeb48c89d17cb58d02221", "is_reserved": 0, "bike_id": "b9fa4cfb22ebeb48c89d17cb58d02221", "fusion_lon": 0.0, "rental_uris": {"ios": "https://dc.lft.to/lastmile_qr_scan", "android": "https://dc.lft.to/lastmile_qr_scan"}}, {"lon": -77.01906833333334, "fusion_lat": 0.0, "type": "electric_scooter", "lat": 38.92340816666667, "is_disabled": 0, "name": "042ac983070e76bbd5d72379f2774075", "is_reserved": 0, "bike_id": "042ac983070e76bbd5d72379f2774075", "fusion_lon": 0.0, "rental_uris": {"ios": "https://dc.lft.to/lastmile_qr_scan", "android": "https://dc.lft.to/lastmile_qr_scan"}}, {"lon": -77.0377745, "fusion_lat": 0.0, "type": "electric_scooter", "lat": 38.92000083333333, "is_disabled": 0, "name": "30a790de782608f5481b53cdcb90474a", "is_reserved": 0, "bike_id": "30a790de782608f5481b53cdcb90474a", "fusion_lon": 0.0, "rental_uris": {"ios": "https://dc.lft.to/lastmile_qr_scan", "android": "https://dc.lft.to/lastmile_qr_scan"}}, {"lon": -77.02672816666667, "fusion_lat": 0.0, "type": "electric_scooter", "lat": 38.921679833333336, "is_disabled": 0, "name": "b37a85cc51106f571a9d8aef5fc1ee03", "is_reserved": 0, "bike_id": "b37a85cc51106f571a9d8aef5fc1ee03", "fusion_lon": 0.0, "rental_uris": {"ios": "https://dc.lft.to/lastmile_qr_scan", "android": "https://dc.lft.to/lastmile_qr_scan"}}, {"lon": -77.02384166666667, "fusion_lat": 0.0, "type": "electric_scooter", "lat": 38.89232466666667, "is_disabled": 0, "name": "e5b6d3a74f3670f024e884a2a5a585a3", "is_reserved": 0, "bike_id": "e5b6d3a74f3670f024e884a2a5a585a3", "fusion_lon": 0.0, "rental_uris": {"ios": "https://dc.lft.to/lastmile_qr_scan", "android": "https://dc.lft.to/lastmile_qr_scan"}}, {"lon": -77.0091505, "fusion_lat": 0.0, "type": "electric_scooter", "lat": 38.95753233333333, "is_disabled": 0, "name": "e2b8c56e64ea82024d1482a1bf380596", "is_reserved": 0, "bike_id": "e2b8c56e64ea82024d1482a1bf380596", "fusion_lon": 0.0, "rental_uris": {"ios": "https://dc.lft.to/lastmile_qr_scan", "android": "https://dc.lft.to/lastmile_qr_scan"}}, {"lon": -76.996781, "fusion_lat": 0.0, "type": "electric_scooter", "lat": 38.885212833333334, "is_disabled": 0, "name": "2258f29e877fde3c7929611223551fe4", "is_reserved": 0, "bike_id": "2258f29e877fde3c7929611223551fe4", "fusion_lon": 0.0, "rental_uris": {"ios": "https://dc.lft.to/lastmile_qr_scan", "android": "https://dc.lft.to/lastmile_qr_scan"}}, {"lon": -76.9932285, "fusion_lat": 0.0, "type": "electric_scooter", "lat": 38.876617833333334, "is_disabled": 0, "name": "0944a24b21767723785ed40fe4d6c93d", "is_reserved": 0, "bike_id": "0944a24b21767723785ed40fe4d6c93d", "fusion_lon": 0.0, "rental_uris": {"ios": "https://dc.lft.to/lastmile_qr_scan", "android": "https://dc.lft.to/lastmile_qr_scan"}}, {"lon": -77.041329, "fusion_lat": 0.0, "type": "electric_scooter", "lat": 38.923519, "is_disabled": 0, "name": "0fe9cca3defc2a4fa0a96be2a293a331", "is_reserved": 0, "bike_id": "0fe9cca3defc2a4fa0a96be2a293a331", "fusion_lon": 0.0, "rental_uris": {"ios": "https://dc.lft.to/lastmile_qr_scan", "android": "https://dc.lft.to/lastmile_qr_scan"}}, {"lon": -77.02643933333333, "fusion_lat": 0.0, "type": "electric_scooter", "lat": 38.982178, "is_disabled": 0, "name": "1fb6026e136142266d0a822adb5f1967", "is_reserved": 0, "bike_id": "1fb6026e136142266d0a822adb5f1967", "fusion_lon": 0.0, "rental_uris": {"ios": "https://dc.lft.to/lastmile_qr_scan", "android": "https://dc.lft.to/lastmile_qr_scan"}}, {"lon": -77.0613455, "fusion_lat": 0.0, "type": "electric_scooter", "lat": 38.943564333333335, "is_disabled": 0, "name": "4ccd94823da04fcbb3e6cf595b7986dd", "is_reserved": 0, "bike_id": "4ccd94823da04fcbb3e6cf595b7986dd", "fusion_lon": 0.0, "rental_uris": {"ios": "https://dc.lft.to/lastmile_qr_scan", "android": "https://dc.lft.to/lastmile_qr_scan"}},