{"data": {"bikes": [{"rental_uris": {"ios": "https://dc.lft.to/lastmile_qr_scan", "android": "https://dc.lft.to/lastmile_qr_scan"}, "type": "electric_scooter", "name": "83365f8d22f6468d579dd4d7a9ed60aa", "is_reserved": 0, "lon": -77.02311116666667, "is_disabled": 0, "fusion_lat": 0.0, "lat": 38.92779733333333, "bike_id": "83365f8d22f6468d579dd4d7a9ed60aa", "fusion_lon": 0.0}, {"rental_uris": {"ios": "https://dc.lft.to/lastmile_qr_scan", "android": "https://dc.lft.to/lastmile_qr_scan"}, "type": "electric_scooter", "name": "bcf2bbc99eded5949034830df740b265", "is_reserved": 0, "lon": -77.02076366666667, "is_disabled": 0, "fusion_lat": 0.0, "lat": 38.93020716666667, "bike_id": "bcf2bbc99eded5949034830df740b265", "fusion_lon": 0.0}, {"rental_uris": {"ios": "https://dc.lft.to/lastmile_qr_scan", "android": "https://dc.lft.to/lastmile_qr_scan"}, "type": "electric_scooter", "name": "8d357849cbe774f4f68f37adb24f56fb", "is_reserved": 0, "lon": -77.0209295, "is_disabled": 0, "fusion_lat": 0.0, "lat": 38.931155333333336, "bike_id": "8d357849cbe774f4f68f37adb24f56fb", "fusion_lon": 0.0}, {"rental_uris": {"ios": "https://dc.lft.to/lastmile_qr_scan", "android": "https://dc.lft.to/lastmile_qr_scan"}, "type": "electric_bike", "name": "9913c15ee3022e8921af140206c24f7a", "is_reserved": 0, "lon": -77.00375566666666, "is_disabled": 0, "fusion_lat": 0.0, "lat": 38.83603, "bike_id": "9913c15ee3022e8921af140206c24f7a", "fusion_lon": 0.0}, {"rental_uris": {"ios": "https://dc.lft.to/lastmile_qr_scan", "android": "https://dc.lft.to/lastmile_qr_scan"}, "type": "electric_scooter", "name": "019649de3a1ac5a9775ff670a6d3eefe", "is_reserved": 0, "lon": -77.02834583333333, "is_disabled": 0, "fusion_lat": 0.0, "lat": 38.887343333333334, "bike_id": "019649de3a1ac5a9775ff670a6d3eefe", "fusion_lon": 0.0}, {"rental_uris": {"ios": "https://dc.lft.to/lastmile_qr_scan", "android": "https://dc.lft.to/lastmile_qr_scan"}, "type": "electric_scooter", "name": "1b32baa29a1eaab06e38800bae32967c", "is_reserved": 0, "lon": -77.0021205, "is_disabled": 0, "fusion_lat": 0.0, "lat": 38.90765016666667, "bike_id": "1b32baa29a1eaab06e38800bae32967c", "fusion_lon": 0.0}, {"rental_uris": {"ios": "https://dc.lft.to/lastmile_qr_scan", "android": "https://dc.lft.to/lastmile_qr_scan"}, "type": "electric_scooter", "name": "f4918ce37b756edc7be7ccc1b18a5542", "is_reserved": 0, "lon": -77.02738266666667, "is_disabled": 0, "fusion_lat": 0.0, "lat": 38.92968066666667, "bike_id": "f4918ce37b756edc7be7ccc1b18a5542", "fusion_lon": 0.0}, {"rental_uris": {"ios": "https://dc.lft.to/lastmile_qr_scan", "android": "https://dc.lft.to/lastmile_qr_scan"}, "type": "electric_scooter", "name": "bcc0cd572fd1b0dfe22920565eb292e7", "is_reserved": 0, "lon": -77.0412035, "is_disabled": 0, "fusion_lat": 0.0, "lat": 38.934037333333336, "bike_id": "bcc0cd572fd1b0dfe22920565eb292e7", "fusion_lon": 0.0}, {"rental_uris": {"ios": "https://dc.lft.to/lastmile_qr_scan", "android": "https://dc.lft.to/lastmile_qr_scan"}, "type": "electric_bike", "name": "5b80a45c2af91740bd29714a65f55d82", "is_reserved": 0, "lon": -76.9632435, "is_disabled": 0, "fusion_lat": 0.0, "lat": 38.938945833333335, "bike_id": "5b80a45c2af91740bd29714a65f55d82", "fusion_lon": 0.0}, {"rental_uris": {"ios": "https://dc.lft.to/lastmile_qr_scan", "android": "https://dc.lft.to/lastmile_qr_scan"}, "type": "electric_scooter", "name": "0bb0b556385c43e3a31f14a1f0d44394", "is_reserved": 0, "lon": -77.01631783333333, "is_disabled": 0, "fusion_lat": 0.0, "lat": 38.9024195, "bike_id": "0bb0b556385c43e3a31f14a1f0d44394", "fusion_lon": 0.0}, {"rental_uris": {"ios": "https://dc.lft.to/lastmile_qr_scan", "android": "https://dc.lft.to/lastmile_qr_scan"}, "type": "electric_bike", "name": "1c1b8047a0ad2c49048bb57336e04f43", "is_reserved": 0, "lon": -77.0813845, "is_disabled": 0, "fusion_lat": 0.0, "lat": 38.822923833333334, "bike_id": "1c1b8047a0ad2c49048bb57336e04f43", "fusion_lon": 0.0}, {"rental_uris": {"ios": "https://dc.lft.to/lastmile_qr_scan", "android": "https://dc.lft.to/lastmile_qr_scan"}, "type": "electric_scooter", "name": "076c538f5c29d0ea5420e87567e22a22", "is_reserved": 0, "lon": -77.0383295, "is_disabled": 0, "fusion_lat": 0.0, "lat": 38.9083305, "bike_id": "076c538f5c29d0ea5420e87567e22a22", "fusion_lon": 0.0}, {"rental_uris": {"ios": "https://dc.lft.to/lastmile_qr_scan", "android": "https://dc.lft.to/lastmile_qr_scan"}, "type": "electric_scooter", "name": "2417d499bcf0e3ed18bf5c403c062788", "is_reserved": 0, "lon": -77.00284266666667, "is_disabled": 0, "fusion_lat": 0.0, "lat": 38.90128266666667, "bike_id": "2417d499bcf0e3ed18bf5c403c062788", "fusion_lon": 0.0}, {"rental_uris": {"ios": "https://dc.lft.to/lastmile_qr_scan", "android": "https://dc.lft.to/lastmile_qr_scan"}, "type": "electric_scooter", "name": "5d4b5422b2f2cc6f795b343ab47f6463", "is_reserved": 0, "lon": -77.00163483333333, "is_disabled": 0, "fusion_lat": 0.0, "lat": 38.8738535, "bike_id": "5d4b5422b2f2cc6f795b343ab47f6463", "fusion_lon": 0.0}, {"rental_uris": {"ios": "https://dc.lft.to/lastmile_qr_scan", "android": "https://dc.lft.to/lastmile_qr_scan"}, "type": "electric_scooter", "name": "d1d33de81e6644ffd67367e5d15accdb", "is_reserved": 0, "lon": -77.01635316666666, "is_disabled": 0, "fusion_lat": 0.0, "lat": 38.929401666666664, "bike_id": "d1d33de81e6644ffd67367e5d15accdb", "fusion_lon": 0.0}, {"rental_uris": {"ios": "https://dc.lft.to/lastmile_qr_scan", "android": "https://dc.lft.to/lastmile_qr_scan"}, "type": "electric_scooter", "name": "4cab6cd66d4bb19ca1e52f1afa8948fe", "is_reserved": 0, "lon": -77.0291635, "is_disabled": 0, "fusion_lat": 0.0, "lat": 38.93452116666667, "bike_id": "4cab6cd66d4bb19ca1e52f1afa8948fe", "fusion_lon": 0.0}, {"rental_uris": {"ios": "https://dc.lft.to/lastmile_qr_scan", "android": "https://dc.lft.to/lastmile_qr_scan"}, "type": "electric_scooter", "name": "ce8f6268ad7f8d6672ea31556e98a67e", "is_reserved": 0, "lon": -77.03640066666667, "is_disabled": 0, "fusion_lat": 0.0, "lat": 38.9063575, "bike_id": "ce8f6268ad7f8d6672ea31556e98a67e", "fusion_lon": 0.0}, {"rental_uris": {"ios": "https://dc.lft.to/lastmile_qr_scan", "android": "https://dc.lft.to/lastmile_qr_scan"}, "type": "electric_scooter", "name": "cfc8982176f64f912cdf23da883aeb13", "is_reserved": 0, "lon": -77.06696033333333, "is_disabled": 0, "fusion_lat": 0.0, "lat": 38.909727333333336, "bike_id": "cfc8982176f64f912cdf23da883aeb13", "fusion_lon": 0.0}, {"rental_uris": {"ios": "https://dc.lft.to/lastmile_qr_scan", "android": "https://dc.lft.to/lastmile_qr_scan"}, "type": "electric_scooter", "name": "2cd0e8fcd9eb7c72a8cf10e110cda598", "is_reserved": 0, "lon": -77.0333475, "is_disabled": 0, "fusion_lat": 0.0, "lat": 38.89724433333333, "bike_id": "2cd0e8fcd9eb7c72a8cf10e110cda598", "fusion_lon": 0.0}, {"rental_uris": {"ios": "https://dc.lft.to/lastmile_qr_scan", "android": "https://dc.lft.to/lastmile_qr_scan"}, "type": "electric_scooter", "name": "e8b0f7e589821b9be0f01e1c7b51ece3", "is_reserved": 0, "lon": -76.9869535, "is_disabled": 0, "fusion_lat": 0.0, "lat": 38.912922, "bike_id": "e8b0f7e589821b9be0f01e1c7b51ece3", "fusion_lon": 0.0}, {"rental_uris": {"ios": "https://dc.lft.to/lastmile_qr_scan", "android": "https://dc.lft.to/lastmile_qr_scan"}, "type": "electric_scooter", "name": "4c6d4abf297077d17a13b1f99e6ea3d6", "is_reserved": 0, "lon": -76.99708416666667, "is_disabled": 0, "fusion_lat": 0.0, "lat": 38.88763733333333, "bike_id": "4c6d4abf297077d17a13b1f99e6ea3d6", "fusion_lon": 0.0}, {"rental_uris": {"ios": "https://dc.lft.to/lastmile_qr_scan", "android": "https://dc.lft.to/lastmile_qr_scan"}, "type": "electric_scooter", "name": "8f04b3db677db5848b679a79b5541e28", "is_reserved": 0, "lon": -77.07488233333333, "is_disabled": 0, "fusion_lat": 0.0, "lat": 38.96200316666667, "bike_id": "8f04b3db677db5848b679a79b5541e28", "fusion_lon": 0.0}, {"rental_uris": {"ios": "https://dc.lft.to/lastmile_qr_scan", "android": "https://dc.lft.to/lastmile_qr_scan"}, "type": "electric_bike", "name": "9a7e86e62c76e3f7119d167afda802c1", "is_reserved": 0, "lon": -77.010937, "is_disabled": 0, "fusion_lat": 0.0, "lat": 38.8730465, "bike_id": "9a7e86e62c76e3f7119d167afda802c1", "fusion_lon": 0.0}, {"rental_uris": {"ios": "https://dc.lft.to/lastmile_qr_scan", "android": "https://dc.lft.to/lastmile_qr_scan"}, "type": "electric_scooter", "name": "d0a270df381332de68c2cb06985f296c", "is_reserved": 0, "lon": -77.03621166666667, "is_disabled": 0, "fusion_lat": 0.0, "lat": 38.90362016666667, "bike_id": "d0a270df381332de68c2cb06985f296c", "fusion_lon": 0.0}, {"rental_uris": {"ios": "https://dc.lft.to/lastmile_qr_scan", "android": "https://dc.lft.to/lastmile_qr_scan"}, "type": "electric_scooter", "name": "7dea83e111595a988af08d56c3de3243", "is_reserved": 0, "lon": -77.03279733333333, "is_disabled": 0, "fusion_lat": 0.0, "lat": 38.935725, "bike_id": "7dea83e111595a988af08d56c3de3243", "fusion_lon": 0.0}, {"rental_uris": {"ios": "https://dc.lft.to/lastmile_qr_scan", "android": "https://dc.lft.to/lastmile_qr_scan"}, "type": "electric_scooter", "name": "a1065802059ef8162bbcc29a2f64f81c", "is_reserved": 0, "lon": -77.02604666666667, "is_disabled": 0, "fusion_lat": 0.0, "lat": 38.908119166666665, "bike_id": "a1065802059ef8162bbcc29a2f64f81c", "fusion_lon": 0.0}, {"rental_uris": {"ios": "https://dc.lft.to/lastmile_qr_scan", "android": "https://dc.lft.to/lastmile_qr_scan"}, "type": "electric_scooter", "name": "cefbfd90051c1e02813c6dc0fe52a7fd", "is_reserved": 0, "lon": -77.03457083333333, "is_disabled": 0, "fusion_lat": 0.0, "lat": 38.908343333333335, "bike_id": "cefbfd90051c1e02813c6dc0fe52a7fd", "fusion_lon": 0.0}, {"rental_uris": {"ios": "https://dc.lft.to/lastmile_qr_scan", "android": "https://dc.lft.to/lastmile_qr_scan"}, "type": "electric_scooter", "name": "45b60c3d6c919744136f7aad6d3d70bf", "is_reserved": 0, "lon": -77.01988066666667, "is_disabled": 0, "fusion_lat": 0.0, "lat": 38.899701666666665, "bike_id": "45b60c3d6c919744136f7aad6d3d70bf", "fusion_lon": 0.0}, {"rental_uris": {"ios": "https://dc.lft.to/lastmile_qr_scan", "android": "https://dc.lft.to/lastmile_qr_scan"}, "type": "electric_scooter", "name": "a0f80f0ecfb757f5152dd3d28e1756fa", "is_reserved": 0, "lon": -77.03460466666667, "is_disabled": 0, "fusion_lat": 0.0, "lat": 38.90924283333333, "bike_id": "a0f80f0ecfb757f5152dd3d28e1756fa", "fusion_lon": 0.0}, {"rental_uris": {"ios": "https://dc.lft.to/lastmile_qr_scan", "android": "https://dc.lft.to/lastmile_qr_scan"}, "type": "electric_scooter", "name": "ace8f63c8dc73b304f375d5fefff12de", "is_reserved": 0, "lon": -77.0364615, "is_disabled": 0, "fusion_lat": 0.0, "lat": 38.91857483333333, "bike_id": "ace8f63c8dc73b304f375d5fefff12de", "fusion_lon": 0.0}, {"rental_uris": {"ios": "https://dc.lft.to/lastmile_qr_scan", "android": "https://dc.lft.to/lastmile_qr_scan"}, "type": "electric_scooter", "name": "0fbceda9228315ceba273dab15cc14d4", "is_reserved": 0, "lon": -77.0744935, "is_disabled": 0, "fusion_lat": 0.0, "lat": 38.93776833333333, "bike_id": "0fbceda9228315ceba273dab15cc14d4", "fusion_lon": 0.0}, {"rental_uris": {"ios": "https://dc.lft.to/lastmile_qr_scan", "android": "https://dc.lft.to/lastmile_qr_scan"}, "type": "electric_scooter", "name": "2603983f1159ea16cf16927a4673031d", "is_reserved": 0, "lon": -77.029108, "is_disabled": 0, "fusion_lat": 0.0, "lat": 38.952960166666664, "bike_id": "2603983f1159ea16cf16927a4673031d", "fusion_lon": 0.0}, {"rental_uris": {"ios": "https://dc.lft.to/lastmile_qr_scan", "android": "https://dc.lft.to/lastmile_qr_scan"}, "type": "electric_scooter", "name": "94ff0ecb27b732be150398e13e4c73bb", "is_reserved": 0, "lon": -77.03813816666667, "is_disabled": 0, "fusion_lat": 0.0, "lat": 38.92556166666667, "bike_id": "94ff0ecb27b732be150398e13e4c73bb", "fusion_lon": 0.0}, {"rental_uris": {"ios": "https://dc.lft.to/lastmile_qr_scan", "android": "https://dc.lft.to/lastmile_qr_scan"}, "type": "electric_scooter", "name": "b9a6894f2b3bbb8cffb0a09f4dab96b3", "is_reserved": 0, "lon": -77.020161, "is_disabled": 0, "fusion_lat": 0.0, "lat": 38.92325816666666, "bike_id": "b9a6894f2b3bbb8cffb0a09f4dab96b3", "fusion_lon": 0.0}, {"rental_uris": {"ios": "https://dc.lft.to/lastmile_qr_scan", "android": "https://dc.lft.to/lastmile_qr_scan"}, "type": "electric_scooter", "name": "69312142f684fc8df4c2a0b657ca3e15", "is_reserved": 0, "lon": -77.03645166666666, "is_disabled": 0, "fusion_lat": 0.0, "lat": 38.92480883333333, "bike_id": "69312142f684fc8df4c2a0b657ca3e15", "fusion_lon": 0.0}, {"rental_uris": {"ios": "https://dc.lft.to/lastmile_qr_scan", "android": "https://dc.lft.to/lastmile_qr_scan"}, "type": "electric_scooter", "name": "a294dda7ed4825c59cc64d080287cc7e", "is_reserved": 0, "lon": -77.002847, "is_disabled": 0, "fusion_lat": 0.0, "lat": 38.9090815, "bike_id": "a294dda7ed4825c59cc64d080287cc7e", "fusion_lon": 0.0}, {"rental_uris": {"ios": "https://dc.lft.to/lastmile_qr_scan", "android": "https://dc.lft.to/lastmile_qr_scan"}, "type": "electric_scooter", "name": "1e1ad875a0b1a21113a3a447f046645e", "is_reserved": 0, "lon": -77.00552633333334, "is_disabled": 0, "fusion_lat": 0.0, "lat": 38.91180416666667, "bike_id": "1e1ad875a0b1a21113a3a447f046645e", "fusion_lon": 0.0}, {"rental_uris": {"ios": "https://dc.lft.to/lastmile_qr_scan", "android": "https://dc.lft.to/lastmile_qr_scan"}, "type": "electric_scooter", "name": "bc717bb579c897c4d8b2a8a64ad480e6", "is_reserved": 0, "lon": -77.0334205, "is_disabled": 0, "fusion_lat": 0.0, "lat": 38.92871233333334, "bike_id": "bc717bb579c897c4d8b2a8a64ad480e6", "fusion_lon": 0.0}, {"rental_uris": {"ios": "https://dc.lft.to/lastmile_qr_scan", "android": "https://dc.lft.to/lastmile_qr_scan"}, "type": "electric_scooter", "name": "6b9ba9e643c172a35604283c82517a74", "is_reserved": 0, "lon": -77.01054833333333, "is_disabled": 0, "fusion_lat": 0.0, "lat": 38.91191966666667, "bike_id": "6b9ba9e643c172a35604283c82517a74", "fusion_lon": 0.0}, {"rental_uris": {"ios": "https://dc.lft.to/lastmile_qr_scan", "android": "https://dc.lft.to/lastmile_qr_scan"}, "type": "electric_scooter", "name": "ab2bed6b6b36ecbb5bfc414586ebaa75", "is_reserved": 0, "lon": -77.02695466666667, "is_disabled": 0, "fusion_lat": 0.0, "lat": 38.924854333333336, "bike_id": "ab2bed6b6b36ecbb5bfc414586ebaa75", "fusion_lon": 0.0}, {"rental_uris": {"ios": "https://dc.lft.to/lastmile_qr_scan", "android": "https://dc.lft.to/lastmile_qr_scan"}, "type": "electric_scooter", "name": "536a910e27708dcfbbeb602b6c57f665", "is_reserved": 0, "lon": -76.99176333333334, "is_disabled": 0, "fusion_lat": 0.0, "lat": 38.9025825, "bike_id": "536a910e27708dcfbbeb602b6c57f665", "fusion_lon": 0.0}, {"rental_uris": {"ios": "https://dc.lft.to/lastmile_qr_scan", "android": "https://dc.lft.to/lastmile_qr_scan"}, "type": "electric_scooter", "name": "594179a31fd6145331d4db753f8cde78", "is_reserved": 0, "lon": -77.04524733333334, "is_disabled": 0, "fusion_lat": 0.0, "lat": 38.91107916666667, "bike_id": "594179a31fd6145331d4db753f8cde78", "fusion_lon": 0.0}, {"rental_uris": {"ios": "https://dc.lft.to/lastmile_qr_scan", "android": "https://dc.lft.to/lastmile_qr_scan"}, "type": "electric_scooter", "name": "9f85655a2e33795d1fba878fd14988fc", "is_reserved": 0, "lon": -77.0062135, "is_disabled": 0, "fusion_lat": 0.0, "lat": 38.87829516666667, "bike_id": "9f85655a2e33795d1fba878fd14988fc", "fusion_lon": 0.0}, {"rental_uris": {"ios": "https://dc.lft.to/lastmile_qr_scan", "android": "https://dc.lft.to/lastmile_qr_scan"}, "type": "electric_scooter", "name": "b9302010ff520bb33f8dd0114bb5ba85", "is_reserved": 0, "lon": -76.99384483333333, "is_disabled": 0, "fusion_lat": 0.0, "lat": 38.89337066666667, "bike_id": "b9302010ff520bb33f8dd0114bb5ba85", "fusion_lon": 0.0}, {"rental_uris": {"ios": "https://dc.lft.to/lastmile_qr_scan", "android": "https://dc.lft.to/lastmile_qr_scan"}, "type": "electric_scooter", "name": "253eaab2215eec35dc191790f694f818", "is_reserved": 0, "lon": -77.02477183333333, "is_disabled": 0, "fusion_lat": 0.0, "lat": 38.918168666666666, "bike_id": "253eaab2215eec35dc191790f694f818", "fusion_lon": 0.0}, {"rental_uris": {"ios": "https://dc.lft.to/lastmile_qr_scan", "android": "https://dc.lft.to/lastmile_qr_scan"}, "type": "electric_scooter", "name": "86860b2ed4416ee2d44f7ff5f5f70e23", "is_reserved": 0, "lon": -77.019716, "is_disabled": 0, "fusion_lat": 0.0, "lat": 38.922686666666664, "bike_id": "86860b2ed4416ee2d44f7ff5f5f70e23", "fusion_lon": 0.0}, {"rental_uris": {"ios": "https://dc.lft.to/lastmile_qr_scan", "android": "https://dc.lft.to/lastmile_qr_scan"}, "type": "electric_scooter", "name": "8ff2a11c4e1540e91b230e3449931fe2", "is_reserved": 0, "lon": -76.991615, "is_disabled": 0, "fusion_lat": 0.0, "lat": 38.888151, "bike_id": "8ff2a11c4e1540e91b230e3449931fe2", "fusion_lon": 0.0}, {"rental_uris": {"ios": "https://dc.lft.to/lastmile_qr_scan", "android": "https://dc.lft.to/lastmile_qr_scan"}, "type": "electric_scooter", "name": "8ca84a515d9c6055c0a38c9f759cca72", "is_reserved": 0, "lon": -77.02402633333334, "is_disabled": 0, "fusion_lat": 0.0, "lat": 38.938133, "bike_id": "8ca84a515d9c6055c0a38c9f759cca72", "fusion_lon": 0.0}, {"rental_uris": {"ios": "https://dc.lft.to/lastmile_qr_scan", "android": "https://dc.lft.to/lastmile_qr_scan"}, "type": "electric_scooter", "name": "80ee9f6b039da8a8c21dca13529cfbe5", "is_reserved": 0, "lon": -76.99882833333334, "is_disabled": 0, "fusion_lat": 0.0, "lat": 38.900299833333335, "bike_id": "80ee9f6b039da8a8c21dca13529cfbe5", "fusion_lon": 0.0}, {"rental_uris": {"ios": "https://dc.lft.to/lastmile_qr_scan", "android": "https://dc.lft.to/lastmile_qr_scan"}, "type": "electric_scooter", "name": "0491e0dfec09587aac95995c5194e2a4", "is_reserved": 0, "lon": -77.042294, "is_disabled": 0, "fusion_lat": 0.0, "lat": 38.9111185, "bike_id": "0491e0dfec09587aac95995c5194e2a4", "fusion_lon": 0.0}, {"rental_uris": {"ios": "https://dc.lft.to/lastmile_qr_scan", "android": "https://dc.lft.to/lastmile_qr_scan"}, "type": "electric_scooter", "name": "09116c47d32de584e195fcfbe7117a47", "is_reserved": 0, "lon": -77.06482666666666, "is_disabled": 0, "fusion_lat": 0.0, "lat": 38.927026, "bike_id": "09116c47d32de584e195fcfbe7117a47", "fusion_lon": 0.0}, {"rental_uris": {"ios": "https://dc.lft.to/lastmile_qr_scan", "android": "https://dc.lft.to/lastmile_qr_scan"}, "type": "electric_scooter", "name": "a1dd5f9530c032f69a8a0a50e001eec3", "is_reserved": 0, "lon": -77.05817233333333, "is_disabled": 0, "fusion_lat": 0.0, "lat": 38.9351785, "bike_id": "a1dd5f9530c032f69a8a0a50e001eec3", "fusion_lon": 0.0}, {"rental_uris": {"ios": "https://dc.lft.to/lastmile_qr_scan", "android": "https://dc.lft.to/lastmile_qr_scan"}, "type": "electric_scooter", "name": "b199ae879b8a0fa47b23a7d557c2e179", "is_reserved": 0, "lon": -77.02336116666666, "is_disabled": 0, "fusion_lat": 0.0, "lat": 38.92939583333333, "bike_id": "b199ae879b8a0fa47b23a7d557c2e179", "fusion_lon": 0.0}, {"rental_uris": {"ios": "https://dc.lft.to/lastmile_qr_scan", "android": "https://dc.lft.to/lastmile_qr_scan"}, "type": "electric_scooter", "name": "6425ad2a4e12692b649d0ee629d44b69", "is_reserved": 0, "lon": -77.03361, "is_disabled": 0, "fusion_lat": 0.0, "lat": 38.899812, "bike_id": "6425ad2a4e12692b649d0ee629d44b69", "fusion_lon": 0.0}, {"rental_uris": {"ios": "https://dc.lft.to/lastmile_qr_scan", "android": "https://dc.lft.to/lastmile_qr_scan"}, "type": "electric_scooter", "name": "e9062f9fcb056f8a1467f7614e6ebc31", "is_reserved": 0, "lon": -77.03271016666666, "is_disabled": 0, "fusion_lat": 0.0, "lat": 38.91991633333333, "bike_id": "e9062f9fcb056f8a1467f7614e6ebc31", "fusion_lon": 0.0}, {"rental_uris": {"ios": "https://dc.lft.to/lastmile_qr_scan", "android": "https://dc.lft.to/lastmile_qr_scan"}, "type": "electric_scooter", "name": "a59f8f68f6cfeca8cc1814be2b3de30c", "is_reserved": 0, "lon": -76.98339266666666, "is_disabled": 0, "fusion_lat": 0.0, "lat": 38.90082833333334, "bike_id": "a59f8f68f6cfeca8cc1814be2b3de30c", "fusion_lon": 0.0}, {"rental_uris": {"ios": "https://dc.lft.to/lastmile_qr_scan", "android": "https://dc.lft.to/lastmile_qr_scan"}, "type": "electric_scooter", "name": "dfdcdb23af99de3db32b9471fe5301b8", "is_reserved": 0, "lon": -77.031611, "is_disabled": 0, "fusion_lat": 0.0, "lat": 38.9593225, "bike_id": "dfdcdb23af99de3db32b9471fe5301b8", "fusion_lon": 0.0}, {"rental_uris": {"ios": "https://dc.lft.to/lastmile_qr_scan", "android": "https://dc.lft.to/lastmile_qr_scan"}, "type": "electric_bike", "name": "daccc322fe04c3e156ef7d5740bed8a1", "is_reserved": 0, "lon": -77.00157316666666, "is_disabled": 0, "fusion_lat": 0.0, "lat": 38.94159166666667, "bike_id": "daccc322fe04c3e156ef7d5740bed8a1", "fusion_lon": 0.0}, {"rental_uris": {"ios": "https://dc.lft.to/lastmile_qr_scan", "android": "https://dc.lft.to/lastmile_qr_scan"}, "type": "electric_scooter", "name": "9059a7c8e229cc8ab82b27fe11d25e86", "is_reserved": 0, "lon": -77.03290833333334, "is_disabled": 0, "fusion_lat": 0.0, "lat": 38.91716366666667, "bike_id": "9059a7c8e229cc8ab82b27fe11d25e86", "fusion_lon": 0.0}, {"rental_uris": {"ios": "https://dc.lft.to/lastmile_qr_scan", "android": "https://dc.lft.to/lastmile_qr_scan"}, "type": "electric_scooter", "name": "16eac4d644f2bad6e489916adcba0e1d", "is_reserved": 0, "lon": -77.04384966666667, "is_disabled": 0, "fusion_lat": 0.0, "lat": 38.93423283333333, "bike_id": "16eac4d644f2bad6e489916adcba0e1d", "fusion_lon": 0.0}, {"rental_uris": {"ios": "https://dc.lft.to/lastmile_qr_scan", "android": "https://dc.lft.to/lastmile_qr_scan"}, "type": "electric_scooter", "name": "726fbc8ab380c50dcd3f64091604c11e", "is_reserved": 0, "lon": -77.012324, "is_disabled": 0, "fusion_lat": 0.0, "lat": 38.915797, "bike_id": "726fbc8ab380c50dcd3f64091604c11e", "fusion_lon": 0.0}, {"rental_uris": {"ios": "https://dc.lft.to/lastmile_qr_scan", "android": "https://dc.lft.to/lastmile_qr_scan"}, "type": "electric_scooter", "name": "e62fd9c8d9220e6480380a9f65390498", "is_reserved": 0, "lon": -76.99076966666667, "is_disabled": 0, "fusion_lat": 0.0, "lat": 38.904193166666666, "bike_id": "e62fd9c8d9220e6480380a9f65390498", "fusion_lon": 0.0}, {"rental_uris": {"ios": "https://dc.lft.to/lastmile_qr_scan", "android": "https://dc.lft.to/lastmile_qr_scan"}, "type": "electric_scooter", "name": "7988a1bd09e4c7b8f1c93760fb3679d6", "is_reserved": 0, "lon": -77.03657466666667, "is_disabled": 0, "fusion_lat": 0.0, "lat": 38.923868, "bike_id": "7988a1bd09e4c7b8f1c93760fb3679d6", "fusion_lon": 0.0}, {"rental_uris": {"ios": "https://dc.lft.to/lastmile_qr_scan", "android": "https://dc.lft.to/lastmile_qr_scan"}, "type": "electric_scooter", "name": "aa3b9a82c39d68278038effa134d59ca", "is_reserved": 0, "lon": -77.01889416666667, "is_disabled": 0, "fusion_lat": 0.0, "lat": 38.89745633333333, "bike_id": "aa3b9a82c39d68278038effa134d59ca", "fusion_lon": 0.0}, {"rental_uris": {"ios": "https://dc.lft.to/lastmile_qr_scan", "android": "https://dc.lft.to/lastmile_qr_scan"}, "type": "electric_scooter", "name": "078ea4415f0813fbb228b4fdfa4d7e58", "is_reserved": 0, "lon": -77.03056016666666, "is_disabled": 0, "fusion_lat": 0.0, "lat": 38.9073255, "bike_id": "078ea4415f0813fbb228b4fdfa4d7e58", "fusion_lon": 0.0}, {"rental_uris": {"ios": "https://dc.lft.to/lastmile_qr_scan", "android": "https://dc.lft.to/lastmile_qr_scan"}, "type": "electric_scooter", "name": "465b59b587ac8af9beac54529c891a1d", "is_reserved": 0, "lon": -77.051237, "is_disabled": 0, "fusion_lat": 0.0, "lat": 38.923437166666666, "bike_id": "465b59b587ac8af9beac54529c891a1d", "fusion_lon": 0.0}, {"rental_uris": {"ios": "https://dc.lft.to/lastmile_qr_scan", "android": "https://dc.lft.to/lastmile_qr_scan"}, "type": "electric_scooter", "name": "b802da0d7532713660186468fc1b2d43", "is_reserved": 0, "lon": -77.0486875, "is_disabled": 0, "fusion_lat": 0.0, "lat": 38.89221166666667, "bike_id": "b802da0d7532713660186468fc1b2d43", "fusion_lon": 0.0}, {"rental_uris": {"ios": "https://dc.lft.to/lastmile_qr_scan", "android": "https://dc.lft.to/lastmile_qr_scan"}, "type": "electric_bike", "name": "59820bb1aed0627c8789a4addedc4d86", "is_reserved": 0, "lon": -77.00770866666667, "is_disabled": 0, "fusion_lat": 0.0, "lat": 38.981289, "bike_id": "59820bb1aed0627c8789a4addedc4d86", "fusion_lon": 0.0}, {"rental_uris": {"ios": "https://dc.lft.to/lastmile_qr_scan", "android": "https://dc.lft.to/lastmile_qr_scan"}, "type": "electric_scooter", "name": "bed5fd8644788bc4350c5fe0d5b00c00", "is_reserved": 0, "lon": -76.92634433333333, "is_disabled": 0, "fusion_lat": 0.0, "lat": 38.90191816666667, "bike_id": "bed5fd8644788bc4350c5fe0d5b00c00", "fusion_lon": 0.0}, {"rental_uris": {"ios": "https://dc.lft.to/lastmile_qr_scan", "android": "https://dc.lft.to/lastmile_qr_scan"}, "type": "electric_scooter", "name": "4dec4a8ca59ecddba39d0ee804a16289", "is_reserved": 0, "lon": -77.06831233333334, "is_disabled": 0, "fusion_lat": 0.0, "lat": 38.91710666666667, "bike_id": "4dec4a8ca59ecddba39d0ee804a16289", "fusion_lon": 0.0}, {"rental_uris": {"ios": "https://dc.lft.to/lastmile_qr_scan", "android": "https://dc.lft.to/lastmile_qr_scan"}, "type": "electric_scooter", "name": "f3ce31067516528df681fda359ea27b7", "is_reserved": 0, "lon": -77.0529985, "is_disabled": 0, "fusion_lat": 0.0, "lat": 38.92545833333333, "bike_id": "f3ce31067516528df681fda359ea27b7", "fusion_lon": 0.0}, {"rental_uris": {"ios": "https://dc.lft.to/lastmile_qr_scan", "android": "https://dc.lft.to/lastmile_qr_scan"}, "type": "electric_scooter", "name": "dc58bab335f857409ec0e051c8692eae", "is_reserved": 0, "lon": -77.03103383333334, "is_disabled": 0, "fusion_lat": 0.0, "lat": 38.924822666666664, "bike_id": "dc58bab335f857409ec0e051c8692eae", "fusion_lon": 0.0}, {"rental_uris": {"ios": "https://dc.lft.to/lastmile_qr_scan", "android": "https://dc.lft.to/lastmile_qr_scan"}, "type": "electric_scooter", "name": "9d3fdc9e7619882c907f52edac3c415b", "is_reserved": 0, "lon": -77.02503183333333, "is_disabled": 0, "fusion_lat": 0.0, "lat": 38.903476, "bike_id": "9d3fdc9e7619882c907f52edac3c415b", "fusion_lon": 0.0}, {"rental_uris": {"ios": "https://dc.lft.to/lastmile_qr_scan", "android": "https://dc.lft.to/lastmile_qr_scan"}, "type": "electric_scooter", "name": "6dc309638846316338380dbeb8d366e7", "is_reserved": 0, "lon": -77.03860316666666, "is_disabled": 0, "fusion_lat": 0.0, "lat": 38.915475, "bike_id": "6dc309638846316338380dbeb8d366e7", "fusion_lon": 0.0}, {"rental_uris": {"ios": "https://dc.lft.to/lastmile_qr_scan", "android": "https://dc.lft.to/lastmile_qr_scan"}, "type": "electric_scooter", "name": "5773a3615e183222299c4585863ed0d8", "is_reserved": 0, "lon": -77.03639883333334, "is_disabled": 0, "fusion_lat": 0.0, "lat": 38.91615933333333, "bike_id": "5773a3615e183222299c4585863ed0d8", "fusion_lon": 0.0}, {"rental_uris": {"ios": "https://dc.lft.to/lastmile_qr_scan", "android": "https://dc.lft.to/lastmile_qr_scan"}, "type": "electric_scooter", "name": "e6c98f0260874479f1f5b262791190d3", "is_reserved": 0, "lon": -77.07346033333333, "is_disabled": 0, "fusion_lat": 0.0, "lat": 38.9432385, "bike_id": "e6c98f0260874479f1f5b262791190d3", "fusion_lon": 0.0}, {"rental_uris": {"ios": "https://dc.lft.to/lastmile_qr_scan", "android": "https://dc.lft.to/lastmile_qr_scan"}, "type": "electric_scooter", "name": "08656cd1427daf0868f5fa81372d379a", "is_reserved": 0, "lon": -77.07337816666667, "is_disabled": 0, "fusion_lat": 0.0, "lat": 38.960946166666666, "bike_id": "08656cd1427daf0868f5fa81372d379a", "fusion_lon": 0.0}, {"rental_uris": {"ios": "https://dc.lft.to/lastmile_qr_scan", "android": "https://dc.lft.to/lastmile_qr_scan"}, "type": "electric_scooter", "name": "bfe7ef796299c64bc91359252ac3133f", "is_reserved": 0, "lon": -77.01418816666667, "is_disabled": 0, "fusion_lat": 0.0, "lat": 38.914364166666665, "bike_id": "bfe7ef796299c64bc91359252ac3133f", "fusion_lon": 0.0}, {"rental_uris": {"ios": "https://dc.lft.to/lastmile_qr_scan", "android": "https://dc.lft.to/lastmile_qr_scan"}, "type": "electric_scooter", "name": "ad0bc37f22832d3a36a735d2c794cb18", "is_reserved": 0, "lon": -76.97626, "is_disabled": 0, "fusion_lat": 0.0, "lat": 38.905707666666665, "bike_id": "ad0bc37f22832d3a36a735d2c794cb18", "fusion_lon": 0.0}, {"rental_uris": {"ios": "https://dc.lft.to/lastmile_qr_scan", "android": "https://dc.lft.to/lastmile_qr_scan"}, "type": "electric_scooter", "name": "0ecfcab4b0abcaa7a1fbecc3333124c5", "is_reserved": 0, "lon": -77.049454, "is_disabled": 0, "fusion_lat": 0.0, "lat": 38.920200666666666, "bike_id": "0ecfcab4b0abcaa7a1fbecc3333124c5", "fusion_lon": 0.0}, {"rental_uris": {"ios": "https://dc.lft.to/lastmile_qr_scan", "android": "https://dc.lft.to/lastmile_qr_scan"}, "type": "electric_bike", "name": "51ddfce9a06509a90e56c154966263fa", "is_reserved": 0, "lon": -77.2340895, "is_disabled": 0, "fusion_lat": 0.0, "lat": 38.875763, "bike_id": "51ddfce9a06509a90e56c154966263fa", "fusion_lon": 0.0}, {"rental_uris": {"ios": "https://dc.lft.to/lastmile_qr_scan", "android": "https://dc.lft.to/lastmile_qr_scan"}, "type": "electric_scooter", "name": "a7aed3afe1edddc5514b5ed7b9f571fe", "is_reserved": 0, "lon": -77.02611583333334, "is_disabled": 0, "fusion_lat": 0.0, "lat": 38.8985395, "bike_id": "a7aed3afe1edddc5514b5ed7b9f571fe", "fusion_lon": 0.0}, {"rental_uris": {"ios": "https://dc.lft.to/lastmile_qr_scan", "android": "https://dc.lft.to/lastmile_qr_scan"}, "type": "electric_scooter", "name": "1548b8962b8d96925173f5c12e9d7144", "is_reserved": 0, "lon": -77.00543633333334, "is_disabled": 0, "fusion_lat": 0.0, "lat": 38.909261, "bike_id": "1548b8962b8d96925173f5c12e9d7144", "fusion_lon": 0.0}, {"rental_uris": {"ios": "https://dc.lft.to/lastmile_qr_scan", "android": "https://dc.lft.to/lastmile_qr_scan"}, "type": "electric_scooter", "name": "21e1c6409b56309d277605c78904c07d", "is_reserved": 0, "lon": -76.99410233333333, "is_disabled": 0, "fusion_lat": 0.0, "lat": 38.8778245, "bike_id": "21e1c6409b56309d277605c78904c07d", "fusion_lon": 0.0}, {"rental_uris": {"ios": "https://dc.lft.to/lastmile_qr_scan", "android": "https://dc.lft.to/lastmile_qr_scan"}, "type": "electric_scooter", "name": "9c4b8cb6fc34f19f095802572c9c477d", "is_reserved": 0, "lon": -77.03472166666667, "is_disabled": 0, "fusion_lat": 0.0, "lat": 38.930255833333334, "bike_id": "9c4b8cb6fc34f19f095802572c9c477d", "fusion_lon": 0.0}, {"rental_uris": {"ios": "https://dc.lft.to/lastmile_qr_scan", "android": "https://dc.lft.to/lastmile_qr_scan"}, "type": "electric_bike", "name": "8907d5cdb172588cb1382281e61eae3a", "is_reserved": 0, "lon": -76.90298633333333, "is_disabled": 0, "fusion_lat": 0.0, "lat": 39.002925833333336, "bike_id": "8907d5cdb172588cb1382281e61eae3a", "fusion_lon": 0.0}, {"rental_uris": {"ios": "https://dc.lft.to/lastmile_qr_scan", "android": "https://dc.lft.to/lastmile_qr_scan"}, "type": "electric_scooter", "name": "568faf7f6653bebef6846cf753064138", "is_reserved": 0, "lon": -77.02879316666667, "is_disabled": 0, "fusion_lat": 0.0, "lat": 38.907306, "bike_id": "568faf7f6653bebef6846cf753064138", "fusion_lon": 0.0}, {"rental_uris": {"ios": "https://dc.lft.to/lastmile_qr_scan", "android": "https://dc.lft.to/lastmile_qr_scan"}, "type": "electric_scooter", "name": "f056cd4050aa7d6c509c1a3f978fbc22", "is_reserved": 0, "lon": -77.008713, "is_disabled": 0, "fusion_lat": 0.0, "lat": 38.91255183333333, "bike_id": "f056cd4050aa7d6c509c1a3f978fbc22", "fusion_lon": 0.0}, {"rental_uris": {"ios": "https://dc.lft.to/lastmile_qr_scan", "android": "https://dc.lft.to/lastmile_qr_scan"}, "type": "electric_scooter", "name": "4f514d2ceebc621a8eeca6464d55a4cb", "is_reserved": 0, "lon": -77.0351885, "is_disabled": 0, "fusion_lat": 0.0, "lat": 38.922203, "bike_id": "4f514d2ceebc621a8eeca6464d55a4cb", "fusion_lon": 0.0}, {"rental_uris": {"ios": "https://dc.lft.to/lastmile_qr_scan", "android": "https://dc.lft.to/lastmile_qr_scan"}, "type": "electric_scooter", "name": "2af928c9a7ced812179498d481e71f28", "is_reserved": 0, "lon": -76.99842383333333, "is_disabled": 0, "fusion_lat": 0.0, "lat": 38.90298833333333, "bike_id": "2af928c9a7ced812179498d481e71f28", "fusion_lon": 0.0}, {"rental_uris": {"ios": "https://dc.lft.to/lastmile_qr_scan", "android": "https://dc.lft.to/lastmile_qr_scan"}, "type": "electric_scooter", "name": "95a60fe876e5cb0ab18ea048d233ef22", "is_reserved": 0, "lon": -77.05058866666667, "is_disabled": 0, "fusion_lat": 0.0, "lat": 38.92353683333333, "bike_id": "95a60fe876e5cb0ab18ea048d233ef22", "fusion_lon": 0.0}, {"rental_uris": {"ios": "https://dc.lft.to/lastmile_qr_scan", "android": "https://dc.lft.to/lastmile_qr_scan"}, "type": "electric_scooter", "name": "321ff9549322295a2c42fe767451457b", "is_reserved": 0, "lon": -77.03721066666667, "is_disabled": 0, "fusion_lat": 0.0, "lat": 38.926467, "bike_id": "321ff9549322295a2c42fe767451457b", "fusion_lon": 0.0}, {"rental_uris": {"ios": "https://dc.lft.to/lastmile_qr_scan", "android": "https://dc.lft.to/lastmile_qr_scan"}, "type": "electric_scooter", "name": "57ab4dec492e7de6028b1c06d4a9659c", "is_reserved": 0, "lon": -77.04006433333333, "is_disabled": 0, "fusion_lat": 0.0, "lat": 38.918128333333335, "bike_id": "57ab4dec492e7de6028b1c06d4a9659c", "fusion_lon": 0.0}, {"rental_uris": {"ios": "https://dc.lft.to/lastmile_qr_scan", "android": "https://dc.lft.to/lastmile_qr_scan"}, "type": "electric_scooter", "name": "74afcfa6d0561e49997d2182763fde50", "is_reserved": 0, "lon": -77.03328116666667, "is_disabled": 0, "fusion_lat": 0.0, "lat": 38.899638, "bike_id": "74afcfa6d0561e49997d2182763fde50", "fusion_lon": 0.0}, {"rental_uris": {"ios": "https://dc.lft.to/lastmile_qr_scan", "android": "https://dc.lft.to/lastmile_qr_scan"}, "type": "electric_scooter", "name": "4cb75240cac0198b4709466d813e3807", "is_reserved": 0, "lon": -77.00278033333333, "is_disabled": 0, "fusion_lat": 0.0, "lat": 38.877184, "bike_id": "4cb75240cac0198b4709466d813e3807", "fusion_lon": 0.0}, {"rental_uris": {"ios": "https://dc.lft.to/lastmile_qr_scan", "android": "https://dc.lft.to/lastmile_qr_scan"}, "type": "electric_scooter", "name": "e81a2ffcbbceef6f445d0cbc2c61ff41", "is_reserved": 0, "lon": -77.03953066666666, "is_disabled": 0, "fusion_lat": 0.0, "lat": 38.8982395, "bike_id": "e81a2ffcbbceef6f445d0cbc2c61ff41", "fusion_lon": 0.0}, {"rental_uris": {"ios": "https://dc.lft.to/lastmile_qr_scan", "android": "https://dc.lft.to/lastmile_qr_scan"}, "type": "electric_scooter", "name": "8e1630944b9878a6e8ea5cb6b6b2c20c", "is_reserved": 0, "lon": -77.00068716666667, "is_disabled": 0, "fusion_lat": 0.0, "lat": 38.8768675, "bike_id": "8e1630944b9878a6e8ea5cb6b6b2c20c", "fusion_lon": 0.0}, {"rental_uris": {"ios": "https://dc.lft.to/lastmile_qr_scan", "android": "https://dc.lft.to/lastmile_qr_scan"}, "type": "electric_scooter", "name": "b34ac132f647a3747003403281a5241f", "is_reserved": 0, "lon": -77.02609333333334, "is_disabled": 0, "fusion_lat": 0.0, "lat": 38.91691316666667, "bike_id": "b34ac132f647a3747003403281a5241f", "fusion_lon": 0.0}, {"rental_uris": {"ios": "https://dc.lft.to/lastmile_qr_scan", "android": "https://dc.lft.to/lastmile_qr_scan"}, "type": "electric_bike", "name": "8151c477108c10ed29004eccf48fb327", "is_reserved": 0, "lon": -77.00767633333334, "is_disabled": 0, "fusion_lat": 0.0, "lat": 38.9978145, "bike_id": "8151c477108c10ed29004eccf48fb327", "fusion_lon": 0.0}, {"rental_uris": {"ios": "https://dc.lft.to/lastmile_qr_scan", "android": "https://dc.lft.to/lastmile_qr_scan"}, "type": "electric_bike", "name": "0f82866895fe6a143403bed0c1dc2201", "is_reserved": 0, "lon": -76.94553683333334, "is_disabled": 0, "fusion_lat": 0.0, "lat": 38.982965666666665, "bike_id": "0f82866895fe6a143403bed0c1dc2201", "fusion_lon": 0.0}, {"rental_uris": {"ios": "https://dc.lft.to/lastmile_qr_scan", "android": "https://dc.lft.to/lastmile_qr_scan"}, "type": "electric_bike", "name": "edf9ef97043386b1a700ea8c05b42940", "is_reserved": 0, "lon": -76.95239466666666, "is_disabled": 0, "fusion_lat": 0.0, "lat": 38.88470066666667, "bike_id": "edf9ef97043386b1a700ea8c05b42940", "fusion_lon": 0.0}, {"rental_uris": {"ios": "https://dc.lft.to/lastmile_qr_scan", "android": "https://dc.lft.to/lastmile_qr_scan"}, "type": "electric_scooter", "name": "9a35d5c2361bc91de7a67c5f79e03639", "is_reserved": 0, "lon": -77.038834, "is_disabled": 0, "fusion_lat": 0.0, "lat": 38.92244066666667, "bike_id": "9a35d5c2361bc91de7a67c5f79e03639", "fusion_lon": 0.0}, {"rental_uris": {"ios": "https://dc.lft.to/lastmile_qr_scan", "android": "https://dc.lft.to/lastmile_qr_scan"}, "type": "electric_scooter", "name": "b97cbd548569d2b0b9edec7ceb8588de", "is_reserved": 0, "lon": -77.08405733333333, "is_disabled": 0, "fusion_lat": 0.0, "lat": 38.9079965, "bike_id": "b97cbd548569d2b0b9edec7ceb8588de", "fusion_lon": 0.0}, {"rental_uris": {"ios": "https://dc.lft.to/lastmile_qr_scan", "android": "https://dc.lft.to/lastmile_qr_scan"}, "type": "electric_scooter", "name": "92ab5184d2f2152199996ce124ebe29e", "is_reserved": 0, "lon": -77.028842, "is_disabled": 0, "fusion_lat": 0.0, "lat": 38.90313716666667, "bike_id": "92ab5184d2f2152199996ce124ebe29e", "fusion_lon": 0.0}, {"rental_uris": {"ios": "https://dc.lft.to/lastmile_qr_scan", "android": "https://dc.lft.to/lastmile_qr_scan"}, "type": "electric_scooter", "name": "80e1b4b51fca93e6a748eb4de1610c38", "is_reserved": 0, "lon": -77.04649883333333, "is_disabled": 0, "fusion_lat": 0.0, "lat": 38.89664066666667, "bike_id": "80e1b4b51fca93e6a748eb4de1610c38", "fusion_lon": 0.0}, {"rental_uris": {"ios": "https://dc.lft.to/lastmile_qr_scan", "android": "https://dc.lft.to/lastmile_qr_scan"}, "type": "electric_scooter", "name": "903e2f75e29a8961e63824292edb7111", "is_reserved": 0, "lon": -77.0268635, "is_disabled": 0, "fusion_lat": 0.0, "lat": 38.905290666666666, "bike_id": "903e2f75e29a8961e63824292edb7111", "fusion_lon": 0.0}, {"rental_uris": {"ios": "https://dc.lft.to/lastmile_qr_scan", "android": "https://dc.lft.to/lastmile_qr_scan"}, "type": "electric_scooter", "name": "35e356572a41e42439c496919644c755", "is_reserved": 0, "lon": -77.04633183333333, "is_disabled": 0, "fusion_lat": 0.0, "lat": 38.90675866666667, "bike_id": "35e356572a41e42439c496919644c755", "fusion_lon": 0.0}, {"rental_uris": {"ios": "https://dc.lft.to/lastmile_qr_scan", "android": "https://dc.lft.to/lastmile_qr_scan"}, "type": "electric_scooter", "name": "3e5822a5d48a2d2b49db8e072e4882f3", "is_reserved": 0, "lon": -77.0245765, "is_disabled": 0, "fusion_lat": 0.0, "lat": 38.957793, "bike_id": "3e5822a5d48a2d2b49db8e072e4882f3", "fusion_lon": 0.0}, {"rental_uris": {"ios": "https://dc.lft.to/lastmile_qr_scan", "android": "https://dc.lft.to/lastmile_qr_scan"}, "type": "electric_bike", "name": "7fd31c0c8cb9fd6ed73fba25f3f3d119", "is_reserved": 0, "lon": -77.02032233333334, "is_disabled": 0, "fusion_lat": 0.0, "lat": 38.965577333333336, "bike_id": "7fd31c0c8cb9fd6ed73fba25f3f3d119", "fusion_lon": 0.0}, {"rental_uris": {"ios": "https://dc.lft.to/lastmile_qr_scan", "android": "https://dc.lft.to/lastmile_qr_scan"}, "type": "electric_scooter", "name": "24d997535ea6fcd65e480f7aa3007819", "is_reserved": 0, "lon": -77.00571916666667, "is_disabled": 0, "fusion_lat": 0.0, "lat": 38.878943166666666, "bike_id": "24d997535ea6fcd65e480f7aa3007819", "fusion_lon": 0.0}, {"rental_uris": {"ios": "https://dc.lft.to/lastmile_qr_scan", "android": "https://dc.lft.to/lastmile_qr_scan"}, "type": "electric_bike", "name": "78db2c6fb706c53dc72af7734c061cdc", "is_reserved": 0, "lon": -76.98271716666666, "is_disabled": 0, "fusion_lat": 0.0, "lat": 38.846726, "bike_id": "78db2c6fb706c53dc72af7734c061cdc", "fusion_lon": 0.0}, {"rental_uris": {"ios": "https://dc.lft.to/lastmile_qr_scan", "android": "https://dc.lft.to/lastmile_qr_scan"}, "type": "electric_scooter", "name": "77105b8c863235b29d3ee64e2cd6613d", "is_reserved": 0, "lon": -77.037494, "is_disabled": 0, "fusion_lat": 0.0, "lat": 38.935960666666666, "bike_id": "77105b8c863235b29d3ee64e2cd6613d", "fusion_lon": 0.0}, {"rental_uris": {"ios": "https://dc.lft.to/lastmile_qr_scan", "android": "https://dc.lft.to/lastmile_qr_scan"}, "type": "electric_scooter", "name": "b72e65f1106731717a2d3fa4c89bd874", "is_reserved": 0, "lon": -77.014369, "is_disabled": 0, "fusion_lat": 0.0, "lat": 38.902553166666664, "bike_id": "b72e65f1106731717a2d3fa4c89bd874", "fusion_lon": 0.0}, {"rental_uris": {"ios": "https://dc.lft.to/lastmile_qr_scan", "android": "https://dc.lft.to/lastmile_qr_scan"}, "type": "electric_scooter", "name": "e4ca9f8f5b7422310b273db3ca3e3cca", "is_reserved": 0, "lon": -77.046026, "is_disabled": 0, "fusion_lat": 0.0, "lat": 38.92329983333333, "bike_id": "e4ca9f8f5b7422310b273db3ca3e3cca", "fusion_lon": 0.0}, {"rental_uris": {"ios": "https://dc.lft.to/lastmile_qr_scan", "android": "https://dc.lft.to/lastmile_qr_scan"}, "type": "electric_scooter", "name": "1b884b2432aa1dc9f0e14a46f3ae17db", "is_reserved": 0, "lon": -77.03268516666667, "is_disabled": 0, "fusion_lat": 0.0, "lat": 38.90450216666667, "bike_id": "1b884b2432aa1dc9f0e14a46f3ae17db", "fusion_lon": 0.0}, {"rental_uris": {"ios": "https://dc.lft.to/lastmile_qr_scan", "android": "https://dc.lft.to/lastmile_qr_scan"}, "type": "electric_scooter", "name": "a243b3034a8933580b630f8ed52226a8", "is_reserved": 0, "lon": -77.0660735, "is_disabled": 0, "fusion_lat": 0.0, "lat": 38.911087333333334, "bike_id": "a243b3034a8933580b630f8ed52226a8", "fusion_lon": 0.0}, {"rental_uris": {"ios": "https://dc.lft.to/lastmile_qr_scan", "android": "https://dc.lft.to/lastmile_qr_scan"}, "type": "electric_scooter", "name": "7b16a8c9b4060b72c6c5b39a4e78d194", "is_reserved": 0, "lon": -77.047539, "is_disabled": 0, "fusion_lat": 0.0, "lat": 38.89587566666667, "bike_id": "7b16a8c9b4060b72c6c5b39a4e78d194", "fusion_lon": 0.0}, {"rental_uris": {"ios": "https://dc.lft.to/lastmile_qr_scan", "android": "https://dc.lft.to/lastmile_qr_scan"}, "type": "electric_bike", "name": "1ef0e3e41b18fcf773628af7cb4b5d8d", "is_reserved": 0, "lon": -76.99923683333333, "is_disabled": 0, "fusion_lat": 0.0, "lat": 38.994688333333336, "bike_id": "1ef0e3e41b18fcf773628af7cb4b5d8d", "fusion_lon": 0.0}, {"rental_uris": {"ios": "https://dc.lft.to/lastmile_qr_scan", "android": "https://dc.lft.to/lastmile_qr_scan"}, "type": "electric_scooter", "name": "c94f8ce3687646433f324e94d2dc6c13", "is_reserved": 0, "lon": -77.05115133333334, "is_disabled": 0, "fusion_lat": 0.0, "lat": 38.92527333333334, "bike_id": "c94f8ce3687646433f324e94d2dc6c13", "fusion_lon": 0.0}, {"rental_uris": {"ios": "https://dc.lft.to/lastmile_qr_scan", "android": "https://dc.lft.to/lastmile_qr_scan"}, "type": "electric_scooter", "name": "24bb39ec4333615fa61850fdd3113427", "is_reserved": 0, "lon": -77.0466725, "is_disabled": 0, "fusion_lat": 0.0, "lat": 38.892771333333336, "bike_id": "24bb39ec4333615fa61850fdd3113427", "fusion_lon": 0.0}, {"rental_uris": {"ios": "https://dc.lft.to/lastmile_qr_scan", "android": "https://dc.lft.to/lastmile_qr_scan"}, "type": "electric_scooter", "name": "e83bc1c670cc10b1755bf13dc15ef70e", "is_reserved": 0, "lon": -77.068482, "is_disabled": 0, "fusion_lat": 0.0, "lat": 38.95288866666667, "bike_id": "e83bc1c670cc10b1755bf13dc15ef70e", "fusion_lon": 0.0}, {"rental_uris": {"ios": "https://dc.lft.to/lastmile_qr_scan", "android": "https://dc.lft.to/lastmile_qr_scan"}, "type": "electric_scooter", "name": "b2f2458be87b18fba45b4fd070606e08", "is_reserved": 0, "lon": -77.0175045, "is_disabled": 0, "fusion_lat": 0.0, "lat": 38.914145166666664, "bike_id": "b2f2458be87b18fba45b4fd070606e08", "fusion_lon": 0.0}, {"rental_uris": {"ios": "https://dc.lft.to/lastmile_qr_scan", "android": "https://dc.lft.to/lastmile_qr_scan"}, "type": "electric_scooter", "name": "5545576e852d3e893f78c4e89a47f2f6", "is_reserved": 0, "lon": -77.04170116666667, "is_disabled": 0, "fusion_lat": 0.0, "lat": 38.91098316666667, "bike_id": "5545576e852d3e893f78c4e89a47f2f6", "fusion_lon": 0.0}, {"rental_uris": {"ios": "https://dc.lft.to/lastmile_qr_scan", "android": "https://dc.lft.to/lastmile_qr_scan"}, "type": "electric_scooter", "name": "4d9f86de79e422795d01d56545c7a2e3", "is_reserved": 0, "lon": -76.99486883333333, "is_disabled": 0, "fusion_lat": 0.0, "lat": 38.899712666666666, "bike_id": "4d9f86de79e422795d01d56545c7a2e3", "fusion_lon": 0.0}, {"rental_uris": {"ios": "https://dc.lft.to/lastmile_qr_scan", "android": "https://dc.lft.to/lastmile_qr_scan"}, "type": "electric_scooter", "name": "6d4d159d62dcb9c76567b6d131b00711", "is_reserved": 0, "lon": -77.04473266666666, "is_disabled": 0, "fusion_lat": 0.0, "lat": 38.89222933333333, "bike_id": "6d4d159d62dcb9c76567b6d131b00711", "fusion_lon": 0.0}, {"rental_uris": {"ios": "https://dc.lft.to/lastmile_qr_scan", "android": "https://dc.lft.to/lastmile_qr_scan"}, "type": "electric_scooter", "name": "3ac519d1954eb6a586d8c15913d83128", "is_reserved": 0, "lon": -77.04339716666667, "is_disabled": 0, "fusion_lat": 0.0, "lat": 38.92163033333333, "bike_id": "3ac519d1954eb6a586d8c15913d83128", "fusion_lon": 0.0}, {"rental_uris": {"ios": "https://dc.lft.to/lastmile_qr_scan", "android": "https://dc.lft.to/lastmile_qr_scan"}, "type": "electric_scooter", "name": "ebf53903f83fd709a0f4cbc562aeb549", "is_reserved": 0, "lon": -77.0132645, "is_disabled": 0, "fusion_lat": 0.0, "lat": 38.92030366666667, "bike_id": "ebf53903f83fd709a0f4cbc562aeb549", "fusion_lon": 0.0}, {"rental_uris": {"ios": "https://dc.lft.to/lastmile_qr_scan", "android": "https://dc.lft.to/lastmile_qr_scan"}, "type": "electric_scooter", "name": "b441b7829a47f8de89da8b04c6a60cb6", "is_reserved": 0, "lon": -76.99104033333333, "is_disabled": 0, "fusion_lat": 0.0, "lat": 38.857306, "bike_id": "b441b7829a47f8de89da8b04c6a60cb6", "fusion_lon": 0.0}, {"rental_uris": {"ios": "https://dc.lft.to/lastmile_qr_scan", "android": "https://dc.lft.to/lastmile_qr_scan"}, "type": "electric_scooter", "name": "18e6cb72b980e2d2c456928b14968c66", "is_reserved": 0, "lon": -77.015525, "is_disabled": 0, "fusion_lat": 0.0, "lat": 38.902225333333334, "bike_id": "18e6cb72b980e2d2c456928b14968c66", "fusion_lon": 0.0}, {"rental_uris": {"ios": "https://dc.lft.to/lastmile_qr_scan", "android": "https://dc.lft.to/lastmile_qr_scan"}, "type": "electric_scooter", "name": "b398770f8e0a2728b4d0226c2e22c6b1", "is_reserved": 0, "lon": -77.07115583333334, "is_disabled": 0, "fusion_lat": 0.0, "lat": 38.90586, "bike_id": "b398770f8e0a2728b4d0226c2e22c6b1", "fusion_lon": 0.0}, {"rental_uris": {"ios": "https://dc.lft.to/lastmile_qr_scan", "android": "https://dc.lft.to/lastmile_qr_scan"}, "type": "electric_scooter", "name": "1fb3ba72a6d6f213d60a8fd7c095e4d7", "is_reserved": 0, "lon": -76.9947785, "is_disabled": 0, "fusion_lat": 0.0, "lat": 38.8621495, "bike_id": "1fb3ba72a6d6f213d60a8fd7c095e4d7", "fusion_lon": 0.0}, {"rental_uris": {"ios": "https://dc.lft.to/lastmile_qr_scan", "android": "https://dc.lft.to/lastmile_qr_scan"}, "type": "electric_scooter", "name": "9551d7ba548c1c7f536ef4eb4012ea23", "is_reserved": 0, "lon": -77.0450515, "is_disabled": 0, "fusion_lat": 0.0, "lat": 38.89226266666667, "bike_id": "9551d7ba548c1c7f536ef4eb4012ea23", "fusion_lon": 0.0}, {"rental_uris": {"ios": "https://dc.lft.to/lastmile_qr_scan", "android": "https://dc.lft.to/lastmile_qr_scan"}, "type": "electric_scooter", "name": "973de0bf72ee2007baa80a314cb91673", "is_reserved": 0, "lon": -77.03336666666667, "is_disabled": 0, "fusion_lat": 0.0, "lat": 38.914151, "bike_id": "973de0bf72ee2007baa80a314cb91673", "fusion_lon": 0.0}, {"rental_uris": {"ios": "https://dc.lft.to/lastmile_qr_scan", "android": "https://dc.lft.to/lastmile_qr_scan"}, "type": "electric_scooter", "name": "ea90707b29e03b75bbbbeff8fc43b78b", "is_reserved": 0, "lon": -76.98885133333333, "is_disabled": 0, "fusion_lat": 0.0, "lat": 38.89954433333333, "bike_id": "ea90707b29e03b75bbbbeff8fc43b78b", "fusion_lon": 0.0}, {"rental_uris": {"ios": "https://dc.lft.to/lastmile_qr_scan", "android": "https://dc.lft.to/lastmile_qr_scan"}, "type": "electric_scooter", "name": "47c8b5d55e6b0b7e34bde4f4627e3e1f", "is_reserved": 0, "lon": -77.04154083333333, "is_disabled": 0, "fusion_lat": 0.0, "lat": 38.901536666666665, "bike_id": "47c8b5d55e6b0b7e34bde4f4627e3e1f", "fusion_lon": 0.0}, {"rental_uris": {"ios": "https://dc.lft.to/lastmile_qr_scan", "android": "https://dc.lft.to/lastmile_qr_scan"}, "type": "electric_scooter", "name": "d24acaca103fb415e53a22c7feb33772", "is_reserved": 0, "lon": -77.02323433333333, "is_disabled": 0, "fusion_lat": 0.0, "lat": 38.9184605, "bike_id": "d24acaca103fb415e53a22c7feb33772", "fusion_lon": 0.0}, {"rental_uris": {"ios": "https://dc.lft.to/lastmile_qr_scan", "android": "https://dc.lft.to/lastmile_qr_scan"}, "type": "electric_scooter", "name": "6e53b1daf6c1d317d01504238c5ed235", "is_reserved": 0, "lon": -77.03476533333334, "is_disabled": 0, "fusion_lat": 0.0, "lat": 38.9253795, "bike_id": "6e53b1daf6c1d317d01504238c5ed235", "fusion_lon": 0.0}, {"rental_uris": {"ios": "https://dc.lft.to/lastmile_qr_scan", "android": "https://dc.lft.to/lastmile_qr_scan"}, "type": "electric_scooter", "name": "a4ebfdad55ff455c13cda05a9dc22fe4", "is_reserved": 0, "lon": -77.0218415, "is_disabled": 0, "fusion_lat": 0.0, "lat": 38.91122816666667, "bike_id": "a4ebfdad55ff455c13cda05a9dc22fe4", "fusion_lon": 0.0}, {"rental_uris": {"ios": "https://dc.lft.to/lastmile_qr_scan", "android": "https://dc.lft.to/lastmile_qr_scan"}, "type": "electric_scooter", "name": "6abec24edbe83c3037a9ba5aa7b7b63a", "is_reserved": 0, "lon": -77.02647616666667, "is_disabled": 0, "fusion_lat": 0.0, "lat": 38.91913783333333, "bike_id": "6abec24edbe83c3037a9ba5aa7b7b63a", "fusion_lon": 0.0}, {"rental_uris": {"ios": "https://dc.lft.to/lastmile_qr_scan", "android": "https://dc.lft.to/lastmile_qr_scan"}, "type": "electric_scooter", "name": "41562d36a3f18896d282c5281999706d", "is_reserved": 0, "lon": -76.99037283333334, "is_disabled": 0, "fusion_lat": 0.0, "lat": 38.8887995, "bike_id": "41562d36a3f18896d282c5281999706d", "fusion_lon": 0.0}, {"rental_uris": {"ios": "https://dc.lft.to/lastmile_qr_scan", "android": "https://dc.lft.to/lastmile_qr_scan"}, "type": "electric_scooter", "name": "393510c708f36401af4ab35180d0c36c", "is_reserved": 0, "lon": -77.01705516666667, "is_disabled": 0, "fusion_lat": 0.0, "lat": 38.913818, "bike_id": "393510c708f36401af4ab35180d0c36c", "fusion_lon": 0.0}, {"rental_uris": {"ios": "https://dc.lft.to/lastmile_qr_scan", "android": "https://dc.lft.to/lastmile_qr_scan"}, "type": "electric_scooter", "name": "437f3c7ec027cd7f1ba6e44d3541eada", "is_reserved": 0, "lon": -77.036417, "is_disabled": 0, "fusion_lat": 0.0, "lat": 38.91615933333333, "bike_id": "437f3c7ec027cd7f1ba6e44d3541eada", "fusion_lon": 0.0}, {"rental_uris": {"ios": "https://dc.lft.to/lastmile_qr_scan", "android": "https://dc.lft.to/lastmile_qr_scan"}, "type": "electric_bike", "name": "414439c9ce51e233fa990a4e7c857ba2", "is_reserved": 0, "lon": -76.91724366666666, "is_disabled": 0, "fusion_lat": 0.0, "lat": 38.880254666666666, "bike_id": "414439c9ce51e233fa990a4e7c857ba2", "fusion_lon": 0.0}, {"rental_uris": {"ios": "https://dc.lft.to/lastmile_qr_scan", "android": "https://dc.lft.to/lastmile_qr_scan"}, "type": "electric_scooter", "name": "bb3391e143b1d625f116a5095bdbca5f", "is_reserved": 0, "lon": -77.04739866666667, "is_disabled": 0, "fusion_lat": 0.0, "lat": 38.91767, "bike_id": "bb3391e143b1d625f116a5095bdbca5f", "fusion_lon": 0.0}, {"rental_uris": {"ios": "https://dc.lft.to/lastmile_qr_scan", "android": "https://dc.lft.to/lastmile_qr_scan"}, "type": "electric_scooter", "name": "0806fd43adbe7328932426103f94a73e", "is_reserved": 0, "lon": -77.01886716666667, "is_disabled": 0, "fusion_lat": 0.0, "lat": 38.9023825, "bike_id": "0806fd43adbe7328932426103f94a73e", "fusion_lon": 0.0}, {"rental_uris": {"ios": "https://dc.lft.to/lastmile_qr_scan", "android": "https://dc.lft.to/lastmile_qr_scan"}, "type": "electric_scooter", "name": "03f4e46fe00a6174fb98beb89bcbc783", "is_reserved": 0, "lon": -77.06676766666666, "is_disabled": 0, "fusion_lat": 0.0, "lat": 38.90360283333333, "bike_id": "03f4e46fe00a6174fb98beb89bcbc783", "fusion_lon": 0.0}, {"rental_uris": {"ios": "https://dc.lft.to/lastmile_qr_scan", "android": "https://dc.lft.to/lastmile_qr_scan"}, "type": "electric_scooter", "name": "ded4ae8f665f8a5dae58d43cb8f49c08", "is_reserved": 0, "lon": -77.00050116666667, "is_disabled": 0, "fusion_lat": 0.0, "lat": 38.879236166666665, "bike_id": "ded4ae8f665f8a5dae58d43cb8f49c08", "fusion_lon": 0.0}, {"rental_uris": {"ios": "https://dc.lft.to/lastmile_qr_scan", "android": "https://dc.lft.to/lastmile_qr_scan"}, "type": "electric_scooter", "name": "909d995e58d1c937fe1678683bee0214", "is_reserved": 0, "lon": -77.02634866666666, "is_disabled": 0, "fusion_lat": 0.0, "lat": 38.924761833333335, "bike_id": "909d995e58d1c937fe1678683bee0214", "fusion_lon": 0.0}, {"rental_uris": {"ios": "https://dc.lft.to/lastmile_qr_scan", "android": "https://dc.lft.to/lastmile_qr_scan"}, "type": "electric_scooter", "name": "1fe23e9c3cf1efc461ea41f608b95416", "is_reserved": 0, "lon": -77.02707833333334, "is_disabled": 0, "fusion_lat": 0.0, "lat": 38.91765433333333, "bike_id": "1fe23e9c3cf1efc461ea41f608b95416", "fusion_lon": 0.0}, {"rental_uris": {"ios": "https://dc.lft.to/lastmile_qr_scan", "android": "https://dc.lft.to/lastmile_qr_scan"}, "type": "electric_bike", "name": "74b44b8e85a8348fe7d1ff6995830bd8", "is_reserved": 0, "lon": -76.91798083333333, "is_disabled": 0, "fusion_lat": 0.0, "lat": 39.00005866666667, "bike_id": "74b44b8e85a8348fe7d1ff6995830bd8", "fusion_lon": 0.0}, {"rental_uris": {"ios": "https://dc.lft.to/lastmile_qr_scan", "android": "https://dc.lft.to/lastmile_qr_scan"}, "type": "electric_scooter", "name": "2c0772a0d25acf2b33daf7b22693da53", "is_reserved": 0, "lon": -77.04366, "is_disabled": 0, "fusion_lat": 0.0, "lat": 38.922437, "bike_id": "2c0772a0d25acf2b33daf7b22693da53", "fusion_lon": 0.0}, {"rental_uris": {"ios": "https://dc.lft.to/lastmile_qr_scan", "android": "https://dc.lft.to/lastmile_qr_scan"}, "type": "electric_scooter", "name": "af28a79f4c9be7aadd6f541ae832f26c", "is_reserved": 0, "lon": -77.03164833333334, "is_disabled": 0, "fusion_lat": 0.0, "lat": 38.91332516666667, "bike_id": "af28a79f4c9be7aadd6f541ae832f26c", "fusion_lon": 0.0}, {"rental_uris": {"ios": "https://dc.lft.to/lastmile_qr_scan", "android": "https://dc.lft.to/lastmile_qr_scan"}, "type": "electric_scooter", "name": "66531750ab4c6bbbe9526776be18a6e4", "is_reserved": 0, "lon": -77.041766, "is_disabled": 0, "fusion_lat": 0.0, "lat": 38.91189633333333, "bike_id": "66531750ab4c6bbbe9526776be18a6e4", "fusion_lon": 0.0}, {"rental_uris": {"ios": "https://dc.lft.to/lastmile_qr_scan", "android": "https://dc.lft.to/lastmile_qr_scan"}, "type": "electric_scooter", "name": "a5c706fab26e8e3560fc8421ef25b7f1", "is_reserved": 0, "lon": -77.03849783333334, "is_disabled": 0, "fusion_lat": 0.0, "lat": 38.926393166666664, "bike_id": "a5c706fab26e8e3560fc8421ef25b7f1", "fusion_lon": 0.0}, {"rental_uris": {"ios": "https://dc.lft.to/lastmile_qr_scan", "android": "https://dc.lft.to/lastmile_qr_scan"}, "type": "electric_scooter", "name": "337160b0344dff97a0401c781a301554", "is_reserved": 0, "lon": -77.01785383333333, "is_disabled": 0, "fusion_lat": 0.0, "lat": 38.88606566666667, "bike_id": "337160b0344dff97a0401c781a301554", "fusion_lon": 0.0}, {"rental_uris": {"ios": "https://dc.lft.to/lastmile_qr_scan", "android": "https://dc.lft.to/lastmile_qr_scan"}, "type": "electric_scooter", "name": "e7707bcd26bd2026d1d454e97872491c", "is_reserved": 0, "lon": -77.0062725, "is_disabled": 0, "fusion_lat": 0.0, "lat": 38.87171266666667, "bike_id": "e7707bcd26bd2026d1d454e97872491c", "fusion_lon": 0.0}, {"rental_uris": {"ios": "https://dc.lft.to/lastmile_qr_scan", "android": "https://dc.lft.to/lastmile_qr_scan"}, "type": "electric_scooter", "name": "c9ab23ed0f0fc4be90ac3b4e9004e838", "is_reserved": 0, "lon": -77.02692, "is_disabled": 0, "fusion_lat": 0.0, "lat": 38.908371833333334, "bike_id": "c9ab23ed0f0fc4be90ac3b4e9004e838", "fusion_lon": 0.0}, {"rental_uris": {"ios": "https://dc.lft.to/lastmile_qr_scan", "android": "https://dc.lft.to/lastmile_qr_scan"}, "type": "electric_bike", "name": "49808653b3d2fd4c3957e50fe7ded477", "is_reserved": 0, "lon": -77.13231333333333, "is_disabled": 0, "fusion_lat": 0.0, "lat": 38.80448416666667, "bike_id": "49808653b3d2fd4c3957e50fe7ded477", "fusion_lon": 0.0}, {"rental_uris": {"ios": "https://dc.lft.to/lastmile_qr_scan", "android": "https://dc.lft.to/lastmile_qr_scan"}, "type": "electric_bike", "name": "c5ad7fbd8c40c4c2964b2b4fe670393a", "is_reserved": 0, "lon": -76.98344416666667, "is_disabled": 0, "fusion_lat": 0.0, "lat": 38.8625935, "bike_id": "c5ad7fbd8c40c4c2964b2b4fe670393a", "fusion_lon": 0.0}, {"rental_uris": {"ios": "https://dc.lft.to/lastmile_qr_scan", "android": "https://dc.lft.to/lastmile_qr_scan"}, "type": "electric_scooter", "name": "56535d59f0638b2bf7721f17d9ab578f", "is_reserved": 0, "lon": -76.98355933333333, "is_disabled": 0, "fusion_lat": 0.0, "lat": 38.88742166666667, "bike_id": "56535d59f0638b2bf7721f17d9ab578f", "fusion_lon": 0.0}, {"rental_uris": {"ios": "https://dc.lft.to/lastmile_qr_scan", "android": "https://dc.lft.to/lastmile_qr_scan"}, "type": "electric_scooter", "name": "a0d00d5d3da5364ad8228ab4e0ed5dc5", "is_reserved": 0, "lon": -77.05271433333333, "is_disabled": 0, "fusion_lat": 0.0, "lat": 38.92421733333333, "bike_id": "a0d00d5d3da5364ad8228ab4e0ed5dc5", "fusion_lon": 0.0}, {"rental_uris": {"ios": "https://dc.lft.to/lastmile_qr_scan", "android": "https://dc.lft.to/lastmile_qr_scan"}, "type": "electric_scooter", "name": "02c507e342d50306fcd8f870b0c6722e", "is_reserved": 0, "lon": -77.01616583333333, "is_disabled": 0, "fusion_lat": 0.0, "lat": 38.8815155, "bike_id": "02c507e342d50306fcd8f870b0c6722e", "fusion_lon": 0.0}, {"rental_uris": {"ios": "https://dc.lft.to/lastmile_qr_scan", "android": "https://dc.lft.to/lastmile_qr_scan"}, "type": "electric_scooter", "name": "a2c816c6fdff0f6a39ac993929ac162a", "is_reserved": 0, "lon": -77.02130616666666, "is_disabled": 0, "fusion_lat": 0.0, "lat": 38.9269545, "bike_id": "a2c816c6fdff0f6a39ac993929ac162a", "fusion_lon": 0.0}, {"rental_uris": {"ios": "https://dc.lft.to/lastmile_qr_scan", "android": "https://dc.lft.to/lastmile_qr_scan"}, "type": "electric_scooter", "name": "f31d7a14a7b20adc580892a06c826bcb", "is_reserved": 0, "lon": -77.02328116666666, "is_disabled": 0, "fusion_lat": 0.0, "lat": 38.9229485, "bike_id": "f31d7a14a7b20adc580892a06c826bcb", "fusion_lon": 0.0}, {"rental_uris": {"ios": "https://dc.lft.to/lastmile_qr_scan", "android": "https://dc.lft.to/lastmile_qr_scan"}, "type": "electric_scooter", "name": "ecc12c8090468b665a6a9f9f39c95339", "is_reserved": 0, "lon": -77.02715033333334, "is_disabled": 0, "fusion_lat": 0.0, "lat": 38.918169166666665, "bike_id": "ecc12c8090468b665a6a9f9f39c95339", "fusion_lon": 0.0}, {"rental_uris": {"ios": "https://dc.lft.to/lastmile_qr_scan", "android": "https://dc.lft.to/lastmile_qr_scan"}, "type": "electric_scooter", "name": "7c19f9b8308e84ff66d5780d534a0e50", "is_reserved": 0, "lon": -77.065544, "is_disabled": 0, "fusion_lat": 0.0, "lat": 38.911710166666666, "bike_id": "7c19f9b8308e84ff66d5780d534a0e50", "fusion_lon": 0.0}, {"rental_uris": {"ios": "https://dc.lft.to/lastmile_qr_scan", "android": "https://dc.lft.to/lastmile_qr_scan"}, "type": "electric_scooter", "name": "4e59729d2ad906f33aca5a878787d13e", "is_reserved": 0, "lon": -76.98260483333334, "is_disabled": 0, "fusion_lat": 0.0, "lat": 38.86630483333333, "bike_id": "4e59729d2ad906f33aca5a878787d13e", "fusion_lon": 0.0}, {"rental_uris": {"ios": "https://dc.lft.to/lastmile_qr_scan", "android": "https://dc.lft.to/lastmile_qr_scan"}, "type": "electric_scooter", "name": "37cf28df9642f85c89afff2b9c0bc615", "is_reserved": 0, "lon": -77.03452883333334, "is_disabled": 0, "fusion_lat": 0.0, "lat": 38.93748133333333, "bike_id": "37cf28df9642f85c89afff2b9c0bc615", "fusion_lon": 0.0}, {"rental_uris": {"ios": "https://dc.lft.to/lastmile_qr_scan", "android": "https://dc.lft.to/lastmile_qr_scan"}, "type": "electric_scooter", "name": "59614152e2895bba4b104ba97445a66d", "is_reserved": 0, "lon": -77.03257266666667, "is_disabled": 0, "fusion_lat": 0.0, "lat": 38.91184166666667, "bike_id": "59614152e2895bba4b104ba97445a66d", "fusion_lon": 0.0}, {"rental_uris": {"ios": "https://dc.lft.to/lastmile_qr_scan", "android": "https://dc.lft.to/lastmile_qr_scan"}, "type": "electric_scooter", "name": "0c2112690d305aea113bff19bca526d8", "is_reserved": 0, "lon": -77.0680585, "is_disabled": 0, "fusion_lat": 0.0, "lat": 38.90510066666667, "bike_id": "0c2112690d305aea113bff19bca526d8", "fusion_lon": 0.0}, {"rental_uris": {"ios": "https://dc.lft.to/lastmile_qr_scan", "android": "https://dc.lft.to/lastmile_qr_scan"}, "type": "electric_scooter", "name": "e9019ecc272cc43e7c80efbeacf55f9e", "is_reserved": 0, "lon": -76.990373, "is_disabled": 0, "fusion_lat": 0.0, "lat": 38.88872383333333, "bike_id": "e9019ecc272cc43e7c80efbeacf55f9e", "fusion_lon": 0.0}, {"rental_uris": {"ios": "https://dc.lft.to/lastmile_qr_scan", "android": "https://dc.lft.to/lastmile_qr_scan"}, "type": "electric_scooter", "name": "99f2fd71db0391f5981123b81be35b8b", "is_reserved": 0, "lon": -77.07198366666667, "is_disabled": 0, "fusion_lat": 0.0, "lat": 38.912597833333336, "bike_id": "99f2fd71db0391f5981123b81be35b8b", "fusion_lon": 0.0}, {"rental_uris": {"ios": "https://dc.lft.to/lastmile_qr_scan", "android": "https://dc.lft.to/lastmile_qr_scan"}, "type": "electric_scooter", "name": "e4b3facc3ec71641d4c24e97cc68177d", "is_reserved": 0, "lon": -77.04674983333334, "is_disabled": 0, "fusion_lat": 0.0, "lat": 38.9072295, "bike_id": "e4b3facc3ec71641d4c24e97cc68177d", "fusion_lon": 0.0}, {"rental_uris": {"ios": "https://dc.lft.to/lastmile_qr_scan", "android": "https://dc.lft.to/lastmile_qr_scan"}, "type": "electric_scooter", "name": "5e06353468431180a67c5be9439d43ae", "is_reserved": 0, "lon": -77.023441, "is_disabled": 0, "fusion_lat": 0.0, "lat": 38.8813185, "bike_id": "5e06353468431180a67c5be9439d43ae", "fusion_lon": 0.0}, {"rental_uris": {"ios": "https://dc.lft.to/lastmile_qr_scan", "android": "https://dc.lft.to/lastmile_qr_scan"}, "type": "electric_scooter", "name": "38ab8a9b6be82232e791cda858025143", "is_reserved": 0, "lon": -77.04123716666666, "is_disabled": 0, "fusion_lat": 0.0, "lat": 38.921162333333335, "bike_id": "38ab8a9b6be82232e791cda858025143", "fusion_lon": 0.0}, {"rental_uris": {"ios": "https://dc.lft.to/lastmile_qr_scan", "android": "https://dc.lft.to/lastmile_qr_scan"}, "type": "electric_scooter", "name": "3a6946037e0ccf7584d265022ed63207", "is_reserved": 0, "lon": -77.00407166666666, "is_disabled": 0, "fusion_lat": 0.0, "lat": 38.87466383333334, "bike_id": "3a6946037e0ccf7584d265022ed63207", "fusion_lon": 0.0}, {"rental_uris": {"ios": "https://dc.lft.to/lastmile_qr_scan", "android": "https://dc.lft.to/lastmile_qr_scan"}, "type": "electric_scooter", "name": "2af05cb5ea1429842441df06ae77c9f4", "is_reserved": 0, "lon": -77.01635666666667, "is_disabled": 0, "fusion_lat": 0.0, "lat": 38.915838, "bike_id": "2af05cb5ea1429842441df06ae77c9f4", "fusion_lon": 0.0}, {"rental_uris": {"ios": "https://dc.lft.to/lastmile_qr_scan", "android": "https://dc.lft.to/lastmile_qr_scan"}, "type": "electric_scooter", "name": "3d8e98b789413c9279110234509ed667", "is_reserved": 0, "lon": -77.00485116666667, "is_disabled": 0, "fusion_lat": 0.0, "lat": 38.874579, "bike_id": "3d8e98b789413c9279110234509ed667", "fusion_lon": 0.0}, {"rental_uris": {"ios": "https://dc.lft.to/lastmile_qr_scan", "android": "https://dc.lft.to/lastmile_qr_scan"}, "type": "electric_scooter", "name": "eae567541c22b4f4be076038863079b2", "is_reserved": 0, "lon": -77.04631133333334, "is_disabled": 0, "fusion_lat": 0.0, "lat": 38.90096233333333, "bike_id": "eae567541c22b4f4be076038863079b2", "fusion_lon": 0.0}, {"rental_uris": {"ios": "https://dc.lft.to/lastmile_qr_scan", "android": "https://dc.lft.to/lastmile_qr_scan"}, "type": "electric_scooter", "name": "07c4cb1d0576b81c71ef46ab4081da23", "is_reserved": 0, "lon": -77.008396, "is_disabled": 0, "fusion_lat": 0.0, "lat": 38.91253666666667, "bike_id": "07c4cb1d0576b81c71ef46ab4081da23", "fusion_lon": 0.0}, {"rental_uris": {"ios": "https://dc.lft.to/lastmile_qr_scan", "android": "https://dc.lft.to/lastmile_qr_scan"}, "type": "electric_scooter", "name": "29aa8400ced7a1dee148e141a8132b88", "is_reserved": 0, "lon": -77.03872216666667, "is_disabled": 0, "fusion_lat": 0.0, "lat": 38.912606, "bike_id": "29aa8400ced7a1dee148e141a8132b88", "fusion_lon": 0.0}, {"rental_uris": {"ios": "https://dc.lft.to/lastmile_qr_scan", "android": "https://dc.lft.to/lastmile_qr_scan"}, "type": "electric_scooter", "name": "2a99c5c048e74fc329b50a7a51d4c840", "is_reserved": 0, "lon": -77.02776016666667, "is_disabled": 0, "fusion_lat": 0.0, "lat": 38.887447, "bike_id": "2a99c5c048e74fc329b50a7a51d4c840", "fusion_lon": 0.0}, {"rental_uris": {"ios": "https://dc.lft.to/lastmile_qr_scan", "android": "https://dc.lft.to/lastmile_qr_scan"}, "type": "electric_scooter", "name": "7f7dba7763d40fad28ef5db308896f35", "is_reserved": 0, "lon": -77.02503416666667, "is_disabled": 0, "fusion_lat": 0.0, "lat": 38.940363833333336, "bike_id": "7f7dba7763d40fad28ef5db308896f35", "fusion_lon": 0.0}, {"rental_uris": {"ios": "https://dc.lft.to/lastmile_qr_scan", "android": "https://dc.lft.to/lastmile_qr_scan"}, "type": "electric_scooter", "name": "fc145b8bdfcf9f7a5bfeac689be7332e", "is_reserved": 0, "lon": -77.0059225, "is_disabled": 0, "fusion_lat": 0.0, "lat": 38.90037516666666, "bike_id": "fc145b8bdfcf9f7a5bfeac689be7332e", "fusion_lon": 0.0}, {"rental_uris": {"ios": "https://dc.lft.to/lastmile_qr_scan", "android": "https://dc.lft.to/lastmile_qr_scan"}, "type": "electric_scooter", "name": "1b0428633d9783b5154976481844f22e", "is_reserved": 0, "lon": -77.06148066666667, "is_disabled": 0, "fusion_lat": 0.0, "lat": 38.912948166666666, "bike_id": "1b0428633d9783b5154976481844f22e", "fusion_lon": 0.0}, {"rental_uris": {"ios": "https://dc.lft.to/lastmile_qr_scan", "android": "https://dc.lft.to/lastmile_qr_scan"}, "type": "electric_scooter", "name": "16cd6493b9bc26f4c5d076e11c62b090", "is_reserved": 0, "lon": -77.038592, "is_disabled": 0, "fusion_lat": 0.0, "lat": 38.9155455, "bike_id": "16cd6493b9bc26f4c5d076e11c62b090", "fusion_lon": 0.0}, {"rental_uris": {"ios": "https://dc.lft.to/lastmile_qr_scan", "android": "https://dc.lft.to/lastmile_qr_scan"}, "type": "electric_scooter", "name": "a3d5bd45fd0bc2fe977e6e883e2bf4aa", "is_reserved": 0, "lon": -77.01610166666667, "is_disabled": 0, "fusion_lat": 0.0, "lat": 38.906072, "bike_id": "a3d5bd45fd0bc2fe977e6e883e2bf4aa", "fusion_lon": 0.0}, {"rental_uris": {"ios": "https://dc.lft.to/lastmile_qr_scan", "android": "https://dc.lft.to/lastmile_qr_scan"}, "type": "electric_scooter", "name": "871188574af08ae3f328bc578dab2ad1", "is_reserved": 0, "lon": -77.03449066666667, "is_disabled": 0, "fusion_lat": 0.0, "lat": 38.907328666666665, "bike_id": "871188574af08ae3f328bc578dab2ad1", "fusion_lon": 0.0}, {"rental_uris": {"ios": "https://dc.lft.to/lastmile_qr_scan", "android": "https://dc.lft.to/lastmile_qr_scan"}, "type": "electric_scooter", "name": "687877de1a33fad082733e668a684e15", "is_reserved": 0, "lon": -77.01588833333334, "is_disabled": 0, "fusion_lat": 0.0, "lat": 38.91646016666667, "bike_id": "687877de1a33fad082733e668a684e15", "fusion_lon": 0.0}, {"rental_uris": {"ios": "https://dc.lft.to/lastmile_qr_scan", "android": "https://dc.lft.to/lastmile_qr_scan"}, "type": "electric_scooter", "name": "841452d9bc9e882b70fd9cab7ca8f8f4", "is_reserved": 0, "lon": -77.034785, "is_disabled": 0, "fusion_lat": 0.0, "lat": 38.9097615, "bike_id": "841452d9bc9e882b70fd9cab7ca8f8f4", "fusion_lon": 0.0}, {"rental_uris": {"ios": "https://dc.lft.to/lastmile_qr_scan", "android": "https://dc.lft.to/lastmile_qr_scan"}, "type": "electric_scooter", "name": "003c915e4adb5c02de6a6c91461075fc", "is_reserved": 0, "lon": -76.99475566666666, "is_disabled": 0, "fusion_lat": 0.0, "lat": 38.862127, "bike_id": "003c915e4adb5c02de6a6c91461075fc", "fusion_lon": 0.0}, {"rental_uris": {"ios": "https://dc.lft.to/lastmile_qr_scan", "android": "https://dc.lft.to/lastmile_qr_scan"}, "type": "electric_scooter", "name": "6285b9cdaacce909f597bbf8d70fb4ea", "is_reserved": 0, "lon": -76.98995383333333, "is_disabled": 0, "fusion_lat": 0.0, "lat": 38.864224166666666, "bike_id": "6285b9cdaacce909f597bbf8d70fb4ea", "fusion_lon": 0.0}, {"rental_uris": {"ios": "https://dc.lft.to/lastmile_qr_scan", "android": "https://dc.lft.to/lastmile_qr_scan"}, "type": "electric_scooter", "name": "8f37db524c5b1a69f00faccf39e3c2c9", "is_reserved": 0, "lon": -76.99213983333334, "is_disabled": 0, "fusion_lat": 0.0, "lat": 38.88968366666667, "bike_id": "8f37db524c5b1a69f00faccf39e3c2c9", "fusion_lon": 0.0}, {"rental_uris": {"ios": "https://dc.lft.to/lastmile_qr_scan", "android": "https://dc.lft.to/lastmile_qr_scan"}, "type": "electric_scooter", "name": "1a5868d41c0f088bc4a7b62eb56edfde", "is_reserved": 0, "lon": -77.0175975, "is_disabled": 0, "fusion_lat": 0.0, "lat": 38.88016416666667, "bike_id": "1a5868d41c0f088bc4a7b62eb56edfde", "fusion_lon": 0.0}, {"rental_uris": {"ios": "https://dc.lft.to/lastmile_qr_scan", "android": "https://dc.lft.to/lastmile_qr_scan"}, "type": "electric_scooter", "name": "db944de579341e6502362a6ef69cab9f", "is_reserved": 0, "lon": -76.99956066666667, "is_disabled": 0, "fusion_lat": 0.0, "lat": 38.8919775, "bike_id": "db944de579341e6502362a6ef69cab9f", "fusion_lon": 0.0}, {"rental_uris": {"ios": "https://dc.lft.to/lastmile_qr_scan", "android": "https://dc.lft.to/lastmile_qr_scan"}, "type": "electric_scooter", "name": "648138892e8530b6131c6001e6339464", "is_reserved": 0, "lon": -77.0258025, "is_disabled": 0, "fusion_lat": 0.0, "lat": 38.8871955, "bike_id": "648138892e8530b6131c6001e6339464", "fusion_lon": 0.0}, {"rental_uris": {"ios": "https://dc.lft.to/lastmile_qr_scan", "android": "https://dc.lft.to/lastmile_qr_scan"}, "type": "electric_scooter", "name": "d899e19da52b3257c5526cfd9bd932df", "is_reserved": 0, "lon": -77.0176905, "is_disabled": 0, "fusion_lat": 0.0, "lat": 38.920432, "bike_id": "d899e19da52b3257c5526cfd9bd932df", "fusion_lon": 0.0}, {"rental_uris": {"ios": "https://dc.lft.to/lastmile_qr_scan", "android": "https://dc.lft.to/lastmile_qr_scan"}, "type": "electric_scooter", "name": "970eebc9e9b188a9af5e28891468c7a6", "is_reserved": 0, "lon": -77.04123066666666, "is_disabled": 0, "fusion_lat": 0.0, "lat": 38.92872716666667, "bike_id": "970eebc9e9b188a9af5e28891468c7a6", "fusion_lon": 0.0}, {"rental_uris": {"ios": "https://dc.lft.to/lastmile_qr_scan", "android": "https://dc.lft.to/lastmile_qr_scan"}, "type": "electric_scooter", "name": "4d87c68a1b27026831c5c9b46be7efa1", "is_reserved": 0, "lon": -77.05505766666667, "is_disabled": 0, "fusion_lat": 0.0, "lat": 38.9283345, "bike_id": "4d87c68a1b27026831c5c9b46be7efa1", "fusion_lon": 0.0}, {"rental_uris": {"ios": "https://dc.lft.to/lastmile_qr_scan", "android": "https://dc.lft.to/lastmile_qr_scan"}, "type": "electric_scooter", "name": "ef3b3a5075754f29b4051a61be67fd14", "is_reserved": 0, "lon": -77.0469985, "is_disabled": 0, "fusion_lat": 0.0, "lat": 38.92061616666667, "bike_id": "ef3b3a5075754f29b4051a61be67fd14", "fusion_lon": 0.0}, {"rental_uris": {"ios": "https://dc.lft.to/lastmile_qr_scan", "android": "https://dc.lft.to/lastmile_qr_scan"}, "type": "electric_scooter", "name": "e01ec22fc5d19c4f0c3bf6bcfa162827", "is_reserved": 0, "lon": -77.0333775, "is_disabled": 0, "fusion_lat": 0.0, "lat": 38.915531, "bike_id": "e01ec22fc5d19c4f0c3bf6bcfa162827", "fusion_lon": 0.0}, {"rental_uris": {"ios": "https://dc.lft.to/lastmile_qr_scan", "android": "https://dc.lft.to/lastmile_qr_scan"}, "type": "electric_scooter", "name": "1dbc4ac1a2dcef8d912590a1a78ca6e5", "is_reserved": 0, "lon": -77.02833633333333, "is_disabled": 0, "fusion_lat": 0.0, "lat": 38.932379, "bike_id": "1dbc4ac1a2dcef8d912590a1a78ca6e5", "fusion_lon": 0.0}, {"rental_uris": {"ios": "https://dc.lft.to/lastmile_qr_scan", "android": "https://dc.lft.to/lastmile_qr_scan"}, "type": "electric_scooter", "name": "1678c1dff59b5e9c57668cdbf414b6d7", "is_reserved": 0, "lon": -77.0724785, "is_disabled": 0, "fusion_lat": 0.0, "lat": 38.934406333333335, "bike_id": "1678c1dff59b5e9c57668cdbf414b6d7", "fusion_lon": 0.0}, {"rental_uris": {"ios": "https://dc.lft.to/lastmile_qr_scan", "android": "https://dc.lft.to/lastmile_qr_scan"}, "type": "electric_scooter", "name": "511fa701bd6fbb40c98048b2df33cbdc", "is_reserved": 0, "lon": -77.04370533333334, "is_disabled": 0, "fusion_lat": 0.0, "lat": 38.892239833333335, "bike_id": "511fa701bd6fbb40c98048b2df33cbdc", "fusion_lon": 0.0}, {"rental_uris": {"ios": "https://dc.lft.to/lastmile_qr_scan", "android": "https://dc.lft.to/lastmile_qr_scan"}, "type": "electric_scooter", "name": "2f12ba6b1d5a3e92d46bc2bf166cc0f0", "is_reserved": 0, "lon": -77.05063683333333, "is_disabled": 0, "fusion_lat": 0.0, "lat": 38.923582833333334, "bike_id": "2f12ba6b1d5a3e92d46bc2bf166cc0f0", "fusion_lon": 0.0}, {"rental_uris": {"ios": "https://dc.lft.to/lastmile_qr_scan", "android": "https://dc.lft.to/lastmile_qr_scan"}, "type": "electric_scooter", "name": "0fcda32a17751a8976eea0869beb9860", "is_reserved": 0, "lon": -77.07163483333333, "is_disabled": 0, "fusion_lat": 0.0, "lat": 38.907766, "bike_id": "0fcda32a17751a8976eea0869beb9860", "fusion_lon": 0.0}, {"rental_uris": {"ios": "https://dc.lft.to/lastmile_qr_scan", "android": "https://dc.lft.to/lastmile_qr_scan"}, "type": "electric_scooter", "name": "1f7ae34fdb8303fcb0d1c7fb457df151", "is_reserved": 0, "lon": -77.05915883333333, "is_disabled": 0, "fusion_lat": 0.0, "lat": 38.902693666666664, "bike_id": "1f7ae34fdb8303fcb0d1c7fb457df151", "fusion_lon": 0.0}, {"rental_uris": {"ios": "https://dc.lft.to/lastmile_qr_scan", "android": "https://dc.lft.to/lastmile_qr_scan"}, "type": "electric_bike", "name": "6300543e78b50ddda22a886e5ec6a043", "is_reserved": 0, "lon": -77.12654633333334, "is_disabled": 0, "fusion_lat": 0.0, "lat": 38.819089166666664, "bike_id": "6300543e78b50ddda22a886e5ec6a043", "fusion_lon": 0.0}, {"rental_uris": {"ios": "https://dc.lft.to/lastmile_qr_scan", "android": "https://dc.lft.to/lastmile_qr_scan"}, "type": "electric_scooter", "name": "f6c179ab913f62f574e764f525859a0b", "is_reserved": 0, "lon": -77.0513135, "is_disabled": 0, "fusion_lat": 0.0, "lat": 38.9064725, "bike_id": "f6c179ab913f62f574e764f525859a0b", "fusion_lon": 0.0}, {"rental_uris": {"ios": "https://dc.lft.to/lastmile_qr_scan", "android": "https://dc.lft.to/lastmile_qr_scan"}, "type": "electric_scooter", "name": "57c50006946dc77cf6333f9d8e5403ac", "is_reserved": 0, "lon": -77.03414016666666, "is_disabled": 0, "fusion_lat": 0.0, "lat": 38.92201766666667, "bike_id": "57c50006946dc77cf6333f9d8e5403ac", "fusion_lon": 0.0}, {"rental_uris": {"ios": "https://dc.lft.to/lastmile_qr_scan", "android": "https://dc.lft.to/lastmile_qr_scan"}, "type": "electric_scooter", "name": "ec4739285937a504e7ca865e56b9176b", "is_reserved": 0, "lon": -76.98507133333334, "is_disabled": 0, "fusion_lat": 0.0, "lat": 38.879864166666664, "bike_id": "ec4739285937a504e7ca865e56b9176b", "fusion_lon": 0.0}, {"rental_uris": {"ios": "https://dc.lft.to/lastmile_qr_scan", "android": "https://dc.lft.to/lastmile_qr_scan"}, "type": "electric_bike", "name": "d9a6b50edac4c4a989857b6e3936b8f3", "is_reserved": 0, "lon": -77.08530583333334, "is_disabled": 0, "fusion_lat": 0.0, "lat": 38.85651033333333, "bike_id": "d9a6b50edac4c4a989857b6e3936b8f3", "fusion_lon": 0.0}, {"rental_uris": {"ios": "https://dc.lft.to/lastmile_qr_scan", "android": "https://dc.lft.to/lastmile_qr_scan"}, "type": "electric_scooter", "name": "649dd15b996d8a3e5909fa78b82bf97d", "is_reserved": 0, "lon": -77.0662485, "is_disabled": 0, "fusion_lat": 0.0, "lat": 38.90516866666667, "bike_id": "649dd15b996d8a3e5909fa78b82bf97d", "fusion_lon": 0.0}, {"rental_uris": {"ios": "https://dc.lft.to/lastmile_qr_scan", "android": "https://dc.lft.to/lastmile_qr_scan"}, "type": "electric_scooter", "name": "79d449699301bc83c6625c3ea7fdfcbe", "is_reserved": 0, "lon": -77.00551916666667, "is_disabled": 0, "fusion_lat": 0.0, "lat": 38.87637683333333, "bike_id": "79d449699301bc83c6625c3ea7fdfcbe", "fusion_lon": 0.0}, {"rental_uris": {"ios": "https://dc.lft.to/lastmile_qr_scan", "android": "https://dc.lft.to/lastmile_qr_scan"}, "type": "electric_scooter", "name": "a45d7fb4afddfd83b38ca699687e376d", "is_reserved": 0, "lon": -77.02507733333333, "is_disabled": 0, "fusion_lat": 0.0, "lat": 38.9354685, "bike_id": "a45d7fb4afddfd83b38ca699687e376d", "fusion_lon": 0.0}, {"rental_uris": {"ios": "https://dc.lft.to/lastmile_qr_scan", "android": "https://dc.lft.to/lastmile_qr_scan"}, "type": "electric_scooter", "name": "1d889997194272b8681a890ce40afe8a", "is_reserved": 0, "lon": -77.036204, "is_disabled": 0, "fusion_lat": 0.0, "lat": 38.92656933333333, "bike_id": "1d889997194272b8681a890ce40afe8a", "fusion_lon": 0.0}, {"rental_uris": {"ios": "https://dc.lft.to/lastmile_qr_scan", "android": "https://dc.lft.to/lastmile_qr_scan"}, "type": "electric_scooter", "name": "526fef620809f77c22b5a7ac5600c052", "is_reserved": 0, "lon": -77.0191045, "is_disabled": 0, "fusion_lat": 0.0, "lat": 38.90559016666667, "bike_id": "526fef620809f77c22b5a7ac5600c052", "fusion_lon": 0.0}, {"rental_uris": {"ios": "https://dc.lft.to/lastmile_qr_scan", "android": "https://dc.lft.to/lastmile_qr_scan"}, "type": "electric_bike", "name": "7ad994179d1787b87d6f95fe7db0a08a", "is_reserved": 0, "lon": -77.22184283333333, "is_disabled": 0, "fusion_lat": 0.0, "lat": 38.871720333333336, "bike_id": "7ad994179d1787b87d6f95fe7db0a08a", "fusion_lon": 0.0}, {"rental_uris": {"ios": "https://dc.lft.to/lastmile_qr_scan", "android": "https://dc.lft.to/lastmile_qr_scan"}, "type": "electric_scooter", "name": "8239faff88f8ddf88f9cc05d2adf0ef0", "is_reserved": 0, "lon": -77.00697833333334, "is_disabled": 0, "fusion_lat": 0.0, "lat": 38.9051485, "bike_id": "8239faff88f8ddf88f9cc05d2adf0ef0", "fusion_lon": 0.0}, {"rental_uris": {"ios": "https://dc.lft.to/lastmile_qr_scan", "android": "https://dc.lft.to/lastmile_qr_scan"}, "type": "electric_scooter", "name": "53c07b4f4c12f61382c09aaac6ff9108", "is_reserved": 0, "lon": -77.02564533333333, "is_disabled": 0, "fusion_lat": 0.0, "lat": 38.92031166666666, "bike_id": "53c07b4f4c12f61382c09aaac6ff9108", "fusion_lon": 0.0}, {"rental_uris": {"ios": "https://dc.lft.to/lastmile_qr_scan", "android": "https://dc.lft.to/lastmile_qr_scan"}, "type": "electric_scooter", "name": "b34e30dd884f88ee2b51ff56a49995b3", "is_reserved": 0, "lon": -77.00931533333333, "is_disabled": 0, "fusion_lat": 0.0, "lat": 38.871162166666664, "bike_id": "b34e30dd884f88ee2b51ff56a49995b3", "fusion_lon": 0.0}, {"rental_uris": {"ios": "https://dc.lft.to/lastmile_qr_scan", "android": "https://dc.lft.to/lastmile_qr_scan"}, "type": "electric_scooter", "name": "409565c1a3ad736161959593e86bc23c", "is_reserved": 0, "lon": -77.0025305, "is_disabled": 0, "fusion_lat": 0.0, "lat": 38.912509, "bike_id": "409565c1a3ad736161959593e86bc23c", "fusion_lon": 0.0}, {"rental_uris": {"ios": "https://dc.lft.to/lastmile_qr_scan", "android": "https://dc.lft.to/lastmile_qr_scan"}, "type": "electric_scooter", "name": "23a28bb751fb6075a310b4ee28c2713c", "is_reserved": 0, "lon": -77.0513845, "is_disabled": 0, "fusion_lat": 0.0, "lat": 38.89743083333333, "bike_id": "23a28bb751fb6075a310b4ee28c2713c", "fusion_lon": 0.0}, {"rental_uris": {"ios": "https://dc.lft.to/lastmile_qr_scan", "android": "https://dc.lft.to/lastmile_qr_scan"}, "type": "electric_scooter", "name": "7529fe1572e1fcf85e57b4f1e74e2f96", "is_reserved": 0, "lon": -77.01883333333333, "is_disabled": 0, "fusion_lat": 0.0, "lat": 38.87715566666667, "bike_id": "7529fe1572e1fcf85e57b4f1e74e2f96", "fusion_lon": 0.0}, {"rental_uris": {"ios": "https://dc.lft.to/lastmile_qr_scan", "android": "https://dc.lft.to/lastmile_qr_scan"}, "type": "electric_bike", "name": "e98cf35fa14d0ec0c64315ccec7bd4f8", "is_reserved": 0, "lon": -76.97617433333333, "is_disabled": 0, "fusion_lat": 0.0, "lat": 38.89290466666667, "bike_id": "e98cf35fa14d0ec0c64315ccec7bd4f8", "fusion_lon": 0.0}, {"rental_uris": {"ios": "https://dc.lft.to/lastmile_qr_scan", "android": "https://dc.lft.to/lastmile_qr_scan"}, "type": "electric_scooter", "name": "c351aa2d82adb9dfbb5f50042fb78b1d", "is_reserved": 0, "lon": -76.99967, "is_disabled": 0, "fusion_lat": 0.0, "lat": 38.9085235, "bike_id": "c351aa2d82adb9dfbb5f50042fb78b1d", "fusion_lon": 0.0}, {"rental_uris": {"ios": "https://dc.lft.to/lastmile_qr_scan", "android": "https://dc.lft.to/lastmile_qr_scan"}, "type": "electric_scooter", "name": "b9b5a987f9ab9d69a95aaa1fdbafd574", "is_reserved": 0, "lon": -77.0312735, "is_disabled": 0, "fusion_lat": 0.0, "lat": 38.9133125, "bike_id": "b9b5a987f9ab9d69a95aaa1fdbafd574", "fusion_lon": 0.0}, {"rental_uris": {"ios": "https://dc.lft.to/lastmile_qr_scan", "android": "https://dc.lft.to/lastmile_qr_scan"}, "type": "electric_scooter", "name": "c4d3a94dc144b0cf232c1c715a0ccc91", "is_reserved": 0, "lon": -77.04454116666666, "is_disabled": 0, "fusion_lat": 0.0, "lat": 38.9011945, "bike_id": "c4d3a94dc144b0cf232c1c715a0ccc91", "fusion_lon": 0.0}, {"rental_uris": {"ios": "https://dc.lft.to/lastmile_qr_scan", "android": "https://dc.lft.to/lastmile_qr_scan"}, "type": "electric_scooter", "name": "3f87760f2b16fba9641a65043fff4a08", "is_reserved": 0, "lon": -77.03461416666667, "is_disabled": 0, "fusion_lat": 0.0, "lat": 38.9080045, "bike_id": "3f87760f2b16fba9641a65043fff4a08", "fusion_lon": 0.0}, {"rental_uris": {"ios": "https://dc.lft.to/lastmile_qr_scan", "android": "https://dc.lft.to/lastmile_qr_scan"}, "type": "electric_scooter", "name": "640e92356ce6020a1e1b605c2485ae71", "is_reserved": 0, "lon": -77.03641666666667, "is_disabled": 0, "fusion_lat": 0.0, "lat": 38.916485333333334, "bike_id": "640e92356ce6020a1e1b605c2485ae71", "fusion_lon": 0.0}, {"rental_uris": {"ios": "https://dc.lft.to/lastmile_qr_scan", "android": "https://dc.lft.to/lastmile_qr_scan"}, "type": "electric_bike", "name": "d74f7c99c7dd2425ee68b1721b0bf820", "is_reserved": 0, "lon": -76.96095083333333, "is_disabled": 0, "fusion_lat": 0.0, "lat": 38.9187045, "bike_id": "d74f7c99c7dd2425ee68b1721b0bf820", "fusion_lon": 0.0}, {"rental_uris": {"ios": "https://dc.lft.to/lastmile_qr_scan", "android": "https://dc.lft.to/lastmile_qr_scan"}, "type": "electric_bike", "name": "191e01b2021487851fcc8106683472f4", "is_reserved": 0, "lon": -77.07748783333334, "is_disabled": 0, "fusion_lat": 0.0, "lat": 38.841908, "bike_id": "191e01b2021487851fcc8106683472f4", "fusion_lon": 0.0}, {"rental_uris": {"ios": "https://dc.lft.to/lastmile_qr_scan", "android": "https://dc.lft.to/lastmile_qr_scan"}, "type": "electric_scooter", "name": "120a86b86be5d1811a07649e9d07fca2", "is_reserved": 0, "lon": -77.00530416666666, "is_disabled": 0, "fusion_lat": 0.0, "lat": 38.87927533333333, "bike_id": "120a86b86be5d1811a07649e9d07fca2", "fusion_lon": 0.0}, {"rental_uris": {"ios": "https://dc.lft.to/lastmile_qr_scan", "android": "https://dc.lft.to/lastmile_qr_scan"}, "type": "electric_scooter", "name": "b18fbb27ae19c654c3b563a1fb1ca203", "is_reserved": 0, "lon": -77.02559216666667, "is_disabled": 0, "fusion_lat": 0.0, "lat": 38.9539495, "bike_id": "b18fbb27ae19c654c3b563a1fb1ca203", "fusion_lon": 0.0}, {"rental_uris": {"ios": "https://dc.lft.to/lastmile_qr_scan", "android": "https://dc.lft.to/lastmile_qr_scan"}, "type": "electric_scooter", "name": "94bbedf3179c31b6199c64eaded7df7b", "is_reserved": 0, "lon": -76.992522, "is_disabled": 0, "fusion_lat": 0.0, "lat": 38.940677666666666, "bike_id": "94bbedf3179c31b6199c64eaded7df7b", "fusion_lon": 0.0}, {"rental_uris": {"ios": "https://dc.lft.to/lastmile_qr_scan", "android": "https://dc.lft.to/lastmile_qr_scan"}, "type": "electric_scooter", "name": "2af1ab0a3b2929b06ed8df2cd1347fbc", "is_reserved": 0, "lon": -77.04882766666667, "is_disabled": 0, "fusion_lat": 0.0, "lat": 38.907143833333336, "bike_id": "2af1ab0a3b2929b06ed8df2cd1347fbc", "fusion_lon": 0.0}, {"rental_uris": {"ios": "https://dc.lft.to/lastmile_qr_scan", "android": "https://dc.lft.to/lastmile_qr_scan"}, "type": "electric_bike", "name": "abc3449a767d1872d6e40311502911c3", "is_reserved": 0, "lon": -76.97313816666667, "is_disabled": 0, "fusion_lat": 0.0, "lat": 38.91762166666667, "bike_id": "abc3449a767d1872d6e40311502911c3", "fusion_lon": 0.0}, {"rental_uris": {"ios": "https://dc.lft.to/lastmile_qr_scan", "android": "https://dc.lft.to/lastmile_qr_scan"}, "type": "electric_scooter", "name": "a8a912906e41742979e9b15cef6e8ca7", "is_reserved": 0, "lon": -77.000929, "is_disabled": 0, "fusion_lat": 0.0, "lat": 38.91950533333333, "bike_id": "a8a912906e41742979e9b15cef6e8ca7", "fusion_lon": 0.0}, {"rental_uris": {"ios": "https://dc.lft.to/lastmile_qr_scan", "android": "https://dc.lft.to/lastmile_qr_scan"}, "type": "electric_scooter", "name": "fae9f58ab426e375283203a5a8536e72", "is_reserved": 0, "lon": -77.02009533333333, "is_disabled": 0, "fusion_lat": 0.0, "lat": 38.92807233333333, "bike_id": "fae9f58ab426e375283203a5a8536e72", "fusion_lon": 0.0}, {"rental_uris": {"ios": "https://dc.lft.to/lastmile_qr_scan", "android": "https://dc.lft.to/lastmile_qr_scan"}, "type": "electric_bike", "name": "c8838a69529dc6b1f696d995d6782a1d", "is_reserved": 0, "lon": -77.10292016666666, "is_disabled": 0, "fusion_lat": 0.0, "lat": 38.852528, "bike_id": "c8838a69529dc6b1f696d995d6782a1d", "fusion_lon": 0.0}, {"rental_uris": {"ios": "https://dc.lft.to/lastmile_qr_scan", "android": "https://dc.lft.to/lastmile_qr_scan"}, "type": "electric_scooter", "name": "884d4f8c823f4f0ca15e2e9b27c326b8", "is_reserved": 0, "lon": -77.01495466666667, "is_disabled": 0, "fusion_lat": 0.0, "lat": 38.90652583333333, "bike_id": "884d4f8c823f4f0ca15e2e9b27c326b8", "fusion_lon": 0.0}, {"rental_uris": {"ios": "https://dc.lft.to/lastmile_qr_scan", "android": "https://dc.lft.to/lastmile_qr_scan"}, "type": "electric_scooter", "name": "06b601682826a3e6b4038774fda1b2d4", "is_reserved": 0, "lon": -77.00577866666667, "is_disabled": 0, "fusion_lat": 0.0, "lat": 38.87665716666667, "bike_id": "06b601682826a3e6b4038774fda1b2d4", "fusion_lon": 0.0}, {"rental_uris": {"ios": "https://dc.lft.to/lastmile_qr_scan", "android": "https://dc.lft.to/lastmile_qr_scan"}, "type": "electric_scooter", "name": "7247704b353b5eea83c869441dd2cc3e", "is_reserved": 0, "lon": -77.03407816666666, "is_disabled": 0, "fusion_lat": 0.0, "lat": 38.90129916666667, "bike_id": "7247704b353b5eea83c869441dd2cc3e", "fusion_lon": 0.0}, {"rental_uris": {"ios": "https://dc.lft.to/lastmile_qr_scan", "android": "https://dc.lft.to/lastmile_qr_scan"}, "type": "electric_scooter", "name": "23dd38689204493f916f1a15a1a6e6ec", "is_reserved": 0, "lon": -76.92301233333333, "is_disabled": 0, "fusion_lat": 0.0, "lat": 38.89387766666667, "bike_id": "23dd38689204493f916f1a15a1a6e6ec", "fusion_lon": 0.0}, {"rental_uris": {"ios": "https://dc.lft.to/lastmile_qr_scan", "android": "https://dc.lft.to/lastmile_qr_scan"}, "type": "electric_scooter", "name": "291bdf34458f0653fe38842d1fea1c92", "is_reserved": 0, "lon": -77.02573516666666, "is_disabled": 0, "fusion_lat": 0.0, "lat": 38.94846366666667, "bike_id": "291bdf34458f0653fe38842d1fea1c92", "fusion_lon": 0.0}, {"rental_uris": {"ios": "https://dc.lft.to/lastmile_qr_scan", "android": "https://dc.lft.to/lastmile_qr_scan"}, "type": "electric_scooter", "name": "b846bde4943b201856da23cf2e47b5ff", "is_reserved": 0, "lon": -76.94636883333334, "is_disabled": 0, "fusion_lat": 0.0, "lat": 38.89868, "bike_id": "b846bde4943b201856da23cf2e47b5ff", "fusion_lon": 0.0}, {"rental_uris": {"ios": "https://dc.lft.to/lastmile_qr_scan", "android": "https://dc.lft.to/lastmile_qr_scan"}, "type": "electric_scooter", "name": "51961b0fe9ad4cf62b825786fc755576", "is_reserved": 0, "lon": -76.98651283333334, "is_disabled": 0, "fusion_lat": 0.0, "lat": 38.90538566666667, "bike_id": "51961b0fe9ad4cf62b825786fc755576", "fusion_lon": 0.0}, {"rental_uris": {"ios": "https://dc.lft.to/lastmile_qr_scan", "android": "https://dc.lft.to/lastmile_qr_scan"}, "type": "electric_scooter", "name": "0351f8284e1338107be7cae06bf748fe", "is_reserved": 0, "lon": -77.01996466666667, "is_disabled": 0, "fusion_lat": 0.0, "lat": 38.93050366666667, "bike_id": "0351f8284e1338107be7cae06bf748fe", "fusion_lon": 0.0}, {"rental_uris": {"ios": "https://dc.lft.to/lastmile_qr_scan", "android": "https://dc.lft.to/lastmile_qr_scan"}, "type": "electric_bike", "name": "70bdda155aac22215bf3f50c9b4e114d", "is_reserved": 0, "lon": -77.02452583333333, "is_disabled": 0, "fusion_lat": 0.0, "lat": 38.93291216666667, "bike_id": "70bdda155aac22215bf3f50c9b4e114d", "fusion_lon": 0.0}, {"rental_uris": {"ios": "https://dc.lft.to/lastmile_qr_scan", "android": "https://dc.lft.to/lastmile_qr_scan"}, "type": "electric_scooter", "name": "8a5172352d7e45f77c934645d0d9e63d", "is_reserved": 0, "lon": -77.01634416666667, "is_disabled": 0, "fusion_lat": 0.0, "lat": 38.903757666666664, "bike_id": "8a5172352d7e45f77c934645d0d9e63d", "fusion_lon": 0.0}, {"rental_uris": {"ios": "https://dc.lft.to/lastmile_qr_scan", "android": "https://dc.lft.to/lastmile_qr_scan"}, "type": "electric_scooter", "name": "10b65d04cd1a0250c8849fec6c9d974f", "is_reserved": 0, "lon": -77.02666, "is_disabled": 0, "fusion_lat": 0.0, "lat": 38.931001, "bike_id": "10b65d04cd1a0250c8849fec6c9d974f", "fusion_lon": 0.0}, {"rental_uris": {"ios": "https://dc.lft.to/lastmile_qr_scan", "android": "https://dc.lft.to/lastmile_qr_scan"}, "type": "electric_bike", "name": "e3f8ac5b23a3db6e2e3ce40e32d5071e", "is_reserved": 0, "lon": -77.23178283333333, "is_disabled": 0, "fusion_lat": 0.0, "lat": 38.92894733333333, "bike_id": "e3f8ac5b23a3db6e2e3ce40e32d5071e", "fusion_lon": 0.0}, {"rental_uris": {"ios": "https://dc.lft.to/lastmile_qr_scan", "android": "https://dc.lft.to/lastmile_qr_scan"}, "type": "electric_scooter", "name": "5666070a8084167f097460527baaac11", "is_reserved": 0, "lon": -77.03210266666666, "is_disabled": 0, "fusion_lat": 0.0, "lat": 38.92185966666667, "bike_id": "5666070a8084167f097460527baaac11", "fusion_lon": 0.0}, {"rental_uris": {"ios": "https://dc.lft.to/lastmile_qr_scan", "android": "https://dc.lft.to/lastmile_qr_scan"}, "type": "electric_bike", "name": "b3f0a378e3871189a5c22ac7de36b668", "is_reserved": 0, "lon": -76.97930733333334, "is_disabled": 0, "fusion_lat": 0.0, "lat": 38.919993833333336, "bike_id": "b3f0a378e3871189a5c22ac7de36b668", "fusion_lon": 0.0}, {"rental_uris": {"ios": "https://dc.lft.to/lastmile_qr_scan", "android": "https://dc.lft.to/lastmile_qr_scan"}, "type": "electric_scooter", "name": "4e8409b3bafbd9337712572309d5ae7e", "is_reserved": 0, "lon": -77.04056216666666, "is_disabled": 0, "fusion_lat": 0.0, "lat": 38.930099166666665, "bike_id": "4e8409b3bafbd9337712572309d5ae7e", "fusion_lon": 0.0}, {"rental_uris": {"ios": "https://dc.lft.to/lastmile_qr_scan", "android": "https://dc.lft.to/lastmile_qr_scan"}, "type": "electric_scooter", "name": "b25c1d60348c4821230537c1466cc8b3", "is_reserved": 0, "lon": -77.05424516666666, "is_disabled": 0, "fusion_lat": 0.0, "lat": 38.928488333333334, "bike_id": "b25c1d60348c4821230537c1466cc8b3", "fusion_lon": 0.0}, {"rental_uris": {"ios": "https://dc.lft.to/lastmile_qr_scan", "android": "https://dc.lft.to/lastmile_qr_scan"}, "type": "electric_scooter", "name": "dcfa9dc3ec2e75598c5edf01f336b7f0", "is_reserved": 0, "lon": -77.071636, "is_disabled": 0, "fusion_lat": 0.0, "lat": 38.907760333333336, "bike_id": "dcfa9dc3ec2e75598c5edf01f336b7f0", "fusion_lon": 0.0}, {"rental_uris": {"ios": "https://dc.lft.to/lastmile_qr_scan", "android": "https://dc.lft.to/lastmile_qr_scan"}, "type": "electric_scooter", "name": "205044b4ce35781cd099d3fb3c96b479", "is_reserved": 0, "lon": -77.043384, "is_disabled": 0, "fusion_lat": 0.0, "lat": 38.90834183333333, "bike_id": "205044b4ce35781cd099d3fb3c96b479", "fusion_lon": 0.0}, {"rental_uris": {"ios": "https://dc.lft.to/lastmile_qr_scan", "android": "https://dc.lft.to/lastmile_qr_scan"}, "type": "electric_scooter", "name": "41d07ff75a406bc2984eec0501276413", "is_reserved": 0, "lon": -77.01769083333333, "is_disabled": 0, "fusion_lat": 0.0, "lat": 38.92042216666667, "bike_id": "41d07ff75a406bc2984eec0501276413", "fusion_lon": 0.0}, {"rental_uris": {"ios": "https://dc.lft.to/lastmile_qr_scan", "android": "https://dc.lft.to/lastmile_qr_scan"}, "type": "electric_scooter", "name": "5c71099183b6ca0e1aa9ae2ea195f229", "is_reserved": 0, "lon": -77.026663, "is_disabled": 0, "fusion_lat": 0.0, "lat": 38.92481866666667, "bike_id": "5c71099183b6ca0e1aa9ae2ea195f229", "fusion_lon": 0.0}, {"rental_uris": {"ios": "https://dc.lft.to/lastmile_qr_scan", "android": "https://dc.lft.to/lastmile_qr_scan"}, "type": "electric_scooter", "name": "c2cac5de1bc9313265dfb204b98fbd9c", "is_reserved": 0, "lon": -77.026979, "is_disabled": 0, "fusion_lat": 0.0, "lat": 38.9259515, "bike_id": "c2cac5de1bc9313265dfb204b98fbd9c", "fusion_lon": 0.0}, {"rental_uris": {"ios": "https://dc.lft.to/lastmile_qr_scan", "android": "https://dc.lft.to/lastmile_qr_scan"}, "type": "electric_scooter", "name": "40aeed352a142797d5fc82fffea30a40", "is_reserved": 0, "lon": -77.02682483333334, "is_disabled": 0, "fusion_lat": 0.0, "lat": 38.9247405, "bike_id": "40aeed352a142797d5fc82fffea30a40", "fusion_lon": 0.0}, {"rental_uris": {"ios": "https://dc.lft.to/lastmile_qr_scan", "android": "https://dc.lft.to/lastmile_qr_scan"}, "type": "electric_scooter", "name": "e3a302e0fbe8c0e9e50207afbad0c9a9", "is_reserved": 0, "lon": -77.04162633333334, "is_disabled": 0, "fusion_lat": 0.0, "lat": 38.90568583333334, "bike_id": "e3a302e0fbe8c0e9e50207afbad0c9a9", "fusion_lon": 0.0}, {"rental_uris": {"ios": "https://dc.lft.to/lastmile_qr_scan", "android": "https://dc.lft.to/lastmile_qr_scan"}, "type": "electric_scooter", "name": "eca77cfbc774620dfd1605d438982173", "is_reserved": 0, "lon": -77.049029, "is_disabled": 0, "fusion_lat": 0.0, "lat": 38.91940016666667, "bike_id": "eca77cfbc774620dfd1605d438982173", "fusion_lon": 0.0}, {"rental_uris": {"ios": "https://dc.lft.to/lastmile_qr_scan", "android": "https://dc.lft.to/lastmile_qr_scan"}, "type": "electric_scooter", "name": "bb1034350ef0b0ae98549b8f8c746df6", "is_reserved": 0, "lon": -77.02981966666667, "is_disabled": 0, "fusion_lat": 0.0, "lat": 38.921978333333335, "bike_id": "bb1034350ef0b0ae98549b8f8c746df6", "fusion_lon": 0.0}, {"rental_uris": {"ios": "https://dc.lft.to/lastmile_qr_scan", "android": "https://dc.lft.to/lastmile_qr_scan"}, "type": "electric_scooter", "name": "7bd1d921d0b3bfb50e91e8296afec735", "is_reserved": 0, "lon": -77.03221, "is_disabled": 0, "fusion_lat": 0.0, "lat": 38.928791833333335, "bike_id": "7bd1d921d0b3bfb50e91e8296afec735", "fusion_lon": 0.0}, {"rental_uris": {"ios": "https://dc.lft.to/lastmile_qr_scan", "android": "https://dc.lft.to/lastmile_qr_scan"}, "type": "electric_scooter", "name": "1f9a4ce815c34e7d256f8dcf35d1ec26", "is_reserved": 0, "lon": -77.04713566666666, "is_disabled": 0, "fusion_lat": 0.0, "lat": 38.912667666666664, "bike_id": "1f9a4ce815c34e7d256f8dcf35d1ec26", "fusion_lon": 0.0}, {"rental_uris": {"ios": "https://dc.lft.to/lastmile_qr_scan", "android": "https://dc.lft.to/lastmile_qr_scan"}, "type": "electric_scooter", "name": "9034ae7b9f0379b32d925b65bd459433", "is_reserved": 0, "lon": -77.04228583333334, "is_disabled": 0, "fusion_lat": 0.0, "lat": 38.911086166666664, "bike_id": "9034ae7b9f0379b32d925b65bd459433", "fusion_lon": 0.0}, {"rental_uris": {"ios": "https://dc.lft.to/lastmile_qr_scan", "android": "https://dc.lft.to/lastmile_qr_scan"}, "type": "electric_scooter", "name": "c4b1b4d023ef916ce44f4ee34c1f60a9", "is_reserved": 0, "lon": -77.04328516666666, "is_disabled": 0, "fusion_lat": 0.0, "lat": 38.934139, "bike_id": "c4b1b4d023ef916ce44f4ee34c1f60a9", "fusion_lon": 0.0}, {"rental_uris": {"ios": "https://dc.lft.to/lastmile_qr_scan", "android": "https://dc.lft.to/lastmile_qr_scan"}, "type": "electric_scooter", "name": "bd364da3eed6b8e357d384d7e2dff314", "is_reserved": 0, "lon": -77.04863916666666, "is_disabled": 0, "fusion_lat": 0.0, "lat": 38.91258716666667, "bike_id": "bd364da3eed6b8e357d384d7e2dff314", "fusion_lon": 0.0}, {"rental_uris": {"ios": "https://dc.lft.to/lastmile_qr_scan", "android": "https://dc.lft.to/lastmile_qr_scan"}, "type": "electric_scooter", "name": "8e07479ea136135ba06e9ed39f956ec8", "is_reserved": 0, "lon": -77.0343, "is_disabled": 0, "fusion_lat": 0.0, "lat": 38.919147, "bike_id": "8e07479ea136135ba06e9ed39f956ec8", "fusion_lon": 0.0}, {"rental_uris": {"ios": "https://dc.lft.to/lastmile_qr_scan", "android": "https://dc.lft.to/lastmile_qr_scan"}, "type": "electric_bike", "name": "89b37fab648a712093275371ca2d5c7e", "is_reserved": 0, "lon": -77.11408433333334, "is_disabled": 0, "fusion_lat": 0.0, "lat": 38.87321583333333, "bike_id": "89b37fab648a712093275371ca2d5c7e", "fusion_lon": 0.0}, {"rental_uris": {"ios": "https://dc.lft.to/lastmile_qr_scan", "android": "https://dc.lft.to/lastmile_qr_scan"}, "type": "electric_scooter", "name": "46802157aef509d271be0c64cc7f0807", "is_reserved": 0, "lon": -77.03268066666666, "is_disabled": 0, "fusion_lat": 0.0, "lat": 38.90407883333334, "bike_id": "46802157aef509d271be0c64cc7f0807", "fusion_lon": 0.0}, {"rental_uris": {"ios": "https://dc.lft.to/lastmile_qr_scan", "android": "https://dc.lft.to/lastmile_qr_scan"}, "type": "electric_scooter", "name": "c6ac59e99b9c4f3031943b35b0b30293", "is_reserved": 0, "lon": -77.016237, "is_disabled": 0, "fusion_lat": 0.0, "lat": 38.898024, "bike_id": "c6ac59e99b9c4f3031943b35b0b30293", "fusion_lon": 0.0}, {"rental_uris": {"ios": "https://dc.lft.to/lastmile_qr_scan", "android": "https://dc.lft.to/lastmile_qr_scan"}, "type": "electric_scooter", "name": "d404cf9d75ebf4604a5616ed42fe30a9", "is_reserved": 0, "lon": -77.0283545, "is_disabled": 0, "fusion_lat": 0.0, "lat": 38.95720166666667, "bike_id": "d404cf9d75ebf4604a5616ed42fe30a9", "fusion_lon": 0.0}, {"rental_uris": {"ios": "https://dc.lft.to/lastmile_qr_scan", "android": "https://dc.lft.to/lastmile_qr_scan"}, "type": "electric_scooter", "name": "5e29fba0edea93c368961a79f6306d80", "is_reserved": 0, "lon": -76.983738, "is_disabled": 0, "fusion_lat": 0.0, "lat": 38.8913445, "bike_id": "5e29fba0edea93c368961a79f6306d80", "fusion_lon": 0.0}, {"rental_uris": {"ios": "https://dc.lft.to/lastmile_qr_scan", "android": "https://dc.lft.to/lastmile_qr_scan"}, "type": "electric_scooter", "name": "b71f2e49885d4636c4f501b55e405d70", "is_reserved": 0, "lon": -77.047565, "is_disabled": 0, "fusion_lat": 0.0, "lat": 38.90088733333333, "bike_id": "b71f2e49885d4636c4f501b55e405d70", "fusion_lon": 0.0}, {"rental_uris": {"ios": "https://dc.lft.to/lastmile_qr_scan", "android": "https://dc.lft.to/lastmile_qr_scan"}, "type": "electric_scooter", "name": "1c65d8d58c120ddb7acaa05068a6f319", "is_reserved": 0, "lon": -77.04059383333333, "is_disabled": 0, "fusion_lat": 0.0, "lat": 38.92544066666667, "bike_id": "1c65d8d58c120ddb7acaa05068a6f319", "fusion_lon": 0.0}, {"rental_uris": {"ios": "https://dc.lft.to/lastmile_qr_scan", "android": "https://dc.lft.to/lastmile_qr_scan"}, "type": "electric_bike", "name": "40f39a46a3c71a27ef1142f45eda7874", "is_reserved": 0, "lon": -76.989237, "is_disabled": 0, "fusion_lat": 0.0, "lat": 38.882106, "bike_id": "40f39a46a3c71a27ef1142f45eda7874", "fusion_lon": 0.0}, {"rental_uris": {"ios": "https://dc.lft.to/lastmile_qr_scan", "android": "https://dc.lft.to/lastmile_qr_scan"}, "type": "electric_scooter", "name": "eca75d285f08564c9178e53a55e29bbb", "is_reserved": 0, "lon": -77.06842533333334, "is_disabled": 0, "fusion_lat": 0.0, "lat": 38.91712366666667, "bike_id": "eca75d285f08564c9178e53a55e29bbb", "fusion_lon": 0.0}, {"rental_uris": {"ios": "https://dc.lft.to/lastmile_qr_scan", "android": "https://dc.lft.to/lastmile_qr_scan"}, "type": "electric_scooter", "name": "d512fdc2f704e3d85b367caa3889ab80", "is_reserved": 0, "lon": -76.984481, "is_disabled": 0, "fusion_lat": 0.0, "lat": 38.9146525, "bike_id": "d512fdc2f704e3d85b367caa3889ab80", "fusion_lon": 0.0}, {"rental_uris": {"ios": "https://dc.lft.to/lastmile_qr_scan", "android": "https://dc.lft.to/lastmile_qr_scan"}, "type": "electric_scooter", "name": "50113fc8c7da883cf59850076fe67638", "is_reserved": 0, "lon": -76.98048483333334, "is_disabled": 0, "fusion_lat": 0.0, "lat": 38.901588, "bike_id": "50113fc8c7da883cf59850076fe67638", "fusion_lon": 0.0}, {"rental_uris": {"ios": "https://dc.lft.to/lastmile_qr_scan", "android": "https://dc.lft.to/lastmile_qr_scan"},