{"data": {"bikes": [{"bike_id": "0829c8a0921f1b5bc1e0ed80be00ea4e", "type": "electric_scooter", "is_disabled": 0, "lat": 38.91710616666667, "rental_uris": {"ios": "https://dc.lft.to/lastmile_qr_scan", "android": "https://dc.lft.to/lastmile_qr_scan"}, "is_reserved": 0, "fusion_lon": 0.0, "fusion_lat": 0.0, "lon": -77.03189833333333, "name": "0829c8a0921f1b5bc1e0ed80be00ea4e"}, {"bike_id": "79cc713ab81d6f51249cc932d3921429", "type": "electric_scooter", "is_disabled": 0, "lat": 38.887462, "rental_uris": {"ios": "https://dc.lft.to/lastmile_qr_scan", "android": "https://dc.lft.to/lastmile_qr_scan"}, "is_reserved": 0, "fusion_lon": 0.0, "fusion_lat": 0.0, "lon": -77.01726116666667, "name": "79cc713ab81d6f51249cc932d3921429"}, {"bike_id": "72261926fdf58ffcaa46c9e7c08c9255", "type": "electric_scooter", "is_disabled": 0, "lat": 38.92895433333333, "rental_uris": {"ios": "https://dc.lft.to/lastmile_qr_scan", "android": "https://dc.lft.to/lastmile_qr_scan"}, "is_reserved": 0, "fusion_lon": 0.0, "fusion_lat": 0.0, "lon": -77.033192, "name": "72261926fdf58ffcaa46c9e7c08c9255"}, {"bike_id": "10b714bbd82fe0933a8c161dddcc5ad0", "type": "electric_scooter", "is_disabled": 0, "lat": 38.9028435, "rental_uris": {"ios": "https://dc.lft.to/lastmile_qr_scan", "android": "https://dc.lft.to/lastmile_qr_scan"}, "is_reserved": 0, "fusion_lon": 0.0, "fusion_lat": 0.0, "lon": -77.01785833333334, "name": "10b714bbd82fe0933a8c161dddcc5ad0"}, {"bike_id": "5644b26b737db3f7b6164780968f819d", "type": "electric_scooter", "is_disabled": 0, "lat": 38.86528216666667, "rental_uris": {"ios": "https://dc.lft.to/lastmile_qr_scan", "android": "https://dc.lft.to/lastmile_qr_scan"}, "is_reserved": 0, "fusion_lon": 0.0, "fusion_lat": 0.0, "lon": -76.97320583333334, "name": "5644b26b737db3f7b6164780968f819d"}, {"bike_id": "d4d947331fc09e7565fdf0f1854a2f46", "type": "electric_scooter", "is_disabled": 0, "lat": 38.909715, "rental_uris": {"ios": "https://dc.lft.to/lastmile_qr_scan", "android": "https://dc.lft.to/lastmile_qr_scan"}, "is_reserved": 0, "fusion_lon": 0.0, "fusion_lat": 0.0, "lon": -77.03847366666666, "name": "d4d947331fc09e7565fdf0f1854a2f46"}, {"bike_id": "8ed11010fb44590e7280b554008ebf5d", "type": "electric_scooter", "is_disabled": 0, "lat": 38.92065616666667, "rental_uris": {"ios": "https://dc.lft.to/lastmile_qr_scan", "android": "https://dc.lft.to/lastmile_qr_scan"}, "is_reserved": 0, "fusion_lon": 0.0, "fusion_lat": 0.0, "lon": -77.02212, "name": "8ed11010fb44590e7280b554008ebf5d"}, {"bike_id": "15677f0e8dd6c9261c481b186b0a7def", "type": "electric_scooter", "is_disabled": 0, "lat": 38.892194833333335, "rental_uris": {"ios": "https://dc.lft.to/lastmile_qr_scan", "android": "https://dc.lft.to/lastmile_qr_scan"}, "is_reserved": 0, "fusion_lon": 0.0, "fusion_lat": 0.0, "lon": -77.03217633333334, "name": "15677f0e8dd6c9261c481b186b0a7def"}, {"bike_id": "e6e692fe4f479f37fa4c75f9ec25f441", "type": "electric_scooter", "is_disabled": 0, "lat": 38.90525183333333, "rental_uris": {"ios": "https://dc.lft.to/lastmile_qr_scan", "android": "https://dc.lft.to/lastmile_qr_scan"}, "is_reserved": 0, "fusion_lon": 0.0, "fusion_lat": 0.0, "lon": -77.044591, "name": "e6e692fe4f479f37fa4c75f9ec25f441"}, {"bike_id": "3ec65f7e685556630d66a6abf05608f8", "type": "electric_scooter", "is_disabled": 0, "lat": 38.923305666666664, "rental_uris": {"ios": "https://dc.lft.to/lastmile_qr_scan", "android": "https://dc.lft.to/lastmile_qr_scan"}, "is_reserved": 0, "fusion_lon": 0.0, "fusion_lat": 0.0, "lon": -77.03621316666667, "name": "3ec65f7e685556630d66a6abf05608f8"}, {"bike_id": "e20a85418f59ebc143fd4b2035151a30", "type": "electric_scooter", "is_disabled": 0, "lat": 38.905535, "rental_uris": {"ios": "https://dc.lft.to/lastmile_qr_scan", "android": "https://dc.lft.to/lastmile_qr_scan"}, "is_reserved": 0, "fusion_lon": 0.0, "fusion_lat": 0.0, "lon": -77.0468635, "name": "e20a85418f59ebc143fd4b2035151a30"}, {"bike_id": "1570e35ae545ae0165bfca84073d23e2", "type": "electric_scooter", "is_disabled": 0, "lat": 38.905811166666666, "rental_uris": {"ios": "https://dc.lft.to/lastmile_qr_scan", "android": "https://dc.lft.to/lastmile_qr_scan"}, "is_reserved": 0, "fusion_lon": 0.0, "fusion_lat": 0.0, "lon": -77.04584633333333, "name": "1570e35ae545ae0165bfca84073d23e2"}, {"bike_id": "68475bc5f24e207d5d9b850074732d17", "type": "electric_scooter", "is_disabled": 0, "lat": 38.923455833333335, "rental_uris": {"ios": "https://dc.lft.to/lastmile_qr_scan", "android": "https://dc.lft.to/lastmile_qr_scan"}, "is_reserved": 0, "fusion_lon": 0.0, "fusion_lat": 0.0, "lon": -77.051191, "name": "68475bc5f24e207d5d9b850074732d17"}, {"bike_id": "3583be0eb27bd7d7d4695bccf2e6793c", "type": "electric_scooter", "is_disabled": 0, "lat": 38.91782116666667, "rental_uris": {"ios": "https://dc.lft.to/lastmile_qr_scan", "android": "https://dc.lft.to/lastmile_qr_scan"}, "is_reserved": 0, "fusion_lon": 0.0, "fusion_lat": 0.0, "lon": -77.03170383333334, "name": "3583be0eb27bd7d7d4695bccf2e6793c"}, {"bike_id": "968b8d31b065c88d265da3a231226cf6", "type": "electric_scooter", "is_disabled": 0, "lat": 38.9082015, "rental_uris": {"ios": "https://dc.lft.to/lastmile_qr_scan", "android": "https://dc.lft.to/lastmile_qr_scan"}, "is_reserved": 0, "fusion_lon": 0.0, "fusion_lat": 0.0, "lon": -77.043461, "name": "968b8d31b065c88d265da3a231226cf6"}, {"bike_id": "a4a6b84c4f6ef66f1fda9b268420604c", "type": "electric_scooter", "is_disabled": 0, "lat": 38.923287333333334, "rental_uris": {"ios": "https://dc.lft.to/lastmile_qr_scan", "android": "https://dc.lft.to/lastmile_qr_scan"}, "is_reserved": 0, "fusion_lon": 0.0, "fusion_lat": 0.0, "lon": -77.05296783333333, "name": "a4a6b84c4f6ef66f1fda9b268420604c"}, {"bike_id": "791d3743e9e8ae43a6ba69eef7d946d2", "type": "electric_scooter", "is_disabled": 0, "lat": 38.90973266666666, "rental_uris": {"ios": "https://dc.lft.to/lastmile_qr_scan", "android": "https://dc.lft.to/lastmile_qr_scan"}, "is_reserved": 0, "fusion_lon": 0.0, "fusion_lat": 0.0, "lon": -77.02711016666667, "name": "791d3743e9e8ae43a6ba69eef7d946d2"}, {"bike_id": "7a11db374d5e149534bc91eaf72f27b7", "type": "electric_scooter", "is_disabled": 0, "lat": 38.932752, "rental_uris": {"ios": "https://dc.lft.to/lastmile_qr_scan", "android": "https://dc.lft.to/lastmile_qr_scan"}, "is_reserved": 0, "fusion_lon": 0.0, "fusion_lat": 0.0, "lon": -77.034915, "name": "7a11db374d5e149534bc91eaf72f27b7"}, {"bike_id": "ca99ded3e2582e52bcc38ff4a83499ba", "type": "electric_scooter", "is_disabled": 0, "lat": 38.942089, "rental_uris": {"ios": "https://dc.lft.to/lastmile_qr_scan", "android": "https://dc.lft.to/lastmile_qr_scan"}, "is_reserved": 0, "fusion_lon": 0.0, "fusion_lat": 0.0, "lon": -77.02580683333333, "name": "ca99ded3e2582e52bcc38ff4a83499ba"}, {"bike_id": "8596d32a4286b5dbd864e37ce8c0d5f5", "type": "electric_scooter", "is_disabled": 0, "lat": 38.93822883333333, "rental_uris": {"ios": "https://dc.lft.to/lastmile_qr_scan", "android": "https://dc.lft.to/lastmile_qr_scan"}, "is_reserved": 0, "fusion_lon": 0.0, "fusion_lat": 0.0, "lon": -77.07164566666667, "name": "8596d32a4286b5dbd864e37ce8c0d5f5"}, {"bike_id": "80dd0bbecbd75223272c3a5cb31aa0bc", "type": "electric_scooter", "is_disabled": 0, "lat": 38.911038, "rental_uris": {"ios": "https://dc.lft.to/lastmile_qr_scan", "android": "https://dc.lft.to/lastmile_qr_scan"}, "is_reserved": 0, "fusion_lon": 0.0, "fusion_lat": 0.0, "lon": -77.03858666666666, "name": "80dd0bbecbd75223272c3a5cb31aa0bc"}, {"bike_id": "65b938fbd0ff3ede54934fe25b4801c2", "type": "electric_scooter", "is_disabled": 0, "lat": 38.92601233333333, "rental_uris": {"ios": "https://dc.lft.to/lastmile_qr_scan", "android": "https://dc.lft.to/lastmile_qr_scan"}, "is_reserved": 0, "fusion_lon": 0.0, "fusion_lat": 0.0, "lon": -77.02155333333333, "name": "65b938fbd0ff3ede54934fe25b4801c2"}, {"bike_id": "79f5af2c7fafc03d0248df955483aaec", "type": "electric_bike", "is_disabled": 0, "lat": 39.05632833333333, "rental_uris": {"ios": "https://dc.lft.to/lastmile_qr_scan", "android": "https://dc.lft.to/lastmile_qr_scan"}, "is_reserved": 0, "fusion_lon": 0.0, "fusion_lat": 0.0, "lon": -77.1252835, "name": "79f5af2c7fafc03d0248df955483aaec"}, {"bike_id": "6214fb29b062ed08d9ea1e9ec9f68127", "type": "electric_scooter", "is_disabled": 0, "lat": 38.907576666666664, "rental_uris": {"ios": "https://dc.lft.to/lastmile_qr_scan", "android": "https://dc.lft.to/lastmile_qr_scan"}, "is_reserved": 0, "fusion_lon": 0.0, "fusion_lat": 0.0, "lon": -77.008824, "name": "6214fb29b062ed08d9ea1e9ec9f68127"}, {"bike_id": "ffc3e3ff4d20a43b3998c726d99341d8", "type": "electric_scooter", "is_disabled": 0, "lat": 38.88821216666667, "rental_uris": {"ios": "https://dc.lft.to/lastmile_qr_scan", "android": "https://dc.lft.to/lastmile_qr_scan"}, "is_reserved": 0, "fusion_lon": 0.0, "fusion_lat": 0.0, "lon": -76.99151583333334, "name": "ffc3e3ff4d20a43b3998c726d99341d8"}, {"bike_id": "5fc2ee51180f17280bdd7be1fa41005b", "type": "electric_scooter", "is_disabled": 0, "lat": 38.90864066666666, "rental_uris": {"ios": "https://dc.lft.to/lastmile_qr_scan", "android": "https://dc.lft.to/lastmile_qr_scan"}, "is_reserved": 0, "fusion_lon": 0.0, "fusion_lat": 0.0, "lon": -77.02676833333334, "name": "5fc2ee51180f17280bdd7be1fa41005b"}, {"bike_id": "392b7f853efd2899f09f74511a803bdc", "type": "electric_scooter", "is_disabled": 0, "lat": 38.876960833333335, "rental_uris": {"ios": "https://dc.lft.to/lastmile_qr_scan", "android": "https://dc.lft.to/lastmile_qr_scan"}, "is_reserved": 0, "fusion_lon": 0.0, "fusion_lat": 0.0, "lon": -76.93127683333333, "name": "392b7f853efd2899f09f74511a803bdc"}, {"bike_id": "51028d976a00f75fa45af794ad89d456", "type": "electric_scooter", "is_disabled": 0, "lat": 38.86023866666667, "rental_uris": {"ios": "https://dc.lft.to/lastmile_qr_scan", "android": "https://dc.lft.to/lastmile_qr_scan"}, "is_reserved": 0, "fusion_lon": 0.0, "fusion_lat": 0.0, "lon": -76.99683983333334, "name": "51028d976a00f75fa45af794ad89d456"}, {"bike_id": "a1338ffb205a735a37530911b0b623a5", "type": "electric_scooter", "is_disabled": 0, "lat": 38.91884233333333, "rental_uris": {"ios": "https://dc.lft.to/lastmile_qr_scan", "android": "https://dc.lft.to/lastmile_qr_scan"}, "is_reserved": 0, "fusion_lon": 0.0, "fusion_lat": 0.0, "lon": -77.04829233333334, "name": "a1338ffb205a735a37530911b0b623a5"}, {"bike_id": "c835832413dc65f5ac10826faad7c547", "type": "electric_scooter", "is_disabled": 0, "lat": 38.95027433333333, "rental_uris": {"ios": "https://dc.lft.to/lastmile_qr_scan", "android": "https://dc.lft.to/lastmile_qr_scan"}, "is_reserved": 0, "fusion_lon": 0.0, "fusion_lat": 0.0, "lon": -77.02726283333334, "name": "c835832413dc65f5ac10826faad7c547"}, {"bike_id": "e97019923355d543f7b8c22293c240e5", "type": "electric_scooter", "is_disabled": 0, "lat": 38.918090166666666, "rental_uris": {"ios": "https://dc.lft.to/lastmile_qr_scan", "android": "https://dc.lft.to/lastmile_qr_scan"}, "is_reserved": 0, "fusion_lon": 0.0, "fusion_lat": 0.0, "lon": -77.03452316666667, "name": "e97019923355d543f7b8c22293c240e5"}, {"bike_id": "e9ba252081a0f4a27cce01d42c934298", "type": "electric_scooter", "is_disabled": 0, "lat": 38.909687, "rental_uris": {"ios": "https://dc.lft.to/lastmile_qr_scan", "android": "https://dc.lft.to/lastmile_qr_scan"}, "is_reserved": 0, "fusion_lon": 0.0, "fusion_lat": 0.0, "lon": -77.02695083333333, "name": "e9ba252081a0f4a27cce01d42c934298"}, {"bike_id": "6902d89f1b87a1822c4a9c8c4fb2630b", "type": "electric_scooter", "is_disabled": 0, "lat": 38.87698783333333, "rental_uris": {"ios": "https://dc.lft.to/lastmile_qr_scan", "android": "https://dc.lft.to/lastmile_qr_scan"}, "is_reserved": 0, "fusion_lon": 0.0, "fusion_lat": 0.0, "lon": -77.01764766666666, "name": "6902d89f1b87a1822c4a9c8c4fb2630b"}, {"bike_id": "453addd1e012f1008b00cdd55797f91e", "type": "electric_scooter", "is_disabled": 0, "lat": 38.911228, "rental_uris": {"ios": "https://dc.lft.to/lastmile_qr_scan", "android": "https://dc.lft.to/lastmile_qr_scan"}, "is_reserved": 0, "fusion_lon": 0.0, "fusion_lat": 0.0, "lon": -77.04222316666667, "name": "453addd1e012f1008b00cdd55797f91e"}, {"bike_id": "77c914dad5bd9e089695c3f4f7e5009e", "type": "electric_scooter", "is_disabled": 0, "lat": 38.926238, "rental_uris": {"ios": "https://dc.lft.to/lastmile_qr_scan", "android": "https://dc.lft.to/lastmile_qr_scan"}, "is_reserved": 0, "fusion_lon": 0.0, "fusion_lat": 0.0, "lon": -77.03706983333333, "name": "77c914dad5bd9e089695c3f4f7e5009e"}, {"bike_id": "6094f97b1db9f1912c942b05e5af0dc9", "type": "electric_scooter", "is_disabled": 0, "lat": 38.89221083333333, "rental_uris": {"ios": "https://dc.lft.to/lastmile_qr_scan", "android": "https://dc.lft.to/lastmile_qr_scan"}, "is_reserved": 0, "fusion_lon": 0.0, "fusion_lat": 0.0, "lon": -77.04309133333334, "name": "6094f97b1db9f1912c942b05e5af0dc9"}, {"bike_id": "d20929db1ae77758f965274afa13b3d9", "type": "electric_scooter", "is_disabled": 0, "lat": 38.92060216666667, "rental_uris": {"ios": "https://dc.lft.to/lastmile_qr_scan", "android": "https://dc.lft.to/lastmile_qr_scan"}, "is_reserved": 0, "fusion_lon": 0.0, "fusion_lat": 0.0, "lon": -77.04254316666666, "name": "d20929db1ae77758f965274afa13b3d9"}, {"bike_id": "c92f79a5b991dbbd53e5f04d769d3e64", "type": "electric_scooter", "is_disabled": 0, "lat": 38.898392333333334, "rental_uris": {"ios": "https://dc.lft.to/lastmile_qr_scan", "android": "https://dc.lft.to/lastmile_qr_scan"}, "is_reserved": 0, "fusion_lon": 0.0, "fusion_lat": 0.0, "lon": -77.02193866666667, "name": "c92f79a5b991dbbd53e5f04d769d3e64"}, {"bike_id": "cd537d45fc69a6bd195332097c4474b4", "type": "electric_bike", "is_disabled": 0, "lat": 38.879816, "rental_uris": {"ios": "https://dc.lft.to/lastmile_qr_scan", "android": "https://dc.lft.to/lastmile_qr_scan"}, "is_reserved": 0, "fusion_lon": 0.0, "fusion_lat": 0.0, "lon": -76.91597233333333, "name": "cd537d45fc69a6bd195332097c4474b4"}, {"bike_id": "10b16d72591ea2288a0d2203225f8268", "type": "electric_scooter", "is_disabled": 0, "lat": 38.888587666666666, "rental_uris": {"ios": "https://dc.lft.to/lastmile_qr_scan", "android": "https://dc.lft.to/lastmile_qr_scan"}, "is_reserved": 0, "fusion_lon": 0.0, "fusion_lat": 0.0, "lon": -77.000473, "name": "10b16d72591ea2288a0d2203225f8268"}, {"bike_id": "cdd5904e70cc97f887cc453a8acb5eed", "type": "electric_scooter", "is_disabled": 0, "lat": 38.89790383333333, "rental_uris": {"ios": "https://dc.lft.to/lastmile_qr_scan", "android": "https://dc.lft.to/lastmile_qr_scan"}, "is_reserved": 0, "fusion_lon": 0.0, "fusion_lat": 0.0, "lon": -77.05024316666666, "name": "cdd5904e70cc97f887cc453a8acb5eed"}, {"bike_id": "d3bd2fe67957b9586d6660dcc8e5ac53", "type": "electric_bike", "is_disabled": 0, "lat": 38.930958, "rental_uris": {"ios": "https://dc.lft.to/lastmile_qr_scan", "android": "https://dc.lft.to/lastmile_qr_scan"}, "is_reserved": 0, "fusion_lon": 0.0, "fusion_lat": 0.0, "lon": -77.02419766666667, "name": "d3bd2fe67957b9586d6660dcc8e5ac53"}, {"bike_id": "ac0571699265aef00af9bc64537c86f7", "type": "electric_bike", "is_disabled": 0, "lat": 38.929632833333336, "rental_uris": {"ios": "https://dc.lft.to/lastmile_qr_scan", "android": "https://dc.lft.to/lastmile_qr_scan"}, "is_reserved": 0, "fusion_lon": 0.0, "fusion_lat": 0.0, "lon": -77.1856295, "name": "ac0571699265aef00af9bc64537c86f7"}, {"bike_id": "6fb9b3454454e817b9ed864e43fb14e8", "type": "electric_bike", "is_disabled": 0, "lat": 38.861549, "rental_uris": {"ios": "https://dc.lft.to/lastmile_qr_scan", "android": "https://dc.lft.to/lastmile_qr_scan"}, "is_reserved": 0, "fusion_lon": 0.0, "fusion_lat": 0.0, "lon": -77.09148866666666, "name": "6fb9b3454454e817b9ed864e43fb14e8"}, {"bike_id": "a85a78eb781209725076e9d9776d768a", "type": "electric_scooter", "is_disabled": 0, "lat": 38.933883333333334, "rental_uris": {"ios": "https://dc.lft.to/lastmile_qr_scan", "android": "https://dc.lft.to/lastmile_qr_scan"}, "is_reserved": 0, "fusion_lon": 0.0, "fusion_lat": 0.0, "lon": -77.05741866666666, "name": "a85a78eb781209725076e9d9776d768a"}, {"bike_id": "180f4fc56ff76856ad7c483523f5fff3", "type": "electric_scooter", "is_disabled": 0, "lat": 38.93220866666667, "rental_uris": {"ios": "https://dc.lft.to/lastmile_qr_scan", "android": "https://dc.lft.to/lastmile_qr_scan"}, "is_reserved": 0, "fusion_lon": 0.0, "fusion_lat": 0.0, "lon": -77.038752, "name": "180f4fc56ff76856ad7c483523f5fff3"}, {"bike_id": "fb999b79f8a36013e433782f9a2608d2", "type": "electric_scooter", "is_disabled": 0, "lat": 38.902835, "rental_uris": {"ios": "https://dc.lft.to/lastmile_qr_scan", "android": "https://dc.lft.to/lastmile_qr_scan"}, "is_reserved": 0, "fusion_lon": 0.0, "fusion_lat": 0.0, "lon": -77.05810983333333, "name": "fb999b79f8a36013e433782f9a2608d2"}, {"bike_id": "48be98b33f08b1bb691b6972ec886d90", "type": "electric_scooter", "is_disabled": 0, "lat": 38.91805266666667, "rental_uris": {"ios": "https://dc.lft.to/lastmile_qr_scan", "android": "https://dc.lft.to/lastmile_qr_scan"}, "is_reserved": 0, "fusion_lon": 0.0, "fusion_lat": 0.0, "lon": -77.0454495, "name": "48be98b33f08b1bb691b6972ec886d90"}, {"bike_id": "ef136beb0f3c1ae5c883b1db52ca4a20", "type": "electric_scooter", "is_disabled": 0, "lat": 38.893238, "rental_uris": {"ios": "https://dc.lft.to/lastmile_qr_scan", "android": "https://dc.lft.to/lastmile_qr_scan"}, "is_reserved": 0, "fusion_lon": 0.0, "fusion_lat": 0.0, "lon": -77.0467415, "name": "ef136beb0f3c1ae5c883b1db52ca4a20"}, {"bike_id": "a9546aab387a8be0515820d2c0dcb97b", "type": "electric_scooter", "is_disabled": 0, "lat": 38.89843533333333, "rental_uris": {"ios": "https://dc.lft.to/lastmile_qr_scan", "android": "https://dc.lft.to/lastmile_qr_scan"}, "is_reserved": 0, "fusion_lon": 0.0, "fusion_lat": 0.0, "lon": -76.94630516666666, "name": "a9546aab387a8be0515820d2c0dcb97b"}, {"bike_id": "38935f41179fbfcb9961ce20e4b37426", "type": "electric_scooter", "is_disabled": 0, "lat": 38.89241166666667, "rental_uris": {"ios": "https://dc.lft.to/lastmile_qr_scan", "android": "https://dc.lft.to/lastmile_qr_scan"}, "is_reserved": 0, "fusion_lon": 0.0, "fusion_lat": 0.0, "lon": -77.03958416666667, "name": "38935f41179fbfcb9961ce20e4b37426"}, {"bike_id": "2faf6078e2dcddc9eb05c3e3065b06cc", "type": "electric_scooter", "is_disabled": 0, "lat": 38.8899415, "rental_uris": {"ios": "https://dc.lft.to/lastmile_qr_scan", "android": "https://dc.lft.to/lastmile_qr_scan"}, "is_reserved": 0, "fusion_lon": 0.0, "fusion_lat": 0.0, "lon": -77.002096, "name": "2faf6078e2dcddc9eb05c3e3065b06cc"}, {"bike_id": "582f94d39d5c6bc8c0c3fe6b04714955", "type": "electric_scooter", "is_disabled": 0, "lat": 38.936257166666664, "rental_uris": {"ios": "https://dc.lft.to/lastmile_qr_scan", "android": "https://dc.lft.to/lastmile_qr_scan"}, "is_reserved": 0, "fusion_lon": 0.0, "fusion_lat": 0.0, "lon": -77.02458566666667, "name": "582f94d39d5c6bc8c0c3fe6b04714955"}, {"bike_id": "3295b94f14f61ba2f48f820fb56e8852", "type": "electric_scooter", "is_disabled": 0, "lat": 38.883000333333335, "rental_uris": {"ios": "https://dc.lft.to/lastmile_qr_scan", "android": "https://dc.lft.to/lastmile_qr_scan"}, "is_reserved": 0, "fusion_lon": 0.0, "fusion_lat": 0.0, "lon": -76.9420635, "name": "3295b94f14f61ba2f48f820fb56e8852"}, {"bike_id": "cafe2419ceed397f4f76a0fbfed65340", "type": "electric_scooter", "is_disabled": 0, "lat": 38.9025965, "rental_uris": {"ios": "https://dc.lft.to/lastmile_qr_scan", "android": "https://dc.lft.to/lastmile_qr_scan"}, "is_reserved": 0, "fusion_lon": 0.0, "fusion_lat": 0.0, "lon": -77.0182835, "name": "cafe2419ceed397f4f76a0fbfed65340"}, {"bike_id": "850d47202c99b0360a4c2fefce55fb02", "type": "electric_scooter", "is_disabled": 0, "lat": 38.923212, "rental_uris": {"ios": "https://dc.lft.to/lastmile_qr_scan", "android": "https://dc.lft.to/lastmile_qr_scan"}, "is_reserved": 0, "fusion_lon": 0.0, "fusion_lat": 0.0, "lon": -77.02965933333333, "name": "850d47202c99b0360a4c2fefce55fb02"}, {"bike_id": "42de32a2d5e8cc039dadf0feccf2c4c0", "type": "electric_scooter", "is_disabled": 0, "lat": 38.921467166666666, "rental_uris": {"ios": "https://dc.lft.to/lastmile_qr_scan", "android": "https://dc.lft.to/lastmile_qr_scan"}, "is_reserved": 0, "fusion_lon": 0.0, "fusion_lat": 0.0, "lon": -77.03441783333334, "name": "42de32a2d5e8cc039dadf0feccf2c4c0"}, {"bike_id": "a844f98e7bb6c2168bc487dda260fa8a", "type": "electric_scooter", "is_disabled": 0, "lat": 38.91595216666666, "rental_uris": {"ios": "https://dc.lft.to/lastmile_qr_scan", "android": "https://dc.lft.to/lastmile_qr_scan"}, "is_reserved": 0, "fusion_lon": 0.0, "fusion_lat": 0.0, "lon": -77.00197266666666, "name": "a844f98e7bb6c2168bc487dda260fa8a"}, {"bike_id": "32c9f1fd36c245cfd1a08259a0274336", "type": "electric_scooter", "is_disabled": 0, "lat": 38.93883316666667, "rental_uris": {"ios": "https://dc.lft.to/lastmile_qr_scan", "android": "https://dc.lft.to/lastmile_qr_scan"}, "is_reserved": 0, "fusion_lon": 0.0, "fusion_lat": 0.0, "lon": -77.02476633333333, "name": "32c9f1fd36c245cfd1a08259a0274336"}, {"bike_id": "2e006fbb71d4177888456ead3b5b419f", "type": "electric_scooter", "is_disabled": 0, "lat": 38.915555833333336, "rental_uris": {"ios": "https://dc.lft.to/lastmile_qr_scan", "android": "https://dc.lft.to/lastmile_qr_scan"}, "is_reserved": 0, "fusion_lon": 0.0, "fusion_lat": 0.0, "lon": -77.033235, "name": "2e006fbb71d4177888456ead3b5b419f"}, {"bike_id": "ba264ecaf0bc0de54facef3fd4289003", "type": "electric_scooter", "is_disabled": 0, "lat": 38.89221466666667, "rental_uris": {"ios": "https://dc.lft.to/lastmile_qr_scan", "android": "https://dc.lft.to/lastmile_qr_scan"}, "is_reserved": 0, "fusion_lon": 0.0, "fusion_lat": 0.0, "lon": -77.043672, "name": "ba264ecaf0bc0de54facef3fd4289003"}, {"bike_id": "389632650ca075289598b86971a33a2c", "type": "electric_scooter", "is_disabled": 0, "lat": 38.965547, "rental_uris": {"ios": "https://dc.lft.to/lastmile_qr_scan", "android": "https://dc.lft.to/lastmile_qr_scan"}, "is_reserved": 0, "fusion_lon": 0.0, "fusion_lat": 0.0, "lon": -77.00205133333333, "name": "389632650ca075289598b86971a33a2c"}, {"bike_id": "f3a373fe6eb2b6a2aa0a7c5deb6feeda", "type": "electric_scooter", "is_disabled": 0, "lat": 38.93610533333333, "rental_uris": {"ios": "https://dc.lft.to/lastmile_qr_scan", "android": "https://dc.lft.to/lastmile_qr_scan"}, "is_reserved": 0, "fusion_lon": 0.0, "fusion_lat": 0.0, "lon": -77.05903466666666, "name": "f3a373fe6eb2b6a2aa0a7c5deb6feeda"}, {"bike_id": "e3f90ef32a18ceb671b0de8a239145cf", "type": "electric_scooter", "is_disabled": 0, "lat": 38.88747566666667, "rental_uris": {"ios": "https://dc.lft.to/lastmile_qr_scan", "android": "https://dc.lft.to/lastmile_qr_scan"}, "is_reserved": 0, "fusion_lon": 0.0, "fusion_lat": 0.0, "lon": -77.025686, "name": "e3f90ef32a18ceb671b0de8a239145cf"}, {"bike_id": "b71a3c12af9fccbd6018327b1177adef", "type": "electric_scooter", "is_disabled": 0, "lat": 38.92601416666667, "rental_uris": {"ios": "https://dc.lft.to/lastmile_qr_scan", "android": "https://dc.lft.to/lastmile_qr_scan"}, "is_reserved": 0, "fusion_lon": 0.0, "fusion_lat": 0.0, "lon": -77.021568, "name": "b71a3c12af9fccbd6018327b1177adef"}, {"bike_id": "45aa170212f680c5ce9a778c7d43b733", "type": "electric_scooter", "is_disabled": 0, "lat": 38.92463266666667, "rental_uris": {"ios": "https://dc.lft.to/lastmile_qr_scan", "android": "https://dc.lft.to/lastmile_qr_scan"}, "is_reserved": 0, "fusion_lon": 0.0, "fusion_lat": 0.0, "lon": -77.03795966666667, "name": "45aa170212f680c5ce9a778c7d43b733"}, {"bike_id": "b4a60a3c7e7fc854dfc1133bf0f8ff99", "type": "electric_scooter", "is_disabled": 0, "lat": 38.932408333333335, "rental_uris": {"ios": "https://dc.lft.to/lastmile_qr_scan", "android": "https://dc.lft.to/lastmile_qr_scan"}, "is_reserved": 0, "fusion_lon": 0.0, "fusion_lat": 0.0, "lon": -77.03264416666667, "name": "b4a60a3c7e7fc854dfc1133bf0f8ff99"}, {"bike_id": "41c86afddedd651dd5e9e9c5858e8103", "type": "electric_scooter", "is_disabled": 0, "lat": 38.9097115, "rental_uris": {"ios": "https://dc.lft.to/lastmile_qr_scan", "android": "https://dc.lft.to/lastmile_qr_scan"}, "is_reserved": 0, "fusion_lon": 0.0, "fusion_lat": 0.0, "lon": -77.017218, "name": "41c86afddedd651dd5e9e9c5858e8103"}, {"bike_id": "3f6a6afb0e6c28d08c5d149b46e86268", "type": "electric_scooter", "is_disabled": 0, "lat": 38.914122166666665, "rental_uris": {"ios": "https://dc.lft.to/lastmile_qr_scan", "android": "https://dc.lft.to/lastmile_qr_scan"}, "is_reserved": 0, "fusion_lon": 0.0, "fusion_lat": 0.0, "lon": -77.03995183333333, "name": "3f6a6afb0e6c28d08c5d149b46e86268"}, {"bike_id": "fc35020b3490e1018fdbe87b9f1a3801", "type": "electric_scooter", "is_disabled": 0, "lat": 38.91986816666667, "rental_uris": {"ios": "https://dc.lft.to/lastmile_qr_scan", "android": "https://dc.lft.to/lastmile_qr_scan"}, "is_reserved": 0, "fusion_lon": 0.0, "fusion_lat": 0.0, "lon": -77.03968083333334, "name": "fc35020b3490e1018fdbe87b9f1a3801"}, {"bike_id": "ec9c92b32e9b7bea1b9bac251e592668", "type": "electric_scooter", "is_disabled": 0, "lat": 38.9105255, "rental_uris": {"ios": "https://dc.lft.to/lastmile_qr_scan", "android": "https://dc.lft.to/lastmile_qr_scan"}, "is_reserved": 0, "fusion_lon": 0.0, "fusion_lat": 0.0, "lon": -77.02213033333334, "name": "ec9c92b32e9b7bea1b9bac251e592668"}, {"bike_id": "103c61be9ca0f0261d1a486f436d4ba3", "type": "electric_scooter", "is_disabled": 0, "lat": 38.9284765, "rental_uris": {"ios": "https://dc.lft.to/lastmile_qr_scan", "android": "https://dc.lft.to/lastmile_qr_scan"}, "is_reserved": 0, "fusion_lon": 0.0, "fusion_lat": 0.0, "lon": -77.013985, "name": "103c61be9ca0f0261d1a486f436d4ba3"}, {"bike_id": "7ae46a4dde9b56110ef9c4474cb39b83", "type": "electric_scooter", "is_disabled": 0, "lat": 38.915565666666666, "rental_uris": {"ios": "https://dc.lft.to/lastmile_qr_scan", "android": "https://dc.lft.to/lastmile_qr_scan"}, "is_reserved": 0, "fusion_lon": 0.0, "fusion_lat": 0.0, "lon": -77.03342533333333, "name": "7ae46a4dde9b56110ef9c4474cb39b83"}, {"bike_id": "ddb8837a4978a4cada3abdccce82b31c", "type": "electric_scooter", "is_disabled": 0, "lat": 38.876468333333335, "rental_uris": {"ios": "https://dc.lft.to/lastmile_qr_scan", "android": "https://dc.lft.to/lastmile_qr_scan"}, "is_reserved": 0, "fusion_lon": 0.0, "fusion_lat": 0.0, "lon": -76.96507716666666, "name": "ddb8837a4978a4cada3abdccce82b31c"}, {"bike_id": "3705915879c800537dd55dc8384d7325", "type": "electric_scooter", "is_disabled": 0, "lat": 38.92863166666667, "rental_uris": {"ios": "https://dc.lft.to/lastmile_qr_scan", "android": "https://dc.lft.to/lastmile_qr_scan"}, "is_reserved": 0, "fusion_lon": 0.0, "fusion_lat": 0.0, "lon": -77.01384516666667, "name": "3705915879c800537dd55dc8384d7325"}, {"bike_id": "a8b6e3c5c07126dbe5c0dbece53f22ca", "type": "electric_scooter", "is_disabled": 0, "lat": 38.90234866666667, "rental_uris": {"ios": "https://dc.lft.to/lastmile_qr_scan", "android": "https://dc.lft.to/lastmile_qr_scan"}, "is_reserved": 0, "fusion_lon": 0.0, "fusion_lat": 0.0, "lon": -77.00208733333334, "name": "a8b6e3c5c07126dbe5c0dbece53f22ca"}, {"bike_id": "5eb23f74b90ace8c94ce0349a4fde10f", "type": "electric_scooter", "is_disabled": 0, "lat": 38.880291166666666, "rental_uris": {"ios": "https://dc.lft.to/lastmile_qr_scan", "android": "https://dc.lft.to/lastmile_qr_scan"}, "is_reserved": 0, "fusion_lon": 0.0, "fusion_lat": 0.0, "lon": -77.01007783333333, "name": "5eb23f74b90ace8c94ce0349a4fde10f"}, {"bike_id": "360134cca93de2148cd239471c357fd3", "type": "electric_scooter", "is_disabled": 0, "lat": 38.9055565, "rental_uris": {"ios": "https://dc.lft.to/lastmile_qr_scan", "android": "https://dc.lft.to/lastmile_qr_scan"}, "is_reserved": 0, "fusion_lon": 0.0, "fusion_lat": 0.0, "lon": -77.02722983333334, "name": "360134cca93de2148cd239471c357fd3"}, {"bike_id": "9cea984409745bfb3a5b3bf427ac063f", "type": "electric_scooter", "is_disabled": 0, "lat": 38.9138645, "rental_uris": {"ios": "https://dc.lft.to/lastmile_qr_scan", "android": "https://dc.lft.to/lastmile_qr_scan"}, "is_reserved": 0, "fusion_lon": 0.0, "fusion_lat": 0.0, "lon": -77.01703516666667, "name": "9cea984409745bfb3a5b3bf427ac063f"}, {"bike_id": "c7903cd19d8a58170bfb863ccd076c76", "type": "electric_scooter", "is_disabled": 0, "lat": 38.92740716666667, "rental_uris": {"ios": "https://dc.lft.to/lastmile_qr_scan", "android": "https://dc.lft.to/lastmile_qr_scan"}, "is_reserved": 0, "fusion_lon": 0.0, "fusion_lat": 0.0, "lon": -77.03423566666666, "name": "c7903cd19d8a58170bfb863ccd076c76"}, {"bike_id": "6ce9ea460d125badff137d21f4e2d25c", "type": "electric_bike", "is_disabled": 0, "lat": 38.90875283333333, "rental_uris": {"ios": "https://dc.lft.to/lastmile_qr_scan", "android": "https://dc.lft.to/lastmile_qr_scan"}, "is_reserved": 0, "fusion_lon": 0.0, "fusion_lat": 0.0, "lon": -76.991275, "name": "6ce9ea460d125badff137d21f4e2d25c"}, {"bike_id": "b03a4ed2f414b1d8d41c5745bcf74c64", "type": "electric_scooter", "is_disabled": 0, "lat": 38.866985666666665, "rental_uris": {"ios": "https://dc.lft.to/lastmile_qr_scan", "android": "https://dc.lft.to/lastmile_qr_scan"}, "is_reserved": 0, "fusion_lon": 0.0, "fusion_lat": 0.0, "lon": -76.98710666666666, "name": "b03a4ed2f414b1d8d41c5745bcf74c64"}, {"bike_id": "b572746bcd1549989c0656f484a985e0", "type": "electric_scooter", "is_disabled": 0, "lat": 38.92237033333333, "rental_uris": {"ios": "https://dc.lft.to/lastmile_qr_scan", "android": "https://dc.lft.to/lastmile_qr_scan"}, "is_reserved": 0, "fusion_lon": 0.0, "fusion_lat": 0.0, "lon": -77.04269583333334, "name": "b572746bcd1549989c0656f484a985e0"}, {"bike_id": "4658964e65f65ab9ae5c3d63d9c33b0e", "type": "electric_scooter", "is_disabled": 0, "lat": 38.9126725, "rental_uris": {"ios": "https://dc.lft.to/lastmile_qr_scan", "android": "https://dc.lft.to/lastmile_qr_scan"}, "is_reserved": 0, "fusion_lon": 0.0, "fusion_lat": 0.0, "lon": -77.0449385, "name": "4658964e65f65ab9ae5c3d63d9c33b0e"}, {"bike_id": "daaa0985d134d01752ca331d3f06997a", "type": "electric_scooter", "is_disabled": 0, "lat": 38.909971, "rental_uris": {"ios": "https://dc.lft.to/lastmile_qr_scan", "android": "https://dc.lft.to/lastmile_qr_scan"}, "is_reserved": 0, "fusion_lon": 0.0, "fusion_lat": 0.0, "lon": -77.03193583333334, "name": "daaa0985d134d01752ca331d3f06997a"}, {"bike_id": "89d03000b5199efbd5533e73b8ad9a27", "type": "electric_scooter", "is_disabled": 0, "lat": 38.866978833333334, "rental_uris": {"ios": "https://dc.lft.to/lastmile_qr_scan", "android": "https://dc.lft.to/lastmile_qr_scan"}, "is_reserved": 0, "fusion_lon": 0.0, "fusion_lat": 0.0, "lon": -76.98711816666666, "name": "89d03000b5199efbd5533e73b8ad9a27"}, {"bike_id": "e4b360d0aeab77aecd950712ea897b49", "type": "electric_scooter", "is_disabled": 0, "lat": 38.903031166666665, "rental_uris": {"ios": "https://dc.lft.to/lastmile_qr_scan", "android": "https://dc.lft.to/lastmile_qr_scan"}, "is_reserved": 0, "fusion_lon": 0.0, "fusion_lat": 0.0, "lon": -77.0336355, "name": "e4b360d0aeab77aecd950712ea897b49"}, {"bike_id": "3d52122a9e46183999bd1831013217b9", "type": "electric_bike", "is_disabled": 0, "lat": 38.97855466666667, "rental_uris": {"ios": "https://dc.lft.to/lastmile_qr_scan", "android": "https://dc.lft.to/lastmile_qr_scan"}, "is_reserved": 0, "fusion_lon": 0.0, "fusion_lat": 0.0, "lon": -76.94044816666667, "name": "3d52122a9e46183999bd1831013217b9"}, {"bike_id": "f65b877e6e88852a3d65a41eb545042a", "type": "electric_scooter", "is_disabled": 0, "lat": 38.878730166666664, "rental_uris": {"ios": "https://dc.lft.to/lastmile_qr_scan", "android": "https://dc.lft.to/lastmile_qr_scan"}, "is_reserved": 0, "fusion_lon": 0.0, "fusion_lat": 0.0, "lon": -77.01916116666666, "name": "f65b877e6e88852a3d65a41eb545042a"}, {"bike_id": "10f9cce5878a70d1940d05c1fcc2d715", "type": "electric_scooter", "is_disabled": 0, "lat": 38.89863916666667, "rental_uris": {"ios": "https://dc.lft.to/lastmile_qr_scan", "android": "https://dc.lft.to/lastmile_qr_scan"}, "is_reserved": 0, "fusion_lon": 0.0, "fusion_lat": 0.0, "lon": -76.946367, "name": "10f9cce5878a70d1940d05c1fcc2d715"}, {"bike_id": "3ff43583e3a6fc188f5ddcdedb4da682", "type": "electric_scooter", "is_disabled": 0, "lat": 38.930773333333335, "rental_uris": {"ios": "https://dc.lft.to/lastmile_qr_scan", "android": "https://dc.lft.to/lastmile_qr_scan"}, "is_reserved": 0, "fusion_lon": 0.0, "fusion_lat": 0.0, "lon": -77.02794783333333, "name": "3ff43583e3a6fc188f5ddcdedb4da682"}, {"bike_id": "51122e35741a5e88dc89ecdaa6c92394", "type": "electric_scooter", "is_disabled": 0, "lat": 38.892178, "rental_uris": {"ios": "https://dc.lft.to/lastmile_qr_scan", "android": "https://dc.lft.to/lastmile_qr_scan"}, "is_reserved": 0, "fusion_lon": 0.0, "fusion_lat": 0.0, "lon": -77.02260016666666, "name": "51122e35741a5e88dc89ecdaa6c92394"}, {"bike_id": "c3ad2fcbfcda75e8c335633a2ee250df", "type": "electric_scooter", "is_disabled": 0, "lat": 38.9282055, "rental_uris": {"ios": "https://dc.lft.to/lastmile_qr_scan", "android": "https://dc.lft.to/lastmile_qr_scan"}, "is_reserved": 0, "fusion_lon": 0.0, "fusion_lat": 0.0, "lon": -77.02257633333333, "name": "c3ad2fcbfcda75e8c335633a2ee250df"}, {"bike_id": "c15f807d25481891b9150280a5b7b13c", "type": "electric_bike", "is_disabled": 0, "lat": 38.947343000000004, "rental_uris": {"ios": "https://dc.lft.to/lastmile_qr_scan", "android": "https://dc.lft.to/lastmile_qr_scan"}, "is_reserved": 0, "fusion_lon": 0.0, "fusion_lat": 0.0, "lon": -76.9958325, "name": "c15f807d25481891b9150280a5b7b13c"}, {"bike_id": "de9b659728ab2840e5e9cfb467f32096", "type": "electric_scooter", "is_disabled": 0, "lat": 38.90405333333333, "rental_uris": {"ios": "https://dc.lft.to/lastmile_qr_scan", "android": "https://dc.lft.to/lastmile_qr_scan"}, "is_reserved": 0, "fusion_lon": 0.0, "fusion_lat": 0.0, "lon": -76.97330683333334, "name": "de9b659728ab2840e5e9cfb467f32096"}, {"bike_id": "2e89ba94317d0b8bb7ed5104ebc16cf8", "type": "electric_scooter", "is_disabled": 0, "lat": 38.866538166666665, "rental_uris": {"ios": "https://dc.lft.to/lastmile_qr_scan", "android": "https://dc.lft.to/lastmile_qr_scan"}, "is_reserved": 0, "fusion_lon": 0.0, "fusion_lat": 0.0, "lon": -76.98864, "name": "2e89ba94317d0b8bb7ed5104ebc16cf8"}, {"bike_id": "7caf2b1425b2a55d8d0ce54e473c1f76", "type": "electric_scooter", "is_disabled": 0, "lat": 38.926085, "rental_uris": {"ios": "https://dc.lft.to/lastmile_qr_scan", "android": "https://dc.lft.to/lastmile_qr_scan"}, "is_reserved": 0, "fusion_lon": 0.0, "fusion_lat": 0.0, "lon": -77.02160233333333, "name": "7caf2b1425b2a55d8d0ce54e473c1f76"}, {"bike_id": "c8150b022968efb629d54712f50be033", "type": "electric_scooter", "is_disabled": 0, "lat": 38.9048735, "rental_uris": {"ios": "https://dc.lft.to/lastmile_qr_scan", "android": "https://dc.lft.to/lastmile_qr_scan"}, "is_reserved": 0, "fusion_lon": 0.0, "fusion_lat": 0.0, "lon": -77.04881533333334, "name": "c8150b022968efb629d54712f50be033"}, {"bike_id": "ae4970621af03f8b3034081fbe4060e2", "type": "electric_scooter", "is_disabled": 0, "lat": 38.903605666666664, "rental_uris": {"ios": "https://dc.lft.to/lastmile_qr_scan", "android": "https://dc.lft.to/lastmile_qr_scan"}, "is_reserved": 0, "fusion_lon": 0.0, "fusion_lat": 0.0, "lon": -77.02195766666667, "name": "ae4970621af03f8b3034081fbe4060e2"}, {"bike_id": "2a6ba0a411a8353d8048da103bc7bbc9", "type": "electric_scooter", "is_disabled": 0, "lat": 38.916941666666666, "rental_uris": {"ios": "https://dc.lft.to/lastmile_qr_scan", "android": "https://dc.lft.to/lastmile_qr_scan"}, "is_reserved": 0, "fusion_lon": 0.0, "fusion_lat": 0.0, "lon": -77.03148233333333, "name": "2a6ba0a411a8353d8048da103bc7bbc9"}, {"bike_id": "0a042df5db2e866de61f616c89e2cd6c", "type": "electric_scooter", "is_disabled": 0, "lat": 38.91502716666667, "rental_uris": {"ios": "https://dc.lft.to/lastmile_qr_scan", "android": "https://dc.lft.to/lastmile_qr_scan"}, "is_reserved": 0, "fusion_lon": 0.0, "fusion_lat": 0.0, "lon": -77.0177425, "name": "0a042df5db2e866de61f616c89e2cd6c"}, {"bike_id": "10a7470689247262b746dbff96629701", "type": "electric_scooter", "is_disabled": 0, "lat": 38.91268133333333, "rental_uris": {"ios": "https://dc.lft.to/lastmile_qr_scan", "android": "https://dc.lft.to/lastmile_qr_scan"}, "is_reserved": 0, "fusion_lon": 0.0, "fusion_lat": 0.0, "lon": -77.0221535, "name": "10a7470689247262b746dbff96629701"}, {"bike_id": "2456e1809c79fbad64752b6b50a47d76", "type": "electric_scooter", "is_disabled": 0, "lat": 38.921592833333335, "rental_uris": {"ios": "https://dc.lft.to/lastmile_qr_scan", "android": "https://dc.lft.to/lastmile_qr_scan"}, "is_reserved": 0, "fusion_lon": 0.0, "fusion_lat": 0.0, "lon": -77.03350083333333, "name": "2456e1809c79fbad64752b6b50a47d76"}, {"bike_id": "efb87fe5061d892d94459b4f5249a381", "type": "electric_scooter", "is_disabled": 0, "lat": 38.9022445, "rental_uris": {"ios": "https://dc.lft.to/lastmile_qr_scan", "android": "https://dc.lft.to/lastmile_qr_scan"}, "is_reserved": 0, "fusion_lon": 0.0, "fusion_lat": 0.0, "lon": -77.03168966666667, "name": "efb87fe5061d892d94459b4f5249a381"}, {"bike_id": "cd58fe749e20eb2ac7ce12e1e5de245c", "type": "electric_scooter", "is_disabled": 0, "lat": 38.91420333333333, "rental_uris": {"ios": "https://dc.lft.to/lastmile_qr_scan", "android": "https://dc.lft.to/lastmile_qr_scan"}, "is_reserved": 0, "fusion_lon": 0.0, "fusion_lat": 0.0, "lon": -77.02409883333333, "name": "cd58fe749e20eb2ac7ce12e1e5de245c"}, {"bike_id": "35b6c373b0e41054918b3e47917e54c5", "type": "electric_scooter", "is_disabled": 0, "lat": 38.866822, "rental_uris": {"ios": "https://dc.lft.to/lastmile_qr_scan", "android": "https://dc.lft.to/lastmile_qr_scan"}, "is_reserved": 0, "fusion_lon": 0.0, "fusion_lat": 0.0, "lon": -76.98574133333334, "name": "35b6c373b0e41054918b3e47917e54c5"}, {"bike_id": "997ccb043b514e151cf4ae8c5edf4ac5", "type": "electric_scooter", "is_disabled": 0, "lat": 38.91930633333333, "rental_uris": {"ios": "https://dc.lft.to/lastmile_qr_scan", "android": "https://dc.lft.to/lastmile_qr_scan"}, "is_reserved": 0, "fusion_lon": 0.0, "fusion_lat": 0.0, "lon": -77.03177583333333, "name": "997ccb043b514e151cf4ae8c5edf4ac5"}, {"bike_id": "8309c8f127d2864214cc14ad64b33448", "type": "electric_scooter", "is_disabled": 0, "lat": 38.9288835, "rental_uris": {"ios": "https://dc.lft.to/lastmile_qr_scan", "android": "https://dc.lft.to/lastmile_qr_scan"}, "is_reserved": 0, "fusion_lon": 0.0, "fusion_lat": 0.0, "lon": -77.02312183333333, "name": "8309c8f127d2864214cc14ad64b33448"}, {"bike_id": "6d86e2399834a26db26ea36cdc49f6c0", "type": "electric_scooter", "is_disabled": 0, "lat": 38.92744483333333, "rental_uris": {"ios": "https://dc.lft.to/lastmile_qr_scan", "android": "https://dc.lft.to/lastmile_qr_scan"}, "is_reserved": 0, "fusion_lon": 0.0, "fusion_lat": 0.0, "lon": -77.02532716666667, "name": "6d86e2399834a26db26ea36cdc49f6c0"}, {"bike_id": "5261aafd827716bbbefef792b35d180e", "type": "electric_scooter", "is_disabled": 0, "lat": 38.8884965, "rental_uris": {"ios": "https://dc.lft.to/lastmile_qr_scan", "android": "https://dc.lft.to/lastmile_qr_scan"}, "is_reserved": 0, "fusion_lon": 0.0, "fusion_lat": 0.0, "lon": -76.92680616666667, "name": "5261aafd827716bbbefef792b35d180e"}, {"bike_id": "a144d2d74b649f207979278b14a0e3a2", "type": "electric_scooter", "is_disabled": 0, "lat": 38.892186333333335, "rental_uris": {"ios": "https://dc.lft.to/lastmile_qr_scan", "android": "https://dc.lft.to/lastmile_qr_scan"}, "is_reserved": 0, "fusion_lon": 0.0, "fusion_lat": 0.0, "lon": -77.02231683333333, "name": "a144d2d74b649f207979278b14a0e3a2"}, {"bike_id": "4eb90d4b854ad2b0a54155b0ca7729d4", "type": "electric_scooter", "is_disabled": 0, "lat": 38.878643, "rental_uris": {"ios": "https://dc.lft.to/lastmile_qr_scan", "android": "https://dc.lft.to/lastmile_qr_scan"}, "is_reserved": 0, "fusion_lon": 0.0, "fusion_lat": 0.0, "lon": -76.9698505, "name": "4eb90d4b854ad2b0a54155b0ca7729d4"}, {"bike_id": "1e820bb1440bf5c4931f7a2f0d2434b5", "type": "electric_scooter", "is_disabled": 0, "lat": 38.887505833333336, "rental_uris": {"ios": "https://dc.lft.to/lastmile_qr_scan", "android": "https://dc.lft.to/lastmile_qr_scan"}, "is_reserved": 0, "fusion_lon": 0.0, "fusion_lat": 0.0, "lon": -77.0256515, "name": "1e820bb1440bf5c4931f7a2f0d2434b5"}, {"bike_id": "81144577271d98df4d9208310e3f4b95", "type": "electric_scooter", "is_disabled": 0, "lat": 38.9196545, "rental_uris": {"ios": "https://dc.lft.to/lastmile_qr_scan", "android": "https://dc.lft.to/lastmile_qr_scan"}, "is_reserved": 0, "fusion_lon": 0.0, "fusion_lat": 0.0, "lon": -77.04073516666666, "name": "81144577271d98df4d9208310e3f4b95"}, {"bike_id": "1a693bd41b16827f3aa402d0df5a4fc7", "type": "electric_scooter", "is_disabled": 0, "lat": 38.853051, "rental_uris": {"ios": "https://dc.lft.to/lastmile_qr_scan", "android": "https://dc.lft.to/lastmile_qr_scan"}, "is_reserved": 0, "fusion_lon": 0.0, "fusion_lat": 0.0, "lon": -76.98015883333333, "name": "1a693bd41b16827f3aa402d0df5a4fc7"}, {"bike_id": "4f4c2012f283e5f1b8f0837287744d77", "type": "electric_scooter", "is_disabled": 0, "lat": 38.905053333333335, "rental_uris": {"ios": "https://dc.lft.to/lastmile_qr_scan", "android": "https://dc.lft.to/lastmile_qr_scan"}, "is_reserved": 0, "fusion_lon": 0.0, "fusion_lat": 0.0, "lon": -77.0170235, "name": "4f4c2012f283e5f1b8f0837287744d77"}, {"bike_id": "9e58727a5050752e40ead24ea519562f", "type": "electric_bike", "is_disabled": 0, "lat": 38.93490516666667, "rental_uris": {"ios": "https://dc.lft.to/lastmile_qr_scan", "android": "https://dc.lft.to/lastmile_qr_scan"}, "is_reserved": 0, "fusion_lon": 0.0, "fusion_lat": 0.0, "lon": -77.030213, "name": "9e58727a5050752e40ead24ea519562f"}, {"bike_id": "992f80f197591b8d1e33a82b1da541cc", "type": "electric_scooter", "is_disabled": 0, "lat": 38.874166333333335, "rental_uris": {"ios": "https://dc.lft.to/lastmile_qr_scan", "android": "https://dc.lft.to/lastmile_qr_scan"}, "is_reserved": 0, "fusion_lon": 0.0, "fusion_lat": 0.0, "lon": -76.96909683333334, "name": "992f80f197591b8d1e33a82b1da541cc"}, {"bike_id": "c9cc600f5fab8b465d4ad478fe3ab70c", "type": "electric_scooter", "is_disabled": 0, "lat": 38.91777583333333, "rental_uris": {"ios": "https://dc.lft.to/lastmile_qr_scan", "android": "https://dc.lft.to/lastmile_qr_scan"}, "is_reserved": 0, "fusion_lon": 0.0, "fusion_lat": 0.0, "lon": -77.0230685, "name": "c9cc600f5fab8b465d4ad478fe3ab70c"}, {"bike_id": "82d7a75959e4c6334ebc7bd9ad37743b", "type": "electric_scooter", "is_disabled": 0, "lat": 38.91272283333333, "rental_uris": {"ios": "https://dc.lft.to/lastmile_qr_scan", "android": "https://dc.lft.to/lastmile_qr_scan"}, "is_reserved": 0, "fusion_lon": 0.0, "fusion_lat": 0.0, "lon": -77.02223166666667, "name": "82d7a75959e4c6334ebc7bd9ad37743b"}, {"bike_id": "95dbd65ec9f881f59c4c22949b39a3ea", "type": "electric_scooter", "is_disabled": 0, "lat": 38.93237583333333, "rental_uris": {"ios": "https://dc.lft.to/lastmile_qr_scan", "android": "https://dc.lft.to/lastmile_qr_scan"}, "is_reserved": 0, "fusion_lon": 0.0, "fusion_lat": 0.0, "lon": -76.99512083333333, "name": "95dbd65ec9f881f59c4c22949b39a3ea"}, {"bike_id": "136ea033734b3404234bc985141c0113", "type": "electric_scooter", "is_disabled": 0, "lat": 38.8969025, "rental_uris": {"ios": "https://dc.lft.to/lastmile_qr_scan", "android": "https://dc.lft.to/lastmile_qr_scan"}, "is_reserved": 0, "fusion_lon": 0.0, "fusion_lat": 0.0, "lon": -76.99960366666667, "name": "136ea033734b3404234bc985141c0113"}, {"bike_id": "5a5680a29326efc2dbf800f5302ef447", "type": "electric_scooter", "is_disabled": 0, "lat": 38.91571, "rental_uris": {"ios": "https://dc.lft.to/lastmile_qr_scan", "android": "https://dc.lft.to/lastmile_qr_scan"}, "is_reserved": 0, "fusion_lon": 0.0, "fusion_lat": 0.0, "lon": -77.04156583333334, "name": "5a5680a29326efc2dbf800f5302ef447"}, {"bike_id": "e8db9a9a445b6f943a5b719473455edd", "type": "electric_scooter", "is_disabled": 0, "lat": 38.900439666666664, "rental_uris": {"ios": "https://dc.lft.to/lastmile_qr_scan", "android": "https://dc.lft.to/lastmile_qr_scan"}, "is_reserved": 0, "fusion_lon": 0.0, "fusion_lat": 0.0, "lon": -76.98289933333334, "name": "e8db9a9a445b6f943a5b719473455edd"}, {"bike_id": "58243d357eb6bba09a81bc9c80c475e5", "type": "electric_bike", "is_disabled": 0, "lat": 38.97204216666667, "rental_uris": {"ios": "https://dc.lft.to/lastmile_qr_scan", "android": "https://dc.lft.to/lastmile_qr_scan"}, "is_reserved": 0, "fusion_lon": 0.0, "fusion_lat": 0.0, "lon": -77.03336316666666, "name": "58243d357eb6bba09a81bc9c80c475e5"}, {"bike_id": "0f2ef35b1caa1bcd110b8ebe58bebd5d", "type": "electric_scooter", "is_disabled": 0, "lat": 38.9205065, "rental_uris": {"ios": "https://dc.lft.to/lastmile_qr_scan", "android": "https://dc.lft.to/lastmile_qr_scan"}, "is_reserved": 0, "fusion_lon": 0.0, "fusion_lat": 0.0, "lon": -77.01622883333333, "name": "0f2ef35b1caa1bcd110b8ebe58bebd5d"}, {"bike_id": "4e98f7cedcb048fad072a58a95bfa4e0", "type": "electric_scooter", "is_disabled": 0, "lat": 38.89223283333333, "rental_uris": {"ios": "https://dc.lft.to/lastmile_qr_scan", "android": "https://dc.lft.to/lastmile_qr_scan"}, "is_reserved": 0, "fusion_lon": 0.0, "fusion_lat": 0.0, "lon": -77.04801616666667, "name": "4e98f7cedcb048fad072a58a95bfa4e0"}, {"bike_id": "221d8783985236471acc367aa048d5db", "type": "electric_scooter", "is_disabled": 0, "lat": 38.884857, "rental_uris": {"ios": "https://dc.lft.to/lastmile_qr_scan", "android": "https://dc.lft.to/lastmile_qr_scan"}, "is_reserved": 0, "fusion_lon": 0.0, "fusion_lat": 0.0, "lon": -77.03474783333333, "name": "221d8783985236471acc367aa048d5db"}, {"bike_id": "78a7299deec4740bc24512fcbf9f39d3", "type": "electric_scooter", "is_disabled": 0, "lat": 38.90949533333333, "rental_uris": {"ios": "https://dc.lft.to/lastmile_qr_scan", "android": "https://dc.lft.to/lastmile_qr_scan"}, "is_reserved": 0, "fusion_lon": 0.0, "fusion_lat": 0.0, "lon": -77.02218733333333, "name": "78a7299deec4740bc24512fcbf9f39d3"}, {"bike_id": "ce84fa34668bd2f61bb101aab2ec7cb7", "type": "electric_bike", "is_disabled": 0, "lat": 38.83604366666667, "rental_uris": {"ios": "https://dc.lft.to/lastmile_qr_scan", "android": "https://dc.lft.to/lastmile_qr_scan"}, "is_reserved": 0, "fusion_lon": 0.0, "fusion_lat": 0.0, "lon": -77.00381033333333, "name": "ce84fa34668bd2f61bb101aab2ec7cb7"}, {"bike_id": "b8d652b9eef225df63e4e09fbaddc785", "type": "electric_scooter", "is_disabled": 0, "lat": 38.883636, "rental_uris": {"ios": "https://dc.lft.to/lastmile_qr_scan", "android": "https://dc.lft.to/lastmile_qr_scan"}, "is_reserved": 0, "fusion_lon": 0.0, "fusion_lat": 0.0, "lon": -76.9954335, "name": "b8d652b9eef225df63e4e09fbaddc785"}, {"bike_id": "c268ebe93efda3510776a6ba6e7945aa", "type": "electric_scooter", "is_disabled": 0, "lat": 38.9057435, "rental_uris": {"ios": "https://dc.lft.to/lastmile_qr_scan", "android": "https://dc.lft.to/lastmile_qr_scan"}, "is_reserved": 0, "fusion_lon": 0.0, "fusion_lat": 0.0, "lon": -77.03434733333333, "name": "c268ebe93efda3510776a6ba6e7945aa"}, {"bike_id": "292178abf70fbbb170de01740ba31912", "type": "electric_scooter", "is_disabled": 0, "lat": 38.916970166666665, "rental_uris": {"ios": "https://dc.lft.to/lastmile_qr_scan", "android": "https://dc.lft.to/lastmile_qr_scan"}, "is_reserved": 0, "fusion_lon": 0.0, "fusion_lat": 0.0, "lon": -77.02846616666666, "name": "292178abf70fbbb170de01740ba31912"}, {"bike_id": "ecaed2f3b9f0888c3852692fe55ff7b8", "type": "electric_scooter", "is_disabled": 0, "lat": 38.873593666666665, "rental_uris": {"ios": "https://dc.lft.to/lastmile_qr_scan", "android": "https://dc.lft.to/lastmile_qr_scan"}, "is_reserved": 0, "fusion_lon": 0.0, "fusion_lat": 0.0, "lon": -76.97025483333333, "name": "ecaed2f3b9f0888c3852692fe55ff7b8"}, {"bike_id": "7290397b664bdc103eb1c86c9a15bfdd", "type": "electric_scooter", "is_disabled": 0, "lat": 38.8991375, "rental_uris": {"ios": "https://dc.lft.to/lastmile_qr_scan", "android": "https://dc.lft.to/lastmile_qr_scan"}, "is_reserved": 0, "fusion_lon": 0.0, "fusion_lat": 0.0, "lon": -76.933653, "name": "7290397b664bdc103eb1c86c9a15bfdd"}, {"bike_id": "2c83d8ed7f1060489afc81f2c2b487fa", "type": "electric_scooter", "is_disabled": 0, "lat": 38.923449833333336, "rental_uris": {"ios": "https://dc.lft.to/lastmile_qr_scan", "android": "https://dc.lft.to/lastmile_qr_scan"}, "is_reserved": 0, "fusion_lon": 0.0, "fusion_lat": 0.0, "lon": -77.05120816666667, "name": "2c83d8ed7f1060489afc81f2c2b487fa"}, {"bike_id": "3735b84e1ab67d0cbb74598fc6a96394", "type": "electric_scooter", "is_disabled": 0, "lat": 38.919473333333336, "rental_uris": {"ios": "https://dc.lft.to/lastmile_qr_scan", "android": "https://dc.lft.to/lastmile_qr_scan"}, "is_reserved": 0, "fusion_lon": 0.0, "fusion_lat": 0.0, "lon": -77.02501516666666, "name": "3735b84e1ab67d0cbb74598fc6a96394"}, {"bike_id": "b111276522cd0d8019c23d640372fdcb", "type": "electric_scooter", "is_disabled": 0, "lat": 38.894849, "rental_uris": {"ios": "https://dc.lft.to/lastmile_qr_scan", "android": "https://dc.lft.to/lastmile_qr_scan"}, "is_reserved": 0, "fusion_lon": 0.0, "fusion_lat": 0.0, "lon": -77.02186966666666, "name": "b111276522cd0d8019c23d640372fdcb"}, {"bike_id": "4ee59d607877631d4d42d4c741b91ba1", "type": "electric_bike", "is_disabled": 0, "lat": 38.87299316666667, "rental_uris": {"ios": "https://dc.lft.to/lastmile_qr_scan", "android": "https://dc.lft.to/lastmile_qr_scan"}, "is_reserved": 0, "fusion_lon": 0.0, "fusion_lat": 0.0, "lon": -77.13933183333333, "name": "4ee59d607877631d4d42d4c741b91ba1"}, {"bike_id": "5bdf4897bf4b96a23044f64f62385b12", "type": "electric_bike", "is_disabled": 0, "lat": 38.84282433333333, "rental_uris": {"ios": "https://dc.lft.to/lastmile_qr_scan", "android": "https://dc.lft.to/lastmile_qr_scan"}, "is_reserved": 0, "fusion_lon": 0.0, "fusion_lat": 0.0, "lon": -76.98844716666666, "name": "5bdf4897bf4b96a23044f64f62385b12"}, {"bike_id": "d0ab70f3f5481b80de2a7c198ee9eac1", "type": "electric_scooter", "is_disabled": 0, "lat": 38.96397066666667, "rental_uris": {"ios": "https://dc.lft.to/lastmile_qr_scan", "android": "https://dc.lft.to/lastmile_qr_scan"}, "is_reserved": 0, "fusion_lon": 0.0, "fusion_lat": 0.0, "lon": -77.025883, "name": "d0ab70f3f5481b80de2a7c198ee9eac1"}, {"bike_id": "3a49530724c87b650e5511943afe72b2", "type": "electric_scooter", "is_disabled": 0, "lat": 38.89843233333333, "rental_uris": {"ios": "https://dc.lft.to/lastmile_qr_scan", "android": "https://dc.lft.to/lastmile_qr_scan"}, "is_reserved": 0, "fusion_lon": 0.0, "fusion_lat": 0.0, "lon": -77.031226, "name": "3a49530724c87b650e5511943afe72b2"}, {"bike_id": "8511bc8d6f32d7b1ab30888be6b6929f", "type": "electric_scooter", "is_disabled": 0, "lat": 38.8938345, "rental_uris": {"ios": "https://dc.lft.to/lastmile_qr_scan", "android": "https://dc.lft.to/lastmile_qr_scan"}, "is_reserved": 0, "fusion_lon": 0.0, "fusion_lat": 0.0, "lon": -77.022699, "name": "8511bc8d6f32d7b1ab30888be6b6929f"}, {"bike_id": "7026365e74fcf08033b8c69dc3da1b32", "type": "electric_scooter", "is_disabled": 0, "lat": 38.90359083333333, "rental_uris": {"ios": "https://dc.lft.to/lastmile_qr_scan", "android": "https://dc.lft.to/lastmile_qr_scan"}, "is_reserved": 0, "fusion_lon": 0.0, "fusion_lat": 0.0, "lon": -77.0449425, "name": "7026365e74fcf08033b8c69dc3da1b32"}, {"bike_id": "7b4d07cd47c33f7dcbe9425c100e7bcd", "type": "electric_scooter", "is_disabled": 0, "lat": 38.91642233333334, "rental_uris": {"ios": "https://dc.lft.to/lastmile_qr_scan", "android": "https://dc.lft.to/lastmile_qr_scan"}, "is_reserved": 0, "fusion_lon": 0.0, "fusion_lat": 0.0, "lon": -77.03213216666667, "name": "7b4d07cd47c33f7dcbe9425c100e7bcd"}, {"bike_id": "3d95660f07e7d8d5d087b6049754baba", "type": "electric_scooter", "is_disabled": 0, "lat": 38.930779, "rental_uris": {"ios": "https://dc.lft.to/lastmile_qr_scan", "android": "https://dc.lft.to/lastmile_qr_scan"}, "is_reserved": 0, "fusion_lon": 0.0, "fusion_lat": 0.0, "lon": -77.0279575, "name": "3d95660f07e7d8d5d087b6049754baba"}, {"bike_id": "9175f8ab2bda618de7a35e978e9408bf", "type": "electric_scooter", "is_disabled": 0, "lat": 38.89291383333333, "rental_uris": {"ios": "https://dc.lft.to/lastmile_qr_scan", "android": "https://dc.lft.to/lastmile_qr_scan"}, "is_reserved": 0, "fusion_lon": 0.0, "fusion_lat": 0.0, "lon": -77.03343883333334, "name": "9175f8ab2bda618de7a35e978e9408bf"}, {"bike_id": "2b08e226dc22f7283999ddbad8ccdb0e", "type": "electric_scooter", "is_disabled": 0, "lat": 38.93920883333333, "rental_uris": {"ios": "https://dc.lft.to/lastmile_qr_scan", "android": "https://dc.lft.to/lastmile_qr_scan"}, "is_reserved": 0, "fusion_lon": 0.0, "fusion_lat": 0.0, "lon": -77.06053116666666, "name": "2b08e226dc22f7283999ddbad8ccdb0e"}, {"bike_id": "639c57eb46be428af87cf0aabc9fc142", "type": "electric_scooter", "is_disabled": 0, "lat": 38.9053075, "rental_uris": {"ios": "https://dc.lft.to/lastmile_qr_scan", "android": "https://dc.lft.to/lastmile_qr_scan"}, "is_reserved": 0, "fusion_lon": 0.0, "fusion_lat": 0.0, "lon": -77.041433, "name": "639c57eb46be428af87cf0aabc9fc142"}, {"bike_id": "c96c565ac9909db7932f37c3552b9714", "type": "electric_scooter", "is_disabled": 0, "lat": 38.929177333333335, "rental_uris": {"ios": "https://dc.lft.to/lastmile_qr_scan", "android": "https://dc.lft.to/lastmile_qr_scan"}, "is_reserved": 0, "fusion_lon": 0.0, "fusion_lat": 0.0, "lon": -77.037348, "name": "c96c565ac9909db7932f37c3552b9714"}, {"bike_id": "efb9afbc27557038daf379ff43145550", "type": "electric_scooter", "is_disabled": 0, "lat": 38.89742916666667, "rental_uris": {"ios": "https://dc.lft.to/lastmile_qr_scan", "android": "https://dc.lft.to/lastmile_qr_scan"}, "is_reserved": 0, "fusion_lon": 0.0, "fusion_lat": 0.0, "lon": -77.026986, "name": "efb9afbc27557038daf379ff43145550"}, {"bike_id": "5de5352b35999c290b7561c91f63116f", "type": "electric_scooter", "is_disabled": 0, "lat": 38.87930433333333, "rental_uris": {"ios": "https://dc.lft.to/lastmile_qr_scan", "android": "https://dc.lft.to/lastmile_qr_scan"}, "is_reserved": 0, "fusion_lon": 0.0, "fusion_lat": 0.0, "lon": -77.00576566666666, "name": "5de5352b35999c290b7561c91f63116f"}, {"bike_id": "27e0949fd031be9b22eb8873fa5ec805", "type": "electric_scooter", "is_disabled": 0, "lat": 38.90641933333333, "rental_uris": {"ios": "https://dc.lft.to/lastmile_qr_scan", "android": "https://dc.lft.to/lastmile_qr_scan"}, "is_reserved": 0, "fusion_lon": 0.0, "fusion_lat": 0.0, "lon": -77.01831466666667, "name": "27e0949fd031be9b22eb8873fa5ec805"}, {"bike_id": "941136019ae9c5455b8e922cfbe4d655", "type": "electric_scooter", "is_disabled": 0, "lat": 38.89626766666667, "rental_uris": {"ios": "https://dc.lft.to/lastmile_qr_scan", "android": "https://dc.lft.to/lastmile_qr_scan"}, "is_reserved": 0, "fusion_lon": 0.0, "fusion_lat": 0.0, "lon": -77.02372183333334, "name": "941136019ae9c5455b8e922cfbe4d655"}, {"bike_id": "985a9bf8681a1dee75d251e2c5b733a0", "type": "electric_scooter", "is_disabled": 0, "lat": 38.89732333333333, "rental_uris": {"ios": "https://dc.lft.to/lastmile_qr_scan", "android": "https://dc.lft.to/lastmile_qr_scan"}, "is_reserved": 0, "fusion_lon": 0.0, "fusion_lat": 0.0, "lon": -77.04682516666666, "name": "985a9bf8681a1dee75d251e2c5b733a0"}, {"bike_id": "bd332733627ea6312f26c665df3550ac", "type": "electric_scooter", "is_disabled": 0, "lat": 38.89247616666667, "rental_uris": {"ios": "https://dc.lft.to/lastmile_qr_scan", "android": "https://dc.lft.to/lastmile_qr_scan"}, "is_reserved": 0, "fusion_lon": 0.0, "fusion_lat": 0.0, "lon": -76.92568883333334, "name": "bd332733627ea6312f26c665df3550ac"}, {"bike_id": "949b6e9c1f209187629631e04301f8ae", "type": "electric_scooter", "is_disabled": 0, "lat": 38.909856, "rental_uris": {"ios": "https://dc.lft.to/lastmile_qr_scan", "android": "https://dc.lft.to/lastmile_qr_scan"}, "is_reserved": 0, "fusion_lon": 0.0, "fusion_lat": 0.0, "lon": -77.03445516666666, "name": "949b6e9c1f209187629631e04301f8ae"}, {"bike_id": "57d94a4327348773e137129c75219e3e", "type": "electric_scooter", "is_disabled": 0, "lat": 38.88417166666667, "rental_uris": {"ios": "https://dc.lft.to/lastmile_qr_scan", "android": "https://dc.lft.to/lastmile_qr_scan"}, "is_reserved": 0, "fusion_lon": 0.0, "fusion_lat": 0.0, "lon": -77.00065033333334, "name": "57d94a4327348773e137129c75219e3e"}, {"bike_id": "f23c0854dc0b8d9cc0a093a74e875004", "type": "electric_scooter", "is_disabled": 0, "lat": 38.8643925, "rental_uris": {"ios": "https://dc.lft.to/lastmile_qr_scan", "android": "https://dc.lft.to/lastmile_qr_scan"}, "is_reserved": 0, "fusion_lon": 0.0, "fusion_lat": 0.0, "lon": -76.98000416666666, "name": "f23c0854dc0b8d9cc0a093a74e875004"}, {"bike_id": "f31307204cfd2e1ace438ebb47b43e48", "type": "electric_scooter", "is_disabled": 0, "lat": 38.89226266666667, "rental_uris": {"ios": "https://dc.lft.to/lastmile_qr_scan", "android": "https://dc.lft.to/lastmile_qr_scan"}, "is_reserved": 0, "fusion_lon": 0.0, "fusion_lat": 0.0, "lon": -77.049513, "name": "f31307204cfd2e1ace438ebb47b43e48"}, {"bike_id": "4612774bd1d69126fdc764381fe35735", "type": "electric_scooter", "is_disabled": 0, "lat": 38.9057145, "rental_uris": {"ios": "https://dc.lft.to/lastmile_qr_scan", "android": "https://dc.lft.to/lastmile_qr_scan"}, "is_reserved": 0, "fusion_lon": 0.0, "fusion_lat": 0.0, "lon": -77.03441066666667, "name": "4612774bd1d69126fdc764381fe35735"}, {"bike_id": "a0b6c24799f7f38348b856ae6c9ec4fd", "type": "electric_scooter", "is_disabled": 0, "lat": 38.90567266666667, "rental_uris": {"ios": "https://dc.lft.to/lastmile_qr_scan", "android": "https://dc.lft.to/lastmile_qr_scan"}, "is_reserved": 0, "fusion_lon": 0.0, "fusion_lat": 0.0, "lon": -77.002618, "name": "a0b6c24799f7f38348b856ae6c9ec4fd"}, {"bike_id": "5bc70be20f8166570dd34c9bcebe85b0", "type": "electric_scooter", "is_disabled": 0, "lat": 38.9061545, "rental_uris": {"ios": "https://dc.lft.to/lastmile_qr_scan", "android": "https://dc.lft.to/lastmile_qr_scan"}, "is_reserved": 0, "fusion_lon": 0.0, "fusion_lat": 0.0, "lon": -77.028045, "name": "5bc70be20f8166570dd34c9bcebe85b0"}, {"bike_id": "6ccd7de4b08c9c4a77a46583b624837b", "type": "electric_scooter", "is_disabled": 0, "lat": 38.89616216666667, "rental_uris": {"ios": "https://dc.lft.to/lastmile_qr_scan", "android": "https://dc.lft.to/lastmile_qr_scan"}, "is_reserved": 0, "fusion_lon": 0.0, "fusion_lat": 0.0, "lon": -77.0442945, "name": "6ccd7de4b08c9c4a77a46583b624837b"}, {"bike_id": "b47d50738d876a57f06eb0a64edc1666", "type": "electric_scooter", "is_disabled": 0, "lat": 38.902690666666665, "rental_uris": {"ios": "https://dc.lft.to/lastmile_qr_scan", "android": "https://dc.lft.to/lastmile_qr_scan"}, "is_reserved": 0, "fusion_lon": 0.0, "fusion_lat": 0.0, "lon": -77.01887583333334, "name": "b47d50738d876a57f06eb0a64edc1666"}, {"bike_id": "a17061e7883cdb6235e131ccbb2c6407", "type": "electric_scooter", "is_disabled": 0, "lat": 38.95650966666667, "rental_uris": {"ios": "https://dc.lft.to/lastmile_qr_scan", "android": "https://dc.lft.to/lastmile_qr_scan"}, "is_reserved": 0, "fusion_lon": 0.0, "fusion_lat": 0.0, "lon": -77.0239355, "name": "a17061e7883cdb6235e131ccbb2c6407"}, {"bike_id": "ffea96575b3072851ecb183cc1ce3034", "type": "electric_scooter", "is_disabled": 0, "lat": 38.887192666666664, "rental_uris": {"ios": "https://dc.lft.to/lastmile_qr_scan", "android": "https://dc.lft.to/lastmile_qr_scan"}, "is_reserved": 0, "fusion_lon": 0.0, "fusion_lat": 0.0, "lon": -76.996312, "name": "ffea96575b3072851ecb183cc1ce3034"}, {"bike_id": "40969bcf59754ae5f3013ac97797370e", "type": "electric_scooter", "is_disabled": 0, "lat": 38.89289683333333, "rental_uris": {"ios": "https://dc.lft.to/lastmile_qr_scan", "android": "https://dc.lft.to/lastmile_qr_scan"}, "is_reserved": 0, "fusion_lon": 0.0, "fusion_lat": 0.0, "lon": -77.04873883333333, "name": "40969bcf59754ae5f3013ac97797370e"}, {"bike_id": "380c7d4e652934938fe9db73242f6709", "type": "electric_scooter", "is_disabled": 0, "lat": 38.89737983333333, "rental_uris": {"ios": "https://dc.lft.to/lastmile_qr_scan", "android": "https://dc.lft.to/lastmile_qr_scan"}, "is_reserved": 0, "fusion_lon": 0.0, "fusion_lat": 0.0, "lon": -77.04680516666667, "name": "380c7d4e652934938fe9db73242f6709"}, {"bike_id": "bc5bc79cee1b00507025fa465074edb6", "type": "electric_scooter", "is_disabled": 0, "lat": 38.87687783333333, "rental_uris": {"ios": "https://dc.lft.to/lastmile_qr_scan", "android": "https://dc.lft.to/lastmile_qr_scan"}, "is_reserved": 0, "fusion_lon": 0.0, "fusion_lat": 0.0, "lon": -77.01754766666667, "name": "bc5bc79cee1b00507025fa465074edb6"}, {"bike_id": "8b6bf7957b4b4398f7815b7b815190bc", "type": "electric_scooter", "is_disabled": 0, "lat": 38.90556083333333, "rental_uris": {"ios": "https://dc.lft.to/lastmile_qr_scan", "android": "https://dc.lft.to/lastmile_qr_scan"}, "is_reserved": 0, "fusion_lon": 0.0, "fusion_lat": 0.0, "lon": -77.045014, "name": "8b6bf7957b4b4398f7815b7b815190bc"}, {"bike_id": "008b2ec8d97e9aa174f0438219b45fbc", "type": "electric_bike", "is_disabled": 0, "lat": 38.901500666666664, "rental_uris": {"ios": "https://dc.lft.to/lastmile_qr_scan", "android": "https://dc.lft.to/lastmile_qr_scan"}, "is_reserved": 0, "fusion_lon": 0.0, "fusion_lat": 0.0, "lon": -77.02295616666666, "name": "008b2ec8d97e9aa174f0438219b45fbc"}, {"bike_id": "6314559497d924c094d5c786d3f17ae3", "type": "electric_scooter", "is_disabled": 0, "lat": 38.91658733333333, "rental_uris": {"ios": "https://dc.lft.to/lastmile_qr_scan", "android": "https://dc.lft.to/lastmile_qr_scan"}, "is_reserved": 0, "fusion_lon": 0.0, "fusion_lat": 0.0, "lon": -77.03210716666666, "name": "6314559497d924c094d5c786d3f17ae3"}, {"bike_id": "272ce96776bad5b8e9d0ca0c262e71b5", "type": "electric_scooter", "is_disabled": 0, "lat": 38.90058666666667, "rental_uris": {"ios": "https://dc.lft.to/lastmile_qr_scan", "android": "https://dc.lft.to/lastmile_qr_scan"}, "is_reserved": 0, "fusion_lon": 0.0, "fusion_lat": 0.0, "lon": -77.0452685, "name": "272ce96776bad5b8e9d0ca0c262e71b5"}, {"bike_id": "42384d1ba7ca07b7fc6b5b9ef1b2ea97", "type": "electric_scooter", "is_disabled": 0, "lat": 38.930594, "rental_uris": {"ios": "https://dc.lft.to/lastmile_qr_scan", "android": "https://dc.lft.to/lastmile_qr_scan"}, "is_reserved": 0, "fusion_lon": 0.0, "fusion_lat": 0.0, "lon": -77.038996, "name": "42384d1ba7ca07b7fc6b5b9ef1b2ea97"}, {"bike_id": "cbe946d44aed391a7ad2c772add93e83", "type": "electric_scooter", "is_disabled": 0, "lat": 38.90951616666667, "rental_uris": {"ios": "https://dc.lft.to/lastmile_qr_scan", "android": "https://dc.lft.to/lastmile_qr_scan"}, "is_reserved": 0, "fusion_lon": 0.0, "fusion_lat": 0.0, "lon": -77.04872516666667, "name": "cbe946d44aed391a7ad2c772add93e83"}, {"bike_id": "8708049e0b235499a557b5ca5db19423", "type": "electric_scooter", "is_disabled": 0, "lat": 38.87703233333333, "rental_uris": {"ios": "https://dc.lft.to/lastmile_qr_scan", "android": "https://dc.lft.to/lastmile_qr_scan"}, "is_reserved": 0, "fusion_lon": 0.0, "fusion_lat": 0.0, "lon": -77.017664, "name": "8708049e0b235499a557b5ca5db19423"}, {"bike_id": "be2d35e91c4cace4e12f9f57f537935c", "type": "electric_scooter", "is_disabled": 0, "lat": 38.898864333333336, "rental_uris": {"ios": "https://dc.lft.to/lastmile_qr_scan", "android": "https://dc.lft.to/lastmile_qr_scan"}, "is_reserved": 0, "fusion_lon": 0.0, "fusion_lat": 0.0, "lon": -76.976865, "name": "be2d35e91c4cace4e12f9f57f537935c"}, {"bike_id": "5c1bda3dd394cf1a0349ef06f1f72dc7", "type": "electric_scooter", "is_disabled": 0, "lat": 38.925461, "rental_uris": {"ios": "https://dc.lft.to/lastmile_qr_scan", "android": "https://dc.lft.to/lastmile_qr_scan"}, "is_reserved": 0, "fusion_lon": 0.0, "fusion_lat": 0.0, "lon": -77.0386605, "name": "5c1bda3dd394cf1a0349ef06f1f72dc7"}, {"bike_id": "097452dd9867ddf4d4f3b234f00c7f62", "type": "electric_scooter", "is_disabled": 0, "lat": 38.892246166666666, "rental_uris": {"ios": "https://dc.lft.to/lastmile_qr_scan", "android": "https://dc.lft.to/lastmile_qr_scan"}, "is_reserved": 0, "fusion_lon": 0.0, "fusion_lat": 0.0, "lon": -77.0226155, "name": "097452dd9867ddf4d4f3b234f00c7f62"}, {"bike_id": "94f26ff34b0421d1a23c9789a40ba97b", "type": "electric_scooter", "is_disabled": 0, "lat": 38.897634, "rental_uris": {"ios": "https://dc.lft.to/lastmile_qr_scan", "android": "https://dc.lft.to/lastmile_qr_scan"}, "is_reserved": 0, "fusion_lon": 0.0, "fusion_lat": 0.0, "lon": -77.02781916666666, "name": "94f26ff34b0421d1a23c9789a40ba97b"}, {"bike_id": "40f55404b476d316669fbdc8df8d9661", "type": "electric_scooter", "is_disabled": 0, "lat": 38.91423966666667, "rental_uris": {"ios": "https://dc.lft.to/lastmile_qr_scan", "android": "https://dc.lft.to/lastmile_qr_scan"}, "is_reserved": 0, "fusion_lon": 0.0, "fusion_lat": 0.0, "lon": -77.02178866666667, "name": "40f55404b476d316669fbdc8df8d9661"}, {"bike_id": "a09cb423cee8521e619dd30eedb9c051", "type": "electric_scooter", "is_disabled": 0, "lat": 38.90129616666667, "rental_uris": {"ios": "https://dc.lft.to/lastmile_qr_scan", "android": "https://dc.lft.to/lastmile_qr_scan"}, "is_reserved": 0, "fusion_lon": 0.0, "fusion_lat": 0.0, "lon": -77.04150883333334, "name": "a09cb423cee8521e619dd30eedb9c051"}, {"bike_id": "3f86855d42bd8ae63b460a08162a1455", "type": "electric_scooter", "is_disabled": 0, "lat": 38.8996405, "rental_uris": {"ios": "https://dc.lft.to/lastmile_qr_scan", "android": "https://dc.lft.to/lastmile_qr_scan"}, "is_reserved": 0, "fusion_lon": 0.0, "fusion_lat": 0.0, "lon": -77.02210383333333, "name": "3f86855d42bd8ae63b460a08162a1455"}, {"bike_id": "cbdc4b1ca9ee3d682009df7320f537f4", "type": "electric_scooter", "is_disabled": 0, "lat": 38.95708916666667, "rental_uris": {"ios": "https://dc.lft.to/lastmile_qr_scan", "android": "https://dc.lft.to/lastmile_qr_scan"}, "is_reserved": 0, "fusion_lon": 0.0, "fusion_lat": 0.0, "lon": -77.0240035, "name": "cbdc4b1ca9ee3d682009df7320f537f4"}, {"bike_id": "f1f76e0cc11145a8a53d67c2d0a9bbd0", "type": "electric_scooter", "is_disabled": 0, "lat": 38.92197083333333, "rental_uris": {"ios": "https://dc.lft.to/lastmile_qr_scan", "android": "https://dc.lft.to/lastmile_qr_scan"}, "is_reserved": 0, "fusion_lon": 0.0, "fusion_lat": 0.0, "lon": -77.02035766666667, "name": "f1f76e0cc11145a8a53d67c2d0a9bbd0"}, {"bike_id": "c886fb422d24ebee5d39cd5419ab4173", "type": "electric_scooter", "is_disabled": 0, "lat": 38.93185183333333, "rental_uris": {"ios": "https://dc.lft.to/lastmile_qr_scan", "android": "https://dc.lft.to/lastmile_qr_scan"}, "is_reserved": 0, "fusion_lon": 0.0, "fusion_lat": 0.0, "lon": -77.0843125, "name": "c886fb422d24ebee5d39cd5419ab4173"}, {"bike_id": "3605611e2ca609ac1951167bf34bba29", "type": "electric_bike", "is_disabled": 0, "lat": 38.81935033333333, "rental_uris": {"ios": "https://dc.lft.to/lastmile_qr_scan", "android": "https://dc.lft.to/lastmile_qr_scan"}, "is_reserved": 0, "fusion_lon": 0.0, "fusion_lat": 0.0, "lon": -77.002025, "name": "3605611e2ca609ac1951167bf34bba29"}, {"bike_id": "c81c002d6a21ac4056a7e01e61d9eaf5", "type": "electric_bike", "is_disabled": 0, "lat": 38.919481, "rental_uris": {"ios": "https://dc.lft.to/lastmile_qr_scan", "android": "https://dc.lft.to/lastmile_qr_scan"}, "is_reserved": 0, "fusion_lon": 0.0, "fusion_lat": 0.0, "lon": -77.003123, "name": "c81c002d6a21ac4056a7e01e61d9eaf5"}, {"bike_id": "a9ede1711a604c4bc961a2e86ad63ae9", "type": "electric_scooter", "is_disabled": 0, "lat": 38.907541, "rental_uris": {"ios": "https://dc.lft.to/lastmile_qr_scan", "android": "https://dc.lft.to/lastmile_qr_scan"}, "is_reserved": 0, "fusion_lon": 0.0, "fusion_lat": 0.0, "lon": -77.0320915, "name": "a9ede1711a604c4bc961a2e86ad63ae9"}, {"bike_id": "2a870364fc38e969990cc24633b96e92", "type": "electric_scooter", "is_disabled": 0, "lat": 38.926758666666665, "rental_uris": {"ios": "https://dc.lft.to/lastmile_qr_scan", "android": "https://dc.lft.to/lastmile_qr_scan"}, "is_reserved": 0, "fusion_lon": 0.0, "fusion_lat": 0.0, "lon": -77.07327633333334, "name": "2a870364fc38e969990cc24633b96e92"}, {"bike_id": "d7842f5e5705bc4c1a18d69bdc814af6", "type": "electric_scooter", "is_disabled": 0, "lat": 38.892330666666666, "rental_uris": {"ios": "https://dc.lft.to/lastmile_qr_scan", "android": "https://dc.lft.to/lastmile_qr_scan"}, "is_reserved": 0, "fusion_lon": 0.0, "fusion_lat": 0.0, "lon": -77.0467525, "name": "d7842f5e5705bc4c1a18d69bdc814af6"}, {"bike_id": "dba82c09880a484bea1f3823ee529780", "type": "electric_scooter", "is_disabled": 0, "lat": 38.892399833333336, "rental_uris": {"ios": "https://dc.lft.to/lastmile_qr_scan", "android": "https://dc.lft.to/lastmile_qr_scan"}, "is_reserved": 0, "fusion_lon": 0.0, "fusion_lat": 0.0, "lon": -76.95333583333333, "name": "dba82c09880a484bea1f3823ee529780"}, {"bike_id": "4d5a09f69f795eb07009504b40adf45c", "type": "electric_scooter", "is_disabled": 0, "lat": 38.892462333333334, "rental_uris": {"ios": "https://dc.lft.to/lastmile_qr_scan", "android": "https://dc.lft.to/lastmile_qr_scan"}, "is_reserved": 0, "fusion_lon": 0.0, "fusion_lat": 0.0, "lon": -77.04878666666667, "name": "4d5a09f69f795eb07009504b40adf45c"}, {"bike_id": "2179d20c7c44a3904ac1013a4f8b9bbb", "type": "electric_scooter", "is_disabled": 0, "lat": 38.91769083333333, "rental_uris": {"ios": "https://dc.lft.to/lastmile_qr_scan", "android": "https://dc.lft.to/lastmile_qr_scan"}, "is_reserved": 0, "fusion_lon": 0.0, "fusion_lat": 0.0, "lon": -77.02952383333333, "name": "2179d20c7c44a3904ac1013a4f8b9bbb"}, {"bike_id": "840bd2a1371238ac3a12a556a0a11672", "type": "electric_scooter", "is_disabled": 0, "lat": 38.926385833333335, "rental_uris": {"ios": "https://dc.lft.to/lastmile_qr_scan", "android": "https://dc.lft.to/lastmile_qr_scan"}, "is_reserved": 0, "fusion_lon": 0.0, "fusion_lat": 0.0, "lon": -77.013827, "name": "840bd2a1371238ac3a12a556a0a11672"}, {"bike_id": "91e22a52727c3d46df3e8de2386f80ca", "type": "electric_scooter", "is_disabled": 0, "lat": 38.865031, "rental_uris": {"ios": "https://dc.lft.to/lastmile_qr_scan", "android": "https://dc.lft.to/lastmile_qr_scan"}, "is_reserved": 0, "fusion_lon": 0.0, "fusion_lat": 0.0, "lon": -76.99001333333334, "name": "91e22a52727c3d46df3e8de2386f80ca"}, {"bike_id": "bb8fac66d1c192ef2d5eea439963d85b", "type": "electric_scooter", "is_disabled": 0, "lat": 38.916417, "rental_uris": {"ios": "https://dc.lft.to/lastmile_qr_scan", "android": "https://dc.lft.to/lastmile_qr_scan"}, "is_reserved": 0, "fusion_lon": 0.0, "fusion_lat": 0.0, "lon": -77.03212566666667, "name": "bb8fac66d1c192ef2d5eea439963d85b"}, {"bike_id": "8d04ef193066dc2b67e525407b1c5acc", "type": "electric_scooter", "is_disabled": 0, "lat": 38.90090583333333, "rental_uris": {"ios": "https://dc.lft.to/lastmile_qr_scan", "android": "https://dc.lft.to/lastmile_qr_scan"}, "is_reserved": 0, "fusion_lon": 0.0, "fusion_lat": 0.0, "lon": -76.98337033333334, "name": "8d04ef193066dc2b67e525407b1c5acc"}, {"bike_id": "452e90495353ff579a3f4d76b7859f5d", "type": "electric_scooter", "is_disabled": 0, "lat": 38.87502966666667, "rental_uris": {"ios": "https://dc.lft.to/lastmile_qr_scan", "android": "https://dc.lft.to/lastmile_qr_scan"}, "is_reserved": 0, "fusion_lon": 0.0, "fusion_lat": 0.0, "lon": -77.01226883333334, "name": "452e90495353ff579a3f4d76b7859f5d"}, {"bike_id": "7c5be822e1f4f9db5ba747bc70dc7ef7", "type": "electric_bike", "is_disabled": 0, "lat": 38.809040333333336, "rental_uris": {"ios": "https://dc.lft.to/lastmile_qr_scan", "android": "https://dc.lft.to/lastmile_qr_scan"}, "is_reserved": 0, "fusion_lon": 0.0, "fusion_lat": 0.0, "lon": -77.08656533333334, "name": "7c5be822e1f4f9db5ba747bc70dc7ef7"}, {"bike_id": "a118433f96b1dd30d55e948f7d1d0147", "type": "electric_scooter", "is_disabled": 0, "lat": 38.878567, "rental_uris": {"ios": "https://dc.lft.to/lastmile_qr_scan", "android": "https://dc.lft.to/lastmile_qr_scan"}, "is_reserved": 0, "fusion_lon": 0.0, "fusion_lat": 0.0, "lon": -77.017589, "name": "a118433f96b1dd30d55e948f7d1d0147"}, {"bike_id": "d88ee88940196b37ea6f524bc0adcddf", "type": "electric_scooter", "is_disabled": 0, "lat": 38.90234, "rental_uris": {"ios": "https://dc.lft.to/lastmile_qr_scan", "android": "https://dc.lft.to/lastmile_qr_scan"}, "is_reserved": 0, "fusion_lon": 0.0, "fusion_lat": 0.0, "lon": -77.037797, "name": "d88ee88940196b37ea6f524bc0adcddf"}, {"bike_id": "c3495778eded666afeaba5f7e0f76942", "type": "electric_scooter", "is_disabled": 0, "lat": 38.86630366666667, "rental_uris": {"ios": "https://dc.lft.to/lastmile_qr_scan", "android": "https://dc.lft.to/lastmile_qr_scan"}, "is_reserved": 0, "fusion_lon": 0.0, "fusion_lat": 0.0, "lon": -76.98897683333334, "name": "c3495778eded666afeaba5f7e0f76942"}, {"bike_id": "9f26b45bf997fc3855c41df3f3f2f29c", "type": "electric_scooter", "is_disabled": 0, "lat": 38.90243366666667, "rental_uris": {"ios": "https://dc.lft.to/lastmile_qr_scan", "android": "https://dc.lft.to/lastmile_qr_scan"}, "is_reserved": 0, "fusion_lon": 0.0, "fusion_lat": 0.0, "lon": -77.0359145, "name": "9f26b45bf997fc3855c41df3f3f2f29c"}, {"bike_id": "d824af1d41e3c4309f2c11cf48d2f1c5", "type": "electric_scooter", "is_disabled": 0, "lat": 38.91687433333333, "rental_uris": {"ios": "https://dc.lft.to/lastmile_qr_scan", "android": "https://dc.lft.to/lastmile_qr_scan"}, "is_reserved": 0, "fusion_lon": 0.0, "fusion_lat": 0.0, "lon": -77.03863083333333, "name": "d824af1d41e3c4309f2c11cf48d2f1c5"}, {"bike_id": "c3718b218339b4f996a01fb49b32abd9", "type": "electric_scooter", "is_disabled": 0, "lat": 38.91553183333333, "rental_uris": {"ios": "https://dc.lft.to/lastmile_qr_scan", "android": "https://dc.lft.to/lastmile_qr_scan"}, "is_reserved": 0, "fusion_lon": 0.0, "fusion_lat": 0.0, "lon": -77.021364, "name": "c3718b218339b4f996a01fb49b32abd9"}, {"bike_id": "58b11578063d7d58e968f4799ec356af", "type": "electric_scooter", "is_disabled": 0, "lat": 38.905598833333336, "rental_uris": {"ios": "https://dc.lft.to/lastmile_qr_scan", "android": "https://dc.lft.to/lastmile_qr_scan"}, "is_reserved": 0, "fusion_lon": 0.0, "fusion_lat": 0.0, "lon": -77.04507266666667, "name": "58b11578063d7d58e968f4799ec356af"}, {"bike_id": "6b4a090721061f93da5092a9ebef3e19", "type": "electric_scooter", "is_disabled": 0, "lat": 38.884293666666665, "rental_uris": {"ios": "https://dc.lft.to/lastmile_qr_scan", "android": "https://dc.lft.to/lastmile_qr_scan"}, "is_reserved": 0, "fusion_lon": 0.0, "fusion_lat": 0.0, "lon": -76.9575735, "name": "6b4a090721061f93da5092a9ebef3e19"}, {"bike_id": "49bb651b8c73ae66c41bbf25d8bd5abb", "type": "electric_scooter", "is_disabled": 0, "lat": 38.908033333333336, "rental_uris": {"ios": "https://dc.lft.to/lastmile_qr_scan", "android": "https://dc.lft.to/lastmile_qr_scan"}, "is_reserved": 0, "fusion_lon": 0.0, "fusion_lat": 0.0, "lon": -77.02597983333334, "name": "49bb651b8c73ae66c41bbf25d8bd5abb"}, {"bike_id": "d59a50df96446e7320cbd5e3ca3c6140", "type": "electric_bike", "is_disabled": 0, "lat": 38.803898833333335, "rental_uris": {"ios": "https://dc.lft.to/lastmile_qr_scan", "android": "https://dc.lft.to/lastmile_qr_scan"}, "is_reserved": 0, "fusion_lon": 0.0, "fusion_lat": 0.0, "lon": -77.05565416666667, "name": "d59a50df96446e7320cbd5e3ca3c6140"}, {"bike_id": "f7a0871404c8d7cc75e05cf5b64fc947", "type": "electric_bike", "is_disabled": 0, "lat": 38.865174, "rental_uris": {"ios": "https://dc.lft.to/lastmile_qr_scan", "android": "https://dc.lft.to/lastmile_qr_scan"}, "is_reserved": 0, "fusion_lon": 0.0, "fusion_lat": 0.0, "lon": -77.129367, "name": "f7a0871404c8d7cc75e05cf5b64fc947"}, {"bike_id": "d22f29c0e55964b54657ea04a20f86f9", "type": "electric_scooter", "is_disabled": 0, "lat": 38.9447085, "rental_uris": {"ios": "https://dc.lft.to/lastmile_qr_scan", "android": "https://dc.lft.to/lastmile_qr_scan"}, "is_reserved": 0, "fusion_lon": 0.0, "fusion_lat": 0.0, "lon": -77.0234265, "name": "d22f29c0e55964b54657ea04a20f86f9"}, {"bike_id": "4247e9185c93820c2cf2b01dbce3cd96", "type": "electric_scooter", "is_disabled": 0, "lat": 38.926232166666665, "rental_uris": {"ios": "https://dc.lft.to/lastmile_qr_scan", "android": "https://dc.lft.to/lastmile_qr_scan"}, "is_reserved": 0, "fusion_lon": 0.0, "fusion_lat": 0.0, "lon": -77.03710516666666, "name": "4247e9185c93820c2cf2b01dbce3cd96"}, {"bike_id": "652b4ca22fc905392243092a23eb4cca", "type": "electric_bike", "is_disabled": 0, "lat": 38.91896066666666, "rental_uris": {"ios": "https://dc.lft.to/lastmile_qr_scan", "android": "https://dc.lft.to/lastmile_qr_scan"}, "is_reserved": 0, "fusion_lon": 0.0, "fusion_lat": 0.0, "lon": -77.000536, "name": "652b4ca22fc905392243092a23eb4cca"}, {"bike_id": "cacc3b4f1da71d674783a9e327745357", "type": "electric_scooter", "is_disabled": 0, "lat": 38.900588666666664, "rental_uris": {"ios": "https://dc.lft.to/lastmile_qr_scan", "android": "https://dc.lft.to/lastmile_qr_scan"}, "is_reserved": 0, "fusion_lon": 0.0, "fusion_lat": 0.0, "lon": -77.05057483333333, "name": "cacc3b4f1da71d674783a9e327745357"}, {"bike_id": "667108570a297dc97795fa518455fdb2", "type": "electric_scooter", "is_disabled": 0, "lat": 38.87880216666667, "rental_uris": {"ios": "https://dc.lft.to/lastmile_qr_scan", "android": "https://dc.lft.to/lastmile_qr_scan"}, "is_reserved": 0, "fusion_lon": 0.0, "fusion_lat": 0.0, "lon": -76.99168133333333, "name": "667108570a297dc97795fa518455fdb2"}, {"bike_id": "56af827e638cba60b4d81f8e186ebc1c", "type": "electric_scooter", "is_disabled": 0, "lat": 38.9074685, "rental_uris": {"ios": "https://dc.lft.to/lastmile_qr_scan", "android": "https://dc.lft.to/lastmile_qr_scan"}, "is_reserved": 0, "fusion_lon": 0.0, "fusion_lat": 0.0, "lon": -77.04281633333333, "name": "56af827e638cba60b4d81f8e186ebc1c"}, {"bike_id": "2b1c54d9083366393bec1fb9f698a01a", "type": "electric_scooter", "is_disabled": 0, "lat": 38.89697833333334, "rental_uris": {"ios": "https://dc.lft.to/lastmile_qr_scan", "android": "https://dc.lft.to/lastmile_qr_scan"}, "is_reserved": 0, "fusion_lon": 0.0, "fusion_lat": 0.0, "lon": -76.929979, "name": "2b1c54d9083366393bec1fb9f698a01a"}, {"bike_id": "63c29b05fc5da3a5c01c9588526ee860", "type": "electric_scooter", "is_disabled": 0, "lat": 38.89523, "rental_uris": {"ios": "https://dc.lft.to/lastmile_qr_scan", "android": "https://dc.lft.to/lastmile_qr_scan"}, "is_reserved": 0, "fusion_lon": 0.0, "fusion_lat": 0.0, "lon": -77.02285766666667, "name": "63c29b05fc5da3a5c01c9588526ee860"}, {"bike_id": "b0025d552910e36b7b0a4bc67772400f", "type": "electric_scooter", "is_disabled": 0, "lat": 38.8821255, "rental_uris": {"ios": "https://dc.lft.to/lastmile_qr_scan", "android": "https://dc.lft.to/lastmile_qr_scan"}, "is_reserved": 0, "fusion_lon": 0.0, "fusion_lat": 0.0, "lon": -77.02909833333334, "name": "b0025d552910e36b7b0a4bc67772400f"}, {"bike_id": "f1a42274dd930aec73a185302d348c5c", "type": "electric_scooter", "is_disabled": 0, "lat": 38.88714266666667, "rental_uris": {"ios": "https://dc.lft.to/lastmile_qr_scan", "android": "https://dc.lft.to/lastmile_qr_scan"}, "is_reserved": 0, "fusion_lon": 0.0, "fusion_lat": 0.0, "lon": -77.0218115, "name": "f1a42274dd930aec73a185302d348c5c"}, {"bike_id": "afa794585b008b2188f8df1e51511072", "type": "electric_scooter", "is_disabled": 0, "lat": 38.90732716666667, "rental_uris": {"ios": "https://dc.lft.to/lastmile_qr_scan", "android": "https://dc.lft.to/lastmile_qr_scan"}, "is_reserved": 0, "fusion_lon": 0.0, "fusion_lat": 0.0, "lon": -77.02181283333333, "name": "afa794585b008b2188f8df1e51511072"}, {"bike_id": "bc680b9b6c6e4e688b32c76256536cc8", "type": "electric_scooter", "is_disabled": 0, "lat": 38.90846883333333, "rental_uris": {"ios": "https://dc.lft.to/lastmile_qr_scan", "android": "https://dc.lft.to/lastmile_qr_scan"}, "is_reserved": 0, "fusion_lon": 0.0, "fusion_lat": 0.0, "lon": -77.02060316666666, "name": "bc680b9b6c6e4e688b32c76256536cc8"}, {"bike_id": "9852cb809aa3422712f76ebc718d7645", "type": "electric_scooter", "is_disabled": 0, "lat": 38.910347333333334, "rental_uris": {"ios": "https://dc.lft.to/lastmile_qr_scan", "android": "https://dc.lft.to/lastmile_qr_scan"}, "is_reserved": 0, "fusion_lon": 0.0, "fusion_lat": 0.0, "lon": -77.03800783333334, "name": "9852cb809aa3422712f76ebc718d7645"}, {"bike_id": "af18a5b5e8c54b1e796b79567f3481eb", "type": "electric_scooter", "is_disabled": 0, "lat": 38.923385, "rental_uris": {"ios": "https://dc.lft.to/lastmile_qr_scan", "android": "https://dc.lft.to/lastmile_qr_scan"}, "is_reserved": 0, "fusion_lon": 0.0, "fusion_lat": 0.0, "lon": -77.0537405, "name": "af18a5b5e8c54b1e796b79567f3481eb"}, {"bike_id": "0292afe4c63806972dd691ef2909d331", "type": "electric_scooter", "is_disabled": 0, "lat": 38.90864066666666, "rental_uris": {"ios": "https://dc.lft.to/lastmile_qr_scan", "android": "https://dc.lft.to/lastmile_qr_scan"}, "is_reserved": 0, "fusion_lon": 0.0, "fusion_lat": 0.0, "lon": -77.02679983333333, "name": "0292afe4c63806972dd691ef2909d331"}, {"bike_id": "03b5ae8ba035f48d996474bee4772628", "type": "electric_scooter", "is_disabled": 0, "lat": 38.920768333333335, "rental_uris": {"ios": "https://dc.lft.to/lastmile_qr_scan", "android": "https://dc.lft.to/lastmile_qr_scan"}, "is_reserved": 0, "fusion_lon": 0.0, "fusion_lat": 0.0, "lon": -77.02345566666666, "name": "03b5ae8ba035f48d996474bee4772628"}, {"bike_id": "9e75d4885271b2800f809e582d7526f7", "type": "electric_scooter", "is_disabled": 0, "lat": 38.8724315, "rental_uris": {"ios": "https://dc.lft.to/lastmile_qr_scan", "android": "https://dc.lft.to/lastmile_qr_scan"}, "is_reserved": 0, "fusion_lon": 0.0, "fusion_lat": 0.0, "lon": -76.97727716666667, "name": "9e75d4885271b2800f809e582d7526f7"}, {"bike_id": "af8b48bfdc5f7eb3e4d61dd1df6992e2", "type": "electric_scooter", "is_disabled": 0, "lat": 38.918129666666665, "rental_uris": {"ios": "https://dc.lft.to/lastmile_qr_scan", "android": "https://dc.lft.to/lastmile_qr_scan"}, "is_reserved": 0, "fusion_lon": 0.0, "fusion_lat": 0.0, "lon": -77.01205566666667, "name": "af8b48bfdc5f7eb3e4d61dd1df6992e2"}, {"bike_id": "cfb6143d476e2c86ebca7d207bc255bc", "type": "electric_scooter", "is_disabled": 0, "lat": 38.911755666666664, "rental_uris": {"ios": "https://dc.lft.to/lastmile_qr_scan", "android": "https://dc.lft.to/lastmile_qr_scan"}, "is_reserved": 0, "fusion_lon": 0.0, "fusion_lat": 0.0, "lon": -77.01209966666667, "name": "cfb6143d476e2c86ebca7d207bc255bc"}, {"bike_id": "ab7292f0b2cc8bb3a2c7d0ae5a3a0a3c", "type": "electric_bike", "is_disabled": 0, "lat": 38.97401883333333, "rental_uris": {"ios": "https://dc.lft.to/lastmile_qr_scan", "android": "https://dc.lft.to/lastmile_qr_scan"}, "is_reserved": 0, "fusion_lon": 0.0, "fusion_lat": 0.0, "lon": -77.06457416666667, "name": "ab7292f0b2cc8bb3a2c7d0ae5a3a0a3c"}, {"bike_id": "ef73f8810003edd66f3f7733ef37de20", "type": "electric_scooter", "is_disabled": 0, "lat": 38.885327333333336, "rental_uris": {"ios": "https://dc.lft.to/lastmile_qr_scan", "android": "https://dc.lft.to/lastmile_qr_scan"}, "is_reserved": 0, "fusion_lon": 0.0, "fusion_lat": 0.0, "lon": -76.99823316666667, "name": "ef73f8810003edd66f3f7733ef37de20"}, {"bike_id": "57584fa63e544cc4356ab6ea7d1d4119", "type": "electric_scooter", "is_disabled": 0, "lat": 38.916765166666664, "rental_uris": {"ios": "https://dc.lft.to/lastmile_qr_scan", "android": "https://dc.lft.to/lastmile_qr_scan"}, "is_reserved": 0, "fusion_lon": 0.0, "fusion_lat": 0.0, "lon": -77.02958833333334, "name": "57584fa63e544cc4356ab6ea7d1d4119"}, {"bike_id": "3ceefafe12a0c3c410f8176490a51174", "type": "electric_scooter", "is_disabled": 0, "lat": 38.91686383333333, "rental_uris": {"ios": "https://dc.lft.to/lastmile_qr_scan", "android": "https://dc.lft.to/lastmile_qr_scan"}, "is_reserved": 0, "fusion_lon": 0.0, "fusion_lat": 0.0, "lon": -77.02954033333333, "name": "3ceefafe12a0c3c410f8176490a51174"}, {"bike_id": "1ed800fbb5fc5635018358b39bb25303", "type": "electric_scooter", "is_disabled": 0, "lat": 38.9578785, "rental_uris": {"ios": "https://dc.lft.to/lastmile_qr_scan", "android": "https://dc.lft.to/lastmile_qr_scan"}, "is_reserved": 0, "fusion_lon": 0.0, "fusion_lat": 0.0, "lon": -77.03219266666666, "name": "1ed800fbb5fc5635018358b39bb25303"}, {"bike_id": "e889ce8594f476510fd175ffb6968851", "type": "electric_scooter", "is_disabled": 0, "lat": 38.923766, "rental_uris": {"ios": "https://dc.lft.to/lastmile_qr_scan", "android": "https://dc.lft.to/lastmile_qr_scan"}, "is_reserved": 0, "fusion_lon": 0.0, "fusion_lat": 0.0, "lon": -77.0297895, "name": "e889ce8594f476510fd175ffb6968851"}, {"bike_id": "6b9bbb45a68f0a3097747ccb9b4ae72d", "type": "electric_scooter", "is_disabled": 0, "lat": 38.923466833333336, "rental_uris": {"ios": "https://dc.lft.to/lastmile_qr_scan", "android": "https://dc.lft.to/lastmile_qr_scan"}, "is_reserved": 0, "fusion_lon": 0.0, "fusion_lat": 0.0, "lon": -77.05120066666667, "name": "6b9bbb45a68f0a3097747ccb9b4ae72d"}, {"bike_id": "7e827722126123b0d2c8380d5ea453d6", "type": "electric_scooter", "is_disabled": 0, "lat": 38.897260333333335, "rental_uris": {"ios": "https://dc.lft.to/lastmile_qr_scan", "android": "https://dc.lft.to/lastmile_qr_scan"}, "is_reserved": 0, "fusion_lon": 0.0, "fusion_lat": 0.0, "lon": -77.01766483333333, "name": "7e827722126123b0d2c8380d5ea453d6"}, {"bike_id": "74446c77963eb6353a2e51fe56ad5e32", "type": "electric_scooter", "is_disabled": 0, "lat": 38.923338666666666, "rental_uris": {"ios": "https://dc.lft.to/lastmile_qr_scan", "android": "https://dc.lft.to/lastmile_qr_scan"}, "is_reserved": 0, "fusion_lon": 0.0, "fusion_lat": 0.0, "lon": -77.03789066666667, "name": "74446c77963eb6353a2e51fe56ad5e32"}, {"bike_id": "02e82a66ae2988a45ddffe390219924e", "type": "electric_scooter", "is_disabled": 0, "lat": 38.923224166666664, "rental_uris": {"ios": "https://dc.lft.to/lastmile_qr_scan", "android": "https://dc.lft.to/lastmile_qr_scan"}, "is_reserved": 0, "fusion_lon": 0.0, "fusion_lat": 0.0, "lon": -77.04447316666666, "name": "02e82a66ae2988a45ddffe390219924e"}, {"bike_id": "db1c71ddb8981f1270dafda23f1f34c6", "type": "electric_scooter", "is_disabled": 0, "lat": 38.905649333333336, "rental_uris": {"ios": "https://dc.lft.to/lastmile_qr_scan", "android": "https://dc.lft.to/lastmile_qr_scan"}, "is_reserved": 0, "fusion_lon": 0.0, "fusion_lat": 0.0, "lon": -77.0513765, "name": "db1c71ddb8981f1270dafda23f1f34c6"}, {"bike_id": "9242378cce4ee56dd3691d0c23a0f8a6", "type": "electric_scooter", "is_disabled": 0, "lat": 38.876838, "rental_uris": {"ios": "https://dc.lft.to/lastmile_qr_scan", "android": "https://dc.lft.to/lastmile_qr_scan"}, "is_reserved": 0, "fusion_lon": 0.0, "fusion_lat": 0.0, "lon": -77.00070533333333, "name": "9242378cce4ee56dd3691d0c23a0f8a6"}, {"bike_id": "229dcd71b8d78202e281888d20a7ed93", "type": "electric_scooter", "is_disabled": 0, "lat": 38.95000366666667, "rental_uris": {"ios": "https://dc.lft.to/lastmile_qr_scan", "android": "https://dc.lft.to/lastmile_qr_scan"}, "is_reserved": 0, "fusion_lon": 0.0, "fusion_lat": 0.0, "lon": -77.01830416666667, "name": "229dcd71b8d78202e281888d20a7ed93"}, {"bike_id": "5ec3870779ce98d2d4dcae813df8bc9d", "type": "electric_scooter", "is_disabled": 0, "lat": 38.909776, "rental_uris": {"ios": "https://dc.lft.to/lastmile_qr_scan", "android": "https://dc.lft.to/lastmile_qr_scan"}, "is_reserved": 0, "fusion_lon": 0.0, "fusion_lat": 0.0, "lon": -76.9950665, "name": "5ec3870779ce98d2d4dcae813df8bc9d"}, {"bike_id": "6a2d851ac70c81d464fea2d44fbd91f3", "type": "electric_scooter", "is_disabled": 0, "lat": 38.876211833333336, "rental_uris": {"ios": "https://dc.lft.to/lastmile_qr_scan", "android": "https://dc.lft.to/lastmile_qr_scan"}, "is_reserved": 0, "fusion_lon": 0.0, "fusion_lat": 0.0, "lon": -76.965229, "name": "6a2d851ac70c81d464fea2d44fbd91f3"}, {"bike_id": "1b974f705a46dd68f36ef57a5485ba7c", "type": "electric_bike", "is_disabled": 0, "lat": 38.895624833333336, "rental_uris": {"ios": "https://dc.lft.to/lastmile_qr_scan", "android": "https://dc.lft.to/lastmile_qr_scan"}, "is_reserved": 0, "fusion_lon": 0.0, "fusion_lat": 0.0, "lon": -77.1273655, "name": "1b974f705a46dd68f36ef57a5485ba7c"}, {"bike_id": "2431c3bd922f8b6435fe6a983923b7c1", "type": "electric_scooter", "is_disabled": 0, "lat": 38.92694916666667, "rental_uris": {"ios": "https://dc.lft.to/lastmile_qr_scan", "android": "https://dc.lft.to/lastmile_qr_scan"}, "is_reserved": 0, "fusion_lon": 0.0, "fusion_lat": 0.0, "lon": -77.0149985, "name": "2431c3bd922f8b6435fe6a983923b7c1"}, {"bike_id": "102b883b157152eff700526959595fd6", "type": "electric_scooter", "is_disabled": 0, "lat": 38.9319175, "rental_uris": {"ios": "https://dc.lft.to/lastmile_qr_scan", "android": "https://dc.lft.to/lastmile_qr_scan"}, "is_reserved": 0, "fusion_lon": 0.0, "fusion_lat": 0.0, "lon": -77.023971, "name": "102b883b157152eff700526959595fd6"}, {"bike_id": "11dfa496c00d0d1ca3f0f80cc5dcada6", "type": "electric_scooter", "is_disabled": 0, "lat": 38.939194666666666, "rental_uris": {"ios": "https://dc.lft.to/lastmile_qr_scan", "android": "https://dc.lft.to/lastmile_qr_scan"}, "is_reserved": 0, "fusion_lon": 0.0, "fusion_lat": 0.0, "lon": -77.03675266666667, "name": "11dfa496c00d0d1ca3f0f80cc5dcada6"}, {"bike_id": "2fa33acdbb7d7cc38e29f6cd02ed8356", "type": "electric_scooter", "is_disabled": 0, "lat": 38.90060666666667, "rental_uris": {"ios": "https://dc.lft.to/lastmile_qr_scan", "android": "https://dc.lft.to/lastmile_qr_scan"}, "is_reserved": 0, "fusion_lon": 0.0, "fusion_lat": 0.0, "lon": -76.92742516666667, "name": "2fa33acdbb7d7cc38e29f6cd02ed8356"}, {"bike_id": "5b998723ed64b7bb61af220a6ffe33f3", "type": "electric_scooter", "is_disabled": 0, "lat": 38.904933, "rental_uris": {"ios": "https://dc.lft.to/lastmile_qr_scan", "android": "https://dc.lft.to/lastmile_qr_scan"}, "is_reserved": 0, "fusion_lon": 0.0, "fusion_lat": 0.0, "lon": -77.0431535, "name": "5b998723ed64b7bb61af220a6ffe33f3"}, {"bike_id": "f26083d1faacc852e62dbdb01e705e18", "type": "electric_scooter", "is_disabled": 0, "lat": 38.9016635, "rental_uris": {"ios": "https://dc.lft.to/lastmile_qr_scan", "android": "https://dc.lft.to/lastmile_qr_scan"}, "is_reserved": 0, "fusion_lon": 0.0, "fusion_lat": 0.0, "lon": -77.02023416666667, "name": "f26083d1faacc852e62dbdb01e705e18"}, {"bike_id": "0e8b5ef90ae1b9b71e434dd4fc520a35", "type": "electric_scooter", "is_disabled": 0, "lat": 38.9333865, "rental_uris": {"ios": "https://dc.lft.to/lastmile_qr_scan", "android": "https://dc.lft.to/lastmile_qr_scan"}, "is_reserved": 0, "fusion_lon": 0.0, "fusion_lat": 0.0, "lon": -77.02055116666666, "name": "0e8b5ef90ae1b9b71e434dd4fc520a35"}, {"bike_id": "af730775c91566cb14c8226714f3c6a5", "type": "electric_scooter", "is_disabled": 0, "lat": 38.867016, "rental_uris": {"ios": "https://dc.lft.to/lastmile_qr_scan", "android": "https://dc.lft.to/lastmile_qr_scan"}, "is_reserved": 0, "fusion_lon": 0.0, "fusion_lat": 0.0, "lon": -76.987127, "name": "af730775c91566cb14c8226714f3c6a5"}, {"bike_id": "085cc3432e4d81f2b304c836319fff20", "type": "electric_scooter", "is_disabled": 0, "lat": 38.933879, "rental_uris": {"ios": "https://dc.lft.to/lastmile_qr_scan", "android": "https://dc.lft.to/lastmile_qr_scan"}, "is_reserved": 0, "fusion_lon": 0.0, "fusion_lat": 0.0, "lon": -77.05740716666666, "name": "085cc3432e4d81f2b304c836319fff20"}, {"bike_id": "f10271ead7d19d37973ffcd61d38270e", "type": "electric_scooter", "is_disabled": 0, "lat": 38.89503, "rental_uris": {"ios": "https://dc.lft.to/lastmile_qr_scan", "android": "https://dc.lft.to/lastmile_qr_scan"}, "is_reserved": 0, "fusion_lon": 0.0, "fusion_lat": 0.0, "lon": -77.02285566666667, "name": "f10271ead7d19d37973ffcd61d38270e"}, {"bike_id": "dc0a2513f5a3564acb39f4c57934ce0b", "type": "electric_scooter", "is_disabled": 0, "lat": 38.89735183333333, "rental_uris": {"ios": "https://dc.lft.to/lastmile_qr_scan", "android": "https://dc.lft.to/lastmile_qr_scan"}, "is_reserved": 0, "fusion_lon": 0.0, "fusion_lat": 0.0, "lon": -77.04677833333334, "name": "dc0a2513f5a3564acb39f4c57934ce0b"}, {"bike_id": "209451156221e0b59f080575fb81f35b", "type": "electric_scooter", "is_disabled": 0, "lat": 38.91822283333333, "rental_uris": {"ios": "https://dc.lft.to/lastmile_qr_scan", "android": "https://dc.lft.to/lastmile_qr_scan"}, "is_reserved": 0, "fusion_lon": 0.0, "fusion_lat": 0.0, "lon": -77.049397, "name": "209451156221e0b59f080575fb81f35b"}, {"bike_id": "6469cfe7cdce389c2ca777b5db7c74ff", "type": "electric_scooter", "is_disabled": 0, "lat": 38.91677, "rental_uris": {"ios": "https://dc.lft.to/lastmile_qr_scan", "android": "https://dc.lft.to/lastmile_qr_scan"}, "is_reserved": 0, "fusion_lon": 0.0, "fusion_lat": 0.0, "lon": -77.029469, "name": "6469cfe7cdce389c2ca777b5db7c74ff"}, {"bike_id": "d9fc9e7908c3625f6ce3d3085e2a615e", "type": "electric_scooter", "is_disabled": 0, "lat": 38.90721283333333, "rental_uris": {"ios": "https://dc.lft.to/lastmile_qr_scan", "android": "https://dc.lft.to/lastmile_qr_scan"}, "is_reserved": 0, "fusion_lon": 0.0, "fusion_lat": 0.0, "lon": -77.0327295, "name": "d9fc9e7908c3625f6ce3d3085e2a615e"}, {"bike_id": "9788400d85388c2d96c52b1385d5c490", "type": "electric_scooter", "is_disabled": 0, "lat": 38.92993833333333, "rental_uris": {"ios": "https://dc.lft.to/lastmile_qr_scan", "android": "https://dc.lft.to/lastmile_qr_scan"}, "is_reserved": 0, "fusion_lon": 0.0, "fusion_lat": 0.0, "lon": -77.02369416666667, "name": "9788400d85388c2d96c52b1385d5c490"}, {"bike_id": "7222f2bdef1273857421ef05b3af200f", "type": "electric_scooter", "is_disabled": 0, "lat": 38.88118516666667, "rental_uris": {"ios": "https://dc.lft.to/lastmile_qr_scan", "android": "https://dc.lft.to/lastmile_qr_scan"}, "is_reserved": 0, "fusion_lon": 0.0, "fusion_lat": 0.0, "lon": -77.00178283333334, "name": "7222f2bdef1273857421ef05b3af200f"}, {"bike_id": "7535768c7787d890e17eaa0849375abd", "type": "electric_scooter", "is_disabled": 0, "lat": 38.911925833333335, "rental_uris": {"ios": "https://dc.lft.to/lastmile_qr_scan", "android": "https://dc.lft.to/lastmile_qr_scan"}, "is_reserved": 0, "fusion_lon": 0.0, "fusion_lat": 0.0, "lon": -77.03833216666666, "name": "7535768c7787d890e17eaa0849375abd"}, {"bike_id": "0125190caea3916961a493af83d27e7f", "type": "electric_bike", "is_disabled": 0, "lat": 39.052782666666666, "rental_uris": {"ios": "https://dc.lft.to/lastmile_qr_scan", "android": "https://dc.lft.to/lastmile_qr_scan"}, "is_reserved": 0, "fusion_lon": 0.0, "fusion_lat": 0.0, "lon": -77.080659, "name": "0125190caea3916961a493af83d27e7f"}, {"bike_id": "8d1f89e5dfa80491fe87ae2552c87d46", "type": "electric_scooter", "is_disabled": 0, "lat": 38.87355183333333, "rental_uris": {"ios": "https://dc.lft.to/lastmile_qr_scan", "android": "https://dc.lft.to/lastmile_qr_scan"}, "is_reserved": 0, "fusion_lon": 0.0, "fusion_lat": 0.0, "lon": -76.9702915, "name": "8d1f89e5dfa80491fe87ae2552c87d46"}, {"bike_id": "df0f9953311116853b39da129ea6639d", "type": "electric_scooter", "is_disabled": 0, "lat": 38.96501266666667, "rental_uris": {"ios": "https://dc.lft.to/lastmile_qr_scan", "android": "https://dc.lft.to/lastmile_qr_scan"}, "is_reserved": 0, "fusion_lon": 0.0, "fusion_lat": 0.0, "lon": -77.0020175, "name": "df0f9953311116853b39da129ea6639d"}, {"bike_id": "91f92ced5c268f8d0bc4194d7383e3a7", "type": "electric_bike", "is_disabled": 0, "lat": 38.93896216666667, "rental_uris": {"ios": "https://dc.lft.to/lastmile_qr_scan", "android": "https://dc.lft.to/lastmile_qr_scan"}, "is_reserved": 0, "fusion_lon": 0.0, "fusion_lat": 0.0, "lon": -77.06343883333334, "name": "91f92ced5c268f8d0bc4194d7383e3a7"}, {"bike_id": "83e3031c8c37a1b57762ac3c7800e42b", "type": "electric_scooter", "is_disabled": 0, "lat": 38.928774, "rental_uris": {"ios": "https://dc.lft.to/lastmile_qr_scan", "android": "https://dc.lft.to/lastmile_qr_scan"}, "is_reserved": 0, "fusion_lon": 0.0, "fusion_lat": 0.0, "lon": -77.0377015, "name": "83e3031c8c37a1b57762ac3c7800e42b"}, {"bike_id": "b29b96066fb3faa84d3e16aa668a68db", "type": "electric_scooter", "is_disabled": 0, "lat": 38.91406933333333, "rental_uris": {"ios": "https://dc.lft.to/lastmile_qr_scan", "android": "https://dc.lft.to/lastmile_qr_scan"}, "is_reserved": 0, "fusion_lon": 0.0, "fusion_lat": 0.0, "lon": -77.02182866666666, "name": "b29b96066fb3faa84d3e16aa668a68db"}, {"bike_id": "46beecad1b6f5b7c10d0d8fae8d41836", "type": "electric_scooter", "is_disabled": 0, "lat": 38.895101, "rental_uris": {"ios": "https://dc.lft.to/lastmile_qr_scan", "android": "https://dc.lft.to/lastmile_qr_scan"}, "is_reserved": 0, "fusion_lon": 0.0, "fusion_lat": 0.0, "lon": -77.01604966666666, "name": "46beecad1b6f5b7c10d0d8fae8d41836"}, {"bike_id": "30eb10e93e646e41bf4b3a06d742f8ae", "type": "electric_scooter", "is_disabled": 0, "lat": 38.91813966666667, "rental_uris": {"ios": "https://dc.lft.to/lastmile_qr_scan", "android": "https://dc.lft.to/lastmile_qr_scan"}, "is_reserved": 0, "fusion_lon": 0.0, "fusion_lat": 0.0, "lon": -77.0270035, "name": "30eb10e93e646e41bf4b3a06d742f8ae"}, {"bike_id": "3f4ede50ed4e9d17a5f04b8b5b9f590e", "type": "electric_scooter", "is_disabled": 0, "lat": 38.91107266666667, "rental_uris": {"ios": "https://dc.lft.to/lastmile_qr_scan", "android": "https://dc.lft.to/lastmile_qr_scan"}, "is_reserved": 0, "fusion_lon": 0.0, "fusion_lat": 0.0, "lon": -77.0421445, "name": "3f4ede50ed4e9d17a5f04b8b5b9f590e"}, {"bike_id": "a1d560dd92e39ab97b0395589d119ae6", "type": "electric_scooter", "is_disabled": 0, "lat": 38.84433533333333, "rental_uris": {"ios": "https://dc.lft.to/lastmile_qr_scan", "android": "https://dc.lft.to/lastmile_qr_scan"}, "is_reserved": 0, "fusion_lon": 0.0, "fusion_lat": 0.0, "lon": -76.99872533333334, "name": "a1d560dd92e39ab97b0395589d119ae6"}, {"bike_id": "032b663ec1e88a7cb0eb47ecee6cdb09", "type": "electric_scooter", "is_disabled": 0, "lat": 38.911068, "rental_uris": {"ios": "https://dc.lft.to/lastmile_qr_scan", "android": "https://dc.lft.to/lastmile_qr_scan"}, "is_reserved": 0, "fusion_lon": 0.0, "fusion_lat": 0.0, "lon": -77.013895, "name": "032b663ec1e88a7cb0eb47ecee6cdb09"}, {"bike_id": "83fda8d6f5988708b3b42ca32e4263cd", "type": "electric_scooter", "is_disabled": 0, "lat": 38.90965216666667, "rental_uris": {"ios": "https://dc.lft.to/lastmile_qr_scan", "android": "https://dc.lft.to/lastmile_qr_scan"}, "is_reserved": 0, "fusion_lon": 0.0, "fusion_lat": 0.0, "lon": -77.04072066666667, "name": "83fda8d6f5988708b3b42ca32e4263cd"}, {"bike_id": "438aae34adbbf3c6d98a7a264b767197", "type": "electric_scooter", "is_disabled": 0, "lat": 38.91719366666667, "rental_uris": {"ios": "https://dc.lft.to/lastmile_qr_scan", "android": "https://dc.lft.to/lastmile_qr_scan"}, "is_reserved": 0, "fusion_lon": 0.0, "fusion_lat": 0.0, "lon": -77.04685116666667, "name": "438aae34adbbf3c6d98a7a264b767197"}, {"bike_id": "2f787cc45b638145bf6907174991ebc5", "type": "electric_scooter", "is_disabled": 0, "lat": 38.914763666666666, "rental_uris": {"ios": "https://dc.lft.to/lastmile_qr_scan", "android": "https://dc.lft.to/lastmile_qr_scan"}, "is_reserved": 0, "fusion_lon": 0.0, "fusion_lat": 0.0, "lon": -77.04562816666666, "name": "2f787cc45b638145bf6907174991ebc5"}, {"bike_id": "5cf138088eaa3a89175b75550f7109b4", "type": "electric_scooter", "is_disabled": 0, "lat": 38.925782833333336, "rental_uris": {"ios": "https://dc.lft.to/lastmile_qr_scan", "android": "https://dc.lft.to/lastmile_qr_scan"}, "is_reserved": 0, "fusion_lon": 0.0, "fusion_lat": 0.0, "lon": -77.02877433333333, "name": "5cf138088eaa3a89175b75550f7109b4"}, {"bike_id": "b895d490c990088b8d8daa8902f8f5c2", "type": "electric_scooter", "is_disabled": 0, "lat": 38.98694583333333, "rental_uris": {"ios": "https://dc.lft.to/lastmile_qr_scan", "android": "https://dc.lft.to/lastmile_qr_scan"}, "is_reserved": 0, "fusion_lon": 0.0, "fusion_lat": 0.0, "lon": -77.0297965, "name": "b895d490c990088b8d8daa8902f8f5c2"}, {"bike_id": "73c00f1e09eaebe9eb686daefd978f7e", "type": "electric_scooter", "is_disabled": 0, "lat": 38.887113166666666, "rental_uris": {"ios": "https://dc.lft.to/lastmile_qr_scan", "android": "https://dc.lft.to/lastmile_qr_scan"}, "is_reserved": 0, "fusion_lon": 0.0, "fusion_lat": 0.0, "lon": -77.021855, "name": "73c00f1e09eaebe9eb686daefd978f7e"}, {"bike_id": "54561b8432a233c89f8c66dc93406855", "type": "electric_scooter", "is_disabled": 0, "lat": 38.932500833333336, "rental_uris": {"ios": "https://dc.lft.to/lastmile_qr_scan", "android": "https://dc.lft.to/lastmile_qr_scan"}, "is_reserved": 0, "fusion_lon": 0.0, "fusion_lat": 0.0, "lon": -76.995124, "name": "54561b8432a233c89f8c66dc93406855"},