{"data": {"bikes": [{"lon": -77.02200516666667, "bike_id": "784cc482e7d59d79c69b5969ca7e3d55", "lat": 38.9053915, "fusion_lon": 0.0, "fusion_lat": 0.0, "type": "electric_scooter", "name": "784cc482e7d59d79c69b5969ca7e3d55", "is_disabled": 0, "rental_uris": {"ios": "https://dc.lft.to/lastmile_qr_scan", "android": "https://dc.lft.to/lastmile_qr_scan"}, "is_reserved": 0}, {"lon": -77.06352566666666, "bike_id": "192ca99f369e725d6c8ab36b184f7740", "lat": 38.94448966666667, "fusion_lon": 0.0, "fusion_lat": 0.0, "type": "electric_scooter", "name": "192ca99f369e725d6c8ab36b184f7740", "is_disabled": 0, "rental_uris": {"ios": "https://dc.lft.to/lastmile_qr_scan", "android": "https://dc.lft.to/lastmile_qr_scan"}, "is_reserved": 0}, {"lon": -77.00539316666666, "bike_id": "2885f511a236b2714724e2c503ab6ad8", "lat": 38.90955683333333, "fusion_lon": 0.0, "fusion_lat": 0.0, "type": "electric_scooter", "name": "2885f511a236b2714724e2c503ab6ad8", "is_disabled": 0, "rental_uris": {"ios": "https://dc.lft.to/lastmile_qr_scan", "android": "https://dc.lft.to/lastmile_qr_scan"}, "is_reserved": 0}, {"lon": -76.94156033333333, "bike_id": "07f4b90e85e43856ab00f0ff12fae41e", "lat": 38.87906183333333, "fusion_lon": 0.0, "fusion_lat": 0.0, "type": "electric_scooter", "name": "07f4b90e85e43856ab00f0ff12fae41e", "is_disabled": 0, "rental_uris": {"ios": "https://dc.lft.to/lastmile_qr_scan", "android": "https://dc.lft.to/lastmile_qr_scan"}, "is_reserved": 0}, {"lon": -77.04474933333333, "bike_id": "ec194378336601c600171370487c1b9a", "lat": 38.92135416666667, "fusion_lon": 0.0, "fusion_lat": 0.0, "type": "electric_scooter", "name": "ec194378336601c600171370487c1b9a", "is_disabled": 0, "rental_uris": {"ios": "https://dc.lft.to/lastmile_qr_scan", "android": "https://dc.lft.to/lastmile_qr_scan"}, "is_reserved": 0}, {"lon": -77.03853133333334, "bike_id": "b0da9de64e632361951362b367c4a2db", "lat": 38.917449166666664, "fusion_lon": 0.0, "fusion_lat": 0.0, "type": "electric_scooter", "name": "b0da9de64e632361951362b367c4a2db", "is_disabled": 0, "rental_uris": {"ios": "https://dc.lft.to/lastmile_qr_scan", "android": "https://dc.lft.to/lastmile_qr_scan"}, "is_reserved": 0}, {"lon": -77.03268566666667, "bike_id": "8c71e249f3b15b50089abf781b57f938", "lat": 38.92875216666667, "fusion_lon": 0.0, "fusion_lat": 0.0, "type": "electric_scooter", "name": "8c71e249f3b15b50089abf781b57f938", "is_disabled": 0, "rental_uris": {"ios": "https://dc.lft.to/lastmile_qr_scan", "android": "https://dc.lft.to/lastmile_qr_scan"}, "is_reserved": 0}, {"lon": -77.00776566666667, "bike_id": "6a8a103e59378f1917891cf0f2f9cfc2", "lat": 38.897335166666664, "fusion_lon": 0.0, "fusion_lat": 0.0, "type": "electric_scooter", "name": "6a8a103e59378f1917891cf0f2f9cfc2", "is_disabled": 0, "rental_uris": {"ios": "https://dc.lft.to/lastmile_qr_scan", "android": "https://dc.lft.to/lastmile_qr_scan"}, "is_reserved": 0}, {"lon": -77.0461095, "bike_id": "5fd248925eb172a8bbc9be8e4a466e52", "lat": 38.921786833333336, "fusion_lon": 0.0, "fusion_lat": 0.0, "type": "electric_scooter", "name": "5fd248925eb172a8bbc9be8e4a466e52", "is_disabled": 0, "rental_uris": {"ios": "https://dc.lft.to/lastmile_qr_scan", "android": "https://dc.lft.to/lastmile_qr_scan"}, "is_reserved": 0}, {"lon": -76.992701, "bike_id": "ab9306b3816f550cbccf5bc7893de245", "lat": 38.897664, "fusion_lon": 0.0, "fusion_lat": 0.0, "type": "electric_scooter", "name": "ab9306b3816f550cbccf5bc7893de245", "is_disabled": 0, "rental_uris": {"ios": "https://dc.lft.to/lastmile_qr_scan", "android": "https://dc.lft.to/lastmile_qr_scan"}, "is_reserved": 0}, {"lon": -77.0160275, "bike_id": "514183ee83250168e1d34611b33b4b04", "lat": 38.90363166666667, "fusion_lon": 0.0, "fusion_lat": 0.0, "type": "electric_scooter", "name": "514183ee83250168e1d34611b33b4b04", "is_disabled": 0, "rental_uris": {"ios": "https://dc.lft.to/lastmile_qr_scan", "android": "https://dc.lft.to/lastmile_qr_scan"}, "is_reserved": 0}, {"lon": -76.98052416666667, "bike_id": "f8839d95bbd9c8097cb746d39bb86827", "lat": 38.9017595, "fusion_lon": 0.0, "fusion_lat": 0.0, "type": "electric_scooter", "name": "f8839d95bbd9c8097cb746d39bb86827", "is_disabled": 0, "rental_uris": {"ios": "https://dc.lft.to/lastmile_qr_scan", "android": "https://dc.lft.to/lastmile_qr_scan"}, "is_reserved": 0}, {"lon": -77.0073925, "bike_id": "28978daffb2474381ca07eb2f18f6298", "lat": 38.876511666666666, "fusion_lon": 0.0, "fusion_lat": 0.0, "type": "electric_scooter", "name": "28978daffb2474381ca07eb2f18f6298", "is_disabled": 0, "rental_uris": {"ios": "https://dc.lft.to/lastmile_qr_scan", "android": "https://dc.lft.to/lastmile_qr_scan"}, "is_reserved": 0}, {"lon": -77.00432083333334, "bike_id": "d451f78a210f1fa89a2cea64818b14ef", "lat": 38.877522166666665, "fusion_lon": 0.0, "fusion_lat": 0.0, "type": "electric_scooter", "name": "d451f78a210f1fa89a2cea64818b14ef", "is_disabled": 0, "rental_uris": {"ios": "https://dc.lft.to/lastmile_qr_scan", "android": "https://dc.lft.to/lastmile_qr_scan"}, "is_reserved": 0}, {"lon": -77.00318583333333, "bike_id": "ea4ed67a11244a90ac59afbef30d3d70", "lat": 38.9189795, "fusion_lon": 0.0, "fusion_lat": 0.0, "type": "electric_bike", "name": "ea4ed67a11244a90ac59afbef30d3d70", "is_disabled": 0, "rental_uris": {"ios": "https://dc.lft.to/lastmile_qr_scan", "android": "https://dc.lft.to/lastmile_qr_scan"}, "is_reserved": 0}, {"lon": -76.98330166666666, "bike_id": "998df858b9e8782f2f2278df8b49a12e", "lat": 38.90086816666667, "fusion_lon": 0.0, "fusion_lat": 0.0, "type": "electric_scooter", "name": "998df858b9e8782f2f2278df8b49a12e", "is_disabled": 0, "rental_uris": {"ios": "https://dc.lft.to/lastmile_qr_scan", "android": "https://dc.lft.to/lastmile_qr_scan"}, "is_reserved": 0}, {"lon": -77.061918, "bike_id": "36233203b27a9fec2868a48f9f9f161b", "lat": 38.910573666666664, "fusion_lon": 0.0, "fusion_lat": 0.0, "type": "electric_scooter", "name": "36233203b27a9fec2868a48f9f9f161b", "is_disabled": 0, "rental_uris": {"ios": "https://dc.lft.to/lastmile_qr_scan", "android": "https://dc.lft.to/lastmile_qr_scan"}, "is_reserved": 0}, {"lon": -77.001841, "bike_id": "1da352e0710eaad5657f53d86127c9ed", "lat": 38.91197833333333, "fusion_lon": 0.0, "fusion_lat": 0.0, "type": "electric_scooter", "name": "1da352e0710eaad5657f53d86127c9ed", "is_disabled": 0, "rental_uris": {"ios": "https://dc.lft.to/lastmile_qr_scan", "android": "https://dc.lft.to/lastmile_qr_scan"}, "is_reserved": 0}, {"lon": -76.98656466666667, "bike_id": "b6b2b0afdfb5910b1f7a0f06dad0982d", "lat": 38.86735733333333, "fusion_lon": 0.0, "fusion_lat": 0.0, "type": "electric_scooter", "name": "b6b2b0afdfb5910b1f7a0f06dad0982d", "is_disabled": 0, "rental_uris": {"ios": "https://dc.lft.to/lastmile_qr_scan", "android": "https://dc.lft.to/lastmile_qr_scan"}, "is_reserved": 0}, {"lon": -77.00555733333333, "bike_id": "c58ece8de8dc668d0983c8bb0c7f33f5", "lat": 38.87466533333333, "fusion_lon": 0.0, "fusion_lat": 0.0, "type": "electric_scooter", "name": "c58ece8de8dc668d0983c8bb0c7f33f5", "is_disabled": 0, "rental_uris": {"ios": "https://dc.lft.to/lastmile_qr_scan", "android": "https://dc.lft.to/lastmile_qr_scan"}, "is_reserved": 0}, {"lon": -77.0343785, "bike_id": "ea444903b0babc5ded6447298386206d", "lat": 38.9343715, "fusion_lon": 0.0, "fusion_lat": 0.0, "type": "electric_scooter", "name": "ea444903b0babc5ded6447298386206d", "is_disabled": 0, "rental_uris": {"ios": "https://dc.lft.to/lastmile_qr_scan", "android": "https://dc.lft.to/lastmile_qr_scan"}, "is_reserved": 0}, {"lon": -77.011538, "bike_id": "4e6adfa9385647d646e00d0244667afd", "lat": 38.89567983333333, "fusion_lon": 0.0, "fusion_lat": 0.0, "type": "electric_scooter", "name": "4e6adfa9385647d646e00d0244667afd", "is_disabled": 0, "rental_uris": {"ios": "https://dc.lft.to/lastmile_qr_scan", "android": "https://dc.lft.to/lastmile_qr_scan"}, "is_reserved": 0}, {"lon": -77.04894183333333, "bike_id": "e75bc935c24456e3c14c20d800d92682", "lat": 38.89231083333333, "fusion_lon": 0.0, "fusion_lat": 0.0, "type": "electric_scooter", "name": "e75bc935c24456e3c14c20d800d92682", "is_disabled": 0, "rental_uris": {"ios": "https://dc.lft.to/lastmile_qr_scan", "android": "https://dc.lft.to/lastmile_qr_scan"}, "is_reserved": 0}, {"lon": -77.04605166666667, "bike_id": "fd96d9db15ee687d863ee699f8bf786e", "lat": 38.90762483333334, "fusion_lon": 0.0, "fusion_lat": 0.0, "type": "electric_scooter", "name": "fd96d9db15ee687d863ee699f8bf786e", "is_disabled": 0, "rental_uris": {"ios": "https://dc.lft.to/lastmile_qr_scan", "android": "https://dc.lft.to/lastmile_qr_scan"}, "is_reserved": 0}, {"lon": -77.02160383333333, "bike_id": "b3e58381d9a76ebd874993da71026da3", "lat": 38.909689, "fusion_lon": 0.0, "fusion_lat": 0.0, "type": "electric_scooter", "name": "b3e58381d9a76ebd874993da71026da3", "is_disabled": 0, "rental_uris": {"ios": "https://dc.lft.to/lastmile_qr_scan", "android": "https://dc.lft.to/lastmile_qr_scan"}, "is_reserved": 0}, {"lon": -77.03284416666666, "bike_id": "ea088ecd925d1a41d9aa3ae5492ad855", "lat": 38.934538, "fusion_lon": 0.0, "fusion_lat": 0.0, "type": "electric_scooter", "name": "ea088ecd925d1a41d9aa3ae5492ad855", "is_disabled": 0, "rental_uris": {"ios": "https://dc.lft.to/lastmile_qr_scan", "android": "https://dc.lft.to/lastmile_qr_scan"}, "is_reserved": 0}, {"lon": -76.95466183333333, "bike_id": "2d07ad4aa8e4f499e293b4877be919ae", "lat": 38.88655933333333, "fusion_lon": 0.0, "fusion_lat": 0.0, "type": "electric_scooter", "name": "2d07ad4aa8e4f499e293b4877be919ae", "is_disabled": 0, "rental_uris": {"ios": "https://dc.lft.to/lastmile_qr_scan", "android": "https://dc.lft.to/lastmile_qr_scan"}, "is_reserved": 0}, {"lon": -77.02492816666667, "bike_id": "c12d521b47288ecd5f5921ce19a704a2", "lat": 38.925885666666666, "fusion_lon": 0.0, "fusion_lat": 0.0, "type": "electric_scooter", "name": "c12d521b47288ecd5f5921ce19a704a2", "is_disabled": 0, "rental_uris": {"ios": "https://dc.lft.to/lastmile_qr_scan", "android": "https://dc.lft.to/lastmile_qr_scan"}, "is_reserved": 0}, {"lon": -76.99884116666667, "bike_id": "52f5c9e34e85a8647e83c669294b3feb", "lat": 38.920552, "fusion_lon": 0.0, "fusion_lat": 0.0, "type": "electric_scooter", "name": "52f5c9e34e85a8647e83c669294b3feb", "is_disabled": 0, "rental_uris": {"ios": "https://dc.lft.to/lastmile_qr_scan", "android": "https://dc.lft.to/lastmile_qr_scan"}, "is_reserved": 0}, {"lon": -76.965506, "bike_id": "8c3778a4ac9577ab7270e267adf3cb41", "lat": 38.91853783333333, "fusion_lon": 0.0, "fusion_lat": 0.0, "type": "electric_scooter", "name": "8c3778a4ac9577ab7270e267adf3cb41", "is_disabled": 0, "rental_uris": {"ios": "https://dc.lft.to/lastmile_qr_scan", "android": "https://dc.lft.to/lastmile_qr_scan"}, "is_reserved": 0}, {"lon": -77.02343633333334, "bike_id": "0e2a52c352fe4d935c8744f1318e4e14", "lat": 38.91737883333333, "fusion_lon": 0.0, "fusion_lat": 0.0, "type": "electric_scooter", "name": "0e2a52c352fe4d935c8744f1318e4e14", "is_disabled": 0, "rental_uris": {"ios": "https://dc.lft.to/lastmile_qr_scan", "android": "https://dc.lft.to/lastmile_qr_scan"}, "is_reserved": 0}, {"lon": -77.03404533333334, "bike_id": "d7190405c0a42af1c63375c211661a69", "lat": 38.92634566666667, "fusion_lon": 0.0, "fusion_lat": 0.0, "type": "electric_scooter", "name": "d7190405c0a42af1c63375c211661a69", "is_disabled": 0, "rental_uris": {"ios": "https://dc.lft.to/lastmile_qr_scan", "android": "https://dc.lft.to/lastmile_qr_scan"}, "is_reserved": 0}, {"lon": -77.01189333333333, "bike_id": "e5484b15e0ef89b11c3f999b405e7f99", "lat": 38.9154775, "fusion_lon": 0.0, "fusion_lat": 0.0, "type": "electric_scooter", "name": "e5484b15e0ef89b11c3f999b405e7f99", "is_disabled": 0, "rental_uris": {"ios": "https://dc.lft.to/lastmile_qr_scan", "android": "https://dc.lft.to/lastmile_qr_scan"}, "is_reserved": 0}, {"lon": -77.03865516666667, "bike_id": "7fe65e3d7fd964a322795da8654f2787", "lat": 38.9154855, "fusion_lon": 0.0, "fusion_lat": 0.0, "type": "electric_scooter", "name": "7fe65e3d7fd964a322795da8654f2787", "is_disabled": 0, "rental_uris": {"ios": "https://dc.lft.to/lastmile_qr_scan", "android": "https://dc.lft.to/lastmile_qr_scan"}, "is_reserved": 0}, {"lon": -77.01892666666667, "bike_id": "197d4226ac8d7f567b6a6ad1fbcbb20c", "lat": 38.903014166666665, "fusion_lon": 0.0, "fusion_lat": 0.0, "type": "electric_bike", "name": "197d4226ac8d7f567b6a6ad1fbcbb20c", "is_disabled": 0, "rental_uris": {"ios": "https://dc.lft.to/lastmile_qr_scan", "android": "https://dc.lft.to/lastmile_qr_scan"}, "is_reserved": 0}, {"lon": -77.0287025, "bike_id": "7ee700217e46e6983b91ab0ed1505047", "lat": 38.904135333333336, "fusion_lon": 0.0, "fusion_lat": 0.0, "type": "electric_scooter", "name": "7ee700217e46e6983b91ab0ed1505047", "is_disabled": 0, "rental_uris": {"ios": "https://dc.lft.to/lastmile_qr_scan", "android": "https://dc.lft.to/lastmile_qr_scan"}, "is_reserved": 0}, {"lon": -77.05894516666666, "bike_id": "596deb4befb1e7bb3f94f327a82ed1bc", "lat": 38.9360805, "fusion_lon": 0.0, "fusion_lat": 0.0, "type": "electric_scooter", "name": "596deb4befb1e7bb3f94f327a82ed1bc", "is_disabled": 0, "rental_uris": {"ios": "https://dc.lft.to/lastmile_qr_scan", "android": "https://dc.lft.to/lastmile_qr_scan"}, "is_reserved": 0}, {"lon": -77.23328783333334, "bike_id": "9aa583a6b38a9615b6f48ec7e885824d", "lat": 38.87275666666667, "fusion_lon": 0.0, "fusion_lat": 0.0, "type": "electric_bike", "name": "9aa583a6b38a9615b6f48ec7e885824d", "is_disabled": 0, "rental_uris": {"ios": "https://dc.lft.to/lastmile_qr_scan", "android": "https://dc.lft.to/lastmile_qr_scan"}, "is_reserved": 0}, {"lon": -77.027085, "bike_id": "bd5dc1cc63f4e95a46f317f4a5a13c84", "lat": 38.92783333333333, "fusion_lon": 0.0, "fusion_lat": 0.0, "type": "electric_scooter", "name": "bd5dc1cc63f4e95a46f317f4a5a13c84", "is_disabled": 0, "rental_uris": {"ios": "https://dc.lft.to/lastmile_qr_scan", "android": "https://dc.lft.to/lastmile_qr_scan"}, "is_reserved": 0}, {"lon": -77.036282, "bike_id": "2fe3e65103362c64f186b538ac38612b", "lat": 38.9481335, "fusion_lon": 0.0, "fusion_lat": 0.0, "type": "electric_scooter", "name": "2fe3e65103362c64f186b538ac38612b", "is_disabled": 0, "rental_uris": {"ios": "https://dc.lft.to/lastmile_qr_scan", "android": "https://dc.lft.to/lastmile_qr_scan"}, "is_reserved": 0}, {"lon": -76.97298816666667, "bike_id": "e160fc85223b385ba826c4555c236e97", "lat": 38.916429, "fusion_lon": 0.0, "fusion_lat": 0.0, "type": "electric_bike", "name": "e160fc85223b385ba826c4555c236e97", "is_disabled": 0, "rental_uris": {"ios": "https://dc.lft.to/lastmile_qr_scan", "android": "https://dc.lft.to/lastmile_qr_scan"}, "is_reserved": 0}, {"lon": -77.032518, "bike_id": "0a1fda3798cd34a4801a3034fe9289d3", "lat": 38.903819166666665, "fusion_lon": 0.0, "fusion_lat": 0.0, "type": "electric_scooter", "name": "0a1fda3798cd34a4801a3034fe9289d3", "is_disabled": 0, "rental_uris": {"ios": "https://dc.lft.to/lastmile_qr_scan", "android": "https://dc.lft.to/lastmile_qr_scan"}, "is_reserved": 0}, {"lon": -77.028384, "bike_id": "dd64d4ba8ad92a3c40de968e050d7d30", "lat": 38.88767566666667, "fusion_lon": 0.0, "fusion_lat": 0.0, "type": "electric_scooter", "name": "dd64d4ba8ad92a3c40de968e050d7d30", "is_disabled": 0, "rental_uris": {"ios": "https://dc.lft.to/lastmile_qr_scan", "android": "https://dc.lft.to/lastmile_qr_scan"}, "is_reserved": 0}, {"lon": -77.01858116666666, "bike_id": "de531f9817a752f5469cfdb1e57ccc03", "lat": 38.920254, "fusion_lon": 0.0, "fusion_lat": 0.0, "type": "electric_scooter", "name": "de531f9817a752f5469cfdb1e57ccc03", "is_disabled": 0, "rental_uris": {"ios": "https://dc.lft.to/lastmile_qr_scan", "android": "https://dc.lft.to/lastmile_qr_scan"}, "is_reserved": 0}, {"lon": -77.23317783333333, "bike_id": "34deb4665ca114d8cb35323264e092ae", "lat": 38.87281616666667, "fusion_lon": 0.0, "fusion_lat": 0.0, "type": "electric_bike", "name": "34deb4665ca114d8cb35323264e092ae", "is_disabled": 0, "rental_uris": {"ios": "https://dc.lft.to/lastmile_qr_scan", "android": "https://dc.lft.to/lastmile_qr_scan"}, "is_reserved": 0}, {"lon": -76.94997566666666, "bike_id": "7ec986ab0647c9dcff2599d44cc6554a", "lat": 38.8938395, "fusion_lon": 0.0, "fusion_lat": 0.0, "type": "electric_scooter", "name": "7ec986ab0647c9dcff2599d44cc6554a", "is_disabled": 0, "rental_uris": {"ios": "https://dc.lft.to/lastmile_qr_scan", "android": "https://dc.lft.to/lastmile_qr_scan"}, "is_reserved": 0}, {"lon": -76.98881233333333, "bike_id": "8a2b65bc94b174872c56e34e6c9de1c4", "lat": 38.866571666666665, "fusion_lon": 0.0, "fusion_lat": 0.0, "type": "electric_scooter", "name": "8a2b65bc94b174872c56e34e6c9de1c4", "is_disabled": 0, "rental_uris": {"ios": "https://dc.lft.to/lastmile_qr_scan", "android": "https://dc.lft.to/lastmile_qr_scan"}, "is_reserved": 0}, {"lon": -77.00886183333333, "bike_id": "12b219e25cd1bcdad4a7f124ff47e9ae", "lat": 38.92272716666667, "fusion_lon": 0.0, "fusion_lat": 0.0, "type": "electric_scooter", "name": "12b219e25cd1bcdad4a7f124ff47e9ae", "is_disabled": 0, "rental_uris": {"ios": "https://dc.lft.to/lastmile_qr_scan", "android": "https://dc.lft.to/lastmile_qr_scan"}, "is_reserved": 0}, {"lon": -77.04335066666667, "bike_id": "28f2f7a122eaef6385e7f4ccd075a5ea", "lat": 38.913241666666664, "fusion_lon": 0.0, "fusion_lat": 0.0, "type": "electric_scooter", "name": "28f2f7a122eaef6385e7f4ccd075a5ea", "is_disabled": 0, "rental_uris": {"ios": "https://dc.lft.to/lastmile_qr_scan", "android": "https://dc.lft.to/lastmile_qr_scan"}, "is_reserved": 0}, {"lon": -77.0545585, "bike_id": "44b44c4ff1d028c13a1a203fb5a19a3e", "lat": 38.85535, "fusion_lon": 0.0, "fusion_lat": 0.0, "type": "electric_bike", "name": "44b44c4ff1d028c13a1a203fb5a19a3e", "is_disabled": 0, "rental_uris": {"ios": "https://dc.lft.to/lastmile_qr_scan", "android": "https://dc.lft.to/lastmile_qr_scan"}, "is_reserved": 0}, {"lon": -77.038645, "bike_id": "0e75775861057ef9b72b02debe78d109", "lat": 38.91552566666667, "fusion_lon": 0.0, "fusion_lat": 0.0, "type": "electric_scooter", "name": "0e75775861057ef9b72b02debe78d109", "is_disabled": 0, "rental_uris": {"ios": "https://dc.lft.to/lastmile_qr_scan", "android": "https://dc.lft.to/lastmile_qr_scan"}, "is_reserved": 0}, {"lon": -77.12653166666666, "bike_id": "3773b24c7ac5358479b28434bbc85e6d", "lat": 38.81511166666667, "fusion_lon": 0.0, "fusion_lat": 0.0, "type": "electric_bike", "name": "3773b24c7ac5358479b28434bbc85e6d", "is_disabled": 0, "rental_uris": {"ios": "https://dc.lft.to/lastmile_qr_scan", "android": "https://dc.lft.to/lastmile_qr_scan"}, "is_reserved": 0}, {"lon": -77.01442283333333, "bike_id": "bdd365a36ed13a3db4b1b8bed5330822", "lat": 38.876715833333336, "fusion_lon": 0.0, "fusion_lat": 0.0, "type": "electric_bike", "name": "bdd365a36ed13a3db4b1b8bed5330822", "is_disabled": 0, "rental_uris": {"ios": "https://dc.lft.to/lastmile_qr_scan", "android": "https://dc.lft.to/lastmile_qr_scan"}, "is_reserved": 0}, {"lon": -77.02929166666667, "bike_id": "2c536191c7b85f2f23e5ed18bcb0e139", "lat": 38.934641166666665, "fusion_lon": 0.0, "fusion_lat": 0.0, "type": "electric_scooter", "name": "2c536191c7b85f2f23e5ed18bcb0e139", "is_disabled": 0, "rental_uris": {"ios": "https://dc.lft.to/lastmile_qr_scan", "android": "https://dc.lft.to/lastmile_qr_scan"}, "is_reserved": 0}, {"lon": -77.03437583333333, "bike_id": "fc436a219be8647a53e93de8476d1831", "lat": 38.919399, "fusion_lon": 0.0, "fusion_lat": 0.0, "type": "electric_scooter", "name": "fc436a219be8647a53e93de8476d1831", "is_disabled": 0, "rental_uris": {"ios": "https://dc.lft.to/lastmile_qr_scan", "android": "https://dc.lft.to/lastmile_qr_scan"}, "is_reserved": 0}, {"lon": -77.0065985, "bike_id": "5cd6476c87592967f1e74064d5231a9d", "lat": 38.944600666666666, "fusion_lon": 0.0, "fusion_lat": 0.0, "type": "electric_scooter", "name": "5cd6476c87592967f1e74064d5231a9d", "is_disabled": 0, "rental_uris": {"ios": "https://dc.lft.to/lastmile_qr_scan", "android": "https://dc.lft.to/lastmile_qr_scan"}, "is_reserved": 0}, {"lon": -77.02864716666667, "bike_id": "3da12f60b956ce6b052e96ec9a933494", "lat": 38.88474933333333, "fusion_lon": 0.0, "fusion_lat": 0.0, "type": "electric_scooter", "name": "3da12f60b956ce6b052e96ec9a933494", "is_disabled": 0, "rental_uris": {"ios": "https://dc.lft.to/lastmile_qr_scan", "android": "https://dc.lft.to/lastmile_qr_scan"}, "is_reserved": 0}, {"lon": -77.0067865, "bike_id": "201fc2ead2e7189142127edc2b8003b3", "lat": 38.900066333333335, "fusion_lon": 0.0, "fusion_lat": 0.0, "type": "electric_scooter", "name": "201fc2ead2e7189142127edc2b8003b3", "is_disabled": 0, "rental_uris": {"ios": "https://dc.lft.to/lastmile_qr_scan", "android": "https://dc.lft.to/lastmile_qr_scan"}, "is_reserved": 0}, {"lon": -76.972413, "bike_id": "e8f13cc85dc5cd2620221ae9e5316765", "lat": 38.949016, "fusion_lon": 0.0, "fusion_lat": 0.0, "type": "electric_bike", "name": "e8f13cc85dc5cd2620221ae9e5316765", "is_disabled": 0, "rental_uris": {"ios": "https://dc.lft.to/lastmile_qr_scan", "android": "https://dc.lft.to/lastmile_qr_scan"}, "is_reserved": 0}, {"lon": -76.99524033333333, "bike_id": "1ad36877dbfe8194db2374f8d011c61f", "lat": 38.896088666666664, "fusion_lon": 0.0, "fusion_lat": 0.0, "type": "electric_scooter", "name": "1ad36877dbfe8194db2374f8d011c61f", "is_disabled": 0, "rental_uris": {"ios": "https://dc.lft.to/lastmile_qr_scan", "android": "https://dc.lft.to/lastmile_qr_scan"}, "is_reserved": 0}, {"lon": -77.00203183333333, "bike_id": "20ed4951a899a6750d45eaf4e956d54e", "lat": 38.90835116666667, "fusion_lon": 0.0, "fusion_lat": 0.0, "type": "electric_scooter", "name": "20ed4951a899a6750d45eaf4e956d54e", "is_disabled": 0, "rental_uris": {"ios": "https://dc.lft.to/lastmile_qr_scan", "android": "https://dc.lft.to/lastmile_qr_scan"}, "is_reserved": 0}, {"lon": -77.01778516666667, "bike_id": "219a8943d516429e34cff3690a4b0ffa", "lat": 38.88326333333333, "fusion_lon": 0.0, "fusion_lat": 0.0, "type": "electric_scooter", "name": "219a8943d516429e34cff3690a4b0ffa", "is_disabled": 0, "rental_uris": {"ios": "https://dc.lft.to/lastmile_qr_scan", "android": "https://dc.lft.to/lastmile_qr_scan"}, "is_reserved": 0}, {"lon": -77.0467255, "bike_id": "f6f0f03e695abd1691080752051af079", "lat": 38.90901383333333, "fusion_lon": 0.0, "fusion_lat": 0.0, "type": "electric_scooter", "name": "f6f0f03e695abd1691080752051af079", "is_disabled": 0, "rental_uris": {"ios": "https://dc.lft.to/lastmile_qr_scan", "android": "https://dc.lft.to/lastmile_qr_scan"}, "is_reserved": 0}, {"lon": -77.04110283333333, "bike_id": "be904259f3edc3bfb69963e9f17bb7f2", "lat": 38.89830033333333, "fusion_lon": 0.0, "fusion_lat": 0.0, "type": "electric_scooter", "name": "be904259f3edc3bfb69963e9f17bb7f2", "is_disabled": 0, "rental_uris": {"ios": "https://dc.lft.to/lastmile_qr_scan", "android": "https://dc.lft.to/lastmile_qr_scan"}, "is_reserved": 0}, {"lon": -76.99779666666667, "bike_id": "173dcf93eaf97cc21efa3496181ab413", "lat": 38.84301983333334, "fusion_lon": 0.0, "fusion_lat": 0.0, "type": "electric_scooter", "name": "173dcf93eaf97cc21efa3496181ab413", "is_disabled": 0, "rental_uris": {"ios": "https://dc.lft.to/lastmile_qr_scan", "android": "https://dc.lft.to/lastmile_qr_scan"}, "is_reserved": 0}, {"lon": -76.93750366666667, "bike_id": "6ce4dcb381eb8106bb042c26b68e85d3", "lat": 38.890474166666664, "fusion_lon": 0.0, "fusion_lat": 0.0, "type": "electric_scooter", "name": "6ce4dcb381eb8106bb042c26b68e85d3", "is_disabled": 0, "rental_uris": {"ios": "https://dc.lft.to/lastmile_qr_scan", "android": "https://dc.lft.to/lastmile_qr_scan"}, "is_reserved": 0}, {"lon": -76.94802866666667, "bike_id": "a0a57df7552b0087c74f624ebf30abd7", "lat": 38.861912333333336, "fusion_lon": 0.0, "fusion_lat": 0.0, "type": "electric_bike", "name": "a0a57df7552b0087c74f624ebf30abd7", "is_disabled": 0, "rental_uris": {"ios": "https://dc.lft.to/lastmile_qr_scan", "android": "https://dc.lft.to/lastmile_qr_scan"}, "is_reserved": 0}, {"lon": -76.98834316666667, "bike_id": "549875e60c02045c548b683b5e447ed0", "lat": 38.90069616666667, "fusion_lon": 0.0, "fusion_lat": 0.0, "type": "electric_scooter", "name": "549875e60c02045c548b683b5e447ed0", "is_disabled": 0, "rental_uris": {"ios": "https://dc.lft.to/lastmile_qr_scan", "android": "https://dc.lft.to/lastmile_qr_scan"}, "is_reserved": 0}, {"lon": -77.02301616666666, "bike_id": "071fedc70692c7c2b03305063e59cf9b", "lat": 38.926711, "fusion_lon": 0.0, "fusion_lat": 0.0, "type": "electric_scooter", "name": "071fedc70692c7c2b03305063e59cf9b", "is_disabled": 0, "rental_uris": {"ios": "https://dc.lft.to/lastmile_qr_scan", "android": "https://dc.lft.to/lastmile_qr_scan"}, "is_reserved": 0}, {"lon": -77.04215216666667, "bike_id": "bb7439e1007a9a9038ebc0808f6b31ed", "lat": 38.89272583333333, "fusion_lon": 0.0, "fusion_lat": 0.0, "type": "electric_scooter", "name": "bb7439e1007a9a9038ebc0808f6b31ed", "is_disabled": 0, "rental_uris": {"ios": "https://dc.lft.to/lastmile_qr_scan", "android": "https://dc.lft.to/lastmile_qr_scan"}, "is_reserved": 0}, {"lon": -77.03387083333334, "bike_id": "38895632b8675bee3666c3e8eb1e771a", "lat": 38.9388455, "fusion_lon": 0.0, "fusion_lat": 0.0, "type": "electric_scooter", "name": "38895632b8675bee3666c3e8eb1e771a", "is_disabled": 0, "rental_uris": {"ios": "https://dc.lft.to/lastmile_qr_scan", "android": "https://dc.lft.to/lastmile_qr_scan"}, "is_reserved": 0}, {"lon": -77.04517133333333, "bike_id": "8e59f4942f8ebd9255d65742724d97eb", "lat": 38.94199233333333, "fusion_lon": 0.0, "fusion_lat": 0.0, "type": "electric_bike", "name": "8e59f4942f8ebd9255d65742724d97eb", "is_disabled": 0, "rental_uris": {"ios": "https://dc.lft.to/lastmile_qr_scan", "android": "https://dc.lft.to/lastmile_qr_scan"}, "is_reserved": 0}, {"lon": -77.01151366666667, "bike_id": "fd6ea4410a3815ac0b21b03878af5c91", "lat": 38.9110465, "fusion_lon": 0.0, "fusion_lat": 0.0, "type": "electric_scooter", "name": "fd6ea4410a3815ac0b21b03878af5c91", "is_disabled": 0, "rental_uris": {"ios": "https://dc.lft.to/lastmile_qr_scan", "android": "https://dc.lft.to/lastmile_qr_scan"}, "is_reserved": 0}, {"lon": -77.03263833333334, "bike_id": "bb31b7d2bfd7825b729efb9f4fc4e808", "lat": 38.934420833333334, "fusion_lon": 0.0, "fusion_lat": 0.0, "type": "electric_scooter", "name": "bb31b7d2bfd7825b729efb9f4fc4e808", "is_disabled": 0, "rental_uris": {"ios": "https://dc.lft.to/lastmile_qr_scan", "android": "https://dc.lft.to/lastmile_qr_scan"}, "is_reserved": 0}, {"lon": -77.01552833333334, "bike_id": "2721e50f1951a547353a2695efbdced2", "lat": 38.8922085, "fusion_lon": 0.0, "fusion_lat": 0.0, "type": "electric_scooter", "name": "2721e50f1951a547353a2695efbdced2", "is_disabled": 0, "rental_uris": {"ios": "https://dc.lft.to/lastmile_qr_scan", "android": "https://dc.lft.to/lastmile_qr_scan"}, "is_reserved": 0}, {"lon": -77.07008483333334, "bike_id": "6b32764a00b6d877a10a95eeeece5fe3", "lat": 38.90593966666667, "fusion_lon": 0.0, "fusion_lat": 0.0, "type": "electric_bike", "name": "6b32764a00b6d877a10a95eeeece5fe3", "is_disabled": 0, "rental_uris": {"ios": "https://dc.lft.to/lastmile_qr_scan", "android": "https://dc.lft.to/lastmile_qr_scan"}, "is_reserved": 0}, {"lon": -77.0397025, "bike_id": "2a7a647a4718e95e31ed936c92cc9516", "lat": 38.923215666666664, "fusion_lon": 0.0, "fusion_lat": 0.0, "type": "electric_scooter", "name": "2a7a647a4718e95e31ed936c92cc9516", "is_disabled": 0, "rental_uris": {"ios": "https://dc.lft.to/lastmile_qr_scan", "android": "https://dc.lft.to/lastmile_qr_scan"}, "is_reserved": 0}, {"lon": -77.07813416666667, "bike_id": "f78ad43a273d55384b80720e48003f26", "lat": 38.924617833333336, "fusion_lon": 0.0, "fusion_lat": 0.0, "type": "electric_scooter", "name": "f78ad43a273d55384b80720e48003f26", "is_disabled": 0, "rental_uris": {"ios": "https://dc.lft.to/lastmile_qr_scan", "android": "https://dc.lft.to/lastmile_qr_scan"}, "is_reserved": 0}, {"lon": -77.00922983333334, "bike_id": "679125ef63d0380237a1579a00795349", "lat": 38.910660666666665, "fusion_lon": 0.0, "fusion_lat": 0.0, "type": "electric_scooter", "name": "679125ef63d0380237a1579a00795349", "is_disabled": 0, "rental_uris": {"ios": "https://dc.lft.to/lastmile_qr_scan", "android": "https://dc.lft.to/lastmile_qr_scan"}, "is_reserved": 0}, {"lon": -77.03440033333334, "bike_id": "9ee5984a93c0111f705ca7987f08964d", "lat": 38.917108666666664, "fusion_lon": 0.0, "fusion_lat": 0.0, "type": "electric_scooter", "name": "9ee5984a93c0111f705ca7987f08964d", "is_disabled": 0, "rental_uris": {"ios": "https://dc.lft.to/lastmile_qr_scan", "android": "https://dc.lft.to/lastmile_qr_scan"}, "is_reserved": 0}, {"lon": -77.0533145, "bike_id": "b482a6b277853ac3f6a0067ac754a2c5", "lat": 38.89874, "fusion_lon": 0.0, "fusion_lat": 0.0, "type": "electric_scooter", "name": "b482a6b277853ac3f6a0067ac754a2c5", "is_disabled": 0, "rental_uris": {"ios": "https://dc.lft.to/lastmile_qr_scan", "android": "https://dc.lft.to/lastmile_qr_scan"}, "is_reserved": 0}, {"lon": -77.00229366666667, "bike_id": "ea8477e7b17d24e229109ff508228e3d", "lat": 38.90247, "fusion_lon": 0.0, "fusion_lat": 0.0, "type": "electric_scooter", "name": "ea8477e7b17d24e229109ff508228e3d", "is_disabled": 0, "rental_uris": {"ios": "https://dc.lft.to/lastmile_qr_scan", "android": "https://dc.lft.to/lastmile_qr_scan"}, "is_reserved": 0}, {"lon": -77.0176805, "bike_id": "0870461c22fea346ce7c737904561d36", "lat": 38.872213333333335, "fusion_lon": 0.0, "fusion_lat": 0.0, "type": "electric_scooter", "name": "0870461c22fea346ce7c737904561d36", "is_disabled": 0, "rental_uris": {"ios": "https://dc.lft.to/lastmile_qr_scan", "android": "https://dc.lft.to/lastmile_qr_scan"}, "is_reserved": 0}, {"lon": -77.00562283333333, "bike_id": "0632bcbfdc1941c3ca5860124b1e5c3c", "lat": 38.87683233333333, "fusion_lon": 0.0, "fusion_lat": 0.0, "type": "electric_scooter", "name": "0632bcbfdc1941c3ca5860124b1e5c3c", "is_disabled": 0, "rental_uris": {"ios": "https://dc.lft.to/lastmile_qr_scan", "android": "https://dc.lft.to/lastmile_qr_scan"}, "is_reserved": 0}, {"lon": -77.01052766666666, "bike_id": "2a1dadaab446216e895b654fac14bc70", "lat": 38.963569, "fusion_lon": 0.0, "fusion_lat": 0.0, "type": "electric_scooter", "name": "2a1dadaab446216e895b654fac14bc70", "is_disabled": 0, "rental_uris": {"ios": "https://dc.lft.to/lastmile_qr_scan", "android": "https://dc.lft.to/lastmile_qr_scan"}, "is_reserved": 0}, {"lon": -77.02600866666667, "bike_id": "4426b27dafcdf62f2344e354198b0014", "lat": 38.927993, "fusion_lon": 0.0, "fusion_lat": 0.0, "type": "electric_scooter", "name": "4426b27dafcdf62f2344e354198b0014", "is_disabled": 0, "rental_uris": {"ios": "https://dc.lft.to/lastmile_qr_scan", "android": "https://dc.lft.to/lastmile_qr_scan"}, "is_reserved": 0}, {"lon": -77.1191975, "bike_id": "c35760b5b0d47f5624655bb616aa84d2", "lat": 38.876351666666665, "fusion_lon": 0.0, "fusion_lat": 0.0, "type": "electric_bike", "name": "c35760b5b0d47f5624655bb616aa84d2", "is_disabled": 0, "rental_uris": {"ios": "https://dc.lft.to/lastmile_qr_scan", "android": "https://dc.lft.to/lastmile_qr_scan"}, "is_reserved": 0}, {"lon": -77.032482, "bike_id": "c09a6e4ee4f2443f5205277544ab83f2", "lat": 38.92768183333333, "fusion_lon": 0.0, "fusion_lat": 0.0, "type": "electric_scooter", "name": "c09a6e4ee4f2443f5205277544ab83f2", "is_disabled": 0, "rental_uris": {"ios": "https://dc.lft.to/lastmile_qr_scan", "android": "https://dc.lft.to/lastmile_qr_scan"}, "is_reserved": 0}, {"lon": -77.03160966666667, "bike_id": "038a7cb738c1c2f345fc42cb506375a7", "lat": 38.89226166666667, "fusion_lon": 0.0, "fusion_lat": 0.0, "type": "electric_scooter", "name": "038a7cb738c1c2f345fc42cb506375a7", "is_disabled": 0, "rental_uris": {"ios": "https://dc.lft.to/lastmile_qr_scan", "android": "https://dc.lft.to/lastmile_qr_scan"}, "is_reserved": 0}, {"lon": -77.026907, "bike_id": "7b9a6e8b9c07ea70115f3bf8dfbc9d98", "lat": 38.90237833333333, "fusion_lon": 0.0, "fusion_lat": 0.0, "type": "electric_scooter", "name": "7b9a6e8b9c07ea70115f3bf8dfbc9d98", "is_disabled": 0, "rental_uris": {"ios": "https://dc.lft.to/lastmile_qr_scan", "android": "https://dc.lft.to/lastmile_qr_scan"}, "is_reserved": 0}, {"lon": -76.9950335, "bike_id": "47a4ec9961b0f6165edf53e2fa0800a5", "lat": 38.8976415, "fusion_lon": 0.0, "fusion_lat": 0.0, "type": "electric_scooter", "name": "47a4ec9961b0f6165edf53e2fa0800a5", "is_disabled": 0, "rental_uris": {"ios": "https://dc.lft.to/lastmile_qr_scan", "android": "https://dc.lft.to/lastmile_qr_scan"}, "is_reserved": 0}, {"lon": -77.0176025, "bike_id": "afa41daccf1eaee52544289a50ae6813", "lat": 38.881938, "fusion_lon": 0.0, "fusion_lat": 0.0, "type": "electric_scooter", "name": "afa41daccf1eaee52544289a50ae6813", "is_disabled": 0, "rental_uris": {"ios": "https://dc.lft.to/lastmile_qr_scan", "android": "https://dc.lft.to/lastmile_qr_scan"}, "is_reserved": 0}, {"lon": -76.997026, "bike_id": "910b7221af9d06b02ecca581e185b6f8", "lat": 38.84427616666667, "fusion_lon": 0.0, "fusion_lat": 0.0, "type": "electric_scooter", "name": "910b7221af9d06b02ecca581e185b6f8", "is_disabled": 0, "rental_uris": {"ios": "https://dc.lft.to/lastmile_qr_scan", "android": "https://dc.lft.to/lastmile_qr_scan"}, "is_reserved": 0}, {"lon": -77.00540116666667, "bike_id": "9d8be4136ba2bfafabfbe11ac320695a", "lat": 38.8754485, "fusion_lon": 0.0, "fusion_lat": 0.0, "type": "electric_scooter", "name": "9d8be4136ba2bfafabfbe11ac320695a", "is_disabled": 0, "rental_uris": {"ios": "https://dc.lft.to/lastmile_qr_scan", "android": "https://dc.lft.to/lastmile_qr_scan"}, "is_reserved": 0}, {"lon": -77.01135616666667, "bike_id": "8a37f3e00de714143c1ec77b6e38ebe4", "lat": 38.895819333333336, "fusion_lon": 0.0, "fusion_lat": 0.0, "type": "electric_scooter", "name": "8a37f3e00de714143c1ec77b6e38ebe4", "is_disabled": 0, "rental_uris": {"ios": "https://dc.lft.to/lastmile_qr_scan", "android": "https://dc.lft.to/lastmile_qr_scan"}, "is_reserved": 0}, {"lon": -77.0251855, "bike_id": "b4987d7120f29faeff5dfd06e87de8c7", "lat": 38.942071, "fusion_lon": 0.0, "fusion_lat": 0.0, "type": "electric_scooter", "name": "b4987d7120f29faeff5dfd06e87de8c7", "is_disabled": 0, "rental_uris": {"ios": "https://dc.lft.to/lastmile_qr_scan", "android": "https://dc.lft.to/lastmile_qr_scan"}, "is_reserved": 0}, {"lon": -77.11797866666667, "bike_id": "b0904f9879623dcf8cc973dd5557106a", "lat": 38.873735333333336, "fusion_lon": 0.0, "fusion_lat": 0.0, "type": "electric_bike", "name": "b0904f9879623dcf8cc973dd5557106a", "is_disabled": 0, "rental_uris": {"ios": "https://dc.lft.to/lastmile_qr_scan", "android": "https://dc.lft.to/lastmile_qr_scan"}, "is_reserved": 0}, {"lon": -76.9760215, "bike_id": "aa3c141752606ed36453e911730936f2", "lat": 38.897505333333335, "fusion_lon": 0.0, "fusion_lat": 0.0, "type": "electric_scooter", "name": "aa3c141752606ed36453e911730936f2", "is_disabled": 0, "rental_uris": {"ios": "https://dc.lft.to/lastmile_qr_scan", "android": "https://dc.lft.to/lastmile_qr_scan"}, "is_reserved": 0}, {"lon": -77.02962316666667, "bike_id": "88907d0282e18ad569adbb4dd4b785ba", "lat": 38.92289483333333, "fusion_lon": 0.0, "fusion_lat": 0.0, "type": "electric_scooter", "name": "88907d0282e18ad569adbb4dd4b785ba", "is_disabled": 0, "rental_uris": {"ios": "https://dc.lft.to/lastmile_qr_scan", "android": "https://dc.lft.to/lastmile_qr_scan"}, "is_reserved": 0}, {"lon": -76.97890133333334, "bike_id": "8ad3e7a497ef66b2b4ecdc73e6533caf", "lat": 38.8853845, "fusion_lon": 0.0, "fusion_lat": 0.0, "type": "electric_scooter", "name": "8ad3e7a497ef66b2b4ecdc73e6533caf", "is_disabled": 0, "rental_uris": {"ios": "https://dc.lft.to/lastmile_qr_scan", "android": "https://dc.lft.to/lastmile_qr_scan"}, "is_reserved": 0}, {"lon": -76.98334983333334, "bike_id": "0d94125f5229e02fa02fabf13bac3999", "lat": 38.895443, "fusion_lon": 0.0, "fusion_lat": 0.0, "type": "electric_scooter", "name": "0d94125f5229e02fa02fabf13bac3999", "is_disabled": 0, "rental_uris": {"ios": "https://dc.lft.to/lastmile_qr_scan", "android": "https://dc.lft.to/lastmile_qr_scan"}, "is_reserved": 0}, {"lon": -77.0365995, "bike_id": "eb01eab9925be4b3886d2e25f74e9cd8", "lat": 38.922117666666665, "fusion_lon": 0.0, "fusion_lat": 0.0, "type": "electric_scooter", "name": "eb01eab9925be4b3886d2e25f74e9cd8", "is_disabled": 0, "rental_uris": {"ios": "https://dc.lft.to/lastmile_qr_scan", "android": "https://dc.lft.to/lastmile_qr_scan"}, "is_reserved": 0}, {"lon": -77.03057466666667, "bike_id": "8ccb61dc270748e4875037cb8fbc37ad", "lat": 38.9309365, "fusion_lon": 0.0, "fusion_lat": 0.0, "type": "electric_scooter", "name": "8ccb61dc270748e4875037cb8fbc37ad", "is_disabled": 0, "rental_uris": {"ios": "https://dc.lft.to/lastmile_qr_scan", "android": "https://dc.lft.to/lastmile_qr_scan"}, "is_reserved": 0}, {"lon": -77.03205, "bike_id": "4db404965cc67d2bad74b9a8c2f1203c", "lat": 38.934883166666665, "fusion_lon": 0.0, "fusion_lat": 0.0, "type": "electric_bike", "name": "4db404965cc67d2bad74b9a8c2f1203c", "is_disabled": 0, "rental_uris": {"ios": "https://dc.lft.to/lastmile_qr_scan", "android": "https://dc.lft.to/lastmile_qr_scan"}, "is_reserved": 0}, {"lon": -77.0224345, "bike_id": "6e3902f91f911db057b4be3f5b871c4c", "lat": 38.9208165, "fusion_lon": 0.0, "fusion_lat": 0.0, "type": "electric_scooter", "name": "6e3902f91f911db057b4be3f5b871c4c", "is_disabled": 0, "rental_uris": {"ios": "https://dc.lft.to/lastmile_qr_scan", "android": "https://dc.lft.to/lastmile_qr_scan"}, "is_reserved": 0}, {"lon": -77.08954283333334, "bike_id": "7bc236148a2cf9d9ea99b772b11b6d3b", "lat": 38.84294366666666, "fusion_lon": 0.0, "fusion_lat": 0.0, "type": "electric_bike", "name": "7bc236148a2cf9d9ea99b772b11b6d3b", "is_disabled": 0, "rental_uris": {"ios": "https://dc.lft.to/lastmile_qr_scan", "android": "https://dc.lft.to/lastmile_qr_scan"}, "is_reserved": 0}, {"lon": -77.02965983333333, "bike_id": "a2e06e7e1ca8a6b891565ca942dd424e", "lat": 38.923865, "fusion_lon": 0.0, "fusion_lat": 0.0, "type": "electric_scooter", "name": "a2e06e7e1ca8a6b891565ca942dd424e", "is_disabled": 0, "rental_uris": {"ios": "https://dc.lft.to/lastmile_qr_scan", "android": "https://dc.lft.to/lastmile_qr_scan"}, "is_reserved": 0}, {"lon": -77.03343816666667, "bike_id": "afbce69c844b33ef1b19d3211be02a5a", "lat": 38.89843466666667, "fusion_lon": 0.0, "fusion_lat": 0.0, "type": "electric_scooter", "name": "afbce69c844b33ef1b19d3211be02a5a", "is_disabled": 0, "rental_uris": {"ios": "https://dc.lft.to/lastmile_qr_scan", "android": "https://dc.lft.to/lastmile_qr_scan"}, "is_reserved": 0}, {"lon": -77.03590516666667, "bike_id": "07f11c2380f0d3a32db10736aa000b93", "lat": 38.90690033333333, "fusion_lon": 0.0, "fusion_lat": 0.0, "type": "electric_scooter", "name": "07f11c2380f0d3a32db10736aa000b93", "is_disabled": 0, "rental_uris": {"ios": "https://dc.lft.to/lastmile_qr_scan", "android": "https://dc.lft.to/lastmile_qr_scan"}, "is_reserved": 0}, {"lon": -77.010228, "bike_id": "1d2e9d27aaaff62ba531c4e4d5194be7", "lat": 38.91705533333333, "fusion_lon": 0.0, "fusion_lat": 0.0, "type": "electric_scooter", "name": "1d2e9d27aaaff62ba531c4e4d5194be7", "is_disabled": 0, "rental_uris": {"ios": "https://dc.lft.to/lastmile_qr_scan", "android": "https://dc.lft.to/lastmile_qr_scan"}, "is_reserved": 0}, {"lon": -77.03125433333334, "bike_id": "fe86ae82bce67c16f723d8aaa5146f98", "lat": 38.9149185, "fusion_lon": 0.0, "fusion_lat": 0.0, "type": "electric_scooter", "name": "fe86ae82bce67c16f723d8aaa5146f98", "is_disabled": 0, "rental_uris": {"ios": "https://dc.lft.to/lastmile_qr_scan", "android": "https://dc.lft.to/lastmile_qr_scan"}, "is_reserved": 0}, {"lon": -76.949599, "bike_id": "68f85f8170aa9e5aeeeb05e2ef22a938", "lat": 38.904975666666665, "fusion_lon": 0.0, "fusion_lat": 0.0, "type": "electric_scooter", "name": "68f85f8170aa9e5aeeeb05e2ef22a938", "is_disabled": 0, "rental_uris": {"ios": "https://dc.lft.to/lastmile_qr_scan", "android": "https://dc.lft.to/lastmile_qr_scan"}, "is_reserved": 0}, {"lon": -77.00152233333333, "bike_id": "f7e70682f313dd26353a3b7b308be08d", "lat": 38.907498333333336, "fusion_lon": 0.0, "fusion_lat": 0.0, "type": "electric_scooter", "name": "f7e70682f313dd26353a3b7b308be08d", "is_disabled": 0, "rental_uris": {"ios": "https://dc.lft.to/lastmile_qr_scan", "android": "https://dc.lft.to/lastmile_qr_scan"}, "is_reserved": 0}, {"lon": -77.007329, "bike_id": "861469870617a435f08dbd2537e61c05", "lat": 38.925388, "fusion_lon": 0.0, "fusion_lat": 0.0, "type": "electric_scooter", "name": "861469870617a435f08dbd2537e61c05", "is_disabled": 0, "rental_uris": {"ios": "https://dc.lft.to/lastmile_qr_scan", "android": "https://dc.lft.to/lastmile_qr_scan"}, "is_reserved": 0}, {"lon": -76.95754566666666, "bike_id": "5eb89925c3b976fd70ad974da1ee504f", "lat": 38.88427866666667, "fusion_lon": 0.0, "fusion_lat": 0.0, "type": "electric_scooter", "name": "5eb89925c3b976fd70ad974da1ee504f", "is_disabled": 0, "rental_uris": {"ios": "https://dc.lft.to/lastmile_qr_scan", "android": "https://dc.lft.to/lastmile_qr_scan"}, "is_reserved": 0}, {"lon": -77.03360933333333, "bike_id": "6eca7544201fbf69738f9d6a4bfa8b9d", "lat": 38.8869505, "fusion_lon": 0.0, "fusion_lat": 0.0, "type": "electric_scooter", "name": "6eca7544201fbf69738f9d6a4bfa8b9d", "is_disabled": 0, "rental_uris": {"ios": "https://dc.lft.to/lastmile_qr_scan", "android": "https://dc.lft.to/lastmile_qr_scan"}, "is_reserved": 0}, {"lon": -77.07455333333333, "bike_id": "ac6cc6f923ce6b614501cfcadde5ddd8", "lat": 38.945081333333334, "fusion_lon": 0.0, "fusion_lat": 0.0, "type": "electric_scooter", "name": "ac6cc6f923ce6b614501cfcadde5ddd8", "is_disabled": 0, "rental_uris": {"ios": "https://dc.lft.to/lastmile_qr_scan", "android": "https://dc.lft.to/lastmile_qr_scan"}, "is_reserved": 0}, {"lon": -77.125275, "bike_id": "9ae02b4cc068ee531104578367d9c2a3", "lat": 39.056332833333336, "fusion_lon": 0.0, "fusion_lat": 0.0, "type": "electric_bike", "name": "9ae02b4cc068ee531104578367d9c2a3", "is_disabled": 0, "rental_uris": {"ios": "https://dc.lft.to/lastmile_qr_scan", "android": "https://dc.lft.to/lastmile_qr_scan"}, "is_reserved": 0}, {"lon": -76.97626516666666, "bike_id": "056e42a57e0ba6672800e0e9ba1323b0", "lat": 38.905693, "fusion_lon": 0.0, "fusion_lat": 0.0, "type": "electric_scooter", "name": "056e42a57e0ba6672800e0e9ba1323b0", "is_disabled": 0, "rental_uris": {"ios": "https://dc.lft.to/lastmile_qr_scan", "android": "https://dc.lft.to/lastmile_qr_scan"}, "is_reserved": 0}, {"lon": -77.03851033333333, "bike_id": "d2ace7b841ace6a67d20d1384540ce09", "lat": 38.901175333333335, "fusion_lon": 0.0, "fusion_lat": 0.0, "type": "electric_scooter", "name": "d2ace7b841ace6a67d20d1384540ce09", "is_disabled": 0, "rental_uris": {"ios": "https://dc.lft.to/lastmile_qr_scan", "android": "https://dc.lft.to/lastmile_qr_scan"}, "is_reserved": 0}, {"lon": -77.04482083333333, "bike_id": "caabc53d46f1a9e332866603f899ba55", "lat": 38.89258616666667, "fusion_lon": 0.0, "fusion_lat": 0.0, "type": "electric_scooter", "name": "caabc53d46f1a9e332866603f899ba55", "is_disabled": 0, "rental_uris": {"ios": "https://dc.lft.to/lastmile_qr_scan", "android": "https://dc.lft.to/lastmile_qr_scan"}, "is_reserved": 0}, {"lon": -77.05906166666666, "bike_id": "640282179a0f8727e5a18618d2bcca81", "lat": 38.90352166666667, "fusion_lon": 0.0, "fusion_lat": 0.0, "type": "electric_scooter", "name": "640282179a0f8727e5a18618d2bcca81", "is_disabled": 0, "rental_uris": {"ios": "https://dc.lft.to/lastmile_qr_scan", "android": "https://dc.lft.to/lastmile_qr_scan"}, "is_reserved": 0}, {"lon": -77.03622133333333, "bike_id": "cef2a860946f85e806d33169f7a9c717", "lat": 38.931599166666665, "fusion_lon": 0.0, "fusion_lat": 0.0, "type": "electric_scooter", "name": "cef2a860946f85e806d33169f7a9c717", "is_disabled": 0, "rental_uris": {"ios": "https://dc.lft.to/lastmile_qr_scan", "android": "https://dc.lft.to/lastmile_qr_scan"}, "is_reserved": 0}, {"lon": -77.07570233333334, "bike_id": "02ff5e999652bb4f75b7114284339cb4", "lat": 38.894827166666666, "fusion_lon": 0.0, "fusion_lat": 0.0, "type": "electric_scooter", "name": "02ff5e999652bb4f75b7114284339cb4", "is_disabled": 0, "rental_uris": {"ios": "https://dc.lft.to/lastmile_qr_scan", "android": "https://dc.lft.to/lastmile_qr_scan"}, "is_reserved": 0}, {"lon": -77.02571833333333, "bike_id": "dc7a9bbff33b17ff258d5683b9a044cd", "lat": 38.92460666666667, "fusion_lon": 0.0, "fusion_lat": 0.0, "type": "electric_scooter", "name": "dc7a9bbff33b17ff258d5683b9a044cd", "is_disabled": 0, "rental_uris": {"ios": "https://dc.lft.to/lastmile_qr_scan", "android": "https://dc.lft.to/lastmile_qr_scan"}, "is_reserved": 0}, {"lon": -77.00166633333333, "bike_id": "a9fc95adf66a1180c5e9f4f95f2984a9", "lat": 38.87524283333333, "fusion_lon": 0.0, "fusion_lat": 0.0, "type": "electric_scooter", "name": "a9fc95adf66a1180c5e9f4f95f2984a9", "is_disabled": 0, "rental_uris": {"ios": "https://dc.lft.to/lastmile_qr_scan", "android": "https://dc.lft.to/lastmile_qr_scan"}, "is_reserved": 0}, {"lon": -76.9915455, "bike_id": "274953982cdc6b1bb77468570ebaac66", "lat": 38.901190666666665, "fusion_lon": 0.0, "fusion_lat": 0.0, "type": "electric_scooter", "name": "274953982cdc6b1bb77468570ebaac66", "is_disabled": 0, "rental_uris": {"ios": "https://dc.lft.to/lastmile_qr_scan", "android": "https://dc.lft.to/lastmile_qr_scan"}, "is_reserved": 0}, {"lon": -77.02402083333334, "bike_id": "fba6c79d7e8d832917d892bf6fbd012f", "lat": 38.91519783333333, "fusion_lon": 0.0, "fusion_lat": 0.0, "type": "electric_scooter", "name": "fba6c79d7e8d832917d892bf6fbd012f", "is_disabled": 0, "rental_uris": {"ios": "https://dc.lft.to/lastmile_qr_scan", "android": "https://dc.lft.to/lastmile_qr_scan"}, "is_reserved": 0}, {"lon": -77.04246483333333, "bike_id": "ca3059084d368cc0375d8770f474c6d3", "lat": 38.906369833333336, "fusion_lon": 0.0, "fusion_lat": 0.0, "type": "electric_scooter", "name": "ca3059084d368cc0375d8770f474c6d3", "is_disabled": 0, "rental_uris": {"ios": "https://dc.lft.to/lastmile_qr_scan", "android": "https://dc.lft.to/lastmile_qr_scan"}, "is_reserved": 0}, {"lon": -77.009247, "bike_id": "14d446ea81c1b4ded7fc82d65f626784", "lat": 38.89648, "fusion_lon": 0.0, "fusion_lat": 0.0, "type": "electric_scooter", "name": "14d446ea81c1b4ded7fc82d65f626784", "is_disabled": 0, "rental_uris": {"ios": "https://dc.lft.to/lastmile_qr_scan", "android": "https://dc.lft.to/lastmile_qr_scan"}, "is_reserved": 0}, {"lon": -76.99208883333333, "bike_id": "89c2859619a0e1cc63c765541eccb832", "lat": 38.8982855, "fusion_lon": 0.0, "fusion_lat": 0.0, "type": "electric_scooter", "name": "89c2859619a0e1cc63c765541eccb832", "is_disabled": 0, "rental_uris": {"ios": "https://dc.lft.to/lastmile_qr_scan", "android": "https://dc.lft.to/lastmile_qr_scan"}, "is_reserved": 0}, {"lon": -77.04552766666667, "bike_id": "36f0bbfdb47d5fe2317a9faf236a8430", "lat": 38.919215, "fusion_lon": 0.0, "fusion_lat": 0.0, "type": "electric_scooter", "name": "36f0bbfdb47d5fe2317a9faf236a8430", "is_disabled": 0, "rental_uris": {"ios": "https://dc.lft.to/lastmile_qr_scan", "android": "https://dc.lft.to/lastmile_qr_scan"}, "is_reserved": 0}, {"lon": -77.0422325, "bike_id": "29c050725c60adfd0d4455c64296ab1e", "lat": 38.91115966666667, "fusion_lon": 0.0, "fusion_lat": 0.0, "type": "electric_scooter", "name": "29c050725c60adfd0d4455c64296ab1e", "is_disabled": 0, "rental_uris": {"ios": "https://dc.lft.to/lastmile_qr_scan", "android": "https://dc.lft.to/lastmile_qr_scan"}, "is_reserved": 0}, {"lon": -77.018152, "bike_id": "4d5412a85777a796893f6a1332507ab6", "lat": 38.92024216666667, "fusion_lon": 0.0, "fusion_lat": 0.0, "type": "electric_scooter", "name": "4d5412a85777a796893f6a1332507ab6", "is_disabled": 0, "rental_uris": {"ios": "https://dc.lft.to/lastmile_qr_scan", "android": "https://dc.lft.to/lastmile_qr_scan"}, "is_reserved": 0}, {"lon": -77.004567, "bike_id": "b6141e09a570a7a4e0d58618f38bda53", "lat": 38.91187383333333, "fusion_lon": 0.0, "fusion_lat": 0.0, "type": "electric_scooter", "name": "b6141e09a570a7a4e0d58618f38bda53", "is_disabled": 0, "rental_uris": {"ios": "https://dc.lft.to/lastmile_qr_scan", "android": "https://dc.lft.to/lastmile_qr_scan"}, "is_reserved": 0}, {"lon": -77.0232235, "bike_id": "614b27749fbf1b265e058146ba42e42c", "lat": 38.907347666666666, "fusion_lon": 0.0, "fusion_lat": 0.0, "type": "electric_scooter", "name": "614b27749fbf1b265e058146ba42e42c", "is_disabled": 0, "rental_uris": {"ios": "https://dc.lft.to/lastmile_qr_scan", "android": "https://dc.lft.to/lastmile_qr_scan"}, "is_reserved": 0}, {"lon": -77.021717, "bike_id": "301c74c6f82fa8b0f9d9c128a4ac011a", "lat": 38.9429165, "fusion_lon": 0.0, "fusion_lat": 0.0, "type": "electric_scooter", "name": "301c74c6f82fa8b0f9d9c128a4ac011a", "is_disabled": 0, "rental_uris": {"ios": "https://dc.lft.to/lastmile_qr_scan", "android": "https://dc.lft.to/lastmile_qr_scan"}, "is_reserved": 0}, {"lon": -76.94633266666666, "bike_id": "829e440f564904787b76f6a3ee75cbec", "lat": 38.89831983333333, "fusion_lon": 0.0, "fusion_lat": 0.0, "type": "electric_scooter", "name": "829e440f564904787b76f6a3ee75cbec", "is_disabled": 0, "rental_uris": {"ios": "https://dc.lft.to/lastmile_qr_scan", "android": "https://dc.lft.to/lastmile_qr_scan"}, "is_reserved": 0}, {"lon": -77.07672683333334, "bike_id": "d2c955cca19948b2f6923ae13eb72d9d", "lat": 38.94329466666667, "fusion_lon": 0.0, "fusion_lat": 0.0, "type": "electric_scooter", "name": "d2c955cca19948b2f6923ae13eb72d9d", "is_disabled": 0, "rental_uris": {"ios": "https://dc.lft.to/lastmile_qr_scan", "android": "https://dc.lft.to/lastmile_qr_scan"}, "is_reserved": 0}, {"lon": -77.039436, "bike_id": "d423f707cfdc7d05dd5047bdba4067ac", "lat": 38.919427, "fusion_lon": 0.0, "fusion_lat": 0.0, "type": "electric_scooter", "name": "d423f707cfdc7d05dd5047bdba4067ac", "is_disabled": 0, "rental_uris": {"ios": "https://dc.lft.to/lastmile_qr_scan", "android": "https://dc.lft.to/lastmile_qr_scan"}, "is_reserved": 0}, {"lon": -76.99850866666667, "bike_id": "4807f61b934114b149973d247d5064a6", "lat": 38.90769566666667, "fusion_lon": 0.0, "fusion_lat": 0.0, "type": "electric_scooter", "name": "4807f61b934114b149973d247d5064a6", "is_disabled": 0, "rental_uris": {"ios": "https://dc.lft.to/lastmile_qr_scan", "android": "https://dc.lft.to/lastmile_qr_scan"}, "is_reserved": 0}, {"lon": -77.05620666666667, "bike_id": "67ae4d664152502bbb3db84fb9ce7fe5", "lat": 38.92339583333333, "fusion_lon": 0.0, "fusion_lat": 0.0, "type": "electric_scooter", "name": "67ae4d664152502bbb3db84fb9ce7fe5", "is_disabled": 0, "rental_uris": {"ios": "https://dc.lft.to/lastmile_qr_scan", "android": "https://dc.lft.to/lastmile_qr_scan"}, "is_reserved": 0}, {"lon": -77.02346633333333, "bike_id": "aa06ff44af1b8bba7002c0d405a10ee2", "lat": 38.922504333333336, "fusion_lon": 0.0, "fusion_lat": 0.0, "type": "electric_scooter", "name": "aa06ff44af1b8bba7002c0d405a10ee2", "is_disabled": 0, "rental_uris": {"ios": "https://dc.lft.to/lastmile_qr_scan", "android": "https://dc.lft.to/lastmile_qr_scan"}, "is_reserved": 0}, {"lon": -76.96525066666666, "bike_id": "8772c6d12e308843eba2c3799f694966", "lat": 38.87476983333333, "fusion_lon": 0.0, "fusion_lat": 0.0, "type": "electric_scooter", "name": "8772c6d12e308843eba2c3799f694966", "is_disabled": 0, "rental_uris": {"ios": "https://dc.lft.to/lastmile_qr_scan", "android": "https://dc.lft.to/lastmile_qr_scan"}, "is_reserved": 0}, {"lon": -77.02200333333333, "bike_id": "e6585b880dad3eea6b21738fc82bf5bd", "lat": 38.902758666666664, "fusion_lon": 0.0, "fusion_lat": 0.0, "type": "electric_scooter", "name": "e6585b880dad3eea6b21738fc82bf5bd", "is_disabled": 0, "rental_uris": {"ios": "https://dc.lft.to/lastmile_qr_scan", "android": "https://dc.lft.to/lastmile_qr_scan"}, "is_reserved": 0}, {"lon": -76.9872405, "bike_id": "0afd51af9a744487168a07175aa6fd2c", "lat": 38.86707083333334, "fusion_lon": 0.0, "fusion_lat": 0.0, "type": "electric_scooter", "name": "0afd51af9a744487168a07175aa6fd2c", "is_disabled": 0, "rental_uris": {"ios": "https://dc.lft.to/lastmile_qr_scan", "android": "https://dc.lft.to/lastmile_qr_scan"}, "is_reserved": 0}, {"lon": -77.03339016666666, "bike_id": "50a52847b47f6c16629ef2eb1f512f96", "lat": 38.936385333333334, "fusion_lon": 0.0, "fusion_lat": 0.0, "type": "electric_scooter", "name": "50a52847b47f6c16629ef2eb1f512f96", "is_disabled": 0, "rental_uris": {"ios": "https://dc.lft.to/lastmile_qr_scan", "android": "https://dc.lft.to/lastmile_qr_scan"}, "is_reserved": 0}, {"lon": -76.94887716666666, "bike_id": "3d4289115db9a2aaf9c9db89a39f7787", "lat": 38.8951345, "fusion_lon": 0.0, "fusion_lat": 0.0, "type": "electric_scooter", "name": "3d4289115db9a2aaf9c9db89a39f7787", "is_disabled": 0, "rental_uris": {"ios": "https://dc.lft.to/lastmile_qr_scan", "android": "https://dc.lft.to/lastmile_qr_scan"}, "is_reserved": 0}, {"lon": -77.01644866666666, "bike_id": "9d0973f8b2cb194396bf9725f5b8b450", "lat": 38.9057755, "fusion_lon": 0.0, "fusion_lat": 0.0, "type": "electric_scooter", "name": "9d0973f8b2cb194396bf9725f5b8b450", "is_disabled": 0, "rental_uris": {"ios": "https://dc.lft.to/lastmile_qr_scan", "android": "https://dc.lft.to/lastmile_qr_scan"}, "is_reserved": 0}, {"lon": -77.02090183333334, "bike_id": "437a4495dad6f48900d343d0736bbefd", "lat": 38.95745433333333, "fusion_lon": 0.0, "fusion_lat": 0.0, "type": "electric_scooter", "name": "437a4495dad6f48900d343d0736bbefd", "is_disabled": 0, "rental_uris": {"ios": "https://dc.lft.to/lastmile_qr_scan", "android": "https://dc.lft.to/lastmile_qr_scan"}, "is_reserved": 0}, {"lon": -76.97283183333333, "bike_id": "059d6cbae78cdf59a1ec01afaeed3f9e", "lat": 38.91453166666667, "fusion_lon": 0.0, "fusion_lat": 0.0, "type": "electric_bike", "name": "059d6cbae78cdf59a1ec01afaeed3f9e", "is_disabled": 0, "rental_uris": {"ios": "https://dc.lft.to/lastmile_qr_scan", "android": "https://dc.lft.to/lastmile_qr_scan"}, "is_reserved": 0}, {"lon": -77.04265033333333, "bike_id": "de952e5bc868a06c164ac97279b49f0b", "lat": 38.910675166666664, "fusion_lon": 0.0, "fusion_lat": 0.0, "type": "electric_scooter", "name": "de952e5bc868a06c164ac97279b49f0b", "is_disabled": 0, "rental_uris": {"ios": "https://dc.lft.to/lastmile_qr_scan", "android": "https://dc.lft.to/lastmile_qr_scan"}, "is_reserved": 0}, {"lon": -77.07346483333333, "bike_id": "83365168a814dd3a5ced5d3ca2aa0fb3", "lat": 38.930436, "fusion_lon": 0.0, "fusion_lat": 0.0, "type": "electric_bike", "name": "83365168a814dd3a5ced5d3ca2aa0fb3", "is_disabled": 0, "rental_uris": {"ios": "https://dc.lft.to/lastmile_qr_scan", "android": "https://dc.lft.to/lastmile_qr_scan"}, "is_reserved": 0}, {"lon": -77.02779333333334, "bike_id": "14aee8e7712cdd9dfe71cecab1eb059d", "lat": 38.89704966666667, "fusion_lon": 0.0, "fusion_lat": 0.0, "type": "electric_scooter", "name": "14aee8e7712cdd9dfe71cecab1eb059d", "is_disabled": 0, "rental_uris": {"ios": "https://dc.lft.to/lastmile_qr_scan", "android": "https://dc.lft.to/lastmile_qr_scan"}, "is_reserved": 0}, {"lon": -76.98862466666667, "bike_id": "fbc512a0d51ae5e850047d26eed1391e", "lat": 38.954828, "fusion_lon": 0.0, "fusion_lat": 0.0, "type": "electric_bike", "name": "fbc512a0d51ae5e850047d26eed1391e", "is_disabled": 0, "rental_uris": {"ios": "https://dc.lft.to/lastmile_qr_scan", "android": "https://dc.lft.to/lastmile_qr_scan"}, "is_reserved": 0}, {"lon": -76.987059, "bike_id": "8cebdf053fe4a97cd5089b7a49a71e3c", "lat": 38.86539, "fusion_lon": 0.0, "fusion_lat": 0.0, "type": "electric_scooter", "name": "8cebdf053fe4a97cd5089b7a49a71e3c", "is_disabled": 0, "rental_uris": {"ios": "https://dc.lft.to/lastmile_qr_scan", "android": "https://dc.lft.to/lastmile_qr_scan"}, "is_reserved": 0}, {"lon": -77.04938883333334, "bike_id": "791514328ed681ed008a4983c23e83f0", "lat": 38.918245666666664, "fusion_lon": 0.0, "fusion_lat": 0.0, "type": "electric_scooter", "name": "791514328ed681ed008a4983c23e83f0", "is_disabled": 0, "rental_uris": {"ios": "https://dc.lft.to/lastmile_qr_scan", "android": "https://dc.lft.to/lastmile_qr_scan"}, "is_reserved": 0}, {"lon": -77.03857683333334, "bike_id": "7bbdf6e20d1ec9606eb5d7e842a92e22", "lat": 38.9074705, "fusion_lon": 0.0, "fusion_lat": 0.0, "type": "electric_scooter", "name": "7bbdf6e20d1ec9606eb5d7e842a92e22", "is_disabled": 0, "rental_uris": {"ios": "https://dc.lft.to/lastmile_qr_scan", "android": "https://dc.lft.to/lastmile_qr_scan"}, "is_reserved": 0}, {"lon": -76.9960635, "bike_id": "2713b39a3e660524f79fb7326878a53e", "lat": 38.909598, "fusion_lon": 0.0, "fusion_lat": 0.0, "type": "electric_scooter", "name": "2713b39a3e660524f79fb7326878a53e", "is_disabled": 0, "rental_uris": {"ios": "https://dc.lft.to/lastmile_qr_scan", "android": "https://dc.lft.to/lastmile_qr_scan"}, "is_reserved": 0}, {"lon": -76.9605485, "bike_id": "6b69f6cd7757b232c5d34862634b9fe6", "lat": 38.884037, "fusion_lon": 0.0, "fusion_lat": 0.0, "type": "electric_bike", "name": "6b69f6cd7757b232c5d34862634b9fe6", "is_disabled": 0, "rental_uris": {"ios": "https://dc.lft.to/lastmile_qr_scan", "android": "https://dc.lft.to/lastmile_qr_scan"}, "is_reserved": 0}, {"lon": -76.9933345, "bike_id": "3d7c9eda14edcb06454cf32c30d20a2c", "lat": 38.8714215, "fusion_lon": 0.0, "fusion_lat": 0.0, "type": "electric_scooter", "name": "3d7c9eda14edcb06454cf32c30d20a2c", "is_disabled": 0, "rental_uris": {"ios": "https://dc.lft.to/lastmile_qr_scan", "android": "https://dc.lft.to/lastmile_qr_scan"}, "is_reserved": 0}, {"lon": -77.0534375, "bike_id": "8c3ad37f6b5df46067c574597da7977b", "lat": 38.90145616666667, "fusion_lon": 0.0, "fusion_lat": 0.0, "type": "electric_scooter", "name": "8c3ad37f6b5df46067c574597da7977b", "is_disabled": 0, "rental_uris": {"ios": "https://dc.lft.to/lastmile_qr_scan", "android": "https://dc.lft.to/lastmile_qr_scan"}, "is_reserved": 0}, {"lon": -77.03517033333334, "bike_id": "62db4f2ee4cbae1f70b0fe8b6ab2792f", "lat": 38.92338616666667, "fusion_lon": 0.0, "fusion_lat": 0.0, "type": "electric_scooter", "name": "62db4f2ee4cbae1f70b0fe8b6ab2792f", "is_disabled": 0, "rental_uris": {"ios": "https://dc.lft.to/lastmile_qr_scan", "android": "https://dc.lft.to/lastmile_qr_scan"}, "is_reserved": 0}, {"lon": -77.10597083333333, "bike_id": "1ee6dca6e7b788d795a9d91f818b3016", "lat": 38.9038215, "fusion_lon": 0.0, "fusion_lat": 0.0, "type": "electric_bike", "name": "1ee6dca6e7b788d795a9d91f818b3016", "is_disabled": 0, "rental_uris": {"ios": "https://dc.lft.to/lastmile_qr_scan", "android": "https://dc.lft.to/lastmile_qr_scan"}, "is_reserved": 0}, {"lon": -77.011989, "bike_id": "e6b03dc1fe33a5778bb7ed2e34079f75", "lat": 38.919148166666666, "fusion_lon": 0.0, "fusion_lat": 0.0, "type": "electric_scooter", "name": "e6b03dc1fe33a5778bb7ed2e34079f75", "is_disabled": 0, "rental_uris": {"ios": "https://dc.lft.to/lastmile_qr_scan", "android": "https://dc.lft.to/lastmile_qr_scan"}, "is_reserved": 0}, {"lon": -77.02746216666667, "bike_id": "65795ca982c8c61bef57e97cdb7f3383", "lat": 38.94391383333333, "fusion_lon": 0.0, "fusion_lat": 0.0, "type": "electric_scooter", "name": "65795ca982c8c61bef57e97cdb7f3383", "is_disabled": 0, "rental_uris": {"ios": "https://dc.lft.to/lastmile_qr_scan", "android": "https://dc.lft.to/lastmile_qr_scan"}, "is_reserved": 0}, {"lon": -77.01137016666667, "bike_id": "00cc04f9a076d6b0d9da24d8e40def35", "lat": 38.8852385, "fusion_lon": 0.0, "fusion_lat": 0.0, "type": "electric_scooter", "name": "00cc04f9a076d6b0d9da24d8e40def35", "is_disabled": 0, "rental_uris": {"ios": "https://dc.lft.to/lastmile_qr_scan", "android": "https://dc.lft.to/lastmile_qr_scan"}, "is_reserved": 0}, {"lon": -77.0742245, "bike_id": "e969ec03553da3b2d0850db199af7bce", "lat": 38.962725166666665, "fusion_lon": 0.0, "fusion_lat": 0.0, "type": "electric_scooter", "name": "e969ec03553da3b2d0850db199af7bce", "is_disabled": 0, "rental_uris": {"ios": "https://dc.lft.to/lastmile_qr_scan", "android": "https://dc.lft.to/lastmile_qr_scan"}, "is_reserved": 0}, {"lon": -77.04785383333333, "bike_id": "882ea70ff30d9faa44f2ad03093ffb57", "lat": 38.91226666666667, "fusion_lon": 0.0, "fusion_lat": 0.0, "type": "electric_scooter", "name": "882ea70ff30d9faa44f2ad03093ffb57", "is_disabled": 0, "rental_uris": {"ios": "https://dc.lft.to/lastmile_qr_scan", "android": "https://dc.lft.to/lastmile_qr_scan"}, "is_reserved": 0}, {"lon": -77.025866, "bike_id": "6c30613af47d8a8c81802352c5ab81aa", "lat": 38.89226983333333, "fusion_lon": 0.0, "fusion_lat": 0.0, "type": "electric_scooter", "name": "6c30613af47d8a8c81802352c5ab81aa", "is_disabled": 0, "rental_uris": {"ios": "https://dc.lft.to/lastmile_qr_scan", "android": "https://dc.lft.to/lastmile_qr_scan"}, "is_reserved": 0}, {"lon": -77.036667, "bike_id": "8d69901f6830f422590ba2cc31d88956", "lat": 38.917495, "fusion_lon": 0.0, "fusion_lat": 0.0, "type": "electric_scooter", "name": "8d69901f6830f422590ba2cc31d88956", "is_disabled": 0, "rental_uris": {"ios": "https://dc.lft.to/lastmile_qr_scan", "android": "https://dc.lft.to/lastmile_qr_scan"}, "is_reserved": 0}, {"lon": -77.02191216666667, "bike_id": "1ca636ca1ff107c237c9817a87c409d3", "lat": 38.90036683333334, "fusion_lon": 0.0, "fusion_lat": 0.0, "type": "electric_scooter", "name": "1ca636ca1ff107c237c9817a87c409d3", "is_disabled": 0, "rental_uris": {"ios": "https://dc.lft.to/lastmile_qr_scan", "android": "https://dc.lft.to/lastmile_qr_scan"}, "is_reserved": 0}, {"lon": -77.0239125, "bike_id": "1714810eddc3c4b3b71d21e0a5af3f90", "lat": 38.90419833333333, "fusion_lon": 0.0, "fusion_lat": 0.0, "type": "electric_scooter", "name": "1714810eddc3c4b3b71d21e0a5af3f90", "is_disabled": 0, "rental_uris": {"ios": "https://dc.lft.to/lastmile_qr_scan", "android": "https://dc.lft.to/lastmile_qr_scan"}, "is_reserved": 0}, {"lon": -77.0242675, "bike_id": "3b0b35e07119359fff88c34f3b33b972", "lat": 38.9264965, "fusion_lon": 0.0, "fusion_lat": 0.0, "type": "electric_scooter", "name": "3b0b35e07119359fff88c34f3b33b972", "is_disabled": 0, "rental_uris": {"ios": "https://dc.lft.to/lastmile_qr_scan", "android": "https://dc.lft.to/lastmile_qr_scan"}, "is_reserved": 0}, {"lon": -77.0411695, "bike_id": "b3022b9f87883811e6f796d6c84312df", "lat": 38.906034, "fusion_lon": 0.0, "fusion_lat": 0.0, "type": "electric_scooter", "name": "b3022b9f87883811e6f796d6c84312df", "is_disabled": 0, "rental_uris": {"ios": "https://dc.lft.to/lastmile_qr_scan", "android": "https://dc.lft.to/lastmile_qr_scan"}, "is_reserved": 0}, {"lon": -76.97330683333334, "bike_id": "58706b6d3877133a0476d062fb7f2d05", "lat": 38.90409416666667, "fusion_lon": 0.0, "fusion_lat": 0.0, "type": "electric_scooter", "name": "58706b6d3877133a0476d062fb7f2d05", "is_disabled": 0, "rental_uris": {"ios": "https://dc.lft.to/lastmile_qr_scan", "android": "https://dc.lft.to/lastmile_qr_scan"}, "is_reserved": 0}, {"lon": -77.0585715, "bike_id": "588bffa9571b1801b848250424de5d80", "lat": 38.936056, "fusion_lon": 0.0, "fusion_lat": 0.0, "type": "electric_scooter", "name": "588bffa9571b1801b848250424de5d80", "is_disabled": 0, "rental_uris": {"ios": "https://dc.lft.to/lastmile_qr_scan", "android": "https://dc.lft.to/lastmile_qr_scan"}, "is_reserved": 0}, {"lon": -77.04596, "bike_id": "7a81e9478f2abab8f573a80307e4c185", "lat": 38.91932933333333, "fusion_lon": 0.0, "fusion_lat": 0.0, "type": "electric_scooter", "name": "7a81e9478f2abab8f573a80307e4c185", "is_disabled": 0, "rental_uris": {"ios": "https://dc.lft.to/lastmile_qr_scan", "android": "https://dc.lft.to/lastmile_qr_scan"}, "is_reserved": 0}, {"lon": -77.03436183333334, "bike_id": "e2dbaab6202f51b22d6f6d19874d0778", "lat": 38.907279, "fusion_lon": 0.0, "fusion_lat": 0.0, "type": "electric_scooter", "name": "e2dbaab6202f51b22d6f6d19874d0778", "is_disabled": 0, "rental_uris": {"ios": "https://dc.lft.to/lastmile_qr_scan", "android": "https://dc.lft.to/lastmile_qr_scan"}, "is_reserved": 0}, {"lon": -76.99548533333333, "bike_id": "3c245d9eac7425995ca6bd4a8511a5be", "lat": 38.8621745, "fusion_lon": 0.0, "fusion_lat": 0.0, "type": "electric_scooter", "name": "3c245d9eac7425995ca6bd4a8511a5be", "is_disabled": 0, "rental_uris": {"ios": "https://dc.lft.to/lastmile_qr_scan", "android": "https://dc.lft.to/lastmile_qr_scan"}, "is_reserved": 0}, {"lon": -76.9465155, "bike_id": "08c95f9da16ca47f33fd5aeebae53618", "lat": 38.898277666666665, "fusion_lon": 0.0, "fusion_lat": 0.0, "type": "electric_scooter", "name": "08c95f9da16ca47f33fd5aeebae53618", "is_disabled": 0, "rental_uris": {"ios": "https://dc.lft.to/lastmile_qr_scan", "android": "https://dc.lft.to/lastmile_qr_scan"}, "is_reserved": 0}, {"lon": -76.982283, "bike_id": "6e7f57aec5051e60d95007c72c6ce2c8", "lat": 38.86472033333333, "fusion_lon": 0.0, "fusion_lat": 0.0, "type": "electric_scooter", "name": "6e7f57aec5051e60d95007c72c6ce2c8", "is_disabled": 0, "rental_uris": {"ios": "https://dc.lft.to/lastmile_qr_scan", "android": "https://dc.lft.to/lastmile_qr_scan"}, "is_reserved": 0}, {"lon": -77.01780466666666, "bike_id": "509bd88c43a5283a5726ab0c7dd6f2c0", "lat": 38.90040833333333, "fusion_lon": 0.0, "fusion_lat": 0.0, "type": "electric_scooter", "name": "509bd88c43a5283a5726ab0c7dd6f2c0", "is_disabled": 0, "rental_uris": {"ios": "https://dc.lft.to/lastmile_qr_scan", "android": "https://dc.lft.to/lastmile_qr_scan"}, "is_reserved": 0}, {"lon": -77.139232, "bike_id": "6dc9f2376520271eda4f6880cc98a7a3", "lat": 38.87298366666667, "fusion_lon": 0.0, "fusion_lat": 0.0, "type": "electric_bike", "name": "6dc9f2376520271eda4f6880cc98a7a3", "is_disabled": 0, "rental_uris": {"ios": "https://dc.lft.to/lastmile_qr_scan", "android": "https://dc.lft.to/lastmile_qr_scan"}, "is_reserved": 0}, {"lon": -76.99033283333333, "bike_id": "e6b3eeef512dcd3954f7b547b05667e9", "lat": 38.896006166666666, "fusion_lon": 0.0, "fusion_lat": 0.0, "type": "electric_scooter", "name": "e6b3eeef512dcd3954f7b547b05667e9", "is_disabled": 0, "rental_uris": {"ios": "https://dc.lft.to/lastmile_qr_scan", "android": "https://dc.lft.to/lastmile_qr_scan"}, "is_reserved": 0}, {"lon": -77.03430033333333, "bike_id": "d26181d246677791121828d38479f432", "lat": 38.9653195, "fusion_lon": 0.0, "fusion_lat": 0.0, "type": "electric_bike", "name": "d26181d246677791121828d38479f432", "is_disabled": 0, "rental_uris": {"ios": "https://dc.lft.to/lastmile_qr_scan", "android": "https://dc.lft.to/lastmile_qr_scan"}, "is_reserved": 0}, {"lon": -77.04906716666666, "bike_id": "a092ff58848aebe492d55b76bfe2ba15", "lat": 38.916016, "fusion_lon": 0.0, "fusion_lat": 0.0, "type": "electric_scooter", "name": "a092ff58848aebe492d55b76bfe2ba15", "is_disabled": 0, "rental_uris": {"ios": "https://dc.lft.to/lastmile_qr_scan", "android": "https://dc.lft.to/lastmile_qr_scan"}, "is_reserved": 0}, {"lon": -77.0257875, "bike_id": "38d99c49968b60d484ea63ab56918085", "lat": 38.914032, "fusion_lon": 0.0, "fusion_lat": 0.0, "type": "electric_scooter", "name": "38d99c49968b60d484ea63ab56918085", "is_disabled": 0, "rental_uris": {"ios": "https://dc.lft.to/lastmile_qr_scan", "android": "https://dc.lft.to/lastmile_qr_scan"}, "is_reserved": 0}, {"lon": -76.9720585, "bike_id": "77f8f471f882a8c6a12e3ed40953582a", "lat": 38.89289633333333, "fusion_lon": 0.0, "fusion_lat": 0.0, "type": "electric_bike", "name": "77f8f471f882a8c6a12e3ed40953582a", "is_disabled": 0, "rental_uris": {"ios": "https://dc.lft.to/lastmile_qr_scan", "android": "https://dc.lft.to/lastmile_qr_scan"}, "is_reserved": 0}, {"lon": -77.05315683333333, "bike_id": "5959437ed88790c08c6209f32d495c03", "lat": 38.90075316666667, "fusion_lon": 0.0, "fusion_lat": 0.0, "type": "electric_scooter", "name": "5959437ed88790c08c6209f32d495c03", "is_disabled": 0, "rental_uris": {"ios": "https://dc.lft.to/lastmile_qr_scan", "android": "https://dc.lft.to/lastmile_qr_scan"}, "is_reserved": 0}, {"lon": -77.02803916666667, "bike_id": "b0e144feaad0c65d1e41bf123e292759", "lat": 38.906653, "fusion_lon": 0.0, "fusion_lat": 0.0, "type": "electric_scooter", "name": "b0e144feaad0c65d1e41bf123e292759", "is_disabled": 0, "rental_uris": {"ios": "https://dc.lft.to/lastmile_qr_scan", "android": "https://dc.lft.to/lastmile_qr_scan"}, "is_reserved": 0}, {"lon": -77.05567866666667, "bike_id": "9cc326ae491d77d8f3e376f0ff078946", "lat": 38.8972725, "fusion_lon": 0.0, "fusion_lat": 0.0, "type": "electric_scooter", "name": "9cc326ae491d77d8f3e376f0ff078946", "is_disabled": 0, "rental_uris": {"ios": "https://dc.lft.to/lastmile_qr_scan", "android": "https://dc.lft.to/lastmile_qr_scan"}, "is_reserved": 0}, {"lon": -77.02346583333333, "bike_id": "3ab6223d01e2af1237ab861024578206", "lat": 38.93533083333333, "fusion_lon": 0.0, "fusion_lat": 0.0, "type": "electric_scooter", "name": "3ab6223d01e2af1237ab861024578206", "is_disabled": 0, "rental_uris": {"ios": "https://dc.lft.to/lastmile_qr_scan", "android": "https://dc.lft.to/lastmile_qr_scan"}, "is_reserved": 0}, {"lon": -76.93735633333333, "bike_id": "cc58555b9bee9098fc6e49be9bc79b30", "lat": 38.890079, "fusion_lon": 0.0, "fusion_lat": 0.0, "type": "electric_scooter", "name": "cc58555b9bee9098fc6e49be9bc79b30", "is_disabled": 0, "rental_uris": {"ios": "https://dc.lft.to/lastmile_qr_scan", "android": "https://dc.lft.to/lastmile_qr_scan"}, "is_reserved": 0}, {"lon": -77.02616983333333, "bike_id": "cf45659c0044bb7723317979148186e6", "lat": 38.896199, "fusion_lon": 0.0, "fusion_lat": 0.0, "type": "electric_scooter", "name": "cf45659c0044bb7723317979148186e6", "is_disabled": 0, "rental_uris": {"ios": "https://dc.lft.to/lastmile_qr_scan", "android": "https://dc.lft.to/lastmile_qr_scan"}, "is_reserved": 0}, {"lon": -77.029942, "bike_id": "ac34239707eb6c27d8b235d380275d42", "lat": 38.9246515, "fusion_lon": 0.0, "fusion_lat": 0.0, "type": "electric_scooter", "name": "ac34239707eb6c27d8b235d380275d42", "is_disabled": 0, "rental_uris": {"ios": "https://dc.lft.to/lastmile_qr_scan", "android": "https://dc.lft.to/lastmile_qr_scan"}, "is_reserved": 0}, {"lon": -77.0280335, "bike_id": "c76455ff1350f8dadef1d75c98721afc", "lat": 38.910998166666666, "fusion_lon": 0.0, "fusion_lat": 0.0, "type": "electric_scooter", "name": "c76455ff1350f8dadef1d75c98721afc", "is_disabled": 0, "rental_uris": {"ios": "https://dc.lft.to/lastmile_qr_scan", "android": "https://dc.lft.to/lastmile_qr_scan"}, "is_reserved": 0}, {"lon": -76.9313, "bike_id": "a7bce0a1346bc8f2b15a9c7d08ac2c9b", "lat": 38.876110833333335, "fusion_lon": 0.0, "fusion_lat": 0.0, "type": "electric_scooter", "name": "a7bce0a1346bc8f2b15a9c7d08ac2c9b", "is_disabled": 0, "rental_uris": {"ios": "https://dc.lft.to/lastmile_qr_scan", "android": "https://dc.lft.to/lastmile_qr_scan"}, "is_reserved": 0}, {"lon": -77.03162283333333, "bike_id": "e2cc79a5ea314940357886ed15e016f3", "lat": 38.89213266666667, "fusion_lon": 0.0, "fusion_lat": 0.0, "type": "electric_scooter", "name": "e2cc79a5ea314940357886ed15e016f3", "is_disabled": 0, "rental_uris": {"ios": "https://dc.lft.to/lastmile_qr_scan", "android": "https://dc.lft.to/lastmile_qr_scan"}, "is_reserved": 0}, {"lon": -77.05438383333333, "bike_id": "cab8bc90bcc4b6b7b121a66356f247bf", "lat": 38.928633, "fusion_lon": 0.0, "fusion_lat": 0.0, "type": "electric_scooter", "name": "cab8bc90bcc4b6b7b121a66356f247bf", "is_disabled": 0, "rental_uris": {"ios": "https://dc.lft.to/lastmile_qr_scan", "android": "https://dc.lft.to/lastmile_qr_scan"}, "is_reserved": 0}, {"lon": -77.04884416666667, "bike_id": "520eb04776a48cf12c776fc982ef6305", "lat": 38.90349466666667, "fusion_lon": 0.0, "fusion_lat": 0.0, "type": "electric_scooter", "name": "520eb04776a48cf12c776fc982ef6305", "is_disabled": 0, "rental_uris": {"ios": "https://dc.lft.to/lastmile_qr_scan", "android": "https://dc.lft.to/lastmile_qr_scan"}, "is_reserved": 0}, {"lon": -77.01640783333333, "bike_id": "f6ce4be7f8ff116ff51048d8e214e0f5", "lat": 38.928946333333336, "fusion_lon": 0.0, "fusion_lat": 0.0, "type": "electric_scooter", "name": "f6ce4be7f8ff116ff51048d8e214e0f5", "is_disabled": 0, "rental_uris": {"ios": "https://dc.lft.to/lastmile_qr_scan", "android": "https://dc.lft.to/lastmile_qr_scan"}, "is_reserved": 0}, {"lon": -76.99539833333333, "bike_id": "ae2312702fbd94d2f1f65c5035e3d3d9", "lat": 38.926774, "fusion_lon": 0.0, "fusion_lat": 0.0, "type": "electric_scooter", "name": "ae2312702fbd94d2f1f65c5035e3d3d9", "is_disabled": 0, "rental_uris": {"ios": "https://dc.lft.to/lastmile_qr_scan", "android": "https://dc.lft.to/lastmile_qr_scan"}, "is_reserved": 0}, {"lon": -76.9954625, "bike_id": "d9bebf4f18da98b37e6432c5f2cfc79f", "lat": 38.8625675, "fusion_lon": 0.0, "fusion_lat": 0.0, "type": "electric_scooter", "name": "d9bebf4f18da98b37e6432c5f2cfc79f", "is_disabled": 0, "rental_uris": {"ios": "https://dc.lft.to/lastmile_qr_scan", "android": "https://dc.lft.to/lastmile_qr_scan"}, "is_reserved": 0}, {"lon": -77.02996016666667, "bike_id": "c75fa2b63fef0bdb2e0e963a2d09fd33", "lat": 38.902718, "fusion_lon": 0.0, "fusion_lat": 0.0, "type": "electric_scooter", "name": "c75fa2b63fef0bdb2e0e963a2d09fd33", "is_disabled": 0, "rental_uris": {"ios": "https://dc.lft.to/lastmile_qr_scan", "android": "https://dc.lft.to/lastmile_qr_scan"}, "is_reserved": 0}, {"lon": -77.0365575, "bike_id": "630721635d37275d0cf5ac785661cf62", "lat": 38.9408875, "fusion_lon": 0.0, "fusion_lat": 0.0, "type": "electric_scooter", "name": "630721635d37275d0cf5ac785661cf62", "is_disabled": 0, "rental_uris": {"ios": "https://dc.lft.to/lastmile_qr_scan", "android": "https://dc.lft.to/lastmile_qr_scan"}, "is_reserved": 0}, {"lon": -77.0366085, "bike_id": "7d3abfeaa9ad35b01c827c2f41af1369", "lat": 38.912930833333334, "fusion_lon": 0.0, "fusion_lat": 0.0, "type": "electric_scooter", "name": "7d3abfeaa9ad35b01c827c2f41af1369", "is_disabled": 0, "rental_uris": {"ios": "https://dc.lft.to/lastmile_qr_scan", "android": "https://dc.lft.to/lastmile_qr_scan"}, "is_reserved": 0}, {"lon": -77.02821333333333, "bike_id": "b414a2bc3320d159e5e2fff097b4a102", "lat": 38.90476833333334, "fusion_lon": 0.0, "fusion_lat": 0.0, "type": "electric_scooter", "name": "b414a2bc3320d159e5e2fff097b4a102", "is_disabled": 0, "rental_uris": {"ios": "https://dc.lft.to/lastmile_qr_scan", "android": "https://dc.lft.to/lastmile_qr_scan"}, "is_reserved": 0}, {"lon": -76.980831, "bike_id": "e1442a0fdc8a5b179de8cdb20fc16699", "lat": 38.95351133333333, "fusion_lon": 0.0, "fusion_lat": 0.0, "type": "electric_bike", "name": "e1442a0fdc8a5b179de8cdb20fc16699", "is_disabled": 0, "rental_uris": {"ios": "https://dc.lft.to/lastmile_qr_scan", "android": "https://dc.lft.to/lastmile_qr_scan"}, "is_reserved": 0}, {"lon": -77.028759, "bike_id": "f6097a7616ff9c4d1f7828b543285b06", "lat": 38.92825783333333, "fusion_lon": 0.0, "fusion_lat": 0.0, "type": "electric_scooter", "name": "f6097a7616ff9c4d1f7828b543285b06", "is_disabled": 0, "rental_uris": {"ios": "https://dc.lft.to/lastmile_qr_scan", "android": "https://dc.lft.to/lastmile_qr_scan"}, "is_reserved": 0}, {"lon": -77.023625, "bike_id": "1bde2a90f9a78074bc635a57460b7df9", "lat": 38.8922155, "fusion_lon": 0.0, "fusion_lat": 0.0, "type": "electric_scooter", "name": "1bde2a90f9a78074bc635a57460b7df9", "is_disabled": 0, "rental_uris": {"ios": "https://dc.lft.to/lastmile_qr_scan", "android": "https://dc.lft.to/lastmile_qr_scan"}, "is_reserved": 0}, {"lon": -77.031347, "bike_id": "e251e4ea6d8edcd645fdf1b66aac25fe", "lat": 38.917115333333335, "fusion_lon": 0.0, "fusion_lat": 0.0, "type": "electric_scooter", "name": "e251e4ea6d8edcd645fdf1b66aac25fe", "is_disabled": 0, "rental_uris": {"ios": "https://dc.lft.to/lastmile_qr_scan", "android": "https://dc.lft.to/lastmile_qr_scan"}, "is_reserved": 0}, {"lon": -77.0328385, "bike_id": "43555b157c5287fbf113fa33618c3984", "lat": 38.93643266666667, "fusion_lon": 0.0, "fusion_lat": 0.0, "type": "electric_scooter", "name": "43555b157c5287fbf113fa33618c3984", "is_disabled": 0, "rental_uris": {"ios": "https://dc.lft.to/lastmile_qr_scan", "android": "https://dc.lft.to/lastmile_qr_scan"}, "is_reserved": 0}, {"lon": -76.994569, "bike_id": "3fff19fb326aa193d653beb213f2477c", "lat": 38.862188, "fusion_lon": 0.0, "fusion_lat": 0.0, "type": "electric_scooter", "name": "3fff19fb326aa193d653beb213f2477c", "is_disabled": 0, "rental_uris": {"ios": "https://dc.lft.to/lastmile_qr_scan", "android": "https://dc.lft.to/lastmile_qr_scan"}, "is_reserved": 0}, {"lon": -77.00785783333333, "bike_id": "4063b810f65da96d88809ad2af5fd8aa", "lat": 38.98384033333333, "fusion_lon": 0.0, "fusion_lat": 0.0, "type": "electric_bike", "name": "4063b810f65da96d88809ad2af5fd8aa", "is_disabled": 0, "rental_uris": {"ios": "https://dc.lft.to/lastmile_qr_scan", "android": "https://dc.lft.to/lastmile_qr_scan"}, "is_reserved": 0}, {"lon": -77.03034866666667, "bike_id": "b608c97af93b691518be1396a758a49f", "lat": 38.931154666666664, "fusion_lon": 0.0, "fusion_lat": 0.0, "type": "electric_scooter", "name": "b608c97af93b691518be1396a758a49f", "is_disabled": 0, "rental_uris": {"ios": "https://dc.lft.to/lastmile_qr_scan", "android": "https://dc.lft.to/lastmile_qr_scan"}, "is_reserved": 0}, {"lon": -77.05439733333333, "bike_id": "ab833f0b0a5e001b8be44dc7a7398dd5", "lat": 38.928603833333334, "fusion_lon": 0.0, "fusion_lat": 0.0, "type": "electric_scooter", "name": "ab833f0b0a5e001b8be44dc7a7398dd5", "is_disabled": 0, "rental_uris": {"ios": "https://dc.lft.to/lastmile_qr_scan", "android": "https://dc.lft.to/lastmile_qr_scan"}, "is_reserved": 0}, {"lon": -77.04456083333334, "bike_id": "975507c769b22a3083266bccaaf2c260", "lat": 38.91844316666667, "fusion_lon": 0.0, "fusion_lat": 0.0, "type": "electric_scooter", "name": "975507c769b22a3083266bccaaf2c260", "is_disabled": 0, "rental_uris": {"ios": "https://dc.lft.to/lastmile_qr_scan", "android": "https://dc.lft.to/lastmile_qr_scan"}, "is_reserved": 0}, {"lon": -77.022954, "bike_id": "878d1b31fa461c4dc31aaf915b71768d", "lat": 38.92224933333333, "fusion_lon": 0.0, "fusion_lat": 0.0, "type": "electric_scooter", "name": "878d1b31fa461c4dc31aaf915b71768d", "is_disabled": 0, "rental_uris": {"ios": "https://dc.lft.to/lastmile_qr_scan", "android": "https://dc.lft.to/lastmile_qr_scan"}, "is_reserved": 0}, {"lon": -77.00816566666667, "bike_id": "d04fbc67ed15dd07b517c339293d72e7", "lat": 38.8766005, "fusion_lon": 0.0, "fusion_lat": 0.0, "type": "electric_scooter", "name": "d04fbc67ed15dd07b517c339293d72e7", "is_disabled": 0, "rental_uris": {"ios": "https://dc.lft.to/lastmile_qr_scan", "android": "https://dc.lft.to/lastmile_qr_scan"}, "is_reserved": 0}, {"lon": -77.03452166666666, "bike_id": "dbcb5f375cdf9b7510f19bb783b569b1", "lat": 38.93433483333333, "fusion_lon": 0.0, "fusion_lat": 0.0, "type": "electric_scooter", "name": "dbcb5f375cdf9b7510f19bb783b569b1", "is_disabled": 0, "rental_uris": {"ios": "https://dc.lft.to/lastmile_qr_scan", "android": "https://dc.lft.to/lastmile_qr_scan"}, "is_reserved": 0}, {"lon": -77.03263516666667, "bike_id": "88248f00c4631f594d50269cf96a0c3c", "lat": 38.919942, "fusion_lon": 0.0, "fusion_lat": 0.0, "type": "electric_scooter", "name": "88248f00c4631f594d50269cf96a0c3c", "is_disabled": 0, "rental_uris": {"ios": "https://dc.lft.to/lastmile_qr_scan", "android": "https://dc.lft.to/lastmile_qr_scan"}, "is_reserved": 0}, {"lon": -77.02960633333333, "bike_id": "2834752cbdba67de5b2941294daa2192", "lat": 38.922885666666666, "fusion_lon": 0.0, "fusion_lat": 0.0, "type": "electric_scooter", "name": "2834752cbdba67de5b2941294daa2192", "is_disabled": 0, "rental_uris": {"ios": "https://dc.lft.to/lastmile_qr_scan", "android": "https://dc.lft.to/lastmile_qr_scan"}, "is_reserved": 0}, {"lon": -77.0276495, "bike_id": "a0d9bd3d548afae09e81e5e28e20b74c", "lat": 38.954252333333336, "fusion_lon": 0.0, "fusion_lat": 0.0, "type": "electric_scooter", "name": "a0d9bd3d548afae09e81e5e28e20b74c", "is_disabled": 0, "rental_uris": {"ios": "https://dc.lft.to/lastmile_qr_scan", "android": "https://dc.lft.to/lastmile_qr_scan"}, "is_reserved": 0}, {"lon": -77.04321766666666, "bike_id": "94ff0a12b62e247156d71ef4dd5d2bac", "lat": 38.9236585, "fusion_lon": 0.0, "fusion_lat": 0.0, "type": "electric_scooter", "name": "94ff0a12b62e247156d71ef4dd5d2bac", "is_disabled": 0, "rental_uris": {"ios": "https://dc.lft.to/lastmile_qr_scan", "android": "https://dc.lft.to/lastmile_qr_scan"}, "is_reserved": 0}, {"lon": -76.96603983333333, "bike_id": "bff6e5fff978bdfc63cfc551f0358d97", "lat": 38.87108216666667, "fusion_lon": 0.0, "fusion_lat": 0.0, "type": "electric_scooter", "name": "bff6e5fff978bdfc63cfc551f0358d97", "is_disabled": 0, "rental_uris": {"ios": "https://dc.lft.to/lastmile_qr_scan", "android": "https://dc.lft.to/lastmile_qr_scan"}, "is_reserved": 0}, {"lon": -77.02029333333333, "bike_id": "31158340ff8d695f8e112ff4f25f9f39", "lat": 38.905599, "fusion_lon": 0.0, "fusion_lat": 0.0, "type": "electric_scooter", "name": "31158340ff8d695f8e112ff4f25f9f39", "is_disabled": 0, "rental_uris": {"ios": "https://dc.lft.to/lastmile_qr_scan", "android": "https://dc.lft.to/lastmile_qr_scan"}, "is_reserved": 0}, {"lon": -77.04009166666667, "bike_id": "4108df9d70e9d4275ff07863cf8b8c00", "lat": 38.921627666666666, "fusion_lon": 0.0, "fusion_lat": 0.0, "type": "electric_scooter", "name": "4108df9d70e9d4275ff07863cf8b8c00", "is_disabled": 0, "rental_uris": {"ios": "https://dc.lft.to/lastmile_qr_scan", "android": "https://dc.lft.to/lastmile_qr_scan"}, "is_reserved": 0}, {"lon": -77.03848983333333, "bike_id": "21d471df47d59786166d62fa04ee769d", "lat": 38.9068675, "fusion_lon": 0.0, "fusion_lat": 0.0, "type": "electric_scooter", "name": "21d471df47d59786166d62fa04ee769d", "is_disabled": 0, "rental_uris": {"ios": "https://dc.lft.to/lastmile_qr_scan", "android": "https://dc.lft.to/lastmile_qr_scan"}, "is_reserved": 0}, {"lon": -77.03468116666667, "bike_id": "eb1d42109c37e8d10f753d5236844efe", "lat": 38.9186775, "fusion_lon": 0.0, "fusion_lat": 0.0, "type": "electric_scooter", "name": "eb1d42109c37e8d10f753d5236844efe", "is_disabled": 0, "rental_uris": {"ios": "https://dc.lft.to/lastmile_qr_scan", "android": "https://dc.lft.to/lastmile_qr_scan"}, "is_reserved": 0}, {"lon": -77.04321266666666, "bike_id": "59693ec22421f680a74d2b13ac647794", "lat": 38.892216, "fusion_lon": 0.0, "fusion_lat": 0.0, "type": "electric_scooter", "name": "59693ec22421f680a74d2b13ac647794", "is_disabled": 0, "rental_uris": {"ios": "https://dc.lft.to/lastmile_qr_scan", "android": "https://dc.lft.to/lastmile_qr_scan"}, "is_reserved": 0}, {"lon": -76.99791816666666, "bike_id": "316c02f33cc5bff8ca9947a670d29401", "lat": 38.95641666666667, "fusion_lon": 0.0, "fusion_lat": 0.0, "type": "electric_bike", "name": "316c02f33cc5bff8ca9947a670d29401", "is_disabled": 0, "rental_uris": {"ios": "https://dc.lft.to/lastmile_qr_scan", "android": "https://dc.lft.to/lastmile_qr_scan"}, "is_reserved": 0}, {"lon": -77.05729966666667, "bike_id": "3cd46e69e60397582f889db7627e74f1", "lat": 38.933578, "fusion_lon": 0.0, "fusion_lat": 0.0, "type": "electric_scooter", "name": "3cd46e69e60397582f889db7627e74f1", "is_disabled": 0, "rental_uris": {"ios": "https://dc.lft.to/lastmile_qr_scan", "android": "https://dc.lft.to/lastmile_qr_scan"}, "is_reserved": 0}, {"lon": -77.005971, "bike_id": "ac6182b81a249f4a059f5bf8c97db2d3", "lat": 38.90923566666667, "fusion_lon": 0.0, "fusion_lat": 0.0, "type": "electric_scooter", "name": "ac6182b81a249f4a059f5bf8c97db2d3", "is_disabled": 0, "rental_uris": {"ios": "https://dc.lft.to/lastmile_qr_scan", "android": "https://dc.lft.to/lastmile_qr_scan"}, "is_reserved": 0}, {"lon": -77.00485966666666, "bike_id": "607214047478a69ee170db84375b0d12", "lat": 38.87472866666667, "fusion_lon": 0.0, "fusion_lat": 0.0, "type": "electric_scooter", "name": "607214047478a69ee170db84375b0d12", "is_disabled": 0, "rental_uris": {"ios": "https://dc.lft.to/lastmile_qr_scan", "android": "https://dc.lft.to/lastmile_qr_scan"}, "is_reserved": 0}, {"lon": -77.00699033333333, "bike_id": "2cfdbcefd0bbeb36cf9c757404fb938e", "lat": 38.917402, "fusion_lon": 0.0, "fusion_lat": 0.0, "type": "electric_scooter", "name": "2cfdbcefd0bbeb36cf9c757404fb938e", "is_disabled": 0, "rental_uris": {"ios": "https://dc.lft.to/lastmile_qr_scan", "android": "https://dc.lft.to/lastmile_qr_scan"}, "is_reserved": 0}, {"lon": -77.04097983333334, "bike_id": "2722d0d3e8f2e460c285434571cf537e", "lat": 38.925273833333335, "fusion_lon": 0.0, "fusion_lat": 0.0, "type": "electric_scooter", "name": "2722d0d3e8f2e460c285434571cf537e", "is_disabled": 0, "rental_uris": {"ios": "https://dc.lft.to/lastmile_qr_scan", "android": "https://dc.lft.to/lastmile_qr_scan"}, "is_reserved": 0}, {"lon": -77.02967466666666, "bike_id": "9be3ceee8ca19ed894176a60f6a44bb2", "lat": 38.916793, "fusion_lon": 0.0, "fusion_lat": 0.0, "type": "electric_scooter", "name": "9be3ceee8ca19ed894176a60f6a44bb2", "is_disabled": 0, "rental_uris": {"ios": "https://dc.lft.to/lastmile_qr_scan", "android": "https://dc.lft.to/lastmile_qr_scan"}, "is_reserved": 0}, {"lon": -76.9952265, "bike_id": "89bf300dd980721769e80b241e2fc6cc", "lat": 38.8947145, "fusion_lon": 0.0, "fusion_lat": 0.0, "type": "electric_scooter", "name": "89bf300dd980721769e80b241e2fc6cc", "is_disabled": 0, "rental_uris": {"ios": "https://dc.lft.to/lastmile_qr_scan", "android": "https://dc.lft.to/lastmile_qr_scan"}, "is_reserved": 0}, {"lon": -76.955328, "bike_id": "18c73514d3cfab4b1a3d46576febb83d", "lat": 38.887723333333334, "fusion_lon": 0.0, "fusion_lat": 0.0, "type": "electric_scooter", "name": "18c73514d3cfab4b1a3d46576febb83d", "is_disabled": 0, "rental_uris": {"ios": "https://dc.lft.to/lastmile_qr_scan", "android": "https://dc.lft.to/lastmile_qr_scan"}, "is_reserved": 0}, {"lon": -77.04571233333333, "bike_id": "269f92511020eb3f09d13a5776c81ef0", "lat": 38.91473716666667, "fusion_lon": 0.0, "fusion_lat": 0.0, "type": "electric_scooter", "name": "269f92511020eb3f09d13a5776c81ef0", "is_disabled": 0, "rental_uris": {"ios": "https://dc.lft.to/lastmile_qr_scan", "android": "https://dc.lft.to/lastmile_qr_scan"}, "is_reserved": 0}, {"lon": -77.00784783333333, "bike_id": "e3571577c8eef09c44075d2b9f0c1c07", "lat": 38.905722833333336, "fusion_lon": 0.0, "fusion_lat": 0.0, "type": "electric_scooter", "name": "e3571577c8eef09c44075d2b9f0c1c07", "is_disabled": 0, "rental_uris": {"ios": "https://dc.lft.to/lastmile_qr_scan", "android": "https://dc.lft.to/lastmile_qr_scan"}, "is_reserved": 0}, {"lon": -76.97910233333333, "bike_id": "2b216aced3e609b67330e79e68fd7c40", "lat": 38.924599, "fusion_lon": 0.0, "fusion_lat": 0.0, "type": "electric_bike", "name": "2b216aced3e609b67330e79e68fd7c40", "is_disabled": 0, "rental_uris": {"ios": "https://dc.lft.to/lastmile_qr_scan", "android": "https://dc.lft.to/lastmile_qr_scan"}, "is_reserved": 0}, {"lon": -76.9849005, "bike_id": "da9680d329721b4b79a89a107ab2fd65", "lat": 38.89349516666667, "fusion_lon": 0.0, "fusion_lat": 0.0, "type": "electric_scooter", "name": "da9680d329721b4b79a89a107ab2fd65", "is_disabled": 0, "rental_uris": {"ios": "https://dc.lft.to/lastmile_qr_scan", "android": "https://dc.lft.to/lastmile_qr_scan"}, "is_reserved": 0}, {"lon": -76.97331283333334, "bike_id": "22e819b74c35dde2cdc661b1b8575c1d", "lat": 38.90479216666667, "fusion_lon": 0.0, "fusion_lat": 0.0, "type": "electric_bike", "name": "22e819b74c35dde2cdc661b1b8575c1d", "is_disabled": 0, "rental_uris": {"ios": "https://dc.lft.to/lastmile_qr_scan", "android": "https://dc.lft.to/lastmile_qr_scan"}, "is_reserved": 0}, {"lon": -77.044224, "bike_id": "476cac7ea5b558be5d55e0f523499b1f", "lat": 38.91778133333333, "fusion_lon": 0.0, "fusion_lat": 0.0, "type": "electric_scooter", "name": "476cac7ea5b558be5d55e0f523499b1f", "is_disabled": 0, "rental_uris": {"ios": "https://dc.lft.to/lastmile_qr_scan", "android": "https://dc.lft.to/lastmile_qr_scan"}, "is_reserved": 0}, {"lon": -77.03847783333333, "bike_id": "1f2041957f45e42780cd97d85b222b72", "lat": 38.910937, "fusion_lon": 0.0, "fusion_lat": 0.0, "type": "electric_scooter", "name": "1f2041957f45e42780cd97d85b222b72", "is_disabled": 0, "rental_uris": {"ios": "https://dc.lft.to/lastmile_qr_scan", "android": "https://dc.lft.to/lastmile_qr_scan"}, "is_reserved": 0}, {"lon": -77.02161833333334, "bike_id": "5612918d3351d123d2cb1043244986b9", "lat": 38.892159, "fusion_lon": 0.0, "fusion_lat": 0.0, "type": "electric_scooter", "name": "5612918d3351d123d2cb1043244986b9", "is_disabled": 0, "rental_uris": {"ios": "https://dc.lft.to/lastmile_qr_scan", "android": "https://dc.lft.to/lastmile_qr_scan"}, "is_reserved": 0}, {"lon": -77.03851133333333, "bike_id": "058f2f5cdf276ef39585e33b1681880d", "lat": 38.90784083333333, "fusion_lon": 0.0, "fusion_lat": 0.0, "type": "electric_scooter", "name": "058f2f5cdf276ef39585e33b1681880d", "is_disabled": 0, "rental_uris": {"ios": "https://dc.lft.to/lastmile_qr_scan", "android": "https://dc.lft.to/lastmile_qr_scan"}, "is_reserved": 0}, {"lon": -77.02731466666667, "bike_id": "c866e417c6d9d6eaf71d4324594bfc76", "lat": 38.940827, "fusion_lon": 0.0, "fusion_lat": 0.0, "type": "electric_scooter", "name": "c866e417c6d9d6eaf71d4324594bfc76", "is_disabled": 0, "rental_uris": {"ios": "https://dc.lft.to/lastmile_qr_scan", "android": "https://dc.lft.to/lastmile_qr_scan"}, "is_reserved": 0}, {"lon": -77.019806, "bike_id": "8b6bc0ee2174af546e9de630cfe3a4db", "lat": 38.9148785, "fusion_lon": 0.0, "fusion_lat": 0.0, "type": "electric_scooter", "name": "8b6bc0ee2174af546e9de630cfe3a4db", "is_disabled": 0, "rental_uris": {"ios": "https://dc.lft.to/lastmile_qr_scan", "android": "https://dc.lft.to/lastmile_qr_scan"}, "is_reserved": 0}, {"lon": -77.00927683333333, "bike_id": "db1aad14c3ae5c86deebd1bd15fe27a4", "lat": 38.89597366666667, "fusion_lon": 0.0, "fusion_lat": 0.0, "type": "electric_scooter", "name": "db1aad14c3ae5c86deebd1bd15fe27a4", "is_disabled": 0, "rental_uris": {"ios": "https://dc.lft.to/lastmile_qr_scan", "android": "https://dc.lft.to/lastmile_qr_scan"}, "is_reserved": 0}, {"lon": -77.02455033333334, "bike_id": "b462fbd7ad7bcc0722f7c5e4516cab68", "lat": 38.931005, "fusion_lon": 0.0, "fusion_lat": 0.0, "type": "electric_scooter", "name": "b462fbd7ad7bcc0722f7c5e4516cab68", "is_disabled": 0, "rental_uris": {"ios": "https://dc.lft.to/lastmile_qr_scan", "android": "https://dc.lft.to/lastmile_qr_scan"}, "is_reserved": 0}, {"lon": -77.07474733333333, "bike_id": "f7a8752088498570969a12b8b6ad4767", "lat": 38.96314, "fusion_lon": 0.0, "fusion_lat": 0.0, "type": "electric_scooter", "name": "f7a8752088498570969a12b8b6ad4767", "is_disabled": 0, "rental_uris": {"ios": "https://dc.lft.to/lastmile_qr_scan", "android": "https://dc.lft.to/lastmile_qr_scan"}, "is_reserved": 0}, {"lon": -77.03543833333333, "bike_id": "3e27f5d312ff7a6e2aad32b9ff48ceff", "lat": 38.918319333333336, "fusion_lon": 0.0, "fusion_lat": 0.0, "type": "electric_scooter", "name": "3e27f5d312ff7a6e2aad32b9ff48ceff", "is_disabled": 0, "rental_uris": {"ios": "https://dc.lft.to/lastmile_qr_scan", "android": "https://dc.lft.to/lastmile_qr_scan"}, "is_reserved": 0}, {"lon": -77.02840683333334, "bike_id": "3c155003083c62d5b606e04a7ef1adac", "lat": 38.8876805, "fusion_lon": 0.0, "fusion_lat": 0.0, "type": "electric_scooter", "name": "3c155003083c62d5b606e04a7ef1adac", "is_disabled": 0, "rental_uris": {"ios": "https://dc.lft.to/lastmile_qr_scan", "android": "https://dc.lft.to/lastmile_qr_scan"}, "is_reserved": 0}, {"lon": -77.030539, "bike_id": "e2c08534f0afb5b40061fecc163337a7", "lat": 38.884283833333335, "fusion_lon": 0.0, "fusion_lat": 0.0, "type": "electric_scooter", "name": "e2c08534f0afb5b40061fecc163337a7", "is_disabled": 0, "rental_uris": {"ios": "https://dc.lft.to/lastmile_qr_scan", "android": "https://dc.lft.to/lastmile_qr_scan"}, "is_reserved": 0}, {"lon": -76.97811583333333, "bike_id": "4ce70d1f6164affc5946da30beb74067", "lat": 38.90671316666667, "fusion_lon": 0.0, "fusion_lat": 0.0, "type": "electric_scooter", "name": "4ce70d1f6164affc5946da30beb74067", "is_disabled": 0, "rental_uris": {"ios": "https://dc.lft.to/lastmile_qr_scan", "android": "https://dc.lft.to/lastmile_qr_scan"}, "is_reserved": 0}, {"lon": -77.002209, "bike_id": "c1bcf29ae3f3b46bfc523b635f716bb0", "lat": 38.91447216666667, "fusion_lon": 0.0, "fusion_lat": 0.0, "type": "electric_scooter", "name": "c1bcf29ae3f3b46bfc523b635f716bb0", "is_disabled": 0, "rental_uris": {"ios": "https://dc.lft.to/lastmile_qr_scan", "android": "https://dc.lft.to/lastmile_qr_scan"}, "is_reserved": 0}, {"lon": -77.04006633333333, "bike_id": "5628041f448bd99aad4ae458c62a39f7", "lat": 38.90996333333333, "fusion_lon": 0.0, "fusion_lat": 0.0, "type": "electric_scooter", "name": "5628041f448bd99aad4ae458c62a39f7", "is_disabled": 0, "rental_uris": {"ios": "https://dc.lft.to/lastmile_qr_scan", "android": "https://dc.lft.to/lastmile_qr_scan"}, "is_reserved": 0}, {"lon": -77.00118166666667, "bike_id": "814ef1ea15dd93f760c27cd45b8f5d37", "lat": 38.91701966666667, "fusion_lon": 0.0, "fusion_lat": 0.0, "type": "electric_scooter", "name": "814ef1ea15dd93f760c27cd45b8f5d37", "is_disabled": 0, "rental_uris": {"ios": "https://dc.lft.to/lastmile_qr_scan", "android": "https://dc.lft.to/lastmile_qr_scan"}, "is_reserved": 0}, {"lon": -76.8953625, "bike_id": "3cb86c5b96f4f32a9734823276c60355", "lat": 38.9454905, "fusion_lon": 0.0, "fusion_lat": 0.0, "type": "electric_bike", "name": "3cb86c5b96f4f32a9734823276c60355", "is_disabled": 0, "rental_uris": {"ios": "https://dc.lft.to/lastmile_qr_scan", "android": "https://dc.lft.to/lastmile_qr_scan"}, "is_reserved": 0}, {"lon": -77.05592916666667, "bike_id": "df29f14802ac7e5ab57e323096cd5aaf", "lat": 38.916118, "fusion_lon": 0.0, "fusion_lat": 0.0, "type": "electric_scooter", "name": "df29f14802ac7e5ab57e323096cd5aaf", "is_disabled": 0, "rental_uris": {"ios": "https://dc.lft.to/lastmile_qr_scan", "android": "https://dc.lft.to/lastmile_qr_scan"}, "is_reserved": 0}, {"lon": -77.05337766666666, "bike_id": "99f1a432f48b8b4241879195ff373e70", "lat": 38.90711, "fusion_lon": 0.0, "fusion_lat": 0.0, "type": "electric_scooter", "name": "99f1a432f48b8b4241879195ff373e70", "is_disabled": 0, "rental_uris": {"ios": "https://dc.lft.to/lastmile_qr_scan", "android": "https://dc.lft.to/lastmile_qr_scan"}, "is_reserved": 0}, {"lon": -77.09470233333333, "bike_id": "1d3755f8fc734c75aba2b9e5014d33d9", "lat": 38.807588, "fusion_lon": 0.0, "fusion_lat": 0.0, "type": "electric_bike", "name": "1d3755f8fc734c75aba2b9e5014d33d9", "is_disabled": 0, "rental_uris": {"ios": "https://dc.lft.to/lastmile_qr_scan", "android": "https://dc.lft.to/lastmile_qr_scan"}, "is_reserved": 0}, {"lon": -77.03849883333334, "bike_id": "924e78c47edc38877198ef146e11cd52", "lat": 38.90680716666667, "fusion_lon": 0.0, "fusion_lat": 0.0, "type": "electric_scooter", "name": "924e78c47edc38877198ef146e11cd52", "is_disabled": 0, "rental_uris": {"ios": "https://dc.lft.to/lastmile_qr_scan", "android": "https://dc.lft.to/lastmile_qr_scan"}, "is_reserved": 0}, {"lon": -76.9867185, "bike_id": "ff5e4c3e89219592c1ad59043498940a", "lat": 38.90247216666667, "fusion_lon": 0.0, "fusion_lat": 0.0, "type": "electric_scooter", "name": "ff5e4c3e89219592c1ad59043498940a", "is_disabled": 0, "rental_uris": {"ios": "https://dc.lft.to/lastmile_qr_scan", "android": "https://dc.lft.to/lastmile_qr_scan"}, "is_reserved": 0}, {"lon": -77.04715533333334, "bike_id": "f07bd3f0406c17c7e96671bedfa9cacd", "lat": 38.92234233333333, "fusion_lon": 0.0, "fusion_lat": 0.0, "type": "electric_scooter", "name": "f07bd3f0406c17c7e96671bedfa9cacd", "is_disabled": 0, "rental_uris": {"ios": "https://dc.lft.to/lastmile_qr_scan", "android": "https://dc.lft.to/lastmile_qr_scan"}, "is_reserved": 0}, {"lon": -77.02736683333333, "bike_id": "147de70d7879697aeaa2733178c5181c", "lat": 38.928354666666664, "fusion_lon": 0.0, "fusion_lat": 0.0, "type": "electric_scooter", "name": "147de70d7879697aeaa2733178c5181c", "is_disabled": 0, "rental_uris": {"ios": "https://dc.lft.to/lastmile_qr_scan", "android": "https://dc.lft.to/lastmile_qr_scan"}, "is_reserved": 0}, {"lon": -77.04275666666666, "bike_id": "90edad79cabb7bc96fcc603b588c8eeb", "lat": 38.91782166666667, "fusion_lon": 0.0, "fusion_lat": 0.0, "type": "electric_scooter", "name": "90edad79cabb7bc96fcc603b588c8eeb", "is_disabled": 0, "rental_uris": {"ios": "https://dc.lft.to/lastmile_qr_scan", "android": "https://dc.lft.to/lastmile_qr_scan"}, "is_reserved": 0}, {"lon": -77.00066866666667, "bike_id": "7b82da9ccb275c339e09da6f041a2576", "lat": 38.92437683333333, "fusion_lon": 0.0, "fusion_lat": 0.0, "type": "electric_scooter", "name": "7b82da9ccb275c339e09da6f041a2576", "is_disabled": 0, "rental_uris": {"ios": "https://dc.lft.to/lastmile_qr_scan", "android": "https://dc.lft.to/lastmile_qr_scan"}, "is_reserved": 0}, {"lon": -77.05202083333333, "bike_id": "0b386e1a5783f13d98b5709561262bcb", "lat": 38.900115666666665, "fusion_lon": 0.0, "fusion_lat": 0.0, "type": "electric_scooter", "name": "0b386e1a5783f13d98b5709561262bcb", "is_disabled": 0, "rental_uris": {"ios": "https://dc.lft.to/lastmile_qr_scan", "android": "https://dc.lft.to/lastmile_qr_scan"}, "is_reserved": 0}, {"lon": -77.02404183333333, "bike_id": "c3dd7324ed1f6b623fd26d1625786e0f", "lat": 38.91755416666667, "fusion_lon": 0.0, "fusion_lat": 0.0, "type": "electric_scooter", "name": "c3dd7324ed1f6b623fd26d1625786e0f", "is_disabled": 0, "rental_uris": {"ios": "https://dc.lft.to/lastmile_qr_scan", "android": "https://dc.lft.to/lastmile_qr_scan"}, "is_reserved": 0}, {"lon": -76.97615166666667, "bike_id": "768d29eed87f33bd95e7f289c806d5bc", "lat": 38.9038425, "fusion_lon": 0.0, "fusion_lat": 0.0, "type": "electric_scooter", "name": "768d29eed87f33bd95e7f289c806d5bc", "is_disabled": 0, "rental_uris": {"ios": "https://dc.lft.to/lastmile_qr_scan", "android": "https://dc.lft.to/lastmile_qr_scan"}, "is_reserved": 0}, {"lon": -76.93612183333333, "bike_id": "2b3a2d031719d4247ed3b790eebbce7e", "lat": 38.89679983333333, "fusion_lon": 0.0, "fusion_lat": 0.0, "type": "electric_scooter", "name": "2b3a2d031719d4247ed3b790eebbce7e", "is_disabled": 0, "rental_uris": {"ios": "https://dc.lft.to/lastmile_qr_scan", "android": "https://dc.lft.to/lastmile_qr_scan"}, "is_reserved": 0}, {"lon": -77.02903983333333, "bike_id": "fe9dea166181f5443e6c57fcea2f44b6", "lat": 38.90383383333333, "fusion_lon": 0.0, "fusion_lat": 0.0, "type": "electric_scooter", "name": "fe9dea166181f5443e6c57fcea2f44b6", "is_disabled": 0, "rental_uris": {"ios": "https://dc.lft.to/lastmile_qr_scan", "android": "https://dc.lft.to/lastmile_qr_scan"}, "is_reserved": 0}, {"lon": -76.99925266666666, "bike_id": "9382febecae2add36970c2814132fc7b", "lat": 38.909076666666664, "fusion_lon": 0.0, "fusion_lat": 0.0, "type": "electric_scooter", "name": "9382febecae2add36970c2814132fc7b", "is_disabled": 0, "rental_uris": {"ios": "https://dc.lft.to/lastmile_qr_scan", "android": "https://dc.lft.to/lastmile_qr_scan"}, "is_reserved": 0}, {"lon": -77.01185233333334, "bike_id": "303ebf72c1f6b2a125b6767fb600ebd1", "lat": 38.90030383333333, "fusion_lon": 0.0, "fusion_lat": 0.0, "type": "electric_scooter", "name": "303ebf72c1f6b2a125b6767fb600ebd1", "is_disabled": 0, "rental_uris": {"ios": "https://dc.lft.to/lastmile_qr_scan", "android": "https://dc.lft.to/lastmile_qr_scan"}, "is_reserved": 0}, {"lon": -77.02416316666667, "bike_id": "1f29d46c9e7596beda46f3ae03df0d84", "lat": 38.917765333333335, "fusion_lon": 0.0, "fusion_lat": 0.0, "type": "electric_scooter", "name": "1f29d46c9e7596beda46f3ae03df0d84", "is_disabled": 0, "rental_uris": {"ios": "https://dc.lft.to/lastmile_qr_scan", "android": "https://dc.lft.to/lastmile_qr_scan"}, "is_reserved": 0}, {"lon": -77.03644666666666, "bike_id": "74414a5b9b850a325ee4037c734b023d", "lat": 38.902825666666665, "fusion_lon": 0.0, "fusion_lat": 0.0, "type": "electric_scooter", "name": "74414a5b9b850a325ee4037c734b023d", "is_disabled": 0, "rental_uris": {"ios": "https://dc.lft.to/lastmile_qr_scan", "android": "https://dc.lft.to/lastmile_qr_scan"}, "is_reserved": 0}, {"lon": -77.022836, "bike_id": "f2e788f89ec3806e913f54154d5da04b", "lat": 38.916445833333334, "fusion_lon": 0.0, "fusion_lat": 0.0, "type": "electric_scooter", "name": "f2e788f89ec3806e913f54154d5da04b", "is_disabled": 0, "rental_uris": {"ios": "https://dc.lft.to/lastmile_qr_scan", "android": "https://dc.lft.to/lastmile_qr_scan"}, "is_reserved": 0}, {"lon": -76.98843633333334, "bike_id": "b91fad03767c162c826642033768fd5d", "lat": 38.8428045, "fusion_lon": 0.0, "fusion_lat": 0.0, "type": "electric_bike", "name": "b91fad03767c162c826642033768fd5d", "is_disabled": 0, "rental_uris": {"ios": "https://dc.lft.to/lastmile_qr_scan", "android": "https://dc.lft.to/lastmile_qr_scan"}, "is_reserved": 0},