{"data": {"bikes": [{"fusion_lat": 0.0, "is_disabled": 0, "lat": 38.895269166666665, "lon": -77.03213933333333, "fusion_lon": 0.0, "bike_id": "c9a222072e8c9fcebb0a55f382da05ef", "type": "electric_scooter", "name": "c9a222072e8c9fcebb0a55f382da05ef", "is_reserved": 0, "rental_uris": {"ios": "https://dc.lft.to/lastmile_qr_scan", "android": "https://dc.lft.to/lastmile_qr_scan"}}, {"fusion_lat": 0.0, "is_disabled": 0, "lat": 38.89220916666667, "lon": -77.02742933333333, "fusion_lon": 0.0, "bike_id": "1656201faaf8b347082e196b6719b3a8", "type": "electric_scooter", "name": "1656201faaf8b347082e196b6719b3a8", "is_reserved": 0, "rental_uris": {"ios": "https://dc.lft.to/lastmile_qr_scan", "android": "https://dc.lft.to/lastmile_qr_scan"}}, {"fusion_lat": 0.0, "is_disabled": 0, "lat": 38.89008833333333, "lon": -76.93743066666667, "fusion_lon": 0.0, "bike_id": "e6f487a3e510322f85f2ff384da5183e", "type": "electric_scooter", "name": "e6f487a3e510322f85f2ff384da5183e", "is_reserved": 0, "rental_uris": {"ios": "https://dc.lft.to/lastmile_qr_scan", "android": "https://dc.lft.to/lastmile_qr_scan"}}, {"fusion_lat": 0.0, "is_disabled": 0, "lat": 38.92369583333333, "lon": -77.01955816666667, "fusion_lon": 0.0, "bike_id": "6d2917952082c7c5e8f80a6994d72a72", "type": "electric_scooter", "name": "6d2917952082c7c5e8f80a6994d72a72", "is_reserved": 0, "rental_uris": {"ios": "https://dc.lft.to/lastmile_qr_scan", "android": "https://dc.lft.to/lastmile_qr_scan"}}, {"fusion_lat": 0.0, "is_disabled": 0, "lat": 38.941999833333334, "lon": -77.01836316666666, "fusion_lon": 0.0, "bike_id": "f10738e7404bebba2cb81c431ee148b5", "type": "electric_scooter", "name": "f10738e7404bebba2cb81c431ee148b5", "is_reserved": 0, "rental_uris": {"ios": "https://dc.lft.to/lastmile_qr_scan", "android": "https://dc.lft.to/lastmile_qr_scan"}}, {"fusion_lat": 0.0, "is_disabled": 0, "lat": 38.87716133333333, "lon": -77.01753416666666, "fusion_lon": 0.0, "bike_id": "04fe20e6d30aa6e6488b4f5eb32308ab", "type": "electric_scooter", "name": "04fe20e6d30aa6e6488b4f5eb32308ab", "is_reserved": 0, "rental_uris": {"ios": "https://dc.lft.to/lastmile_qr_scan", "android": "https://dc.lft.to/lastmile_qr_scan"}}, {"fusion_lat": 0.0, "is_disabled": 0, "lat": 38.906437, "lon": -77.00900466666667, "fusion_lon": 0.0, "bike_id": "c55f21cdf74d3a67f0e9eb4b14c268dd", "type": "electric_scooter", "name": "c55f21cdf74d3a67f0e9eb4b14c268dd", "is_reserved": 0, "rental_uris": {"ios": "https://dc.lft.to/lastmile_qr_scan", "android": "https://dc.lft.to/lastmile_qr_scan"}}, {"fusion_lat": 0.0, "is_disabled": 0, "lat": 38.89823583333333, "lon": -77.033435, "fusion_lon": 0.0, "bike_id": "6ccb63ae642630d71d543495d84f0712", "type": "electric_scooter", "name": "6ccb63ae642630d71d543495d84f0712", "is_reserved": 0, "rental_uris": {"ios": "https://dc.lft.to/lastmile_qr_scan", "android": "https://dc.lft.to/lastmile_qr_scan"}}, {"fusion_lat": 0.0, "is_disabled": 0, "lat": 38.90527066666667, "lon": -77.06038683333334, "fusion_lon": 0.0, "bike_id": "2e1ba645ad0a21b0f1d70618d1ece4c1", "type": "electric_scooter", "name": "2e1ba645ad0a21b0f1d70618d1ece4c1", "is_reserved": 0, "rental_uris": {"ios": "https://dc.lft.to/lastmile_qr_scan", "android": "https://dc.lft.to/lastmile_qr_scan"}}, {"fusion_lat": 0.0, "is_disabled": 0, "lat": 38.899069, "lon": -76.933863, "fusion_lon": 0.0, "bike_id": "a55a6e3efe4ce07db1c446ebf6d2bccc", "type": "electric_scooter", "name": "a55a6e3efe4ce07db1c446ebf6d2bccc", "is_reserved": 0, "rental_uris": {"ios": "https://dc.lft.to/lastmile_qr_scan", "android": "https://dc.lft.to/lastmile_qr_scan"}}, {"fusion_lat": 0.0, "is_disabled": 0, "lat": 38.994865, "lon": -77.02898033333334, "fusion_lon": 0.0, "bike_id": "a0c92c52fb918f1bc65b06246264acf7", "type": "electric_bike", "name": "a0c92c52fb918f1bc65b06246264acf7", "is_reserved": 0, "rental_uris": {"ios": "https://dc.lft.to/lastmile_qr_scan", "android": "https://dc.lft.to/lastmile_qr_scan"}}, {"fusion_lat": 0.0, "is_disabled": 0, "lat": 38.921553333333335, "lon": -77.03460033333333, "fusion_lon": 0.0, "bike_id": "f37ebd03708ad05b1a4eaad7ae911dcc", "type": "electric_scooter", "name": "f37ebd03708ad05b1a4eaad7ae911dcc", "is_reserved": 0, "rental_uris": {"ios": "https://dc.lft.to/lastmile_qr_scan", "android": "https://dc.lft.to/lastmile_qr_scan"}}, {"fusion_lat": 0.0, "is_disabled": 0, "lat": 38.920570166666664, "lon": -77.04402266666666, "fusion_lon": 0.0, "bike_id": "69f9167a0303d441f17bd3b1cdb604e2", "type": "electric_scooter", "name": "69f9167a0303d441f17bd3b1cdb604e2", "is_reserved": 0, "rental_uris": {"ios": "https://dc.lft.to/lastmile_qr_scan", "android": "https://dc.lft.to/lastmile_qr_scan"}}, {"fusion_lat": 0.0, "is_disabled": 0, "lat": 38.905938666666664, "lon": -77.05018283333334, "fusion_lon": 0.0, "bike_id": "d87e8e9b6b06d80816eda68143329a9d", "type": "electric_scooter", "name": "d87e8e9b6b06d80816eda68143329a9d", "is_reserved": 0, "rental_uris": {"ios": "https://dc.lft.to/lastmile_qr_scan", "android": "https://dc.lft.to/lastmile_qr_scan"}}, {"fusion_lat": 0.0, "is_disabled": 0, "lat": 38.88481, "lon": -77.0264865, "fusion_lon": 0.0, "bike_id": "8a0f48daa11915c8010212e246682157", "type": "electric_scooter", "name": "8a0f48daa11915c8010212e246682157", "is_reserved": 0, "rental_uris": {"ios": "https://dc.lft.to/lastmile_qr_scan", "android": "https://dc.lft.to/lastmile_qr_scan"}}, {"fusion_lat": 0.0, "is_disabled": 0, "lat": 38.92411166666667, "lon": -77.02008466666666, "fusion_lon": 0.0, "bike_id": "92d1b3f06e2f40a93263456e9b9d5371", "type": "electric_scooter", "name": "92d1b3f06e2f40a93263456e9b9d5371", "is_reserved": 0, "rental_uris": {"ios": "https://dc.lft.to/lastmile_qr_scan", "android": "https://dc.lft.to/lastmile_qr_scan"}}, {"fusion_lat": 0.0, "is_disabled": 0, "lat": 38.919715333333336, "lon": -77.07123683333333, "fusion_lon": 0.0, "bike_id": "df2e210553d0db8abeaff939ba5f6052", "type": "electric_scooter", "name": "df2e210553d0db8abeaff939ba5f6052", "is_reserved": 0, "rental_uris": {"ios": "https://dc.lft.to/lastmile_qr_scan", "android": "https://dc.lft.to/lastmile_qr_scan"}}, {"fusion_lat": 0.0, "is_disabled": 0, "lat": 38.915606, "lon": -77.00622716666666, "fusion_lon": 0.0, "bike_id": "ab4b8b169c25d8f7a6c4bae4fc07c09c", "type": "electric_bike", "name": "ab4b8b169c25d8f7a6c4bae4fc07c09c", "is_reserved": 0, "rental_uris": {"ios": "https://dc.lft.to/lastmile_qr_scan", "android": "https://dc.lft.to/lastmile_qr_scan"}}, {"fusion_lat": 0.0, "is_disabled": 0, "lat": 38.9227955, "lon": -77.03663516666667, "fusion_lon": 0.0, "bike_id": "f5a4c75badf7ae1c95d4c0da5a455e4c", "type": "electric_scooter", "name": "f5a4c75badf7ae1c95d4c0da5a455e4c", "is_reserved": 0, "rental_uris": {"ios": "https://dc.lft.to/lastmile_qr_scan", "android": "https://dc.lft.to/lastmile_qr_scan"}}, {"fusion_lat": 0.0, "is_disabled": 0, "lat": 38.8972015, "lon": -77.03210716666666, "fusion_lon": 0.0, "bike_id": "cf0520ddd6e26c6a32937ee404c45066", "type": "electric_scooter", "name": "cf0520ddd6e26c6a32937ee404c45066", "is_reserved": 0, "rental_uris": {"ios": "https://dc.lft.to/lastmile_qr_scan", "android": "https://dc.lft.to/lastmile_qr_scan"}}, {"fusion_lat": 0.0, "is_disabled": 0, "lat": 38.9026805, "lon": -77.0173585, "fusion_lon": 0.0, "bike_id": "41c97ca81a179c44c92ba851e42542fa", "type": "electric_scooter", "name": "41c97ca81a179c44c92ba851e42542fa", "is_reserved": 0, "rental_uris": {"ios": "https://dc.lft.to/lastmile_qr_scan", "android": "https://dc.lft.to/lastmile_qr_scan"}}, {"fusion_lat": 0.0, "is_disabled": 0, "lat": 38.908489333333335, "lon": -76.99811, "fusion_lon": 0.0, "bike_id": "5d6ee696ea8f0cc5f5a65006d2a6df12", "type": "electric_scooter", "name": "5d6ee696ea8f0cc5f5a65006d2a6df12", "is_reserved": 0, "rental_uris": {"ios": "https://dc.lft.to/lastmile_qr_scan", "android": "https://dc.lft.to/lastmile_qr_scan"}}, {"fusion_lat": 0.0, "is_disabled": 0, "lat": 38.923444333333336, "lon": -77.019058, "fusion_lon": 0.0, "bike_id": "c6ddc8c6a61cc82fe6c9514754fd84ff", "type": "electric_scooter", "name": "c6ddc8c6a61cc82fe6c9514754fd84ff", "is_reserved": 0, "rental_uris": {"ios": "https://dc.lft.to/lastmile_qr_scan", "android": "https://dc.lft.to/lastmile_qr_scan"}}, {"fusion_lat": 0.0, "is_disabled": 0, "lat": 38.904910666666666, "lon": -76.94975466666666, "fusion_lon": 0.0, "bike_id": "74012c5a122f7f268e1b605b0e93f818", "type": "electric_scooter", "name": "74012c5a122f7f268e1b605b0e93f818", "is_reserved": 0, "rental_uris": {"ios": "https://dc.lft.to/lastmile_qr_scan", "android": "https://dc.lft.to/lastmile_qr_scan"}}, {"fusion_lat": 0.0, "is_disabled": 0, "lat": 38.8960295, "lon": -76.97254266666667, "fusion_lon": 0.0, "bike_id": "15300d0fa05924e25d9f31ca884bec3c", "type": "electric_scooter", "name": "15300d0fa05924e25d9f31ca884bec3c", "is_reserved": 0, "rental_uris": {"ios": "https://dc.lft.to/lastmile_qr_scan", "android": "https://dc.lft.to/lastmile_qr_scan"}}, {"fusion_lat": 0.0, "is_disabled": 0, "lat": 38.910932833333334, "lon": -77.073597, "fusion_lon": 0.0, "bike_id": "01d6434ae513a39031a9ec74a60c21af", "type": "electric_scooter", "name": "01d6434ae513a39031a9ec74a60c21af", "is_reserved": 0, "rental_uris": {"ios": "https://dc.lft.to/lastmile_qr_scan", "android": "https://dc.lft.to/lastmile_qr_scan"}}, {"fusion_lat": 0.0, "is_disabled": 0, "lat": 38.893565, "lon": -77.00338416666666, "fusion_lon": 0.0, "bike_id": "5aae6552d5408a6cae83effb15f12477", "type": "electric_scooter", "name": "5aae6552d5408a6cae83effb15f12477", "is_reserved": 0, "rental_uris": {"ios": "https://dc.lft.to/lastmile_qr_scan", "android": "https://dc.lft.to/lastmile_qr_scan"}}, {"fusion_lat": 0.0, "is_disabled": 0, "lat": 38.91415966666667, "lon": -77.03179683333333, "fusion_lon": 0.0, "bike_id": "779c443cfc7501d9b5ac00cbe07b7458", "type": "electric_scooter", "name": "779c443cfc7501d9b5ac00cbe07b7458", "is_reserved": 0, "rental_uris": {"ios": "https://dc.lft.to/lastmile_qr_scan", "android": "https://dc.lft.to/lastmile_qr_scan"}}, {"fusion_lat": 0.0, "is_disabled": 0, "lat": 38.905841833333334, "lon": -77.04098, "fusion_lon": 0.0, "bike_id": "e481ed724ff700afb8c982e65e351c2b", "type": "electric_scooter", "name": "e481ed724ff700afb8c982e65e351c2b", "is_reserved": 0, "rental_uris": {"ios": "https://dc.lft.to/lastmile_qr_scan", "android": "https://dc.lft.to/lastmile_qr_scan"}}, {"fusion_lat": 0.0, "is_disabled": 0, "lat": 38.903266333333335, "lon": -76.9759795, "fusion_lon": 0.0, "bike_id": "7d34f30a455a4160b6036c6dd847997d", "type": "electric_scooter", "name": "7d34f30a455a4160b6036c6dd847997d", "is_reserved": 0, "rental_uris": {"ios": "https://dc.lft.to/lastmile_qr_scan", "android": "https://dc.lft.to/lastmile_qr_scan"}}, {"fusion_lat": 0.0, "is_disabled": 0, "lat": 38.83581733333333, "lon": -76.99027416666667, "fusion_lon": 0.0, "bike_id": "6ded9262100f3a5e332c4683e4090b78", "type": "electric_bike", "name": "6ded9262100f3a5e332c4683e4090b78", "is_reserved": 0, "rental_uris": {"ios": "https://dc.lft.to/lastmile_qr_scan", "android": "https://dc.lft.to/lastmile_qr_scan"}}, {"fusion_lat": 0.0, "is_disabled": 0, "lat": 38.923029, "lon": -77.04212, "fusion_lon": 0.0, "bike_id": "4aa1f71dae8c795159c3869ff14fe73c", "type": "electric_scooter", "name": "4aa1f71dae8c795159c3869ff14fe73c", "is_reserved": 0, "rental_uris": {"ios": "https://dc.lft.to/lastmile_qr_scan", "android": "https://dc.lft.to/lastmile_qr_scan"}}, {"fusion_lat": 0.0, "is_disabled": 0, "lat": 38.963955, "lon": -77.02594483333333, "fusion_lon": 0.0, "bike_id": "92a426ba3d36e29a44574c4c8bda3118", "type": "electric_scooter", "name": "92a426ba3d36e29a44574c4c8bda3118", "is_reserved": 0, "rental_uris": {"ios": "https://dc.lft.to/lastmile_qr_scan", "android": "https://dc.lft.to/lastmile_qr_scan"}}, {"fusion_lat": 0.0, "is_disabled": 0, "lat": 38.919826666666665, "lon": -77.025296, "fusion_lon": 0.0, "bike_id": "365166f48d0ead59e04fe44d3f03f83b", "type": "electric_scooter", "name": "365166f48d0ead59e04fe44d3f03f83b", "is_reserved": 0, "rental_uris": {"ios": "https://dc.lft.to/lastmile_qr_scan", "android": "https://dc.lft.to/lastmile_qr_scan"}}, {"fusion_lat": 0.0, "is_disabled": 0, "lat": 38.91892033333333, "lon": -77.10179616666667, "fusion_lon": 0.0, "bike_id": "fd3a6bf25e5cab6884409f974dd12603", "type": "electric_bike", "name": "fd3a6bf25e5cab6884409f974dd12603", "is_reserved": 0, "rental_uris": {"ios": "https://dc.lft.to/lastmile_qr_scan", "android": "https://dc.lft.to/lastmile_qr_scan"}}, {"fusion_lat": 0.0, "is_disabled": 0, "lat": 38.905144, "lon": -77.0701325, "fusion_lon": 0.0, "bike_id": "298f5181b73a20e969ffe38d04a51a40", "type": "electric_scooter", "name": "298f5181b73a20e969ffe38d04a51a40", "is_reserved": 0, "rental_uris": {"ios": "https://dc.lft.to/lastmile_qr_scan", "android": "https://dc.lft.to/lastmile_qr_scan"}}, {"fusion_lat": 0.0, "is_disabled": 0, "lat": 38.9335745, "lon": -77.02381366666667, "fusion_lon": 0.0, "bike_id": "9b86763fc75bc1b07769989bd98d1c8f", "type": "electric_scooter", "name": "9b86763fc75bc1b07769989bd98d1c8f", "is_reserved": 0, "rental_uris": {"ios": "https://dc.lft.to/lastmile_qr_scan", "android": "https://dc.lft.to/lastmile_qr_scan"}}, {"fusion_lat": 0.0, "is_disabled": 0, "lat": 38.924639, "lon": -77.0226055, "fusion_lon": 0.0, "bike_id": "9a7072205a7bfe6e47e3e38b91ad674f", "type": "electric_scooter", "name": "9a7072205a7bfe6e47e3e38b91ad674f", "is_reserved": 0, "rental_uris": {"ios": "https://dc.lft.to/lastmile_qr_scan", "android": "https://dc.lft.to/lastmile_qr_scan"}}, {"fusion_lat": 0.0, "is_disabled": 0, "lat": 38.900112166666666, "lon": -76.99583933333334, "fusion_lon": 0.0, "bike_id": "8cb69692b55914e9cb203e617c11ad77", "type": "electric_scooter", "name": "8cb69692b55914e9cb203e617c11ad77", "is_reserved": 0, "rental_uris": {"ios": "https://dc.lft.to/lastmile_qr_scan", "android": "https://dc.lft.to/lastmile_qr_scan"}}, {"fusion_lat": 0.0, "is_disabled": 0, "lat": 38.916350666666666, "lon": -77.026997, "fusion_lon": 0.0, "bike_id": "c33ee6d15c81d4082184591e6ceea1b1", "type": "electric_scooter", "name": "c33ee6d15c81d4082184591e6ceea1b1", "is_reserved": 0, "rental_uris": {"ios": "https://dc.lft.to/lastmile_qr_scan", "android": "https://dc.lft.to/lastmile_qr_scan"}}, {"fusion_lat": 0.0, "is_disabled": 0, "lat": 38.911990333333335, "lon": -77.03209433333333, "fusion_lon": 0.0, "bike_id": "77eb0f8223a00bc6c93c8dac3950e7cd", "type": "electric_scooter", "name": "77eb0f8223a00bc6c93c8dac3950e7cd", "is_reserved": 0, "rental_uris": {"ios": "https://dc.lft.to/lastmile_qr_scan", "android": "https://dc.lft.to/lastmile_qr_scan"}}, {"fusion_lat": 0.0, "is_disabled": 0, "lat": 38.90058783333333, "lon": -77.043462, "fusion_lon": 0.0, "bike_id": "98fb42e52a4dc4a25ddd8c6705ed04ce", "type": "electric_scooter", "name": "98fb42e52a4dc4a25ddd8c6705ed04ce", "is_reserved": 0, "rental_uris": {"ios": "https://dc.lft.to/lastmile_qr_scan", "android": "https://dc.lft.to/lastmile_qr_scan"}}, {"fusion_lat": 0.0, "is_disabled": 0, "lat": 38.90597366666667, "lon": -77.04497516666666, "fusion_lon": 0.0, "bike_id": "7c672fb88f5f0bb052b9fd7b1770c9f9", "type": "electric_scooter", "name": "7c672fb88f5f0bb052b9fd7b1770c9f9", "is_reserved": 0, "rental_uris": {"ios": "https://dc.lft.to/lastmile_qr_scan", "android": "https://dc.lft.to/lastmile_qr_scan"}}, {"fusion_lat": 0.0, "is_disabled": 0, "lat": 38.8987395, "lon": -77.02820533333333, "fusion_lon": 0.0, "bike_id": "50d3667f621551fa7cb52eaeaba7a11f", "type": "electric_scooter", "name": "50d3667f621551fa7cb52eaeaba7a11f", "is_reserved": 0, "rental_uris": {"ios": "https://dc.lft.to/lastmile_qr_scan", "android": "https://dc.lft.to/lastmile_qr_scan"}}, {"fusion_lat": 0.0, "is_disabled": 0, "lat": 38.90742916666667, "lon": -77.04469933333333, "fusion_lon": 0.0, "bike_id": "00ca302ba4ab467c8b44323029f4e24b", "type": "electric_scooter", "name": "00ca302ba4ab467c8b44323029f4e24b", "is_reserved": 0, "rental_uris": {"ios": "https://dc.lft.to/lastmile_qr_scan", "android": "https://dc.lft.to/lastmile_qr_scan"}}, {"fusion_lat": 0.0, "is_disabled": 0, "lat": 38.903901833333336, "lon": -77.04440783333334, "fusion_lon": 0.0, "bike_id": "e6bec32bfde120a2c3b28164a8fe9dcc", "type": "electric_scooter", "name": "e6bec32bfde120a2c3b28164a8fe9dcc", "is_reserved": 0, "rental_uris": {"ios": "https://dc.lft.to/lastmile_qr_scan", "android": "https://dc.lft.to/lastmile_qr_scan"}}, {"fusion_lat": 0.0, "is_disabled": 0, "lat": 38.92453783333333, "lon": -77.033847, "fusion_lon": 0.0, "bike_id": "e21424406d3912d77ac57c5df6b7d334", "type": "electric_scooter", "name": "e21424406d3912d77ac57c5df6b7d334", "is_reserved": 0, "rental_uris": {"ios": "https://dc.lft.to/lastmile_qr_scan", "android": "https://dc.lft.to/lastmile_qr_scan"}}, {"fusion_lat": 0.0, "is_disabled": 0, "lat": 38.89737383333333, "lon": -76.97577633333333, "fusion_lon": 0.0, "bike_id": "fa5b3b3a0c96128a388caf91ce4424b0", "type": "electric_scooter", "name": "fa5b3b3a0c96128a388caf91ce4424b0", "is_reserved": 0, "rental_uris": {"ios": "https://dc.lft.to/lastmile_qr_scan", "android": "https://dc.lft.to/lastmile_qr_scan"}}, {"fusion_lat": 0.0, "is_disabled": 0, "lat": 38.8758665, "lon": -77.00595133333333, "fusion_lon": 0.0, "bike_id": "5c82100726490009eb696bb425cd1127", "type": "electric_scooter", "name": "5c82100726490009eb696bb425cd1127", "is_reserved": 0, "rental_uris": {"ios": "https://dc.lft.to/lastmile_qr_scan", "android": "https://dc.lft.to/lastmile_qr_scan"}}, {"fusion_lat": 0.0, "is_disabled": 0, "lat": 38.90681816666667, "lon": -77.05822116666667, "fusion_lon": 0.0, "bike_id": "af90d0d6dabee678f41aeff85641822b", "type": "electric_bike", "name": "af90d0d6dabee678f41aeff85641822b", "is_reserved": 0, "rental_uris": {"ios": "https://dc.lft.to/lastmile_qr_scan", "android": "https://dc.lft.to/lastmile_qr_scan"}}, {"fusion_lat": 0.0, "is_disabled": 0, "lat": 38.9068295, "lon": -77.03675033333333, "fusion_lon": 0.0, "bike_id": "d303717cc388906663ffbebd630ed984", "type": "electric_scooter", "name": "d303717cc388906663ffbebd630ed984", "is_reserved": 0, "rental_uris": {"ios": "https://dc.lft.to/lastmile_qr_scan", "android": "https://dc.lft.to/lastmile_qr_scan"}}, {"fusion_lat": 0.0, "is_disabled": 0, "lat": 38.919331, "lon": -77.019095, "fusion_lon": 0.0, "bike_id": "b4482a42e141c17d903f700f4e36b708", "type": "electric_scooter", "name": "b4482a42e141c17d903f700f4e36b708", "is_reserved": 0, "rental_uris": {"ios": "https://dc.lft.to/lastmile_qr_scan", "android": "https://dc.lft.to/lastmile_qr_scan"}}, {"fusion_lat": 0.0, "is_disabled": 0, "lat": 38.90895183333333, "lon": -77.002715, "fusion_lon": 0.0, "bike_id": "6d9339297ca61c8a85f8ec0729f5cd72", "type": "electric_scooter", "name": "6d9339297ca61c8a85f8ec0729f5cd72", "is_reserved": 0, "rental_uris": {"ios": "https://dc.lft.to/lastmile_qr_scan", "android": "https://dc.lft.to/lastmile_qr_scan"}}, {"fusion_lat": 0.0, "is_disabled": 0, "lat": 38.9191735, "lon": -77.04814316666666, "fusion_lon": 0.0, "bike_id": "71a51fa26449a2c602c5371b385e06ea", "type": "electric_scooter", "name": "71a51fa26449a2c602c5371b385e06ea", "is_reserved": 0, "rental_uris": {"ios": "https://dc.lft.to/lastmile_qr_scan", "android": "https://dc.lft.to/lastmile_qr_scan"}}, {"fusion_lat": 0.0, "is_disabled": 0, "lat": 38.8870545, "lon": -77.02173566666667, "fusion_lon": 0.0, "bike_id": "963d981b3c059d072ae58c90ed215272", "type": "electric_scooter", "name": "963d981b3c059d072ae58c90ed215272", "is_reserved": 0, "rental_uris": {"ios": "https://dc.lft.to/lastmile_qr_scan", "android": "https://dc.lft.to/lastmile_qr_scan"}}, {"fusion_lat": 0.0, "is_disabled": 0, "lat": 38.907259333333336, "lon": -77.04056316666667, "fusion_lon": 0.0, "bike_id": "1e4c46e89d489a30caa9fcbda5f798d0", "type": "electric_scooter", "name": "1e4c46e89d489a30caa9fcbda5f798d0", "is_reserved": 0, "rental_uris": {"ios": "https://dc.lft.to/lastmile_qr_scan", "android": "https://dc.lft.to/lastmile_qr_scan"}}, {"fusion_lat": 0.0, "is_disabled": 0, "lat": 38.87669183333333, "lon": -77.020109, "fusion_lon": 0.0, "bike_id": "be6a8ac908ca30a3bc651c646c1d01fe", "type": "electric_scooter", "name": "be6a8ac908ca30a3bc651c646c1d01fe", "is_reserved": 0, "rental_uris": {"ios": "https://dc.lft.to/lastmile_qr_scan", "android": "https://dc.lft.to/lastmile_qr_scan"}}, {"fusion_lat": 0.0, "is_disabled": 0, "lat": 38.91679416666667, "lon": -77.029774, "fusion_lon": 0.0, "bike_id": "bc95b2db00b94362f37f5813db1b42db", "type": "electric_scooter", "name": "bc95b2db00b94362f37f5813db1b42db", "is_reserved": 0, "rental_uris": {"ios": "https://dc.lft.to/lastmile_qr_scan", "android": "https://dc.lft.to/lastmile_qr_scan"}}, {"fusion_lat": 0.0, "is_disabled": 0, "lat": 38.9319385, "lon": -77.01867083333333, "fusion_lon": 0.0, "bike_id": "d2d5df835ef306d75bf5066d98ae6bf1", "type": "electric_scooter", "name": "d2d5df835ef306d75bf5066d98ae6bf1", "is_reserved": 0, "rental_uris": {"ios": "https://dc.lft.to/lastmile_qr_scan", "android": "https://dc.lft.to/lastmile_qr_scan"}}, {"fusion_lat": 0.0, "is_disabled": 0, "lat": 38.92798066666667, "lon": -77.029757, "fusion_lon": 0.0, "bike_id": "78cfa1eadd01f8f1f083a3a429e68da1", "type": "electric_scooter", "name": "78cfa1eadd01f8f1f083a3a429e68da1", "is_reserved": 0, "rental_uris": {"ios": "https://dc.lft.to/lastmile_qr_scan", "android": "https://dc.lft.to/lastmile_qr_scan"}}, {"fusion_lat": 0.0, "is_disabled": 0, "lat": 38.902485666666664, "lon": -77.02648183333334, "fusion_lon": 0.0, "bike_id": "3de608977f7b001e8d0bb2513cc4cb3e", "type": "electric_scooter", "name": "3de608977f7b001e8d0bb2513cc4cb3e", "is_reserved": 0, "rental_uris": {"ios": "https://dc.lft.to/lastmile_qr_scan", "android": "https://dc.lft.to/lastmile_qr_scan"}}, {"fusion_lat": 0.0, "is_disabled": 0, "lat": 38.9240105, "lon": -77.02725766666667, "fusion_lon": 0.0, "bike_id": "add9df38e7216b843eef909f6463ffd1", "type": "electric_scooter", "name": "add9df38e7216b843eef909f6463ffd1", "is_reserved": 0, "rental_uris": {"ios": "https://dc.lft.to/lastmile_qr_scan", "android": "https://dc.lft.to/lastmile_qr_scan"}}, {"fusion_lat": 0.0, "is_disabled": 0, "lat": 38.922621, "lon": -77.01960716666666, "fusion_lon": 0.0, "bike_id": "84394863fbd492afea5a47334368488c", "type": "electric_scooter", "name": "84394863fbd492afea5a47334368488c", "is_reserved": 0, "rental_uris": {"ios": "https://dc.lft.to/lastmile_qr_scan", "android": "https://dc.lft.to/lastmile_qr_scan"}}, {"fusion_lat": 0.0, "is_disabled": 0, "lat": 38.9148905, "lon": -77.019988, "fusion_lon": 0.0, "bike_id": "e1c95e8372a5579af1294a3c4e7c2c16", "type": "electric_scooter", "name": "e1c95e8372a5579af1294a3c4e7c2c16", "is_reserved": 0, "rental_uris": {"ios": "https://dc.lft.to/lastmile_qr_scan", "android": "https://dc.lft.to/lastmile_qr_scan"}}, {"fusion_lat": 0.0, "is_disabled": 0, "lat": 38.8565035, "lon": -76.9967905, "fusion_lon": 0.0, "bike_id": "77ff64df27f71c3be025ef3ddad32155", "type": "electric_scooter", "name": "77ff64df27f71c3be025ef3ddad32155", "is_reserved": 0, "rental_uris": {"ios": "https://dc.lft.to/lastmile_qr_scan", "android": "https://dc.lft.to/lastmile_qr_scan"}}, {"fusion_lat": 0.0, "is_disabled": 0, "lat": 38.88457783333333, "lon": -77.00064766666667, "fusion_lon": 0.0, "bike_id": "2eb004591e488aaf6dd442dfe0aa3252", "type": "electric_scooter", "name": "2eb004591e488aaf6dd442dfe0aa3252", "is_reserved": 0, "rental_uris": {"ios": "https://dc.lft.to/lastmile_qr_scan", "android": "https://dc.lft.to/lastmile_qr_scan"}}, {"fusion_lat": 0.0, "is_disabled": 0, "lat": 38.900265, "lon": -76.99838266666667, "fusion_lon": 0.0, "bike_id": "a61cb024e116f6cea5f468452d21d5ac", "type": "electric_scooter", "name": "a61cb024e116f6cea5f468452d21d5ac", "is_reserved": 0, "rental_uris": {"ios": "https://dc.lft.to/lastmile_qr_scan", "android": "https://dc.lft.to/lastmile_qr_scan"}}, {"fusion_lat": 0.0, "is_disabled": 0, "lat": 39.07465166666667, "lon": -77.11529166666666, "fusion_lon": 0.0, "bike_id": "32e72f97e5833a2e87ea95de1654d4ae", "type": "electric_bike", "name": "32e72f97e5833a2e87ea95de1654d4ae", "is_reserved": 0, "rental_uris": {"ios": "https://dc.lft.to/lastmile_qr_scan", "android": "https://dc.lft.to/lastmile_qr_scan"}}, {"fusion_lat": 0.0, "is_disabled": 0, "lat": 38.90032, "lon": -76.9884255, "fusion_lon": 0.0, "bike_id": "f835b2b900c9020ad41afbed34272e16", "type": "electric_scooter", "name": "f835b2b900c9020ad41afbed34272e16", "is_reserved": 0, "rental_uris": {"ios": "https://dc.lft.to/lastmile_qr_scan", "android": "https://dc.lft.to/lastmile_qr_scan"}}, {"fusion_lat": 0.0, "is_disabled": 0, "lat": 38.917088166666666, "lon": -77.0386495, "fusion_lon": 0.0, "bike_id": "5be049f8bb16c295b21d2ca8ae231168", "type": "electric_scooter", "name": "5be049f8bb16c295b21d2ca8ae231168", "is_reserved": 0, "rental_uris": {"ios": "https://dc.lft.to/lastmile_qr_scan", "android": "https://dc.lft.to/lastmile_qr_scan"}}, {"fusion_lat": 0.0, "is_disabled": 0, "lat": 38.913263666666666, "lon": -77.04536566666667, "fusion_lon": 0.0, "bike_id": "afee7a48d89cdb8b671ba7759efd9d37", "type": "electric_scooter", "name": "afee7a48d89cdb8b671ba7759efd9d37", "is_reserved": 0, "rental_uris": {"ios": "https://dc.lft.to/lastmile_qr_scan", "android": "https://dc.lft.to/lastmile_qr_scan"}}, {"fusion_lat": 0.0, "is_disabled": 0, "lat": 38.916689833333336, "lon": -77.04606083333333, "fusion_lon": 0.0, "bike_id": "f704181bb3ec969f073f587710b894b9", "type": "electric_scooter", "name": "f704181bb3ec969f073f587710b894b9", "is_reserved": 0, "rental_uris": {"ios": "https://dc.lft.to/lastmile_qr_scan", "android": "https://dc.lft.to/lastmile_qr_scan"}}, {"fusion_lat": 0.0, "is_disabled": 0, "lat": 38.904977, "lon": -77.045065, "fusion_lon": 0.0, "bike_id": "5bd18b1b2e5aa72a639745b61f3216e6", "type": "electric_scooter", "name": "5bd18b1b2e5aa72a639745b61f3216e6", "is_reserved": 0, "rental_uris": {"ios": "https://dc.lft.to/lastmile_qr_scan", "android": "https://dc.lft.to/lastmile_qr_scan"}}, {"fusion_lat": 0.0, "is_disabled": 0, "lat": 38.92059966666667, "lon": -77.01670683333333, "fusion_lon": 0.0, "bike_id": "584988167888b2e20eb746958a2e4258", "type": "electric_scooter", "name": "584988167888b2e20eb746958a2e4258", "is_reserved": 0, "rental_uris": {"ios": "https://dc.lft.to/lastmile_qr_scan", "android": "https://dc.lft.to/lastmile_qr_scan"}}, {"fusion_lat": 0.0, "is_disabled": 0, "lat": 38.85586683333333, "lon": -76.9728175, "fusion_lon": 0.0, "bike_id": "b8fe3ce14d7d57142a33eb5aa27a69ad", "type": "electric_bike", "name": "b8fe3ce14d7d57142a33eb5aa27a69ad", "is_reserved": 0, "rental_uris": {"ios": "https://dc.lft.to/lastmile_qr_scan", "android": "https://dc.lft.to/lastmile_qr_scan"}}, {"fusion_lat": 0.0, "is_disabled": 0, "lat": 38.9244875, "lon": -77.0021275, "fusion_lon": 0.0, "bike_id": "91d8429dc292b8bc08fcbe3222d16d4d", "type": "electric_bike", "name": "91d8429dc292b8bc08fcbe3222d16d4d", "is_reserved": 0, "rental_uris": {"ios": "https://dc.lft.to/lastmile_qr_scan", "android": "https://dc.lft.to/lastmile_qr_scan"}}, {"fusion_lat": 0.0, "is_disabled": 0, "lat": 38.910981, "lon": -77.0448645, "fusion_lon": 0.0, "bike_id": "7ea5993a0a9f4ce8bd4fe47c47edbd60", "type": "electric_scooter", "name": "7ea5993a0a9f4ce8bd4fe47c47edbd60", "is_reserved": 0, "rental_uris": {"ios": "https://dc.lft.to/lastmile_qr_scan", "android": "https://dc.lft.to/lastmile_qr_scan"}}, {"fusion_lat": 0.0, "is_disabled": 0, "lat": 38.90666216666666, "lon": -77.026978, "fusion_lon": 0.0, "bike_id": "39a8a7c1c9b8477b84b48df7cc073082", "type": "electric_scooter", "name": "39a8a7c1c9b8477b84b48df7cc073082", "is_reserved": 0, "rental_uris": {"ios": "https://dc.lft.to/lastmile_qr_scan", "android": "https://dc.lft.to/lastmile_qr_scan"}}, {"fusion_lat": 0.0, "is_disabled": 0, "lat": 38.903237833333336, "lon": -77.01890033333333, "fusion_lon": 0.0, "bike_id": "927d262d236fbca43c63ed79588541dc", "type": "electric_scooter", "name": "927d262d236fbca43c63ed79588541dc", "is_reserved": 0, "rental_uris": {"ios": "https://dc.lft.to/lastmile_qr_scan", "android": "https://dc.lft.to/lastmile_qr_scan"}}, {"fusion_lat": 0.0, "is_disabled": 0, "lat": 38.8970585, "lon": -77.0229405, "fusion_lon": 0.0, "bike_id": "2d993927c8d55772ad400d6f9ab552a0", "type": "electric_scooter", "name": "2d993927c8d55772ad400d6f9ab552a0", "is_reserved": 0, "rental_uris": {"ios": "https://dc.lft.to/lastmile_qr_scan", "android": "https://dc.lft.to/lastmile_qr_scan"}}, {"fusion_lat": 0.0, "is_disabled": 0, "lat": 38.918466, "lon": -77.0401645, "fusion_lon": 0.0, "bike_id": "9dd2c6d5a3e6830ef5e7ef13240e8de0", "type": "electric_scooter", "name": "9dd2c6d5a3e6830ef5e7ef13240e8de0", "is_reserved": 0, "rental_uris": {"ios": "https://dc.lft.to/lastmile_qr_scan", "android": "https://dc.lft.to/lastmile_qr_scan"}}, {"fusion_lat": 0.0, "is_disabled": 0, "lat": 38.91271233333333, "lon": -77.02218916666666, "fusion_lon": 0.0, "bike_id": "df736819f9608823385a7868c9f525af", "type": "electric_scooter", "name": "df736819f9608823385a7868c9f525af", "is_reserved": 0, "rental_uris": {"ios": "https://dc.lft.to/lastmile_qr_scan", "android": "https://dc.lft.to/lastmile_qr_scan"}}, {"fusion_lat": 0.0, "is_disabled": 0, "lat": 38.9275955, "lon": -77.032053, "fusion_lon": 0.0, "bike_id": "a93a0f466f796be341493e49f693a8a8", "type": "electric_scooter", "name": "a93a0f466f796be341493e49f693a8a8", "is_reserved": 0, "rental_uris": {"ios": "https://dc.lft.to/lastmile_qr_scan", "android": "https://dc.lft.to/lastmile_qr_scan"}}, {"fusion_lat": 0.0, "is_disabled": 0, "lat": 38.985661666666665, "lon": -77.08746816666667, "fusion_lon": 0.0, "bike_id": "28e8dcbab80dcfa77108057e61762ddc", "type": "electric_bike", "name": "28e8dcbab80dcfa77108057e61762ddc", "is_reserved": 0, "rental_uris": {"ios": "https://dc.lft.to/lastmile_qr_scan", "android": "https://dc.lft.to/lastmile_qr_scan"}}, {"fusion_lat": 0.0, "is_disabled": 0, "lat": 38.92693166666667, "lon": -77.00771316666666, "fusion_lon": 0.0, "bike_id": "1e764256c37b76600ee7ae148e339f3e", "type": "electric_scooter", "name": "1e764256c37b76600ee7ae148e339f3e", "is_reserved": 0, "rental_uris": {"ios": "https://dc.lft.to/lastmile_qr_scan", "android": "https://dc.lft.to/lastmile_qr_scan"}}, {"fusion_lat": 0.0, "is_disabled": 0, "lat": 38.89982466666667, "lon": -77.0158915, "fusion_lon": 0.0, "bike_id": "e90a617d36951187cba19f1d39ee8a4d", "type": "electric_scooter", "name": "e90a617d36951187cba19f1d39ee8a4d", "is_reserved": 0, "rental_uris": {"ios": "https://dc.lft.to/lastmile_qr_scan", "android": "https://dc.lft.to/lastmile_qr_scan"}}, {"fusion_lat": 0.0, "is_disabled": 0, "lat": 38.8751355, "lon": -77.11762233333333, "fusion_lon": 0.0, "bike_id": "2eb58322af5e67f726bae214eee4812a", "type": "electric_bike", "name": "2eb58322af5e67f726bae214eee4812a", "is_reserved": 0, "rental_uris": {"ios": "https://dc.lft.to/lastmile_qr_scan", "android": "https://dc.lft.to/lastmile_qr_scan"}}, {"fusion_lat": 0.0, "is_disabled": 0, "lat": 38.91539083333333, "lon": -77.03857866666667, "fusion_lon": 0.0, "bike_id": "d362ce5a4fe8e233fb64e05d2981c94c", "type": "electric_scooter", "name": "d362ce5a4fe8e233fb64e05d2981c94c", "is_reserved": 0, "rental_uris": {"ios": "https://dc.lft.to/lastmile_qr_scan", "android": "https://dc.lft.to/lastmile_qr_scan"}}, {"fusion_lat": 0.0, "is_disabled": 0, "lat": 38.911158666666665, "lon": -77.0446715, "fusion_lon": 0.0, "bike_id": "b11a9e0d39d6f4d5c8a0d387878ae441", "type": "electric_scooter", "name": "b11a9e0d39d6f4d5c8a0d387878ae441", "is_reserved": 0, "rental_uris": {"ios": "https://dc.lft.to/lastmile_qr_scan", "android": "https://dc.lft.to/lastmile_qr_scan"}}, {"fusion_lat": 0.0, "is_disabled": 0, "lat": 38.905615166666664, "lon": -77.00582883333334, "fusion_lon": 0.0, "bike_id": "62b496000a2f75be45d5793d0973e9bb", "type": "electric_scooter", "name": "62b496000a2f75be45d5793d0973e9bb", "is_reserved": 0, "rental_uris": {"ios": "https://dc.lft.to/lastmile_qr_scan", "android": "https://dc.lft.to/lastmile_qr_scan"}}, {"fusion_lat": 0.0, "is_disabled": 0, "lat": 38.92047816666667, "lon": -77.03383866666667, "fusion_lon": 0.0, "bike_id": "3da2f4a74b1617e13a950922fafafc3f", "type": "electric_scooter", "name": "3da2f4a74b1617e13a950922fafafc3f", "is_reserved": 0, "rental_uris": {"ios": "https://dc.lft.to/lastmile_qr_scan", "android": "https://dc.lft.to/lastmile_qr_scan"}}, {"fusion_lat": 0.0, "is_disabled": 0, "lat": 38.886873333333334, "lon": -76.97640816666667, "fusion_lon": 0.0, "bike_id": "747080dfcd027054e244464570559bd5", "type": "electric_scooter", "name": "747080dfcd027054e244464570559bd5", "is_reserved": 0, "rental_uris": {"ios": "https://dc.lft.to/lastmile_qr_scan", "android": "https://dc.lft.to/lastmile_qr_scan"}}, {"fusion_lat": 0.0, "is_disabled": 0, "lat": 38.8962745, "lon": -77.04009233333333, "fusion_lon": 0.0, "bike_id": "0eb66258da22bb233fbecd8255a6bc3d", "type": "electric_scooter", "name": "0eb66258da22bb233fbecd8255a6bc3d", "is_reserved": 0, "rental_uris": {"ios": "https://dc.lft.to/lastmile_qr_scan", "android": "https://dc.lft.to/lastmile_qr_scan"}}, {"fusion_lat": 0.0, "is_disabled": 0, "lat": 38.92474583333333, "lon": -77.03932716666667, "fusion_lon": 0.0, "bike_id": "7aaa3ac70003d34361d9eafaf7d9dd23", "type": "electric_scooter", "name": "7aaa3ac70003d34361d9eafaf7d9dd23", "is_reserved": 0, "rental_uris": {"ios": "https://dc.lft.to/lastmile_qr_scan", "android": "https://dc.lft.to/lastmile_qr_scan"}}, {"fusion_lat": 0.0, "is_disabled": 0, "lat": 38.902772166666665, "lon": -77.046832, "fusion_lon": 0.0, "bike_id": "9df2b9a3dd13c7592b5553f9d83a6381", "type": "electric_scooter", "name": "9df2b9a3dd13c7592b5553f9d83a6381", "is_reserved": 0, "rental_uris": {"ios": "https://dc.lft.to/lastmile_qr_scan", "android": "https://dc.lft.to/lastmile_qr_scan"}}, {"fusion_lat": 0.0, "is_disabled": 0, "lat": 38.9029435, "lon": -77.04260566666666, "fusion_lon": 0.0, "bike_id": "9223b24bfeb7837cac56dd364a8b45c6", "type": "electric_scooter", "name": "9223b24bfeb7837cac56dd364a8b45c6", "is_reserved": 0, "rental_uris": {"ios": "https://dc.lft.to/lastmile_qr_scan", "android": "https://dc.lft.to/lastmile_qr_scan"}}, {"fusion_lat": 0.0, "is_disabled": 0, "lat": 38.90259316666667, "lon": -77.02827483333333, "fusion_lon": 0.0, "bike_id": "c7d740175d91a2aba9c95d39a592b550", "type": "electric_scooter", "name": "c7d740175d91a2aba9c95d39a592b550", "is_reserved": 0, "rental_uris": {"ios": "https://dc.lft.to/lastmile_qr_scan", "android": "https://dc.lft.to/lastmile_qr_scan"}}, {"fusion_lat": 0.0, "is_disabled": 0, "lat": 38.932984833333336, "lon": -77.02139066666666, "fusion_lon": 0.0, "bike_id": "c644bbfeccffcb6fa357829c52240f89", "type": "electric_scooter", "name": "c644bbfeccffcb6fa357829c52240f89", "is_reserved": 0, "rental_uris": {"ios": "https://dc.lft.to/lastmile_qr_scan", "android": "https://dc.lft.to/lastmile_qr_scan"}}, {"fusion_lat": 0.0, "is_disabled": 0, "lat": 38.92424783333333, "lon": -77.02131566666667, "fusion_lon": 0.0, "bike_id": "1e56b526c42224d6f31fa6825630d896", "type": "electric_scooter", "name": "1e56b526c42224d6f31fa6825630d896", "is_reserved": 0, "rental_uris": {"ios": "https://dc.lft.to/lastmile_qr_scan", "android": "https://dc.lft.to/lastmile_qr_scan"}}, {"fusion_lat": 0.0, "is_disabled": 0, "lat": 38.92476816666667, "lon": -77.037859, "fusion_lon": 0.0, "bike_id": "48a559f917ff0b18dc9fedf6fa0f90a4", "type": "electric_scooter", "name": "48a559f917ff0b18dc9fedf6fa0f90a4", "is_reserved": 0, "rental_uris": {"ios": "https://dc.lft.to/lastmile_qr_scan", "android": "https://dc.lft.to/lastmile_qr_scan"}}, {"fusion_lat": 0.0, "is_disabled": 0, "lat": 38.905582333333335, "lon": -77.00401183333334, "fusion_lon": 0.0, "bike_id": "98a4ce4a4e7aa6510b2d2a177ef6d088", "type": "electric_scooter", "name": "98a4ce4a4e7aa6510b2d2a177ef6d088", "is_reserved": 0, "rental_uris": {"ios": "https://dc.lft.to/lastmile_qr_scan", "android": "https://dc.lft.to/lastmile_qr_scan"}}, {"fusion_lat": 0.0, "is_disabled": 0, "lat": 38.90154, "lon": -77.0488165, "fusion_lon": 0.0, "bike_id": "b1f14b005785ad05bdbdecd853b29fad", "type": "electric_scooter", "name": "b1f14b005785ad05bdbdecd853b29fad", "is_reserved": 0, "rental_uris": {"ios": "https://dc.lft.to/lastmile_qr_scan", "android": "https://dc.lft.to/lastmile_qr_scan"}}, {"fusion_lat": 0.0, "is_disabled": 0, "lat": 38.935739166666664, "lon": -77.03659983333333, "fusion_lon": 0.0, "bike_id": "3620d27a8f7550c960707369ac4c762e", "type": "electric_bike", "name": "3620d27a8f7550c960707369ac4c762e", "is_reserved": 0, "rental_uris": {"ios": "https://dc.lft.to/lastmile_qr_scan", "android": "https://dc.lft.to/lastmile_qr_scan"}}, {"fusion_lat": 0.0, "is_disabled": 0, "lat": 38.9024965, "lon": -77.02813583333334, "fusion_lon": 0.0, "bike_id": "932a8f0344dc1b4341405d86fe4e046a", "type": "electric_scooter", "name": "932a8f0344dc1b4341405d86fe4e046a", "is_reserved": 0, "rental_uris": {"ios": "https://dc.lft.to/lastmile_qr_scan", "android": "https://dc.lft.to/lastmile_qr_scan"}}, {"fusion_lat": 0.0, "is_disabled": 0, "lat": 38.95068166666667, "lon": -76.97084733333334, "fusion_lon": 0.0, "bike_id": "89e1021b5b4ad59b583990e9d8e772fd", "type": "electric_bike", "name": "89e1021b5b4ad59b583990e9d8e772fd", "is_reserved": 0, "rental_uris": {"ios": "https://dc.lft.to/lastmile_qr_scan", "android": "https://dc.lft.to/lastmile_qr_scan"}}, {"fusion_lat": 0.0, "is_disabled": 0, "lat": 38.857875666666665, "lon": -77.09959666666667, "fusion_lon": 0.0, "bike_id": "69fcadc07b8e603e763a2402311b8a1c", "type": "electric_bike", "name": "69fcadc07b8e603e763a2402311b8a1c", "is_reserved": 0, "rental_uris": {"ios": "https://dc.lft.to/lastmile_qr_scan", "android": "https://dc.lft.to/lastmile_qr_scan"}}, {"fusion_lat": 0.0, "is_disabled": 0, "lat": 38.94409133333333, "lon": -77.027547, "fusion_lon": 0.0, "bike_id": "980952829acd27f302898e0023e62217", "type": "electric_scooter", "name": "980952829acd27f302898e0023e62217", "is_reserved": 0, "rental_uris": {"ios": "https://dc.lft.to/lastmile_qr_scan", "android": "https://dc.lft.to/lastmile_qr_scan"}}, {"fusion_lat": 0.0, "is_disabled": 0, "lat": 38.86482983333333, "lon": -76.97753366666667, "fusion_lon": 0.0, "bike_id": "8704ac6fb1e5e4718a810e74afc0c0fa", "type": "electric_bike", "name": "8704ac6fb1e5e4718a810e74afc0c0fa", "is_reserved": 0, "rental_uris": {"ios": "https://dc.lft.to/lastmile_qr_scan", "android": "https://dc.lft.to/lastmile_qr_scan"}}, {"fusion_lat": 0.0, "is_disabled": 0, "lat": 38.95587716666667, "lon": -77.02810233333334, "fusion_lon": 0.0, "bike_id": "02a92dbab7f1bdd4fcd057d8cdf43ab7", "type": "electric_scooter", "name": "02a92dbab7f1bdd4fcd057d8cdf43ab7", "is_reserved": 0, "rental_uris": {"ios": "https://dc.lft.to/lastmile_qr_scan", "android": "https://dc.lft.to/lastmile_qr_scan"}}, {"fusion_lat": 0.0, "is_disabled": 0, "lat": 38.91603966666667, "lon": -77.04010583333333, "fusion_lon": 0.0, "bike_id": "c10aa6f1bddddd5cd269cc98574b29d4", "type": "electric_scooter", "name": "c10aa6f1bddddd5cd269cc98574b29d4", "is_reserved": 0, "rental_uris": {"ios": "https://dc.lft.to/lastmile_qr_scan", "android": "https://dc.lft.to/lastmile_qr_scan"}}, {"fusion_lat": 0.0, "is_disabled": 0, "lat": 38.91115583333333, "lon": -77.04481666666666, "fusion_lon": 0.0, "bike_id": "9881d919fda993289d7384f8a174a976", "type": "electric_scooter", "name": "9881d919fda993289d7384f8a174a976", "is_reserved": 0, "rental_uris": {"ios": "https://dc.lft.to/lastmile_qr_scan", "android": "https://dc.lft.to/lastmile_qr_scan"}}, {"fusion_lat": 0.0, "is_disabled": 0, "lat": 38.903813166666666, "lon": -77.044979, "fusion_lon": 0.0, "bike_id": "080a5f5f7657f58efc0192dd3d616aee", "type": "electric_scooter", "name": "080a5f5f7657f58efc0192dd3d616aee", "is_reserved": 0, "rental_uris": {"ios": "https://dc.lft.to/lastmile_qr_scan", "android": "https://dc.lft.to/lastmile_qr_scan"}}, {"fusion_lat": 0.0, "is_disabled": 0, "lat": 38.9303015, "lon": -77.032453, "fusion_lon": 0.0, "bike_id": "8dd9186685586b42fc28d7c1ed2d99ad", "type": "electric_scooter", "name": "8dd9186685586b42fc28d7c1ed2d99ad", "is_reserved": 0, "rental_uris": {"ios": "https://dc.lft.to/lastmile_qr_scan", "android": "https://dc.lft.to/lastmile_qr_scan"}}, {"fusion_lat": 0.0, "is_disabled": 0, "lat": 38.89550716666667, "lon": -77.00920983333333, "fusion_lon": 0.0, "bike_id": "9361f2d3b6ac080e1867422da8655773", "type": "electric_scooter", "name": "9361f2d3b6ac080e1867422da8655773", "is_reserved": 0, "rental_uris": {"ios": "https://dc.lft.to/lastmile_qr_scan", "android": "https://dc.lft.to/lastmile_qr_scan"}}, {"fusion_lat": 0.0, "is_disabled": 0, "lat": 38.922386833333334, "lon": -77.02123683333333, "fusion_lon": 0.0, "bike_id": "ec5d6d77cf9adf023c31dfad7e837019", "type": "electric_scooter", "name": "ec5d6d77cf9adf023c31dfad7e837019", "is_reserved": 0, "rental_uris": {"ios": "https://dc.lft.to/lastmile_qr_scan", "android": "https://dc.lft.to/lastmile_qr_scan"}}, {"fusion_lat": 0.0, "is_disabled": 0, "lat": 38.923367166666665, "lon": -77.05682066666667, "fusion_lon": 0.0, "bike_id": "cf1a986e32db3a9614a576abc2710993", "type": "electric_scooter", "name": "cf1a986e32db3a9614a576abc2710993", "is_reserved": 0, "rental_uris": {"ios": "https://dc.lft.to/lastmile_qr_scan", "android": "https://dc.lft.to/lastmile_qr_scan"}}, {"fusion_lat": 0.0, "is_disabled": 0, "lat": 38.91558716666667, "lon": -77.02453483333333, "fusion_lon": 0.0, "bike_id": "0f57b9fb92263032a5b22ed6b852f43a", "type": "electric_scooter", "name": "0f57b9fb92263032a5b22ed6b852f43a", "is_reserved": 0, "rental_uris": {"ios": "https://dc.lft.to/lastmile_qr_scan", "android": "https://dc.lft.to/lastmile_qr_scan"}}, {"fusion_lat": 0.0, "is_disabled": 0, "lat": 38.904251, "lon": -77.04676066666667, "fusion_lon": 0.0, "bike_id": "f6180b2b71dc365f28c1557711abbed9", "type": "electric_scooter", "name": "f6180b2b71dc365f28c1557711abbed9", "is_reserved": 0, "rental_uris": {"ios": "https://dc.lft.to/lastmile_qr_scan", "android": "https://dc.lft.to/lastmile_qr_scan"}}, {"fusion_lat": 0.0, "is_disabled": 0, "lat": 38.919158, "lon": -77.033995, "fusion_lon": 0.0, "bike_id": "a90febdd5394ecca12736466aa7a089c", "type": "electric_scooter", "name": "a90febdd5394ecca12736466aa7a089c", "is_reserved": 0, "rental_uris": {"ios": "https://dc.lft.to/lastmile_qr_scan", "android": "https://dc.lft.to/lastmile_qr_scan"}}, {"fusion_lat": 0.0, "is_disabled": 0, "lat": 38.92462066666667, "lon": -77.022041, "fusion_lon": 0.0, "bike_id": "64ccbb635301a2bb7accaa0cd8eb19e4", "type": "electric_scooter", "name": "64ccbb635301a2bb7accaa0cd8eb19e4", "is_reserved": 0, "rental_uris": {"ios": "https://dc.lft.to/lastmile_qr_scan", "android": "https://dc.lft.to/lastmile_qr_scan"}}, {"fusion_lat": 0.0, "is_disabled": 0, "lat": 38.91748333333334, "lon": -77.04168533333333, "fusion_lon": 0.0, "bike_id": "778e20e57087dc37855033d626d9145e", "type": "electric_scooter", "name": "778e20e57087dc37855033d626d9145e", "is_reserved": 0, "rental_uris": {"ios": "https://dc.lft.to/lastmile_qr_scan", "android": "https://dc.lft.to/lastmile_qr_scan"}}, {"fusion_lat": 0.0, "is_disabled": 0, "lat": 38.892209, "lon": -77.0216305, "fusion_lon": 0.0, "bike_id": "ba1764107e350ab28c07b12bdf089966", "type": "electric_scooter", "name": "ba1764107e350ab28c07b12bdf089966", "is_reserved": 0, "rental_uris": {"ios": "https://dc.lft.to/lastmile_qr_scan", "android": "https://dc.lft.to/lastmile_qr_scan"}}, {"fusion_lat": 0.0, "is_disabled": 0, "lat": 38.898363833333335, "lon": -77.04699733333334, "fusion_lon": 0.0, "bike_id": "1eb1d8a846fc1b0cf3a4fa1da6e2b78c", "type": "electric_scooter", "name": "1eb1d8a846fc1b0cf3a4fa1da6e2b78c", "is_reserved": 0, "rental_uris": {"ios": "https://dc.lft.to/lastmile_qr_scan", "android": "https://dc.lft.to/lastmile_qr_scan"}}, {"fusion_lat": 0.0, "is_disabled": 0, "lat": 38.900336333333335, "lon": -76.98834733333334, "fusion_lon": 0.0, "bike_id": "4c067cb3daea4f25f458303ee7a890ea", "type": "electric_scooter", "name": "4c067cb3daea4f25f458303ee7a890ea", "is_reserved": 0, "rental_uris": {"ios": "https://dc.lft.to/lastmile_qr_scan", "android": "https://dc.lft.to/lastmile_qr_scan"}}, {"fusion_lat": 0.0, "is_disabled": 0, "lat": 38.914531833333335, "lon": -77.021971, "fusion_lon": 0.0, "bike_id": "64522afd1d8f0e8133fd84f4efb70758", "type": "electric_scooter", "name": "64522afd1d8f0e8133fd84f4efb70758", "is_reserved": 0, "rental_uris": {"ios": "https://dc.lft.to/lastmile_qr_scan", "android": "https://dc.lft.to/lastmile_qr_scan"}}, {"fusion_lat": 0.0, "is_disabled": 0, "lat": 38.901362666666664, "lon": -77.0320415, "fusion_lon": 0.0, "bike_id": "ff4c7d9adfe7c7e8d2b6498ee6a9a8c6", "type": "electric_scooter", "name": "ff4c7d9adfe7c7e8d2b6498ee6a9a8c6", "is_reserved": 0, "rental_uris": {"ios": "https://dc.lft.to/lastmile_qr_scan", "android": "https://dc.lft.to/lastmile_qr_scan"}}, {"fusion_lat": 0.0, "is_disabled": 0, "lat": 38.8836245, "lon": -77.02593083333333, "fusion_lon": 0.0, "bike_id": "8aa1ab74dbbb268e2f821100720c859d", "type": "electric_scooter", "name": "8aa1ab74dbbb268e2f821100720c859d", "is_reserved": 0, "rental_uris": {"ios": "https://dc.lft.to/lastmile_qr_scan", "android": "https://dc.lft.to/lastmile_qr_scan"}}, {"fusion_lat": 0.0, "is_disabled": 0, "lat": 38.876848333333335, "lon": -77.02002033333333, "fusion_lon": 0.0, "bike_id": "9d556400cb05d153606263f38f254215", "type": "electric_scooter", "name": "9d556400cb05d153606263f38f254215", "is_reserved": 0, "rental_uris": {"ios": "https://dc.lft.to/lastmile_qr_scan", "android": "https://dc.lft.to/lastmile_qr_scan"}}, {"fusion_lat": 0.0, "is_disabled": 0, "lat": 38.9234135, "lon": -77.0524915, "fusion_lon": 0.0, "bike_id": "fb396290317b2d341ccca4afb4d9102d", "type": "electric_scooter", "name": "fb396290317b2d341ccca4afb4d9102d", "is_reserved": 0, "rental_uris": {"ios": "https://dc.lft.to/lastmile_qr_scan", "android": "https://dc.lft.to/lastmile_qr_scan"}}, {"fusion_lat": 0.0, "is_disabled": 0, "lat": 38.8929025, "lon": -76.97618116666666, "fusion_lon": 0.0, "bike_id": "c0b760b7f3cf2e9c39450eb4efa0db01", "type": "electric_bike", "name": "c0b760b7f3cf2e9c39450eb4efa0db01", "is_reserved": 0, "rental_uris": {"ios": "https://dc.lft.to/lastmile_qr_scan", "android": "https://dc.lft.to/lastmile_qr_scan"}}, {"fusion_lat": 0.0, "is_disabled": 0, "lat": 38.89723716666666, "lon": -77.043575, "fusion_lon": 0.0, "bike_id": "33d9002e977d82bbf4007dc41a3d6561", "type": "electric_scooter", "name": "33d9002e977d82bbf4007dc41a3d6561", "is_reserved": 0, "rental_uris": {"ios": "https://dc.lft.to/lastmile_qr_scan", "android": "https://dc.lft.to/lastmile_qr_scan"}}, {"fusion_lat": 0.0, "is_disabled": 0, "lat": 38.923547666666664, "lon": -77.03396533333333, "fusion_lon": 0.0, "bike_id": "c09051051ddf4c0479c4ae2e80a9c9c5", "type": "electric_scooter", "name": "c09051051ddf4c0479c4ae2e80a9c9c5", "is_reserved": 0, "rental_uris": {"ios": "https://dc.lft.to/lastmile_qr_scan", "android": "https://dc.lft.to/lastmile_qr_scan"}}, {"fusion_lat": 0.0, "is_disabled": 0, "lat": 38.89187533333333, "lon": -76.99853566666667, "fusion_lon": 0.0, "bike_id": "f95c0b50ec8d1614316147e0cfa92365", "type": "electric_scooter", "name": "f95c0b50ec8d1614316147e0cfa92365", "is_reserved": 0, "rental_uris": {"ios": "https://dc.lft.to/lastmile_qr_scan", "android": "https://dc.lft.to/lastmile_qr_scan"}}, {"fusion_lat": 0.0, "is_disabled": 0, "lat": 38.89589133333333, "lon": -77.04811, "fusion_lon": 0.0, "bike_id": "90f2af2200149eca622448ce58cdb834", "type": "electric_scooter", "name": "90f2af2200149eca622448ce58cdb834", "is_reserved": 0, "rental_uris": {"ios": "https://dc.lft.to/lastmile_qr_scan", "android": "https://dc.lft.to/lastmile_qr_scan"}}, {"fusion_lat": 0.0, "is_disabled": 0, "lat": 38.904987166666665, "lon": -77.02958383333333, "fusion_lon": 0.0, "bike_id": "2883e65ff1435431c336809536a87510", "type": "electric_scooter", "name": "2883e65ff1435431c336809536a87510", "is_reserved": 0, "rental_uris": {"ios": "https://dc.lft.to/lastmile_qr_scan", "android": "https://dc.lft.to/lastmile_qr_scan"}}, {"fusion_lat": 0.0, "is_disabled": 0, "lat": 38.905222333333334, "lon": -77.04743933333333, "fusion_lon": 0.0, "bike_id": "2305b1a6c4a5e0d45e181449fbc685ec", "type": "electric_scooter", "name": "2305b1a6c4a5e0d45e181449fbc685ec", "is_reserved": 0, "rental_uris": {"ios": "https://dc.lft.to/lastmile_qr_scan", "android": "https://dc.lft.to/lastmile_qr_scan"}}, {"fusion_lat": 0.0, "is_disabled": 0, "lat": 38.8971925, "lon": -77.02438416666666, "fusion_lon": 0.0, "bike_id": "a924e7c49dc98dbdcb4d7121229d43f4", "type": "electric_scooter", "name": "a924e7c49dc98dbdcb4d7121229d43f4", "is_reserved": 0, "rental_uris": {"ios": "https://dc.lft.to/lastmile_qr_scan", "android": "https://dc.lft.to/lastmile_qr_scan"}}, {"fusion_lat": 0.0, "is_disabled": 0, "lat": 38.9026305, "lon": -77.03863983333333, "fusion_lon": 0.0, "bike_id": "9568eda62dde1cf164108620120a6170", "type": "electric_scooter", "name": "9568eda62dde1cf164108620120a6170", "is_reserved": 0, "rental_uris": {"ios": "https://dc.lft.to/lastmile_qr_scan", "android": "https://dc.lft.to/lastmile_qr_scan"}}, {"fusion_lat": 0.0, "is_disabled": 0, "lat": 38.9034585, "lon": -77.03344083333333, "fusion_lon": 0.0, "bike_id": "5439c96a17bacb4cdfa36b443c6f08f8", "type": "electric_scooter", "name": "5439c96a17bacb4cdfa36b443c6f08f8", "is_reserved": 0, "rental_uris": {"ios": "https://dc.lft.to/lastmile_qr_scan", "android": "https://dc.lft.to/lastmile_qr_scan"}}, {"fusion_lat": 0.0, "is_disabled": 0, "lat": 39.00530533333333, "lon": -77.10406366666666, "fusion_lon": 0.0, "bike_id": "244d7cc1f46082e85b5da186125613cc", "type": "electric_bike", "name": "244d7cc1f46082e85b5da186125613cc", "is_reserved": 0, "rental_uris": {"ios": "https://dc.lft.to/lastmile_qr_scan", "android": "https://dc.lft.to/lastmile_qr_scan"}}, {"fusion_lat": 0.0, "is_disabled": 0, "lat": 38.92825333333333, "lon": -77.01414333333334, "fusion_lon": 0.0, "bike_id": "b0abebbe89787cc97f59bbfbb51da683", "type": "electric_scooter", "name": "b0abebbe89787cc97f59bbfbb51da683", "is_reserved": 0, "rental_uris": {"ios": "https://dc.lft.to/lastmile_qr_scan", "android": "https://dc.lft.to/lastmile_qr_scan"}}, {"fusion_lat": 0.0, "is_disabled": 0, "lat": 38.8899085, "lon": -77.00336966666667, "fusion_lon": 0.0, "bike_id": "d22851a754171075f9a64035657e1206", "type": "electric_scooter", "name": "d22851a754171075f9a64035657e1206", "is_reserved": 0, "rental_uris": {"ios": "https://dc.lft.to/lastmile_qr_scan", "android": "https://dc.lft.to/lastmile_qr_scan"}}, {"fusion_lat": 0.0, "is_disabled": 0, "lat": 38.91707233333333, "lon": -77.03414616666667, "fusion_lon": 0.0, "bike_id": "45446e89ec03bda595b9a9a229aa6d45", "type": "electric_scooter", "name": "45446e89ec03bda595b9a9a229aa6d45", "is_reserved": 0, "rental_uris": {"ios": "https://dc.lft.to/lastmile_qr_scan", "android": "https://dc.lft.to/lastmile_qr_scan"}}, {"fusion_lat": 0.0, "is_disabled": 0, "lat": 38.91452683333333, "lon": -77.02211983333333, "fusion_lon": 0.0, "bike_id": "b863decb7af7c948b7aa00eabc02c36f", "type": "electric_scooter", "name": "b863decb7af7c948b7aa00eabc02c36f", "is_reserved": 0, "rental_uris": {"ios": "https://dc.lft.to/lastmile_qr_scan", "android": "https://dc.lft.to/lastmile_qr_scan"}}, {"fusion_lat": 0.0, "is_disabled": 0, "lat": 38.902837, "lon": -77.0347085, "fusion_lon": 0.0, "bike_id": "04b305970e10e5c288a6d5c52239b713", "type": "electric_scooter", "name": "04b305970e10e5c288a6d5c52239b713", "is_reserved": 0, "rental_uris": {"ios": "https://dc.lft.to/lastmile_qr_scan", "android": "https://dc.lft.to/lastmile_qr_scan"}}, {"fusion_lat": 0.0, "is_disabled": 0, "lat": 38.89727333333333, "lon": -77.03211333333333, "fusion_lon": 0.0, "bike_id": "65ee864c22706be8dc14070269ddfb26", "type": "electric_scooter", "name": "65ee864c22706be8dc14070269ddfb26", "is_reserved": 0, "rental_uris": {"ios": "https://dc.lft.to/lastmile_qr_scan", "android": "https://dc.lft.to/lastmile_qr_scan"}}, {"fusion_lat": 0.0, "is_disabled": 0, "lat": 38.92453183333333, "lon": -77.02243066666666, "fusion_lon": 0.0, "bike_id": "762a00d555cc9376b3ada49461335b07", "type": "electric_scooter", "name": "762a00d555cc9376b3ada49461335b07", "is_reserved": 0, "rental_uris": {"ios": "https://dc.lft.to/lastmile_qr_scan", "android": "https://dc.lft.to/lastmile_qr_scan"}}, {"fusion_lat": 0.0, "is_disabled": 0, "lat": 38.9344835, "lon": -77.0210715, "fusion_lon": 0.0, "bike_id": "34fdf2159ec71272cef85873cbc82bf7", "type": "electric_scooter", "name": "34fdf2159ec71272cef85873cbc82bf7", "is_reserved": 0, "rental_uris": {"ios": "https://dc.lft.to/lastmile_qr_scan", "android": "https://dc.lft.to/lastmile_qr_scan"}}, {"fusion_lat": 0.0, "is_disabled": 0, "lat": 38.90710283333333, "lon": -77.02393716666667, "fusion_lon": 0.0, "bike_id": "6febe2bc520e2f2b6b3ad1693c815452", "type": "electric_scooter", "name": "6febe2bc520e2f2b6b3ad1693c815452", "is_reserved": 0, "rental_uris": {"ios": "https://dc.lft.to/lastmile_qr_scan", "android": "https://dc.lft.to/lastmile_qr_scan"}}, {"fusion_lat": 0.0, "is_disabled": 0, "lat": 38.88371433333333, "lon": -76.9952415, "fusion_lon": 0.0, "bike_id": "1de06b5c1eb62069855d2067b846d770", "type": "electric_scooter", "name": "1de06b5c1eb62069855d2067b846d770", "is_reserved": 0, "rental_uris": {"ios": "https://dc.lft.to/lastmile_qr_scan", "android": "https://dc.lft.to/lastmile_qr_scan"}}, {"fusion_lat": 0.0, "is_disabled": 0, "lat": 38.89912983333333, "lon": -77.0137985, "fusion_lon": 0.0, "bike_id": "f5670cbc6413a88e911d8cdb2b3e5100", "type": "electric_scooter", "name": "f5670cbc6413a88e911d8cdb2b3e5100", "is_reserved": 0, "rental_uris": {"ios": "https://dc.lft.to/lastmile_qr_scan", "android": "https://dc.lft.to/lastmile_qr_scan"}}, {"fusion_lat": 0.0, "is_disabled": 0, "lat": 38.88740716666667, "lon": -77.0124355, "fusion_lon": 0.0, "bike_id": "3bf2cfd6edd6a9bedfdc69b6db6009f2", "type": "electric_scooter", "name": "3bf2cfd6edd6a9bedfdc69b6db6009f2", "is_reserved": 0, "rental_uris": {"ios": "https://dc.lft.to/lastmile_qr_scan", "android": "https://dc.lft.to/lastmile_qr_scan"}}, {"fusion_lat": 0.0, "is_disabled": 0, "lat": 38.9246615, "lon": -77.02208066666667, "fusion_lon": 0.0, "bike_id": "dfbd01b2fe72e0b9dd1eaa95a85b28a0", "type": "electric_scooter", "name": "dfbd01b2fe72e0b9dd1eaa95a85b28a0", "is_reserved": 0, "rental_uris": {"ios": "https://dc.lft.to/lastmile_qr_scan", "android": "https://dc.lft.to/lastmile_qr_scan"}}, {"fusion_lat": 0.0, "is_disabled": 0, "lat": 38.92330316666666, "lon": -77.020751, "fusion_lon": 0.0, "bike_id": "bf048a3f783a0e4a463cf4eabcf604b6", "type": "electric_scooter", "name": "bf048a3f783a0e4a463cf4eabcf604b6", "is_reserved": 0, "rental_uris": {"ios": "https://dc.lft.to/lastmile_qr_scan", "android": "https://dc.lft.to/lastmile_qr_scan"}}, {"fusion_lat": 0.0, "is_disabled": 0, "lat": 38.90461, "lon": -77.03225133333333, "fusion_lon": 0.0, "bike_id": "227cca47ce3fd1cfd75c2cabd950d50d", "type": "electric_scooter", "name": "227cca47ce3fd1cfd75c2cabd950d50d", "is_reserved": 0, "rental_uris": {"ios": "https://dc.lft.to/lastmile_qr_scan", "android": "https://dc.lft.to/lastmile_qr_scan"}}, {"fusion_lat": 0.0, "is_disabled": 0, "lat": 38.8949125, "lon": -76.99506166666667, "fusion_lon": 0.0, "bike_id": "9bb7ab9b37bd7625da392105592f8363", "type": "electric_scooter", "name": "9bb7ab9b37bd7625da392105592f8363", "is_reserved": 0, "rental_uris": {"ios": "https://dc.lft.to/lastmile_qr_scan", "android": "https://dc.lft.to/lastmile_qr_scan"}}, {"fusion_lat": 0.0, "is_disabled": 0, "lat": 38.89395916666667, "lon": -77.021679, "fusion_lon": 0.0, "bike_id": "eaac2c9d87031e4117921fc957cfb531", "type": "electric_scooter", "name": "eaac2c9d87031e4117921fc957cfb531", "is_reserved": 0, "rental_uris": {"ios": "https://dc.lft.to/lastmile_qr_scan", "android": "https://dc.lft.to/lastmile_qr_scan"}}, {"fusion_lat": 0.0, "is_disabled": 0, "lat": 38.889882, "lon": -77.00335533333333, "fusion_lon": 0.0, "bike_id": "5891db3ba5bc2c4159cbaece5a07d604", "type": "electric_scooter", "name": "5891db3ba5bc2c4159cbaece5a07d604", "is_reserved": 0, "rental_uris": {"ios": "https://dc.lft.to/lastmile_qr_scan", "android": "https://dc.lft.to/lastmile_qr_scan"}}, {"fusion_lat": 0.0, "is_disabled": 0, "lat": 38.90382366666667, "lon": -77.03179316666667, "fusion_lon": 0.0, "bike_id": "6fb95313e4f44ca56e1c20e9e9b8478d", "type": "electric_scooter", "name": "6fb95313e4f44ca56e1c20e9e9b8478d", "is_reserved": 0, "rental_uris": {"ios": "https://dc.lft.to/lastmile_qr_scan", "android": "https://dc.lft.to/lastmile_qr_scan"}}, {"fusion_lat": 0.0, "is_disabled": 0, "lat": 38.916814, "lon": -77.03779583333333, "fusion_lon": 0.0, "bike_id": "cce8868a66c1ca33f11818c504021e80", "type": "electric_scooter", "name": "cce8868a66c1ca33f11818c504021e80", "is_reserved": 0, "rental_uris": {"ios": "https://dc.lft.to/lastmile_qr_scan", "android": "https://dc.lft.to/lastmile_qr_scan"}}, {"fusion_lat": 0.0, "is_disabled": 0, "lat": 38.9124995, "lon": -77.07243933333334, "fusion_lon": 0.0, "bike_id": "498a567d758fc1876232cb49d70127ad", "type": "electric_scooter", "name": "498a567d758fc1876232cb49d70127ad", "is_reserved": 0, "rental_uris": {"ios": "https://dc.lft.to/lastmile_qr_scan", "android": "https://dc.lft.to/lastmile_qr_scan"}}, {"fusion_lat": 0.0, "is_disabled": 0, "lat": 38.927053666666666, "lon": -77.02407683333334, "fusion_lon": 0.0, "bike_id": "ecdef94abe7dd6c9d78241c1e721b102", "type": "electric_scooter", "name": "ecdef94abe7dd6c9d78241c1e721b102", "is_reserved": 0, "rental_uris": {"ios": "https://dc.lft.to/lastmile_qr_scan", "android": "https://dc.lft.to/lastmile_qr_scan"}}, {"fusion_lat": 0.0, "is_disabled": 0, "lat": 38.8997615, "lon": -77.030852, "fusion_lon": 0.0, "bike_id": "a1dca827097c8c4557688f798b65c098", "type": "electric_scooter", "name": "a1dca827097c8c4557688f798b65c098", "is_reserved": 0, "rental_uris": {"ios": "https://dc.lft.to/lastmile_qr_scan", "android": "https://dc.lft.to/lastmile_qr_scan"}}, {"fusion_lat": 0.0, "is_disabled": 0, "lat": 38.908414666666665, "lon": -77.0730305, "fusion_lon": 0.0, "bike_id": "809fb364cd9eaff2d537ecdcb9dc7f56", "type": "electric_scooter", "name": "809fb364cd9eaff2d537ecdcb9dc7f56", "is_reserved": 0, "rental_uris": {"ios": "https://dc.lft.to/lastmile_qr_scan", "android": "https://dc.lft.to/lastmile_qr_scan"}}, {"fusion_lat": 0.0, "is_disabled": 0, "lat": 38.881392166666664, "lon": -76.99618466666666, "fusion_lon": 0.0, "bike_id": "fdb4c9b059b9a4223bc6829caba75dcb", "type": "electric_scooter", "name": "fdb4c9b059b9a4223bc6829caba75dcb", "is_reserved": 0, "rental_uris": {"ios": "https://dc.lft.to/lastmile_qr_scan", "android": "https://dc.lft.to/lastmile_qr_scan"}}, {"fusion_lat": 0.0, "is_disabled": 0, "lat": 38.9014485, "lon": -77.0293465, "fusion_lon": 0.0, "bike_id": "ceb6dd378b0f1bcd6aaa11faa6260feb", "type": "electric_scooter", "name": "ceb6dd378b0f1bcd6aaa11faa6260feb", "is_reserved": 0, "rental_uris": {"ios": "https://dc.lft.to/lastmile_qr_scan", "android": "https://dc.lft.to/lastmile_qr_scan"}}, {"fusion_lat": 0.0, "is_disabled": 0, "lat": 38.8922115, "lon": -77.003133, "fusion_lon": 0.0, "bike_id": "d890e8160b251338829d2f7b75b71856", "type": "electric_scooter", "name": "d890e8160b251338829d2f7b75b71856", "is_reserved": 0, "rental_uris": {"ios": "https://dc.lft.to/lastmile_qr_scan", "android": "https://dc.lft.to/lastmile_qr_scan"}}, {"fusion_lat": 0.0, "is_disabled": 0, "lat": 38.92836616666666, "lon": -76.99588483333333, "fusion_lon": 0.0, "bike_id": "25372f7e86193672f2e8cb7519c3926f", "type": "electric_scooter", "name": "25372f7e86193672f2e8cb7519c3926f", "is_reserved": 0, "rental_uris": {"ios": "https://dc.lft.to/lastmile_qr_scan", "android": "https://dc.lft.to/lastmile_qr_scan"}}, {"fusion_lat": 0.0, "is_disabled": 0, "lat": 38.91815183333333, "lon": -77.04771183333334, "fusion_lon": 0.0, "bike_id": "87daeedf79018f1262bc1d26a5a5e6a8", "type": "electric_scooter", "name": "87daeedf79018f1262bc1d26a5a5e6a8", "is_reserved": 0, "rental_uris": {"ios": "https://dc.lft.to/lastmile_qr_scan", "android": "https://dc.lft.to/lastmile_qr_scan"}}, {"fusion_lat": 0.0, "is_disabled": 0, "lat": 38.87861216666667, "lon": -76.99162666666666, "fusion_lon": 0.0, "bike_id": "0b665920b23fc74959c47e11f75bf8a7", "type": "electric_scooter", "name": "0b665920b23fc74959c47e11f75bf8a7", "is_reserved": 0, "rental_uris": {"ios": "https://dc.lft.to/lastmile_qr_scan", "android": "https://dc.lft.to/lastmile_qr_scan"}}, {"fusion_lat": 0.0, "is_disabled": 0, "lat": 38.903864666666664, "lon": -77.04664583333333, "fusion_lon": 0.0, "bike_id": "6421c88990c04f9665b5c730f2dc900d", "type": "electric_scooter", "name": "6421c88990c04f9665b5c730f2dc900d", "is_reserved": 0, "rental_uris": {"ios": "https://dc.lft.to/lastmile_qr_scan", "android": "https://dc.lft.to/lastmile_qr_scan"}}, {"fusion_lat": 0.0, "is_disabled": 0, "lat": 38.900662, "lon": -76.92748183333333, "fusion_lon": 0.0, "bike_id": "f8a0f3586050fb923609296f54fe6391", "type": "electric_scooter", "name": "f8a0f3586050fb923609296f54fe6391", "is_reserved": 0, "rental_uris": {"ios": "https://dc.lft.to/lastmile_qr_scan", "android": "https://dc.lft.to/lastmile_qr_scan"}}, {"fusion_lat": 0.0, "is_disabled": 0, "lat": 38.83079333333333, "lon": -77.042612, "fusion_lon": 0.0, "bike_id": "5ec1b33560319659d8c105109c32943a", "type": "electric_bike", "name": "5ec1b33560319659d8c105109c32943a", "is_reserved": 0, "rental_uris": {"ios": "https://dc.lft.to/lastmile_qr_scan", "android": "https://dc.lft.to/lastmile_qr_scan"}}, {"fusion_lat": 0.0, "is_disabled": 0, "lat": 38.94467983333333, "lon": -77.07804033333333, "fusion_lon": 0.0, "bike_id": "ab5525b9eacfa834ed6f2ab8e0d75891", "type": "electric_scooter", "name": "ab5525b9eacfa834ed6f2ab8e0d75891", "is_reserved": 0, "rental_uris": {"ios": "https://dc.lft.to/lastmile_qr_scan", "android": "https://dc.lft.to/lastmile_qr_scan"}}, {"fusion_lat": 0.0, "is_disabled": 0, "lat": 38.907961, "lon": -77.0498845, "fusion_lon": 0.0, "bike_id": "b3b5b484ff42bd5463e6056938496bdf", "type": "electric_scooter", "name": "b3b5b484ff42bd5463e6056938496bdf", "is_reserved": 0, "rental_uris": {"ios": "https://dc.lft.to/lastmile_qr_scan", "android": "https://dc.lft.to/lastmile_qr_scan"}}, {"fusion_lat": 0.0, "is_disabled": 0, "lat": 38.88118766666667, "lon": -76.99298933333333, "fusion_lon": 0.0, "bike_id": "2e4f5d2f4581b043613c84411b0b0dad", "type": "electric_scooter", "name": "2e4f5d2f4581b043613c84411b0b0dad", "is_reserved": 0, "rental_uris": {"ios": "https://dc.lft.to/lastmile_qr_scan", "android": "https://dc.lft.to/lastmile_qr_scan"}}, {"fusion_lat": 0.0, "is_disabled": 0, "lat": 38.926096333333334, "lon": -77.02166366666667, "fusion_lon": 0.0, "bike_id": "c7c688acefe75e0d6b3b0ebc6a60dc0d", "type": "electric_scooter", "name": "c7c688acefe75e0d6b3b0ebc6a60dc0d", "is_reserved": 0, "rental_uris": {"ios": "https://dc.lft.to/lastmile_qr_scan", "android": "https://dc.lft.to/lastmile_qr_scan"}}, {"fusion_lat": 0.0, "is_disabled": 0, "lat": 38.90975316666667, "lon": -77.03177716666667, "fusion_lon": 0.0, "bike_id": "74da3e0f63712a442b1175835701f9a1", "type": "electric_scooter", "name": "74da3e0f63712a442b1175835701f9a1", "is_reserved": 0, "rental_uris": {"ios": "https://dc.lft.to/lastmile_qr_scan", "android": "https://dc.lft.to/lastmile_qr_scan"}}, {"fusion_lat": 0.0, "is_disabled": 0, "lat": 38.8961645, "lon": -76.90757816666667, "fusion_lon": 0.0, "bike_id": "8709ce1d6b54c34a9993399bf532dbb2", "type": "electric_bike", "name": "8709ce1d6b54c34a9993399bf532dbb2", "is_reserved": 0, "rental_uris": {"ios": "https://dc.lft.to/lastmile_qr_scan", "android": "https://dc.lft.to/lastmile_qr_scan"}}, {"fusion_lat": 0.0, "is_disabled": 0, "lat": 38.88667066666667, "lon": -77.01375883333333, "fusion_lon": 0.0, "bike_id": "748b5fc72fe8a60f85728a00a8ad2d70", "type": "electric_scooter", "name": "748b5fc72fe8a60f85728a00a8ad2d70", "is_reserved": 0, "rental_uris": {"ios": "https://dc.lft.to/lastmile_qr_scan", "android": "https://dc.lft.to/lastmile_qr_scan"}}, {"fusion_lat": 0.0, "is_disabled": 0, "lat": 38.9201285, "lon": -77.071582, "fusion_lon": 0.0, "bike_id": "a39b33bd1d60f35f10b4081115f2f5a5", "type": "electric_scooter", "name": "a39b33bd1d60f35f10b4081115f2f5a5", "is_reserved": 0, "rental_uris": {"ios": "https://dc.lft.to/lastmile_qr_scan", "android": "https://dc.lft.to/lastmile_qr_scan"}}, {"fusion_lat": 0.0, "is_disabled": 0, "lat": 38.91478, "lon": -77.02198533333333, "fusion_lon": 0.0, "bike_id": "19ab5d61e5c7715e861d40ffc73d8452", "type": "electric_scooter", "name": "19ab5d61e5c7715e861d40ffc73d8452", "is_reserved": 0, "rental_uris": {"ios": "https://dc.lft.to/lastmile_qr_scan", "android": "https://dc.lft.to/lastmile_qr_scan"}}, {"fusion_lat": 0.0, "is_disabled": 0, "lat": 38.94260833333333, "lon": -77.0284815, "fusion_lon": 0.0, "bike_id": "8d7e5d26fdf4770d2f66df36ddb07e64", "type": "electric_bike", "name": "8d7e5d26fdf4770d2f66df36ddb07e64", "is_reserved": 0, "rental_uris": {"ios": "https://dc.lft.to/lastmile_qr_scan", "android": "https://dc.lft.to/lastmile_qr_scan"}}, {"fusion_lat": 0.0, "is_disabled": 0, "lat": 38.92240433333333, "lon": -77.03668, "fusion_lon": 0.0, "bike_id": "98cf30556a3f5b0fc0f28cfbe046bc0c", "type": "electric_scooter", "name": "98cf30556a3f5b0fc0f28cfbe046bc0c", "is_reserved": 0, "rental_uris": {"ios": "https://dc.lft.to/lastmile_qr_scan", "android": "https://dc.lft.to/lastmile_qr_scan"}}, {"fusion_lat": 0.0, "is_disabled": 0, "lat": 38.93345033333333, "lon": -76.9943175, "fusion_lon": 0.0, "bike_id": "a991bb851d11bc9489450f26b97cb8ea", "type": "electric_scooter", "name": "a991bb851d11bc9489450f26b97cb8ea", "is_reserved": 0, "rental_uris": {"ios": "https://dc.lft.to/lastmile_qr_scan", "android": "https://dc.lft.to/lastmile_qr_scan"}}, {"fusion_lat": 0.0, "is_disabled": 0, "lat": 38.90841016666667, "lon": -77.00234316666666, "fusion_lon": 0.0, "bike_id": "917065e7bf8e2eb689d034ede40c2329", "type": "electric_scooter", "name": "917065e7bf8e2eb689d034ede40c2329", "is_reserved": 0, "rental_uris": {"ios": "https://dc.lft.to/lastmile_qr_scan", "android": "https://dc.lft.to/lastmile_qr_scan"}}, {"fusion_lat": 0.0, "is_disabled": 0, "lat": 38.903885833333334, "lon": -76.989475, "fusion_lon": 0.0, "bike_id": "52fd7ba59eab48b45dfc7fb905ac1b0c", "type": "electric_scooter", "name": "52fd7ba59eab48b45dfc7fb905ac1b0c", "is_reserved": 0, "rental_uris": {"ios": "https://dc.lft.to/lastmile_qr_scan", "android": "https://dc.lft.to/lastmile_qr_scan"}}, {"fusion_lat": 0.0, "is_disabled": 0, "lat": 38.9180465, "lon": -77.0250925, "fusion_lon": 0.0, "bike_id": "91ab6043a785734506246a3384eacb9d", "type": "electric_scooter", "name": "91ab6043a785734506246a3384eacb9d", "is_reserved": 0, "rental_uris": {"ios": "https://dc.lft.to/lastmile_qr_scan", "android": "https://dc.lft.to/lastmile_qr_scan"}}, {"fusion_lat": 0.0, "is_disabled": 0, "lat": 38.8921915, "lon": -77.04194416666667, "fusion_lon": 0.0, "bike_id": "631334f513b19817a04ebd49b90fbfac", "type": "electric_scooter", "name": "631334f513b19817a04ebd49b90fbfac", "is_reserved": 0, "rental_uris": {"ios": "https://dc.lft.to/lastmile_qr_scan", "android": "https://dc.lft.to/lastmile_qr_scan"}}, {"fusion_lat": 0.0, "is_disabled": 0, "lat": 38.926228333333334, "lon": -77.073073, "fusion_lon": 0.0, "bike_id": "c20f5641dbb4315b66b3fa24f07e2a25", "type": "electric_scooter", "name": "c20f5641dbb4315b66b3fa24f07e2a25", "is_reserved": 0, "rental_uris": {"ios": "https://dc.lft.to/lastmile_qr_scan", "android": "https://dc.lft.to/lastmile_qr_scan"}}, {"fusion_lat": 0.0, "is_disabled": 0, "lat": 38.919854666666666, "lon": -77.02760833333333, "fusion_lon": 0.0, "bike_id": "b8399583b02e04e1c45e9f72e48cc016", "type": "electric_scooter", "name": "b8399583b02e04e1c45e9f72e48cc016", "is_reserved": 0, "rental_uris": {"ios": "https://dc.lft.to/lastmile_qr_scan", "android": "https://dc.lft.to/lastmile_qr_scan"}}, {"fusion_lat": 0.0, "is_disabled": 0, "lat": 38.9146955, "lon": -77.03860266666666, "fusion_lon": 0.0, "bike_id": "81d2357592a420efd665adef2fec9c7e", "type": "electric_scooter", "name": "81d2357592a420efd665adef2fec9c7e", "is_reserved": 0, "rental_uris": {"ios": "https://dc.lft.to/lastmile_qr_scan", "android": "https://dc.lft.to/lastmile_qr_scan"}}, {"fusion_lat": 0.0, "is_disabled": 0, "lat": 38.902656, "lon": -77.04600833333333, "fusion_lon": 0.0, "bike_id": "23bcebc5c5404ccff1f1b17b0c57e96b", "type": "electric_scooter", "name": "23bcebc5c5404ccff1f1b17b0c57e96b", "is_reserved": 0, "rental_uris": {"ios": "https://dc.lft.to/lastmile_qr_scan", "android": "https://dc.lft.to/lastmile_qr_scan"}}, {"fusion_lat": 0.0, "is_disabled": 0, "lat": 38.87365233333333, "lon": -77.00079633333333, "fusion_lon": 0.0, "bike_id": "59d4dbfa453dd7d3844427e91eba6555", "type": "electric_scooter", "name": "59d4dbfa453dd7d3844427e91eba6555", "is_reserved": 0, "rental_uris": {"ios": "https://dc.lft.to/lastmile_qr_scan", "android": "https://dc.lft.to/lastmile_qr_scan"}}, {"fusion_lat": 0.0, "is_disabled": 0, "lat": 38.887064333333335, "lon": -76.98340533333334, "fusion_lon": 0.0, "bike_id": "2d391039b3f686362aeeb7ed3852502b", "type": "electric_scooter", "name": "2d391039b3f686362aeeb7ed3852502b", "is_reserved": 0, "rental_uris": {"ios": "https://dc.lft.to/lastmile_qr_scan", "android": "https://dc.lft.to/lastmile_qr_scan"}}, {"fusion_lat": 0.0, "is_disabled": 0, "lat": 38.9267325, "lon": -77.02750116666667, "fusion_lon": 0.0, "bike_id": "e592d9a9ac5a591b70c5ba5955a47a91", "type": "electric_scooter", "name": "e592d9a9ac5a591b70c5ba5955a47a91", "is_reserved": 0, "rental_uris": {"ios": "https://dc.lft.to/lastmile_qr_scan", "android": "https://dc.lft.to/lastmile_qr_scan"}}, {"fusion_lat": 0.0, "is_disabled": 0, "lat": 38.9246265, "lon": -77.02201166666667, "fusion_lon": 0.0, "bike_id": "172eb3a1dada36e634c519d5a8513111", "type": "electric_scooter", "name": "172eb3a1dada36e634c519d5a8513111", "is_reserved": 0, "rental_uris": {"ios": "https://dc.lft.to/lastmile_qr_scan", "android": "https://dc.lft.to/lastmile_qr_scan"}}, {"fusion_lat": 0.0, "is_disabled": 0, "lat": 38.91414316666667, "lon": -77.05210233333334, "fusion_lon": 0.0, "bike_id": "6372209ba060f08429f08f8ff7b253c1", "type": "electric_scooter", "name": "6372209ba060f08429f08f8ff7b253c1", "is_reserved": 0, "rental_uris": {"ios": "https://dc.lft.to/lastmile_qr_scan", "android": "https://dc.lft.to/lastmile_qr_scan"}}, {"fusion_lat": 0.0, "is_disabled": 0, "lat": 38.89223883333333, "lon": -77.04689083333334, "fusion_lon": 0.0, "bike_id": "17d8518b79d891430d5ef3c8cbad1eb3", "type": "electric_scooter", "name": "17d8518b79d891430d5ef3c8cbad1eb3", "is_reserved": 0, "rental_uris": {"ios": "https://dc.lft.to/lastmile_qr_scan", "android": "https://dc.lft.to/lastmile_qr_scan"}}, {"fusion_lat": 0.0, "is_disabled": 0, "lat": 38.916199166666665, "lon": -77.03643116666667, "fusion_lon": 0.0, "bike_id": "cf3255ca3a2dde757c1f40589e978f00", "type": "electric_scooter", "name": "cf3255ca3a2dde757c1f40589e978f00", "is_reserved": 0, "rental_uris": {"ios": "https://dc.lft.to/lastmile_qr_scan", "android": "https://dc.lft.to/lastmile_qr_scan"}}, {"fusion_lat": 0.0, "is_disabled": 0, "lat": 38.898284333333336, "lon": -77.04614983333333, "fusion_lon": 0.0, "bike_id": "426d0a4984b61e223632426c1bee7c2f", "type": "electric_scooter", "name": "426d0a4984b61e223632426c1bee7c2f", "is_reserved": 0, "rental_uris": {"ios": "https://dc.lft.to/lastmile_qr_scan", "android": "https://dc.lft.to/lastmile_qr_scan"}}, {"fusion_lat": 0.0, "is_disabled": 0, "lat": 38.90029233333333, "lon": -77.03625433333333, "fusion_lon": 0.0, "bike_id": "253d0c6912fa2ed2ec8f0bad5b44a3b8", "type": "electric_scooter", "name": "253d0c6912fa2ed2ec8f0bad5b44a3b8", "is_reserved": 0, "rental_uris": {"ios": "https://dc.lft.to/lastmile_qr_scan", "android": "https://dc.lft.to/lastmile_qr_scan"}}, {"fusion_lat": 0.0, "is_disabled": 0, "lat": 38.931448333333336, "lon": -77.07840833333333, "fusion_lon": 0.0, "bike_id": "8c5d8ad53b7c6540753a75f0e1becb87", "type": "electric_scooter", "name": "8c5d8ad53b7c6540753a75f0e1becb87", "is_reserved": 0, "rental_uris": {"ios": "https://dc.lft.to/lastmile_qr_scan", "android": "https://dc.lft.to/lastmile_qr_scan"}}, {"fusion_lat": 0.0, "is_disabled": 0, "lat": 38.892256333333336, "lon": -77.003119, "fusion_lon": 0.0, "bike_id": "ded363d7d30185cc621f29795cf07cf9", "type": "electric_scooter", "name": "ded363d7d30185cc621f29795cf07cf9", "is_reserved": 0, "rental_uris": {"ios": "https://dc.lft.to/lastmile_qr_scan", "android": "https://dc.lft.to/lastmile_qr_scan"}}, {"fusion_lat": 0.0, "is_disabled": 0, "lat": 38.90669283333333, "lon": -77.02698083333334, "fusion_lon": 0.0, "bike_id": "34c769375aaa924556b6e5b5b57cfda6", "type": "electric_scooter", "name": "34c769375aaa924556b6e5b5b57cfda6", "is_reserved": 0, "rental_uris": {"ios": "https://dc.lft.to/lastmile_qr_scan", "android": "https://dc.lft.to/lastmile_qr_scan"}}, {"fusion_lat": 0.0, "is_disabled": 0, "lat": 38.8762135, "lon": -77.00231683333334, "fusion_lon": 0.0, "bike_id": "e0af7599c96d09fa8186be593af781a0", "type": "electric_scooter", "name": "e0af7599c96d09fa8186be593af781a0", "is_reserved": 0, "rental_uris": {"ios": "https://dc.lft.to/lastmile_qr_scan", "android": "https://dc.lft.to/lastmile_qr_scan"}}, {"fusion_lat": 0.0, "is_disabled": 0, "lat": 38.90764216666667, "lon": -76.99302066666667, "fusion_lon": 0.0, "bike_id": "eec385b029b0fa8a0de101a9588b5c3a", "type": "electric_scooter", "name": "eec385b029b0fa8a0de101a9588b5c3a", "is_reserved": 0, "rental_uris": {"ios": "https://dc.lft.to/lastmile_qr_scan", "android": "https://dc.lft.to/lastmile_qr_scan"}}, {"fusion_lat": 0.0, "is_disabled": 0, "lat": 38.902431, "lon": -77.02771, "fusion_lon": 0.0, "bike_id": "1127749d72bea2675d74ae2797745dba", "type": "electric_scooter", "name": "1127749d72bea2675d74ae2797745dba", "is_reserved": 0, "rental_uris": {"ios": "https://dc.lft.to/lastmile_qr_scan", "android": "https://dc.lft.to/lastmile_qr_scan"}}, {"fusion_lat": 0.0, "is_disabled": 0, "lat": 38.9170385, "lon": -77.03895366666667, "fusion_lon": 0.0, "bike_id": "733ff1b4f6dae69cb85d8c8ba3c7378f", "type": "electric_scooter", "name": "733ff1b4f6dae69cb85d8c8ba3c7378f", "is_reserved": 0, "rental_uris": {"ios": "https://dc.lft.to/lastmile_qr_scan", "android": "https://dc.lft.to/lastmile_qr_scan"}}, {"fusion_lat": 0.0, "is_disabled": 0, "lat": 38.88221383333333, "lon": -76.9973915, "fusion_lon": 0.0, "bike_id": "d97cb12f7c0b4759a67bb32129844775", "type": "electric_scooter", "name": "d97cb12f7c0b4759a67bb32129844775", "is_reserved": 0, "rental_uris": {"ios": "https://dc.lft.to/lastmile_qr_scan", "android": "https://dc.lft.to/lastmile_qr_scan"}}, {"fusion_lat": 0.0, "is_disabled": 0, "lat": 38.824249, "lon": -77.1204135, "fusion_lon": 0.0, "bike_id": "c9547f163ff0c1827d8b275270edd91b", "type": "electric_bike", "name": "c9547f163ff0c1827d8b275270edd91b", "is_reserved": 0, "rental_uris": {"ios": "https://dc.lft.to/lastmile_qr_scan", "android": "https://dc.lft.to/lastmile_qr_scan"}}, {"fusion_lat": 0.0, "is_disabled": 0, "lat": 38.86551383333333, "lon": -76.97483866666667, "fusion_lon": 0.0, "bike_id": "6372cb7a394cd72f873b1da33eb093e4", "type": "electric_bike", "name": "6372cb7a394cd72f873b1da33eb093e4", "is_reserved": 0, "rental_uris": {"ios": "https://dc.lft.to/lastmile_qr_scan", "android": "https://dc.lft.to/lastmile_qr_scan"}}, {"fusion_lat": 0.0, "is_disabled": 0, "lat": 38.8725085, "lon": -77.01076733333333, "fusion_lon": 0.0, "bike_id": "34e3b8ea2e1e70f4847fcccdab3a057a", "type": "electric_scooter", "name": "34e3b8ea2e1e70f4847fcccdab3a057a", "is_reserved": 0, "rental_uris": {"ios": "https://dc.lft.to/lastmile_qr_scan", "android": "https://dc.lft.to/lastmile_qr_scan"}}, {"fusion_lat": 0.0, "is_disabled": 0, "lat": 38.911978500000004, "lon": -77.03181316666667, "fusion_lon": 0.0, "bike_id": "64beb7dbb2d95be8354287c6fc32a829", "type": "electric_scooter", "name": "64beb7dbb2d95be8354287c6fc32a829", "is_reserved": 0, "rental_uris": {"ios": "https://dc.lft.to/lastmile_qr_scan", "android": "https://dc.lft.to/lastmile_qr_scan"}}, {"fusion_lat": 0.0, "is_disabled": 0, "lat": 38.87747516666667, "lon": -77.003956, "fusion_lon": 0.0, "bike_id": "db0b654fb5895c4752d0c051553a828d", "type": "electric_scooter", "name": "db0b654fb5895c4752d0c051553a828d", "is_reserved": 0, "rental_uris": {"ios": "https://dc.lft.to/lastmile_qr_scan", "android": "https://dc.lft.to/lastmile_qr_scan"}}, {"fusion_lat": 0.0, "is_disabled": 0, "lat": 38.85637833333333, "lon": -77.068366, "fusion_lon": 0.0, "bike_id": "c106ca04510c5791461a4026a2b4cf5d", "type": "electric_bike", "name": "c106ca04510c5791461a4026a2b4cf5d", "is_reserved": 0, "rental_uris": {"ios": "https://dc.lft.to/lastmile_qr_scan", "android": "https://dc.lft.to/lastmile_qr_scan"}}, {"fusion_lat": 0.0, "is_disabled": 0, "lat": 38.933988666666664, "lon": -77.04141, "fusion_lon": 0.0, "bike_id": "ae6beda0950e71d3f48563f8176efc7e", "type": "electric_scooter", "name": "ae6beda0950e71d3f48563f8176efc7e", "is_reserved": 0, "rental_uris": {"ios": "https://dc.lft.to/lastmile_qr_scan", "android": "https://dc.lft.to/lastmile_qr_scan"}}, {"fusion_lat": 0.0, "is_disabled": 0, "lat": 38.896032166666664, "lon": -77.029848, "fusion_lon": 0.0, "bike_id": "4f99abcdaa7ba4c3ba5bdd51972c2511", "type": "electric_scooter", "name": "4f99abcdaa7ba4c3ba5bdd51972c2511", "is_reserved": 0, "rental_uris": {"ios": "https://dc.lft.to/lastmile_qr_scan", "android": "https://dc.lft.to/lastmile_qr_scan"}}, {"fusion_lat": 0.0, "is_disabled": 0, "lat": 38.926807833333335, "lon": -77.02306683333333, "fusion_lon": 0.0, "bike_id": "b54db22174a948b76221221fc017cfdf", "type": "electric_scooter", "name": "b54db22174a948b76221221fc017cfdf", "is_reserved": 0, "rental_uris": {"ios": "https://dc.lft.to/lastmile_qr_scan", "android": "https://dc.lft.to/lastmile_qr_scan"}}, {"fusion_lat": 0.0, "is_disabled": 0, "lat": 38.85893333333333, "lon": -76.98927283333333, "fusion_lon": 0.0, "bike_id": "58e7cfa5800c161ec317fb6d377245c4", "type": "electric_scooter", "name": "58e7cfa5800c161ec317fb6d377245c4", "is_reserved": 0, "rental_uris": {"ios": "https://dc.lft.to/lastmile_qr_scan", "android": "https://dc.lft.to/lastmile_qr_scan"}}, {"fusion_lat": 0.0, "is_disabled": 0, "lat": 38.906505833333334, "lon": -77.01691533333333, "fusion_lon": 0.0, "bike_id": "21c7b50cdd1e9d40154c1de549b2bca9", "type": "electric_scooter", "name": "21c7b50cdd1e9d40154c1de549b2bca9", "is_reserved": 0, "rental_uris": {"ios": "https://dc.lft.to/lastmile_qr_scan", "android": "https://dc.lft.to/lastmile_qr_scan"}}, {"fusion_lat": 0.0, "is_disabled": 0, "lat": 38.9134695, "lon": -77.02054783333334, "fusion_lon": 0.0, "bike_id": "ee11cfb435117386e61b6847cd449e8b", "type": "electric_scooter", "name": "ee11cfb435117386e61b6847cd449e8b", "is_reserved": 0, "rental_uris": {"ios": "https://dc.lft.to/lastmile_qr_scan", "android": "https://dc.lft.to/lastmile_qr_scan"}}, {"fusion_lat": 0.0, "is_disabled": 0, "lat": 38.919937, "lon": -76.98489916666666, "fusion_lon": 0.0, "bike_id": "ba065f0dbb8fa7846acc62089473bb13", "type": "electric_scooter", "name": "ba065f0dbb8fa7846acc62089473bb13", "is_reserved": 0, "rental_uris": {"ios": "https://dc.lft.to/lastmile_qr_scan", "android": "https://dc.lft.to/lastmile_qr_scan"}}, {"fusion_lat": 0.0, "is_disabled": 0, "lat": 38.912583166666664, "lon": -77.0387345, "fusion_lon": 0.0, "bike_id": "eec8bc69e449f6d263e4e3021482abe1", "type": "electric_scooter", "name": "eec8bc69e449f6d263e4e3021482abe1", "is_reserved": 0, "rental_uris": {"ios": "https://dc.lft.to/lastmile_qr_scan", "android": "https://dc.lft.to/lastmile_qr_scan"}}, {"fusion_lat": 0.0, "is_disabled": 0, "lat": 38.886525166666665, "lon": -77.00192783333334, "fusion_lon": 0.0, "bike_id": "e44e0d0c4f95456dc31a439961a74878", "type": "electric_scooter", "name": "e44e0d0c4f95456dc31a439961a74878", "is_reserved": 0, "rental_uris": {"ios": "https://dc.lft.to/lastmile_qr_scan", "android": "https://dc.lft.to/lastmile_qr_scan"}}, {"fusion_lat": 0.0, "is_disabled": 0, "lat": 38.920613, "lon": -77.02368233333333, "fusion_lon": 0.0, "bike_id": "61bca39bad7d95f063d0bc70ebc9df8e", "type": "electric_scooter", "name": "61bca39bad7d95f063d0bc70ebc9df8e", "is_reserved": 0, "rental_uris": {"ios": "https://dc.lft.to/lastmile_qr_scan", "android": "https://dc.lft.to/lastmile_qr_scan"}}, {"fusion_lat": 0.0, "is_disabled": 0, "lat": 38.9050145, "lon": -77.06715916666667, "fusion_lon": 0.0, "bike_id": "18ea94fd290e9c6a154bfae9cc7388a2", "type": "electric_scooter", "name": "18ea94fd290e9c6a154bfae9cc7388a2", "is_reserved": 0, "rental_uris": {"ios": "https://dc.lft.to/lastmile_qr_scan", "android": "https://dc.lft.to/lastmile_qr_scan"}}, {"fusion_lat": 0.0, "is_disabled": 0, "lat": 38.931717666666664, "lon": -77.03545616666666, "fusion_lon": 0.0, "bike_id": "69fb51b5ccb71970e0340f4ddff58f8a", "type": "electric_bike", "name": "69fb51b5ccb71970e0340f4ddff58f8a", "is_reserved": 0, "rental_uris": {"ios": "https://dc.lft.to/lastmile_qr_scan", "android": "https://dc.lft.to/lastmile_qr_scan"}}, {"fusion_lat": 0.0, "is_disabled": 0, "lat": 39.042332333333334, "lon": -76.997361, "fusion_lon": 0.0, "bike_id": "dbd64b406386d51af5ad113128b9a5c8", "type": "electric_bike", "name": "dbd64b406386d51af5ad113128b9a5c8", "is_reserved": 0, "rental_uris": {"ios": "https://dc.lft.to/lastmile_qr_scan", "android": "https://dc.lft.to/lastmile_qr_scan"}}, {"fusion_lat": 0.0, "is_disabled": 0, "lat": 38.930756333333335, "lon": -77.02172783333333, "fusion_lon": 0.0, "bike_id": "b4f8f720d7eaa94f93159d10983df54e", "type": "electric_scooter", "name": "b4f8f720d7eaa94f93159d10983df54e", "is_reserved": 0, "rental_uris": {"ios": "https://dc.lft.to/lastmile_qr_scan", "android": "https://dc.lft.to/lastmile_qr_scan"}}, {"fusion_lat": 0.0, "is_disabled": 0, "lat": 38.92389466666667, "lon": -77.00075, "fusion_lon": 0.0, "bike_id": "3cefadfaf8d4e289db44381cdc086141", "type": "electric_scooter", "name": "3cefadfaf8d4e289db44381cdc086141", "is_reserved": 0, "rental_uris": {"ios": "https://dc.lft.to/lastmile_qr_scan", "android": "https://dc.lft.to/lastmile_qr_scan"}}, {"fusion_lat": 0.0, "is_disabled": 0, "lat": 38.92482366666667, "lon": -77.03015583333334, "fusion_lon": 0.0, "bike_id": "684b88297a09e65f366ab27295b2038e", "type": "electric_scooter", "name": "684b88297a09e65f366ab27295b2038e", "is_reserved": 0, "rental_uris": {"ios": "https://dc.lft.to/lastmile_qr_scan", "android": "https://dc.lft.to/lastmile_qr_scan"}}, {"fusion_lat": 0.0, "is_disabled": 0, "lat": 38.894873833333335, "lon": -76.94894, "fusion_lon": 0.0, "bike_id": "498c451de3e2c8fe86444d775d05c665", "type": "electric_scooter", "name": "498c451de3e2c8fe86444d775d05c665", "is_reserved": 0, "rental_uris": {"ios": "https://dc.lft.to/lastmile_qr_scan", "android": "https://dc.lft.to/lastmile_qr_scan"}}, {"fusion_lat": 0.0, "is_disabled": 0, "lat": 38.92408283333333, "lon": -77.020349, "fusion_lon": 0.0, "bike_id": "17e39c62867a39e741375fa18427271b", "type": "electric_scooter", "name": "17e39c62867a39e741375fa18427271b", "is_reserved": 0, "rental_uris": {"ios": "https://dc.lft.to/lastmile_qr_scan", "android": "https://dc.lft.to/lastmile_qr_scan"}}, {"fusion_lat": 0.0, "is_disabled": 0, "lat": 38.957327, "lon": -77.0240255, "fusion_lon": 0.0, "bike_id": "78b5b21f7f4882aea640cb496261de18", "type": "electric_scooter", "name": "78b5b21f7f4882aea640cb496261de18", "is_reserved": 0, "rental_uris": {"ios": "https://dc.lft.to/lastmile_qr_scan", "android": "https://dc.lft.to/lastmile_qr_scan"}}, {"fusion_lat": 0.0, "is_disabled": 0, "lat": 38.93462866666667, "lon": -77.0581205, "fusion_lon": 0.0, "bike_id": "f7f04241260c2cbc4b8f537071408c4c", "type": "electric_scooter", "name": "f7f04241260c2cbc4b8f537071408c4c", "is_reserved": 0, "rental_uris": {"ios": "https://dc.lft.to/lastmile_qr_scan", "android": "https://dc.lft.to/lastmile_qr_scan"}}, {"fusion_lat": 0.0, "is_disabled": 0, "lat": 38.91956916666667, "lon": -77.04179283333333, "fusion_lon": 0.0, "bike_id": "47df37278a83fe38fff30fdac92cd9a1", "type": "electric_scooter", "name": "47df37278a83fe38fff30fdac92cd9a1", "is_reserved": 0, "rental_uris": {"ios": "https://dc.lft.to/lastmile_qr_scan", "android": "https://dc.lft.to/lastmile_qr_scan"}}, {"fusion_lat": 0.0, "is_disabled": 0, "lat": 38.923471, "lon": -77.04350583333333, "fusion_lon": 0.0, "bike_id": "6ccc8544e300869e9f2dfa00b708b2bd", "type": "electric_scooter", "name": "6ccc8544e300869e9f2dfa00b708b2bd", "is_reserved": 0, "rental_uris": {"ios": "https://dc.lft.to/lastmile_qr_scan", "android": "https://dc.lft.to/lastmile_qr_scan"}}, {"fusion_lat": 0.0, "is_disabled": 0, "lat": 38.951070666666666, "lon": -77.0887725, "fusion_lon": 0.0, "bike_id": "e61a4afdf9bfbbe6b767becc78b496e9", "type": "electric_bike", "name": "e61a4afdf9bfbbe6b767becc78b496e9", "is_reserved": 0, "rental_uris": {"ios": "https://dc.lft.to/lastmile_qr_scan", "android": "https://dc.lft.to/lastmile_qr_scan"}}, {"fusion_lat": 0.0, "is_disabled": 0, "lat": 38.9369345, "lon": -77.0561455, "fusion_lon": 0.0, "bike_id": "1637b481257313c226483bb55b3b7bc2", "type": "electric_scooter", "name": "1637b481257313c226483bb55b3b7bc2", "is_reserved": 0, "rental_uris": {"ios": "https://dc.lft.to/lastmile_qr_scan", "android": "https://dc.lft.to/lastmile_qr_scan"}}, {"fusion_lat": 0.0, "is_disabled": 0, "lat": 38.900339833333334, "lon": -77.03207, "fusion_lon": 0.0, "bike_id": "12adcd970242dbdba1caaf4e11767515", "type": "electric_scooter", "name": "12adcd970242dbdba1caaf4e11767515", "is_reserved": 0, "rental_uris": {"ios": "https://dc.lft.to/lastmile_qr_scan", "android": "https://dc.lft.to/lastmile_qr_scan"}}, {"fusion_lat": 0.0, "is_disabled": 0, "lat": 38.91064266666667, "lon": -77.04487283333333, "fusion_lon": 0.0, "bike_id": "97ff45b6af9ed541daa3c99611271d87", "type": "electric_scooter", "name": "97ff45b6af9ed541daa3c99611271d87", "is_reserved": 0, "rental_uris": {"ios": "https://dc.lft.to/lastmile_qr_scan", "android": "https://dc.lft.to/lastmile_qr_scan"}}, {"fusion_lat": 0.0, "is_disabled": 0, "lat": 38.8970395, "lon": -77.02289083333334, "fusion_lon": 0.0, "bike_id": "8e9dbf7f56a120c3873083486da0127e", "type": "electric_scooter", "name": "8e9dbf7f56a120c3873083486da0127e", "is_reserved": 0, "rental_uris": {"ios": "https://dc.lft.to/lastmile_qr_scan", "android": "https://dc.lft.to/lastmile_qr_scan"}}, {"fusion_lat": 0.0, "is_disabled": 0, "lat": 38.920534833333335, "lon": -77.041847, "fusion_lon": 0.0, "bike_id": "bcd3fedbc315ef3cc71fe74060171462", "type": "electric_scooter", "name": "bcd3fedbc315ef3cc71fe74060171462", "is_reserved": 0, "rental_uris": {"ios": "https://dc.lft.to/lastmile_qr_scan", "android": "https://dc.lft.to/lastmile_qr_scan"}}, {"fusion_lat": 0.0, "is_disabled": 0, "lat": 38.918562, "lon": -76.96086616666666, "fusion_lon": 0.0, "bike_id": "62db3409d506a9bc6a6554be43578886", "type": "electric_bike", "name": "62db3409d506a9bc6a6554be43578886", "is_reserved": 0, "rental_uris": {"ios": "https://dc.lft.to/lastmile_qr_scan", "android": "https://dc.lft.to/lastmile_qr_scan"}}, {"fusion_lat": 0.0, "is_disabled": 0, "lat": 38.9231475, "lon": -77.01954066666667, "fusion_lon": 0.0, "bike_id": "224a0afc4a312b81b4214e0c9c3fd8af", "type": "electric_scooter", "name": "224a0afc4a312b81b4214e0c9c3fd8af", "is_reserved": 0, "rental_uris": {"ios": "https://dc.lft.to/lastmile_qr_scan", "android": "https://dc.lft.to/lastmile_qr_scan"}}, {"fusion_lat": 0.0, "is_disabled": 0, "lat": 38.922364333333334, "lon": -77.03669816666667, "fusion_lon": 0.0, "bike_id": "46759e9a5c4be087f25abbd4a8bd4e8b", "type": "electric_scooter", "name": "46759e9a5c4be087f25abbd4a8bd4e8b", "is_reserved": 0, "rental_uris": {"ios": "https://dc.lft.to/lastmile_qr_scan", "android": "https://dc.lft.to/lastmile_qr_scan"}}, {"fusion_lat": 0.0, "is_disabled": 0, "lat": 38.903027, "lon": -77.02162216666666, "fusion_lon": 0.0, "bike_id": "f9341ae84a7de9452f56f40ccc7a6591", "type": "electric_scooter", "name": "f9341ae84a7de9452f56f40ccc7a6591", "is_reserved": 0, "rental_uris": {"ios": "https://dc.lft.to/lastmile_qr_scan", "android": "https://dc.lft.to/lastmile_qr_scan"}}, {"fusion_lat": 0.0, "is_disabled": 0, "lat": 38.901482, "lon": -76.97423016666667, "fusion_lon": 0.0, "bike_id": "d44bee840024a082c708b8101bfd5be0", "type": "electric_scooter", "name": "d44bee840024a082c708b8101bfd5be0", "is_reserved": 0, "rental_uris": {"ios": "https://dc.lft.to/lastmile_qr_scan", "android": "https://dc.lft.to/lastmile_qr_scan"}}, {"fusion_lat": 0.0, "is_disabled": 0, "lat": 38.94654633333333, "lon": -77.022552, "fusion_lon": 0.0, "bike_id": "2189155fa13651b9bca006399c2baf68", "type": "electric_scooter", "name": "2189155fa13651b9bca006399c2baf68", "is_reserved": 0, "rental_uris": {"ios": "https://dc.lft.to/lastmile_qr_scan", "android": "https://dc.lft.to/lastmile_qr_scan"}}, {"fusion_lat": 0.0, "is_disabled": 0, "lat": 38.8292235, "lon": -77.0688105, "fusion_lon": 0.0, "bike_id": "37fce16c6366b87a92181de2f3f731aa", "type": "electric_bike", "name": "37fce16c6366b87a92181de2f3f731aa", "is_reserved": 0, "rental_uris": {"ios": "https://dc.lft.to/lastmile_qr_scan", "android": "https://dc.lft.to/lastmile_qr_scan"}}, {"fusion_lat": 0.0, "is_disabled": 0, "lat": 38.91779116666667, "lon": -77.02317166666667, "fusion_lon": 0.0, "bike_id": "3527beef05e694e5805e1d7f137b6c4e", "type": "electric_scooter", "name": "3527beef05e694e5805e1d7f137b6c4e", "is_reserved": 0, "rental_uris": {"ios": "https://dc.lft.to/lastmile_qr_scan", "android": "https://dc.lft.to/lastmile_qr_scan"}}, {"fusion_lat": 0.0, "is_disabled": 0, "lat": 38.96504383333333, "lon": -77.03367933333334, "fusion_lon": 0.0, "bike_id": "f04597c22fa2144ba7c17956858689dc", "type": "electric_bike", "name": "f04597c22fa2144ba7c17956858689dc", "is_reserved": 0, "rental_uris": {"ios": "https://dc.lft.to/lastmile_qr_scan", "android": "https://dc.lft.to/lastmile_qr_scan"}}, {"fusion_lat": 0.0, "is_disabled": 0, "lat": 38.886574, "lon": -77.16235183333333, "fusion_lon": 0.0, "bike_id": "fe1bb2ee3558179a05b9794bb6c864c7", "type": "electric_bike", "name": "fe1bb2ee3558179a05b9794bb6c864c7", "is_reserved": 0, "rental_uris": {"ios": "https://dc.lft.to/lastmile_qr_scan", "android": "https://dc.lft.to/lastmile_qr_scan"}}, {"fusion_lat": 0.0, "is_disabled": 0, "lat": 38.89502983333333, "lon": -77.0417445, "fusion_lon": 0.0, "bike_id": "8e3ab43e6300e58b3a8fc36439685bdf", "type": "electric_scooter", "name": "8e3ab43e6300e58b3a8fc36439685bdf", "is_reserved": 0, "rental_uris": {"ios": "https://dc.lft.to/lastmile_qr_scan", "android": "https://dc.lft.to/lastmile_qr_scan"}}, {"fusion_lat": 0.0, "is_disabled": 0, "lat": 38.904194333333336, "lon": -77.03447916666667, "fusion_lon": 0.0, "bike_id": "833063cddbeaa77f7fb19e26e28905eb", "type": "electric_scooter", "name": "833063cddbeaa77f7fb19e26e28905eb", "is_reserved": 0, "rental_uris": {"ios": "https://dc.lft.to/lastmile_qr_scan", "android": "https://dc.lft.to/lastmile_qr_scan"}}, {"fusion_lat": 0.0, "is_disabled": 0, "lat": 38.874564166666666, "lon": -77.00943833333334, "fusion_lon": 0.0, "bike_id": "34854747c6326270aa2fcf931e0c24f8", "type": "electric_scooter", "name": "34854747c6326270aa2fcf931e0c24f8", "is_reserved": 0, "rental_uris": {"ios": "https://dc.lft.to/lastmile_qr_scan", "android": "https://dc.lft.to/lastmile_qr_scan"}}, {"fusion_lat": 0.0, "is_disabled": 0, "lat": 38.8998945, "lon": -77.01591016666667, "fusion_lon": 0.0, "bike_id": "702e07b9ed152c8dec3bb70cec5bd970", "type": "electric_scooter", "name": "702e07b9ed152c8dec3bb70cec5bd970", "is_reserved": 0, "rental_uris": {"ios": "https://dc.lft.to/lastmile_qr_scan", "android": "https://dc.lft.to/lastmile_qr_scan"}}, {"fusion_lat": 0.0, "is_disabled": 0, "lat": 38.8900495, "lon": -76.92116033333333, "fusion_lon": 0.0, "bike_id": "604f7dce3f6fff360454403b9381ac50", "type": "electric_scooter", "name": "604f7dce3f6fff360454403b9381ac50", "is_reserved": 0, "rental_uris": {"ios": "https://dc.lft.to/lastmile_qr_scan", "android": "https://dc.lft.to/lastmile_qr_scan"}}, {"fusion_lat": 0.0, "is_disabled": 0, "lat": 38.898832166666665, "lon": -76.93180933333333, "fusion_lon": 0.0, "bike_id": "8baa21769434fb43e0079dbfd380e2ef", "type": "electric_scooter", "name": "8baa21769434fb43e0079dbfd380e2ef", "is_reserved": 0, "rental_uris": {"ios": "https://dc.lft.to/lastmile_qr_scan", "android": "https://dc.lft.to/lastmile_qr_scan"}}, {"fusion_lat": 0.0, "is_disabled": 0, "lat": 38.892278, "lon": -77.04879166666667, "fusion_lon": 0.0, "bike_id": "27f8002fabcdb3fa6ac6782f0b81f545", "type": "electric_scooter", "name": "27f8002fabcdb3fa6ac6782f0b81f545", "is_reserved": 0, "rental_uris": {"ios": "https://dc.lft.to/lastmile_qr_scan", "android": "https://dc.lft.to/lastmile_qr_scan"}}, {"fusion_lat": 0.0, "is_disabled": 0, "lat": 38.89885133333333, "lon": -77.029725, "fusion_lon": 0.0, "bike_id": "e7a25767ea55d6ba83d25b937b874794", "type": "electric_scooter", "name": "e7a25767ea55d6ba83d25b937b874794", "is_reserved": 0, "rental_uris": {"ios": "https://dc.lft.to/lastmile_qr_scan", "android": "https://dc.lft.to/lastmile_qr_scan"}}, {"fusion_lat": 0.0, "is_disabled": 0, "lat": 38.879946, "lon": -76.98545516666667, "fusion_lon": 0.0, "bike_id": "42fd5014d569491b946bc44f874f1f8b", "type": "electric_scooter", "name": "42fd5014d569491b946bc44f874f1f8b", "is_reserved": 0, "rental_uris": {"ios": "https://dc.lft.to/lastmile_qr_scan", "android": "https://dc.lft.to/lastmile_qr_scan"}}, {"fusion_lat": 0.0, "is_disabled": 0, "lat": 38.8922055, "lon": -77.03132483333333, "fusion_lon": 0.0, "bike_id": "a7bd9bb4108f65465a2db32dafecc4d4", "type": "electric_scooter", "name": "a7bd9bb4108f65465a2db32dafecc4d4", "is_reserved": 0, "rental_uris": {"ios": "https://dc.lft.to/lastmile_qr_scan", "android": "https://dc.lft.to/lastmile_qr_scan"}}, {"fusion_lat": 0.0, "is_disabled": 0, "lat": 38.9339045, "lon": -77.02315233333333, "fusion_lon": 0.0, "bike_id": "d8b81938254b4d02741d2cc9471b9938", "type": "electric_scooter", "name": "d8b81938254b4d02741d2cc9471b9938", "is_reserved": 0, "rental_uris": {"ios": "https://dc.lft.to/lastmile_qr_scan", "android": "https://dc.lft.to/lastmile_qr_scan"}}, {"fusion_lat": 0.0, "is_disabled": 0, "lat": 38.8854145, "lon": -77.11689733333333, "fusion_lon": 0.0, "bike_id": "748544913f1f2b9478c3a06fa2bafa1f", "type": "electric_bike", "name": "748544913f1f2b9478c3a06fa2bafa1f", "is_reserved": 0, "rental_uris": {"ios": "https://dc.lft.to/lastmile_qr_scan", "android": "https://dc.lft.to/lastmile_qr_scan"}}, {"fusion_lat": 0.0, "is_disabled": 0, "lat": 38.91687833333334, "lon": -77.021815, "fusion_lon": 0.0, "bike_id": "3269f56423632fb0fb30698454798680", "type": "electric_scooter", "name": "3269f56423632fb0fb30698454798680", "is_reserved": 0, "rental_uris": {"ios": "https://dc.lft.to/lastmile_qr_scan", "android": "https://dc.lft.to/lastmile_qr_scan"}}, {"fusion_lat": 0.0, "is_disabled": 0, "lat": 38.9147585, "lon": -77.0215665, "fusion_lon": 0.0, "bike_id": "5e673d79cecd36e924917f885b961586", "type": "electric_scooter", "name": "5e673d79cecd36e924917f885b961586", "is_reserved": 0, "rental_uris": {"ios": "https://dc.lft.to/lastmile_qr_scan", "android": "https://dc.lft.to/lastmile_qr_scan"}}, {"fusion_lat": 0.0, "is_disabled": 0, "lat": 38.88290683333334, "lon": -76.9290855, "fusion_lon": 0.0, "bike_id": "5ad4fbaf660c311e52a1ce1c13204278", "type": "electric_scooter", "name": "5ad4fbaf660c311e52a1ce1c13204278", "is_reserved": 0, "rental_uris": {"ios": "https://dc.lft.to/lastmile_qr_scan", "android": "https://dc.lft.to/lastmile_qr_scan"}}, {"fusion_lat": 0.0, "is_disabled": 0, "lat": 38.932433, "lon": -76.997212, "fusion_lon": 0.0, "bike_id": "5048ed6630de26aee2aca20127a62e34", "type": "electric_bike", "name": "5048ed6630de26aee2aca20127a62e34", "is_reserved": 0, "rental_uris": {"ios": "https://dc.lft.to/lastmile_qr_scan", "android": "https://dc.lft.to/lastmile_qr_scan"}}, {"fusion_lat": 0.0, "is_disabled": 0, "lat": 38.905472333333336, "lon": -77.0570595, "fusion_lon": 0.0, "bike_id": "96a3c65c5e309254a40380740bdbded7", "type": "electric_scooter", "name": "96a3c65c5e309254a40380740bdbded7", "is_reserved": 0, "rental_uris": {"ios": "https://dc.lft.to/lastmile_qr_scan", "android": "https://dc.lft.to/lastmile_qr_scan"}}, {"fusion_lat": 0.0, "is_disabled": 0, "lat": 38.92499983333333, "lon": -77.02159133333333, "fusion_lon": 0.0, "bike_id": "1f9642a0af8afe8dc84dcc1d1f6cb12c", "type": "electric_scooter", "name": "1f9642a0af8afe8dc84dcc1d1f6cb12c", "is_reserved": 0, "rental_uris": {"ios": "https://dc.lft.to/lastmile_qr_scan", "android": "https://dc.lft.to/lastmile_qr_scan"}}, {"fusion_lat": 0.0, "is_disabled": 0, "lat": 38.923708500000004, "lon": -77.05152216666667, "fusion_lon": 0.0, "bike_id": "f818342fc5ff74981b06f63e7e6919c3", "type": "electric_scooter", "name": "f818342fc5ff74981b06f63e7e6919c3", "is_reserved": 0, "rental_uris": {"ios": "https://dc.lft.to/lastmile_qr_scan", "android": "https://dc.lft.to/lastmile_qr_scan"}}, {"fusion_lat": 0.0, "is_disabled": 0, "lat": 38.892214, "lon": -77.04801266666666, "fusion_lon": 0.0, "bike_id": "a4ddbb12d9a5ab0886b1d7dc9d9f73c1", "type": "electric_scooter", "name": "a4ddbb12d9a5ab0886b1d7dc9d9f73c1", "is_reserved": 0, "rental_uris": {"ios": "https://dc.lft.to/lastmile_qr_scan", "android": "https://dc.lft.to/lastmile_qr_scan"}}, {"fusion_lat": 0.0, "is_disabled": 0, "lat": 38.898787, "lon": -76.9800105, "fusion_lon": 0.0, "bike_id": "a4c3c40e980bb9723a50c0052d4eaae4", "type": "electric_scooter", "name": "a4c3c40e980bb9723a50c0052d4eaae4", "is_reserved": 0, "rental_uris": {"ios": "https://dc.lft.to/lastmile_qr_scan", "android": "https://dc.lft.to/lastmile_qr_scan"}}, {"fusion_lat": 0.0, "is_disabled": 0, "lat": 38.91898416666667, "lon": -77.0322415, "fusion_lon": 0.0, "bike_id": "358179af60646b94c8399ec22eb46ec4", "type": "electric_scooter", "name": "358179af60646b94c8399ec22eb46ec4", "is_reserved": 0, "rental_uris": {"ios": "https://dc.lft.to/lastmile_qr_scan", "android": "https://dc.lft.to/lastmile_qr_scan"}}, {"fusion_lat": 0.0, "is_disabled": 0, "lat": 38.8984805, "lon": -77.041088, "fusion_lon": 0.0, "bike_id": "81097294b47938d34ce9741fd66af30c", "type": "electric_scooter", "name": "81097294b47938d34ce9741fd66af30c", "is_reserved": 0, "rental_uris": {"ios": "https://dc.lft.to/lastmile_qr_scan", "android": "https://dc.lft.to/lastmile_qr_scan"}}, {"fusion_lat": 0.0, "is_disabled": 0, "lat": 38.924578833333335, "lon": -76.972313, "fusion_lon": 0.0, "bike_id": "49705a454bb8a3d04165d47ec631c2a7", "type": "electric_scooter", "name": "49705a454bb8a3d04165d47ec631c2a7", "is_reserved": 0, "rental_uris": {"ios": "https://dc.lft.to/lastmile_qr_scan", "android": "https://dc.lft.to/lastmile_qr_scan"}}, {"fusion_lat": 0.0, "is_disabled": 0, "lat": 38.864843, "lon": -76.977492, "fusion_lon": 0.0, "bike_id": "6d90105ab6d65094f77fb2a51d5b063f", "type": "electric_bike", "name": "6d90105ab6d65094f77fb2a51d5b063f", "is_reserved": 0, "rental_uris": {"ios": "https://dc.lft.to/lastmile_qr_scan", "android": "https://dc.lft.to/lastmile_qr_scan"}}, {"fusion_lat": 0.0, "is_disabled": 0, "lat": 38.90242716666667, "lon": -77.0389965, "fusion_lon": 0.0, "bike_id": "ecd239d74e5310a424eda33e266b811f", "type": "electric_scooter", "name": "ecd239d74e5310a424eda33e266b811f", "is_reserved": 0, "rental_uris": {"ios": "https://dc.lft.to/lastmile_qr_scan", "android": "https://dc.lft.to/lastmile_qr_scan"}}, {"fusion_lat": 0.0, "is_disabled": 0, "lat": 38.926717833333335, "lon": -77.05441433333333, "fusion_lon": 0.0, "bike_id": "77c59b6bb4698126aa920763cb81536a", "type": "electric_scooter", "name": "77c59b6bb4698126aa920763cb81536a", "is_reserved": 0, "rental_uris": {"ios": "https://dc.lft.to/lastmile_qr_scan", "android": "https://dc.lft.to/lastmile_qr_scan"}}, {"fusion_lat": 0.0, "is_disabled": 0, "lat": 38.92442633333334, "lon": -77.02156566666666, "fusion_lon": 0.0, "bike_id": "adda4da637f9974c8e71e674069e4255", "type": "electric_scooter", "name": "adda4da637f9974c8e71e674069e4255", "is_reserved": 0, "rental_uris": {"ios": "https://dc.lft.to/lastmile_qr_scan", "android": "https://dc.lft.to/lastmile_qr_scan"}},