{"data": {"bikes": [{"lon": -76.98712783333333, "is_disabled": 0, "lat": 38.86699816666667, "fusion_lat": 0.0, "is_reserved": 0, "rental_uris": {"ios": "https://dc.lft.to/lastmile_qr_scan", "android": "https://dc.lft.to/lastmile_qr_scan"}, "fusion_lon": 0.0, "type": "electric_scooter", "bike_id": "9906c6ac08823151f8110bf8e405f676", "name": "9906c6ac08823151f8110bf8e405f676"}, {"lon": -77.04846916666666, "is_disabled": 0, "lat": 38.905015166666665, "fusion_lat": 0.0, "is_reserved": 0, "rental_uris": {"ios": "https://dc.lft.to/lastmile_qr_scan", "android": "https://dc.lft.to/lastmile_qr_scan"}, "fusion_lon": 0.0, "type": "electric_scooter", "bike_id": "f5a717b3d363b6f8344fbc742d20e2dd", "name": "f5a717b3d363b6f8344fbc742d20e2dd"}, {"lon": -77.04655966666667, "is_disabled": 0, "lat": 38.902101333333334, "fusion_lat": 0.0, "is_reserved": 0, "rental_uris": {"ios": "https://dc.lft.to/lastmile_qr_scan", "android": "https://dc.lft.to/lastmile_qr_scan"}, "fusion_lon": 0.0, "type": "electric_scooter", "bike_id": "a4a672cc63d329cb09d272ccd92444f8", "name": "a4a672cc63d329cb09d272ccd92444f8"}, {"lon": -77.02395766666666, "is_disabled": 0, "lat": 38.9155235, "fusion_lat": 0.0, "is_reserved": 0, "rental_uris": {"ios": "https://dc.lft.to/lastmile_qr_scan", "android": "https://dc.lft.to/lastmile_qr_scan"}, "fusion_lon": 0.0, "type": "electric_scooter", "bike_id": "ae06357aa9ec865800dce72fab5d11cb", "name": "ae06357aa9ec865800dce72fab5d11cb"}, {"lon": -76.94633033333334, "is_disabled": 0, "lat": 38.898632166666665, "fusion_lat": 0.0, "is_reserved": 0, "rental_uris": {"ios": "https://dc.lft.to/lastmile_qr_scan", "android": "https://dc.lft.to/lastmile_qr_scan"}, "fusion_lon": 0.0, "type": "electric_scooter", "bike_id": "7c0c913470f9c8a83209967b1911c604", "name": "7c0c913470f9c8a83209967b1911c604"}, {"lon": -77.02964083333333, "is_disabled": 0, "lat": 38.934569833333335, "fusion_lat": 0.0, "is_reserved": 0, "rental_uris": {"ios": "https://dc.lft.to/lastmile_qr_scan", "android": "https://dc.lft.to/lastmile_qr_scan"}, "fusion_lon": 0.0, "type": "electric_scooter", "bike_id": "82a37211a7974913dc9f437b32971bf3", "name": "82a37211a7974913dc9f437b32971bf3"}, {"lon": -77.02614666666666, "is_disabled": 0, "lat": 38.88768483333333, "fusion_lat": 0.0, "is_reserved": 0, "rental_uris": {"ios": "https://dc.lft.to/lastmile_qr_scan", "android": "https://dc.lft.to/lastmile_qr_scan"}, "fusion_lon": 0.0, "type": "electric_scooter", "bike_id": "2843061899492919b51c94b490df49ba", "name": "2843061899492919b51c94b490df49ba"}, {"lon": -77.03859116666666, "is_disabled": 0, "lat": 38.9171465, "fusion_lat": 0.0, "is_reserved": 0, "rental_uris": {"ios": "https://dc.lft.to/lastmile_qr_scan", "android": "https://dc.lft.to/lastmile_qr_scan"}, "fusion_lon": 0.0, "type": "electric_scooter", "bike_id": "288962639db6e9d513d3f4f47ef6094a", "name": "288962639db6e9d513d3f4f47ef6094a"}, {"lon": -76.94047366666666, "is_disabled": 0, "lat": 38.9785645, "fusion_lat": 0.0, "is_reserved": 0, "rental_uris": {"ios": "https://dc.lft.to/lastmile_qr_scan", "android": "https://dc.lft.to/lastmile_qr_scan"}, "fusion_lon": 0.0, "type": "electric_bike", "bike_id": "5b71f2616e1478b1e07fa6782b5d6d44", "name": "5b71f2616e1478b1e07fa6782b5d6d44"}, {"lon": -77.01907333333334, "is_disabled": 0, "lat": 38.878636166666666, "fusion_lat": 0.0, "is_reserved": 0, "rental_uris": {"ios": "https://dc.lft.to/lastmile_qr_scan", "android": "https://dc.lft.to/lastmile_qr_scan"}, "fusion_lon": 0.0, "type": "electric_scooter", "bike_id": "3d06e26b335d708b6e7fe79eaf4c6b8a", "name": "3d06e26b335d708b6e7fe79eaf4c6b8a"}, {"lon": -76.98536216666666, "is_disabled": 0, "lat": 38.86671916666667, "fusion_lat": 0.0, "is_reserved": 0, "rental_uris": {"ios": "https://dc.lft.to/lastmile_qr_scan", "android": "https://dc.lft.to/lastmile_qr_scan"}, "fusion_lon": 0.0, "type": "electric_scooter", "bike_id": "5947627b258351ad3c444c2974867b6c", "name": "5947627b258351ad3c444c2974867b6c"}, {"lon": -77.02156216666667, "is_disabled": 0, "lat": 38.926118, "fusion_lat": 0.0, "is_reserved": 0, "rental_uris": {"ios": "https://dc.lft.to/lastmile_qr_scan", "android": "https://dc.lft.to/lastmile_qr_scan"}, "fusion_lon": 0.0, "type": "electric_scooter", "bike_id": "181f20ab9c99c6c38792cc945b95cbde", "name": "181f20ab9c99c6c38792cc945b95cbde"}, {"lon": -77.0505605, "is_disabled": 0, "lat": 38.90545133333333, "fusion_lat": 0.0, "is_reserved": 0, "rental_uris": {"ios": "https://dc.lft.to/lastmile_qr_scan", "android": "https://dc.lft.to/lastmile_qr_scan"}, "fusion_lon": 0.0, "type": "electric_scooter", "bike_id": "8145296a347b4f773992c645ebde3960", "name": "8145296a347b4f773992c645ebde3960"}, {"lon": -76.930728, "is_disabled": 0, "lat": 38.901647, "fusion_lat": 0.0, "is_reserved": 0, "rental_uris": {"ios": "https://dc.lft.to/lastmile_qr_scan", "android": "https://dc.lft.to/lastmile_qr_scan"}, "fusion_lon": 0.0, "type": "electric_scooter", "bike_id": "8c1d34e4501ed309d9317dd671d3c4a6", "name": "8c1d34e4501ed309d9317dd671d3c4a6"}, {"lon": -77.03591583333333, "is_disabled": 0, "lat": 38.936725333333335, "fusion_lat": 0.0, "is_reserved": 0, "rental_uris": {"ios": "https://dc.lft.to/lastmile_qr_scan", "android": "https://dc.lft.to/lastmile_qr_scan"}, "fusion_lon": 0.0, "type": "electric_scooter", "bike_id": "6b7f8565ca508abdc77244df9a6f5eeb", "name": "6b7f8565ca508abdc77244df9a6f5eeb"}, {"lon": -77.021687, "is_disabled": 0, "lat": 38.913038666666665, "fusion_lat": 0.0, "is_reserved": 0, "rental_uris": {"ios": "https://dc.lft.to/lastmile_qr_scan", "android": "https://dc.lft.to/lastmile_qr_scan"}, "fusion_lon": 0.0, "type": "electric_scooter", "bike_id": "515eeea628855bd5c83698f667412007", "name": "515eeea628855bd5c83698f667412007"}, {"lon": -77.06659083333334, "is_disabled": 0, "lat": 38.95080183333334, "fusion_lat": 0.0, "is_reserved": 0, "rental_uris": {"ios": "https://dc.lft.to/lastmile_qr_scan", "android": "https://dc.lft.to/lastmile_qr_scan"}, "fusion_lon": 0.0, "type": "electric_bike", "bike_id": "1456e45ef0a0d843625e9bc55dbb1b31", "name": "1456e45ef0a0d843625e9bc55dbb1b31"}, {"lon": -77.0612635, "is_disabled": 0, "lat": 38.943579666666665, "fusion_lat": 0.0, "is_reserved": 0, "rental_uris": {"ios": "https://dc.lft.to/lastmile_qr_scan", "android": "https://dc.lft.to/lastmile_qr_scan"}, "fusion_lon": 0.0, "type": "electric_scooter", "bike_id": "b38ff3957b406036733ccc56eb241b01", "name": "b38ff3957b406036733ccc56eb241b01"}, {"lon": -77.0628205, "is_disabled": 0, "lat": 38.905826166666664, "fusion_lat": 0.0, "is_reserved": 0, "rental_uris": {"ios": "https://dc.lft.to/lastmile_qr_scan", "android": "https://dc.lft.to/lastmile_qr_scan"}, "fusion_lon": 0.0, "type": "electric_scooter", "bike_id": "0e3f52713e5fb4d57c77d9c94e175df8", "name": "0e3f52713e5fb4d57c77d9c94e175df8"}, {"lon": -76.99572883333333, "is_disabled": 0, "lat": 38.9400675, "fusion_lat": 0.0, "is_reserved": 0, "rental_uris": {"ios": "https://dc.lft.to/lastmile_qr_scan", "android": "https://dc.lft.to/lastmile_qr_scan"}, "fusion_lon": 0.0, "type": "electric_bike", "bike_id": "26586e5d3c03b0f7fc145dca79dd855c", "name": "26586e5d3c03b0f7fc145dca79dd855c"}, {"lon": -77.043422, "is_disabled": 0, "lat": 38.907233166666664, "fusion_lat": 0.0, "is_reserved": 0, "rental_uris": {"ios": "https://dc.lft.to/lastmile_qr_scan", "android": "https://dc.lft.to/lastmile_qr_scan"}, "fusion_lon": 0.0, "type": "electric_scooter", "bike_id": "f932024f9ae05067ac986503578beb08", "name": "f932024f9ae05067ac986503578beb08"}, {"lon": -77.05680666666666, "is_disabled": 0, "lat": 38.951594666666665, "fusion_lat": 0.0, "is_reserved": 0, "rental_uris": {"ios": "https://dc.lft.to/lastmile_qr_scan", "android": "https://dc.lft.to/lastmile_qr_scan"}, "fusion_lon": 0.0, "type": "electric_scooter", "bike_id": "69774dc0c92f2fa89e9ca109ca74020c", "name": "69774dc0c92f2fa89e9ca109ca74020c"}, {"lon": -77.03647933333333, "is_disabled": 0, "lat": 38.9027655, "fusion_lat": 0.0, "is_reserved": 0, "rental_uris": {"ios": "https://dc.lft.to/lastmile_qr_scan", "android": "https://dc.lft.to/lastmile_qr_scan"}, "fusion_lon": 0.0, "type": "electric_scooter", "bike_id": "7c07449c8c1f7485575c7747880bd7ef", "name": "7c07449c8c1f7485575c7747880bd7ef"}, {"lon": -76.95058533333334, "is_disabled": 0, "lat": 38.89335783333333, "fusion_lat": 0.0, "is_reserved": 0, "rental_uris": {"ios": "https://dc.lft.to/lastmile_qr_scan", "android": "https://dc.lft.to/lastmile_qr_scan"}, "fusion_lon": 0.0, "type": "electric_scooter", "bike_id": "8db4158d541dd0e37a0c8ca9082247e9", "name": "8db4158d541dd0e37a0c8ca9082247e9"}, {"lon": -77.0503295, "is_disabled": 0, "lat": 38.923635, "fusion_lat": 0.0, "is_reserved": 0, "rental_uris": {"ios": "https://dc.lft.to/lastmile_qr_scan", "android": "https://dc.lft.to/lastmile_qr_scan"}, "fusion_lon": 0.0, "type": "electric_scooter", "bike_id": "83484beec015af73d060ae114a982ea5", "name": "83484beec015af73d060ae114a982ea5"}, {"lon": -77.017533, "is_disabled": 0, "lat": 38.87704216666667, "fusion_lat": 0.0, "is_reserved": 0, "rental_uris": {"ios": "https://dc.lft.to/lastmile_qr_scan", "android": "https://dc.lft.to/lastmile_qr_scan"}, "fusion_lon": 0.0, "type": "electric_scooter", "bike_id": "daa4d108ccb08d293286b8bbd09c3719", "name": "daa4d108ccb08d293286b8bbd09c3719"}, {"lon": -77.04394783333333, "is_disabled": 0, "lat": 38.922257333333334, "fusion_lat": 0.0, "is_reserved": 0, "rental_uris": {"ios": "https://dc.lft.to/lastmile_qr_scan", "android": "https://dc.lft.to/lastmile_qr_scan"}, "fusion_lon": 0.0, "type": "electric_scooter", "bike_id": "56aa580b43a68a433dee8a90c39ad8f7", "name": "56aa580b43a68a433dee8a90c39ad8f7"}, {"lon": -77.00333283333333, "is_disabled": 0, "lat": 38.87733566666667, "fusion_lat": 0.0, "is_reserved": 0, "rental_uris": {"ios": "https://dc.lft.to/lastmile_qr_scan", "android": "https://dc.lft.to/lastmile_qr_scan"}, "fusion_lon": 0.0, "type": "electric_scooter", "bike_id": "2d3847d74be01ff07eac17bb4d7c09af", "name": "2d3847d74be01ff07eac17bb4d7c09af"}, {"lon": -77.01943916666667, "is_disabled": 0, "lat": 38.893237166666665, "fusion_lat": 0.0, "is_reserved": 0, "rental_uris": {"ios": "https://dc.lft.to/lastmile_qr_scan", "android": "https://dc.lft.to/lastmile_qr_scan"}, "fusion_lon": 0.0, "type": "electric_scooter", "bike_id": "690ced9a796a636a57acf7f33495b90e", "name": "690ced9a796a636a57acf7f33495b90e"}, {"lon": -77.02212733333333, "is_disabled": 0, "lat": 38.9126865, "fusion_lat": 0.0, "is_reserved": 0, "rental_uris": {"ios": "https://dc.lft.to/lastmile_qr_scan", "android": "https://dc.lft.to/lastmile_qr_scan"}, "fusion_lon": 0.0, "type": "electric_scooter", "bike_id": "c4cfa424e77e447bd0b9b5379f8f14d4", "name": "c4cfa424e77e447bd0b9b5379f8f14d4"}, {"lon": -77.05090666666666, "is_disabled": 0, "lat": 38.923406166666666, "fusion_lat": 0.0, "is_reserved": 0, "rental_uris": {"ios": "https://dc.lft.to/lastmile_qr_scan", "android": "https://dc.lft.to/lastmile_qr_scan"}, "fusion_lon": 0.0, "type": "electric_scooter", "bike_id": "c3a307a7d1789676a6af4e2e5d27a33e", "name": "c3a307a7d1789676a6af4e2e5d27a33e"}, {"lon": -77.00341783333333, "is_disabled": 0, "lat": 38.895260666666665, "fusion_lat": 0.0, "is_reserved": 0, "rental_uris": {"ios": "https://dc.lft.to/lastmile_qr_scan", "android": "https://dc.lft.to/lastmile_qr_scan"}, "fusion_lon": 0.0, "type": "electric_scooter", "bike_id": "7ae2cf17648c4d2f7cdd79c7e3a186cb", "name": "7ae2cf17648c4d2f7cdd79c7e3a186cb"}, {"lon": -77.04345816666667, "is_disabled": 0, "lat": 38.87384616666667, "fusion_lat": 0.0, "is_reserved": 0, "rental_uris": {"ios": "https://dc.lft.to/lastmile_qr_scan", "android": "https://dc.lft.to/lastmile_qr_scan"}, "fusion_lon": 0.0, "type": "electric_scooter", "bike_id": "c1b57d8e0c42bb08d9e859957270bfe5", "name": "c1b57d8e0c42bb08d9e859957270bfe5"}, {"lon": -77.07254983333333, "is_disabled": 0, "lat": 38.90782266666667, "fusion_lat": 0.0, "is_reserved": 0, "rental_uris": {"ios": "https://dc.lft.to/lastmile_qr_scan", "android": "https://dc.lft.to/lastmile_qr_scan"}, "fusion_lon": 0.0, "type": "electric_scooter", "bike_id": "e270a494061bc90bbabe83895c611034", "name": "e270a494061bc90bbabe83895c611034"}, {"lon": -77.02229416666667, "is_disabled": 0, "lat": 38.88027066666667, "fusion_lat": 0.0, "is_reserved": 0, "rental_uris": {"ios": "https://dc.lft.to/lastmile_qr_scan", "android": "https://dc.lft.to/lastmile_qr_scan"}, "fusion_lon": 0.0, "type": "electric_scooter", "bike_id": "97822aeef04c19d6217968c3b74918fa", "name": "97822aeef04c19d6217968c3b74918fa"}, {"lon": -77.04585433333334, "is_disabled": 0, "lat": 38.914715, "fusion_lat": 0.0, "is_reserved": 0, "rental_uris": {"ios": "https://dc.lft.to/lastmile_qr_scan", "android": "https://dc.lft.to/lastmile_qr_scan"}, "fusion_lon": 0.0, "type": "electric_scooter", "bike_id": "a2e95baddb700db7a2c98e35d3c76ae5", "name": "a2e95baddb700db7a2c98e35d3c76ae5"}, {"lon": -77.06171016666667, "is_disabled": 0, "lat": 38.807082333333334, "fusion_lat": 0.0, "is_reserved": 0, "rental_uris": {"ios": "https://dc.lft.to/lastmile_qr_scan", "android": "https://dc.lft.to/lastmile_qr_scan"}, "fusion_lon": 0.0, "type": "electric_bike", "bike_id": "7a432a2003bd1d07fcbab7c4b5c703e4", "name": "7a432a2003bd1d07fcbab7c4b5c703e4"}, {"lon": -76.97630916666667, "is_disabled": 0, "lat": 38.901597833333334, "fusion_lat": 0.0, "is_reserved": 0, "rental_uris": {"ios": "https://dc.lft.to/lastmile_qr_scan", "android": "https://dc.lft.to/lastmile_qr_scan"}, "fusion_lon": 0.0, "type": "electric_scooter", "bike_id": "b805f58f5ae00bb667945601859ba46f", "name": "b805f58f5ae00bb667945601859ba46f"}, {"lon": -77.032754, "is_disabled": 0, "lat": 38.909547333333336, "fusion_lat": 0.0, "is_reserved": 0, "rental_uris": {"ios": "https://dc.lft.to/lastmile_qr_scan", "android": "https://dc.lft.to/lastmile_qr_scan"}, "fusion_lon": 0.0, "type": "electric_scooter", "bike_id": "d9d84ebe468464309c3f170719d49128", "name": "d9d84ebe468464309c3f170719d49128"}, {"lon": -77.0247945, "is_disabled": 0, "lat": 38.9387865, "fusion_lat": 0.0, "is_reserved": 0, "rental_uris": {"ios": "https://dc.lft.to/lastmile_qr_scan", "android": "https://dc.lft.to/lastmile_qr_scan"}, "fusion_lon": 0.0, "type": "electric_scooter", "bike_id": "7093e9b2b9e39acd68834d23cb77d58f", "name": "7093e9b2b9e39acd68834d23cb77d58f"}, {"lon": -77.031654, "is_disabled": 0, "lat": 38.887438, "fusion_lat": 0.0, "is_reserved": 0, "rental_uris": {"ios": "https://dc.lft.to/lastmile_qr_scan", "android": "https://dc.lft.to/lastmile_qr_scan"}, "fusion_lon": 0.0, "type": "electric_scooter", "bike_id": "0f6afbd5cbb638458595162f45af88ce", "name": "0f6afbd5cbb638458595162f45af88ce"}, {"lon": -77.047829, "is_disabled": 0, "lat": 38.89765716666667, "fusion_lat": 0.0, "is_reserved": 0, "rental_uris": {"ios": "https://dc.lft.to/lastmile_qr_scan", "android": "https://dc.lft.to/lastmile_qr_scan"}, "fusion_lon": 0.0, "type": "electric_scooter", "bike_id": "3cc5108a6ec9eb41ed0d125a67287453", "name": "3cc5108a6ec9eb41ed0d125a67287453"}, {"lon": -77.04103916666666, "is_disabled": 0, "lat": 38.90880466666667, "fusion_lat": 0.0, "is_reserved": 0, "rental_uris": {"ios": "https://dc.lft.to/lastmile_qr_scan", "android": "https://dc.lft.to/lastmile_qr_scan"}, "fusion_lon": 0.0, "type": "electric_scooter", "bike_id": "7850ef1c8aee833018db2faeef8b8e9c", "name": "7850ef1c8aee833018db2faeef8b8e9c"}, {"lon": -77.048704, "is_disabled": 0, "lat": 38.906467666666664, "fusion_lat": 0.0, "is_reserved": 0, "rental_uris": {"ios": "https://dc.lft.to/lastmile_qr_scan", "android": "https://dc.lft.to/lastmile_qr_scan"}, "fusion_lon": 0.0, "type": "electric_scooter", "bike_id": "5d62c1cea273e8ac8a1ae74c951123f5", "name": "5d62c1cea273e8ac8a1ae74c951123f5"}, {"lon": -77.02211766666667, "is_disabled": 0, "lat": 38.905563, "fusion_lat": 0.0, "is_reserved": 0, "rental_uris": {"ios": "https://dc.lft.to/lastmile_qr_scan", "android": "https://dc.lft.to/lastmile_qr_scan"}, "fusion_lon": 0.0, "type": "electric_scooter", "bike_id": "0d9a2a9bfece57aa255a559d5ce8f17b", "name": "0d9a2a9bfece57aa255a559d5ce8f17b"}, {"lon": -77.02272183333334, "is_disabled": 0, "lat": 38.89518916666667, "fusion_lat": 0.0, "is_reserved": 0, "rental_uris": {"ios": "https://dc.lft.to/lastmile_qr_scan", "android": "https://dc.lft.to/lastmile_qr_scan"}, "fusion_lon": 0.0, "type": "electric_scooter", "bike_id": "cadfb912794c73ad75205fa531b03821", "name": "cadfb912794c73ad75205fa531b03821"}, {"lon": -77.01753266666667, "is_disabled": 0, "lat": 38.877080166666666, "fusion_lat": 0.0, "is_reserved": 0, "rental_uris": {"ios": "https://dc.lft.to/lastmile_qr_scan", "android": "https://dc.lft.to/lastmile_qr_scan"}, "fusion_lon": 0.0, "type": "electric_scooter", "bike_id": "56efc04286cdfabe9869690fca024ed4", "name": "56efc04286cdfabe9869690fca024ed4"}, {"lon": -77.00726633333333, "is_disabled": 0, "lat": 38.88494466666667, "fusion_lat": 0.0, "is_reserved": 0, "rental_uris": {"ios": "https://dc.lft.to/lastmile_qr_scan", "android": "https://dc.lft.to/lastmile_qr_scan"}, "fusion_lon": 0.0, "type": "electric_scooter", "bike_id": "8bf7f137688ae73708b22fe1712df4ef", "name": "8bf7f137688ae73708b22fe1712df4ef"}, {"lon": -77.06158333333333, "is_disabled": 0, "lat": 38.90521316666667, "fusion_lat": 0.0, "is_reserved": 0, "rental_uris": {"ios": "https://dc.lft.to/lastmile_qr_scan", "android": "https://dc.lft.to/lastmile_qr_scan"}, "fusion_lon": 0.0, "type": "electric_scooter", "bike_id": "fab7d64208fa1d11dbce0e9584fd1037", "name": "fab7d64208fa1d11dbce0e9584fd1037"}, {"lon": -76.970353, "is_disabled": 0, "lat": 38.87365233333333, "fusion_lat": 0.0, "is_reserved": 0, "rental_uris": {"ios": "https://dc.lft.to/lastmile_qr_scan", "android": "https://dc.lft.to/lastmile_qr_scan"}, "fusion_lon": 0.0, "type": "electric_scooter", "bike_id": "2577ccd6dc9c88b8f4a143579a97c572", "name": "2577ccd6dc9c88b8f4a143579a97c572"}, {"lon": -76.97973283333333, "is_disabled": 0, "lat": 38.953724333333334, "fusion_lat": 0.0, "is_reserved": 0, "rental_uris": {"ios": "https://dc.lft.to/lastmile_qr_scan", "android": "https://dc.lft.to/lastmile_qr_scan"}, "fusion_lon": 0.0, "type": "electric_bike", "bike_id": "c63666c904414783085ae971c4e11b0f", "name": "c63666c904414783085ae971c4e11b0f"}, {"lon": -77.02593833333333, "is_disabled": 0, "lat": 38.9042545, "fusion_lat": 0.0, "is_reserved": 0, "rental_uris": {"ios": "https://dc.lft.to/lastmile_qr_scan", "android": "https://dc.lft.to/lastmile_qr_scan"}, "fusion_lon": 0.0, "type": "electric_scooter", "bike_id": "2ec30a7cea6ec9050b37f8c76b02ee71", "name": "2ec30a7cea6ec9050b37f8c76b02ee71"}, {"lon": -77.044078, "is_disabled": 0, "lat": 38.91120216666667, "fusion_lat": 0.0, "is_reserved": 0, "rental_uris": {"ios": "https://dc.lft.to/lastmile_qr_scan", "android": "https://dc.lft.to/lastmile_qr_scan"}, "fusion_lon": 0.0, "type": "electric_scooter", "bike_id": "db9225e76087261fac5060e691454f62", "name": "db9225e76087261fac5060e691454f62"}, {"lon": -77.01225433333333, "is_disabled": 0, "lat": 38.9153975, "fusion_lat": 0.0, "is_reserved": 0, "rental_uris": {"ios": "https://dc.lft.to/lastmile_qr_scan", "android": "https://dc.lft.to/lastmile_qr_scan"}, "fusion_lon": 0.0, "type": "electric_scooter", "bike_id": "674f980e5284ef7636f4422a21ddacaf", "name": "674f980e5284ef7636f4422a21ddacaf"}, {"lon": -77.04344, "is_disabled": 0, "lat": 38.92191916666667, "fusion_lat": 0.0, "is_reserved": 0, "rental_uris": {"ios": "https://dc.lft.to/lastmile_qr_scan", "android": "https://dc.lft.to/lastmile_qr_scan"}, "fusion_lon": 0.0, "type": "electric_scooter", "bike_id": "eadec44e8de280773f39fafa5ee381fa", "name": "eadec44e8de280773f39fafa5ee381fa"}, {"lon": -77.028404, "is_disabled": 0, "lat": 38.91686633333333, "fusion_lat": 0.0, "is_reserved": 0, "rental_uris": {"ios": "https://dc.lft.to/lastmile_qr_scan", "android": "https://dc.lft.to/lastmile_qr_scan"}, "fusion_lon": 0.0, "type": "electric_scooter", "bike_id": "7aaab01a5259b0077b15da617052d3b5", "name": "7aaab01a5259b0077b15da617052d3b5"}, {"lon": -76.99403683333334, "is_disabled": 0, "lat": 38.877816, "fusion_lat": 0.0, "is_reserved": 0, "rental_uris": {"ios": "https://dc.lft.to/lastmile_qr_scan", "android": "https://dc.lft.to/lastmile_qr_scan"}, "fusion_lon": 0.0, "type": "electric_scooter", "bike_id": "e4e6d8315ed73f0b5d8bffa6934a7132", "name": "e4e6d8315ed73f0b5d8bffa6934a7132"}, {"lon": -77.002322, "is_disabled": 0, "lat": 38.87483866666667, "fusion_lat": 0.0, "is_reserved": 0, "rental_uris": {"ios": "https://dc.lft.to/lastmile_qr_scan", "android": "https://dc.lft.to/lastmile_qr_scan"}, "fusion_lon": 0.0, "type": "electric_scooter", "bike_id": "0864172157976d806a7d9730aa78f6ec", "name": "0864172157976d806a7d9730aa78f6ec"}, {"lon": -76.97028983333334, "is_disabled": 0, "lat": 38.8736125, "fusion_lat": 0.0, "is_reserved": 0, "rental_uris": {"ios": "https://dc.lft.to/lastmile_qr_scan", "android": "https://dc.lft.to/lastmile_qr_scan"}, "fusion_lon": 0.0, "type": "electric_scooter", "bike_id": "f488196542f513aefddfeb74591662d6", "name": "f488196542f513aefddfeb74591662d6"}, {"lon": -77.0229115, "is_disabled": 0, "lat": 38.915640833333335, "fusion_lat": 0.0, "is_reserved": 0, "rental_uris": {"ios": "https://dc.lft.to/lastmile_qr_scan", "android": "https://dc.lft.to/lastmile_qr_scan"}, "fusion_lon": 0.0, "type": "electric_scooter", "bike_id": "0615180e9c427d9ccf76c8d3de4d93f0", "name": "0615180e9c427d9ccf76c8d3de4d93f0"}, {"lon": -77.041102, "is_disabled": 0, "lat": 38.9232105, "fusion_lat": 0.0, "is_reserved": 0, "rental_uris": {"ios": "https://dc.lft.to/lastmile_qr_scan", "android": "https://dc.lft.to/lastmile_qr_scan"}, "fusion_lon": 0.0, "type": "electric_scooter", "bike_id": "0240fbd80011d7c130c8bfb8b33108e1", "name": "0240fbd80011d7c130c8bfb8b33108e1"}, {"lon": -76.97948583333333, "is_disabled": 0, "lat": 38.904286, "fusion_lat": 0.0, "is_reserved": 0, "rental_uris": {"ios": "https://dc.lft.to/lastmile_qr_scan", "android": "https://dc.lft.to/lastmile_qr_scan"}, "fusion_lon": 0.0, "type": "electric_scooter", "bike_id": "b804007a729099041076dbc0e8210742", "name": "b804007a729099041076dbc0e8210742"}, {"lon": -77.01543416666667, "is_disabled": 0, "lat": 38.88561833333333, "fusion_lat": 0.0, "is_reserved": 0, "rental_uris": {"ios": "https://dc.lft.to/lastmile_qr_scan", "android": "https://dc.lft.to/lastmile_qr_scan"}, "fusion_lon": 0.0, "type": "electric_scooter", "bike_id": "31198a7f7192af40400f2be43603a5e9", "name": "31198a7f7192af40400f2be43603a5e9"}, {"lon": -76.960572, "is_disabled": 0, "lat": 38.883229, "fusion_lat": 0.0, "is_reserved": 0, "rental_uris": {"ios": "https://dc.lft.to/lastmile_qr_scan", "android": "https://dc.lft.to/lastmile_qr_scan"}, "fusion_lon": 0.0, "type": "electric_bike", "bike_id": "ed28001f2b683e4a75d6b55ef8c2dc01", "name": "ed28001f2b683e4a75d6b55ef8c2dc01"}, {"lon": -77.05339733333334, "is_disabled": 0, "lat": 38.9271965, "fusion_lat": 0.0, "is_reserved": 0, "rental_uris": {"ios": "https://dc.lft.to/lastmile_qr_scan", "android": "https://dc.lft.to/lastmile_qr_scan"}, "fusion_lon": 0.0, "type": "electric_scooter", "bike_id": "851a208273a16fd6325b8677d7378aa7", "name": "851a208273a16fd6325b8677d7378aa7"}, {"lon": -76.98841283333333, "is_disabled": 0, "lat": 38.842778833333334, "fusion_lat": 0.0, "is_reserved": 0, "rental_uris": {"ios": "https://dc.lft.to/lastmile_qr_scan", "android": "https://dc.lft.to/lastmile_qr_scan"}, "fusion_lon": 0.0, "type": "electric_bike", "bike_id": "064d2a97b0f47713bd0d5d95f9c73976", "name": "064d2a97b0f47713bd0d5d95f9c73976"}, {"lon": -77.024555, "is_disabled": 0, "lat": 38.918270666666665, "fusion_lat": 0.0, "is_reserved": 0, "rental_uris": {"ios": "https://dc.lft.to/lastmile_qr_scan", "android": "https://dc.lft.to/lastmile_qr_scan"}, "fusion_lon": 0.0, "type": "electric_scooter", "bike_id": "4f083fadbce4bb4b273568cb228d8058", "name": "4f083fadbce4bb4b273568cb228d8058"}, {"lon": -76.9337005, "is_disabled": 0, "lat": 38.89910966666667, "fusion_lat": 0.0, "is_reserved": 0, "rental_uris": {"ios": "https://dc.lft.to/lastmile_qr_scan", "android": "https://dc.lft.to/lastmile_qr_scan"}, "fusion_lon": 0.0, "type": "electric_scooter", "bike_id": "27230e1da5736f84f26b7f06a338acbf", "name": "27230e1da5736f84f26b7f06a338acbf"}, {"lon": -77.02032483333333, "is_disabled": 0, "lat": 38.924277333333336, "fusion_lat": 0.0, "is_reserved": 0, "rental_uris": {"ios": "https://dc.lft.to/lastmile_qr_scan", "android": "https://dc.lft.to/lastmile_qr_scan"}, "fusion_lon": 0.0, "type": "electric_scooter", "bike_id": "53fbbd76fdf9e9f1c339b7806f35d72a", "name": "53fbbd76fdf9e9f1c339b7806f35d72a"}, {"lon": -77.03841516666667, "is_disabled": 0, "lat": 38.92174966666666, "fusion_lat": 0.0, "is_reserved": 0, "rental_uris": {"ios": "https://dc.lft.to/lastmile_qr_scan", "android": "https://dc.lft.to/lastmile_qr_scan"}, "fusion_lon": 0.0, "type": "electric_scooter", "bike_id": "280fb9eaded0858da484bbe57bec9e24", "name": "280fb9eaded0858da484bbe57bec9e24"}, {"lon": -77.04479916666666, "is_disabled": 0, "lat": 38.931314666666665, "fusion_lat": 0.0, "is_reserved": 0, "rental_uris": {"ios": "https://dc.lft.to/lastmile_qr_scan", "android": "https://dc.lft.to/lastmile_qr_scan"}, "fusion_lon": 0.0, "type": "electric_scooter", "bike_id": "853cd4fa246c723467c29750f5d6844e", "name": "853cd4fa246c723467c29750f5d6844e"}, {"lon": -77.02957766666667, "is_disabled": 0, "lat": 38.90492616666667, "fusion_lat": 0.0, "is_reserved": 0, "rental_uris": {"ios": "https://dc.lft.to/lastmile_qr_scan", "android": "https://dc.lft.to/lastmile_qr_scan"}, "fusion_lon": 0.0, "type": "electric_scooter", "bike_id": "3c422362667526935b8147cbceb29315", "name": "3c422362667526935b8147cbceb29315"}, {"lon": -77.02963916666667, "is_disabled": 0, "lat": 38.927525, "fusion_lat": 0.0, "is_reserved": 0, "rental_uris": {"ios": "https://dc.lft.to/lastmile_qr_scan", "android": "https://dc.lft.to/lastmile_qr_scan"}, "fusion_lon": 0.0, "type": "electric_scooter", "bike_id": "9ba590d12371853b6f2db6b0810f7d2e", "name": "9ba590d12371853b6f2db6b0810f7d2e"}, {"lon": -77.02547466666667, "is_disabled": 0, "lat": 38.919205, "fusion_lat": 0.0, "is_reserved": 0, "rental_uris": {"ios": "https://dc.lft.to/lastmile_qr_scan", "android": "https://dc.lft.to/lastmile_qr_scan"}, "fusion_lon": 0.0, "type": "electric_scooter", "bike_id": "f5b880f873d4297c20da0a3400bc0e7c", "name": "f5b880f873d4297c20da0a3400bc0e7c"}, {"lon": -77.13926216666667, "is_disabled": 0, "lat": 38.873000833333336, "fusion_lat": 0.0, "is_reserved": 0, "rental_uris": {"ios": "https://dc.lft.to/lastmile_qr_scan", "android": "https://dc.lft.to/lastmile_qr_scan"}, "fusion_lon": 0.0, "type": "electric_bike", "bike_id": "4ee9ad1d5901c1d4705710a732e51fc4", "name": "4ee9ad1d5901c1d4705710a732e51fc4"}, {"lon": -77.02383333333333, "is_disabled": 0, "lat": 38.98967716666667, "fusion_lat": 0.0, "is_reserved": 0, "rental_uris": {"ios": "https://dc.lft.to/lastmile_qr_scan", "android": "https://dc.lft.to/lastmile_qr_scan"}, "fusion_lon": 0.0, "type": "electric_bike", "bike_id": "25e96746d3526bd79f298477ee41ee93", "name": "25e96746d3526bd79f298477ee41ee93"}, {"lon": -77.027102, "is_disabled": 0, "lat": 38.904613166666664, "fusion_lat": 0.0, "is_reserved": 0, "rental_uris": {"ios": "https://dc.lft.to/lastmile_qr_scan", "android": "https://dc.lft.to/lastmile_qr_scan"}, "fusion_lon": 0.0, "type": "electric_scooter", "bike_id": "139114348f8946cfeb2ce09d63e147f0", "name": "139114348f8946cfeb2ce09d63e147f0"}, {"lon": -77.02688816666667, "is_disabled": 0, "lat": 38.908750166666664, "fusion_lat": 0.0, "is_reserved": 0, "rental_uris": {"ios": "https://dc.lft.to/lastmile_qr_scan", "android": "https://dc.lft.to/lastmile_qr_scan"}, "fusion_lon": 0.0, "type": "electric_scooter", "bike_id": "80fd7a989bd8cb5cf72109163ae7f134", "name": "80fd7a989bd8cb5cf72109163ae7f134"}, {"lon": -77.04816116666667, "is_disabled": 0, "lat": 38.91630583333333, "fusion_lat": 0.0, "is_reserved": 0, "rental_uris": {"ios": "https://dc.lft.to/lastmile_qr_scan", "android": "https://dc.lft.to/lastmile_qr_scan"}, "fusion_lon": 0.0, "type": "electric_scooter", "bike_id": "feda59e10a2a26eb49ed07fa83d1b938", "name": "feda59e10a2a26eb49ed07fa83d1b938"}, {"lon": -77.0298515, "is_disabled": 0, "lat": 38.90726466666667, "fusion_lat": 0.0, "is_reserved": 0, "rental_uris": {"ios": "https://dc.lft.to/lastmile_qr_scan", "android": "https://dc.lft.to/lastmile_qr_scan"}, "fusion_lon": 0.0, "type": "electric_scooter", "bike_id": "11ed0811499246bf66c614ab150ad695", "name": "11ed0811499246bf66c614ab150ad695"}, {"lon": -77.02189716666666, "is_disabled": 0, "lat": 38.898731833333336, "fusion_lat": 0.0, "is_reserved": 0, "rental_uris": {"ios": "https://dc.lft.to/lastmile_qr_scan", "android": "https://dc.lft.to/lastmile_qr_scan"}, "fusion_lon": 0.0, "type": "electric_scooter", "bike_id": "cbc5f0e1a821762638bb77d1e52ec654", "name": "cbc5f0e1a821762638bb77d1e52ec654"}, {"lon": -77.03521333333333, "is_disabled": 0, "lat": 38.9359625, "fusion_lat": 0.0, "is_reserved": 0, "rental_uris": {"ios": "https://dc.lft.to/lastmile_qr_scan", "android": "https://dc.lft.to/lastmile_qr_scan"}, "fusion_lon": 0.0, "type": "electric_scooter", "bike_id": "6a57d83353a0f112da86460ce6e230aa", "name": "6a57d83353a0f112da86460ce6e230aa"}, {"lon": -77.134659, "is_disabled": 0, "lat": 38.85357066666667, "fusion_lat": 0.0, "is_reserved": 0, "rental_uris": {"ios": "https://dc.lft.to/lastmile_qr_scan", "android": "https://dc.lft.to/lastmile_qr_scan"}, "fusion_lon": 0.0, "type": "electric_bike", "bike_id": "abc60fea5484fa575ff7a55ff6deb975", "name": "abc60fea5484fa575ff7a55ff6deb975"}, {"lon": -77.07271733333333, "is_disabled": 0, "lat": 38.93473633333333, "fusion_lat": 0.0, "is_reserved": 0, "rental_uris": {"ios": "https://dc.lft.to/lastmile_qr_scan", "android": "https://dc.lft.to/lastmile_qr_scan"}, "fusion_lon": 0.0, "type": "electric_scooter", "bike_id": "7ec040d6f99a239817899df29ef83a76", "name": "7ec040d6f99a239817899df29ef83a76"}, {"lon": -77.02137683333333, "is_disabled": 0, "lat": 38.915496, "fusion_lat": 0.0, "is_reserved": 0, "rental_uris": {"ios": "https://dc.lft.to/lastmile_qr_scan", "android": "https://dc.lft.to/lastmile_qr_scan"}, "fusion_lon": 0.0, "type": "electric_scooter", "bike_id": "0886722fa2c930ce79b08a7862d85946", "name": "0886722fa2c930ce79b08a7862d85946"}, {"lon": -77.0507575, "is_disabled": 0, "lat": 38.92533566666667, "fusion_lat": 0.0, "is_reserved": 0, "rental_uris": {"ios": "https://dc.lft.to/lastmile_qr_scan", "android": "https://dc.lft.to/lastmile_qr_scan"}, "fusion_lon": 0.0, "type": "electric_scooter", "bike_id": "855d5fa9f2a120dfd88749906816d015", "name": "855d5fa9f2a120dfd88749906816d015"}, {"lon": -76.9857145, "is_disabled": 0, "lat": 38.866819, "fusion_lat": 0.0, "is_reserved": 0, "rental_uris": {"ios": "https://dc.lft.to/lastmile_qr_scan", "android": "https://dc.lft.to/lastmile_qr_scan"}, "fusion_lon": 0.0, "type": "electric_scooter", "bike_id": "2faa274bbad032c1929218947ee8d7ed", "name": "2faa274bbad032c1929218947ee8d7ed"}, {"lon": -77.01309566666667, "is_disabled": 0, "lat": 38.901410166666665, "fusion_lat": 0.0, "is_reserved": 0, "rental_uris": {"ios": "https://dc.lft.to/lastmile_qr_scan", "android": "https://dc.lft.to/lastmile_qr_scan"}, "fusion_lon": 0.0, "type": "electric_scooter", "bike_id": "5e12ad4121a8d7d0c101b919a2d33a60", "name": "5e12ad4121a8d7d0c101b919a2d33a60"}, {"lon": -76.98592916666666, "is_disabled": 0, "lat": 38.9037435, "fusion_lat": 0.0, "is_reserved": 0, "rental_uris": {"ios": "https://dc.lft.to/lastmile_qr_scan", "android": "https://dc.lft.to/lastmile_qr_scan"}, "fusion_lon": 0.0, "type": "electric_scooter", "bike_id": "e2c1a98da57cb1674a2076e76ff0bb59", "name": "e2c1a98da57cb1674a2076e76ff0bb59"}, {"lon": -77.03206033333333, "is_disabled": 0, "lat": 38.907047, "fusion_lat": 0.0, "is_reserved": 0, "rental_uris": {"ios": "https://dc.lft.to/lastmile_qr_scan", "android": "https://dc.lft.to/lastmile_qr_scan"}, "fusion_lon": 0.0, "type": "electric_scooter", "bike_id": "99860f10dbc93e11bc7a681de846fcb8", "name": "99860f10dbc93e11bc7a681de846fcb8"}, {"lon": -76.9797995, "is_disabled": 0, "lat": 38.89742783333333, "fusion_lat": 0.0, "is_reserved": 0, "rental_uris": {"ios": "https://dc.lft.to/lastmile_qr_scan", "android": "https://dc.lft.to/lastmile_qr_scan"}, "fusion_lon": 0.0, "type": "electric_scooter", "bike_id": "2edc2b48f9d054dd96f203deb9290303", "name": "2edc2b48f9d054dd96f203deb9290303"}, {"lon": -77.033943, "is_disabled": 0, "lat": 38.926309333333336, "fusion_lat": 0.0, "is_reserved": 0, "rental_uris": {"ios": "https://dc.lft.to/lastmile_qr_scan", "android": "https://dc.lft.to/lastmile_qr_scan"}, "fusion_lon": 0.0, "type": "electric_scooter", "bike_id": "320c7dfae3fef0947419b075f36d43b8", "name": "320c7dfae3fef0947419b075f36d43b8"}, {"lon": -77.03211916666666, "is_disabled": 0, "lat": 38.892294166666666, "fusion_lat": 0.0, "is_reserved": 0, "rental_uris": {"ios": "https://dc.lft.to/lastmile_qr_scan", "android": "https://dc.lft.to/lastmile_qr_scan"}, "fusion_lon": 0.0, "type": "electric_scooter", "bike_id": "587958c2f019118f7af08aff0d6581ad", "name": "587958c2f019118f7af08aff0d6581ad"}, {"lon": -77.033334, "is_disabled": 0, "lat": 38.915560666666664, "fusion_lat": 0.0, "is_reserved": 0, "rental_uris": {"ios": "https://dc.lft.to/lastmile_qr_scan", "android": "https://dc.lft.to/lastmile_qr_scan"}, "fusion_lon": 0.0, "type": "electric_scooter", "bike_id": "9a9087f7ee5d99cd06c8c87a7e90fb4e", "name": "9a9087f7ee5d99cd06c8c87a7e90fb4e"}, {"lon": -77.04877933333333, "is_disabled": 0, "lat": 38.90973783333333, "fusion_lat": 0.0, "is_reserved": 0, "rental_uris": {"ios": "https://dc.lft.to/lastmile_qr_scan", "android": "https://dc.lft.to/lastmile_qr_scan"}, "fusion_lon": 0.0, "type": "electric_scooter", "bike_id": "67caced3153e9fb7606540610b870aef", "name": "67caced3153e9fb7606540610b870aef"}, {"lon": -76.915953, "is_disabled": 0, "lat": 38.87982566666667, "fusion_lat": 0.0, "is_reserved": 0, "rental_uris": {"ios": "https://dc.lft.to/lastmile_qr_scan", "android": "https://dc.lft.to/lastmile_qr_scan"}, "fusion_lon": 0.0, "type": "electric_bike", "bike_id": "bb7189dd6cb86af70916a0b4c9e19ee5", "name": "bb7189dd6cb86af70916a0b4c9e19ee5"}, {"lon": -76.98542633333334, "is_disabled": 0, "lat": 38.90953566666666, "fusion_lat": 0.0, "is_reserved": 0, "rental_uris": {"ios": "https://dc.lft.to/lastmile_qr_scan", "android": "https://dc.lft.to/lastmile_qr_scan"}, "fusion_lon": 0.0, "type": "electric_scooter", "bike_id": "195850e4312a4647c382dda6cef5d7b2", "name": "195850e4312a4647c382dda6cef5d7b2"}, {"lon": -77.05268016666666, "is_disabled": 0, "lat": 38.927735, "fusion_lat": 0.0, "is_reserved": 0, "rental_uris": {"ios": "https://dc.lft.to/lastmile_qr_scan", "android": "https://dc.lft.to/lastmile_qr_scan"}, "fusion_lon": 0.0, "type": "electric_scooter", "bike_id": "8c93e7ca2dc20283b3eee197f3784ee5", "name": "8c93e7ca2dc20283b3eee197f3784ee5"}, {"lon": -76.99158583333333, "is_disabled": 0, "lat": 38.90140266666667, "fusion_lat": 0.0, "is_reserved": 0, "rental_uris": {"ios": "https://dc.lft.to/lastmile_qr_scan", "android": "https://dc.lft.to/lastmile_qr_scan"}, "fusion_lon": 0.0, "type": "electric_scooter", "bike_id": "f43f2c201cba9c462690dc8fd08dcbdc", "name": "f43f2c201cba9c462690dc8fd08dcbdc"}, {"lon": -77.01408866666667, "is_disabled": 0, "lat": 38.92786566666667, "fusion_lat": 0.0, "is_reserved": 0, "rental_uris": {"ios": "https://dc.lft.to/lastmile_qr_scan", "android": "https://dc.lft.to/lastmile_qr_scan"}, "fusion_lon": 0.0, "type": "electric_scooter", "bike_id": "7204c297663503db792711fcc51376dd", "name": "7204c297663503db792711fcc51376dd"}, {"lon": -76.94894833333333, "is_disabled": 0, "lat": 38.89533766666667, "fusion_lat": 0.0, "is_reserved": 0, "rental_uris": {"ios": "https://dc.lft.to/lastmile_qr_scan", "android": "https://dc.lft.to/lastmile_qr_scan"}, "fusion_lon": 0.0, "type": "electric_scooter", "bike_id": "4cac8ddae259c2b71173f27d88fe96b0", "name": "4cac8ddae259c2b71173f27d88fe96b0"}, {"lon": -76.99135983333333, "is_disabled": 0, "lat": 38.908562333333336, "fusion_lat": 0.0, "is_reserved": 0, "rental_uris": {"ios": "https://dc.lft.to/lastmile_qr_scan", "android": "https://dc.lft.to/lastmile_qr_scan"}, "fusion_lon": 0.0, "type": "electric_bike", "bike_id": "1035456f89fc738714c64c346cbd2fe5", "name": "1035456f89fc738714c64c346cbd2fe5"}, {"lon": -76.94891016666666, "is_disabled": 0, "lat": 38.895306166666664, "fusion_lat": 0.0, "is_reserved": 0, "rental_uris": {"ios": "https://dc.lft.to/lastmile_qr_scan", "android": "https://dc.lft.to/lastmile_qr_scan"}, "fusion_lon": 0.0, "type": "electric_scooter", "bike_id": "fed6c295ce3dcf76cbb8102c6c0e349b", "name": "fed6c295ce3dcf76cbb8102c6c0e349b"}, {"lon": -77.0320115, "is_disabled": 0, "lat": 38.89231516666667, "fusion_lat": 0.0, "is_reserved": 0, "rental_uris": {"ios": "https://dc.lft.to/lastmile_qr_scan", "android": "https://dc.lft.to/lastmile_qr_scan"}, "fusion_lon": 0.0, "type": "electric_scooter", "bike_id": "4e6eaadf73cfb40258f5831f18f9f295", "name": "4e6eaadf73cfb40258f5831f18f9f295"}, {"lon": -76.97608033333333, "is_disabled": 0, "lat": 38.9402045, "fusion_lat": 0.0, "is_reserved": 0, "rental_uris": {"ios": "https://dc.lft.to/lastmile_qr_scan", "android": "https://dc.lft.to/lastmile_qr_scan"}, "fusion_lon": 0.0, "type": "electric_scooter", "bike_id": "a81577774abf50a311d31a4a3ce4bcb7", "name": "a81577774abf50a311d31a4a3ce4bcb7"}, {"lon": -77.011166, "is_disabled": 0, "lat": 38.895125666666665, "fusion_lat": 0.0, "is_reserved": 0, "rental_uris": {"ios": "https://dc.lft.to/lastmile_qr_scan", "android": "https://dc.lft.to/lastmile_qr_scan"}, "fusion_lon": 0.0, "type": "electric_scooter", "bike_id": "15d2e6af7d3bb6687beb297c84f887da", "name": "15d2e6af7d3bb6687beb297c84f887da"}, {"lon": -77.0500545, "is_disabled": 0, "lat": 38.892265333333334, "fusion_lat": 0.0, "is_reserved": 0, "rental_uris": {"ios": "https://dc.lft.to/lastmile_qr_scan", "android": "https://dc.lft.to/lastmile_qr_scan"}, "fusion_lon": 0.0, "type": "electric_scooter", "bike_id": "23a2775106f76b64eaa4fcfaa6003ebd", "name": "23a2775106f76b64eaa4fcfaa6003ebd"}, {"lon": -77.0218585, "is_disabled": 0, "lat": 38.9097525, "fusion_lat": 0.0, "is_reserved": 0, "rental_uris": {"ios": "https://dc.lft.to/lastmile_qr_scan", "android": "https://dc.lft.to/lastmile_qr_scan"}, "fusion_lon": 0.0, "type": "electric_scooter", "bike_id": "160e813d9d48e9147c7d269ffaa9908b", "name": "160e813d9d48e9147c7d269ffaa9908b"}, {"lon": -77.03220633333333, "is_disabled": 0, "lat": 38.917043666666665, "fusion_lat": 0.0, "is_reserved": 0, "rental_uris": {"ios": "https://dc.lft.to/lastmile_qr_scan", "android": "https://dc.lft.to/lastmile_qr_scan"}, "fusion_lon": 0.0, "type": "electric_scooter", "bike_id": "e962bf9e9ab3d5c28fa2614150a9249a", "name": "e962bf9e9ab3d5c28fa2614150a9249a"}, {"lon": -77.04125466666666, "is_disabled": 0, "lat": 38.91709483333333, "fusion_lat": 0.0, "is_reserved": 0, "rental_uris": {"ios": "https://dc.lft.to/lastmile_qr_scan", "android": "https://dc.lft.to/lastmile_qr_scan"}, "fusion_lon": 0.0, "type": "electric_scooter", "bike_id": "840f34d760b3d8ece5f6187636ea2f94", "name": "840f34d760b3d8ece5f6187636ea2f94"}, {"lon": -77.03350533333334, "is_disabled": 0, "lat": 38.8923725, "fusion_lat": 0.0, "is_reserved": 0, "rental_uris": {"ios": "https://dc.lft.to/lastmile_qr_scan", "android": "https://dc.lft.to/lastmile_qr_scan"}, "fusion_lon": 0.0, "type": "electric_scooter", "bike_id": "8eeec051ef209ac47127c9f8f7ef0b7c", "name": "8eeec051ef209ac47127c9f8f7ef0b7c"}, {"lon": -77.03440716666667, "is_disabled": 0, "lat": 38.913257333333334, "fusion_lat": 0.0, "is_reserved": 0, "rental_uris": {"ios": "https://dc.lft.to/lastmile_qr_scan", "android": "https://dc.lft.to/lastmile_qr_scan"}, "fusion_lon": 0.0, "type": "electric_scooter", "bike_id": "7a5d457d47761a71f7975ca98b80f0e4", "name": "7a5d457d47761a71f7975ca98b80f0e4"}, {"lon": -77.077238, "is_disabled": 0, "lat": 38.925172333333336, "fusion_lat": 0.0, "is_reserved": 0, "rental_uris": {"ios": "https://dc.lft.to/lastmile_qr_scan", "android": "https://dc.lft.to/lastmile_qr_scan"}, "fusion_lon": 0.0, "type": "electric_scooter", "bike_id": "46c25a54cbbd782e153a092f257fdd3a", "name": "46c25a54cbbd782e153a092f257fdd3a"}, {"lon": -76.94857316666666, "is_disabled": 0, "lat": 38.894781333333334, "fusion_lat": 0.0, "is_reserved": 0, "rental_uris": {"ios": "https://dc.lft.to/lastmile_qr_scan", "android": "https://dc.lft.to/lastmile_qr_scan"}, "fusion_lon": 0.0, "type": "electric_scooter", "bike_id": "b0eec6c4b4c3af543d04785a32b2ef2e", "name": "b0eec6c4b4c3af543d04785a32b2ef2e"}, {"lon": -77.00520016666667, "is_disabled": 0, "lat": 38.87712616666666, "fusion_lat": 0.0, "is_reserved": 0, "rental_uris": {"ios": "https://dc.lft.to/lastmile_qr_scan", "android": "https://dc.lft.to/lastmile_qr_scan"}, "fusion_lon": 0.0, "type": "electric_scooter", "bike_id": "d31bad4e9839eaaae1a764bd8338c96e", "name": "d31bad4e9839eaaae1a764bd8338c96e"}, {"lon": -77.03189933333333, "is_disabled": 0, "lat": 38.908773, "fusion_lat": 0.0, "is_reserved": 0, "rental_uris": {"ios": "https://dc.lft.to/lastmile_qr_scan", "android": "https://dc.lft.to/lastmile_qr_scan"}, "fusion_lon": 0.0, "type": "electric_scooter", "bike_id": "8b70c57561e2c3c0488330b4a0299471", "name": "8b70c57561e2c3c0488330b4a0299471"}, {"lon": -76.99842483333333, "is_disabled": 0, "lat": 38.900572833333335, "fusion_lat": 0.0, "is_reserved": 0, "rental_uris": {"ios": "https://dc.lft.to/lastmile_qr_scan", "android": "https://dc.lft.to/lastmile_qr_scan"}, "fusion_lon": 0.0, "type": "electric_scooter", "bike_id": "489466bf064603cf4f488f76aaf3c3b1", "name": "489466bf064603cf4f488f76aaf3c3b1"}, {"lon": -77.0498635, "is_disabled": 0, "lat": 38.90117983333333, "fusion_lat": 0.0, "is_reserved": 0, "rental_uris": {"ios": "https://dc.lft.to/lastmile_qr_scan", "android": "https://dc.lft.to/lastmile_qr_scan"}, "fusion_lon": 0.0, "type": "electric_scooter", "bike_id": "3fa0c88ab2c646ddbf6b2d774aaa272f", "name": "3fa0c88ab2c646ddbf6b2d774aaa272f"}, {"lon": -76.99866166666666, "is_disabled": 0, "lat": 38.91003633333333, "fusion_lat": 0.0, "is_reserved": 0, "rental_uris": {"ios": "https://dc.lft.to/lastmile_qr_scan", "android": "https://dc.lft.to/lastmile_qr_scan"}, "fusion_lon": 0.0, "type": "electric_scooter", "bike_id": "405349067685d39e09f3621011d6e9ea", "name": "405349067685d39e09f3621011d6e9ea"}, {"lon": -77.004372, "is_disabled": 0, "lat": 38.990073833333334, "fusion_lat": 0.0, "is_reserved": 0, "rental_uris": {"ios": "https://dc.lft.to/lastmile_qr_scan", "android": "https://dc.lft.to/lastmile_qr_scan"}, "fusion_lon": 0.0, "type": "electric_bike", "bike_id": "f8fc95036891310003eda2aa161ee34f", "name": "f8fc95036891310003eda2aa161ee34f"}, {"lon": -77.0835025, "is_disabled": 0, "lat": 38.929573500000004, "fusion_lat": 0.0, "is_reserved": 0, "rental_uris": {"ios": "https://dc.lft.to/lastmile_qr_scan", "android": "https://dc.lft.to/lastmile_qr_scan"}, "fusion_lon": 0.0, "type": "electric_scooter", "bike_id": "423d8987bb8a95a35a2910100066eb7a", "name": "423d8987bb8a95a35a2910100066eb7a"}, {"lon": -77.0404025, "is_disabled": 0, "lat": 38.91761416666667, "fusion_lat": 0.0, "is_reserved": 0, "rental_uris": {"ios": "https://dc.lft.to/lastmile_qr_scan", "android": "https://dc.lft.to/lastmile_qr_scan"}, "fusion_lon": 0.0, "type": "electric_scooter", "bike_id": "0057ddf37ff394db914cfc2d675a7135", "name": "0057ddf37ff394db914cfc2d675a7135"}, {"lon": -76.97398483333333, "is_disabled": 0, "lat": 38.845258, "fusion_lat": 0.0, "is_reserved": 0, "rental_uris": {"ios": "https://dc.lft.to/lastmile_qr_scan", "android": "https://dc.lft.to/lastmile_qr_scan"}, "fusion_lon": 0.0, "type": "electric_bike", "bike_id": "1ddbb2486bc961b5abdf877df773c932", "name": "1ddbb2486bc961b5abdf877df773c932"}, {"lon": -77.03446166666667, "is_disabled": 0, "lat": 38.9073245, "fusion_lat": 0.0, "is_reserved": 0, "rental_uris": {"ios": "https://dc.lft.to/lastmile_qr_scan", "android": "https://dc.lft.to/lastmile_qr_scan"}, "fusion_lon": 0.0, "type": "electric_scooter", "bike_id": "9b19d99c3a38cdc20e76bc8ceac571ce", "name": "9b19d99c3a38cdc20e76bc8ceac571ce"}, {"lon": -77.02385666666666, "is_disabled": 0, "lat": 38.9176625, "fusion_lat": 0.0, "is_reserved": 0, "rental_uris": {"ios": "https://dc.lft.to/lastmile_qr_scan", "android": "https://dc.lft.to/lastmile_qr_scan"}, "fusion_lon": 0.0, "type": "electric_scooter", "bike_id": "d0254b39b8c50a0c21af2c85580f22cf", "name": "d0254b39b8c50a0c21af2c85580f22cf"}, {"lon": -77.02459333333333, "is_disabled": 0, "lat": 38.91877216666666, "fusion_lat": 0.0, "is_reserved": 0, "rental_uris": {"ios": "https://dc.lft.to/lastmile_qr_scan", "android": "https://dc.lft.to/lastmile_qr_scan"}, "fusion_lon": 0.0, "type": "electric_scooter", "bike_id": "a5cadd2f5c4eedf27fa0a7ca0bf4d833", "name": "a5cadd2f5c4eedf27fa0a7ca0bf4d833"}, {"lon": -77.0107905, "is_disabled": 0, "lat": 38.91738616666667, "fusion_lat": 0.0, "is_reserved": 0, "rental_uris": {"ios": "https://dc.lft.to/lastmile_qr_scan", "android": "https://dc.lft.to/lastmile_qr_scan"}, "fusion_lon": 0.0, "type": "electric_scooter", "bike_id": "601cd83aacd2043e36868b0b39f6827e", "name": "601cd83aacd2043e36868b0b39f6827e"}, {"lon": -77.02387933333333, "is_disabled": 0, "lat": 38.91289883333334, "fusion_lat": 0.0, "is_reserved": 0, "rental_uris": {"ios": "https://dc.lft.to/lastmile_qr_scan", "android": "https://dc.lft.to/lastmile_qr_scan"}, "fusion_lon": 0.0, "type": "electric_scooter", "bike_id": "e9ba6c6943617bce51742c4fe8d99e90", "name": "e9ba6c6943617bce51742c4fe8d99e90"}, {"lon": -77.029702, "is_disabled": 0, "lat": 38.91290133333333, "fusion_lat": 0.0, "is_reserved": 0, "rental_uris": {"ios": "https://dc.lft.to/lastmile_qr_scan", "android": "https://dc.lft.to/lastmile_qr_scan"}, "fusion_lon": 0.0, "type": "electric_scooter", "bike_id": "124a16a1bd49c1c526ccc14ec8e26a71", "name": "124a16a1bd49c1c526ccc14ec8e26a71"}, {"lon": -77.23411316666666, "is_disabled": 0, "lat": 38.8758035, "fusion_lat": 0.0, "is_reserved": 0, "rental_uris": {"ios": "https://dc.lft.to/lastmile_qr_scan", "android": "https://dc.lft.to/lastmile_qr_scan"}, "fusion_lon": 0.0, "type": "electric_bike", "bike_id": "5491098b696034d30f012e84b7c654bf", "name": "5491098b696034d30f012e84b7c654bf"}, {"lon": -77.05227616666667, "is_disabled": 0, "lat": 38.925066666666666, "fusion_lat": 0.0, "is_reserved": 0, "rental_uris": {"ios": "https://dc.lft.to/lastmile_qr_scan", "android": "https://dc.lft.to/lastmile_qr_scan"}, "fusion_lon": 0.0, "type": "electric_scooter", "bike_id": "4ec29465affc156fd7a674bcaf3ae633", "name": "4ec29465affc156fd7a674bcaf3ae633"}, {"lon": -77.02604316666667, "is_disabled": 0, "lat": 38.93485583333333, "fusion_lat": 0.0, "is_reserved": 0, "rental_uris": {"ios": "https://dc.lft.to/lastmile_qr_scan", "android": "https://dc.lft.to/lastmile_qr_scan"}, "fusion_lon": 0.0, "type": "electric_scooter", "bike_id": "b32f61a04a4c5eced63c6ef38ebc8058", "name": "b32f61a04a4c5eced63c6ef38ebc8058"}, {"lon": -76.98275583333333, "is_disabled": 0, "lat": 38.8853005, "fusion_lat": 0.0, "is_reserved": 0, "rental_uris": {"ios": "https://dc.lft.to/lastmile_qr_scan", "android": "https://dc.lft.to/lastmile_qr_scan"}, "fusion_lon": 0.0, "type": "electric_scooter", "bike_id": "60fd7185d518627c04abe1eccde188df", "name": "60fd7185d518627c04abe1eccde188df"}, {"lon": -77.031139, "is_disabled": 0, "lat": 38.91604916666667, "fusion_lat": 0.0, "is_reserved": 0, "rental_uris": {"ios": "https://dc.lft.to/lastmile_qr_scan", "android": "https://dc.lft.to/lastmile_qr_scan"}, "fusion_lon": 0.0, "type": "electric_scooter", "bike_id": "b7ceb46bcd158756e153ad724171a4b9", "name": "b7ceb46bcd158756e153ad724171a4b9"}, {"lon": -77.04346666666666, "is_disabled": 0, "lat": 38.90838866666667, "fusion_lat": 0.0, "is_reserved": 0, "rental_uris": {"ios": "https://dc.lft.to/lastmile_qr_scan", "android": "https://dc.lft.to/lastmile_qr_scan"}, "fusion_lon": 0.0, "type": "electric_scooter", "bike_id": "77b7cadfc68f9130ffd6849357601544", "name": "77b7cadfc68f9130ffd6849357601544"}, {"lon": -77.024577, "is_disabled": 0, "lat": 38.900056166666666, "fusion_lat": 0.0, "is_reserved": 0, "rental_uris": {"ios": "https://dc.lft.to/lastmile_qr_scan", "android": "https://dc.lft.to/lastmile_qr_scan"}, "fusion_lon": 0.0, "type": "electric_scooter", "bike_id": "13102ea694a7c1af3dbefc762baa5f98", "name": "13102ea694a7c1af3dbefc762baa5f98"}, {"lon": -76.94705033333334, "is_disabled": 0, "lat": 38.89366283333333, "fusion_lat": 0.0, "is_reserved": 0, "rental_uris": {"ios": "https://dc.lft.to/lastmile_qr_scan", "android": "https://dc.lft.to/lastmile_qr_scan"}, "fusion_lon": 0.0, "type": "electric_scooter", "bike_id": "ab88cdc7b4b55ef1e540d9d1059b79af", "name": "ab88cdc7b4b55ef1e540d9d1059b79af"}, {"lon": -77.03467716666667, "is_disabled": 0, "lat": 38.907685666666666, "fusion_lat": 0.0, "is_reserved": 0, "rental_uris": {"ios": "https://dc.lft.to/lastmile_qr_scan", "android": "https://dc.lft.to/lastmile_qr_scan"}, "fusion_lon": 0.0, "type": "electric_scooter", "bike_id": "e9a30b936ad56527a543eda99e564a83", "name": "e9a30b936ad56527a543eda99e564a83"}, {"lon": -76.99028366666667, "is_disabled": 0, "lat": 38.898516666666666, "fusion_lat": 0.0, "is_reserved": 0, "rental_uris": {"ios": "https://dc.lft.to/lastmile_qr_scan", "android": "https://dc.lft.to/lastmile_qr_scan"}, "fusion_lon": 0.0, "type": "electric_scooter", "bike_id": "c32fdd828376e773a1f95ca438a943cb", "name": "c32fdd828376e773a1f95ca438a943cb"}, {"lon": -76.99283966666667, "is_disabled": 0, "lat": 38.896061, "fusion_lat": 0.0, "is_reserved": 0, "rental_uris": {"ios": "https://dc.lft.to/lastmile_qr_scan", "android": "https://dc.lft.to/lastmile_qr_scan"}, "fusion_lon": 0.0, "type": "electric_bike", "bike_id": "b91c6387af8129493a4419ba1861e13c", "name": "b91c6387af8129493a4419ba1861e13c"}, {"lon": -77.05268383333333, "is_disabled": 0, "lat": 38.92562316666667, "fusion_lat": 0.0, "is_reserved": 0, "rental_uris": {"ios": "https://dc.lft.to/lastmile_qr_scan", "android": "https://dc.lft.to/lastmile_qr_scan"}, "fusion_lon": 0.0, "type": "electric_scooter", "bike_id": "c282429c5558fc10c95071954d6bf564", "name": "c282429c5558fc10c95071954d6bf564"}, {"lon": -77.01657866666666, "is_disabled": 0, "lat": 38.913308, "fusion_lat": 0.0, "is_reserved": 0, "rental_uris": {"ios": "https://dc.lft.to/lastmile_qr_scan", "android": "https://dc.lft.to/lastmile_qr_scan"}, "fusion_lon": 0.0, "type": "electric_scooter", "bike_id": "8dd333b4af9588afbc44cce9c495b9bc", "name": "8dd333b4af9588afbc44cce9c495b9bc"}, {"lon": -77.0266125, "is_disabled": 0, "lat": 38.9310075, "fusion_lat": 0.0, "is_reserved": 0, "rental_uris": {"ios": "https://dc.lft.to/lastmile_qr_scan", "android": "https://dc.lft.to/lastmile_qr_scan"}, "fusion_lon": 0.0, "type": "electric_scooter", "bike_id": "95b31790ffe3a2a3d6a6f71781936d65", "name": "95b31790ffe3a2a3d6a6f71781936d65"}, {"lon": -76.99480683333333, "is_disabled": 0, "lat": 38.86216016666667, "fusion_lat": 0.0, "is_reserved": 0, "rental_uris": {"ios": "https://dc.lft.to/lastmile_qr_scan", "android": "https://dc.lft.to/lastmile_qr_scan"}, "fusion_lon": 0.0, "type": "electric_scooter", "bike_id": "c8cba7af664d12e974cb73093e2048f7", "name": "c8cba7af664d12e974cb73093e2048f7"}, {"lon": -77.03033, "is_disabled": 0, "lat": 38.902621, "fusion_lat": 0.0, "is_reserved": 0, "rental_uris": {"ios": "https://dc.lft.to/lastmile_qr_scan", "android": "https://dc.lft.to/lastmile_qr_scan"}, "fusion_lon": 0.0, "type": "electric_scooter", "bike_id": "9e8fee204842ec7bd30699fe97d1e801", "name": "9e8fee204842ec7bd30699fe97d1e801"}, {"lon": -77.041254, "is_disabled": 0, "lat": 38.92364583333333, "fusion_lat": 0.0, "is_reserved": 0, "rental_uris": {"ios": "https://dc.lft.to/lastmile_qr_scan", "android": "https://dc.lft.to/lastmile_qr_scan"}, "fusion_lon": 0.0, "type": "electric_scooter", "bike_id": "299eeda69af46b21bf74ffe13db8db6e", "name": "299eeda69af46b21bf74ffe13db8db6e"}, {"lon": -77.05055233333333, "is_disabled": 0, "lat": 38.905364666666664, "fusion_lat": 0.0, "is_reserved": 0, "rental_uris": {"ios": "https://dc.lft.to/lastmile_qr_scan", "android": "https://dc.lft.to/lastmile_qr_scan"}, "fusion_lon": 0.0, "type": "electric_scooter", "bike_id": "73a3fb131e90d44ef17a0254d71be4a4", "name": "73a3fb131e90d44ef17a0254d71be4a4"}, {"lon": -77.00065833333333, "is_disabled": 0, "lat": 38.9003165, "fusion_lat": 0.0, "is_reserved": 0, "rental_uris": {"ios": "https://dc.lft.to/lastmile_qr_scan", "android": "https://dc.lft.to/lastmile_qr_scan"}, "fusion_lon": 0.0, "type": "electric_scooter", "bike_id": "d6847957da4e0a10bc354df89b2fa370", "name": "d6847957da4e0a10bc354df89b2fa370"}, {"lon": -77.03865783333333, "is_disabled": 0, "lat": 38.9345375, "fusion_lat": 0.0, "is_reserved": 0, "rental_uris": {"ios": "https://dc.lft.to/lastmile_qr_scan", "android": "https://dc.lft.to/lastmile_qr_scan"}, "fusion_lon": 0.0, "type": "electric_scooter", "bike_id": "408e5a853e37bd68d8ae76df25ec6744", "name": "408e5a853e37bd68d8ae76df25ec6744"}, {"lon": -77.04120916666666, "is_disabled": 0, "lat": 38.933565, "fusion_lat": 0.0, "is_reserved": 0, "rental_uris": {"ios": "https://dc.lft.to/lastmile_qr_scan", "android": "https://dc.lft.to/lastmile_qr_scan"}, "fusion_lon": 0.0, "type": "electric_scooter", "bike_id": "365a3b5c1e0a49c25f439ea7d4c47374", "name": "365a3b5c1e0a49c25f439ea7d4c47374"}, {"lon": -77.0384475, "is_disabled": 0, "lat": 38.913535833333334, "fusion_lat": 0.0, "is_reserved": 0, "rental_uris": {"ios": "https://dc.lft.to/lastmile_qr_scan", "android": "https://dc.lft.to/lastmile_qr_scan"}, "fusion_lon": 0.0, "type": "electric_scooter", "bike_id": "65089c92f20ac597dd1756e2b460c922", "name": "65089c92f20ac597dd1756e2b460c922"}, {"lon": -77.02589066666667, "is_disabled": 0, "lat": 38.898462, "fusion_lat": 0.0, "is_reserved": 0, "rental_uris": {"ios": "https://dc.lft.to/lastmile_qr_scan", "android": "https://dc.lft.to/lastmile_qr_scan"}, "fusion_lon": 0.0, "type": "electric_scooter", "bike_id": "1656a3ea74ddb09d57668ac2f6feefb0", "name": "1656a3ea74ddb09d57668ac2f6feefb0"}, {"lon": -77.0183935, "is_disabled": 0, "lat": 38.928768833333336, "fusion_lat": 0.0, "is_reserved": 0, "rental_uris": {"ios": "https://dc.lft.to/lastmile_qr_scan", "android": "https://dc.lft.to/lastmile_qr_scan"}, "fusion_lon": 0.0, "type": "electric_scooter", "bike_id": "c5b1e2335c8e6b2cd0c7105d4dcc4947", "name": "c5b1e2335c8e6b2cd0c7105d4dcc4947"}, {"lon": -77.038642, "is_disabled": 0, "lat": 38.908032, "fusion_lat": 0.0, "is_reserved": 0, "rental_uris": {"ios": "https://dc.lft.to/lastmile_qr_scan", "android": "https://dc.lft.to/lastmile_qr_scan"}, "fusion_lon": 0.0, "type": "electric_scooter", "bike_id": "791664d11dd2f60c151524b9b0ff252a", "name": "791664d11dd2f60c151524b9b0ff252a"}, {"lon": -77.0945745, "is_disabled": 0, "lat": 38.807574333333335, "fusion_lat": 0.0, "is_reserved": 0, "rental_uris": {"ios": "https://dc.lft.to/lastmile_qr_scan", "android": "https://dc.lft.to/lastmile_qr_scan"}, "fusion_lon": 0.0, "type": "electric_bike", "bike_id": "d7f9feca3d76b99ed0d7c66836c93028", "name": "d7f9feca3d76b99ed0d7c66836c93028"}, {"lon": -76.9858685, "is_disabled": 0, "lat": 38.8587035, "fusion_lat": 0.0, "is_reserved": 0, "rental_uris": {"ios": "https://dc.lft.to/lastmile_qr_scan", "android": "https://dc.lft.to/lastmile_qr_scan"}, "fusion_lon": 0.0, "type": "electric_scooter", "bike_id": "5a44455bba68adb19a91afc1e322e5ed", "name": "5a44455bba68adb19a91afc1e322e5ed"}, {"lon": -77.04182233333333, "is_disabled": 0, "lat": 38.9204975, "fusion_lat": 0.0, "is_reserved": 0, "rental_uris": {"ios": "https://dc.lft.to/lastmile_qr_scan", "android": "https://dc.lft.to/lastmile_qr_scan"}, "fusion_lon": 0.0, "type": "electric_scooter", "bike_id": "3df5c6d2b032e27a22eba373baf92485", "name": "3df5c6d2b032e27a22eba373baf92485"}, {"lon": -76.98574183333334, "is_disabled": 0, "lat": 38.866833166666666, "fusion_lat": 0.0, "is_reserved": 0, "rental_uris": {"ios": "https://dc.lft.to/lastmile_qr_scan", "android": "https://dc.lft.to/lastmile_qr_scan"}, "fusion_lon": 0.0, "type": "electric_scooter", "bike_id": "607bde0339a7e45876842fb50993b579", "name": "607bde0339a7e45876842fb50993b579"}, {"lon": -77.036441, "is_disabled": 0, "lat": 38.931679333333335, "fusion_lat": 0.0, "is_reserved": 0, "rental_uris": {"ios": "https://dc.lft.to/lastmile_qr_scan", "android": "https://dc.lft.to/lastmile_qr_scan"}, "fusion_lon": 0.0, "type": "electric_scooter", "bike_id": "3bae10ccafd7bbb2a47533877582d02b", "name": "3bae10ccafd7bbb2a47533877582d02b"}, {"lon": -77.0275835, "is_disabled": 0, "lat": 38.91691216666667, "fusion_lat": 0.0, "is_reserved": 0, "rental_uris": {"ios": "https://dc.lft.to/lastmile_qr_scan", "android": "https://dc.lft.to/lastmile_qr_scan"}, "fusion_lon": 0.0, "type": "electric_scooter", "bike_id": "cf0a60aaac2b686737d2b11e71f15cb6", "name": "cf0a60aaac2b686737d2b11e71f15cb6"}, {"lon": -77.0263365, "is_disabled": 0, "lat": 38.9298985, "fusion_lat": 0.0, "is_reserved": 0, "rental_uris": {"ios": "https://dc.lft.to/lastmile_qr_scan", "android": "https://dc.lft.to/lastmile_qr_scan"}, "fusion_lon": 0.0, "type": "electric_scooter", "bike_id": "e89ec9781e6e5d04ef48467f6209669d", "name": "e89ec9781e6e5d04ef48467f6209669d"}, {"lon": -77.02387933333333, "is_disabled": 0, "lat": 38.91675383333333, "fusion_lat": 0.0, "is_reserved": 0, "rental_uris": {"ios": "https://dc.lft.to/lastmile_qr_scan", "android": "https://dc.lft.to/lastmile_qr_scan"}, "fusion_lon": 0.0, "type": "electric_scooter", "bike_id": "c5dfcaad23171997a3346243369228f8", "name": "c5dfcaad23171997a3346243369228f8"}, {"lon": -77.01401983333334, "is_disabled": 0, "lat": 38.9276975, "fusion_lat": 0.0, "is_reserved": 0, "rental_uris": {"ios": "https://dc.lft.to/lastmile_qr_scan", "android": "https://dc.lft.to/lastmile_qr_scan"}, "fusion_lon": 0.0, "type": "electric_scooter", "bike_id": "7bd8e5345116a73cf136e20aefe4f18b", "name": "7bd8e5345116a73cf136e20aefe4f18b"}, {"lon": -77.03798283333333, "is_disabled": 0, "lat": 38.9026145, "fusion_lat": 0.0, "is_reserved": 0, "rental_uris": {"ios": "https://dc.lft.to/lastmile_qr_scan", "android": "https://dc.lft.to/lastmile_qr_scan"}, "fusion_lon": 0.0, "type": "electric_scooter", "bike_id": "a64285dc5ac2b55cfd092ddde725a4ab", "name": "a64285dc5ac2b55cfd092ddde725a4ab"}, {"lon": -77.02146716666667, "is_disabled": 0, "lat": 38.89721483333334, "fusion_lat": 0.0, "is_reserved": 0, "rental_uris": {"ios": "https://dc.lft.to/lastmile_qr_scan", "android": "https://dc.lft.to/lastmile_qr_scan"}, "fusion_lon": 0.0, "type": "electric_scooter", "bike_id": "d022caefc3ca686fe3ff8e69ca719d84", "name": "d022caefc3ca686fe3ff8e69ca719d84"}, {"lon": -77.00444883333333, "is_disabled": 0, "lat": 38.911646, "fusion_lat": 0.0, "is_reserved": 0, "rental_uris": {"ios": "https://dc.lft.to/lastmile_qr_scan", "android": "https://dc.lft.to/lastmile_qr_scan"}, "fusion_lon": 0.0, "type": "electric_scooter", "bike_id": "d5f13086894da7b85d1c907885bed284", "name": "d5f13086894da7b85d1c907885bed284"}, {"lon": -77.02657183333334, "is_disabled": 0, "lat": 38.972007833333336, "fusion_lat": 0.0, "is_reserved": 0, "rental_uris": {"ios": "https://dc.lft.to/lastmile_qr_scan", "android": "https://dc.lft.to/lastmile_qr_scan"}, "fusion_lon": 0.0, "type": "electric_scooter", "bike_id": "063963dad52e7a80a2f379833a46036d", "name": "063963dad52e7a80a2f379833a46036d"}, {"lon": -77.00284266666667, "is_disabled": 0, "lat": 38.919105333333334, "fusion_lat": 0.0, "is_reserved": 0, "rental_uris": {"ios": "https://dc.lft.to/lastmile_qr_scan", "android": "https://dc.lft.to/lastmile_qr_scan"}, "fusion_lon": 0.0, "type": "electric_scooter", "bike_id": "50777a30ee7a40ce4cd742bc8cb57879", "name": "50777a30ee7a40ce4cd742bc8cb57879"}, {"lon": -76.977125, "is_disabled": 0, "lat": 38.885219166666666, "fusion_lat": 0.0, "is_reserved": 0, "rental_uris": {"ios": "https://dc.lft.to/lastmile_qr_scan", "android": "https://dc.lft.to/lastmile_qr_scan"}, "fusion_lon": 0.0, "type": "electric_scooter", "bike_id": "0a3ebd5d5558336e14d7f7847deb57d8", "name": "0a3ebd5d5558336e14d7f7847deb57d8"}, {"lon": -77.0238915, "is_disabled": 0, "lat": 38.91545466666667, "fusion_lat": 0.0, "is_reserved": 0, "rental_uris": {"ios": "https://dc.lft.to/lastmile_qr_scan", "android": "https://dc.lft.to/lastmile_qr_scan"}, "fusion_lon": 0.0, "type": "electric_scooter", "bike_id": "6f715125e3d9bcb52a65d6c6d694e20c", "name": "6f715125e3d9bcb52a65d6c6d694e20c"}, {"lon": -77.05324066666667, "is_disabled": 0, "lat": 38.90262633333333, "fusion_lat": 0.0, "is_reserved": 0, "rental_uris": {"ios": "https://dc.lft.to/lastmile_qr_scan", "android": "https://dc.lft.to/lastmile_qr_scan"}, "fusion_lon": 0.0, "type": "electric_scooter", "bike_id": "517c9d468b079d26ef9bc416b663e01c", "name": "517c9d468b079d26ef9bc416b663e01c"}, {"lon": -77.03859483333333, "is_disabled": 0, "lat": 38.91693583333333, "fusion_lat": 0.0, "is_reserved": 0, "rental_uris": {"ios": "https://dc.lft.to/lastmile_qr_scan", "android": "https://dc.lft.to/lastmile_qr_scan"}, "fusion_lon": 0.0, "type": "electric_scooter", "bike_id": "5d7372cbcc4bbe59819bebbae0dc0a01", "name": "5d7372cbcc4bbe59819bebbae0dc0a01"}, {"lon": -77.04153283333333, "is_disabled": 0, "lat": 38.918580666666664, "fusion_lat": 0.0, "is_reserved": 0, "rental_uris": {"ios": "https://dc.lft.to/lastmile_qr_scan", "android": "https://dc.lft.to/lastmile_qr_scan"}, "fusion_lon": 0.0, "type": "electric_scooter", "bike_id": "3f870b839f2618a6a49be0d379c375e4", "name": "3f870b839f2618a6a49be0d379c375e4"}, {"lon": -77.04531516666667, "is_disabled": 0, "lat": 38.913329833333336, "fusion_lat": 0.0, "is_reserved": 0, "rental_uris": {"ios": "https://dc.lft.to/lastmile_qr_scan", "android": "https://dc.lft.to/lastmile_qr_scan"}, "fusion_lon": 0.0, "type": "electric_scooter", "bike_id": "727e79459b9393bbceeef83d78c0327f", "name": "727e79459b9393bbceeef83d78c0327f"}, {"lon": -77.038653, "is_disabled": 0, "lat": 38.91256283333333, "fusion_lat": 0.0, "is_reserved": 0, "rental_uris": {"ios": "https://dc.lft.to/lastmile_qr_scan", "android": "https://dc.lft.to/lastmile_qr_scan"}, "fusion_lon": 0.0, "type": "electric_scooter", "bike_id": "1e1357e9047458c27b08191ae21e8306", "name": "1e1357e9047458c27b08191ae21e8306"}, {"lon": -77.027136, "is_disabled": 0, "lat": 38.916759166666665, "fusion_lat": 0.0, "is_reserved": 0, "rental_uris": {"ios": "https://dc.lft.to/lastmile_qr_scan", "android": "https://dc.lft.to/lastmile_qr_scan"}, "fusion_lon": 0.0, "type": "electric_scooter", "bike_id": "6c3a565a958df5ea51da5a5d5299be7a", "name": "6c3a565a958df5ea51da5a5d5299be7a"}, {"lon": -77.02315683333333, "is_disabled": 0, "lat": 38.907282, "fusion_lat": 0.0, "is_reserved": 0, "rental_uris": {"ios": "https://dc.lft.to/lastmile_qr_scan", "android": "https://dc.lft.to/lastmile_qr_scan"}, "fusion_lon": 0.0, "type": "electric_scooter", "bike_id": "52b47fc52c9b0c76d3b8db2a1ac23c63", "name": "52b47fc52c9b0c76d3b8db2a1ac23c63"}, {"lon": -77.07060233333333, "is_disabled": 0, "lat": 38.901076833333335, "fusion_lat": 0.0, "is_reserved": 0, "rental_uris": {"ios": "https://dc.lft.to/lastmile_qr_scan", "android": "https://dc.lft.to/lastmile_qr_scan"}, "fusion_lon": 0.0, "type": "electric_scooter", "bike_id": "00b1787d4400f6fc223145cf25a9039c", "name": "00b1787d4400f6fc223145cf25a9039c"}, {"lon": -77.04480366666667, "is_disabled": 0, "lat": 38.895286166666665, "fusion_lat": 0.0, "is_reserved": 0, "rental_uris": {"ios": "https://dc.lft.to/lastmile_qr_scan", "android": "https://dc.lft.to/lastmile_qr_scan"}, "fusion_lon": 0.0, "type": "electric_scooter", "bike_id": "9a4d0ba8a3ac611004394306652bbcb7", "name": "9a4d0ba8a3ac611004394306652bbcb7"}, {"lon": -77.00198866666666, "is_disabled": 0, "lat": 38.902613, "fusion_lat": 0.0, "is_reserved": 0, "rental_uris": {"ios": "https://dc.lft.to/lastmile_qr_scan", "android": "https://dc.lft.to/lastmile_qr_scan"}, "fusion_lon": 0.0, "type": "electric_scooter", "bike_id": "2b72ad0ef6f13d48075de1be43914e54", "name": "2b72ad0ef6f13d48075de1be43914e54"}, {"lon": -77.02191216666667, "is_disabled": 0, "lat": 38.9500805, "fusion_lat": 0.0, "is_reserved": 0, "rental_uris": {"ios": "https://dc.lft.to/lastmile_qr_scan", "android": "https://dc.lft.to/lastmile_qr_scan"}, "fusion_lon": 0.0, "type": "electric_scooter", "bike_id": "6d4ce84f423844a2a3f21c1addd96083", "name": "6d4ce84f423844a2a3f21c1addd96083"}, {"lon": -77.05028216666666, "is_disabled": 0, "lat": 38.89246466666667, "fusion_lat": 0.0, "is_reserved": 0, "rental_uris": {"ios": "https://dc.lft.to/lastmile_qr_scan", "android": "https://dc.lft.to/lastmile_qr_scan"}, "fusion_lon": 0.0, "type": "electric_scooter", "bike_id": "6ee1e7c355f8a4a07f70221b1a12dc9f", "name": "6ee1e7c355f8a4a07f70221b1a12dc9f"}, {"lon": -77.02296266666667, "is_disabled": 0, "lat": 38.90119516666667, "fusion_lat": 0.0, "is_reserved": 0, "rental_uris": {"ios": "https://dc.lft.to/lastmile_qr_scan", "android": "https://dc.lft.to/lastmile_qr_scan"}, "fusion_lon": 0.0, "type": "electric_scooter", "bike_id": "a5fe6c07c463b855070236ac391b3c99", "name": "a5fe6c07c463b855070236ac391b3c99"}, {"lon": -77.039847, "is_disabled": 0, "lat": 38.892247, "fusion_lat": 0.0, "is_reserved": 0, "rental_uris": {"ios": "https://dc.lft.to/lastmile_qr_scan", "android": "https://dc.lft.to/lastmile_qr_scan"}, "fusion_lon": 0.0, "type": "electric_scooter", "bike_id": "751f065c63a88ca0f36a5d61430e4767", "name": "751f065c63a88ca0f36a5d61430e4767"}, {"lon": -77.02389233333334, "is_disabled": 0, "lat": 38.93455983333333, "fusion_lat": 0.0, "is_reserved": 0, "rental_uris": {"ios": "https://dc.lft.to/lastmile_qr_scan", "android": "https://dc.lft.to/lastmile_qr_scan"}, "fusion_lon": 0.0, "type": "electric_scooter", "bike_id": "3554b5742ee37727244d1f717762a0b1", "name": "3554b5742ee37727244d1f717762a0b1"}, {"lon": -76.98845766666666, "is_disabled": 0, "lat": 38.9002865, "fusion_lat": 0.0, "is_reserved": 0, "rental_uris": {"ios": "https://dc.lft.to/lastmile_qr_scan", "android": "https://dc.lft.to/lastmile_qr_scan"}, "fusion_lon": 0.0, "type": "electric_scooter", "bike_id": "e24b64d16bbddaaa644be7fe8c80e1b7", "name": "e24b64d16bbddaaa644be7fe8c80e1b7"}, {"lon": -76.97903466666666, "is_disabled": 0, "lat": 38.904266666666665, "fusion_lat": 0.0, "is_reserved": 0, "rental_uris": {"ios": "https://dc.lft.to/lastmile_qr_scan", "android": "https://dc.lft.to/lastmile_qr_scan"}, "fusion_lon": 0.0, "type": "electric_scooter", "bike_id": "7dadfc72a27bc4296866d873d676819b", "name": "7dadfc72a27bc4296866d873d676819b"}, {"lon": -77.03343966666667, "is_disabled": 0, "lat": 38.92877466666667, "fusion_lat": 0.0, "is_reserved": 0, "rental_uris": {"ios": "https://dc.lft.to/lastmile_qr_scan", "android": "https://dc.lft.to/lastmile_qr_scan"}, "fusion_lon": 0.0, "type": "electric_scooter", "bike_id": "9731aeb396d114c8173fe87df6449a1a", "name": "9731aeb396d114c8173fe87df6449a1a"}, {"lon": -77.01694883333333, "is_disabled": 0, "lat": 38.9075885, "fusion_lat": 0.0, "is_reserved": 0, "rental_uris": {"ios": "https://dc.lft.to/lastmile_qr_scan", "android": "https://dc.lft.to/lastmile_qr_scan"}, "fusion_lon": 0.0, "type": "electric_scooter", "bike_id": "c09113fc02f7b7679cb5bdd5876cd10a", "name": "c09113fc02f7b7679cb5bdd5876cd10a"}, {"lon": -77.01765983333334, "is_disabled": 0, "lat": 38.9204325, "fusion_lat": 0.0, "is_reserved": 0, "rental_uris": {"ios": "https://dc.lft.to/lastmile_qr_scan", "android": "https://dc.lft.to/lastmile_qr_scan"}, "fusion_lon": 0.0, "type": "electric_scooter", "bike_id": "328a4b108a9d66a7ca16e150a4eae400", "name": "328a4b108a9d66a7ca16e150a4eae400"}, {"lon": -77.04366333333333, "is_disabled": 0, "lat": 38.89219333333333, "fusion_lat": 0.0, "is_reserved": 0, "rental_uris": {"ios": "https://dc.lft.to/lastmile_qr_scan", "android": "https://dc.lft.to/lastmile_qr_scan"}, "fusion_lon": 0.0, "type": "electric_scooter", "bike_id": "fc87ad1c1eecce03e203f89df03fb5aa", "name": "fc87ad1c1eecce03e203f89df03fb5aa"}, {"lon": -76.94639916666667, "is_disabled": 0, "lat": 38.898632166666665, "fusion_lat": 0.0, "is_reserved": 0, "rental_uris": {"ios": "https://dc.lft.to/lastmile_qr_scan", "android": "https://dc.lft.to/lastmile_qr_scan"}, "fusion_lon": 0.0, "type": "electric_scooter", "bike_id": "60458f9dffb47632e02e8527e04bd083", "name": "60458f9dffb47632e02e8527e04bd083"}, {"lon": -76.95208216666667, "is_disabled": 0, "lat": 38.93671483333333, "fusion_lat": 0.0, "is_reserved": 0, "rental_uris": {"ios": "https://dc.lft.to/lastmile_qr_scan", "android": "https://dc.lft.to/lastmile_qr_scan"}, "fusion_lon": 0.0, "type": "electric_bike", "bike_id": "449d89c24542bd2729f668a5a554e77b", "name": "449d89c24542bd2729f668a5a554e77b"}, {"lon": -77.22557333333333, "is_disabled": 0, "lat": 38.92457133333333, "fusion_lat": 0.0, "is_reserved": 0, "rental_uris": {"ios": "https://dc.lft.to/lastmile_qr_scan", "android": "https://dc.lft.to/lastmile_qr_scan"}, "fusion_lon": 0.0, "type": "electric_bike", "bike_id": "65b39340d0516757ee4862ecb35018b8", "name": "65b39340d0516757ee4862ecb35018b8"}, {"lon": -77.0160645, "is_disabled": 0, "lat": 38.917592666666664, "fusion_lat": 0.0, "is_reserved": 0, "rental_uris": {"ios": "https://dc.lft.to/lastmile_qr_scan", "android": "https://dc.lft.to/lastmile_qr_scan"}, "fusion_lon": 0.0, "type": "electric_bike", "bike_id": "486b613c4be4e41ecd17242eceecd3fe", "name": "486b613c4be4e41ecd17242eceecd3fe"}, {"lon": -77.02425716666667, "is_disabled": 0, "lat": 38.92654616666667, "fusion_lat": 0.0, "is_reserved": 0, "rental_uris": {"ios": "https://dc.lft.to/lastmile_qr_scan", "android": "https://dc.lft.to/lastmile_qr_scan"}, "fusion_lon": 0.0, "type": "electric_scooter", "bike_id": "d48152aef000a07ceb06f53c41efa19c", "name": "d48152aef000a07ceb06f53c41efa19c"}, {"lon": -76.99488966666667, "is_disabled": 0, "lat": 38.929973, "fusion_lat": 0.0, "is_reserved": 0, "rental_uris": {"ios": "https://dc.lft.to/lastmile_qr_scan", "android": "https://dc.lft.to/lastmile_qr_scan"}, "fusion_lon": 0.0, "type": "electric_scooter", "bike_id": "d8f8ead80d63ec310de1372e2122be52", "name": "d8f8ead80d63ec310de1372e2122be52"}, {"lon": -77.03376416666667, "is_disabled": 0, "lat": 38.920515333333334, "fusion_lat": 0.0, "is_reserved": 0, "rental_uris": {"ios": "https://dc.lft.to/lastmile_qr_scan", "android": "https://dc.lft.to/lastmile_qr_scan"}, "fusion_lon": 0.0, "type": "electric_scooter", "bike_id": "00d3183296fc1be0b4ddaf052770ac4d", "name": "00d3183296fc1be0b4ddaf052770ac4d"}, {"lon": -77.03332083333333, "is_disabled": 0, "lat": 38.94180766666667, "fusion_lat": 0.0, "is_reserved": 0, "rental_uris": {"ios": "https://dc.lft.to/lastmile_qr_scan", "android": "https://dc.lft.to/lastmile_qr_scan"}, "fusion_lon": 0.0, "type": "electric_scooter", "bike_id": "d19483454d17fadb9080e75b4d1b8661", "name": "d19483454d17fadb9080e75b4d1b8661"}, {"lon": -77.04355683333333, "is_disabled": 0, "lat": 38.9147555, "fusion_lat": 0.0, "is_reserved": 0, "rental_uris": {"ios": "https://dc.lft.to/lastmile_qr_scan", "android": "https://dc.lft.to/lastmile_qr_scan"}, "fusion_lon": 0.0, "type": "electric_scooter", "bike_id": "c0fc169f1391c5863db2d61cab73247a", "name": "c0fc169f1391c5863db2d61cab73247a"}, {"lon": -77.01752133333333, "is_disabled": 0, "lat": 38.87700433333333, "fusion_lat": 0.0, "is_reserved": 0, "rental_uris": {"ios": "https://dc.lft.to/lastmile_qr_scan", "android": "https://dc.lft.to/lastmile_qr_scan"}, "fusion_lon": 0.0, "type": "electric_scooter", "bike_id": "3ab44b886f0d2c86f68c5624bf272bdf", "name": "3ab44b886f0d2c86f68c5624bf272bdf"}, {"lon": -77.0331095, "is_disabled": 0, "lat": 38.920480833333336, "fusion_lat": 0.0, "is_reserved": 0, "rental_uris": {"ios": "https://dc.lft.to/lastmile_qr_scan", "android": "https://dc.lft.to/lastmile_qr_scan"}, "fusion_lon": 0.0, "type": "electric_bike", "bike_id": "565887a07d8011b22a9c73c893b04ded", "name": "565887a07d8011b22a9c73c893b04ded"}, {"lon": -77.012865, "is_disabled": 0, "lat": 38.90053916666667, "fusion_lat": 0.0, "is_reserved": 0, "rental_uris": {"ios": "https://dc.lft.to/lastmile_qr_scan", "android": "https://dc.lft.to/lastmile_qr_scan"}, "fusion_lon": 0.0, "type": "electric_scooter", "bike_id": "47f5867c21e1b383ad7dd2dd51eac358", "name": "47f5867c21e1b383ad7dd2dd51eac358"}, {"lon": -76.98425983333334, "is_disabled": 0, "lat": 38.9264645, "fusion_lat": 0.0, "is_reserved": 0, "rental_uris": {"ios": "https://dc.lft.to/lastmile_qr_scan", "android": "https://dc.lft.to/lastmile_qr_scan"}, "fusion_lon": 0.0, "type": "electric_bike", "bike_id": "6a0bef89e9561ad1dfad0a86918e9e4a", "name": "6a0bef89e9561ad1dfad0a86918e9e4a"}, {"lon": -77.021979, "is_disabled": 0, "lat": 38.9268665, "fusion_lat": 0.0, "is_reserved": 0, "rental_uris": {"ios": "https://dc.lft.to/lastmile_qr_scan", "android": "https://dc.lft.to/lastmile_qr_scan"}, "fusion_lon": 0.0, "type": "electric_scooter", "bike_id": "815defe0bbffb09154eac245c851750d", "name": "815defe0bbffb09154eac245c851750d"}, {"lon": -77.0240695, "is_disabled": 0, "lat": 38.919133333333335, "fusion_lat": 0.0, "is_reserved": 0, "rental_uris": {"ios": "https://dc.lft.to/lastmile_qr_scan", "android": "https://dc.lft.to/lastmile_qr_scan"}, "fusion_lon": 0.0, "type": "electric_scooter", "bike_id": "c1f4a6593bc3a1cc13cd4b62b59bd06d", "name": "c1f4a6593bc3a1cc13cd4b62b59bd06d"}, {"lon": -76.97408383333334, "is_disabled": 0, "lat": 38.9020705, "fusion_lat": 0.0, "is_reserved": 0, "rental_uris": {"ios": "https://dc.lft.to/lastmile_qr_scan", "android": "https://dc.lft.to/lastmile_qr_scan"}, "fusion_lon": 0.0, "type": "electric_bike", "bike_id": "4f10153c1babb79462f22f76fe0709b4", "name": "4f10153c1babb79462f22f76fe0709b4"}, {"lon": -77.01859383333333, "is_disabled": 0, "lat": 38.87453283333333, "fusion_lat": 0.0, "is_reserved": 0, "rental_uris": {"ios": "https://dc.lft.to/lastmile_qr_scan", "android": "https://dc.lft.to/lastmile_qr_scan"}, "fusion_lon": 0.0, "type": "electric_scooter", "bike_id": "e00988ec157c911de90839707d9c2275", "name": "e00988ec157c911de90839707d9c2275"}, {"lon": -77.08432366666666, "is_disabled": 0, "lat": 38.93186983333333, "fusion_lat": 0.0, "is_reserved": 0, "rental_uris": {"ios": "https://dc.lft.to/lastmile_qr_scan", "android": "https://dc.lft.to/lastmile_qr_scan"}, "fusion_lon": 0.0, "type": "electric_scooter", "bike_id": "e3f9df2d2c4b6d4f624f72252bd79990", "name": "e3f9df2d2c4b6d4f624f72252bd79990"}, {"lon": -77.04157866666667, "is_disabled": 0, "lat": 38.901360333333336, "fusion_lat": 0.0, "is_reserved": 0, "rental_uris": {"ios": "https://dc.lft.to/lastmile_qr_scan", "android": "https://dc.lft.to/lastmile_qr_scan"}, "fusion_lon": 0.0, "type": "electric_scooter", "bike_id": "8583e61b3fcefdf8cd5174182e869e9d", "name": "8583e61b3fcefdf8cd5174182e869e9d"}, {"lon": -76.9456925, "is_disabled": 0, "lat": 38.866227, "fusion_lat": 0.0, "is_reserved": 0, "rental_uris": {"ios": "https://dc.lft.to/lastmile_qr_scan", "android": "https://dc.lft.to/lastmile_qr_scan"}, "fusion_lon": 0.0, "type": "electric_bike", "bike_id": "3b74e385e9da2ce6a55e3e3efad94892", "name": "3b74e385e9da2ce6a55e3e3efad94892"}, {"lon": -77.04525766666667, "is_disabled": 0, "lat": 38.91329116666667, "fusion_lat": 0.0, "is_reserved": 0, "rental_uris": {"ios": "https://dc.lft.to/lastmile_qr_scan", "android": "https://dc.lft.to/lastmile_qr_scan"}, "fusion_lon": 0.0, "type": "electric_scooter", "bike_id": "03f60437894b7f49540c1ed48b0b842a", "name": "03f60437894b7f49540c1ed48b0b842a"}, {"lon": -77.006841, "is_disabled": 0, "lat": 38.8717155, "fusion_lat": 0.0, "is_reserved": 0, "rental_uris": {"ios": "https://dc.lft.to/lastmile_qr_scan", "android": "https://dc.lft.to/lastmile_qr_scan"}, "fusion_lon": 0.0, "type": "electric_scooter", "bike_id": "a2c11fe68c7d3383c407d5c31d6210cb", "name": "a2c11fe68c7d3383c407d5c31d6210cb"}, {"lon": -76.94892566666667, "is_disabled": 0, "lat": 38.89533433333333, "fusion_lat": 0.0, "is_reserved": 0, "rental_uris": {"ios": "https://dc.lft.to/lastmile_qr_scan", "android": "https://dc.lft.to/lastmile_qr_scan"}, "fusion_lon": 0.0, "type": "electric_scooter", "bike_id": "7e30d640c4260934ecd79fff0afed06a", "name": "7e30d640c4260934ecd79fff0afed06a"}, {"lon": -77.02403083333333, "is_disabled": 0, "lat": 38.915451, "fusion_lat": 0.0, "is_reserved": 0, "rental_uris": {"ios": "https://dc.lft.to/lastmile_qr_scan", "android": "https://dc.lft.to/lastmile_qr_scan"}, "fusion_lon": 0.0, "type": "electric_scooter", "bike_id": "7cdb1a193b3343b9341f16b9df767ef2", "name": "7cdb1a193b3343b9341f16b9df767ef2"}, {"lon": -77.0693135, "is_disabled": 0, "lat": 38.952091, "fusion_lat": 0.0, "is_reserved": 0, "rental_uris": {"ios": "https://dc.lft.to/lastmile_qr_scan", "android": "https://dc.lft.to/lastmile_qr_scan"}, "fusion_lon": 0.0, "type": "electric_scooter", "bike_id": "be83a13c4cd3364f77940a3c9b31818a", "name": "be83a13c4cd3364f77940a3c9b31818a"}, {"lon": -77.0515125, "is_disabled": 0, "lat": 38.92375833333333, "fusion_lat": 0.0, "is_reserved": 0, "rental_uris": {"ios": "https://dc.lft.to/lastmile_qr_scan", "android": "https://dc.lft.to/lastmile_qr_scan"}, "fusion_lon": 0.0, "type": "electric_scooter", "bike_id": "d199219a6449db1aaaf12b5599e3be80", "name": "d199219a6449db1aaaf12b5599e3be80"}, {"lon": -77.03265166666667, "is_disabled": 0, "lat": 38.927553, "fusion_lat": 0.0, "is_reserved": 0, "rental_uris": {"ios": "https://dc.lft.to/lastmile_qr_scan", "android": "https://dc.lft.to/lastmile_qr_scan"}, "fusion_lon": 0.0, "type": "electric_scooter", "bike_id": "1cb96fdd4f5d6a94c9c6d307b6f70a92", "name": "1cb96fdd4f5d6a94c9c6d307b6f70a92"}, {"lon": -77.0352565, "is_disabled": 0, "lat": 38.92239933333333, "fusion_lat": 0.0, "is_reserved": 0, "rental_uris": {"ios": "https://dc.lft.to/lastmile_qr_scan", "android": "https://dc.lft.to/lastmile_qr_scan"}, "fusion_lon": 0.0, "type": "electric_scooter", "bike_id": "de71f3d8b6f2288fe9cba89d3d382cce", "name": "de71f3d8b6f2288fe9cba89d3d382cce"}, {"lon": -77.03214133333333, "is_disabled": 0, "lat": 38.919943333333336, "fusion_lat": 0.0, "is_reserved": 0, "rental_uris": {"ios": "https://dc.lft.to/lastmile_qr_scan", "android": "https://dc.lft.to/lastmile_qr_scan"}, "fusion_lon": 0.0, "type": "electric_scooter", "bike_id": "66b15e3a300ee479234bf676f37a9348", "name": "66b15e3a300ee479234bf676f37a9348"}, {"lon": -77.00802316666666, "is_disabled": 0, "lat": 38.94914516666667, "fusion_lat": 0.0, "is_reserved": 0, "rental_uris": {"ios": "https://dc.lft.to/lastmile_qr_scan", "android": "https://dc.lft.to/lastmile_qr_scan"}, "fusion_lon": 0.0, "type": "electric_bike", "bike_id": "4e609635fb23a938ca47c517cf41195f", "name": "4e609635fb23a938ca47c517cf41195f"}, {"lon": -77.04653416666666, "is_disabled": 0, "lat": 38.90343766666667, "fusion_lat": 0.0, "is_reserved": 0, "rental_uris": {"ios": "https://dc.lft.to/lastmile_qr_scan", "android": "https://dc.lft.to/lastmile_qr_scan"}, "fusion_lon": 0.0, "type": "electric_scooter", "bike_id": "628696730224bf05b5dfaec4be3df76a", "name": "628696730224bf05b5dfaec4be3df76a"}, {"lon": -77.005205, "is_disabled": 0, "lat": 38.874673666666666, "fusion_lat": 0.0, "is_reserved": 0, "rental_uris": {"ios": "https://dc.lft.to/lastmile_qr_scan", "android": "https://dc.lft.to/lastmile_qr_scan"}, "fusion_lon": 0.0, "type": "electric_scooter", "bike_id": "2cdf1048bea406013a3a3f2c16569429", "name": "2cdf1048bea406013a3a3f2c16569429"}, {"lon": -77.0415615, "is_disabled": 0, "lat": 38.914162166666664, "fusion_lat": 0.0, "is_reserved": 0, "rental_uris": {"ios": "https://dc.lft.to/lastmile_qr_scan", "android": "https://dc.lft.to/lastmile_qr_scan"}, "fusion_lon": 0.0, "type": "electric_scooter", "bike_id": "bd09f1c21d600b147a2f8a3c8c56fa16", "name": "bd09f1c21d600b147a2f8a3c8c56fa16"}, {"lon": -77.04475583333334, "is_disabled": 0, "lat": 38.9037735, "fusion_lat": 0.0, "is_reserved": 0, "rental_uris": {"ios": "https://dc.lft.to/lastmile_qr_scan", "android": "https://dc.lft.to/lastmile_qr_scan"}, "fusion_lon": 0.0, "type": "electric_scooter", "bike_id": "475c52ba85c6e7fcee96e70b73a05807", "name": "475c52ba85c6e7fcee96e70b73a05807"}, {"lon": -77.00888733333333, "is_disabled": 0, "lat": 38.923272, "fusion_lat": 0.0, "is_reserved": 0, "rental_uris": {"ios": "https://dc.lft.to/lastmile_qr_scan", "android": "https://dc.lft.to/lastmile_qr_scan"}, "fusion_lon": 0.0, "type": "electric_scooter", "bike_id": "ecfbc9fd73ab9008c0c4a9b9f92b9336", "name": "ecfbc9fd73ab9008c0c4a9b9f92b9336"}, {"lon": -76.98595383333333, "is_disabled": 0, "lat": 38.906216, "fusion_lat": 0.0, "is_reserved": 0, "rental_uris": {"ios": "https://dc.lft.to/lastmile_qr_scan", "android": "https://dc.lft.to/lastmile_qr_scan"}, "fusion_lon": 0.0, "type": "electric_bike", "bike_id": "cec48160e3e05ff9f8b61e993cb1b980", "name": "cec48160e3e05ff9f8b61e993cb1b980"}, {"lon": -77.1405675, "is_disabled": 0, "lat": 38.98765916666667, "fusion_lat": 0.0, "is_reserved": 0, "rental_uris": {"ios": "https://dc.lft.to/lastmile_qr_scan", "android": "https://dc.lft.to/lastmile_qr_scan"}, "fusion_lon": 0.0, "type": "electric_bike", "bike_id": "5378b0d220a1a5317585730076edda6d", "name": "5378b0d220a1a5317585730076edda6d"}, {"lon": -77.00729583333333, "is_disabled": 0, "lat": 38.884951666666666, "fusion_lat": 0.0, "is_reserved": 0, "rental_uris": {"ios": "https://dc.lft.to/lastmile_qr_scan", "android": "https://dc.lft.to/lastmile_qr_scan"}, "fusion_lon": 0.0, "type": "electric_scooter", "bike_id": "53af2e9176c42a494611cdbcbe0a9f62", "name": "53af2e9176c42a494611cdbcbe0a9f62"}, {"lon": -77.03220166666667, "is_disabled": 0, "lat": 38.918442166666665, "fusion_lat": 0.0, "is_reserved": 0, "rental_uris": {"ios": "https://dc.lft.to/lastmile_qr_scan", "android": "https://dc.lft.to/lastmile_qr_scan"}, "fusion_lon": 0.0, "type": "electric_scooter", "bike_id": "2b17e647af8d7b8969c007374fdb81ea", "name": "2b17e647af8d7b8969c007374fdb81ea"}, {"lon": -76.97918533333333, "is_disabled": 0, "lat": 38.91650033333333, "fusion_lat": 0.0, "is_reserved": 0, "rental_uris": {"ios": "https://dc.lft.to/lastmile_qr_scan", "android": "https://dc.lft.to/lastmile_qr_scan"}, "fusion_lon": 0.0, "type": "electric_scooter", "bike_id": "ed8112eb5198671dfcbd713ecbd96b04", "name": "ed8112eb5198671dfcbd713ecbd96b04"}, {"lon": -77.00299816666667, "is_disabled": 0, "lat": 38.920274, "fusion_lat": 0.0, "is_reserved": 0, "rental_uris": {"ios": "https://dc.lft.to/lastmile_qr_scan", "android": "https://dc.lft.to/lastmile_qr_scan"}, "fusion_lon": 0.0, "type": "electric_scooter", "bike_id": "d4e02196029ca397159bb09e78312f70", "name": "d4e02196029ca397159bb09e78312f70"}, {"lon": -77.02974166666667, "is_disabled": 0, "lat": 38.912961, "fusion_lat": 0.0, "is_reserved": 0, "rental_uris": {"ios": "https://dc.lft.to/lastmile_qr_scan", "android": "https://dc.lft.to/lastmile_qr_scan"}, "fusion_lon": 0.0, "type": "electric_scooter", "bike_id": "7928aade64550dd814405c3e1c22b3ba", "name": "7928aade64550dd814405c3e1c22b3ba"}, {"lon": -77.03796716666666, "is_disabled": 0, "lat": 38.90253216666667, "fusion_lat": 0.0, "is_reserved": 0, "rental_uris": {"ios": "https://dc.lft.to/lastmile_qr_scan", "android": "https://dc.lft.to/lastmile_qr_scan"}, "fusion_lon": 0.0, "type": "electric_scooter", "bike_id": "acaf009f21b6456ee589898dac4ea3a0", "name": "acaf009f21b6456ee589898dac4ea3a0"}, {"lon": -76.98813583333333, "is_disabled": 0, "lat": 38.86647166666667, "fusion_lat": 0.0, "is_reserved": 0, "rental_uris": {"ios": "https://dc.lft.to/lastmile_qr_scan", "android": "https://dc.lft.to/lastmile_qr_scan"}, "fusion_lon": 0.0, "type": "electric_scooter", "bike_id": "d6fbeff4b6b8f5a445c022e48083556e", "name": "d6fbeff4b6b8f5a445c022e48083556e"}, {"lon": -77.01969266666667, "is_disabled": 0, "lat": 38.9525325, "fusion_lat": 0.0, "is_reserved": 0, "rental_uris": {"ios": "https://dc.lft.to/lastmile_qr_scan", "android": "https://dc.lft.to/lastmile_qr_scan"}, "fusion_lon": 0.0, "type": "electric_scooter", "bike_id": "fd3875aa373285f20c42349a0b667731", "name": "fd3875aa373285f20c42349a0b667731"}, {"lon": -77.04116283333333, "is_disabled": 0, "lat": 38.92522783333333, "fusion_lat": 0.0, "is_reserved": 0, "rental_uris": {"ios": "https://dc.lft.to/lastmile_qr_scan", "android": "https://dc.lft.to/lastmile_qr_scan"}, "fusion_lon": 0.0, "type": "electric_scooter", "bike_id": "1295e27f8adec43b4088769c9dfa6c72", "name": "1295e27f8adec43b4088769c9dfa6c72"}, {"lon": -77.02002866666666, "is_disabled": 0, "lat": 38.897289666666666, "fusion_lat": 0.0, "is_reserved": 0, "rental_uris": {"ios": "https://dc.lft.to/lastmile_qr_scan", "android": "https://dc.lft.to/lastmile_qr_scan"}, "fusion_lon": 0.0, "type": "electric_scooter", "bike_id": "9c60a3071b34877b153e0488437b749f", "name": "9c60a3071b34877b153e0488437b749f"}, {"lon": -77.020342, "is_disabled": 0, "lat": 38.91550066666667, "fusion_lat": 0.0, "is_reserved": 0, "rental_uris": {"ios": "https://dc.lft.to/lastmile_qr_scan", "android": "https://dc.lft.to/lastmile_qr_scan"}, "fusion_lon": 0.0, "type": "electric_scooter", "bike_id": "5af69cf81252b04482aad25e65dbb8d6", "name": "5af69cf81252b04482aad25e65dbb8d6"}, {"lon": -77.020231, "is_disabled": 0, "lat": 38.924449333333335, "fusion_lat": 0.0, "is_reserved": 0, "rental_uris": {"ios": "https://dc.lft.to/lastmile_qr_scan", "android": "https://dc.lft.to/lastmile_qr_scan"}, "fusion_lon": 0.0, "type": "electric_scooter", "bike_id": "d4116e4cf538d121219f519e7d2ede5f", "name": "d4116e4cf538d121219f519e7d2ede5f"}, {"lon": -77.036458, "is_disabled": 0, "lat": 38.917865666666664, "fusion_lat": 0.0, "is_reserved": 0, "rental_uris": {"ios": "https://dc.lft.to/lastmile_qr_scan", "android": "https://dc.lft.to/lastmile_qr_scan"}, "fusion_lon": 0.0, "type": "electric_scooter", "bike_id": "920dfe75ad8fb7b6be3dee7f96a5808d", "name": "920dfe75ad8fb7b6be3dee7f96a5808d"}, {"lon": -76.9705625, "is_disabled": 0, "lat": 38.9845725, "fusion_lat": 0.0, "is_reserved": 0, "rental_uris": {"ios": "https://dc.lft.to/lastmile_qr_scan", "android": "https://dc.lft.to/lastmile_qr_scan"}, "fusion_lon": 0.0, "type": "electric_bike", "bike_id": "f81dc4187b7941fa6f86e611806402df", "name": "f81dc4187b7941fa6f86e611806402df"}, {"lon": -77.08530966666666, "is_disabled": 0, "lat": 38.916060333333334, "fusion_lat": 0.0, "is_reserved": 0, "rental_uris": {"ios": "https://dc.lft.to/lastmile_qr_scan", "android": "https://dc.lft.to/lastmile_qr_scan"}, "fusion_lon": 0.0, "type": "electric_scooter", "bike_id": "4d604e12a539c4106ea1ade0fc9d5471", "name": "4d604e12a539c4106ea1ade0fc9d5471"}, {"lon": -76.9857665, "is_disabled": 0, "lat": 38.866827, "fusion_lat": 0.0, "is_reserved": 0, "rental_uris": {"ios": "https://dc.lft.to/lastmile_qr_scan", "android": "https://dc.lft.to/lastmile_qr_scan"}, "fusion_lon": 0.0, "type": "electric_scooter", "bike_id": "716f342a7fdc94432e7eee9210ea1318", "name": "716f342a7fdc94432e7eee9210ea1318"}, {"lon": -77.03852133333334, "is_disabled": 0, "lat": 38.9070995, "fusion_lat": 0.0, "is_reserved": 0, "rental_uris": {"ios": "https://dc.lft.to/lastmile_qr_scan", "android": "https://dc.lft.to/lastmile_qr_scan"}, "fusion_lon": 0.0, "type": "electric_scooter", "bike_id": "b1fbca842ddd174602cb6039f31083d1", "name": "b1fbca842ddd174602cb6039f31083d1"}, {"lon": -77.232587, "is_disabled": 0, "lat": 38.87258933333333, "fusion_lat": 0.0, "is_reserved": 0, "rental_uris": {"ios": "https://dc.lft.to/lastmile_qr_scan", "android": "https://dc.lft.to/lastmile_qr_scan"}, "fusion_lon": 0.0, "type": "electric_bike", "bike_id": "74c6235a68e5b2f21a4e158178c0b24e", "name": "74c6235a68e5b2f21a4e158178c0b24e"}, {"lon": -77.02788233333334, "is_disabled": 0, "lat": 38.92770333333333, "fusion_lat": 0.0, "is_reserved": 0, "rental_uris": {"ios": "https://dc.lft.to/lastmile_qr_scan", "android": "https://dc.lft.to/lastmile_qr_scan"}, "fusion_lon": 0.0, "type": "electric_scooter", "bike_id": "e983e505da7d3ca4b7b02862d18906a6", "name": "e983e505da7d3ca4b7b02862d18906a6"}, {"lon": -77.0504945, "is_disabled": 0, "lat": 38.905388333333335, "fusion_lat": 0.0, "is_reserved": 0, "rental_uris": {"ios": "https://dc.lft.to/lastmile_qr_scan", "android": "https://dc.lft.to/lastmile_qr_scan"}, "fusion_lon": 0.0, "type": "electric_scooter", "bike_id": "63096d7cc4aef68f87b069a4d2dead32", "name": "63096d7cc4aef68f87b069a4d2dead32"}, {"lon": -77.04821783333334, "is_disabled": 0, "lat": 38.90972133333333, "fusion_lat": 0.0, "is_reserved": 0, "rental_uris": {"ios": "https://dc.lft.to/lastmile_qr_scan", "android": "https://dc.lft.to/lastmile_qr_scan"}, "fusion_lon": 0.0, "type": "electric_scooter", "bike_id": "8c33e1c5fe46270fce97235d229da902", "name": "8c33e1c5fe46270fce97235d229da902"}, {"lon": -76.9888555, "is_disabled": 0, "lat": 38.866553833333334, "fusion_lat": 0.0, "is_reserved": 0, "rental_uris": {"ios": "https://dc.lft.to/lastmile_qr_scan", "android": "https://dc.lft.to/lastmile_qr_scan"}, "fusion_lon": 0.0, "type": "electric_scooter", "bike_id": "6716b00b8aa2fd49715d6896d35a47d1", "name": "6716b00b8aa2fd49715d6896d35a47d1"}, {"lon": -77.01847933333333, "is_disabled": 0, "lat": 38.9097095, "fusion_lat": 0.0, "is_reserved": 0, "rental_uris": {"ios": "https://dc.lft.to/lastmile_qr_scan", "android": "https://dc.lft.to/lastmile_qr_scan"}, "fusion_lon": 0.0, "type": "electric_scooter", "bike_id": "bfde05ea76e78e3ca0344fefb81eae69", "name": "bfde05ea76e78e3ca0344fefb81eae69"}, {"lon": -77.02312016666667, "is_disabled": 0, "lat": 38.91777916666667, "fusion_lat": 0.0, "is_reserved": 0, "rental_uris": {"ios": "https://dc.lft.to/lastmile_qr_scan", "android": "https://dc.lft.to/lastmile_qr_scan"}, "fusion_lon": 0.0, "type": "electric_scooter", "bike_id": "2667e2abf806dad23b051caefd09a207", "name": "2667e2abf806dad23b051caefd09a207"}, {"lon": -77.228888, "is_disabled": 0, "lat": 38.90958416666667, "fusion_lat": 0.0, "is_reserved": 0, "rental_uris": {"ios": "https://dc.lft.to/lastmile_qr_scan", "android": "https://dc.lft.to/lastmile_qr_scan"}, "fusion_lon": 0.0, "type": "electric_bike", "bike_id": "c07267bdd55db389fa195c27873b5771", "name": "c07267bdd55db389fa195c27873b5771"}, {"lon": -77.00763283333333, "is_disabled": 0, "lat": 38.87908133333333, "fusion_lat": 0.0, "is_reserved": 0, "rental_uris": {"ios": "https://dc.lft.to/lastmile_qr_scan", "android": "https://dc.lft.to/lastmile_qr_scan"}, "fusion_lon": 0.0, "type": "electric_scooter", "bike_id": "46ad15c18704ef945c37fe6d288155e1", "name": "46ad15c18704ef945c37fe6d288155e1"}, {"lon": -77.03336616666667, "is_disabled": 0, "lat": 38.898242333333336, "fusion_lat": 0.0, "is_reserved": 0, "rental_uris": {"ios": "https://dc.lft.to/lastmile_qr_scan", "android": "https://dc.lft.to/lastmile_qr_scan"}, "fusion_lon": 0.0, "type": "electric_scooter", "bike_id": "22ee8e3e413aafa606529e65ab363d12", "name": "22ee8e3e413aafa606529e65ab363d12"}, {"lon": -76.9817565, "is_disabled": 0, "lat": 38.86959616666667, "fusion_lat": 0.0, "is_reserved": 0, "rental_uris": {"ios": "https://dc.lft.to/lastmile_qr_scan", "android": "https://dc.lft.to/lastmile_qr_scan"}, "fusion_lon": 0.0, "type": "electric_scooter", "bike_id": "fda57b2c6babd53c45abc2d7c95bbe0f", "name": "fda57b2c6babd53c45abc2d7c95bbe0f"}, {"lon": -77.04102583333334, "is_disabled": 0, "lat": 38.91040433333333, "fusion_lat": 0.0, "is_reserved": 0, "rental_uris": {"ios": "https://dc.lft.to/lastmile_qr_scan", "android": "https://dc.lft.to/lastmile_qr_scan"}, "fusion_lon": 0.0, "type": "electric_scooter", "bike_id": "f4caeebfb2d5b7dc5cdf424ca4bf0c1c", "name": "f4caeebfb2d5b7dc5cdf424ca4bf0c1c"}, {"lon": -77.03422533333334, "is_disabled": 0, "lat": 38.928613166666665, "fusion_lat": 0.0, "is_reserved": 0, "rental_uris": {"ios": "https://dc.lft.to/lastmile_qr_scan", "android": "https://dc.lft.to/lastmile_qr_scan"}, "fusion_lon": 0.0, "type": "electric_scooter", "bike_id": "6868c60aa00c8600d27328eb5fc25cd5", "name": "6868c60aa00c8600d27328eb5fc25cd5"}, {"lon": -77.03934966666667, "is_disabled": 0, "lat": 38.89849366666667, "fusion_lat": 0.0, "is_reserved": 0, "rental_uris": {"ios": "https://dc.lft.to/lastmile_qr_scan", "android": "https://dc.lft.to/lastmile_qr_scan"}, "fusion_lon": 0.0, "type": "electric_scooter", "bike_id": "d815eea491c098ff3593cb1a225f4d1c", "name": "d815eea491c098ff3593cb1a225f4d1c"}, {"lon": -77.0417195, "is_disabled": 0, "lat": 38.91392066666667, "fusion_lat": 0.0, "is_reserved": 0, "rental_uris": {"ios": "https://dc.lft.to/lastmile_qr_scan", "android": "https://dc.lft.to/lastmile_qr_scan"}, "fusion_lon": 0.0, "type": "electric_scooter", "bike_id": "840d8558dfee914f3aff6d69f723b6eb", "name": "840d8558dfee914f3aff6d69f723b6eb"}, {"lon": -76.97835083333334, "is_disabled": 0, "lat": 38.898464833333335, "fusion_lat": 0.0, "is_reserved": 0, "rental_uris": {"ios": "https://dc.lft.to/lastmile_qr_scan", "android": "https://dc.lft.to/lastmile_qr_scan"}, "fusion_lon": 0.0, "type": "electric_scooter", "bike_id": "24c4a40cd92898915464ed40172349ce", "name": "24c4a40cd92898915464ed40172349ce"}, {"lon": -77.02454333333333, "is_disabled": 0, "lat": 38.938531, "fusion_lat": 0.0, "is_reserved": 0, "rental_uris": {"ios": "https://dc.lft.to/lastmile_qr_scan", "android": "https://dc.lft.to/lastmile_qr_scan"}, "fusion_lon": 0.0, "type": "electric_scooter", "bike_id": "ca738eeeebd8ba26c81dee370ffea5f1", "name": "ca738eeeebd8ba26c81dee370ffea5f1"}, {"lon": -77.03641416666666, "is_disabled": 0, "lat": 38.9178925, "fusion_lat": 0.0, "is_reserved": 0, "rental_uris": {"ios": "https://dc.lft.to/lastmile_qr_scan", "android": "https://dc.lft.to/lastmile_qr_scan"}, "fusion_lon": 0.0, "type": "electric_scooter", "bike_id": "3991afa8e30aeb0b2122da68e721ca08", "name": "3991afa8e30aeb0b2122da68e721ca08"}, {"lon": -77.01141033333333, "is_disabled": 0, "lat": 38.896415833333336, "fusion_lat": 0.0, "is_reserved": 0, "rental_uris": {"ios": "https://dc.lft.to/lastmile_qr_scan", "android": "https://dc.lft.to/lastmile_qr_scan"}, "fusion_lon": 0.0, "type": "electric_scooter", "bike_id": "cab626fa38b0cc53147ee73015ef02c6", "name": "cab626fa38b0cc53147ee73015ef02c6"}, {"lon": -76.93026266666666, "is_disabled": 0, "lat": 38.89568, "fusion_lat": 0.0, "is_reserved": 0, "rental_uris": {"ios": "https://dc.lft.to/lastmile_qr_scan", "android": "https://dc.lft.to/lastmile_qr_scan"}, "fusion_lon": 0.0, "type": "electric_scooter", "bike_id": "8372b5ccb259969ac0c0ad2d0e772509", "name": "8372b5ccb259969ac0c0ad2d0e772509"}, {"lon": -76.9462665, "is_disabled": 0, "lat": 38.83244066666666, "fusion_lat": 0.0, "is_reserved": 0, "rental_uris": {"ios": "https://dc.lft.to/lastmile_qr_scan", "android": "https://dc.lft.to/lastmile_qr_scan"}, "fusion_lon": 0.0, "type": "electric_bike", "bike_id": "ca52d6ca483ebfea908468c539337a30", "name": "ca52d6ca483ebfea908468c539337a30"}, {"lon": -76.99620433333334, "is_disabled": 0, "lat": 38.884437, "fusion_lat": 0.0, "is_reserved": 0, "rental_uris": {"ios": "https://dc.lft.to/lastmile_qr_scan", "android": "https://dc.lft.to/lastmile_qr_scan"}, "fusion_lon": 0.0, "type": "electric_scooter", "bike_id": "11e3795ed0f63db6935cb3f422ee6c85", "name": "11e3795ed0f63db6935cb3f422ee6c85"}, {"lon": -77.04288733333334, "is_disabled": 0, "lat": 39.034319833333335, "fusion_lat": 0.0, "is_reserved": 0, "rental_uris": {"ios": "https://dc.lft.to/lastmile_qr_scan", "android": "https://dc.lft.to/lastmile_qr_scan"}, "fusion_lon": 0.0, "type": "electric_bike", "bike_id": "e5d68bef3e25b04bc5079d6ff0caa32b", "name": "e5d68bef3e25b04bc5079d6ff0caa32b"}, {"lon": -77.01141183333333, "is_disabled": 0, "lat": 38.90647383333334, "fusion_lat": 0.0, "is_reserved": 0, "rental_uris": {"ios": "https://dc.lft.to/lastmile_qr_scan", "android": "https://dc.lft.to/lastmile_qr_scan"}, "fusion_lon": 0.0, "type": "electric_scooter", "bike_id": "76cca3ec30766e1c46731afafe9186ba", "name": "76cca3ec30766e1c46731afafe9186ba"}, {"lon": -77.04520233333334, "is_disabled": 0, "lat": 38.92314533333333, "fusion_lat": 0.0, "is_reserved": 0, "rental_uris": {"ios": "https://dc.lft.to/lastmile_qr_scan", "android": "https://dc.lft.to/lastmile_qr_scan"}, "fusion_lon": 0.0, "type": "electric_scooter", "bike_id": "96e2f168f78e1f7ebd495ddb00024a5e", "name": "96e2f168f78e1f7ebd495ddb00024a5e"}, {"lon": -77.04358466666666, "is_disabled": 0, "lat": 38.91469216666667, "fusion_lat": 0.0, "is_reserved": 0, "rental_uris": {"ios": "https://dc.lft.to/lastmile_qr_scan", "android": "https://dc.lft.to/lastmile_qr_scan"}, "fusion_lon": 0.0, "type": "electric_scooter", "bike_id": "6f3b433a1711a828ae00cc8331edcbf9", "name": "6f3b433a1711a828ae00cc8331edcbf9"}, {"lon": -77.02698116666667, "is_disabled": 0, "lat": 38.900799, "fusion_lat": 0.0, "is_reserved": 0, "rental_uris": {"ios": "https://dc.lft.to/lastmile_qr_scan", "android": "https://dc.lft.to/lastmile_qr_scan"}, "fusion_lon": 0.0, "type": "electric_scooter", "bike_id": "1d5b0185f07fc99d5b7451c90d6ef3bc", "name": "1d5b0185f07fc99d5b7451c90d6ef3bc"}, {"lon": -77.04156216666667, "is_disabled": 0, "lat": 38.907267166666664, "fusion_lat": 0.0, "is_reserved": 0, "rental_uris": {"ios": "https://dc.lft.to/lastmile_qr_scan", "android": "https://dc.lft.to/lastmile_qr_scan"}, "fusion_lon": 0.0, "type": "electric_scooter", "bike_id": "e1e22e01f6eeddf38fb5ebb4c9efe93d", "name": "e1e22e01f6eeddf38fb5ebb4c9efe93d"}, {"lon": -76.97783616666666, "is_disabled": 0, "lat": 38.905673, "fusion_lat": 0.0, "is_reserved": 0, "rental_uris": {"ios": "https://dc.lft.to/lastmile_qr_scan", "android": "https://dc.lft.to/lastmile_qr_scan"}, "fusion_lon": 0.0, "type": "electric_scooter", "bike_id": "96e473a946f4052272df60f357d4e650", "name": "96e473a946f4052272df60f357d4e650"}, {"lon": -77.02734616666666, "is_disabled": 0, "lat": 38.932060166666666, "fusion_lat": 0.0, "is_reserved": 0, "rental_uris": {"ios": "https://dc.lft.to/lastmile_qr_scan", "android": "https://dc.lft.to/lastmile_qr_scan"}, "fusion_lon": 0.0, "type": "electric_scooter", "bike_id": "c4bb006ca7229b6ffd5b6bdbda0a6836", "name": "c4bb006ca7229b6ffd5b6bdbda0a6836"}, {"lon": -77.05150566666667, "is_disabled": 0, "lat": 38.92378583333333, "fusion_lat": 0.0, "is_reserved": 0, "rental_uris": {"ios": "https://dc.lft.to/lastmile_qr_scan", "android": "https://dc.lft.to/lastmile_qr_scan"}, "fusion_lon": 0.0, "type": "electric_scooter", "bike_id": "d0e0c183be8d1d83d563a1052aad6c85", "name": "d0e0c183be8d1d83d563a1052aad6c85"}, {"lon": -76.98684283333333, "is_disabled": 0, "lat": 38.877542166666665, "fusion_lat": 0.0, "is_reserved": 0, "rental_uris": {"ios": "https://dc.lft.to/lastmile_qr_scan", "android": "https://dc.lft.to/lastmile_qr_scan"}, "fusion_lon": 0.0, "type": "electric_scooter", "bike_id": "cec0fd526195e670cd20bca5c6a3a343", "name": "cec0fd526195e670cd20bca5c6a3a343"}, {"lon": -77.01208616666666, "is_disabled": 0, "lat": 38.90616983333334, "fusion_lat": 0.0, "is_reserved": 0, "rental_uris": {"ios": "https://dc.lft.to/lastmile_qr_scan", "android": "https://dc.lft.to/lastmile_qr_scan"}, "fusion_lon": 0.0, "type": "electric_scooter", "bike_id": "6f57be420fb2b7115784f158f70e7145", "name": "6f57be420fb2b7115784f158f70e7145"}, {"lon": -77.0341305, "is_disabled": 0, "lat": 38.90950566666667, "fusion_lat": 0.0, "is_reserved": 0, "rental_uris": {"ios": "https://dc.lft.to/lastmile_qr_scan", "android": "https://dc.lft.to/lastmile_qr_scan"}, "fusion_lon": 0.0, "type": "electric_scooter", "bike_id": "6dd44c171194dfb51a215ca4e06edc38", "name": "6dd44c171194dfb51a215ca4e06edc38"}, {"lon": -77.03364333333333, "is_disabled": 0, "lat": 38.92160833333333, "fusion_lat": 0.0, "is_reserved": 0, "rental_uris": {"ios": "https://dc.lft.to/lastmile_qr_scan", "android": "https://dc.lft.to/lastmile_qr_scan"}, "fusion_lon": 0.0, "type": "electric_scooter", "bike_id": "198190261ae9577042196e0b2ccc1b02", "name": "198190261ae9577042196e0b2ccc1b02"}, {"lon": -76.95666266666667, "is_disabled": 0, "lat": 38.884683, "fusion_lat": 0.0, "is_reserved": 0, "rental_uris": {"ios": "https://dc.lft.to/lastmile_qr_scan", "android": "https://dc.lft.to/lastmile_qr_scan"}, "fusion_lon": 0.0, "type": "electric_bike", "bike_id": "1aa050554f04f3345369b088352bd74b", "name": "1aa050554f04f3345369b088352bd74b"}, {"lon": -77.02774233333334, "is_disabled": 0, "lat": 38.928687333333336, "fusion_lat": 0.0, "is_reserved": 0, "rental_uris": {"ios": "https://dc.lft.to/lastmile_qr_scan", "android": "https://dc.lft.to/lastmile_qr_scan"}, "fusion_lon": 0.0, "type": "electric_scooter", "bike_id": "675906b75e0421af65ac3a33bf27d634", "name": "675906b75e0421af65ac3a33bf27d634"},