{"data": {"bikes": [{"fusion_lat": 0.0, "name": "657a4f2d1492a0497b57ce7332a20784", "is_disabled": 0, "rental_uris": {"android": "https://dc.lft.to/lastmile_qr_scan", "ios": "https://dc.lft.to/lastmile_qr_scan"}, "fusion_lon": 0.0, "lat": 38.906979, "bike_id": "657a4f2d1492a0497b57ce7332a20784", "type": "electric_scooter", "is_reserved": 0, "lon": -77.0652375}, {"fusion_lat": 0.0, "name": "a95972d083a8c7cf6725d40aebf996e2", "is_disabled": 0, "rental_uris": {"android": "https://dc.lft.to/lastmile_qr_scan", "ios": "https://dc.lft.to/lastmile_qr_scan"}, "fusion_lon": 0.0, "lat": 38.904544, "bike_id": "a95972d083a8c7cf6725d40aebf996e2", "type": "electric_scooter", "is_reserved": 0, "lon": -77.03463883333333}, {"fusion_lat": 0.0, "name": "6be26de7eed65ad134e895a78e066030", "is_disabled": 0, "rental_uris": {"android": "https://dc.lft.to/lastmile_qr_scan", "ios": "https://dc.lft.to/lastmile_qr_scan"}, "fusion_lon": 0.0, "lat": 38.91103433333333, "bike_id": "6be26de7eed65ad134e895a78e066030", "type": "electric_scooter", "is_reserved": 0, "lon": -77.01667166666667}, {"fusion_lat": 0.0, "name": "9589398385b0699bd8af397a86b8c39e", "is_disabled": 0, "rental_uris": {"android": "https://dc.lft.to/lastmile_qr_scan", "ios": "https://dc.lft.to/lastmile_qr_scan"}, "fusion_lon": 0.0, "lat": 38.91821216666666, "bike_id": "9589398385b0699bd8af397a86b8c39e", "type": "electric_scooter", "is_reserved": 0, "lon": -77.02515766666667}, {"fusion_lat": 0.0, "name": "7bb95a1b109a465121084225f42dbb95", "is_disabled": 0, "rental_uris": {"android": "https://dc.lft.to/lastmile_qr_scan", "ios": "https://dc.lft.to/lastmile_qr_scan"}, "fusion_lon": 0.0, "lat": 38.898416166666664, "bike_id": "7bb95a1b109a465121084225f42dbb95", "type": "electric_scooter", "is_reserved": 0, "lon": -77.02428783333333}, {"fusion_lat": 0.0, "name": "6befb38c8138fd70a91442c48d5b03ea", "is_disabled": 0, "rental_uris": {"android": "https://dc.lft.to/lastmile_qr_scan", "ios": "https://dc.lft.to/lastmile_qr_scan"}, "fusion_lon": 0.0, "lat": 38.916967666666665, "bike_id": "6befb38c8138fd70a91442c48d5b03ea", "type": "electric_scooter", "is_reserved": 0, "lon": -77.022921}, {"fusion_lat": 0.0, "name": "c6e7ea9115aff3df79d0658ea0f34582", "is_disabled": 0, "rental_uris": {"android": "https://dc.lft.to/lastmile_qr_scan", "ios": "https://dc.lft.to/lastmile_qr_scan"}, "fusion_lon": 0.0, "lat": 38.91992966666667, "bike_id": "c6e7ea9115aff3df79d0658ea0f34582", "type": "electric_scooter", "is_reserved": 0, "lon": -76.97306}, {"fusion_lat": 0.0, "name": "1539907afaed6cc91a11df10ca187c5e", "is_disabled": 0, "rental_uris": {"android": "https://dc.lft.to/lastmile_qr_scan", "ios": "https://dc.lft.to/lastmile_qr_scan"}, "fusion_lon": 0.0, "lat": 38.938268, "bike_id": "1539907afaed6cc91a11df10ca187c5e", "type": "electric_scooter", "is_reserved": 0, "lon": -76.9918835}, {"fusion_lat": 0.0, "name": "8338505e1585e3b1043c9284066c88f2", "is_disabled": 0, "rental_uris": {"android": "https://dc.lft.to/lastmile_qr_scan", "ios": "https://dc.lft.to/lastmile_qr_scan"}, "fusion_lon": 0.0, "lat": 38.893440166666664, "bike_id": "8338505e1585e3b1043c9284066c88f2", "type": "electric_scooter", "is_reserved": 0, "lon": -76.99159966666667}, {"fusion_lat": 0.0, "name": "5574a7e5fc0b5456fb55291a29e33724", "is_disabled": 0, "rental_uris": {"android": "https://dc.lft.to/lastmile_qr_scan", "ios": "https://dc.lft.to/lastmile_qr_scan"}, "fusion_lon": 0.0, "lat": 38.900338833333336, "bike_id": "5574a7e5fc0b5456fb55291a29e33724", "type": "electric_scooter", "is_reserved": 0, "lon": -77.0358425}, {"fusion_lat": 0.0, "name": "0467e955b2588df12e3b66602bd6af77", "is_disabled": 0, "rental_uris": {"android": "https://dc.lft.to/lastmile_qr_scan", "ios": "https://dc.lft.to/lastmile_qr_scan"}, "fusion_lon": 0.0, "lat": 38.916214333333336, "bike_id": "0467e955b2588df12e3b66602bd6af77", "type": "electric_scooter", "is_reserved": 0, "lon": -77.02164616666667}, {"fusion_lat": 0.0, "name": "dd102030e9e0ffa430682992353f86d0", "is_disabled": 0, "rental_uris": {"android": "https://dc.lft.to/lastmile_qr_scan", "ios": "https://dc.lft.to/lastmile_qr_scan"}, "fusion_lon": 0.0, "lat": 38.922896, "bike_id": "dd102030e9e0ffa430682992353f86d0", "type": "electric_scooter", "is_reserved": 0, "lon": -77.07329966666667}, {"fusion_lat": 0.0, "name": "737c84485a69d999a7c51dc6ea345b5d", "is_disabled": 0, "rental_uris": {"android": "https://dc.lft.to/lastmile_qr_scan", "ios": "https://dc.lft.to/lastmile_qr_scan"}, "fusion_lon": 0.0, "lat": 38.90783416666667, "bike_id": "737c84485a69d999a7c51dc6ea345b5d", "type": "electric_scooter", "is_reserved": 0, "lon": -77.03862566666666}, {"fusion_lat": 0.0, "name": "1e2739ee2148ac9795d5c5b4233e21fe", "is_disabled": 0, "rental_uris": {"android": "https://dc.lft.to/lastmile_qr_scan", "ios": "https://dc.lft.to/lastmile_qr_scan"}, "fusion_lon": 0.0, "lat": 38.91716566666667, "bike_id": "1e2739ee2148ac9795d5c5b4233e21fe", "type": "electric_scooter", "is_reserved": 0, "lon": -77.04156183333333}, {"fusion_lat": 0.0, "name": "1d8bb1735931ac97c5305f68152db1f1", "is_disabled": 0, "rental_uris": {"android": "https://dc.lft.to/lastmile_qr_scan", "ios": "https://dc.lft.to/lastmile_qr_scan"}, "fusion_lon": 0.0, "lat": 38.876975, "bike_id": "1d8bb1735931ac97c5305f68152db1f1", "type": "electric_scooter", "is_reserved": 0, "lon": -77.00749383333333}, {"fusion_lat": 0.0, "name": "0736dff94436bfa53a75d0634d75f1c8", "is_disabled": 0, "rental_uris": {"android": "https://dc.lft.to/lastmile_qr_scan", "ios": "https://dc.lft.to/lastmile_qr_scan"}, "fusion_lon": 0.0, "lat": 38.89958466666667, "bike_id": "0736dff94436bfa53a75d0634d75f1c8", "type": "electric_bike", "is_reserved": 0, "lon": -77.01467683333334}, {"fusion_lat": 0.0, "name": "d76d4f3bd3b7137feea69b6c586b15b0", "is_disabled": 0, "rental_uris": {"android": "https://dc.lft.to/lastmile_qr_scan", "ios": "https://dc.lft.to/lastmile_qr_scan"}, "fusion_lon": 0.0, "lat": 38.902899, "bike_id": "d76d4f3bd3b7137feea69b6c586b15b0", "type": "electric_scooter", "is_reserved": 0, "lon": -76.99043583333334}, {"fusion_lat": 0.0, "name": "6e2e1cb333455e7e03f613c57c11bc93", "is_disabled": 0, "rental_uris": {"android": "https://dc.lft.to/lastmile_qr_scan", "ios": "https://dc.lft.to/lastmile_qr_scan"}, "fusion_lon": 0.0, "lat": 38.944955666666665, "bike_id": "6e2e1cb333455e7e03f613c57c11bc93", "type": "electric_scooter", "is_reserved": 0, "lon": -77.0388705}, {"fusion_lat": 0.0, "name": "e0429c283530cf655d38c1785726d469", "is_disabled": 0, "rental_uris": {"android": "https://dc.lft.to/lastmile_qr_scan", "ios": "https://dc.lft.to/lastmile_qr_scan"}, "fusion_lon": 0.0, "lat": 38.890170499999996, "bike_id": "e0429c283530cf655d38c1785726d469", "type": "electric_scooter", "is_reserved": 0, "lon": -76.93740333333334}, {"fusion_lat": 0.0, "name": "a9193bccf659e6c46b66f6fdd17dec1f", "is_disabled": 0, "rental_uris": {"android": "https://dc.lft.to/lastmile_qr_scan", "ios": "https://dc.lft.to/lastmile_qr_scan"}, "fusion_lon": 0.0, "lat": 38.8958055, "bike_id": "a9193bccf659e6c46b66f6fdd17dec1f", "type": "electric_scooter", "is_reserved": 0, "lon": -76.948936}, {"fusion_lat": 0.0, "name": "b1d2b7aa5d0ef1e57f783c5597169d17", "is_disabled": 0, "rental_uris": {"android": "https://dc.lft.to/lastmile_qr_scan", "ios": "https://dc.lft.to/lastmile_qr_scan"}, "fusion_lon": 0.0, "lat": 38.918365, "bike_id": "b1d2b7aa5d0ef1e57f783c5597169d17", "type": "electric_scooter", "is_reserved": 0, "lon": -77.04026466666667}, {"fusion_lat": 0.0, "name": "74c6c490088749fb4456eb34490f77f2", "is_disabled": 0, "rental_uris": {"android": "https://dc.lft.to/lastmile_qr_scan", "ios": "https://dc.lft.to/lastmile_qr_scan"}, "fusion_lon": 0.0, "lat": 38.91784633333333, "bike_id": "74c6c490088749fb4456eb34490f77f2", "type": "electric_scooter", "is_reserved": 0, "lon": -77.04102833333333}, {"fusion_lat": 0.0, "name": "276800074d6071b011fa5ad9092fa9d1", "is_disabled": 0, "rental_uris": {"android": "https://dc.lft.to/lastmile_qr_scan", "ios": "https://dc.lft.to/lastmile_qr_scan"}, "fusion_lon": 0.0, "lat": 38.945199333333335, "bike_id": "276800074d6071b011fa5ad9092fa9d1", "type": "electric_scooter", "is_reserved": 0, "lon": -77.02273566666666}, {"fusion_lat": 0.0, "name": "985d8ccce689e9dfd45b1150d47f7ec9", "is_disabled": 0, "rental_uris": {"android": "https://dc.lft.to/lastmile_qr_scan", "ios": "https://dc.lft.to/lastmile_qr_scan"}, "fusion_lon": 0.0, "lat": 38.91408166666667, "bike_id": "985d8ccce689e9dfd45b1150d47f7ec9", "type": "electric_scooter", "is_reserved": 0, "lon": -77.0321995}, {"fusion_lat": 0.0, "name": "9be5b6d5238db873c8264c7130161f12", "is_disabled": 0, "rental_uris": {"android": "https://dc.lft.to/lastmile_qr_scan", "ios": "https://dc.lft.to/lastmile_qr_scan"}, "fusion_lon": 0.0, "lat": 38.91513583333333, "bike_id": "9be5b6d5238db873c8264c7130161f12", "type": "electric_scooter", "is_reserved": 0, "lon": -77.027043}, {"fusion_lat": 0.0, "name": "53f2b6047f9b68fc1145d21d92bcbcef", "is_disabled": 0, "rental_uris": {"android": "https://dc.lft.to/lastmile_qr_scan", "ios": "https://dc.lft.to/lastmile_qr_scan"}, "fusion_lon": 0.0, "lat": 38.935251, "bike_id": "53f2b6047f9b68fc1145d21d92bcbcef", "type": "electric_scooter", "is_reserved": 0, "lon": -77.0725995}, {"fusion_lat": 0.0, "name": "df1bf81b6524a1ae2162d3d116c0aa1d", "is_disabled": 0, "rental_uris": {"android": "https://dc.lft.to/lastmile_qr_scan", "ios": "https://dc.lft.to/lastmile_qr_scan"}, "fusion_lon": 0.0, "lat": 38.907681333333336, "bike_id": "df1bf81b6524a1ae2162d3d116c0aa1d", "type": "electric_scooter", "is_reserved": 0, "lon": -77.0501415}, {"fusion_lat": 0.0, "name": "1ca94fd88e10d6937c46768cb0da9dc5", "is_disabled": 0, "rental_uris": {"android": "https://dc.lft.to/lastmile_qr_scan", "ios": "https://dc.lft.to/lastmile_qr_scan"}, "fusion_lon": 0.0, "lat": 38.847554333333335, "bike_id": "1ca94fd88e10d6937c46768cb0da9dc5", "type": "electric_scooter", "is_reserved": 0, "lon": -76.995009}, {"fusion_lat": 0.0, "name": "a60fb18ec904cee29f308202822411e7", "is_disabled": 0, "rental_uris": {"android": "https://dc.lft.to/lastmile_qr_scan", "ios": "https://dc.lft.to/lastmile_qr_scan"}, "fusion_lon": 0.0, "lat": 38.89442066666667, "bike_id": "a60fb18ec904cee29f308202822411e7", "type": "electric_scooter", "is_reserved": 0, "lon": -76.93679}, {"fusion_lat": 0.0, "name": "bf3b17a24c2e039e0f91ce950190148b", "is_disabled": 0, "rental_uris": {"android": "https://dc.lft.to/lastmile_qr_scan", "ios": "https://dc.lft.to/lastmile_qr_scan"}, "fusion_lon": 0.0, "lat": 39.052556333333335, "bike_id": "bf3b17a24c2e039e0f91ce950190148b", "type": "electric_bike", "is_reserved": 0, "lon": -77.08077516666667}, {"fusion_lat": 0.0, "name": "f9cd76119e72f2d3c51a0689b6a27223", "is_disabled": 0, "rental_uris": {"android": "https://dc.lft.to/lastmile_qr_scan", "ios": "https://dc.lft.to/lastmile_qr_scan"}, "fusion_lon": 0.0, "lat": 38.93555333333333, "bike_id": "f9cd76119e72f2d3c51a0689b6a27223", "type": "electric_bike", "is_reserved": 0, "lon": -77.03703933333334}, {"fusion_lat": 0.0, "name": "15bcb0950276a1ac23d9224cd7ac8b9c", "is_disabled": 0, "rental_uris": {"android": "https://dc.lft.to/lastmile_qr_scan", "ios": "https://dc.lft.to/lastmile_qr_scan"}, "fusion_lon": 0.0, "lat": 38.914080166666665, "bike_id": "15bcb0950276a1ac23d9224cd7ac8b9c", "type": "electric_scooter", "is_reserved": 0, "lon": -77.03228283333333}, {"fusion_lat": 0.0, "name": "356bdbe5ac5e7cb98e5fef345a5ed216", "is_disabled": 0, "rental_uris": {"android": "https://dc.lft.to/lastmile_qr_scan", "ios": "https://dc.lft.to/lastmile_qr_scan"}, "fusion_lon": 0.0, "lat": 38.910419833333336, "bike_id": "356bdbe5ac5e7cb98e5fef345a5ed216", "type": "electric_scooter", "is_reserved": 0, "lon": -77.04290083333333}, {"fusion_lat": 0.0, "name": "9d28dbf225554e400d7689d73e975551", "is_disabled": 0, "rental_uris": {"android": "https://dc.lft.to/lastmile_qr_scan", "ios": "https://dc.lft.to/lastmile_qr_scan"}, "fusion_lon": 0.0, "lat": 38.90198983333333, "bike_id": "9d28dbf225554e400d7689d73e975551", "type": "electric_scooter", "is_reserved": 0, "lon": -77.03667433333334}, {"fusion_lat": 0.0, "name": "634635f4200498af9cdeaa9f32f76151", "is_disabled": 0, "rental_uris": {"android": "https://dc.lft.to/lastmile_qr_scan", "ios": "https://dc.lft.to/lastmile_qr_scan"}, "fusion_lon": 0.0, "lat": 38.8966695, "bike_id": "634635f4200498af9cdeaa9f32f76151", "type": "electric_scooter", "is_reserved": 0, "lon": -76.988465}, {"fusion_lat": 0.0, "name": "c78a6d084ba04b9be4e276b84799fc12", "is_disabled": 0, "rental_uris": {"android": "https://dc.lft.to/lastmile_qr_scan", "ios": "https://dc.lft.to/lastmile_qr_scan"}, "fusion_lon": 0.0, "lat": 38.87189866666667, "bike_id": "c78a6d084ba04b9be4e276b84799fc12", "type": "electric_scooter", "is_reserved": 0, "lon": -77.00625733333334}, {"fusion_lat": 0.0, "name": "14aa275cd0fb426deaf6e13376aabae4", "is_disabled": 0, "rental_uris": {"android": "https://dc.lft.to/lastmile_qr_scan", "ios": "https://dc.lft.to/lastmile_qr_scan"}, "fusion_lon": 0.0, "lat": 38.89875683333333, "bike_id": "14aa275cd0fb426deaf6e13376aabae4", "type": "electric_scooter", "is_reserved": 0, "lon": -76.931852}, {"fusion_lat": 0.0, "name": "433750f08acd36cdacf1dadf832737fd", "is_disabled": 0, "rental_uris": {"android": "https://dc.lft.to/lastmile_qr_scan", "ios": "https://dc.lft.to/lastmile_qr_scan"}, "fusion_lon": 0.0, "lat": 38.90526366666667, "bike_id": "433750f08acd36cdacf1dadf832737fd", "type": "electric_scooter", "is_reserved": 0, "lon": -77.029808}, {"fusion_lat": 0.0, "name": "c1680d15cac2355924d4648a3318b515", "is_disabled": 0, "rental_uris": {"android": "https://dc.lft.to/lastmile_qr_scan", "ios": "https://dc.lft.to/lastmile_qr_scan"}, "fusion_lon": 0.0, "lat": 38.90748883333333, "bike_id": "c1680d15cac2355924d4648a3318b515", "type": "electric_scooter", "is_reserved": 0, "lon": -77.045634}, {"fusion_lat": 0.0, "name": "dcaf7201760320468126b29b645b9aad", "is_disabled": 0, "rental_uris": {"android": "https://dc.lft.to/lastmile_qr_scan", "ios": "https://dc.lft.to/lastmile_qr_scan"}, "fusion_lon": 0.0, "lat": 38.950853, "bike_id": "dcaf7201760320468126b29b645b9aad", "type": "electric_bike", "is_reserved": 0, "lon": -77.0122745}, {"fusion_lat": 0.0, "name": "2918cdc49763e169ccf32282f61434ee", "is_disabled": 0, "rental_uris": {"android": "https://dc.lft.to/lastmile_qr_scan", "ios": "https://dc.lft.to/lastmile_qr_scan"}, "fusion_lon": 0.0, "lat": 38.88702083333333, "bike_id": "2918cdc49763e169ccf32282f61434ee", "type": "electric_scooter", "is_reserved": 0, "lon": -76.99612566666667}, {"fusion_lat": 0.0, "name": "0f5bed8a39bb3a0b5017d0cd14d0d47e", "is_disabled": 0, "rental_uris": {"android": "https://dc.lft.to/lastmile_qr_scan", "ios": "https://dc.lft.to/lastmile_qr_scan"}, "fusion_lon": 0.0, "lat": 38.81941116666667, "bike_id": "0f5bed8a39bb3a0b5017d0cd14d0d47e", "type": "electric_bike", "is_reserved": 0, "lon": -77.002074}, {"fusion_lat": 0.0, "name": "82821430a915ca74e013f3dfd0b3418f", "is_disabled": 0, "rental_uris": {"android": "https://dc.lft.to/lastmile_qr_scan", "ios": "https://dc.lft.to/lastmile_qr_scan"}, "fusion_lon": 0.0, "lat": 38.9006465, "bike_id": "82821430a915ca74e013f3dfd0b3418f", "type": "electric_scooter", "is_reserved": 0, "lon": -77.04540116666666}, {"fusion_lat": 0.0, "name": "58fa0181d7db9d9b8f32a539e692921f", "is_disabled": 0, "rental_uris": {"android": "https://dc.lft.to/lastmile_qr_scan", "ios": "https://dc.lft.to/lastmile_qr_scan"}, "fusion_lon": 0.0, "lat": 38.90728466666667, "bike_id": "58fa0181d7db9d9b8f32a539e692921f", "type": "electric_scooter", "is_reserved": 0, "lon": -77.02067666666666}, {"fusion_lat": 0.0, "name": "97e8b30c7c02b5400e7630cc03a5a932", "is_disabled": 0, "rental_uris": {"android": "https://dc.lft.to/lastmile_qr_scan", "ios": "https://dc.lft.to/lastmile_qr_scan"}, "fusion_lon": 0.0, "lat": 38.9314955, "bike_id": "97e8b30c7c02b5400e7630cc03a5a932", "type": "electric_scooter", "is_reserved": 0, "lon": -77.03967333333334}, {"fusion_lat": 0.0, "name": "b0dbea4e52b9d73affb3d9cf9041ca7e", "is_disabled": 0, "rental_uris": {"android": "https://dc.lft.to/lastmile_qr_scan", "ios": "https://dc.lft.to/lastmile_qr_scan"}, "fusion_lon": 0.0, "lat": 38.91567216666667, "bike_id": "b0dbea4e52b9d73affb3d9cf9041ca7e", "type": "electric_scooter", "is_reserved": 0, "lon": -77.04214816666666}, {"fusion_lat": 0.0, "name": "1903abdd8a23836abb5a74d10e9d378c", "is_disabled": 0, "rental_uris": {"android": "https://dc.lft.to/lastmile_qr_scan", "ios": "https://dc.lft.to/lastmile_qr_scan"}, "fusion_lon": 0.0, "lat": 38.91386116666666, "bike_id": "1903abdd8a23836abb5a74d10e9d378c", "type": "electric_scooter", "is_reserved": 0, "lon": -77.032154}, {"fusion_lat": 0.0, "name": "40f83a17c58c4a7e9d63b72b00d2d4a7", "is_disabled": 0, "rental_uris": {"android": "https://dc.lft.to/lastmile_qr_scan", "ios": "https://dc.lft.to/lastmile_qr_scan"}, "fusion_lon": 0.0, "lat": 38.835027333333336, "bike_id": "40f83a17c58c4a7e9d63b72b00d2d4a7", "type": "electric_bike", "is_reserved": 0, "lon": -77.0902115}, {"fusion_lat": 0.0, "name": "94b6041189207bd08eb99649f4a7c73d", "is_disabled": 0, "rental_uris": {"android": "https://dc.lft.to/lastmile_qr_scan", "ios": "https://dc.lft.to/lastmile_qr_scan"}, "fusion_lon": 0.0, "lat": 38.90232133333333, "bike_id": "94b6041189207bd08eb99649f4a7c73d", "type": "electric_scooter", "is_reserved": 0, "lon": -77.03477766666667}, {"fusion_lat": 0.0, "name": "069d56c3ef61d2a866d899413d844f65", "is_disabled": 0, "rental_uris": {"android": "https://dc.lft.to/lastmile_qr_scan", "ios": "https://dc.lft.to/lastmile_qr_scan"}, "fusion_lon": 0.0, "lat": 38.8974005, "bike_id": "069d56c3ef61d2a866d899413d844f65", "type": "electric_scooter", "is_reserved": 0, "lon": -77.02443966666667}, {"fusion_lat": 0.0, "name": "bc8a34521e820b7946e085668b29734d", "is_disabled": 0, "rental_uris": {"android": "https://dc.lft.to/lastmile_qr_scan", "ios": "https://dc.lft.to/lastmile_qr_scan"}, "fusion_lon": 0.0, "lat": 38.9003885, "bike_id": "bc8a34521e820b7946e085668b29734d", "type": "electric_scooter", "is_reserved": 0, "lon": -77.03379466666667}, {"fusion_lat": 0.0, "name": "876068c47a0a192026b5b876cda4ff19", "is_disabled": 0, "rental_uris": {"android": "https://dc.lft.to/lastmile_qr_scan", "ios": "https://dc.lft.to/lastmile_qr_scan"}, "fusion_lon": 0.0, "lat": 38.934670833333335, "bike_id": "876068c47a0a192026b5b876cda4ff19", "type": "electric_scooter", "is_reserved": 0, "lon": -77.04121633333334}, {"fusion_lat": 0.0, "name": "0981d7256f99b2e27d8823579c511387", "is_disabled": 0, "rental_uris": {"android": "https://dc.lft.to/lastmile_qr_scan", "ios": "https://dc.lft.to/lastmile_qr_scan"}, "fusion_lon": 0.0, "lat": 38.92119016666667, "bike_id": "0981d7256f99b2e27d8823579c511387", "type": "electric_scooter", "is_reserved": 0, "lon": -77.01210483333334}, {"fusion_lat": 0.0, "name": "9165efa92e3884d2e7ecae652d14e81a", "is_disabled": 0, "rental_uris": {"android": "https://dc.lft.to/lastmile_qr_scan", "ios": "https://dc.lft.to/lastmile_qr_scan"}, "fusion_lon": 0.0, "lat": 38.909095, "bike_id": "9165efa92e3884d2e7ecae652d14e81a", "type": "electric_scooter", "is_reserved": 0, "lon": -76.9992535}, {"fusion_lat": 0.0, "name": "21a6b5eb8bfd6d59b53aa1dc0c315c56", "is_disabled": 0, "rental_uris": {"android": "https://dc.lft.to/lastmile_qr_scan", "ios": "https://dc.lft.to/lastmile_qr_scan"}, "fusion_lon": 0.0, "lat": 38.92482616666667, "bike_id": "21a6b5eb8bfd6d59b53aa1dc0c315c56", "type": "electric_scooter", "is_reserved": 0, "lon": -77.02073183333333}, {"fusion_lat": 0.0, "name": "4880d0b36cc4c8b020051984f34a291e", "is_disabled": 0, "rental_uris": {"android": "https://dc.lft.to/lastmile_qr_scan", "ios": "https://dc.lft.to/lastmile_qr_scan"}, "fusion_lon": 0.0, "lat": 38.9117735, "bike_id": "4880d0b36cc4c8b020051984f34a291e", "type": "electric_scooter", "is_reserved": 0, "lon": -77.028367}, {"fusion_lat": 0.0, "name": "b8ff1699375fbc60582553e698f3c998", "is_disabled": 0, "rental_uris": {"android": "https://dc.lft.to/lastmile_qr_scan", "ios": "https://dc.lft.to/lastmile_qr_scan"}, "fusion_lon": 0.0, "lat": 38.907892833333335, "bike_id": "b8ff1699375fbc60582553e698f3c998", "type": "electric_scooter", "is_reserved": 0, "lon": -77.04237983333333}, {"fusion_lat": 0.0, "name": "a765765c004e06a1f5ac2ac7db2e1780", "is_disabled": 0, "rental_uris": {"android": "https://dc.lft.to/lastmile_qr_scan", "ios": "https://dc.lft.to/lastmile_qr_scan"}, "fusion_lon": 0.0, "lat": 38.920586, "bike_id": "a765765c004e06a1f5ac2ac7db2e1780", "type": "electric_scooter", "is_reserved": 0, "lon": -77.02366033333334}, {"fusion_lat": 0.0, "name": "92be63ab6d892fc7373e33478961abf7", "is_disabled": 0, "rental_uris": {"android": "https://dc.lft.to/lastmile_qr_scan", "ios": "https://dc.lft.to/lastmile_qr_scan"}, "fusion_lon": 0.0, "lat": 38.9117575, "bike_id": "92be63ab6d892fc7373e33478961abf7", "type": "electric_scooter", "is_reserved": 0, "lon": -77.02972283333334}, {"fusion_lat": 0.0, "name": "09fef8b0472322a50d25ad54c55bef86", "is_disabled": 0, "rental_uris": {"android": "https://dc.lft.to/lastmile_qr_scan", "ios": "https://dc.lft.to/lastmile_qr_scan"}, "fusion_lon": 0.0, "lat": 38.9072965, "bike_id": "09fef8b0472322a50d25ad54c55bef86", "type": "electric_scooter", "is_reserved": 0, "lon": -77.0476235}, {"fusion_lat": 0.0, "name": "e7585322e698de28fffdc903caa99adb", "is_disabled": 0, "rental_uris": {"android": "https://dc.lft.to/lastmile_qr_scan", "ios": "https://dc.lft.to/lastmile_qr_scan"}, "fusion_lon": 0.0, "lat": 38.908280166666664, "bike_id": "e7585322e698de28fffdc903caa99adb", "type": "electric_scooter", "is_reserved": 0, "lon": -77.04364966666667}, {"fusion_lat": 0.0, "name": "d94cd55eb5cf8e652c12eb1a3f68e374", "is_disabled": 0, "rental_uris": {"android": "https://dc.lft.to/lastmile_qr_scan", "ios": "https://dc.lft.to/lastmile_qr_scan"}, "fusion_lon": 0.0, "lat": 38.901030166666665, "bike_id": "d94cd55eb5cf8e652c12eb1a3f68e374", "type": "electric_scooter", "is_reserved": 0, "lon": -76.93049483333333}, {"fusion_lat": 0.0, "name": "76ae039eac13eb5cd3f895a8f195e5d3", "is_disabled": 0, "rental_uris": {"android": "https://dc.lft.to/lastmile_qr_scan", "ios": "https://dc.lft.to/lastmile_qr_scan"}, "fusion_lon": 0.0, "lat": 38.907218666666665, "bike_id": "76ae039eac13eb5cd3f895a8f195e5d3", "type": "electric_scooter", "is_reserved": 0, "lon": -77.0114125}, {"fusion_lat": 0.0, "name": "47768e87d094f57d2842eb9af900e61d", "is_disabled": 0, "rental_uris": {"android": "https://dc.lft.to/lastmile_qr_scan", "ios": "https://dc.lft.to/lastmile_qr_scan"}, "fusion_lon": 0.0, "lat": 38.92298266666667, "bike_id": "47768e87d094f57d2842eb9af900e61d", "type": "electric_scooter", "is_reserved": 0, "lon": -77.0182375}, {"fusion_lat": 0.0, "name": "31e7bc85c346dd4c7db4251b300ad090", "is_disabled": 0, "rental_uris": {"android": "https://dc.lft.to/lastmile_qr_scan", "ios": "https://dc.lft.to/lastmile_qr_scan"}, "fusion_lon": 0.0, "lat": 38.896166666666666, "bike_id": "31e7bc85c346dd4c7db4251b300ad090", "type": "electric_scooter", "is_reserved": 0, "lon": -77.02279633333333}, {"fusion_lat": 0.0, "name": "4c59c8400712ea7eea378fa6cfbd3f93", "is_disabled": 0, "rental_uris": {"android": "https://dc.lft.to/lastmile_qr_scan", "ios": "https://dc.lft.to/lastmile_qr_scan"}, "fusion_lon": 0.0, "lat": 38.924932166666665, "bike_id": "4c59c8400712ea7eea378fa6cfbd3f93", "type": "electric_scooter", "is_reserved": 0, "lon": -77.027175}, {"fusion_lat": 0.0, "name": "d6e57dbe8aeaa6ddc54b156c7aaeb1e0", "is_disabled": 0, "rental_uris": {"android": "https://dc.lft.to/lastmile_qr_scan", "ios": "https://dc.lft.to/lastmile_qr_scan"}, "fusion_lon": 0.0, "lat": 38.94327116666667, "bike_id": "d6e57dbe8aeaa6ddc54b156c7aaeb1e0", "type": "electric_scooter", "is_reserved": 0, "lon": -77.015548}, {"fusion_lat": 0.0, "name": "c598f751ef18e24c17e9393d0be7e4d8", "is_disabled": 0, "rental_uris": {"android": "https://dc.lft.to/lastmile_qr_scan", "ios": "https://dc.lft.to/lastmile_qr_scan"}, "fusion_lon": 0.0, "lat": 38.890179, "bike_id": "c598f751ef18e24c17e9393d0be7e4d8", "type": "electric_scooter", "is_reserved": 0, "lon": -76.93738483333334}, {"fusion_lat": 0.0, "name": "5e8e7aec9288eb1bf7f93e63da065984", "is_disabled": 0, "rental_uris": {"android": "https://dc.lft.to/lastmile_qr_scan", "ios": "https://dc.lft.to/lastmile_qr_scan"}, "fusion_lon": 0.0, "lat": 38.9111195, "bike_id": "5e8e7aec9288eb1bf7f93e63da065984", "type": "electric_scooter", "is_reserved": 0, "lon": -77.01003316666667}, {"fusion_lat": 0.0, "name": "08a01b8ff8f3a112f9eda3db2d2f9bbc", "is_disabled": 0, "rental_uris": {"android": "https://dc.lft.to/lastmile_qr_scan", "ios": "https://dc.lft.to/lastmile_qr_scan"}, "fusion_lon": 0.0, "lat": 38.896066166666664, "bike_id": "08a01b8ff8f3a112f9eda3db2d2f9bbc", "type": "electric_scooter", "is_reserved": 0, "lon": -76.98113333333333}, {"fusion_lat": 0.0, "name": "8d77bf43e1acec137df0f97a95590895", "is_disabled": 0, "rental_uris": {"android": "https://dc.lft.to/lastmile_qr_scan", "ios": "https://dc.lft.to/lastmile_qr_scan"}, "fusion_lon": 0.0, "lat": 38.8956495, "bike_id": "8d77bf43e1acec137df0f97a95590895", "type": "electric_scooter", "is_reserved": 0, "lon": -77.03147383333334}, {"fusion_lat": 0.0, "name": "c9d3083b2ded7eb18c8c02ee0d60a6f1", "is_disabled": 0, "rental_uris": {"android": "https://dc.lft.to/lastmile_qr_scan", "ios": "https://dc.lft.to/lastmile_qr_scan"}, "fusion_lon": 0.0, "lat": 38.908396, "bike_id": "c9d3083b2ded7eb18c8c02ee0d60a6f1", "type": "electric_scooter", "is_reserved": 0, "lon": -77.000945}, {"fusion_lat": 0.0, "name": "a39db836731bfb4f5d7aa45bb05870b1", "is_disabled": 0, "rental_uris": {"android": "https://dc.lft.to/lastmile_qr_scan", "ios": "https://dc.lft.to/lastmile_qr_scan"}, "fusion_lon": 0.0, "lat": 38.907248333333335, "bike_id": "a39db836731bfb4f5d7aa45bb05870b1", "type": "electric_scooter", "is_reserved": 0, "lon": -77.04772816666667}, {"fusion_lat": 0.0, "name": "d927fa491851e8fa91757385725d24bb", "is_disabled": 0, "rental_uris": {"android": "https://dc.lft.to/lastmile_qr_scan", "ios": "https://dc.lft.to/lastmile_qr_scan"}, "fusion_lon": 0.0, "lat": 38.903955, "bike_id": "d927fa491851e8fa91757385725d24bb", "type": "electric_scooter", "is_reserved": 0, "lon": -77.0177295}, {"fusion_lat": 0.0, "name": "8852774cefeebd78b39e4f349d277771", "is_disabled": 0, "rental_uris": {"android": "https://dc.lft.to/lastmile_qr_scan", "ios": "https://dc.lft.to/lastmile_qr_scan"}, "fusion_lon": 0.0, "lat": 38.92289183333333, "bike_id": "8852774cefeebd78b39e4f349d277771", "type": "electric_scooter", "is_reserved": 0, "lon": -77.02335716666667}, {"fusion_lat": 0.0, "name": "0eb4881d8cf4b6abd1916902c381a3ad", "is_disabled": 0, "rental_uris": {"android": "https://dc.lft.to/lastmile_qr_scan", "ios": "https://dc.lft.to/lastmile_qr_scan"}, "fusion_lon": 0.0, "lat": 38.88324083333333, "bike_id": "0eb4881d8cf4b6abd1916902c381a3ad", "type": "electric_scooter", "is_reserved": 0, "lon": -77.01369833333334}, {"fusion_lat": 0.0, "name": "102e87448a2851d0e9bdd28178d9dcab", "is_disabled": 0, "rental_uris": {"android": "https://dc.lft.to/lastmile_qr_scan", "ios": "https://dc.lft.to/lastmile_qr_scan"}, "fusion_lon": 0.0, "lat": 38.916525666666665, "bike_id": "102e87448a2851d0e9bdd28178d9dcab", "type": "electric_scooter", "is_reserved": 0, "lon": -77.0218445}, {"fusion_lat": 0.0, "name": "9e862816a7b1adb0e343e1d764d7f1ed", "is_disabled": 0, "rental_uris": {"android": "https://dc.lft.to/lastmile_qr_scan", "ios": "https://dc.lft.to/lastmile_qr_scan"}, "fusion_lon": 0.0, "lat": 38.924454833333336, "bike_id": "9e862816a7b1adb0e343e1d764d7f1ed", "type": "electric_scooter", "is_reserved": 0, "lon": -77.0087935}, {"fusion_lat": 0.0, "name": "804eb27e69a8077ca4158f8abe666364", "is_disabled": 0, "rental_uris": {"android": "https://dc.lft.to/lastmile_qr_scan", "ios": "https://dc.lft.to/lastmile_qr_scan"}, "fusion_lon": 0.0, "lat": 38.9975675, "bike_id": "804eb27e69a8077ca4158f8abe666364", "type": "electric_bike", "is_reserved": 0, "lon": -77.026833}, {"fusion_lat": 0.0, "name": "2eba603ec876d15a8109bb64518d6ba9", "is_disabled": 0, "rental_uris": {"android": "https://dc.lft.to/lastmile_qr_scan", "ios": "https://dc.lft.to/lastmile_qr_scan"}, "fusion_lon": 0.0, "lat": 38.91847033333333, "bike_id": "2eba603ec876d15a8109bb64518d6ba9", "type": "electric_scooter", "is_reserved": 0, "lon": -77.03210466666667}, {"fusion_lat": 0.0, "name": "265aef9561f0e8c73f7905b0bae7d91c", "is_disabled": 0, "rental_uris": {"android": "https://dc.lft.to/lastmile_qr_scan", "ios": "https://dc.lft.to/lastmile_qr_scan"}, "fusion_lon": 0.0, "lat": 38.93586533333333, "bike_id": "265aef9561f0e8c73f7905b0bae7d91c", "type": "electric_scooter", "is_reserved": 0, "lon": -77.03359133333333}, {"fusion_lat": 0.0, "name": "365675bf6aa25bb1d0ee14a4c3ac3954", "is_disabled": 0, "rental_uris": {"android": "https://dc.lft.to/lastmile_qr_scan", "ios": "https://dc.lft.to/lastmile_qr_scan"}, "fusion_lon": 0.0, "lat": 38.89693716666667, "bike_id": "365675bf6aa25bb1d0ee14a4c3ac3954", "type": "electric_scooter", "is_reserved": 0, "lon": -77.05101266666667}, {"fusion_lat": 0.0, "name": "7b818159f58fd49db274fb42c7604a73", "is_disabled": 0, "rental_uris": {"android": "https://dc.lft.to/lastmile_qr_scan", "ios": "https://dc.lft.to/lastmile_qr_scan"}, "fusion_lon": 0.0, "lat": 38.902484, "bike_id": "7b818159f58fd49db274fb42c7604a73", "type": "electric_scooter", "is_reserved": 0, "lon": -77.0211985}, {"fusion_lat": 0.0, "name": "90db9ea29d93c07efb10f2e5cdbe1985", "is_disabled": 0, "rental_uris": {"android": "https://dc.lft.to/lastmile_qr_scan", "ios": "https://dc.lft.to/lastmile_qr_scan"}, "fusion_lon": 0.0, "lat": 38.90067166666667, "bike_id": "90db9ea29d93c07efb10f2e5cdbe1985", "type": "electric_scooter", "is_reserved": 0, "lon": -76.93379333333333}, {"fusion_lat": 0.0, "name": "9a4dc45a71256a6f6332d6193b8b7168", "is_disabled": 0, "rental_uris": {"android": "https://dc.lft.to/lastmile_qr_scan", "ios": "https://dc.lft.to/lastmile_qr_scan"}, "fusion_lon": 0.0, "lat": 38.9077335, "bike_id": "9a4dc45a71256a6f6332d6193b8b7168", "type": "electric_scooter", "is_reserved": 0, "lon": -77.0559835}, {"fusion_lat": 0.0, "name": "16a7f9a049931318f17dad81125f01b7", "is_disabled": 0, "rental_uris": {"android": "https://dc.lft.to/lastmile_qr_scan", "ios": "https://dc.lft.to/lastmile_qr_scan"}, "fusion_lon": 0.0, "lat": 38.9068645, "bike_id": "16a7f9a049931318f17dad81125f01b7", "type": "electric_scooter", "is_reserved": 0, "lon": -77.07220283333334}, {"fusion_lat": 0.0, "name": "65b8d3b46b5885d65c9cf3771a8bae86", "is_disabled": 0, "rental_uris": {"android": "https://dc.lft.to/lastmile_qr_scan", "ios": "https://dc.lft.to/lastmile_qr_scan"}, "fusion_lon": 0.0, "lat": 38.942702833333335, "bike_id": "65b8d3b46b5885d65c9cf3771a8bae86", "type": "electric_scooter", "is_reserved": 0, "lon": -77.032594}, {"fusion_lat": 0.0, "name": "7c1ea0a12d1a11c580e4c6f6d8e4df64", "is_disabled": 0, "rental_uris": {"android": "https://dc.lft.to/lastmile_qr_scan", "ios": "https://dc.lft.to/lastmile_qr_scan"}, "fusion_lon": 0.0, "lat": 38.835195666666664, "bike_id": "7c1ea0a12d1a11c580e4c6f6d8e4df64", "type": "electric_bike", "is_reserved": 0, "lon": -76.98674566666666}, {"fusion_lat": 0.0, "name": "9fb95a20f0e26d5bac0b7419ed62e54f", "is_disabled": 0, "rental_uris": {"android": "https://dc.lft.to/lastmile_qr_scan", "ios": "https://dc.lft.to/lastmile_qr_scan"}, "fusion_lon": 0.0, "lat": 38.94009416666667, "bike_id": "9fb95a20f0e26d5bac0b7419ed62e54f", "type": "electric_scooter", "is_reserved": 0, "lon": -77.08417883333334}, {"fusion_lat": 0.0, "name": "0673a800c7d88b6a59d1af8bde60984c", "is_disabled": 0, "rental_uris": {"android": "https://dc.lft.to/lastmile_qr_scan", "ios": "https://dc.lft.to/lastmile_qr_scan"}, "fusion_lon": 0.0, "lat": 38.915575, "bike_id": "0673a800c7d88b6a59d1af8bde60984c", "type": "electric_scooter", "is_reserved": 0, "lon": -77.01136933333333}, {"fusion_lat": 0.0, "name": "5ba2d5631701d7d551fa6f284f8d8b17", "is_disabled": 0, "rental_uris": {"android": "https://dc.lft.to/lastmile_qr_scan", "ios": "https://dc.lft.to/lastmile_qr_scan"}, "fusion_lon": 0.0, "lat": 38.90165416666667, "bike_id": "5ba2d5631701d7d551fa6f284f8d8b17", "type": "electric_scooter", "is_reserved": 0, "lon": -77.02016516666667}, {"fusion_lat": 0.0, "name": "8891a20ca3fb1c234f1b750d0c3e347b", "is_disabled": 0, "rental_uris": {"android": "https://dc.lft.to/lastmile_qr_scan", "ios": "https://dc.lft.to/lastmile_qr_scan"}, "fusion_lon": 0.0, "lat": 38.9588335, "bike_id": "8891a20ca3fb1c234f1b750d0c3e347b", "type": "electric_scooter", "is_reserved": 0, "lon": -77.01171216666667}, {"fusion_lat": 0.0, "name": "90f33c666753df2ee41442a3aa2407a8", "is_disabled": 0, "rental_uris": {"android": "https://dc.lft.to/lastmile_qr_scan", "ios": "https://dc.lft.to/lastmile_qr_scan"}, "fusion_lon": 0.0, "lat": 38.864151166666666, "bike_id": "90f33c666753df2ee41442a3aa2407a8", "type": "electric_scooter", "is_reserved": 0, "lon": -77.01224383333333}, {"fusion_lat": 0.0, "name": "93a0ba2ad83b4b36f30a311f2d9b5f1e", "is_disabled": 0, "rental_uris": {"android": "https://dc.lft.to/lastmile_qr_scan", "ios": "https://dc.lft.to/lastmile_qr_scan"}, "fusion_lon": 0.0, "lat": 38.91103483333333, "bike_id": "93a0ba2ad83b4b36f30a311f2d9b5f1e", "type": "electric_scooter", "is_reserved": 0, "lon": -77.07355066666666}, {"fusion_lat": 0.0, "name": "c6209aa6293dd3435f5b5dd43286ba1c", "is_disabled": 0, "rental_uris": {"android": "https://dc.lft.to/lastmile_qr_scan", "ios": "https://dc.lft.to/lastmile_qr_scan"}, "fusion_lon": 0.0, "lat": 38.896639, "bike_id": "c6209aa6293dd3435f5b5dd43286ba1c", "type": "electric_scooter", "is_reserved": 0, "lon": -77.02453666666666}, {"fusion_lat": 0.0, "name": "35a1d8aa3d8ab4ff928d2fd23949bf07", "is_disabled": 0, "rental_uris": {"android": "https://dc.lft.to/lastmile_qr_scan", "ios": "https://dc.lft.to/lastmile_qr_scan"}, "fusion_lon": 0.0, "lat": 38.884079166666666, "bike_id": "35a1d8aa3d8ab4ff928d2fd23949bf07", "type": "electric_scooter", "is_reserved": 0, "lon": -77.02568916666667}, {"fusion_lat": 0.0, "name": "2d7ba9283f94cd57561012e302fd2d0d", "is_disabled": 0, "rental_uris": {"android": "https://dc.lft.to/lastmile_qr_scan", "ios": "https://dc.lft.to/lastmile_qr_scan"}, "fusion_lon": 0.0, "lat": 38.8813285, "bike_id": "2d7ba9283f94cd57561012e302fd2d0d", "type": "electric_scooter", "is_reserved": 0, "lon": -77.01656}, {"fusion_lat": 0.0, "name": "c1a9af901051ecb39672b376a92ae087", "is_disabled": 0, "rental_uris": {"android": "https://dc.lft.to/lastmile_qr_scan", "ios": "https://dc.lft.to/lastmile_qr_scan"}, "fusion_lon": 0.0, "lat": 38.88194683333333, "bike_id": "c1a9af901051ecb39672b376a92ae087", "type": "electric_scooter", "is_reserved": 0, "lon": -77.0006525}, {"fusion_lat": 0.0, "name": "513a2237841c2f3e5cef11665fc09a72", "is_disabled": 0, "rental_uris": {"android": "https://dc.lft.to/lastmile_qr_scan", "ios": "https://dc.lft.to/lastmile_qr_scan"}, "fusion_lon": 0.0, "lat": 38.912381833333335, "bike_id": "513a2237841c2f3e5cef11665fc09a72", "type": "electric_scooter", "is_reserved": 0, "lon": -77.00920616666667}, {"fusion_lat": 0.0, "name": "fe59f6db12d6ec1af97cf53c5be379f6", "is_disabled": 0, "rental_uris": {"android": "https://dc.lft.to/lastmile_qr_scan", "ios": "https://dc.lft.to/lastmile_qr_scan"}, "fusion_lon": 0.0, "lat": 38.914639666666666, "bike_id": "fe59f6db12d6ec1af97cf53c5be379f6", "type": "electric_scooter", "is_reserved": 0, "lon": -76.98438116666667}, {"fusion_lat": 0.0, "name": "9314def4c7507650b7ef130ce9dfebd8", "is_disabled": 0, "rental_uris": {"android": "https://dc.lft.to/lastmile_qr_scan", "ios": "https://dc.lft.to/lastmile_qr_scan"}, "fusion_lon": 0.0, "lat": 38.9659305, "bike_id": "9314def4c7507650b7ef130ce9dfebd8", "type": "electric_scooter", "is_reserved": 0, "lon": -77.01593933333334}, {"fusion_lat": 0.0, "name": "c5b97041eaf929aeaf3781f4c2fcc15a", "is_disabled": 0, "rental_uris": {"android": "https://dc.lft.to/lastmile_qr_scan", "ios": "https://dc.lft.to/lastmile_qr_scan"}, "fusion_lon": 0.0, "lat": 38.933831166666664, "bike_id": "c5b97041eaf929aeaf3781f4c2fcc15a", "type": "electric_scooter", "is_reserved": 0, "lon": -77.0387325}, {"fusion_lat": 0.0, "name": "1de659c788ce48113f8bd078d5647f49", "is_disabled": 0, "rental_uris": {"android": "https://dc.lft.to/lastmile_qr_scan", "ios": "https://dc.lft.to/lastmile_qr_scan"}, "fusion_lon": 0.0, "lat": 38.919529833333335, "bike_id": "1de659c788ce48113f8bd078d5647f49", "type": "electric_scooter", "is_reserved": 0, "lon": -77.03202933333333}, {"fusion_lat": 0.0, "name": "9366562e76913940134ac71a7eacfafb", "is_disabled": 0, "rental_uris": {"android": "https://dc.lft.to/lastmile_qr_scan", "ios": "https://dc.lft.to/lastmile_qr_scan"}, "fusion_lon": 0.0, "lat": 38.8796755, "bike_id": "9366562e76913940134ac71a7eacfafb", "type": "electric_bike", "is_reserved": 0, "lon": -76.9161995}, {"fusion_lat": 0.0, "name": "b9b8009151714afc231f3ba3a833d6b1", "is_disabled": 0, "rental_uris": {"android": "https://dc.lft.to/lastmile_qr_scan", "ios": "https://dc.lft.to/lastmile_qr_scan"}, "fusion_lon": 0.0, "lat": 38.9111515, "bike_id": "b9b8009151714afc231f3ba3a833d6b1", "type": "electric_scooter", "is_reserved": 0, "lon": -77.03283733333333}, {"fusion_lat": 0.0, "name": "734b76b59db6789bc6d904c5d0a6de21", "is_disabled": 0, "rental_uris": {"android": "https://dc.lft.to/lastmile_qr_scan", "ios": "https://dc.lft.to/lastmile_qr_scan"}, "fusion_lon": 0.0, "lat": 38.92417783333333, "bike_id": "734b76b59db6789bc6d904c5d0a6de21", "type": "electric_scooter", "is_reserved": 0, "lon": -77.019595}, {"fusion_lat": 0.0, "name": "07800e87eecc90c150c00c5893779188", "is_disabled": 0, "rental_uris": {"android": "https://dc.lft.to/lastmile_qr_scan", "ios": "https://dc.lft.to/lastmile_qr_scan"}, "fusion_lon": 0.0, "lat": 38.9155395, "bike_id": "07800e87eecc90c150c00c5893779188", "type": "electric_scooter", "is_reserved": 0, "lon": -77.0317575}, {"fusion_lat": 0.0, "name": "a81da14d30a24a51806cedbd886eba2c", "is_disabled": 0, "rental_uris": {"android": "https://dc.lft.to/lastmile_qr_scan", "ios": "https://dc.lft.to/lastmile_qr_scan"}, "fusion_lon": 0.0, "lat": 38.900294, "bike_id": "a81da14d30a24a51806cedbd886eba2c", "type": "electric_scooter", "is_reserved": 0, "lon": -76.994498}, {"fusion_lat": 0.0, "name": "823976f34fdaeeb78c9a2350e39dd89f", "is_disabled": 0, "rental_uris": {"android": "https://dc.lft.to/lastmile_qr_scan", "ios": "https://dc.lft.to/lastmile_qr_scan"}, "fusion_lon": 0.0, "lat": 38.921095, "bike_id": "823976f34fdaeeb78c9a2350e39dd89f", "type": "electric_scooter", "is_reserved": 0, "lon": -77.0421485}, {"fusion_lat": 0.0, "name": "c4fc66db709e5d3f40c3aeace96667b3", "is_disabled": 0, "rental_uris": {"android": "https://dc.lft.to/lastmile_qr_scan", "ios": "https://dc.lft.to/lastmile_qr_scan"}, "fusion_lon": 0.0, "lat": 38.9388215, "bike_id": "c4fc66db709e5d3f40c3aeace96667b3", "type": "electric_scooter", "is_reserved": 0, "lon": -77.03286316666667}, {"fusion_lat": 0.0, "name": "448b4cc1595ad70113f2d69e24867c01", "is_disabled": 0, "rental_uris": {"android": "https://dc.lft.to/lastmile_qr_scan", "ios": "https://dc.lft.to/lastmile_qr_scan"}, "fusion_lon": 0.0, "lat": 38.913224166666666, "bike_id": "448b4cc1595ad70113f2d69e24867c01", "type": "electric_scooter", "is_reserved": 0, "lon": -77.02132433333334}, {"fusion_lat": 0.0, "name": "fd45fc494e9142a547933654cd59f844", "is_disabled": 0, "rental_uris": {"android": "https://dc.lft.to/lastmile_qr_scan", "ios": "https://dc.lft.to/lastmile_qr_scan"}, "fusion_lon": 0.0, "lat": 38.92812966666666, "bike_id": "fd45fc494e9142a547933654cd59f844", "type": "electric_scooter", "is_reserved": 0, "lon": -77.03601466666667}, {"fusion_lat": 0.0, "name": "b8ab013173cb595ecfd612db550ae8c7", "is_disabled": 0, "rental_uris": {"android": "https://dc.lft.to/lastmile_qr_scan", "ios": "https://dc.lft.to/lastmile_qr_scan"}, "fusion_lon": 0.0, "lat": 38.9039605, "bike_id": "b8ab013173cb595ecfd612db550ae8c7", "type": "electric_bike", "is_reserved": 0, "lon": -77.007389}, {"fusion_lat": 0.0, "name": "f48a3664d8e38a3a5f8487d7f8c41254", "is_disabled": 0, "rental_uris": {"android": "https://dc.lft.to/lastmile_qr_scan", "ios": "https://dc.lft.to/lastmile_qr_scan"}, "fusion_lon": 0.0, "lat": 38.918087666666665, "bike_id": "f48a3664d8e38a3a5f8487d7f8c41254", "type": "electric_scooter", "is_reserved": 0, "lon": -77.03309466666667}, {"fusion_lat": 0.0, "name": "538c642eed751e3b977258e7f8204ba3", "is_disabled": 0, "rental_uris": {"android": "https://dc.lft.to/lastmile_qr_scan", "ios": "https://dc.lft.to/lastmile_qr_scan"}, "fusion_lon": 0.0, "lat": 38.891070666666664, "bike_id": "538c642eed751e3b977258e7f8204ba3", "type": "electric_scooter", "is_reserved": 0, "lon": -76.99630083333334}, {"fusion_lat": 0.0, "name": "47804e603efa902442dae5830f1ade09", "is_disabled": 0, "rental_uris": {"android": "https://dc.lft.to/lastmile_qr_scan", "ios": "https://dc.lft.to/lastmile_qr_scan"}, "fusion_lon": 0.0, "lat": 38.90734833333333, "bike_id": "47804e603efa902442dae5830f1ade09", "type": "electric_scooter", "is_reserved": 0, "lon": -76.93546683333334}, {"fusion_lat": 0.0, "name": "5ec8168e4d9236f3cb7e352a910b1c96", "is_disabled": 0, "rental_uris": {"android": "https://dc.lft.to/lastmile_qr_scan", "ios": "https://dc.lft.to/lastmile_qr_scan"}, "fusion_lon": 0.0, "lat": 38.8070835, "bike_id": "5ec8168e4d9236f3cb7e352a910b1c96", "type": "electric_bike", "is_reserved": 0, "lon": -77.061758}, {"fusion_lat": 0.0, "name": "ee6da282605072b8567d93e43d89a7c3", "is_disabled": 0, "rental_uris": {"android": "https://dc.lft.to/lastmile_qr_scan", "ios": "https://dc.lft.to/lastmile_qr_scan"}, "fusion_lon": 0.0, "lat": 38.81247283333333, "bike_id": "ee6da282605072b8567d93e43d89a7c3", "type": "electric_bike", "is_reserved": 0, "lon": -77.11763983333333}, {"fusion_lat": 0.0, "name": "504061427ed5f64b7c4e2800d7abe68d", "is_disabled": 0, "rental_uris": {"android": "https://dc.lft.to/lastmile_qr_scan", "ios": "https://dc.lft.to/lastmile_qr_scan"}, "fusion_lon": 0.0, "lat": 38.92675583333333, "bike_id": "504061427ed5f64b7c4e2800d7abe68d", "type": "electric_scooter", "is_reserved": 0, "lon": -77.03080333333334}, {"fusion_lat": 0.0, "name": "9cf6863f65fc457baa3fc0f84edf72b5", "is_disabled": 0, "rental_uris": {"android": "https://dc.lft.to/lastmile_qr_scan", "ios": "https://dc.lft.to/lastmile_qr_scan"}, "fusion_lon": 0.0, "lat": 38.9039425, "bike_id": "9cf6863f65fc457baa3fc0f84edf72b5", "type": "electric_scooter", "is_reserved": 0, "lon": -77.0681025}, {"fusion_lat": 0.0, "name": "ec502729f30af908b0b044d752ee3705", "is_disabled": 0, "rental_uris": {"android": "https://dc.lft.to/lastmile_qr_scan", "ios": "https://dc.lft.to/lastmile_qr_scan"}, "fusion_lon": 0.0, "lat": 38.92538366666667, "bike_id": "ec502729f30af908b0b044d752ee3705", "type": "electric_scooter", "is_reserved": 0, "lon": -77.00755866666667}, {"fusion_lat": 0.0, "name": "ff9983188337e152125832bc2c432c4e", "is_disabled": 0, "rental_uris": {"android": "https://dc.lft.to/lastmile_qr_scan", "ios": "https://dc.lft.to/lastmile_qr_scan"}, "fusion_lon": 0.0, "lat": 38.8829835, "bike_id": "ff9983188337e152125832bc2c432c4e", "type": "electric_scooter", "is_reserved": 0, "lon": -76.94857616666667}, {"fusion_lat": 0.0, "name": "12094d7229e54081dbc573c49534fd88", "is_disabled": 0, "rental_uris": {"android": "https://dc.lft.to/lastmile_qr_scan", "ios": "https://dc.lft.to/lastmile_qr_scan"}, "fusion_lon": 0.0, "lat": 38.8191695, "bike_id": "12094d7229e54081dbc573c49534fd88", "type": "electric_bike", "is_reserved": 0, "lon": -77.0480585}, {"fusion_lat": 0.0, "name": "239134cb35f10173f0561277ce804021", "is_disabled": 0, "rental_uris": {"android": "https://dc.lft.to/lastmile_qr_scan", "ios": "https://dc.lft.to/lastmile_qr_scan"}, "fusion_lon": 0.0, "lat": 38.915201833333334, "bike_id": "239134cb35f10173f0561277ce804021", "type": "electric_scooter", "is_reserved": 0, "lon": -77.041624}, {"fusion_lat": 0.0, "name": "eda7f63dca310b65b8f0018bdc8de0e2", "is_disabled": 0, "rental_uris": {"android": "https://dc.lft.to/lastmile_qr_scan", "ios": "https://dc.lft.to/lastmile_qr_scan"}, "fusion_lon": 0.0, "lat": 38.89896516666667, "bike_id": "eda7f63dca310b65b8f0018bdc8de0e2", "type": "electric_scooter", "is_reserved": 0, "lon": -76.93354216666667}, {"fusion_lat": 0.0, "name": "5ed9f1ae91873950d89345133462863d", "is_disabled": 0, "rental_uris": {"android": "https://dc.lft.to/lastmile_qr_scan", "ios": "https://dc.lft.to/lastmile_qr_scan"}, "fusion_lon": 0.0, "lat": 38.92306416666667, "bike_id": "5ed9f1ae91873950d89345133462863d", "type": "electric_scooter", "is_reserved": 0, "lon": -77.04218916666666}, {"fusion_lat": 0.0, "name": "df2894ed4c8e2393a6558493f23e6b4f", "is_disabled": 0, "rental_uris": {"android": "https://dc.lft.to/lastmile_qr_scan", "ios": "https://dc.lft.to/lastmile_qr_scan"}, "fusion_lon": 0.0, "lat": 38.92836783333333, "bike_id": "df2894ed4c8e2393a6558493f23e6b4f", "type": "electric_scooter", "is_reserved": 0, "lon": -77.015884}, {"fusion_lat": 0.0, "name": "142081f1c5f55999800f0e4e91eca4cc", "is_disabled": 0, "rental_uris": {"android": "https://dc.lft.to/lastmile_qr_scan", "ios": "https://dc.lft.to/lastmile_qr_scan"}, "fusion_lon": 0.0, "lat": 38.91082133333333, "bike_id": "142081f1c5f55999800f0e4e91eca4cc", "type": "electric_scooter", "is_reserved": 0, "lon": -77.009338}, {"fusion_lat": 0.0, "name": "b5285587b887929c0d7775624a716a27", "is_disabled": 0, "rental_uris": {"android": "https://dc.lft.to/lastmile_qr_scan", "ios": "https://dc.lft.to/lastmile_qr_scan"}, "fusion_lon": 0.0, "lat": 38.875794, "bike_id": "b5285587b887929c0d7775624a716a27", "type": "electric_bike", "is_reserved": 0, "lon": -77.23411533333334}, {"fusion_lat": 0.0, "name": "e2fc167e6b30e3a85dac1222352b5823", "is_disabled": 0, "rental_uris": {"android": "https://dc.lft.to/lastmile_qr_scan", "ios": "https://dc.lft.to/lastmile_qr_scan"}, "fusion_lon": 0.0, "lat": 38.90780816666667, "bike_id": "e2fc167e6b30e3a85dac1222352b5823", "type": "electric_scooter", "is_reserved": 0, "lon": -77.0424385}, {"fusion_lat": 0.0, "name": "fc4ab6bbbef1fa09830e61d190216cff", "is_disabled": 0, "rental_uris": {"android": "https://dc.lft.to/lastmile_qr_scan", "ios": "https://dc.lft.to/lastmile_qr_scan"}, "fusion_lon": 0.0, "lat": 38.914924666666664, "bike_id": "fc4ab6bbbef1fa09830e61d190216cff", "type": "electric_scooter", "is_reserved": 0, "lon": -77.04164683333333}, {"fusion_lat": 0.0, "name": "f772abdc6353164635abf5eb14807a90", "is_disabled": 0, "rental_uris": {"android": "https://dc.lft.to/lastmile_qr_scan", "ios": "https://dc.lft.to/lastmile_qr_scan"}, "fusion_lon": 0.0, "lat": 38.8990995, "bike_id": "f772abdc6353164635abf5eb14807a90", "type": "electric_scooter", "is_reserved": 0, "lon": -76.94586416666667}, {"fusion_lat": 0.0, "name": "874e11f0be369a9379c86e9e78fe495e", "is_disabled": 0, "rental_uris": {"android": "https://dc.lft.to/lastmile_qr_scan", "ios": "https://dc.lft.to/lastmile_qr_scan"}, "fusion_lon": 0.0, "lat": 38.939029166666664, "bike_id": "874e11f0be369a9379c86e9e78fe495e", "type": "electric_scooter", "is_reserved": 0, "lon": -77.07800666666667}, {"fusion_lat": 0.0, "name": "bfbc522ea1e5ad89201608dc98758b6f", "is_disabled": 0, "rental_uris": {"android": "https://dc.lft.to/lastmile_qr_scan", "ios": "https://dc.lft.to/lastmile_qr_scan"}, "fusion_lon": 0.0, "lat": 38.88526616666667, "bike_id": "bfbc522ea1e5ad89201608dc98758b6f", "type": "electric_scooter", "is_reserved": 0, "lon": -76.92912166666666}, {"fusion_lat": 0.0, "name": "d4fb244abc8dec2ccba0c7ea4be613d6", "is_disabled": 0, "rental_uris": {"android": "https://dc.lft.to/lastmile_qr_scan", "ios": "https://dc.lft.to/lastmile_qr_scan"}, "fusion_lon": 0.0, "lat": 38.906875666666664, "bike_id": "d4fb244abc8dec2ccba0c7ea4be613d6", "type": "electric_scooter", "is_reserved": 0, "lon": -77.02724716666667}, {"fusion_lat": 0.0, "name": "7e222923f2fc0c624e5672572c292309", "is_disabled": 0, "rental_uris": {"android": "https://dc.lft.to/lastmile_qr_scan", "ios": "https://dc.lft.to/lastmile_qr_scan"}, "fusion_lon": 0.0, "lat": 38.900587, "bike_id": "7e222923f2fc0c624e5672572c292309", "type": "electric_scooter", "is_reserved": 0, "lon": -77.01384233333333}, {"fusion_lat": 0.0, "name": "6c1bf9b13d57ad22bd0f95e1b5e601bc", "is_disabled": 0, "rental_uris": {"android": "https://dc.lft.to/lastmile_qr_scan", "ios": "https://dc.lft.to/lastmile_qr_scan"}, "fusion_lon": 0.0, "lat": 38.94120933333333, "bike_id": "6c1bf9b13d57ad22bd0f95e1b5e601bc", "type": "electric_bike", "is_reserved": 0, "lon": -76.99034916666666}, {"fusion_lat": 0.0, "name": "516a69022e07513e8be20470ca4c282d", "is_disabled": 0, "rental_uris": {"android": "https://dc.lft.to/lastmile_qr_scan", "ios": "https://dc.lft.to/lastmile_qr_scan"}, "fusion_lon": 0.0, "lat": 38.933874333333335, "bike_id": "516a69022e07513e8be20470ca4c282d", "type": "electric_scooter", "is_reserved": 0, "lon": -77.02417783333334}, {"fusion_lat": 0.0, "name": "1820c9d960890d3736eee713320da45e", "is_disabled": 0, "rental_uris": {"android": "https://dc.lft.to/lastmile_qr_scan", "ios": "https://dc.lft.to/lastmile_qr_scan"}, "fusion_lon": 0.0, "lat": 38.884333, "bike_id": "1820c9d960890d3736eee713320da45e", "type": "electric_scooter", "is_reserved": 0, "lon": -77.02552566666667}, {"fusion_lat": 0.0, "name": "b7e3954630ac5859329a30616ce6b1b8", "is_disabled": 0, "rental_uris": {"android": "https://dc.lft.to/lastmile_qr_scan", "ios": "https://dc.lft.to/lastmile_qr_scan"}, "fusion_lon": 0.0, "lat": 38.90663333333333, "bike_id": "b7e3954630ac5859329a30616ce6b1b8", "type": "electric_bike", "is_reserved": 0, "lon": -77.009258}, {"fusion_lat": 0.0, "name": "019627606568e46380f8d903e65f7376", "is_disabled": 0, "rental_uris": {"android": "https://dc.lft.to/lastmile_qr_scan", "ios": "https://dc.lft.to/lastmile_qr_scan"}, "fusion_lon": 0.0, "lat": 38.90752533333333, "bike_id": "019627606568e46380f8d903e65f7376", "type": "electric_scooter", "is_reserved": 0, "lon": -77.00756066666666}, {"fusion_lat": 0.0, "name": "1e19e2ca9792f151a1a255be496e2153", "is_disabled": 0, "rental_uris": {"android": "https://dc.lft.to/lastmile_qr_scan", "ios": "https://dc.lft.to/lastmile_qr_scan"}, "fusion_lon": 0.0, "lat": 38.935260166666666, "bike_id": "1e19e2ca9792f151a1a255be496e2153", "type": "electric_scooter", "is_reserved": 0, "lon": -77.03263016666666}, {"fusion_lat": 0.0, "name": "08c1bb5cc18aa5806a18ae69857a56fa", "is_disabled": 0, "rental_uris": {"android": "https://dc.lft.to/lastmile_qr_scan", "ios": "https://dc.lft.to/lastmile_qr_scan"}, "fusion_lon": 0.0, "lat": 38.904820666666666, "bike_id": "08c1bb5cc18aa5806a18ae69857a56fa", "type": "electric_scooter", "is_reserved": 0, "lon": -77.03263883333334}, {"fusion_lat": 0.0, "name": "c97ef6bfed0949b92cd037ec346dd57c", "is_disabled": 0, "rental_uris": {"android": "https://dc.lft.to/lastmile_qr_scan", "ios": "https://dc.lft.to/lastmile_qr_scan"}, "fusion_lon": 0.0, "lat": 38.86020533333333, "bike_id": "c97ef6bfed0949b92cd037ec346dd57c", "type": "electric_bike", "is_reserved": 0, "lon": -77.1281325}, {"fusion_lat": 0.0, "name": "92b04eff61390d89ff16d9d87cfb7db6", "is_disabled": 0, "rental_uris": {"android": "https://dc.lft.to/lastmile_qr_scan", "ios": "https://dc.lft.to/lastmile_qr_scan"}, "fusion_lon": 0.0, "lat": 38.9025755, "bike_id": "92b04eff61390d89ff16d9d87cfb7db6", "type": "electric_scooter", "is_reserved": 0, "lon": -76.97465466666667}, {"fusion_lat": 0.0, "name": "78835e71ecc195228283699f125dfcb3", "is_disabled": 0, "rental_uris": {"android": "https://dc.lft.to/lastmile_qr_scan", "ios": "https://dc.lft.to/lastmile_qr_scan"}, "fusion_lon": 0.0, "lat": 38.901535, "bike_id": "78835e71ecc195228283699f125dfcb3", "type": "electric_scooter", "is_reserved": 0, "lon": -77.02313333333333}, {"fusion_lat": 0.0, "name": "f7db60e95b48c764620cf58d989276e9", "is_disabled": 0, "rental_uris": {"android": "https://dc.lft.to/lastmile_qr_scan", "ios": "https://dc.lft.to/lastmile_qr_scan"}, "fusion_lon": 0.0, "lat": 38.91341933333333, "bike_id": "f7db60e95b48c764620cf58d989276e9", "type": "electric_scooter", "is_reserved": 0, "lon": -77.031681}, {"fusion_lat": 0.0, "name": "3b718a58b3928a4d82d446205c9635e5", "is_disabled": 0, "rental_uris": {"android": "https://dc.lft.to/lastmile_qr_scan", "ios": "https://dc.lft.to/lastmile_qr_scan"}, "fusion_lon": 0.0, "lat": 38.907745166666665, "bike_id": "3b718a58b3928a4d82d446205c9635e5", "type": "electric_scooter", "is_reserved": 0, "lon": -77.042214}, {"fusion_lat": 0.0, "name": "b364a3233ce6b4ed5b6f7f2f3fb0a8a6", "is_disabled": 0, "rental_uris": {"android": "https://dc.lft.to/lastmile_qr_scan", "ios": "https://dc.lft.to/lastmile_qr_scan"}, "fusion_lon": 0.0, "lat": 38.9039675, "bike_id": "b364a3233ce6b4ed5b6f7f2f3fb0a8a6", "type": "electric_scooter", "is_reserved": 0, "lon": -76.9901005}, {"fusion_lat": 0.0, "name": "e75c9e25cfcc4c8afbd2753167a6c531", "is_disabled": 0, "rental_uris": {"android": "https://dc.lft.to/lastmile_qr_scan", "ios": "https://dc.lft.to/lastmile_qr_scan"}, "fusion_lon": 0.0, "lat": 38.923199, "bike_id": "e75c9e25cfcc4c8afbd2753167a6c531", "type": "electric_scooter", "is_reserved": 0, "lon": -77.02048983333333}, {"fusion_lat": 0.0, "name": "557852f547d6ad2920f00837be0bdefb", "is_disabled": 0, "rental_uris": {"android": "https://dc.lft.to/lastmile_qr_scan", "ios": "https://dc.lft.to/lastmile_qr_scan"}, "fusion_lon": 0.0, "lat": 38.934453833333336, "bike_id": "557852f547d6ad2920f00837be0bdefb", "type": "electric_scooter", "is_reserved": 0, "lon": -77.029828}, {"fusion_lat": 0.0, "name": "ad4c8769cbe9f8d49a1c493042fd7eac", "is_disabled": 0, "rental_uris": {"android": "https://dc.lft.to/lastmile_qr_scan", "ios": "https://dc.lft.to/lastmile_qr_scan"}, "fusion_lon": 0.0, "lat": 38.93080033333333, "bike_id": "ad4c8769cbe9f8d49a1c493042fd7eac", "type": "electric_scooter", "is_reserved": 0, "lon": -77.0776115}, {"fusion_lat": 0.0, "name": "eebf8738923bb3232700b5e6fd74ab80", "is_disabled": 0, "rental_uris": {"android": "https://dc.lft.to/lastmile_qr_scan", "ios": "https://dc.lft.to/lastmile_qr_scan"}, "fusion_lon": 0.0, "lat": 38.88737116666667, "bike_id": "eebf8738923bb3232700b5e6fd74ab80", "type": "electric_scooter", "is_reserved": 0, "lon": -77.00328766666667}, {"fusion_lat": 0.0, "name": "3022bc21a136259a12ac23081c30fe6b", "is_disabled": 0, "rental_uris": {"android": "https://dc.lft.to/lastmile_qr_scan", "ios": "https://dc.lft.to/lastmile_qr_scan"}, "fusion_lon": 0.0, "lat": 38.92077483333333, "bike_id": "3022bc21a136259a12ac23081c30fe6b", "type": "electric_bike", "is_reserved": 0, "lon": -76.98949716666667}, {"fusion_lat": 0.0, "name": "d96fc711b93730dbe39fe2c0b694b088", "is_disabled": 0, "rental_uris": {"android": "https://dc.lft.to/lastmile_qr_scan", "ios": "https://dc.lft.to/lastmile_qr_scan"}, "fusion_lon": 0.0, "lat": 38.916271, "bike_id": "d96fc711b93730dbe39fe2c0b694b088", "type": "electric_scooter", "is_reserved": 0, "lon": -77.02817483333334}, {"fusion_lat": 0.0, "name": "ed6f87c1e637eabb88a32dc6502f9276", "is_disabled": 0, "rental_uris": {"android": "https://dc.lft.to/lastmile_qr_scan", "ios": "https://dc.lft.to/lastmile_qr_scan"}, "fusion_lon": 0.0, "lat": 38.9422725, "bike_id": "ed6f87c1e637eabb88a32dc6502f9276", "type": "electric_scooter", "is_reserved": 0, "lon": -77.0138475}, {"fusion_lat": 0.0, "name": "900dfdccd7e006b8f229ef6734c5da45", "is_disabled": 0, "rental_uris": {"android": "https://dc.lft.to/lastmile_qr_scan", "ios": "https://dc.lft.to/lastmile_qr_scan"}, "fusion_lon": 0.0, "lat": 38.898498000000004, "bike_id": "900dfdccd7e006b8f229ef6734c5da45", "type": "electric_scooter", "is_reserved": 0, "lon": -77.01949166666667}, {"fusion_lat": 0.0, "name": "eea72c6187fe051413050abd5df8564d", "is_disabled": 0, "rental_uris": {"android": "https://dc.lft.to/lastmile_qr_scan", "ios": "https://dc.lft.to/lastmile_qr_scan"}, "fusion_lon": 0.0, "lat": 38.8996645, "bike_id": "eea72c6187fe051413050abd5df8564d", "type": "electric_scooter", "is_reserved": 0, "lon": -76.9871895}, {"fusion_lat": 0.0, "name": "96cf74b70f8ad9328428d71be280e0c6", "is_disabled": 0, "rental_uris": {"android": "https://dc.lft.to/lastmile_qr_scan", "ios": "https://dc.lft.to/lastmile_qr_scan"}, "fusion_lon": 0.0, "lat": 38.927107, "bike_id": "96cf74b70f8ad9328428d71be280e0c6", "type": "electric_scooter", "is_reserved": 0, "lon": -77.02411183333334}, {"fusion_lat": 0.0, "name": "40b80433ab51c6673c18ef2c70e13f12", "is_disabled": 0, "rental_uris": {"android": "https://dc.lft.to/lastmile_qr_scan", "ios": "https://dc.lft.to/lastmile_qr_scan"}, "fusion_lon": 0.0, "lat": 38.923232166666665, "bike_id": "40b80433ab51c6673c18ef2c70e13f12", "type": "electric_scooter", "is_reserved": 0, "lon": -77.035242}, {"fusion_lat": 0.0, "name": "9161df01e3a8a31fdaa1d4d07556016c", "is_disabled": 0, "rental_uris": {"android": "https://dc.lft.to/lastmile_qr_scan", "ios": "https://dc.lft.to/lastmile_qr_scan"}, "fusion_lon": 0.0, "lat": 38.91824783333333, "bike_id": "9161df01e3a8a31fdaa1d4d07556016c", "type": "electric_scooter", "is_reserved": 0, "lon": -77.036847}, {"fusion_lat": 0.0, "name": "177e725f4255350208729fe6a8d6a7fa", "is_disabled": 0, "rental_uris": {"android": "https://dc.lft.to/lastmile_qr_scan", "ios": "https://dc.lft.to/lastmile_qr_scan"}, "fusion_lon": 0.0, "lat": 38.887272, "bike_id": "177e725f4255350208729fe6a8d6a7fa", "type": "electric_scooter", "is_reserved": 0, "lon": -76.9835895}, {"fusion_lat": 0.0, "name": "3647f98ba7deb3c93ee797cd611fbb5c", "is_disabled": 0, "rental_uris": {"android": "https://dc.lft.to/lastmile_qr_scan", "ios": "https://dc.lft.to/lastmile_qr_scan"}, "fusion_lon": 0.0, "lat": 38.8942315, "bike_id": "3647f98ba7deb3c93ee797cd611fbb5c", "type": "electric_scooter", "is_reserved": 0, "lon": -77.01228516666667}, {"fusion_lat": 0.0, "name": "4d8b36048c71091ccf94136f440e9e4b", "is_disabled": 0, "rental_uris": {"android": "https://dc.lft.to/lastmile_qr_scan", "ios": "https://dc.lft.to/lastmile_qr_scan"}, "fusion_lon": 0.0, "lat": 38.905662166666666, "bike_id": "4d8b36048c71091ccf94136f440e9e4b", "type": "electric_scooter", "is_reserved": 0, "lon": -77.0079385}, {"fusion_lat": 0.0, "name": "6a2d5eb48b0fa4f0fce704c71a19aabd", "is_disabled": 0, "rental_uris": {"android": "https://dc.lft.to/lastmile_qr_scan", "ios": "https://dc.lft.to/lastmile_qr_scan"}, "fusion_lon": 0.0, "lat": 38.913279833333334, "bike_id": "6a2d5eb48b0fa4f0fce704c71a19aabd", "type": "electric_scooter", "is_reserved": 0, "lon": -77.04534066666666}, {"fusion_lat": 0.0, "name": "84abe3ca0f4f15c99b4e7b552d0d36d5", "is_disabled": 0, "rental_uris": {"android": "https://dc.lft.to/lastmile_qr_scan", "ios": "https://dc.lft.to/lastmile_qr_scan"}, "fusion_lon": 0.0, "lat": 38.90381883333333, "bike_id": "84abe3ca0f4f15c99b4e7b552d0d36d5", "type": "electric_scooter", "is_reserved": 0, "lon": -77.06129266666667}, {"fusion_lat": 0.0, "name": "5db39f9b612991aac2d52281d9f0b536", "is_disabled": 0, "rental_uris": {"android": "https://dc.lft.to/lastmile_qr_scan", "ios": "https://dc.lft.to/lastmile_qr_scan"}, "fusion_lon": 0.0, "lat": 38.8405335, "bike_id": "5db39f9b612991aac2d52281d9f0b536", "type": "electric_scooter", "is_reserved": 0, "lon": -76.97670333333333}, {"fusion_lat": 0.0, "name": "755675189ff132af55bacfe25e1cd1cc", "is_disabled": 0, "rental_uris": {"android": "https://dc.lft.to/lastmile_qr_scan", "ios": "https://dc.lft.to/lastmile_qr_scan"}, "fusion_lon": 0.0, "lat": 38.881986166666664, "bike_id": "755675189ff132af55bacfe25e1cd1cc", "type": "electric_scooter", "is_reserved": 0, "lon": -77.02871316666666}, {"fusion_lat": 0.0, "name": "6e12f9b709ade05ad50e9f344efecc31", "is_disabled": 0, "rental_uris": {"android": "https://dc.lft.to/lastmile_qr_scan", "ios": "https://dc.lft.to/lastmile_qr_scan"}, "fusion_lon": 0.0, "lat": 38.974911166666665, "bike_id": "6e12f9b709ade05ad50e9f344efecc31", "type": "electric_scooter", "is_reserved": 0, "lon": -77.01424733333333}, {"fusion_lat": 0.0, "name": "ae605dbfa2ed400395482e19c30476e4", "is_disabled": 0, "rental_uris": {"android": "https://dc.lft.to/lastmile_qr_scan", "ios": "https://dc.lft.to/lastmile_qr_scan"}, "fusion_lon": 0.0, "lat": 38.900634333333336, "bike_id": "ae605dbfa2ed400395482e19c30476e4", "type": "electric_scooter", "is_reserved": 0, "lon": -76.93387233333333}, {"fusion_lat": 0.0, "name": "1a5660edb6389cb766e8266e073219d7", "is_disabled": 0, "rental_uris": {"android": "https://dc.lft.to/lastmile_qr_scan", "ios": "https://dc.lft.to/lastmile_qr_scan"}, "fusion_lon": 0.0, "lat": 38.887575, "bike_id": "1a5660edb6389cb766e8266e073219d7", "type": "electric_scooter", "is_reserved": 0, "lon": -76.9978565}, {"fusion_lat": 0.0, "name": "35ec02ac112e780965a413cd3f84c24b", "is_disabled": 0, "rental_uris": {"android": "https://dc.lft.to/lastmile_qr_scan", "ios": "https://dc.lft.to/lastmile_qr_scan"}, "fusion_lon": 0.0, "lat": 38.900566833333336, "bike_id": "35ec02ac112e780965a413cd3f84c24b", "type": "electric_scooter", "is_reserved": 0, "lon": -77.044845}, {"fusion_lat": 0.0, "name": "af08607b4cd2f22d44532cb7c52f74e9", "is_disabled": 0, "rental_uris": {"android": "https://dc.lft.to/lastmile_qr_scan", "ios": "https://dc.lft.to/lastmile_qr_scan"}, "fusion_lon": 0.0, "lat": 38.911176166666664, "bike_id": "af08607b4cd2f22d44532cb7c52f74e9", "type": "electric_scooter", "is_reserved": 0, "lon": -77.03832616666666}, {"fusion_lat": 0.0, "name": "99b726ab33caf9a8766a5f63fe055a1d", "is_disabled": 0, "rental_uris": {"android": "https://dc.lft.to/lastmile_qr_scan", "ios": "https://dc.lft.to/lastmile_qr_scan"}, "fusion_lon": 0.0, "lat": 38.91702883333333, "bike_id": "99b726ab33caf9a8766a5f63fe055a1d", "type": "electric_scooter", "is_reserved": 0, "lon": -77.02747533333333}, {"fusion_lat": 0.0, "name": "d97dc9ad4b9c1aaedd80aa5cb4d3b0d3", "is_disabled": 0, "rental_uris": {"android": "https://dc.lft.to/lastmile_qr_scan", "ios": "https://dc.lft.to/lastmile_qr_scan"}, "fusion_lon": 0.0, "lat": 38.936296166666665, "bike_id": "d97dc9ad4b9c1aaedd80aa5cb4d3b0d3", "type": "electric_scooter", "is_reserved": 0, "lon": -77.0730955}, {"fusion_lat": 0.0, "name": "bfe753e48f7211c769270fbf4ca4e376", "is_disabled": 0, "rental_uris": {"android": "https://dc.lft.to/lastmile_qr_scan", "ios": "https://dc.lft.to/lastmile_qr_scan"}, "fusion_lon": 0.0, "lat": 38.84755633333333, "bike_id": "bfe753e48f7211c769270fbf4ca4e376", "type": "electric_scooter", "is_reserved": 0, "lon": -76.99500216666667}, {"fusion_lat": 0.0, "name": "8fb375d471b1771401a6c2e3241f4fea", "is_disabled": 0, "rental_uris": {"android": "https://dc.lft.to/lastmile_qr_scan", "ios": "https://dc.lft.to/lastmile_qr_scan"}, "fusion_lon": 0.0, "lat": 38.92354316666667, "bike_id": "8fb375d471b1771401a6c2e3241f4fea", "type": "electric_scooter", "is_reserved": 0, "lon": -76.99253533333334}, {"fusion_lat": 0.0, "name": "0b5f815fa520ec1c7daa09858a991ff5", "is_disabled": 0, "rental_uris": {"android": "https://dc.lft.to/lastmile_qr_scan", "ios": "https://dc.lft.to/lastmile_qr_scan"}, "fusion_lon": 0.0, "lat": 38.90170233333333, "bike_id": "0b5f815fa520ec1c7daa09858a991ff5", "type": "electric_scooter", "is_reserved": 0, "lon": -76.99258466666667}, {"fusion_lat": 0.0, "name": "39d9b1615c81a3c5ab09c175e1513bb1", "is_disabled": 0, "rental_uris": {"android": "https://dc.lft.to/lastmile_qr_scan", "ios": "https://dc.lft.to/lastmile_qr_scan"}, "fusion_lon": 0.0, "lat": 38.9452275, "bike_id": "39d9b1615c81a3c5ab09c175e1513bb1", "type": "electric_scooter", "is_reserved": 0, "lon": -77.03893216666667}, {"fusion_lat": 0.0, "name": "7039f13ab051bb9874de19dcb4e6bdb2", "is_disabled": 0, "rental_uris": {"android": "https://dc.lft.to/lastmile_qr_scan", "ios": "https://dc.lft.to/lastmile_qr_scan"}, "fusion_lon": 0.0, "lat": 38.8783375, "bike_id": "7039f13ab051bb9874de19dcb4e6bdb2", "type": "electric_scooter", "is_reserved": 0, "lon": -77.00770816666666}, {"fusion_lat": 0.0, "name": "d268fe526d41c95f5a150fd63df02169", "is_disabled": 0, "rental_uris": {"android": "https://dc.lft.to/lastmile_qr_scan", "ios": "https://dc.lft.to/lastmile_qr_scan"}, "fusion_lon": 0.0, "lat": 38.9048575, "bike_id": "d268fe526d41c95f5a150fd63df02169", "type": "electric_scooter", "is_reserved": 0, "lon": -76.949629}, {"fusion_lat": 0.0, "name": "134361d3e137e563056b0e7fd92f2f47", "is_disabled": 0, "rental_uris": {"android": "https://dc.lft.to/lastmile_qr_scan", "ios": "https://dc.lft.to/lastmile_qr_scan"}, "fusion_lon": 0.0, "lat": 38.931845833333334, "bike_id": "134361d3e137e563056b0e7fd92f2f47", "type": "electric_scooter", "is_reserved": 0, "lon": -77.03307833333334}, {"fusion_lat": 0.0, "name": "f353cd6d9aa203323f42ce2454faf9d0", "is_disabled": 0, "rental_uris": {"android": "https://dc.lft.to/lastmile_qr_scan", "ios": "https://dc.lft.to/lastmile_qr_scan"}, "fusion_lon": 0.0, "lat": 38.909070166666666, "bike_id": "f353cd6d9aa203323f42ce2454faf9d0", "type": "electric_scooter", "is_reserved": 0, "lon": -77.02625316666666}, {"fusion_lat": 0.0, "name": "5f791e6f0fbd34c8b30a8546b408aa5c", "is_disabled": 0, "rental_uris": {"android": "https://dc.lft.to/lastmile_qr_scan", "ios": "https://dc.lft.to/lastmile_qr_scan"}, "fusion_lon": 0.0, "lat": 38.89829833333334, "bike_id": "5f791e6f0fbd34c8b30a8546b408aa5c", "type": "electric_bike", "is_reserved": 0, "lon": -77.04685483333333}, {"fusion_lat": 0.0, "name": "4c4bb99197f21762d15333acce29e9df", "is_disabled": 0, "rental_uris": {"android": "https://dc.lft.to/lastmile_qr_scan", "ios": "https://dc.lft.to/lastmile_qr_scan"}, "fusion_lon": 0.0, "lat": 38.9305655, "bike_id": "4c4bb99197f21762d15333acce29e9df", "type": "electric_scooter", "is_reserved": 0, "lon": -77.03950033333334}, {"fusion_lat": 0.0, "name": "5eb7e61b70763616b84e0dfbb48e138f", "is_disabled": 0, "rental_uris": {"android": "https://dc.lft.to/lastmile_qr_scan", "ios": "https://dc.lft.to/lastmile_qr_scan"}, "fusion_lon": 0.0, "lat": 38.901432666666665, "bike_id": "5eb7e61b70763616b84e0dfbb48e138f", "type": "electric_scooter", "is_reserved": 0, "lon": -77.018235}, {"fusion_lat": 0.0, "name": "ccbaebb9804e08e89e80ddfd9d6ed50f", "is_disabled": 0, "rental_uris": {"android": "https://dc.lft.to/lastmile_qr_scan", "ios": "https://dc.lft.to/lastmile_qr_scan"}, "fusion_lon": 0.0, "lat": 38.9279415, "bike_id": "ccbaebb9804e08e89e80ddfd9d6ed50f", "type": "electric_scooter", "is_reserved": 0, "lon": -76.95560416666666}, {"fusion_lat": 0.0, "name": "7cad9afcb472ae806b40c996ce61cd1a", "is_disabled": 0, "rental_uris": {"android": "https://dc.lft.to/lastmile_qr_scan", "ios": "https://dc.lft.to/lastmile_qr_scan"}, "fusion_lon": 0.0, "lat": 38.90766133333333, "bike_id": "7cad9afcb472ae806b40c996ce61cd1a", "type": "electric_scooter", "is_reserved": 0, "lon": -77.06215366666666}, {"fusion_lat": 0.0, "name": "6caded6204d2399df6ad3683b996c626", "is_disabled": 0, "rental_uris": {"android": "https://dc.lft.to/lastmile_qr_scan", "ios": "https://dc.lft.to/lastmile_qr_scan"}, "fusion_lon": 0.0, "lat": 38.901582166666664, "bike_id": "6caded6204d2399df6ad3683b996c626", "type": "electric_scooter", "is_reserved": 0, "lon": -77.02311983333334}, {"fusion_lat": 0.0, "name": "78464ec83917997d0565410023fd9ecf", "is_disabled": 0, "rental_uris": {"android": "https://dc.lft.to/lastmile_qr_scan", "ios": "https://dc.lft.to/lastmile_qr_scan"}, "fusion_lon": 0.0, "lat": 38.9649195, "bike_id": "78464ec83917997d0565410023fd9ecf", "type": "electric_bike", "is_reserved": 0, "lon": -77.02217883333333}, {"fusion_lat": 0.0, "name": "47691f0bedec36db47e6033472bb97f0", "is_disabled": 0, "rental_uris": {"android": "https://dc.lft.to/lastmile_qr_scan", "ios": "https://dc.lft.to/lastmile_qr_scan"}, "fusion_lon": 0.0, "lat": 38.89877, "bike_id": "47691f0bedec36db47e6033472bb97f0", "type": "electric_scooter", "is_reserved": 0, "lon": -76.93186533333333}, {"fusion_lat": 0.0, "name": "0115dbcd2361d4203ea002b191c66239", "is_disabled": 0, "rental_uris": {"android": "https://dc.lft.to/lastmile_qr_scan", "ios": "https://dc.lft.to/lastmile_qr_scan"}, "fusion_lon": 0.0, "lat": 38.92431666666667, "bike_id": "0115dbcd2361d4203ea002b191c66239", "type": "electric_scooter", "is_reserved": 0, "lon": -77.0271965}, {"fusion_lat": 0.0, "name": "d0dde5b4b1df1f3bc5d394cc79828aa9", "is_disabled": 0, "rental_uris": {"android": "https://dc.lft.to/lastmile_qr_scan", "ios": "https://dc.lft.to/lastmile_qr_scan"}, "fusion_lon": 0.0, "lat": 38.909781333333335, "bike_id": "d0dde5b4b1df1f3bc5d394cc79828aa9", "type": "electric_scooter", "is_reserved": 0, "lon": -77.03218733333334}, {"fusion_lat": 0.0, "name": "875ee20261ef3f41026b8318d6664d6c", "is_disabled": 0, "rental_uris": {"android": "https://dc.lft.to/lastmile_qr_scan", "ios": "https://dc.lft.to/lastmile_qr_scan"}, "fusion_lon": 0.0, "lat": 38.878139, "bike_id": "875ee20261ef3f41026b8318d6664d6c", "type": "electric_scooter", "is_reserved": 0, "lon": -77.013269}, {"fusion_lat": 0.0, "name": "9bf76e9683f49f34619194bdd8bdee6e", "is_disabled": 0, "rental_uris": {"android": "https://dc.lft.to/lastmile_qr_scan", "ios": "https://dc.lft.to/lastmile_qr_scan"}, "fusion_lon": 0.0, "lat": 38.924587, "bike_id": "9bf76e9683f49f34619194bdd8bdee6e", "type": "electric_scooter", "is_reserved": 0, "lon": -77.02018033333333}, {"fusion_lat": 0.0, "name": "440c23f6fd73cb7d72453c6147e43b5f", "is_disabled": 0, "rental_uris": {"android": "https://dc.lft.to/lastmile_qr_scan", "ios": "https://dc.lft.to/lastmile_qr_scan"}, "fusion_lon": 0.0, "lat": 38.87701966666667, "bike_id": "440c23f6fd73cb7d72453c6147e43b5f", "type": "electric_scooter", "is_reserved": 0, "lon": -77.00745866666666}, {"fusion_lat": 0.0, "name": "9ba063dff71c38d081f0c28df6fa7641", "is_disabled": 0, "rental_uris": {"android": "https://dc.lft.to/lastmile_qr_scan", "ios": "https://dc.lft.to/lastmile_qr_scan"}, "fusion_lon": 0.0, "lat": 38.918832, "bike_id": "9ba063dff71c38d081f0c28df6fa7641", "type": "electric_scooter", "is_reserved": 0, "lon": -77.0230115}, {"fusion_lat": 0.0, "name": "85b5861fca36a7915239e4d9e8bc5de8", "is_disabled": 0, "rental_uris": {"android": "https://dc.lft.to/lastmile_qr_scan", "ios": "https://dc.lft.to/lastmile_qr_scan"}, "fusion_lon": 0.0, "lat": 38.882316833333334, "bike_id": "85b5861fca36a7915239e4d9e8bc5de8", "type": "electric_scooter", "is_reserved": 0, "lon": -77.02618083333333}, {"fusion_lat": 0.0, "name": "511951636f570ac494df34fe8806526d", "is_disabled": 0, "rental_uris": {"android": "https://dc.lft.to/lastmile_qr_scan", "ios": "https://dc.lft.to/lastmile_qr_scan"}, "fusion_lon": 0.0, "lat": 38.900316833333335, "bike_id": "511951636f570ac494df34fe8806526d", "type": "electric_scooter", "is_reserved": 0, "lon": -77.03199266666667}, {"fusion_lat": 0.0, "name": "c1e09210b9b7a0402abe91f4c28c3bbd", "is_disabled": 0, "rental_uris": {"android": "https://dc.lft.to/lastmile_qr_scan", "ios": "https://dc.lft.to/lastmile_qr_scan"}, "fusion_lon": 0.0, "lat": 38.884904666666664, "bike_id": "c1e09210b9b7a0402abe91f4c28c3bbd", "type": "electric_scooter", "is_reserved": 0, "lon": -77.007227}, {"fusion_lat": 0.0, "name": "268ba0b80c7a4fd8216aca90a70356ce", "is_disabled": 0, "rental_uris": {"android": "https://dc.lft.to/lastmile_qr_scan", "ios": "https://dc.lft.to/lastmile_qr_scan"}, "fusion_lon": 0.0, "lat": 38.926872, "bike_id": "268ba0b80c7a4fd8216aca90a70356ce", "type": "electric_scooter", "is_reserved": 0, "lon": -77.02281733333334}, {"fusion_lat": 0.0, "name": "15e426c03e04078544152a95be0576f8", "is_disabled": 0, "rental_uris": {"android": "https://dc.lft.to/lastmile_qr_scan", "ios": "https://dc.lft.to/lastmile_qr_scan"}, "fusion_lon": 0.0, "lat": 38.899965, "bike_id": "15e426c03e04078544152a95be0576f8", "type": "electric_scooter", "is_reserved": 0, "lon": -76.99012533333334}, {"fusion_lat": 0.0, "name": "6b9826e962b89c231e6e64b0da485da2", "is_disabled": 0, "rental_uris": {"android": "https://dc.lft.to/lastmile_qr_scan", "ios": "https://dc.lft.to/lastmile_qr_scan"}, "fusion_lon": 0.0, "lat": 38.93007983333333, "bike_id": "6b9826e962b89c231e6e64b0da485da2", "type": "electric_scooter", "is_reserved": 0, "lon": -77.06635366666667}, {"fusion_lat": 0.0, "name": "fdfc361a9ceecae3af4b5ec123598852", "is_disabled": 0, "rental_uris": {"android": "https://dc.lft.to/lastmile_qr_scan", "ios": "https://dc.lft.to/lastmile_qr_scan"}, "fusion_lon": 0.0, "lat": 38.894702833333334, "bike_id": "fdfc361a9ceecae3af4b5ec123598852", "type": "electric_scooter", "is_reserved": 0, "lon": -77.017739}, {"fusion_lat": 0.0, "name": "89e9d0d0deb77dfdf83e378db54f6bb1", "is_disabled": 0, "rental_uris": {"android": "https://dc.lft.to/lastmile_qr_scan", "ios": "https://dc.lft.to/lastmile_qr_scan"}, "fusion_lon": 0.0, "lat": 38.90569983333334, "bike_id": "89e9d0d0deb77dfdf83e378db54f6bb1", "type": "electric_scooter", "is_reserved": 0, "lon": -77.02226883333333}, {"fusion_lat": 0.0, "name": "2d0ff436e2c106bd9183bdc267fe7583", "is_disabled": 0, "rental_uris": {"android": "https://dc.lft.to/lastmile_qr_scan", "ios": "https://dc.lft.to/lastmile_qr_scan"}, "fusion_lon": 0.0, "lat": 38.90743616666666, "bike_id": "2d0ff436e2c106bd9183bdc267fe7583", "type": "electric_scooter", "is_reserved": 0, "lon": -77.0015385}, {"fusion_lat": 0.0, "name": "2eeb507e420fa4b4b664620581b6de31", "is_disabled": 0, "rental_uris": {"android": "https://dc.lft.to/lastmile_qr_scan", "ios": "https://dc.lft.to/lastmile_qr_scan"}, "fusion_lon": 0.0, "lat": 38.91341216666667, "bike_id": "2eeb507e420fa4b4b664620581b6de31", "type": "electric_scooter", "is_reserved": 0, "lon": -77.04871783333333}, {"fusion_lat": 0.0, "name": "76960254a09571af6e350ce49ef42553", "is_disabled": 0, "rental_uris": {"android": "https://dc.lft.to/lastmile_qr_scan", "ios": "https://dc.lft.to/lastmile_qr_scan"}, "fusion_lon": 0.0, "lat": 38.924066833333335, "bike_id": "76960254a09571af6e350ce49ef42553", "type": "electric_scooter", "is_reserved": 0, "lon": -77.0364145}, {"fusion_lat": 0.0, "name": "4e51547af035519c6e6cd6b345a9bcc2", "is_disabled": 0, "rental_uris": {"android": "https://dc.lft.to/lastmile_qr_scan", "ios": "https://dc.lft.to/lastmile_qr_scan"}, "fusion_lon": 0.0, "lat": 38.91263166666667, "bike_id": "4e51547af035519c6e6cd6b345a9bcc2", "type": "electric_scooter", "is_reserved": 0, "lon": -77.04929716666666}, {"fusion_lat": 0.0, "name": "827a80c14c2fddb68ddd005122c0868a", "is_disabled": 0, "rental_uris": {"android": "https://dc.lft.to/lastmile_qr_scan", "ios": "https://dc.lft.to/lastmile_qr_scan"}, "fusion_lon": 0.0, "lat": 38.91406966666667, "bike_id": "827a80c14c2fddb68ddd005122c0868a", "type": "electric_scooter", "is_reserved": 0, "lon": -77.0322245}, {"fusion_lat": 0.0, "name": "885407988015e236423298a881799e60", "is_disabled": 0, "rental_uris": {"android": "https://dc.lft.to/lastmile_qr_scan", "ios": "https://dc.lft.to/lastmile_qr_scan"}, "fusion_lon": 0.0, "lat": 38.923832833333336, "bike_id": "885407988015e236423298a881799e60", "type": "electric_scooter", "is_reserved": 0, "lon": -77.02038416666667}, {"fusion_lat": 0.0, "name": "a112c5e2fe171333098710a0d532db2a", "is_disabled": 0, "rental_uris": {"android": "https://dc.lft.to/lastmile_qr_scan", "ios": "https://dc.lft.to/lastmile_qr_scan"}, "fusion_lon": 0.0, "lat": 38.926443166666665, "bike_id": "a112c5e2fe171333098710a0d532db2a", "type": "electric_scooter", "is_reserved": 0, "lon": -77.041316}, {"fusion_lat": 0.0, "name": "fc996ee1936313fa2c8008a7acabc89a", "is_disabled": 0, "rental_uris": {"android": "https://dc.lft.to/lastmile_qr_scan", "ios": "https://dc.lft.to/lastmile_qr_scan"}, "fusion_lon": 0.0, "lat": 38.873703, "bike_id": "fc996ee1936313fa2c8008a7acabc89a", "type": "electric_scooter", "is_reserved": 0, "lon": -77.00067566666667}, {"fusion_lat": 0.0, "name": "4e09bbd40e6b7dc2674680e6589d145c", "is_disabled": 0, "rental_uris": {"android": "https://dc.lft.to/lastmile_qr_scan", "ios": "https://dc.lft.to/lastmile_qr_scan"}, "fusion_lon": 0.0, "lat": 38.91802666666667, "bike_id": "4e09bbd40e6b7dc2674680e6589d145c", "type": "electric_scooter", "is_reserved": 0, "lon": -77.03442133333333}, {"fusion_lat": 0.0, "name": "13d5c30b4678acd7db8a274d851049f9", "is_disabled": 0, "rental_uris": {"android": "https://dc.lft.to/lastmile_qr_scan", "ios": "https://dc.lft.to/lastmile_qr_scan"}, "fusion_lon": 0.0, "lat": 38.9023435, "bike_id": "13d5c30b4678acd7db8a274d851049f9", "type": "electric_scooter", "is_reserved": 0, "lon": -77.05484533333333}, {"fusion_lat": 0.0, "name": "690338f4271505ffbbe89de22ec1e06e", "is_disabled": 0, "rental_uris": {"android": "https://dc.lft.to/lastmile_qr_scan", "ios": "https://dc.lft.to/lastmile_qr_scan"}, "fusion_lon": 0.0, "lat": 38.91519783333333, "bike_id": "690338f4271505ffbbe89de22ec1e06e", "type": "electric_scooter", "is_reserved": 0, "lon": -77.03209566666666}, {"fusion_lat": 0.0, "name": "5867caf9bb5105c9504d72d6ca22893d", "is_disabled": 0, "rental_uris": {"android": "https://dc.lft.to/lastmile_qr_scan", "ios": "https://dc.lft.to/lastmile_qr_scan"}, "fusion_lon": 0.0, "lat": 38.966188333333335, "bike_id": "5867caf9bb5105c9504d72d6ca22893d", "type": "electric_bike", "is_reserved": 0, "lon": -77.03429466666667}, {"fusion_lat": 0.0, "name": "ba06e0fc9b0e0dd09ea701ce170e056e", "is_disabled": 0, "rental_uris": {"android": "https://dc.lft.to/lastmile_qr_scan", "ios": "https://dc.lft.to/lastmile_qr_scan"}, "fusion_lon": 0.0, "lat": 38.90650266666667, "bike_id": "ba06e0fc9b0e0dd09ea701ce170e056e", "type": "electric_scooter", "is_reserved": 0, "lon": -77.0271775}, {"fusion_lat": 0.0, "name": "12dcb35359f7c6ac3d835035e31130bc", "is_disabled": 0, "rental_uris": {"android": "https://dc.lft.to/lastmile_qr_scan", "ios": "https://dc.lft.to/lastmile_qr_scan"}, "fusion_lon": 0.0, "lat": 38.905163333333334, "bike_id": "12dcb35359f7c6ac3d835035e31130bc", "type": "electric_scooter", "is_reserved": 0, "lon": -77.0615595}, {"fusion_lat": 0.0, "name": "8435c7849dc6d398a9d1f53afa74d12b", "is_disabled": 0, "rental_uris": {"android": "https://dc.lft.to/lastmile_qr_scan", "ios": "https://dc.lft.to/lastmile_qr_scan"}, "fusion_lon": 0.0, "lat": 38.91698233333334, "bike_id": "8435c7849dc6d398a9d1f53afa74d12b", "type": "electric_scooter", "is_reserved": 0, "lon": -77.04086566666666}, {"fusion_lat": 0.0, "name": "b31b8aac48c5f41adde4440b41b9412e", "is_disabled": 0, "rental_uris": {"android": "https://dc.lft.to/lastmile_qr_scan", "ios": "https://dc.lft.to/lastmile_qr_scan"}, "fusion_lon": 0.0, "lat": 38.87228533333333, "bike_id": "b31b8aac48c5f41adde4440b41b9412e", "type": "electric_scooter", "is_reserved": 0, "lon": -77.0176955}, {"fusion_lat": 0.0, "name": "b78fd82a12985d81e7874215899236a1", "is_disabled": 0, "rental_uris": {"android": "https://dc.lft.to/lastmile_qr_scan", "ios": "https://dc.lft.to/lastmile_qr_scan"}, "fusion_lon": 0.0, "lat": 38.91643233333333, "bike_id": "b78fd82a12985d81e7874215899236a1", "type": "electric_scooter", "is_reserved": 0, "lon": -77.03696833333333}, {"fusion_lat": 0.0, "name": "b7cec1e93aa555f7798d85e8d872e5e4", "is_disabled": 0, "rental_uris": {"android": "https://dc.lft.to/lastmile_qr_scan", "ios": "https://dc.lft.to/lastmile_qr_scan"}, "fusion_lon": 0.0, "lat": 38.905790333333336, "bike_id": "b7cec1e93aa555f7798d85e8d872e5e4", "type": "electric_scooter", "is_reserved": 0, "lon": -77.0081155}, {"fusion_lat": 0.0, "name": "e6913d01d68fa6c8f10392efb69aef24", "is_disabled": 0, "rental_uris": {"android": "https://dc.lft.to/lastmile_qr_scan", "ios": "https://dc.lft.to/lastmile_qr_scan"}, "fusion_lon": 0.0, "lat": 38.87181783333333, "bike_id": "e6913d01d68fa6c8f10392efb69aef24", "type": "electric_scooter", "is_reserved": 0, "lon": -77.00614583333333}, {"fusion_lat": 0.0, "name": "5cba5e89c52c45a1b198f904f7845fa8", "is_disabled": 0, "rental_uris": {"android": "https://dc.lft.to/lastmile_qr_scan", "ios": "https://dc.lft.to/lastmile_qr_scan"}, "fusion_lon": 0.0, "lat": 38.9078335, "bike_id": "5cba5e89c52c45a1b198f904f7845fa8", "type": "electric_scooter", "is_reserved": 0, "lon": -77.03859483333333}, {"fusion_lat": 0.0, "name": "c403959974e30cda32a32f4563f746af", "is_disabled": 0, "rental_uris": {"android": "https://dc.lft.to/lastmile_qr_scan", "ios": "https://dc.lft.to/lastmile_qr_scan"}, "fusion_lon": 0.0, "lat": 38.900868833333334, "bike_id": "c403959974e30cda32a32f4563f746af", "type": "electric_scooter", "is_reserved": 0, "lon": -76.98336383333333}, {"fusion_lat": 0.0, "name": "1537280446a357b63cd825cd2903aa34", "is_disabled": 0, "rental_uris": {"android": "https://dc.lft.to/lastmile_qr_scan", "ios": "https://dc.lft.to/lastmile_qr_scan"}, "fusion_lon": 0.0, "lat": 38.9104145, "bike_id": "1537280446a357b63cd825cd2903aa34", "type": "electric_scooter", "is_reserved": 0, "lon": -77.00833583333333}, {"fusion_lat": 0.0, "name": "3e156bb21cd3505d9403203e3e548566", "is_disabled": 0, "rental_uris": {"android": "https://dc.lft.to/lastmile_qr_scan", "ios": "https://dc.lft.to/lastmile_qr_scan"}, "fusion_lon": 0.0, "lat": 38.935606, "bike_id": "3e156bb21cd3505d9403203e3e548566", "type": "electric_scooter", "is_reserved": 0, "lon": -77.05878516666667}, {"fusion_lat": 0.0, "name": "902dcefe56821d3641a7c7dbf2d15f3c", "is_disabled": 0, "rental_uris": {"android": "https://dc.lft.to/lastmile_qr_scan", "ios": "https://dc.lft.to/lastmile_qr_scan"}, "fusion_lon": 0.0, "lat": 38.862142, "bike_id": "902dcefe56821d3641a7c7dbf2d15f3c", "type": "electric_scooter", "is_reserved": 0, "lon": -76.99466866666667}, {"fusion_lat": 0.0, "name": "162fae48c4fdd659edbdc198d76be71b", "is_disabled": 0, "rental_uris": {"android": "https://dc.lft.to/lastmile_qr_scan", "ios": "https://dc.lft.to/lastmile_qr_scan"}, "fusion_lon": 0.0, "lat": 38.90639616666667, "bike_id": "162fae48c4fdd659edbdc198d76be71b", "type": "electric_scooter", "is_reserved": 0, "lon": -77.03722983333333}, {"fusion_lat": 0.0, "name": "1b7292df4836925f55be6e9b9f3b3703", "is_disabled": 0, "rental_uris": {"android": "https://dc.lft.to/lastmile_qr_scan", "ios": "https://dc.lft.to/lastmile_qr_scan"}, "fusion_lon": 0.0, "lat": 38.925449, "bike_id": "1b7292df4836925f55be6e9b9f3b3703", "type": "electric_scooter", "is_reserved": 0, "lon": -77.03833816666666}, {"fusion_lat": 0.0, "name": "fb748ebea951692740b0e9c15e6265e8", "is_disabled": 0, "rental_uris": {"android": "https://dc.lft.to/lastmile_qr_scan", "ios": "https://dc.lft.to/lastmile_qr_scan"}, "fusion_lon": 0.0, "lat": 38.9183455, "bike_id": "fb748ebea951692740b0e9c15e6265e8", "type": "electric_scooter", "is_reserved": 0, "lon": -77.023137}, {"fusion_lat": 0.0, "name": "903fa3dee9ebec9a69e42c1aa1d8687f", "is_disabled": 0, "rental_uris": {"android": "https://dc.lft.to/lastmile_qr_scan", "ios": "https://dc.lft.to/lastmile_qr_scan"}, "fusion_lon": 0.0, "lat": 38.9387355, "bike_id": "903fa3dee9ebec9a69e42c1aa1d8687f", "type": "electric_scooter", "is_reserved": 0, "lon": -77.02469833333333}, {"fusion_lat": 0.0, "name": "0f07883c61c6995cd394645f3efe5a5a", "is_disabled": 0, "rental_uris": {"android": "https://dc.lft.to/lastmile_qr_scan", "ios": "https://dc.lft.to/lastmile_qr_scan"}, "fusion_lon": 0.0, "lat": 38.921775833333335, "bike_id": "0f07883c61c6995cd394645f3efe5a5a", "type": "electric_scooter", "is_reserved": 0, "lon": -77.02666566666667}, {"fusion_lat": 0.0, "name": "c3f43dd23234ce4d2ebec285f5485c1b", "is_disabled": 0, "rental_uris": {"android": "https://dc.lft.to/lastmile_qr_scan", "ios": "https://dc.lft.to/lastmile_qr_scan"}, "fusion_lon": 0.0, "lat": 38.900447666666665, "bike_id": "c3f43dd23234ce4d2ebec285f5485c1b", "type": "electric_scooter", "is_reserved": 0, "lon": -77.01694016666667}, {"fusion_lat": 0.0, "name": "96e3ea24f881c15ef956e5e678243372", "is_disabled": 0, "rental_uris": {"android": "https://dc.lft.to/lastmile_qr_scan", "ios": "https://dc.lft.to/lastmile_qr_scan"}, "fusion_lon": 0.0, "lat": 38.93056033333333, "bike_id": "96e3ea24f881c15ef956e5e678243372", "type": "electric_scooter", "is_reserved": 0, "lon": -77.03217516666666}, {"fusion_lat": 0.0, "name": "dfadacdcd6c935838f49d382c8dcda9b", "is_disabled": 0, "rental_uris": {"android": "https://dc.lft.to/lastmile_qr_scan", "ios": "https://dc.lft.to/lastmile_qr_scan"}, "fusion_lon": 0.0, "lat": 38.90792733333333, "bike_id": "dfadacdcd6c935838f49d382c8dcda9b", "type": "electric_scooter", "is_reserved": 0, "lon": -77.04356316666667}, {"fusion_lat": 0.0, "name": "684a1339600afa991e59b2aefeeda8fd", "is_disabled": 0, "rental_uris": {"android": "https://dc.lft.to/lastmile_qr_scan", "ios": "https://dc.lft.to/lastmile_qr_scan"}, "fusion_lon": 0.0, "lat": 38.900287166666665, "bike_id": "684a1339600afa991e59b2aefeeda8fd", "type": "electric_scooter", "is_reserved": 0, "lon": -77.0240895}, {"fusion_lat": 0.0, "name": "2775433a295dcaf1181b1ad029fc26d9", "is_disabled": 0, "rental_uris": {"android": "https://dc.lft.to/lastmile_qr_scan", "ios": "https://dc.lft.to/lastmile_qr_scan"}, "fusion_lon": 0.0, "lat": 38.921264666666666, "bike_id": "2775433a295dcaf1181b1ad029fc26d9", "type": "electric_scooter", "is_reserved": 0, "lon": -77.04433533333334}, {"fusion_lat": 0.0, "name": "28bb00efd8bc92f79af2aa12914a7e5c", "is_disabled": 0, "rental_uris": {"android": "https://dc.lft.to/lastmile_qr_scan", "ios": "https://dc.lft.to/lastmile_qr_scan"}, "fusion_lon": 0.0, "lat": 38.9298665, "bike_id": "28bb00efd8bc92f79af2aa12914a7e5c", "type": "electric_scooter", "is_reserved": 0, "lon": -77.03474916666667}, {"fusion_lat": 0.0, "name": "031a32197d12a909cdd9848045ceff51", "is_disabled": 0, "rental_uris": {"android": "https://dc.lft.to/lastmile_qr_scan", "ios": "https://dc.lft.to/lastmile_qr_scan"}, "fusion_lon": 0.0, "lat": 38.8569765, "bike_id": "031a32197d12a909cdd9848045ceff51", "type": "electric_scooter", "is_reserved": 0, "lon": -76.99592983333334}, {"fusion_lat": 0.0, "name": "caf63c6272fc09895e912702fd6f45be", "is_disabled": 0, "rental_uris": {"android": "https://dc.lft.to/lastmile_qr_scan", "ios": "https://dc.lft.to/lastmile_qr_scan"}, "fusion_lon": 0.0, "lat": 38.895420666666666, "bike_id": "caf63c6272fc09895e912702fd6f45be", "type": "electric_scooter", "is_reserved": 0, "lon": -77.01125566666667}, {"fusion_lat": 0.0, "name": "3d8650fea111dbed84562421b209b9f3", "is_disabled": 0, "rental_uris": {"android": "https://dc.lft.to/lastmile_qr_scan", "ios": "https://dc.lft.to/lastmile_qr_scan"}, "fusion_lon": 0.0, "lat": 38.887943166666666, "bike_id": "3d8650fea111dbed84562421b209b9f3", "type": "electric_bike", "is_reserved": 0, "lon": -76.9299925}, {"fusion_lat": 0.0, "name": "22f2299e76dbedafc334e902b3379cb2", "is_disabled": 0, "rental_uris": {"android": "https://dc.lft.to/lastmile_qr_scan", "ios": "https://dc.lft.to/lastmile_qr_scan"}, "fusion_lon": 0.0, "lat": 38.902825166666666, "bike_id": "22f2299e76dbedafc334e902b3379cb2", "type": "electric_scooter", "is_reserved": 0, "lon": -77.0168625}, {"fusion_lat": 0.0, "name": "a83d552397fcf535a8dbc8a16bf6e6de", "is_disabled": 0, "rental_uris": {"android": "https://dc.lft.to/lastmile_qr_scan", "ios": "https://dc.lft.to/lastmile_qr_scan"}, "fusion_lon": 0.0, "lat": 38.91552466666667, "bike_id": "a83d552397fcf535a8dbc8a16bf6e6de", "type": "electric_scooter", "is_reserved": 0, "lon": -77.03175833333333}, {"fusion_lat": 0.0, "name": "022dbfc20ee2ab6a55c455e48fb440e6", "is_disabled": 0, "rental_uris": {"android": "https://dc.lft.to/lastmile_qr_scan", "ios": "https://dc.lft.to/lastmile_qr_scan"}, "fusion_lon": 0.0, "lat": 38.848352, "bike_id": "022dbfc20ee2ab6a55c455e48fb440e6", "type": "electric_bike", "is_reserved": 0, "lon": -77.079151}, {"fusion_lat": 0.0, "name": "6c4c5ef777db9e41ec76aad32efd013f", "is_disabled": 0, "rental_uris": {"android": "https://dc.lft.to/lastmile_qr_scan", "ios": "https://dc.lft.to/lastmile_qr_scan"}, "fusion_lon": 0.0, "lat": 38.9644535, "bike_id": "6c4c5ef777db9e41ec76aad32efd013f", "type": "electric_bike", "is_reserved": 0, "lon": -77.020793}, {"fusion_lat": 0.0, "name": "c4120c7041ccf1a418d61de97e5353bc", "is_disabled": 0, "rental_uris": {"android": "https://dc.lft.to/lastmile_qr_scan", "ios": "https://dc.lft.to/lastmile_qr_scan"}, "fusion_lon": 0.0, "lat": 38.9370435, "bike_id": "c4120c7041ccf1a418d61de97e5353bc", "type": "electric_scooter", "is_reserved": 0, "lon": -77.06104316666666}, {"fusion_lat": 0.0, "name": "a7f797ee79acdda5057b323515a9bee9", "is_disabled": 0, "rental_uris": {"android": "https://dc.lft.to/lastmile_qr_scan", "ios": "https://dc.lft.to/lastmile_qr_scan"}, "fusion_lon": 0.0, "lat": 38.90774066666667, "bike_id": "a7f797ee79acdda5057b323515a9bee9", "type": "electric_scooter", "is_reserved": 0, "lon": -77.03470916666667}, {"fusion_lat": 0.0, "name": "f49c2554ce60e47eee4724f8e525abcd", "is_disabled": 0, "rental_uris": {"android": "https://dc.lft.to/lastmile_qr_scan", "ios": "https://dc.lft.to/lastmile_qr_scan"}, "fusion_lon": 0.0, "lat": 38.9042185, "bike_id": "f49c2554ce60e47eee4724f8e525abcd", "type": "electric_scooter", "is_reserved": 0, "lon": -77.05145283333333}, {"fusion_lat": 0.0, "name": "ad392832788df1a69d82974e9c6014d9", "is_disabled": 0, "rental_uris": {"android": "https://dc.lft.to/lastmile_qr_scan", "ios": "https://dc.lft.to/lastmile_qr_scan"}, "fusion_lon": 0.0, "lat": 38.92977716666667, "bike_id": "ad392832788df1a69d82974e9c6014d9", "type": "electric_scooter", "is_reserved": 0, "lon": -77.04193216666667}, {"fusion_lat": 0.0, "name": "50364fa866bcc3c8d4a58159172b6a28", "is_disabled": 0, "rental_uris": {"android": "https://dc.lft.to/lastmile_qr_scan", "ios": "https://dc.lft.to/lastmile_qr_scan"}, "fusion_lon": 0.0, "lat": 38.952482333333336, "bike_id": "50364fa866bcc3c8d4a58159172b6a28", "type": "electric_scooter", "is_reserved": 0, "lon": -77.023838}, {"fusion_lat": 0.0, "name": "2a9344de46bfabb2ad380b5c6be74c02", "is_disabled": 0, "rental_uris": {"android": "https://dc.lft.to/lastmile_qr_scan", "ios": "https://dc.lft.to/lastmile_qr_scan"}, "fusion_lon": 0.0, "lat": 38.90639433333333, "bike_id": "2a9344de46bfabb2ad380b5c6be74c02", "type": "electric_scooter", "is_reserved": 0, "lon": -77.06931233333333}, {"fusion_lat": 0.0, "name": "6a19865f57137beaa6b7a1a0f10d1bfc", "is_disabled": 0, "rental_uris": {"android": "https://dc.lft.to/lastmile_qr_scan", "ios": "https://dc.lft.to/lastmile_qr_scan"}, "fusion_lon": 0.0, "lat": 38.92869483333333, "bike_id": "6a19865f57137beaa6b7a1a0f10d1bfc", "type": "electric_scooter", "is_reserved": 0, "lon": -77.0326915}, {"fusion_lat": 0.0, "name": "8d313135105954f6546abb1b5389e324", "is_disabled": 0, "rental_uris": {"android": "https://dc.lft.to/lastmile_qr_scan", "ios": "https://dc.lft.to/lastmile_qr_scan"}, "fusion_lon": 0.0, "lat": 38.9267755, "bike_id": "8d313135105954f6546abb1b5389e324", "type": "electric_scooter", "is_reserved": 0, "lon": -77.03099116666667}, {"fusion_lat": 0.0, "name": "4d1448b9984496d17914e141fee8a13a", "is_disabled": 0, "rental_uris": {"android": "https://dc.lft.to/lastmile_qr_scan", "ios": "https://dc.lft.to/lastmile_qr_scan"}, "fusion_lon": 0.0, "lat": 38.93192066666667, "bike_id": "4d1448b9984496d17914e141fee8a13a", "type": "electric_scooter", "is_reserved": 0, "lon": -77.01972383333333}, {"fusion_lat": 0.0, "name": "55335b2bee7e8e431e5660a28565c946", "is_disabled": 0, "rental_uris": {"android": "https://dc.lft.to/lastmile_qr_scan", "ios": "https://dc.lft.to/lastmile_qr_scan"}, "fusion_lon": 0.0, "lat": 38.913849166666665, "bike_id": "55335b2bee7e8e431e5660a28565c946", "type": "electric_scooter", "is_reserved": 0, "lon": -77.01807216666667}, {"fusion_lat": 0.0, "name": "90e4c34ac7e64db30df1e6ed526434c6", "is_disabled": 0, "rental_uris": {"android": "https://dc.lft.to/lastmile_qr_scan", "ios": "https://dc.lft.to/lastmile_qr_scan"}, "fusion_lon": 0.0, "lat": 38.9045435, "bike_id": "90e4c34ac7e64db30df1e6ed526434c6", "type": "electric_scooter", "is_reserved": 0, "lon": -77.059231}, {"fusion_lat": 0.0, "name": "809410ef0a5b1eba9238d18ed82a9057", "is_disabled": 0, "rental_uris": {"android": "https://dc.lft.to/lastmile_qr_scan", "ios": "https://dc.lft.to/lastmile_qr_scan"}, "fusion_lon": 0.0, "lat": 38.907497166666666, "bike_id": "809410ef0a5b1eba9238d18ed82a9057", "type": "electric_scooter", "is_reserved": 0, "lon": -76.999586}, {"fusion_lat": 0.0, "name": "2dfbb08581fd24726bfa2a6cd50e3dcb", "is_disabled": 0, "rental_uris": {"android": "https://dc.lft.to/lastmile_qr_scan", "ios": "https://dc.lft.to/lastmile_qr_scan"}, "fusion_lon": 0.0, "lat": 38.87934033333333, "bike_id": "2dfbb08581fd24726bfa2a6cd50e3dcb", "type": "electric_scooter", "is_reserved": 0, "lon": -77.00422283333333}, {"fusion_lat": 0.0, "name": "e5bdcce1e686aada8fbda15878c769a5", "is_disabled": 0, "rental_uris": {"android": "https://dc.lft.to/lastmile_qr_scan", "ios": "https://dc.lft.to/lastmile_qr_scan"}, "fusion_lon": 0.0, "lat": 38.892611333333335, "bike_id": "e5bdcce1e686aada8fbda15878c769a5", "type": "electric_bike", "is_reserved": 0, "lon": -76.95126283333333}, {"fusion_lat": 0.0, "name": "c45de232dafbb37974d75514f94e93d1", "is_disabled": 0, "rental_uris": {"android": "https://dc.lft.to/lastmile_qr_scan", "ios": "https://dc.lft.to/lastmile_qr_scan"}, "fusion_lon": 0.0, "lat": 38.93494033333333, "bike_id": "c45de232dafbb37974d75514f94e93d1", "type": "electric_scooter", "is_reserved": 0, "lon": -77.073554}, {"fusion_lat": 0.0, "name": "3f5ce56c9ec8223f9f51fcf37fcae201", "is_disabled": 0, "rental_uris": {"android": "https://dc.lft.to/lastmile_qr_scan", "ios": "https://dc.lft.to/lastmile_qr_scan"}, "fusion_lon": 0.0, "lat": 38.8961785, "bike_id": "3f5ce56c9ec8223f9f51fcf37fcae201", "type": "electric_scooter", "is_reserved": 0, "lon": -77.02207533333333}, {"fusion_lat": 0.0, "name": "7cb14b63cd97d08bce014ced1ecc3aff", "is_disabled": 0, "rental_uris": {"android": "https://dc.lft.to/lastmile_qr_scan", "ios": "https://dc.lft.to/lastmile_qr_scan"}, "fusion_lon": 0.0, "lat": 38.90017683333333, "bike_id": "7cb14b63cd97d08bce014ced1ecc3aff", "type": "electric_scooter", "is_reserved": 0, "lon": -77.01181116666666}, {"fusion_lat": 0.0, "name": "70e0e3c4c50bcaf4ee4c70f2b359b211", "is_disabled": 0, "rental_uris": {"android": "https://dc.lft.to/lastmile_qr_scan", "ios": "https://dc.lft.to/lastmile_qr_scan"}, "fusion_lon": 0.0, "lat": 38.91335933333333, "bike_id": "70e0e3c4c50bcaf4ee4c70f2b359b211", "type": "electric_scooter", "is_reserved": 0, "lon": -77.04542366666666}, {"fusion_lat": 0.0, "name": "de7f2bcbbf073d7f2a4578c5c96e66a4", "is_disabled": 0, "rental_uris": {"android": "https://dc.lft.to/lastmile_qr_scan", "ios": "https://dc.lft.to/lastmile_qr_scan"}, "fusion_lon": 0.0, "lat": 38.905717333333335, "bike_id": "de7f2bcbbf073d7f2a4578c5c96e66a4", "type": "electric_scooter", "is_reserved": 0, "lon": -77.031166}, {"fusion_lat": 0.0, "name": "ec86549ae3b7187b06081dc12ba12945", "is_disabled": 0, "rental_uris": {"android": "https://dc.lft.to/lastmile_qr_scan", "ios": "https://dc.lft.to/lastmile_qr_scan"}, "fusion_lon": 0.0, "lat": 38.89451616666667, "bike_id": "ec86549ae3b7187b06081dc12ba12945", "type": "electric_scooter", "is_reserved": 0, "lon": -77.0454975}, {"fusion_lat": 0.0, "name": "e7dc04533b8fecd7989f124c28160886", "is_disabled": 0, "rental_uris": {"android": "https://dc.lft.to/lastmile_qr_scan", "ios": "https://dc.lft.to/lastmile_qr_scan"}, "fusion_lon": 0.0, "lat": 38.87769983333333, "bike_id": "e7dc04533b8fecd7989f124c28160886", "type": "electric_scooter", "is_reserved": 0, "lon": -77.00533633333333}, {"fusion_lat": 0.0, "name": "6cd96ca13ab67fa883c639cfba284442", "is_disabled": 0, "rental_uris": {"android": "https://dc.lft.to/lastmile_qr_scan", "ios": "https://dc.lft.to/lastmile_qr_scan"}, "fusion_lon": 0.0, "lat": 38.88186816666666, "bike_id": "6cd96ca13ab67fa883c639cfba284442", "type": "electric_scooter", "is_reserved": 0, "lon": -77.00356366666666}, {"fusion_lat": 0.0, "name": "3e6d982c0dc38f5e0b827d8e99484f66", "is_disabled": 0, "rental_uris": {"android": "https://dc.lft.to/lastmile_qr_scan", "ios": "https://dc.lft.to/lastmile_qr_scan"}, "fusion_lon": 0.0, "lat": 38.9393185, "bike_id": "3e6d982c0dc38f5e0b827d8e99484f66", "type": "electric_scooter", "is_reserved": 0, "lon": -77.0748165}, {"fusion_lat": 0.0, "name": "896abe631f9024a7349711f5e2ee7631", "is_disabled": 0, "rental_uris": {"android": "https://dc.lft.to/lastmile_qr_scan", "ios": "https://dc.lft.to/lastmile_qr_scan"}, "fusion_lon": 0.0, "lat": 38.90242416666667, "bike_id": "896abe631f9024a7349711f5e2ee7631", "type": "electric_scooter", "is_reserved": 0, "lon": -77.01654866666667}, {"fusion_lat": 0.0, "name": "f8b8986cf55260ff93e0c4b723355074", "is_disabled": 0, "rental_uris": {"android": "https://dc.lft.to/lastmile_qr_scan", "ios": "https://dc.lft.to/lastmile_qr_scan"}, "fusion_lon": 0.0, "lat": 38.9233175, "bike_id": "f8b8986cf55260ff93e0c4b723355074", "type": "electric_scooter", "is_reserved": 0, "lon": -77.02553266666666}, {"fusion_lat": 0.0, "name": "24ff4763d0a070fa2c60f4bb4a7ce3f7", "is_disabled": 0, "rental_uris": {"android": "https://dc.lft.to/lastmile_qr_scan", "ios": "https://dc.lft.to/lastmile_qr_scan"}, "fusion_lon": 0.0, "lat": 38.885465333333336, "bike_id": "24ff4763d0a070fa2c60f4bb4a7ce3f7", "type": "electric_scooter", "is_reserved": 0, "lon": -76.99625633333333}, {"fusion_lat": 0.0, "name": "430f02a111c05bbb46ba2bcd0c6b221b", "is_disabled": 0, "rental_uris": {"android": "https://dc.lft.to/lastmile_qr_scan", "ios": "https://dc.lft.to/lastmile_qr_scan"}, "fusion_lon": 0.0, "lat": 38.802966, "bike_id": "430f02a111c05bbb46ba2bcd0c6b221b", "type": "electric_bike", "is_reserved": 0, "lon": -77.05941933333334}, {"fusion_lat": 0.0, "name": "5f9918650c2dee5c51c1aecc394177ac", "is_disabled": 0, "rental_uris": {"android": "https://dc.lft.to/lastmile_qr_scan", "ios": "https://dc.lft.to/lastmile_qr_scan"}, "fusion_lon": 0.0, "lat": 38.9238075, "bike_id": "5f9918650c2dee5c51c1aecc394177ac", "type": "electric_scooter", "is_reserved": 0, "lon": -77.044702}, {"fusion_lat": 0.0, "name": "415bb5206c649ed673d8eaeb7e66aecf", "is_disabled": 0, "rental_uris": {"android": "https://dc.lft.to/lastmile_qr_scan", "ios": "https://dc.lft.to/lastmile_qr_scan"}, "fusion_lon": 0.0, "lat": 38.92394516666667, "bike_id": "415bb5206c649ed673d8eaeb7e66aecf", "type": "electric_scooter", "is_reserved": 0, "lon": -77.0431795}, {"fusion_lat": 0.0, "name": "fe37a48302d816e8d6f4f645c976e6d2", "is_disabled": 0, "rental_uris": {"android": "https://dc.lft.to/lastmile_qr_scan", "ios": "https://dc.lft.to/lastmile_qr_scan"}, "fusion_lon": 0.0, "lat": 38.90307716666667, "bike_id": "fe37a48302d816e8d6f4f645c976e6d2", "type": "electric_scooter", "is_reserved": 0, "lon": -76.97815583333333}, {"fusion_lat": 0.0, "name": "b2b5489f5c1de3b2855022559e8e7036", "is_disabled": 0, "rental_uris": {"android": "https://dc.lft.to/lastmile_qr_scan", "ios": "https://dc.lft.to/lastmile_qr_scan"}, "fusion_lon": 0.0, "lat": 38.904422, "bike_id": "b2b5489f5c1de3b2855022559e8e7036", "type": "electric_scooter", "is_reserved": 0, "lon": -77.05134366666667}, {"fusion_lat": 0.0, "name": "be92b94e925c5180ae486d22ef4e54ad", "is_disabled": 0, "rental_uris": {"android": "https://dc.lft.to/lastmile_qr_scan", "ios": "https://dc.lft.to/lastmile_qr_scan"}, "fusion_lon": 0.0, "lat": 38.92097866666667, "bike_id": "be92b94e925c5180ae486d22ef4e54ad", "type": "electric_scooter", "is_reserved": 0, "lon": -77.0221225}, {"fusion_lat": 0.0, "name": "7b9fa28167c21416d41e46d1906d2737", "is_disabled": 0, "rental_uris": {"android": "https://dc.lft.to/lastmile_qr_scan", "ios": "https://dc.lft.to/lastmile_qr_scan"}, "fusion_lon": 0.0, "lat": 38.89043383333333, "bike_id": "7b9fa28167c21416d41e46d1906d2737", "type": "electric_bike", "is_reserved": 0, "lon": -77.02576283333333}, {"fusion_lat": 0.0, "name": "95f7b690b071b4f64e3fbff1e7758104", "is_disabled": 0, "rental_uris": {"android": "https://dc.lft.to/lastmile_qr_scan", "ios": "https://dc.lft.to/lastmile_qr_scan"}, "fusion_lon": 0.0, "lat": 38.842839, "bike_id": "95f7b690b071b4f64e3fbff1e7758104", "type": "electric_bike", "is_reserved": 0, "lon": -77.04491283333333}, {"fusion_lat": 0.0, "name": "8ec6f038bbca206387e15b54db486524", "is_disabled": 0, "rental_uris": {"android": "https://dc.lft.to/lastmile_qr_scan", "ios": "https://dc.lft.to/lastmile_qr_scan"}, "fusion_lon": 0.0, "lat": 38.911341166666666, "bike_id": "8ec6f038bbca206387e15b54db486524", "type": "electric_scooter", "is_reserved": 0, "lon": -77.01051983333333}, {"fusion_lat": 0.0, "name": "2d87f4231f570c395770daa7422ea4af", "is_disabled": 0, "rental_uris": {"android": "https://dc.lft.to/lastmile_qr_scan", "ios": "https://dc.lft.to/lastmile_qr_scan"},