{"data": {"bikes": [{"bike_id": "b51aeff77817f08fcca2c016cc2a3b9f", "type": "electric_scooter", "is_disabled": 0, "lat": 38.884174, "rental_uris": {"ios": "https://dc.lft.to/lastmile_qr_scan", "android": "https://dc.lft.to/lastmile_qr_scan"}, "is_reserved": 0, "fusion_lon": 0.0, "fusion_lat": 0.0, "lon": -77.0074565, "name": "b51aeff77817f08fcca2c016cc2a3b9f"}, {"bike_id": "843e895b0694b5185afbffaf5b41e179", "type": "electric_scooter", "is_disabled": 0, "lat": 38.9242075, "rental_uris": {"ios": "https://dc.lft.to/lastmile_qr_scan", "android": "https://dc.lft.to/lastmile_qr_scan"}, "is_reserved": 0, "fusion_lon": 0.0, "fusion_lat": 0.0, "lon": -77.02263516666666, "name": "843e895b0694b5185afbffaf5b41e179"}, {"bike_id": "53a8f70e0a5fc2e79756de473a4cb3f4", "type": "electric_scooter", "is_disabled": 0, "lat": 38.86376166666667, "rental_uris": {"ios": "https://dc.lft.to/lastmile_qr_scan", "android": "https://dc.lft.to/lastmile_qr_scan"}, "is_reserved": 0, "fusion_lon": 0.0, "fusion_lat": 0.0, "lon": -76.99058116666667, "name": "53a8f70e0a5fc2e79756de473a4cb3f4"}, {"bike_id": "0226697c6c7c85d3f91f92080aa5ff56", "type": "electric_scooter", "is_disabled": 0, "lat": 38.917662166666666, "rental_uris": {"ios": "https://dc.lft.to/lastmile_qr_scan", "android": "https://dc.lft.to/lastmile_qr_scan"}, "is_reserved": 0, "fusion_lon": 0.0, "fusion_lat": 0.0, "lon": -77.04766616666667, "name": "0226697c6c7c85d3f91f92080aa5ff56"}, {"bike_id": "21754bf37f956147cd6ee6365a4ca286", "type": "electric_scooter", "is_disabled": 0, "lat": 38.93546383333333, "rental_uris": {"ios": "https://dc.lft.to/lastmile_qr_scan", "android": "https://dc.lft.to/lastmile_qr_scan"}, "is_reserved": 0, "fusion_lon": 0.0, "fusion_lat": 0.0, "lon": -77.02505216666667, "name": "21754bf37f956147cd6ee6365a4ca286"}, {"bike_id": "4d7b528b7c7f502e72973bc94c81fb5b", "type": "electric_scooter", "is_disabled": 0, "lat": 38.8723815, "rental_uris": {"ios": "https://dc.lft.to/lastmile_qr_scan", "android": "https://dc.lft.to/lastmile_qr_scan"}, "is_reserved": 0, "fusion_lon": 0.0, "fusion_lat": 0.0, "lon": -77.011556, "name": "4d7b528b7c7f502e72973bc94c81fb5b"}, {"bike_id": "03f25de027461dd654a28e5834fb0c13", "type": "electric_scooter", "is_disabled": 0, "lat": 38.92819766666667, "rental_uris": {"ios": "https://dc.lft.to/lastmile_qr_scan", "android": "https://dc.lft.to/lastmile_qr_scan"}, "is_reserved": 0, "fusion_lon": 0.0, "fusion_lat": 0.0, "lon": -77.02257283333333, "name": "03f25de027461dd654a28e5834fb0c13"}, {"bike_id": "a4fd0a4bba5c2e20569726c32e74712e", "type": "electric_bike", "is_disabled": 0, "lat": 38.94018483333333, "rental_uris": {"ios": "https://dc.lft.to/lastmile_qr_scan", "android": "https://dc.lft.to/lastmile_qr_scan"}, "is_reserved": 0, "fusion_lon": 0.0, "fusion_lat": 0.0, "lon": -76.97608416666667, "name": "a4fd0a4bba5c2e20569726c32e74712e"}, {"bike_id": "a80b3c3285739d1bba453f42ccedbeb7", "type": "electric_bike", "is_disabled": 0, "lat": 38.95637983333334, "rental_uris": {"ios": "https://dc.lft.to/lastmile_qr_scan", "android": "https://dc.lft.to/lastmile_qr_scan"}, "is_reserved": 0, "fusion_lon": 0.0, "fusion_lat": 0.0, "lon": -76.9387745, "name": "a80b3c3285739d1bba453f42ccedbeb7"}, {"bike_id": "53a090b06c76f9f7cba43a39ec620a12", "type": "electric_scooter", "is_disabled": 0, "lat": 38.984332333333334, "rental_uris": {"ios": "https://dc.lft.to/lastmile_qr_scan", "android": "https://dc.lft.to/lastmile_qr_scan"}, "is_reserved": 0, "fusion_lon": 0.0, "fusion_lat": 0.0, "lon": -77.02676283333334, "name": "53a090b06c76f9f7cba43a39ec620a12"}, {"bike_id": "4bc67f325d0422749666085bd1c1fcee", "type": "electric_scooter", "is_disabled": 0, "lat": 38.9010035, "rental_uris": {"ios": "https://dc.lft.to/lastmile_qr_scan", "android": "https://dc.lft.to/lastmile_qr_scan"}, "is_reserved": 0, "fusion_lon": 0.0, "fusion_lat": 0.0, "lon": -77.00649016666667, "name": "4bc67f325d0422749666085bd1c1fcee"}, {"bike_id": "61d10483a92b4bb07150edca0bc7ec70", "type": "electric_scooter", "is_disabled": 0, "lat": 38.926028, "rental_uris": {"ios": "https://dc.lft.to/lastmile_qr_scan", "android": "https://dc.lft.to/lastmile_qr_scan"}, "is_reserved": 0, "fusion_lon": 0.0, "fusion_lat": 0.0, "lon": -77.10239083333333, "name": "61d10483a92b4bb07150edca0bc7ec70"}, {"bike_id": "b62661cc3899957014bcda5a447d9325", "type": "electric_scooter", "is_disabled": 0, "lat": 38.92238583333334, "rental_uris": {"ios": "https://dc.lft.to/lastmile_qr_scan", "android": "https://dc.lft.to/lastmile_qr_scan"}, "is_reserved": 0, "fusion_lon": 0.0, "fusion_lat": 0.0, "lon": -77.04360133333333, "name": "b62661cc3899957014bcda5a447d9325"}, {"bike_id": "1b654bfa57bc04a146dea434316acdeb", "type": "electric_scooter", "is_disabled": 0, "lat": 38.96181466666667, "rental_uris": {"ios": "https://dc.lft.to/lastmile_qr_scan", "android": "https://dc.lft.to/lastmile_qr_scan"}, "is_reserved": 0, "fusion_lon": 0.0, "fusion_lat": 0.0, "lon": -77.027534, "name": "1b654bfa57bc04a146dea434316acdeb"}, {"bike_id": "ee3e7738939740d024856d380d945714", "type": "electric_scooter", "is_disabled": 0, "lat": 38.90385083333334, "rental_uris": {"ios": "https://dc.lft.to/lastmile_qr_scan", "android": "https://dc.lft.to/lastmile_qr_scan"}, "is_reserved": 0, "fusion_lon": 0.0, "fusion_lat": 0.0, "lon": -77.0400465, "name": "ee3e7738939740d024856d380d945714"}, {"bike_id": "1ed6386aec288f9b6ef876f6da62271f", "type": "electric_scooter", "is_disabled": 0, "lat": 38.93704416666667, "rental_uris": {"ios": "https://dc.lft.to/lastmile_qr_scan", "android": "https://dc.lft.to/lastmile_qr_scan"}, "is_reserved": 0, "fusion_lon": 0.0, "fusion_lat": 0.0, "lon": -77.03275866666667, "name": "1ed6386aec288f9b6ef876f6da62271f"}, {"bike_id": "0e572cfa80fa203685d6b44490f8b1f0", "type": "electric_scooter", "is_disabled": 0, "lat": 38.88243666666666, "rental_uris": {"ios": "https://dc.lft.to/lastmile_qr_scan", "android": "https://dc.lft.to/lastmile_qr_scan"}, "is_reserved": 0, "fusion_lon": 0.0, "fusion_lat": 0.0, "lon": -76.99120616666667, "name": "0e572cfa80fa203685d6b44490f8b1f0"}, {"bike_id": "e1241f054c7a9f82f3b9b5ebef646350", "type": "electric_scooter", "is_disabled": 0, "lat": 38.923122166666666, "rental_uris": {"ios": "https://dc.lft.to/lastmile_qr_scan", "android": "https://dc.lft.to/lastmile_qr_scan"}, "is_reserved": 0, "fusion_lon": 0.0, "fusion_lat": 0.0, "lon": -77.039092, "name": "e1241f054c7a9f82f3b9b5ebef646350"}, {"bike_id": "ef6fe60c3cb4d2a91fe5bf79f833dc6d", "type": "electric_scooter", "is_disabled": 0, "lat": 38.919572, "rental_uris": {"ios": "https://dc.lft.to/lastmile_qr_scan", "android": "https://dc.lft.to/lastmile_qr_scan"}, "is_reserved": 0, "fusion_lon": 0.0, "fusion_lat": 0.0, "lon": -77.0238945, "name": "ef6fe60c3cb4d2a91fe5bf79f833dc6d"}, {"bike_id": "a2f2544c33345f3012e5ed621d52e71d", "type": "electric_scooter", "is_disabled": 0, "lat": 38.892523833333335, "rental_uris": {"ios": "https://dc.lft.to/lastmile_qr_scan", "android": "https://dc.lft.to/lastmile_qr_scan"}, "is_reserved": 0, "fusion_lon": 0.0, "fusion_lat": 0.0, "lon": -77.03351716666667, "name": "a2f2544c33345f3012e5ed621d52e71d"}, {"bike_id": "ff02dc82abffdc6e6e4dcde01f6ca2a3", "type": "electric_scooter", "is_disabled": 0, "lat": 38.92135416666667, "rental_uris": {"ios": "https://dc.lft.to/lastmile_qr_scan", "android": "https://dc.lft.to/lastmile_qr_scan"}, "is_reserved": 0, "fusion_lon": 0.0, "fusion_lat": 0.0, "lon": -77.041351, "name": "ff02dc82abffdc6e6e4dcde01f6ca2a3"}, {"bike_id": "c3bed173da5dcaa9e2fa3eea9905036e", "type": "electric_scooter", "is_disabled": 0, "lat": 38.91817066666667, "rental_uris": {"ios": "https://dc.lft.to/lastmile_qr_scan", "android": "https://dc.lft.to/lastmile_qr_scan"}, "is_reserved": 0, "fusion_lon": 0.0, "fusion_lat": 0.0, "lon": -77.036615, "name": "c3bed173da5dcaa9e2fa3eea9905036e"}, {"bike_id": "6da3940bf76d457573d8caf1ec3ba73e", "type": "electric_bike", "is_disabled": 0, "lat": 38.9087345, "rental_uris": {"ios": "https://dc.lft.to/lastmile_qr_scan", "android": "https://dc.lft.to/lastmile_qr_scan"}, "is_reserved": 0, "fusion_lon": 0.0, "fusion_lat": 0.0, "lon": -76.99137016666667, "name": "6da3940bf76d457573d8caf1ec3ba73e"}, {"bike_id": "434ec1ab2d0f671dda4086932d8055c1", "type": "electric_scooter", "is_disabled": 0, "lat": 38.90729683333333, "rental_uris": {"ios": "https://dc.lft.to/lastmile_qr_scan", "android": "https://dc.lft.to/lastmile_qr_scan"}, "is_reserved": 0, "fusion_lon": 0.0, "fusion_lat": 0.0, "lon": -77.02956483333334, "name": "434ec1ab2d0f671dda4086932d8055c1"}, {"bike_id": "14acc9d025ee54a8ca3ffb003b974a6f", "type": "electric_scooter", "is_disabled": 0, "lat": 38.935411, "rental_uris": {"ios": "https://dc.lft.to/lastmile_qr_scan", "android": "https://dc.lft.to/lastmile_qr_scan"}, "is_reserved": 0, "fusion_lon": 0.0, "fusion_lat": 0.0, "lon": -77.05820883333334, "name": "14acc9d025ee54a8ca3ffb003b974a6f"}, {"bike_id": "032282f7b4aaa3bed913afdf097ab92f", "type": "electric_scooter", "is_disabled": 0, "lat": 38.9245895, "rental_uris": {"ios": "https://dc.lft.to/lastmile_qr_scan", "android": "https://dc.lft.to/lastmile_qr_scan"}, "is_reserved": 0, "fusion_lon": 0.0, "fusion_lat": 0.0, "lon": -77.02959366666667, "name": "032282f7b4aaa3bed913afdf097ab92f"}, {"bike_id": "77b63f390f5c4fc086b4ac2b40a4c218", "type": "electric_scooter", "is_disabled": 0, "lat": 38.934785166666664, "rental_uris": {"ios": "https://dc.lft.to/lastmile_qr_scan", "android": "https://dc.lft.to/lastmile_qr_scan"}, "is_reserved": 0, "fusion_lon": 0.0, "fusion_lat": 0.0, "lon": -77.026032, "name": "77b63f390f5c4fc086b4ac2b40a4c218"}, {"bike_id": "c27203932538e1ac0500bfa7b67046b2", "type": "electric_scooter", "is_disabled": 0, "lat": 38.912487666666664, "rental_uris": {"ios": "https://dc.lft.to/lastmile_qr_scan", "android": "https://dc.lft.to/lastmile_qr_scan"}, "is_reserved": 0, "fusion_lon": 0.0, "fusion_lat": 0.0, "lon": -77.03855566666667, "name": "c27203932538e1ac0500bfa7b67046b2"}, {"bike_id": "aefc083616eda361e6427ed0e6ca65a3", "type": "electric_scooter", "is_disabled": 0, "lat": 38.9065265, "rental_uris": {"ios": "https://dc.lft.to/lastmile_qr_scan", "android": "https://dc.lft.to/lastmile_qr_scan"}, "is_reserved": 0, "fusion_lon": 0.0, "fusion_lat": 0.0, "lon": -77.0172725, "name": "aefc083616eda361e6427ed0e6ca65a3"}, {"bike_id": "ce4493a2d1d20d38448abb3aa19255d2", "type": "electric_scooter", "is_disabled": 0, "lat": 38.904232666666665, "rental_uris": {"ios": "https://dc.lft.to/lastmile_qr_scan", "android": "https://dc.lft.to/lastmile_qr_scan"}, "is_reserved": 0, "fusion_lon": 0.0, "fusion_lat": 0.0, "lon": -77.03450933333333, "name": "ce4493a2d1d20d38448abb3aa19255d2"}, {"bike_id": "2989b2e40d9fe3f09c8e78ccab7169b8", "type": "electric_scooter", "is_disabled": 0, "lat": 38.89936866666667, "rental_uris": {"ios": "https://dc.lft.to/lastmile_qr_scan", "android": "https://dc.lft.to/lastmile_qr_scan"}, "is_reserved": 0, "fusion_lon": 0.0, "fusion_lat": 0.0, "lon": -77.04772066666666, "name": "2989b2e40d9fe3f09c8e78ccab7169b8"}, {"bike_id": "a4a228f7058b3b411ca557f863432b78", "type": "electric_scooter", "is_disabled": 0, "lat": 38.9008625, "rental_uris": {"ios": "https://dc.lft.to/lastmile_qr_scan", "android": "https://dc.lft.to/lastmile_qr_scan"}, "is_reserved": 0, "fusion_lon": 0.0, "fusion_lat": 0.0, "lon": -77.0305985, "name": "a4a228f7058b3b411ca557f863432b78"}, {"bike_id": "d601d9c55f88106ef68f48382a6044e6", "type": "electric_bike", "is_disabled": 0, "lat": 38.88148666666667, "rental_uris": {"ios": "https://dc.lft.to/lastmile_qr_scan", "android": "https://dc.lft.to/lastmile_qr_scan"}, "is_reserved": 0, "fusion_lon": 0.0, "fusion_lat": 0.0, "lon": -77.114697, "name": "d601d9c55f88106ef68f48382a6044e6"}, {"bike_id": "30c24157754852d4973838573890062f", "type": "electric_bike", "is_disabled": 0, "lat": 38.92444233333333, "rental_uris": {"ios": "https://dc.lft.to/lastmile_qr_scan", "android": "https://dc.lft.to/lastmile_qr_scan"}, "is_reserved": 0, "fusion_lon": 0.0, "fusion_lat": 0.0, "lon": -77.2257665, "name": "30c24157754852d4973838573890062f"}, {"bike_id": "d6b829428cb8a0ae1675f791d4570986", "type": "electric_scooter", "is_disabled": 0, "lat": 38.914001999999996, "rental_uris": {"ios": "https://dc.lft.to/lastmile_qr_scan", "android": "https://dc.lft.to/lastmile_qr_scan"}, "is_reserved": 0, "fusion_lon": 0.0, "fusion_lat": 0.0, "lon": -77.031571, "name": "d6b829428cb8a0ae1675f791d4570986"}, {"bike_id": "0c590c978f707833607f03dc2c3789e0", "type": "electric_bike", "is_disabled": 0, "lat": 38.8367095, "rental_uris": {"ios": "https://dc.lft.to/lastmile_qr_scan", "android": "https://dc.lft.to/lastmile_qr_scan"}, "is_reserved": 0, "fusion_lon": 0.0, "fusion_lat": 0.0, "lon": -76.99360016666667, "name": "0c590c978f707833607f03dc2c3789e0"}, {"bike_id": "8074d1643461e42105de8e4a8c0dc415", "type": "electric_scooter", "is_disabled": 0, "lat": 38.918735833333336, "rental_uris": {"ios": "https://dc.lft.to/lastmile_qr_scan", "android": "https://dc.lft.to/lastmile_qr_scan"}, "is_reserved": 0, "fusion_lon": 0.0, "fusion_lat": 0.0, "lon": -77.02968416666667, "name": "8074d1643461e42105de8e4a8c0dc415"}, {"bike_id": "86a76fcd9f7d5ba5855443b80a276983", "type": "electric_scooter", "is_disabled": 0, "lat": 38.90720616666667, "rental_uris": {"ios": "https://dc.lft.to/lastmile_qr_scan", "android": "https://dc.lft.to/lastmile_qr_scan"}, "is_reserved": 0, "fusion_lon": 0.0, "fusion_lat": 0.0, "lon": -77.02980733333334, "name": "86a76fcd9f7d5ba5855443b80a276983"}, {"bike_id": "06045fb170c236d6cc6087bc7dddc500", "type": "electric_scooter", "is_disabled": 0, "lat": 38.863730833333335, "rental_uris": {"ios": "https://dc.lft.to/lastmile_qr_scan", "android": "https://dc.lft.to/lastmile_qr_scan"}, "is_reserved": 0, "fusion_lon": 0.0, "fusion_lat": 0.0, "lon": -76.99056816666666, "name": "06045fb170c236d6cc6087bc7dddc500"}, {"bike_id": "5cdce92bf9ddfbaf12d5512c6b42756e", "type": "electric_scooter", "is_disabled": 0, "lat": 38.93705633333333, "rental_uris": {"ios": "https://dc.lft.to/lastmile_qr_scan", "android": "https://dc.lft.to/lastmile_qr_scan"}, "is_reserved": 0, "fusion_lon": 0.0, "fusion_lat": 0.0, "lon": -77.03281583333333, "name": "5cdce92bf9ddfbaf12d5512c6b42756e"}, {"bike_id": "563118d642f6c5ac0dfe202e970d5c64", "type": "electric_scooter", "is_disabled": 0, "lat": 38.91774083333333, "rental_uris": {"ios": "https://dc.lft.to/lastmile_qr_scan", "android": "https://dc.lft.to/lastmile_qr_scan"}, "is_reserved": 0, "fusion_lon": 0.0, "fusion_lat": 0.0, "lon": -77.01492683333333, "name": "563118d642f6c5ac0dfe202e970d5c64"}, {"bike_id": "15511ac3aaf860a761e42ae6994132f5", "type": "electric_scooter", "is_disabled": 0, "lat": 38.906052833333334, "rental_uris": {"ios": "https://dc.lft.to/lastmile_qr_scan", "android": "https://dc.lft.to/lastmile_qr_scan"}, "is_reserved": 0, "fusion_lon": 0.0, "fusion_lat": 0.0, "lon": -77.01207183333334, "name": "15511ac3aaf860a761e42ae6994132f5"}, {"bike_id": "0ebcc828c6b526610d243348b0c6967a", "type": "electric_scooter", "is_disabled": 0, "lat": 38.895253833333335, "rental_uris": {"ios": "https://dc.lft.to/lastmile_qr_scan", "android": "https://dc.lft.to/lastmile_qr_scan"}, "is_reserved": 0, "fusion_lon": 0.0, "fusion_lat": 0.0, "lon": -77.01103666666667, "name": "0ebcc828c6b526610d243348b0c6967a"}, {"bike_id": "9e935e2f95d3d150c5abf980982ddfb4", "type": "electric_scooter", "is_disabled": 0, "lat": 38.9408645, "rental_uris": {"ios": "https://dc.lft.to/lastmile_qr_scan", "android": "https://dc.lft.to/lastmile_qr_scan"}, "is_reserved": 0, "fusion_lon": 0.0, "fusion_lat": 0.0, "lon": -77.07737866666666, "name": "9e935e2f95d3d150c5abf980982ddfb4"}, {"bike_id": "5372543d6fca704c379de9a8fb56593d", "type": "electric_scooter", "is_disabled": 0, "lat": 38.94272433333333, "rental_uris": {"ios": "https://dc.lft.to/lastmile_qr_scan", "android": "https://dc.lft.to/lastmile_qr_scan"}, "is_reserved": 0, "fusion_lon": 0.0, "fusion_lat": 0.0, "lon": -77.03255283333333, "name": "5372543d6fca704c379de9a8fb56593d"}, {"bike_id": "a28cc90b5a69716f0fca3be88e2aa094", "type": "electric_scooter", "is_disabled": 0, "lat": 38.87784, "rental_uris": {"ios": "https://dc.lft.to/lastmile_qr_scan", "android": "https://dc.lft.to/lastmile_qr_scan"}, "is_reserved": 0, "fusion_lon": 0.0, "fusion_lat": 0.0, "lon": -77.00328566666667, "name": "a28cc90b5a69716f0fca3be88e2aa094"}, {"bike_id": "cf904eefddcfc0d4520b173baf7de602", "type": "electric_bike", "is_disabled": 0, "lat": 38.89816483333333, "rental_uris": {"ios": "https://dc.lft.to/lastmile_qr_scan", "android": "https://dc.lft.to/lastmile_qr_scan"}, "is_reserved": 0, "fusion_lon": 0.0, "fusion_lat": 0.0, "lon": -76.99071466666666, "name": "cf904eefddcfc0d4520b173baf7de602"}, {"bike_id": "6dd33cf9d873209f4af625f879ff3101", "type": "electric_scooter", "is_disabled": 0, "lat": 38.92226816666667, "rental_uris": {"ios": "https://dc.lft.to/lastmile_qr_scan", "android": "https://dc.lft.to/lastmile_qr_scan"}, "is_reserved": 0, "fusion_lon": 0.0, "fusion_lat": 0.0, "lon": -77.04718683333333, "name": "6dd33cf9d873209f4af625f879ff3101"}, {"bike_id": "c1bf80fd20139bd487ff5dbf1deac3f8", "type": "electric_scooter", "is_disabled": 0, "lat": 38.8923435, "rental_uris": {"ios": "https://dc.lft.to/lastmile_qr_scan", "android": "https://dc.lft.to/lastmile_qr_scan"}, "is_reserved": 0, "fusion_lon": 0.0, "fusion_lat": 0.0, "lon": -77.02385316666667, "name": "c1bf80fd20139bd487ff5dbf1deac3f8"}, {"bike_id": "3a5b1fb6d56034263db46420a0a5a983", "type": "electric_scooter", "is_disabled": 0, "lat": 38.92079283333333, "rental_uris": {"ios": "https://dc.lft.to/lastmile_qr_scan", "android": "https://dc.lft.to/lastmile_qr_scan"}, "is_reserved": 0, "fusion_lon": 0.0, "fusion_lat": 0.0, "lon": -77.00457333333334, "name": "3a5b1fb6d56034263db46420a0a5a983"}, {"bike_id": "1aa91b06a7a2c4b12d7fe6f114fa64d4", "type": "electric_bike", "is_disabled": 0, "lat": 38.83606116666667, "rental_uris": {"ios": "https://dc.lft.to/lastmile_qr_scan", "android": "https://dc.lft.to/lastmile_qr_scan"}, "is_reserved": 0, "fusion_lon": 0.0, "fusion_lat": 0.0, "lon": -77.00382433333333, "name": "1aa91b06a7a2c4b12d7fe6f114fa64d4"}, {"bike_id": "5692e51e5824b16e6fc4af3fcfa4cb9d", "type": "electric_scooter", "is_disabled": 0, "lat": 38.905893, "rental_uris": {"ios": "https://dc.lft.to/lastmile_qr_scan", "android": "https://dc.lft.to/lastmile_qr_scan"}, "is_reserved": 0, "fusion_lon": 0.0, "fusion_lat": 0.0, "lon": -77.06803016666667, "name": "5692e51e5824b16e6fc4af3fcfa4cb9d"}, {"bike_id": "28b2603546856055ba8612bab62bb481", "type": "electric_bike", "is_disabled": 0, "lat": 38.8236815, "rental_uris": {"ios": "https://dc.lft.to/lastmile_qr_scan", "android": "https://dc.lft.to/lastmile_qr_scan"}, "is_reserved": 0, "fusion_lon": 0.0, "fusion_lat": 0.0, "lon": -77.00217083333334, "name": "28b2603546856055ba8612bab62bb481"}, {"bike_id": "99ccbaca3b414d70a00cb9e13bd57f24", "type": "electric_scooter", "is_disabled": 0, "lat": 38.94984016666667, "rental_uris": {"ios": "https://dc.lft.to/lastmile_qr_scan", "android": "https://dc.lft.to/lastmile_qr_scan"}, "is_reserved": 0, "fusion_lon": 0.0, "fusion_lat": 0.0, "lon": -77.02650183333333, "name": "99ccbaca3b414d70a00cb9e13bd57f24"}, {"bike_id": "f95119ba843ff154f3fe762f26438e4e", "type": "electric_bike", "is_disabled": 0, "lat": 38.8593665, "rental_uris": {"ios": "https://dc.lft.to/lastmile_qr_scan", "android": "https://dc.lft.to/lastmile_qr_scan"}, "is_reserved": 0, "fusion_lon": 0.0, "fusion_lat": 0.0, "lon": -77.11829083333333, "name": "f95119ba843ff154f3fe762f26438e4e"}, {"bike_id": "49c4b6edb3b00ab88ff6057830158bd4", "type": "electric_scooter", "is_disabled": 0, "lat": 38.919176, "rental_uris": {"ios": "https://dc.lft.to/lastmile_qr_scan", "android": "https://dc.lft.to/lastmile_qr_scan"}, "is_reserved": 0, "fusion_lon": 0.0, "fusion_lat": 0.0, "lon": -77.03346716666667, "name": "49c4b6edb3b00ab88ff6057830158bd4"}, {"bike_id": "3f4d0782d3bb130b0c0ca6187853170d", "type": "electric_bike", "is_disabled": 0, "lat": 38.928589833333334, "rental_uris": {"ios": "https://dc.lft.to/lastmile_qr_scan", "android": "https://dc.lft.to/lastmile_qr_scan"}, "is_reserved": 0, "fusion_lon": 0.0, "fusion_lat": 0.0, "lon": -76.989393, "name": "3f4d0782d3bb130b0c0ca6187853170d"}, {"bike_id": "971218fd8d284963bf1dd50f393919e5", "type": "electric_scooter", "is_disabled": 0, "lat": 38.920544, "rental_uris": {"ios": "https://dc.lft.to/lastmile_qr_scan", "android": "https://dc.lft.to/lastmile_qr_scan"}, "is_reserved": 0, "fusion_lon": 0.0, "fusion_lat": 0.0, "lon": -77.04401683333333, "name": "971218fd8d284963bf1dd50f393919e5"}, {"bike_id": "9ab685fa7d81435ecfaf31bd8a9a1999", "type": "electric_bike", "is_disabled": 0, "lat": 38.993407166666664, "rental_uris": {"ios": "https://dc.lft.to/lastmile_qr_scan", "android": "https://dc.lft.to/lastmile_qr_scan"}, "is_reserved": 0, "fusion_lon": 0.0, "fusion_lat": 0.0, "lon": -77.11579533333334, "name": "9ab685fa7d81435ecfaf31bd8a9a1999"}, {"bike_id": "d18e4df5420b31ac4f2e550f304bbe7c", "type": "electric_scooter", "is_disabled": 0, "lat": 38.929653, "rental_uris": {"ios": "https://dc.lft.to/lastmile_qr_scan", "android": "https://dc.lft.to/lastmile_qr_scan"}, "is_reserved": 0, "fusion_lon": 0.0, "fusion_lat": 0.0, "lon": -77.031329, "name": "d18e4df5420b31ac4f2e550f304bbe7c"}, {"bike_id": "688910546b5c3e4f70b31f66010aac80", "type": "electric_scooter", "is_disabled": 0, "lat": 38.865028333333335, "rental_uris": {"ios": "https://dc.lft.to/lastmile_qr_scan", "android": "https://dc.lft.to/lastmile_qr_scan"}, "is_reserved": 0, "fusion_lon": 0.0, "fusion_lat": 0.0, "lon": -76.9900495, "name": "688910546b5c3e4f70b31f66010aac80"}, {"bike_id": "526476c5e9e201e861a8ed4af3a8d907", "type": "electric_bike", "is_disabled": 0, "lat": 38.80762166666667, "rental_uris": {"ios": "https://dc.lft.to/lastmile_qr_scan", "android": "https://dc.lft.to/lastmile_qr_scan"}, "is_reserved": 0, "fusion_lon": 0.0, "fusion_lat": 0.0, "lon": -77.09468816666667, "name": "526476c5e9e201e861a8ed4af3a8d907"}, {"bike_id": "cedc78102dcbda0f3ab61c7cf770ed02", "type": "electric_scooter", "is_disabled": 0, "lat": 38.9195345, "rental_uris": {"ios": "https://dc.lft.to/lastmile_qr_scan", "android": "https://dc.lft.to/lastmile_qr_scan"}, "is_reserved": 0, "fusion_lon": 0.0, "fusion_lat": 0.0, "lon": -77.034838, "name": "cedc78102dcbda0f3ab61c7cf770ed02"}, {"bike_id": "22d78576fcca23fe3858c04ea3fb0486", "type": "electric_scooter", "is_disabled": 0, "lat": 38.914070833333334, "rental_uris": {"ios": "https://dc.lft.to/lastmile_qr_scan", "android": "https://dc.lft.to/lastmile_qr_scan"}, "is_reserved": 0, "fusion_lon": 0.0, "fusion_lat": 0.0, "lon": -77.03444766666667, "name": "22d78576fcca23fe3858c04ea3fb0486"}, {"bike_id": "2aafef24987ace509a353888020dc891", "type": "electric_scooter", "is_disabled": 0, "lat": 38.93577233333333, "rental_uris": {"ios": "https://dc.lft.to/lastmile_qr_scan", "android": "https://dc.lft.to/lastmile_qr_scan"}, "is_reserved": 0, "fusion_lon": 0.0, "fusion_lat": 0.0, "lon": -77.03363583333334, "name": "2aafef24987ace509a353888020dc891"}, {"bike_id": "3cbb2a427e453e5ba6a473ca018bf8cc", "type": "electric_scooter", "is_disabled": 0, "lat": 38.903269, "rental_uris": {"ios": "https://dc.lft.to/lastmile_qr_scan", "android": "https://dc.lft.to/lastmile_qr_scan"}, "is_reserved": 0, "fusion_lon": 0.0, "fusion_lat": 0.0, "lon": -76.9828165, "name": "3cbb2a427e453e5ba6a473ca018bf8cc"}, {"bike_id": "a5c3a46d4bb66316254a50e918f2224c", "type": "electric_scooter", "is_disabled": 0, "lat": 38.91604783333333, "rental_uris": {"ios": "https://dc.lft.to/lastmile_qr_scan", "android": "https://dc.lft.to/lastmile_qr_scan"}, "is_reserved": 0, "fusion_lon": 0.0, "fusion_lat": 0.0, "lon": -77.03398666666666, "name": "a5c3a46d4bb66316254a50e918f2224c"}, {"bike_id": "d82f975b87c5cdf4faa8a6ba5d00d338", "type": "electric_scooter", "is_disabled": 0, "lat": 38.923154833333335, "rental_uris": {"ios": "https://dc.lft.to/lastmile_qr_scan", "android": "https://dc.lft.to/lastmile_qr_scan"}, "is_reserved": 0, "fusion_lon": 0.0, "fusion_lat": 0.0, "lon": -77.04023533333333, "name": "d82f975b87c5cdf4faa8a6ba5d00d338"}, {"bike_id": "23eb7405292fa1702e0692c6ca631b55", "type": "electric_scooter", "is_disabled": 0, "lat": 38.877847333333335, "rental_uris": {"ios": "https://dc.lft.to/lastmile_qr_scan", "android": "https://dc.lft.to/lastmile_qr_scan"}, "is_reserved": 0, "fusion_lon": 0.0, "fusion_lat": 0.0, "lon": -77.01746283333334, "name": "23eb7405292fa1702e0692c6ca631b55"}, {"bike_id": "fd17bf6b9ec7c66795fd49f701f16a43", "type": "electric_scooter", "is_disabled": 0, "lat": 38.91579, "rental_uris": {"ios": "https://dc.lft.to/lastmile_qr_scan", "android": "https://dc.lft.to/lastmile_qr_scan"}, "is_reserved": 0, "fusion_lon": 0.0, "fusion_lat": 0.0, "lon": -77.04494533333333, "name": "fd17bf6b9ec7c66795fd49f701f16a43"}, {"bike_id": "0f5c648217be9342d97aa27f7b71c5a4", "type": "electric_scooter", "is_disabled": 0, "lat": 38.90268733333333, "rental_uris": {"ios": "https://dc.lft.to/lastmile_qr_scan", "android": "https://dc.lft.to/lastmile_qr_scan"}, "is_reserved": 0, "fusion_lon": 0.0, "fusion_lat": 0.0, "lon": -77.01900566666667, "name": "0f5c648217be9342d97aa27f7b71c5a4"}, {"bike_id": "07db86504e407988482e6c8f28de165e", "type": "electric_scooter", "is_disabled": 0, "lat": 38.91558233333333, "rental_uris": {"ios": "https://dc.lft.to/lastmile_qr_scan", "android": "https://dc.lft.to/lastmile_qr_scan"}, "is_reserved": 0, "fusion_lon": 0.0, "fusion_lat": 0.0, "lon": -77.021693, "name": "07db86504e407988482e6c8f28de165e"}, {"bike_id": "f73da21be52f32f0962756763ef84a18", "type": "electric_scooter", "is_disabled": 0, "lat": 38.9231865, "rental_uris": {"ios": "https://dc.lft.to/lastmile_qr_scan", "android": "https://dc.lft.to/lastmile_qr_scan"}, "is_reserved": 0, "fusion_lon": 0.0, "fusion_lat": 0.0, "lon": -77.028021, "name": "f73da21be52f32f0962756763ef84a18"}, {"bike_id": "cc02f440775efcb44101d56a84844f0a", "type": "electric_scooter", "is_disabled": 0, "lat": 38.924765, "rental_uris": {"ios": "https://dc.lft.to/lastmile_qr_scan", "android": "https://dc.lft.to/lastmile_qr_scan"}, "is_reserved": 0, "fusion_lon": 0.0, "fusion_lat": 0.0, "lon": -77.028368, "name": "cc02f440775efcb44101d56a84844f0a"}, {"bike_id": "68f421767ec90cee801e76d8d6215b96", "type": "electric_scooter", "is_disabled": 0, "lat": 38.926129833333334, "rental_uris": {"ios": "https://dc.lft.to/lastmile_qr_scan", "android": "https://dc.lft.to/lastmile_qr_scan"}, "is_reserved": 0, "fusion_lon": 0.0, "fusion_lat": 0.0, "lon": -77.021598, "name": "68f421767ec90cee801e76d8d6215b96"}, {"bike_id": "0d02615efe6b5c34930bbefdc50a4dcb", "type": "electric_scooter", "is_disabled": 0, "lat": 38.900042666666664, "rental_uris": {"ios": "https://dc.lft.to/lastmile_qr_scan", "android": "https://dc.lft.to/lastmile_qr_scan"}, "is_reserved": 0, "fusion_lon": 0.0, "fusion_lat": 0.0, "lon": -77.04668133333334, "name": "0d02615efe6b5c34930bbefdc50a4dcb"}, {"bike_id": "61c6da3b531bd077e974c3a307e5c838", "type": "electric_scooter", "is_disabled": 0, "lat": 38.935442, "rental_uris": {"ios": "https://dc.lft.to/lastmile_qr_scan", "android": "https://dc.lft.to/lastmile_qr_scan"}, "is_reserved": 0, "fusion_lon": 0.0, "fusion_lat": 0.0, "lon": -77.0585905, "name": "61c6da3b531bd077e974c3a307e5c838"}, {"bike_id": "c722b747c38a7fbb8eab4ec05c3a6dec", "type": "electric_scooter", "is_disabled": 0, "lat": 38.864720166666665, "rental_uris": {"ios": "https://dc.lft.to/lastmile_qr_scan", "android": "https://dc.lft.to/lastmile_qr_scan"}, "is_reserved": 0, "fusion_lon": 0.0, "fusion_lat": 0.0, "lon": -76.977337, "name": "c722b747c38a7fbb8eab4ec05c3a6dec"}, {"bike_id": "862b5b066db2c6003e8193aa6ec94b5e", "type": "electric_scooter", "is_disabled": 0, "lat": 38.882995333333334, "rental_uris": {"ios": "https://dc.lft.to/lastmile_qr_scan", "android": "https://dc.lft.to/lastmile_qr_scan"}, "is_reserved": 0, "fusion_lon": 0.0, "fusion_lat": 0.0, "lon": -76.94854633333334, "name": "862b5b066db2c6003e8193aa6ec94b5e"}, {"bike_id": "f54c36f8b74f3462beae9f5faceb58c4", "type": "electric_bike", "is_disabled": 0, "lat": 38.9696425, "rental_uris": {"ios": "https://dc.lft.to/lastmile_qr_scan", "android": "https://dc.lft.to/lastmile_qr_scan"}, "is_reserved": 0, "fusion_lon": 0.0, "fusion_lat": 0.0, "lon": -76.95747016666667, "name": "f54c36f8b74f3462beae9f5faceb58c4"}, {"bike_id": "1d41d39d88a8fcc13e2a6990967d29eb", "type": "electric_scooter", "is_disabled": 0, "lat": 38.9005855, "rental_uris": {"ios": "https://dc.lft.to/lastmile_qr_scan", "android": "https://dc.lft.to/lastmile_qr_scan"}, "is_reserved": 0, "fusion_lon": 0.0, "fusion_lat": 0.0, "lon": -77.04665866666667, "name": "1d41d39d88a8fcc13e2a6990967d29eb"}, {"bike_id": "9af172f063373750397256e580791053", "type": "electric_scooter", "is_disabled": 0, "lat": 38.933587333333335, "rental_uris": {"ios": "https://dc.lft.to/lastmile_qr_scan", "android": "https://dc.lft.to/lastmile_qr_scan"}, "is_reserved": 0, "fusion_lon": 0.0, "fusion_lat": 0.0, "lon": -77.08859966666667, "name": "9af172f063373750397256e580791053"}, {"bike_id": "a74594c7050040e57f95775577877dfb", "type": "electric_scooter", "is_disabled": 0, "lat": 38.92366166666667, "rental_uris": {"ios": "https://dc.lft.to/lastmile_qr_scan", "android": "https://dc.lft.to/lastmile_qr_scan"}, "is_reserved": 0, "fusion_lon": 0.0, "fusion_lat": 0.0, "lon": -77.0195045, "name": "a74594c7050040e57f95775577877dfb"}, {"bike_id": "63ad74fa52186c26b4d65f652f096273", "type": "electric_scooter", "is_disabled": 0, "lat": 38.90582233333333, "rental_uris": {"ios": "https://dc.lft.to/lastmile_qr_scan", "android": "https://dc.lft.to/lastmile_qr_scan"}, "is_reserved": 0, "fusion_lon": 0.0, "fusion_lat": 0.0, "lon": -77.05135883333334, "name": "63ad74fa52186c26b4d65f652f096273"}, {"bike_id": "5b9730c9047432d2b4647d6f616ace84", "type": "electric_scooter", "is_disabled": 0, "lat": 38.90374966666667, "rental_uris": {"ios": "https://dc.lft.to/lastmile_qr_scan", "android": "https://dc.lft.to/lastmile_qr_scan"}, "is_reserved": 0, "fusion_lon": 0.0, "fusion_lat": 0.0, "lon": -77.02438866666667, "name": "5b9730c9047432d2b4647d6f616ace84"}, {"bike_id": "c9d70219dfa4b39252f2771e25ccf889", "type": "electric_bike", "is_disabled": 0, "lat": 38.876721833333335, "rental_uris": {"ios": "https://dc.lft.to/lastmile_qr_scan", "android": "https://dc.lft.to/lastmile_qr_scan"}, "is_reserved": 0, "fusion_lon": 0.0, "fusion_lat": 0.0, "lon": -77.01454666666666, "name": "c9d70219dfa4b39252f2771e25ccf889"}, {"bike_id": "8c5497f1ea38cf043daf1b098b0350ab", "type": "electric_scooter", "is_disabled": 0, "lat": 38.92660866666667, "rental_uris": {"ios": "https://dc.lft.to/lastmile_qr_scan", "android": "https://dc.lft.to/lastmile_qr_scan"}, "is_reserved": 0, "fusion_lon": 0.0, "fusion_lat": 0.0, "lon": -77.037269, "name": "8c5497f1ea38cf043daf1b098b0350ab"}, {"bike_id": "f9eeb658ae0b0cafb3a0f76403e65e1a", "type": "electric_scooter", "is_disabled": 0, "lat": 38.890148333333336, "rental_uris": {"ios": "https://dc.lft.to/lastmile_qr_scan", "android": "https://dc.lft.to/lastmile_qr_scan"}, "is_reserved": 0, "fusion_lon": 0.0, "fusion_lat": 0.0, "lon": -77.03329033333333, "name": "f9eeb658ae0b0cafb3a0f76403e65e1a"}, {"bike_id": "22a335d0d74ec603a17750547821f6a6", "type": "electric_scooter", "is_disabled": 0, "lat": 38.911757, "rental_uris": {"ios": "https://dc.lft.to/lastmile_qr_scan", "android": "https://dc.lft.to/lastmile_qr_scan"}, "is_reserved": 0, "fusion_lon": 0.0, "fusion_lat": 0.0, "lon": -77.01897666666666, "name": "22a335d0d74ec603a17750547821f6a6"}, {"bike_id": "d2e2d198808cbbe1354722953110acab", "type": "electric_scooter", "is_disabled": 0, "lat": 38.915839166666665, "rental_uris": {"ios": "https://dc.lft.to/lastmile_qr_scan", "android": "https://dc.lft.to/lastmile_qr_scan"}, "is_reserved": 0, "fusion_lon": 0.0, "fusion_lat": 0.0, "lon": -77.04484816666667, "name": "d2e2d198808cbbe1354722953110acab"}, {"bike_id": "218bc024fe3012a458e05bcf439e418c", "type": "electric_scooter", "is_disabled": 0, "lat": 38.95855066666667, "rental_uris": {"ios": "https://dc.lft.to/lastmile_qr_scan", "android": "https://dc.lft.to/lastmile_qr_scan"}, "is_reserved": 0, "fusion_lon": 0.0, "fusion_lat": 0.0, "lon": -77.02790866666666, "name": "218bc024fe3012a458e05bcf439e418c"}, {"bike_id": "a3ae9e35f202d19e74f4389a46d88f6c", "type": "electric_bike", "is_disabled": 0, "lat": 38.884019, "rental_uris": {"ios": "https://dc.lft.to/lastmile_qr_scan", "android": "https://dc.lft.to/lastmile_qr_scan"}, "is_reserved": 0, "fusion_lon": 0.0, "fusion_lat": 0.0, "lon": -76.960589, "name": "a3ae9e35f202d19e74f4389a46d88f6c"}, {"bike_id": "7cca0631e9168bb22eda98305f097a17", "type": "electric_scooter", "is_disabled": 0, "lat": 38.90650433333333, "rental_uris": {"ios": "https://dc.lft.to/lastmile_qr_scan", "android": "https://dc.lft.to/lastmile_qr_scan"}, "is_reserved": 0, "fusion_lon": 0.0, "fusion_lat": 0.0, "lon": -77.03841583333333, "name": "7cca0631e9168bb22eda98305f097a17"}, {"bike_id": "eb0e2aeab7da3a3b1df1ef1e1220f29a", "type": "electric_scooter", "is_disabled": 0, "lat": 38.91611233333333, "rental_uris": {"ios": "https://dc.lft.to/lastmile_qr_scan", "android": "https://dc.lft.to/lastmile_qr_scan"}, "is_reserved": 0, "fusion_lon": 0.0, "fusion_lat": 0.0, "lon": -77.02951683333333, "name": "eb0e2aeab7da3a3b1df1ef1e1220f29a"}, {"bike_id": "203301acf5e62bb8d67a3b4dd253ff4f", "type": "electric_scooter", "is_disabled": 0, "lat": 38.934294, "rental_uris": {"ios": "https://dc.lft.to/lastmile_qr_scan", "android": "https://dc.lft.to/lastmile_qr_scan"}, "is_reserved": 0, "fusion_lon": 0.0, "fusion_lat": 0.0, "lon": -77.04539016666666, "name": "203301acf5e62bb8d67a3b4dd253ff4f"}, {"bike_id": "cd078b9c9a84f153e8c1d352d9ba60af", "type": "electric_scooter", "is_disabled": 0, "lat": 38.973651833333335, "rental_uris": {"ios": "https://dc.lft.to/lastmile_qr_scan", "android": "https://dc.lft.to/lastmile_qr_scan"}, "is_reserved": 0, "fusion_lon": 0.0, "fusion_lat": 0.0, "lon": -77.018515, "name": "cd078b9c9a84f153e8c1d352d9ba60af"}, {"bike_id": "4527e9974cc6126f91a8acb392564c80", "type": "electric_scooter", "is_disabled": 0, "lat": 38.9062005, "rental_uris": {"ios": "https://dc.lft.to/lastmile_qr_scan", "android": "https://dc.lft.to/lastmile_qr_scan"}, "is_reserved": 0, "fusion_lon": 0.0, "fusion_lat": 0.0, "lon": -77.007168, "name": "4527e9974cc6126f91a8acb392564c80"}, {"bike_id": "eb73c3565f47a23512315a4af1f97585", "type": "electric_scooter", "is_disabled": 0, "lat": 38.92115283333333, "rental_uris": {"ios": "https://dc.lft.to/lastmile_qr_scan", "android": "https://dc.lft.to/lastmile_qr_scan"}, "is_reserved": 0, "fusion_lon": 0.0, "fusion_lat": 0.0, "lon": -77.0366095, "name": "eb73c3565f47a23512315a4af1f97585"}, {"bike_id": "0c7c461d2b1bc184bd419717eaecc9c7", "type": "electric_scooter", "is_disabled": 0, "lat": 38.910106666666664, "rental_uris": {"ios": "https://dc.lft.to/lastmile_qr_scan", "android": "https://dc.lft.to/lastmile_qr_scan"}, "is_reserved": 0, "fusion_lon": 0.0, "fusion_lat": 0.0, "lon": -77.04007633333333, "name": "0c7c461d2b1bc184bd419717eaecc9c7"}, {"bike_id": "df090604de77ff33e68d5ccf5eaeda7f", "type": "electric_scooter", "is_disabled": 0, "lat": 38.928097666666666, "rental_uris": {"ios": "https://dc.lft.to/lastmile_qr_scan", "android": "https://dc.lft.to/lastmile_qr_scan"}, "is_reserved": 0, "fusion_lon": 0.0, "fusion_lat": 0.0, "lon": -77.02815266666667, "name": "df090604de77ff33e68d5ccf5eaeda7f"}, {"bike_id": "1bfc3fc7da86c643195dfdf0406baa98", "type": "electric_scooter", "is_disabled": 0, "lat": 38.95629133333333, "rental_uris": {"ios": "https://dc.lft.to/lastmile_qr_scan", "android": "https://dc.lft.to/lastmile_qr_scan"}, "is_reserved": 0, "fusion_lon": 0.0, "fusion_lat": 0.0, "lon": -77.027817, "name": "1bfc3fc7da86c643195dfdf0406baa98"}, {"bike_id": "fc5354297b5ccbe052c24de1be392806", "type": "electric_scooter", "is_disabled": 0, "lat": 38.866408666666665, "rental_uris": {"ios": "https://dc.lft.to/lastmile_qr_scan", "android": "https://dc.lft.to/lastmile_qr_scan"}, "is_reserved": 0, "fusion_lon": 0.0, "fusion_lat": 0.0, "lon": -76.98264533333334, "name": "fc5354297b5ccbe052c24de1be392806"}, {"bike_id": "717996413b64299d125e10077786fd15", "type": "electric_scooter", "is_disabled": 0, "lat": 38.91919766666667, "rental_uris": {"ios": "https://dc.lft.to/lastmile_qr_scan", "android": "https://dc.lft.to/lastmile_qr_scan"}, "is_reserved": 0, "fusion_lon": 0.0, "fusion_lat": 0.0, "lon": -77.03390866666666, "name": "717996413b64299d125e10077786fd15"}, {"bike_id": "006eeeb42b850270de34cfb3eec24051", "type": "electric_scooter", "is_disabled": 0, "lat": 38.9196375, "rental_uris": {"ios": "https://dc.lft.to/lastmile_qr_scan", "android": "https://dc.lft.to/lastmile_qr_scan"}, "is_reserved": 0, "fusion_lon": 0.0, "fusion_lat": 0.0, "lon": -77.038562, "name": "006eeeb42b850270de34cfb3eec24051"}, {"bike_id": "c0287b41989700f6d88c3097d8041771", "type": "electric_scooter", "is_disabled": 0, "lat": 38.920439333333334, "rental_uris": {"ios": "https://dc.lft.to/lastmile_qr_scan", "android": "https://dc.lft.to/lastmile_qr_scan"}, "is_reserved": 0, "fusion_lon": 0.0, "fusion_lat": 0.0, "lon": -77.02424866666667, "name": "c0287b41989700f6d88c3097d8041771"}, {"bike_id": "89ea4f0ab9c4b1eb9cd4dce749a5fe7d", "type": "electric_scooter", "is_disabled": 0, "lat": 38.9085345, "rental_uris": {"ios": "https://dc.lft.to/lastmile_qr_scan", "android": "https://dc.lft.to/lastmile_qr_scan"}, "is_reserved": 0, "fusion_lon": 0.0, "fusion_lat": 0.0, "lon": -77.0223145, "name": "89ea4f0ab9c4b1eb9cd4dce749a5fe7d"}, {"bike_id": "fe2983c1426d444e1c66751eab69bd0b", "type": "electric_scooter", "is_disabled": 0, "lat": 38.89629383333333, "rental_uris": {"ios": "https://dc.lft.to/lastmile_qr_scan", "android": "https://dc.lft.to/lastmile_qr_scan"}, "is_reserved": 0, "fusion_lon": 0.0, "fusion_lat": 0.0, "lon": -77.0329135, "name": "fe2983c1426d444e1c66751eab69bd0b"}, {"bike_id": "b2093095a3bb2bf72dc99ed1c82d6c8f", "type": "electric_scooter", "is_disabled": 0, "lat": 38.92091466666667, "rental_uris": {"ios": "https://dc.lft.to/lastmile_qr_scan", "android": "https://dc.lft.to/lastmile_qr_scan"}, "is_reserved": 0, "fusion_lon": 0.0, "fusion_lat": 0.0, "lon": -77.00440016666667, "name": "b2093095a3bb2bf72dc99ed1c82d6c8f"}, {"bike_id": "4d4200eb32e9edbea662d96b5c56159d", "type": "electric_bike", "is_disabled": 0, "lat": 39.0137025, "rental_uris": {"ios": "https://dc.lft.to/lastmile_qr_scan", "android": "https://dc.lft.to/lastmile_qr_scan"}, "is_reserved": 0, "fusion_lon": 0.0, "fusion_lat": 0.0, "lon": -76.92132066666667, "name": "4d4200eb32e9edbea662d96b5c56159d"}, {"bike_id": "f96a095794031cd9cf242eab0db06524", "type": "electric_scooter", "is_disabled": 0, "lat": 38.92824616666667, "rental_uris": {"ios": "https://dc.lft.to/lastmile_qr_scan", "android": "https://dc.lft.to/lastmile_qr_scan"}, "is_reserved": 0, "fusion_lon": 0.0, "fusion_lat": 0.0, "lon": -77.02255483333333, "name": "f96a095794031cd9cf242eab0db06524"}, {"bike_id": "f1b298a11fd39bc9593854af899bdab0", "type": "electric_scooter", "is_disabled": 0, "lat": 38.91630133333334, "rental_uris": {"ios": "https://dc.lft.to/lastmile_qr_scan", "android": "https://dc.lft.to/lastmile_qr_scan"}, "is_reserved": 0, "fusion_lon": 0.0, "fusion_lat": 0.0, "lon": -77.01081516666666, "name": "f1b298a11fd39bc9593854af899bdab0"}, {"bike_id": "8669fee216d64ad417feeabb27ddfea1", "type": "electric_scooter", "is_disabled": 0, "lat": 38.92445633333333, "rental_uris": {"ios": "https://dc.lft.to/lastmile_qr_scan", "android": "https://dc.lft.to/lastmile_qr_scan"}, "is_reserved": 0, "fusion_lon": 0.0, "fusion_lat": 0.0, "lon": -77.04412716666667, "name": "8669fee216d64ad417feeabb27ddfea1"}, {"bike_id": "9f93a775d4ce59d9552a8d490584274d", "type": "electric_scooter", "is_disabled": 0, "lat": 38.92009916666667, "rental_uris": {"ios": "https://dc.lft.to/lastmile_qr_scan", "android": "https://dc.lft.to/lastmile_qr_scan"}, "is_reserved": 0, "fusion_lon": 0.0, "fusion_lat": 0.0, "lon": -77.01792016666667, "name": "9f93a775d4ce59d9552a8d490584274d"}, {"bike_id": "7ddf8e992147c410993b66f66aad5627", "type": "electric_scooter", "is_disabled": 0, "lat": 38.90086983333333, "rental_uris": {"ios": "https://dc.lft.to/lastmile_qr_scan", "android": "https://dc.lft.to/lastmile_qr_scan"}, "is_reserved": 0, "fusion_lon": 0.0, "fusion_lat": 0.0, "lon": -77.04753483333333, "name": "7ddf8e992147c410993b66f66aad5627"}, {"bike_id": "00d2b0073c8e3d8d86b0149c86ecda41", "type": "electric_bike", "is_disabled": 0, "lat": 38.95640616666667, "rental_uris": {"ios": "https://dc.lft.to/lastmile_qr_scan", "android": "https://dc.lft.to/lastmile_qr_scan"}, "is_reserved": 0, "fusion_lon": 0.0, "fusion_lat": 0.0, "lon": -76.99795516666667, "name": "00d2b0073c8e3d8d86b0149c86ecda41"}, {"bike_id": "2872386e0eaddf7cc46da9b5a0d9ab78", "type": "electric_scooter", "is_disabled": 0, "lat": 38.906993, "rental_uris": {"ios": "https://dc.lft.to/lastmile_qr_scan", "android": "https://dc.lft.to/lastmile_qr_scan"}, "is_reserved": 0, "fusion_lon": 0.0, "fusion_lat": 0.0, "lon": -77.0344445, "name": "2872386e0eaddf7cc46da9b5a0d9ab78"}, {"bike_id": "b40e4047e4bce77e70a61560ed48e589", "type": "electric_scooter", "is_disabled": 0, "lat": 38.9175635, "rental_uris": {"ios": "https://dc.lft.to/lastmile_qr_scan", "android": "https://dc.lft.to/lastmile_qr_scan"}, "is_reserved": 0, "fusion_lon": 0.0, "fusion_lat": 0.0, "lon": -77.03442183333334, "name": "b40e4047e4bce77e70a61560ed48e589"}, {"bike_id": "6279bd83d6051ffff6e626005b09a654", "type": "electric_bike", "is_disabled": 0, "lat": 38.801074166666666, "rental_uris": {"ios": "https://dc.lft.to/lastmile_qr_scan", "android": "https://dc.lft.to/lastmile_qr_scan"}, "is_reserved": 0, "fusion_lon": 0.0, "fusion_lat": 0.0, "lon": -77.07056016666667, "name": "6279bd83d6051ffff6e626005b09a654"}, {"bike_id": "0302384ae34cc51ad1fb302d4862576a", "type": "electric_scooter", "is_disabled": 0, "lat": 38.92394133333333, "rental_uris": {"ios": "https://dc.lft.to/lastmile_qr_scan", "android": "https://dc.lft.to/lastmile_qr_scan"}, "is_reserved": 0, "fusion_lon": 0.0, "fusion_lat": 0.0, "lon": -77.02487833333333, "name": "0302384ae34cc51ad1fb302d4862576a"}, {"bike_id": "993a22540f58fb119c0618f1348f4f0d", "type": "electric_scooter", "is_disabled": 0, "lat": 38.8313975, "rental_uris": {"ios": "https://dc.lft.to/lastmile_qr_scan", "android": "https://dc.lft.to/lastmile_qr_scan"}, "is_reserved": 0, "fusion_lon": 0.0, "fusion_lat": 0.0, "lon": -77.05125883333334, "name": "993a22540f58fb119c0618f1348f4f0d"}, {"bike_id": "f01c1edc8b06979203d3ac19b8565e7c", "type": "electric_scooter", "is_disabled": 0, "lat": 38.90735333333333, "rental_uris": {"ios": "https://dc.lft.to/lastmile_qr_scan", "android": "https://dc.lft.to/lastmile_qr_scan"}, "is_reserved": 0, "fusion_lon": 0.0, "fusion_lat": 0.0, "lon": -76.97968533333334, "name": "f01c1edc8b06979203d3ac19b8565e7c"}, {"bike_id": "80c04173c4341de58e697a6fe45f0469", "type": "electric_scooter", "is_disabled": 0, "lat": 38.879358333333336, "rental_uris": {"ios": "https://dc.lft.to/lastmile_qr_scan", "android": "https://dc.lft.to/lastmile_qr_scan"}, "is_reserved": 0, "fusion_lon": 0.0, "fusion_lat": 0.0, "lon": -77.00063816666666, "name": "80c04173c4341de58e697a6fe45f0469"}, {"bike_id": "c147cb4368a54931bbd63859b586ae2f", "type": "electric_scooter", "is_disabled": 0, "lat": 38.8673725, "rental_uris": {"ios": "https://dc.lft.to/lastmile_qr_scan", "android": "https://dc.lft.to/lastmile_qr_scan"}, "is_reserved": 0, "fusion_lon": 0.0, "fusion_lat": 0.0, "lon": -76.978604, "name": "c147cb4368a54931bbd63859b586ae2f"}, {"bike_id": "53657d1151c2cd41fa3ac5d3c5a0aad9", "type": "electric_scooter", "is_disabled": 0, "lat": 38.9066545, "rental_uris": {"ios": "https://dc.lft.to/lastmile_qr_scan", "android": "https://dc.lft.to/lastmile_qr_scan"}, "is_reserved": 0, "fusion_lon": 0.0, "fusion_lat": 0.0, "lon": -77.035194, "name": "53657d1151c2cd41fa3ac5d3c5a0aad9"}, {"bike_id": "579c528afd2d9c1bb3d440f90602257f", "type": "electric_scooter", "is_disabled": 0, "lat": 38.9117755, "rental_uris": {"ios": "https://dc.lft.to/lastmile_qr_scan", "android": "https://dc.lft.to/lastmile_qr_scan"}, "is_reserved": 0, "fusion_lon": 0.0, "fusion_lat": 0.0, "lon": -77.00448133333333, "name": "579c528afd2d9c1bb3d440f90602257f"}, {"bike_id": "bafafa09b27c03479ed02bedba6aa332", "type": "electric_scooter", "is_disabled": 0, "lat": 38.917483833333335, "rental_uris": {"ios": "https://dc.lft.to/lastmile_qr_scan", "android": "https://dc.lft.to/lastmile_qr_scan"}, "is_reserved": 0, "fusion_lon": 0.0, "fusion_lat": 0.0, "lon": -77.02799833333333, "name": "bafafa09b27c03479ed02bedba6aa332"}, {"bike_id": "1be38118e8bf650fcf2bfa0e94aaa4c7", "type": "electric_scooter", "is_disabled": 0, "lat": 38.90260883333333, "rental_uris": {"ios": "https://dc.lft.to/lastmile_qr_scan", "android": "https://dc.lft.to/lastmile_qr_scan"}, "is_reserved": 0, "fusion_lon": 0.0, "fusion_lat": 0.0, "lon": -77.00333166666667, "name": "1be38118e8bf650fcf2bfa0e94aaa4c7"}, {"bike_id": "28118944a95b8dd7ed0c21f084d53942", "type": "electric_bike", "is_disabled": 0, "lat": 38.8788525, "rental_uris": {"ios": "https://dc.lft.to/lastmile_qr_scan", "android": "https://dc.lft.to/lastmile_qr_scan"}, "is_reserved": 0, "fusion_lon": 0.0, "fusion_lat": 0.0, "lon": -77.09615383333333, "name": "28118944a95b8dd7ed0c21f084d53942"}, {"bike_id": "3a0a7d7b3c2eae4f3a55d14205b73d34", "type": "electric_scooter", "is_disabled": 0, "lat": 38.905013, "rental_uris": {"ios": "https://dc.lft.to/lastmile_qr_scan", "android": "https://dc.lft.to/lastmile_qr_scan"}, "is_reserved": 0, "fusion_lon": 0.0, "fusion_lat": 0.0, "lon": -77.01993066666667, "name": "3a0a7d7b3c2eae4f3a55d14205b73d34"}, {"bike_id": "de1a313ddf41d548f26bf9593bcad1cb", "type": "electric_scooter", "is_disabled": 0, "lat": 38.929359, "rental_uris": {"ios": "https://dc.lft.to/lastmile_qr_scan", "android": "https://dc.lft.to/lastmile_qr_scan"}, "is_reserved": 0, "fusion_lon": 0.0, "fusion_lat": 0.0, "lon": -77.01644666666667, "name": "de1a313ddf41d548f26bf9593bcad1cb"}, {"bike_id": "57b3d6c3a9c7a5090d9547ce0831c36b", "type": "electric_scooter", "is_disabled": 0, "lat": 38.901254, "rental_uris": {"ios": "https://dc.lft.to/lastmile_qr_scan", "android": "https://dc.lft.to/lastmile_qr_scan"}, "is_reserved": 0, "fusion_lon": 0.0, "fusion_lat": 0.0, "lon": -77.045203, "name": "57b3d6c3a9c7a5090d9547ce0831c36b"}, {"bike_id": "6faabfb49dd509fbfeea44fde0368574", "type": "electric_scooter", "is_disabled": 0, "lat": 38.919841, "rental_uris": {"ios": "https://dc.lft.to/lastmile_qr_scan", "android": "https://dc.lft.to/lastmile_qr_scan"}, "is_reserved": 0, "fusion_lon": 0.0, "fusion_lat": 0.0, "lon": -77.03264433333334, "name": "6faabfb49dd509fbfeea44fde0368574"}, {"bike_id": "55d2b1cd8c07e337631b695b84a62b0d", "type": "electric_scooter", "is_disabled": 0, "lat": 38.93205666666667, "rental_uris": {"ios": "https://dc.lft.to/lastmile_qr_scan", "android": "https://dc.lft.to/lastmile_qr_scan"}, "is_reserved": 0, "fusion_lon": 0.0, "fusion_lat": 0.0, "lon": -77.0367075, "name": "55d2b1cd8c07e337631b695b84a62b0d"}, {"bike_id": "184146bcc0b15fd702eb284f14ba4c5e", "type": "electric_scooter", "is_disabled": 0, "lat": 38.92216533333333, "rental_uris": {"ios": "https://dc.lft.to/lastmile_qr_scan", "android": "https://dc.lft.to/lastmile_qr_scan"}, "is_reserved": 0, "fusion_lon": 0.0, "fusion_lat": 0.0, "lon": -77.02696066666667, "name": "184146bcc0b15fd702eb284f14ba4c5e"}, {"bike_id": "bc24d1afd0a9fef0e5063727b784486c", "type": "electric_scooter", "is_disabled": 0, "lat": 38.920938166666666, "rental_uris": {"ios": "https://dc.lft.to/lastmile_qr_scan", "android": "https://dc.lft.to/lastmile_qr_scan"}, "is_reserved": 0, "fusion_lon": 0.0, "fusion_lat": 0.0, "lon": -77.02530033333333, "name": "bc24d1afd0a9fef0e5063727b784486c"}, {"bike_id": "e7ce7ad1cf7b5ce46061fe567efc7b92", "type": "electric_scooter", "is_disabled": 0, "lat": 38.95150016666667, "rental_uris": {"ios": "https://dc.lft.to/lastmile_qr_scan", "android": "https://dc.lft.to/lastmile_qr_scan"}, "is_reserved": 0, "fusion_lon": 0.0, "fusion_lat": 0.0, "lon": -77.01866366666667, "name": "e7ce7ad1cf7b5ce46061fe567efc7b92"}, {"bike_id": "5c3d10863b3e438befe0e961c20db121", "type": "electric_scooter", "is_disabled": 0, "lat": 38.87413433333333, "rental_uris": {"ios": "https://dc.lft.to/lastmile_qr_scan", "android": "https://dc.lft.to/lastmile_qr_scan"}, "is_reserved": 0, "fusion_lon": 0.0, "fusion_lat": 0.0, "lon": -76.9711445, "name": "5c3d10863b3e438befe0e961c20db121"}, {"bike_id": "25ae7d31c649d69a5aa3b0fe6d6b2491", "type": "electric_scooter", "is_disabled": 0, "lat": 38.893240166666665, "rental_uris": {"ios": "https://dc.lft.to/lastmile_qr_scan", "android": "https://dc.lft.to/lastmile_qr_scan"}, "is_reserved": 0, "fusion_lon": 0.0, "fusion_lat": 0.0, "lon": -77.0488055, "name": "25ae7d31c649d69a5aa3b0fe6d6b2491"}, {"bike_id": "fcd0e885af64c00c297b0206993b07a5", "type": "electric_scooter", "is_disabled": 0, "lat": 38.89877283333333, "rental_uris": {"ios": "https://dc.lft.to/lastmile_qr_scan", "android": "https://dc.lft.to/lastmile_qr_scan"}, "is_reserved": 0, "fusion_lon": 0.0, "fusion_lat": 0.0, "lon": -77.01525033333333, "name": "fcd0e885af64c00c297b0206993b07a5"}, {"bike_id": "48781adffbe082a09804d0bd7fb27878", "type": "electric_scooter", "is_disabled": 0, "lat": 38.91635433333333, "rental_uris": {"ios": "https://dc.lft.to/lastmile_qr_scan", "android": "https://dc.lft.to/lastmile_qr_scan"}, "is_reserved": 0, "fusion_lon": 0.0, "fusion_lat": 0.0, "lon": -77.04248816666667, "name": "48781adffbe082a09804d0bd7fb27878"}, {"bike_id": "5c04d94278ad26f4831830033eb600bb", "type": "electric_scooter", "is_disabled": 0, "lat": 38.90846166666667, "rental_uris": {"ios": "https://dc.lft.to/lastmile_qr_scan", "android": "https://dc.lft.to/lastmile_qr_scan"}, "is_reserved": 0, "fusion_lon": 0.0, "fusion_lat": 0.0, "lon": -77.00311116666667, "name": "5c04d94278ad26f4831830033eb600bb"}, {"bike_id": "edeb751ac126541a45232330284ba629", "type": "electric_scooter", "is_disabled": 0, "lat": 38.905925833333335, "rental_uris": {"ios": "https://dc.lft.to/lastmile_qr_scan", "android": "https://dc.lft.to/lastmile_qr_scan"}, "is_reserved": 0, "fusion_lon": 0.0, "fusion_lat": 0.0, "lon": -77.07007766666666, "name": "edeb751ac126541a45232330284ba629"}, {"bike_id": "2e0bc00b4fdc2c0dd957634263388d66", "type": "electric_scooter", "is_disabled": 0, "lat": 38.89194666666667, "rental_uris": {"ios": "https://dc.lft.to/lastmile_qr_scan", "android": "https://dc.lft.to/lastmile_qr_scan"}, "is_reserved": 0, "fusion_lon": 0.0, "fusion_lat": 0.0, "lon": -77.02980833333334, "name": "2e0bc00b4fdc2c0dd957634263388d66"}, {"bike_id": "c407f2ac482cbeea5061579d19637b8d", "type": "electric_scooter", "is_disabled": 0, "lat": 38.908500833333335, "rental_uris": {"ios": "https://dc.lft.to/lastmile_qr_scan", "android": "https://dc.lft.to/lastmile_qr_scan"}, "is_reserved": 0, "fusion_lon": 0.0, "fusion_lat": 0.0, "lon": -76.99961, "name": "c407f2ac482cbeea5061579d19637b8d"}, {"bike_id": "4550db1efa92c06e467eb19dee73a9a9", "type": "electric_scooter", "is_disabled": 0, "lat": 38.91926683333333, "rental_uris": {"ios": "https://dc.lft.to/lastmile_qr_scan", "android": "https://dc.lft.to/lastmile_qr_scan"}, "is_reserved": 0, "fusion_lon": 0.0, "fusion_lat": 0.0, "lon": -77.02485033333333, "name": "4550db1efa92c06e467eb19dee73a9a9"}, {"bike_id": "0fcdcff8721b24cc0cafba271c7ad8c9", "type": "electric_scooter", "is_disabled": 0, "lat": 38.8763595, "rental_uris": {"ios": "https://dc.lft.to/lastmile_qr_scan", "android": "https://dc.lft.to/lastmile_qr_scan"}, "is_reserved": 0, "fusion_lon": 0.0, "fusion_lat": 0.0, "lon": -77.01662166666667, "name": "0fcdcff8721b24cc0cafba271c7ad8c9"}, {"bike_id": "0d8f5dd014a3ec43e5e8e35e8ceeea2c", "type": "electric_scooter", "is_disabled": 0, "lat": 38.9308885, "rental_uris": {"ios": "https://dc.lft.to/lastmile_qr_scan", "android": "https://dc.lft.to/lastmile_qr_scan"}, "is_reserved": 0, "fusion_lon": 0.0, "fusion_lat": 0.0, "lon": -77.02474116666667, "name": "0d8f5dd014a3ec43e5e8e35e8ceeea2c"}, {"bike_id": "1c292e9f4ffc3e8989b54e83caccadb1", "type": "electric_scooter", "is_disabled": 0, "lat": 38.919188, "rental_uris": {"ios": "https://dc.lft.to/lastmile_qr_scan", "android": "https://dc.lft.to/lastmile_qr_scan"}, "is_reserved": 0, "fusion_lon": 0.0, "fusion_lat": 0.0, "lon": -77.04621516666667, "name": "1c292e9f4ffc3e8989b54e83caccadb1"}, {"bike_id": "30451303387b1b368740760b68f04812", "type": "electric_scooter", "is_disabled": 0, "lat": 38.92664933333333, "rental_uris": {"ios": "https://dc.lft.to/lastmile_qr_scan", "android": "https://dc.lft.to/lastmile_qr_scan"}, "is_reserved": 0, "fusion_lon": 0.0, "fusion_lat": 0.0, "lon": -77.03726066666667, "name": "30451303387b1b368740760b68f04812"}, {"bike_id": "a1e0eb7284418086d022437d5ff28b6e", "type": "electric_scooter", "is_disabled": 0, "lat": 38.9182085, "rental_uris": {"ios": "https://dc.lft.to/lastmile_qr_scan", "android": "https://dc.lft.to/lastmile_qr_scan"}, "is_reserved": 0, "fusion_lon": 0.0, "fusion_lat": 0.0, "lon": -77.0494755, "name": "a1e0eb7284418086d022437d5ff28b6e"}, {"bike_id": "63fccc3eef6e7bd406414d8202fa4d0a", "type": "electric_scooter", "is_disabled": 0, "lat": 38.908811666666665, "rental_uris": {"ios": "https://dc.lft.to/lastmile_qr_scan", "android": "https://dc.lft.to/lastmile_qr_scan"}, "is_reserved": 0, "fusion_lon": 0.0, "fusion_lat": 0.0, "lon": -77.0326105, "name": "63fccc3eef6e7bd406414d8202fa4d0a"}, {"bike_id": "24fc8016c5685f95e9dc3558e5843199", "type": "electric_scooter", "is_disabled": 0, "lat": 38.921491333333336, "rental_uris": {"ios": "https://dc.lft.to/lastmile_qr_scan", "android": "https://dc.lft.to/lastmile_qr_scan"}, "is_reserved": 0, "fusion_lon": 0.0, "fusion_lat": 0.0, "lon": -77.03870533333334, "name": "24fc8016c5685f95e9dc3558e5843199"}, {"bike_id": "0bc8997b3fd15ee652472e152729f082", "type": "electric_scooter", "is_disabled": 0, "lat": 38.860035833333335, "rental_uris": {"ios": "https://dc.lft.to/lastmile_qr_scan", "android": "https://dc.lft.to/lastmile_qr_scan"}, "is_reserved": 0, "fusion_lon": 0.0, "fusion_lat": 0.0, "lon": -76.98518666666666, "name": "0bc8997b3fd15ee652472e152729f082"}, {"bike_id": "b2e962e2824a35f0a83c5b6f9c48777e", "type": "electric_scooter", "is_disabled": 0, "lat": 38.92212683333333, "rental_uris": {"ios": "https://dc.lft.to/lastmile_qr_scan", "android": "https://dc.lft.to/lastmile_qr_scan"}, "is_reserved": 0, "fusion_lon": 0.0, "fusion_lat": 0.0, "lon": -77.03291433333334, "name": "b2e962e2824a35f0a83c5b6f9c48777e"}, {"bike_id": "97431d29fd9b7a545036a3dfb034273f", "type": "electric_scooter", "is_disabled": 0, "lat": 38.90599816666667, "rental_uris": {"ios": "https://dc.lft.to/lastmile_qr_scan", "android": "https://dc.lft.to/lastmile_qr_scan"}, "is_reserved": 0, "fusion_lon": 0.0, "fusion_lat": 0.0, "lon": -77.04117566666666, "name": "97431d29fd9b7a545036a3dfb034273f"}, {"bike_id": "6a1bd890310b3fabaddfcb094cb1ccd8", "type": "electric_scooter", "is_disabled": 0, "lat": 38.90273333333333, "rental_uris": {"ios": "https://dc.lft.to/lastmile_qr_scan", "android": "https://dc.lft.to/lastmile_qr_scan"}, "is_reserved": 0, "fusion_lon": 0.0, "fusion_lat": 0.0, "lon": -77.03850916666667, "name": "6a1bd890310b3fabaddfcb094cb1ccd8"}, {"bike_id": "790276facc9341b79681afc36f656913", "type": "electric_bike", "is_disabled": 0, "lat": 38.941209, "rental_uris": {"ios": "https://dc.lft.to/lastmile_qr_scan", "android": "https://dc.lft.to/lastmile_qr_scan"}, "is_reserved": 0, "fusion_lon": 0.0, "fusion_lat": 0.0, "lon": -77.06205816666667, "name": "790276facc9341b79681afc36f656913"}, {"bike_id": "7cb2beeceb784526b1e7131f171b6ee5", "type": "electric_scooter", "is_disabled": 0, "lat": 38.900236666666665, "rental_uris": {"ios": "https://dc.lft.to/lastmile_qr_scan", "android": "https://dc.lft.to/lastmile_qr_scan"}, "is_reserved": 0, "fusion_lon": 0.0, "fusion_lat": 0.0, "lon": -77.034964, "name": "7cb2beeceb784526b1e7131f171b6ee5"}, {"bike_id": "c4a989f2e54df04cf8d0635db08089ff", "type": "electric_scooter", "is_disabled": 0, "lat": 38.92971333333333, "rental_uris": {"ios": "https://dc.lft.to/lastmile_qr_scan", "android": "https://dc.lft.to/lastmile_qr_scan"}, "is_reserved": 0, "fusion_lon": 0.0, "fusion_lat": 0.0, "lon": -77.01687233333334, "name": "c4a989f2e54df04cf8d0635db08089ff"}, {"bike_id": "842ce35f5e332a599e3e7698236a3e00", "type": "electric_scooter", "is_disabled": 0, "lat": 38.905741166666665, "rental_uris": {"ios": "https://dc.lft.to/lastmile_qr_scan", "android": "https://dc.lft.to/lastmile_qr_scan"}, "is_reserved": 0, "fusion_lon": 0.0, "fusion_lat": 0.0, "lon": -77.030384, "name": "842ce35f5e332a599e3e7698236a3e00"}, {"bike_id": "b33d2843157e02830412d333d204985e", "type": "electric_scooter", "is_disabled": 0, "lat": 38.923215666666664, "rental_uris": {"ios": "https://dc.lft.to/lastmile_qr_scan", "android": "https://dc.lft.to/lastmile_qr_scan"}, "is_reserved": 0, "fusion_lon": 0.0, "fusion_lat": 0.0, "lon": -77.03574066666667, "name": "b33d2843157e02830412d333d204985e"}, {"bike_id": "9ef5d306d660abad7c5d786a706d3b97", "type": "electric_scooter", "is_disabled": 0, "lat": 38.918078, "rental_uris": {"ios": "https://dc.lft.to/lastmile_qr_scan", "android": "https://dc.lft.to/lastmile_qr_scan"}, "is_reserved": 0, "fusion_lon": 0.0, "fusion_lat": 0.0, "lon": -77.01025266666667, "name": "9ef5d306d660abad7c5d786a706d3b97"}, {"bike_id": "c388c835166e8ee67bfdf2e8f3faf290", "type": "electric_scooter", "is_disabled": 0, "lat": 38.91570866666667, "rental_uris": {"ios": "https://dc.lft.to/lastmile_qr_scan", "android": "https://dc.lft.to/lastmile_qr_scan"}, "is_reserved": 0, "fusion_lon": 0.0, "fusion_lat": 0.0, "lon": -77.0346625, "name": "c388c835166e8ee67bfdf2e8f3faf290"}, {"bike_id": "404c65b7d1395ae4773d347025a9ded9", "type": "electric_bike", "is_disabled": 0, "lat": 38.79984266666666, "rental_uris": {"ios": "https://dc.lft.to/lastmile_qr_scan", "android": "https://dc.lft.to/lastmile_qr_scan"}, "is_reserved": 0, "fusion_lon": 0.0, "fusion_lat": 0.0, "lon": -77.12980766666666, "name": "404c65b7d1395ae4773d347025a9ded9"}, {"bike_id": "e83f994fb2703bf228606b6a46cc5df7", "type": "electric_scooter", "is_disabled": 0, "lat": 38.900983, "rental_uris": {"ios": "https://dc.lft.to/lastmile_qr_scan", "android": "https://dc.lft.to/lastmile_qr_scan"}, "is_reserved": 0, "fusion_lon": 0.0, "fusion_lat": 0.0, "lon": -77.04997183333333, "name": "e83f994fb2703bf228606b6a46cc5df7"}, {"bike_id": "279c617ec3c985f4b8329964987e9bab", "type": "electric_scooter", "is_disabled": 0, "lat": 38.880297666666664, "rental_uris": {"ios": "https://dc.lft.to/lastmile_qr_scan", "android": "https://dc.lft.to/lastmile_qr_scan"}, "is_reserved": 0, "fusion_lon": 0.0, "fusion_lat": 0.0, "lon": -77.02511466666667, "name": "279c617ec3c985f4b8329964987e9bab"}, {"bike_id": "02c7041b13e8075f2b490d0823a90a71", "type": "electric_scooter", "is_disabled": 0, "lat": 38.862365833333335, "rental_uris": {"ios": "https://dc.lft.to/lastmile_qr_scan", "android": "https://dc.lft.to/lastmile_qr_scan"}, "is_reserved": 0, "fusion_lon": 0.0, "fusion_lat": 0.0, "lon": -76.9951975, "name": "02c7041b13e8075f2b490d0823a90a71"}, {"bike_id": "94dbf4010cb6eabf54eb0b8e4056a35b", "type": "electric_scooter", "is_disabled": 0, "lat": 38.904738333333334, "rental_uris": {"ios": "https://dc.lft.to/lastmile_qr_scan", "android": "https://dc.lft.to/lastmile_qr_scan"}, "is_reserved": 0, "fusion_lon": 0.0, "fusion_lat": 0.0, "lon": -77.03558616666666, "name": "94dbf4010cb6eabf54eb0b8e4056a35b"}, {"bike_id": "7b9ad46be3b91e46aeb84e8bebe2c3d0", "type": "electric_scooter", "is_disabled": 0, "lat": 38.893251, "rental_uris": {"ios": "https://dc.lft.to/lastmile_qr_scan", "android": "https://dc.lft.to/lastmile_qr_scan"}, "is_reserved": 0, "fusion_lon": 0.0, "fusion_lat": 0.0, "lon": -77.04879216666667, "name": "7b9ad46be3b91e46aeb84e8bebe2c3d0"}, {"bike_id": "9f88cd7e0a76e8dd37843b0da641fa8d", "type": "electric_scooter", "is_disabled": 0, "lat": 38.900004333333335, "rental_uris": {"ios": "https://dc.lft.to/lastmile_qr_scan", "android": "https://dc.lft.to/lastmile_qr_scan"}, "is_reserved": 0, "fusion_lon": 0.0, "fusion_lat": 0.0, "lon": -77.0533855, "name": "9f88cd7e0a76e8dd37843b0da641fa8d"}, {"bike_id": "5d1cb754177bf3366d151278628aff19", "type": "electric_scooter", "is_disabled": 0, "lat": 38.942144166666665, "rental_uris": {"ios": "https://dc.lft.to/lastmile_qr_scan", "android": "https://dc.lft.to/lastmile_qr_scan"}, "is_reserved": 0, "fusion_lon": 0.0, "fusion_lat": 0.0, "lon": -77.0258425, "name": "5d1cb754177bf3366d151278628aff19"}, {"bike_id": "ffcc287eb8f3898088058ec9a948fb2e", "type": "electric_scooter", "is_disabled": 0, "lat": 38.9064065, "rental_uris": {"ios": "https://dc.lft.to/lastmile_qr_scan", "android": "https://dc.lft.to/lastmile_qr_scan"}, "is_reserved": 0, "fusion_lon": 0.0, "fusion_lat": 0.0, "lon": -77.0143415, "name": "ffcc287eb8f3898088058ec9a948fb2e"}, {"bike_id": "4b16d46a2e87d673d0450fd604316819", "type": "electric_scooter", "is_disabled": 0, "lat": 38.90222983333334, "rental_uris": {"ios": "https://dc.lft.to/lastmile_qr_scan", "android": "https://dc.lft.to/lastmile_qr_scan"}, "is_reserved": 0, "fusion_lon": 0.0, "fusion_lat": 0.0, "lon": -77.02213766666667, "name": "4b16d46a2e87d673d0450fd604316819"}, {"bike_id": "5ab64617ab139bae5e922cd3e3aad38f", "type": "electric_scooter", "is_disabled": 0, "lat": 38.90503733333333, "rental_uris": {"ios": "https://dc.lft.to/lastmile_qr_scan", "android": "https://dc.lft.to/lastmile_qr_scan"}, "is_reserved": 0, "fusion_lon": 0.0, "fusion_lat": 0.0, "lon": -77.0385845, "name": "5ab64617ab139bae5e922cd3e3aad38f"}, {"bike_id": "e88f214088d4d5aa3e7660e504af77af", "type": "electric_scooter", "is_disabled": 0, "lat": 38.910667333333336, "rental_uris": {"ios": "https://dc.lft.to/lastmile_qr_scan", "android": "https://dc.lft.to/lastmile_qr_scan"}, "is_reserved": 0, "fusion_lon": 0.0, "fusion_lat": 0.0, "lon": -77.03723666666667, "name": "e88f214088d4d5aa3e7660e504af77af"}, {"bike_id": "4f1348305d72640001167bc45bcaee4d", "type": "electric_scooter", "is_disabled": 0, "lat": 38.93638133333333, "rental_uris": {"ios": "https://dc.lft.to/lastmile_qr_scan", "android": "https://dc.lft.to/lastmile_qr_scan"}, "is_reserved": 0, "fusion_lon": 0.0, "fusion_lat": 0.0, "lon": -77.05880883333333, "name": "4f1348305d72640001167bc45bcaee4d"}, {"bike_id": "540ed0a78621bc7218320d72ac3d9222", "type": "electric_scooter", "is_disabled": 0, "lat": 38.927373333333335, "rental_uris": {"ios": "https://dc.lft.to/lastmile_qr_scan", "android": "https://dc.lft.to/lastmile_qr_scan"}, "is_reserved": 0, "fusion_lon": 0.0, "fusion_lat": 0.0, "lon": -77.02285666666667, "name": "540ed0a78621bc7218320d72ac3d9222"}, {"bike_id": "0548981362fbe54d6f8513e9490fcea9", "type": "electric_scooter", "is_disabled": 0, "lat": 38.904081, "rental_uris": {"ios": "https://dc.lft.to/lastmile_qr_scan", "android": "https://dc.lft.to/lastmile_qr_scan"}, "is_reserved": 0, "fusion_lon": 0.0, "fusion_lat": 0.0, "lon": -77.06510916666667, "name": "0548981362fbe54d6f8513e9490fcea9"}, {"bike_id": "465ba28f9faae7e2afe2e853595a031a", "type": "electric_bike", "is_disabled": 0, "lat": 38.874795166666665, "rental_uris": {"ios": "https://dc.lft.to/lastmile_qr_scan", "android": "https://dc.lft.to/lastmile_qr_scan"}, "is_reserved": 0, "fusion_lon": 0.0, "fusion_lat": 0.0, "lon": -76.965315, "name": "465ba28f9faae7e2afe2e853595a031a"}, {"bike_id": "03711a3f811a0d6bebc4a52d9a3bbdbf", "type": "electric_bike", "is_disabled": 0, "lat": 38.81332066666667, "rental_uris": {"ios": "https://dc.lft.to/lastmile_qr_scan", "android": "https://dc.lft.to/lastmile_qr_scan"}, "is_reserved": 0, "fusion_lon": 0.0, "fusion_lat": 0.0, "lon": -77.05098483333333, "name": "03711a3f811a0d6bebc4a52d9a3bbdbf"}, {"bike_id": "b2d038c8471f36ee63b13b1f708ac92b", "type": "electric_scooter", "is_disabled": 0, "lat": 38.89345383333333, "rental_uris": {"ios": "https://dc.lft.to/lastmile_qr_scan", "android": "https://dc.lft.to/lastmile_qr_scan"}, "is_reserved": 0, "fusion_lon": 0.0, "fusion_lat": 0.0, "lon": -76.980929, "name": "b2d038c8471f36ee63b13b1f708ac92b"}, {"bike_id": "f8f3ee20efbcddab4e74c107d2d7cb13", "type": "electric_scooter", "is_disabled": 0, "lat": 38.94293833333333, "rental_uris": {"ios": "https://dc.lft.to/lastmile_qr_scan", "android": "https://dc.lft.to/lastmile_qr_scan"}, "is_reserved": 0, "fusion_lon": 0.0, "fusion_lat": 0.0, "lon": -77.00485783333333, "name": "f8f3ee20efbcddab4e74c107d2d7cb13"}, {"bike_id": "5285ba952f703418d1ee01531a824549", "type": "electric_scooter", "is_disabled": 0, "lat": 38.87344783333333, "rental_uris": {"ios": "https://dc.lft.to/lastmile_qr_scan", "android": "https://dc.lft.to/lastmile_qr_scan"}, "is_reserved": 0, "fusion_lon": 0.0, "fusion_lat": 0.0, "lon": -77.00052566666666, "name": "5285ba952f703418d1ee01531a824549"}, {"bike_id": "0b17b649d98c4af9ce616a9c1330d71d", "type": "electric_scooter", "is_disabled": 0, "lat": 38.91002133333333, "rental_uris": {"ios": "https://dc.lft.to/lastmile_qr_scan", "android": "https://dc.lft.to/lastmile_qr_scan"}, "is_reserved": 0, "fusion_lon": 0.0, "fusion_lat": 0.0, "lon": -77.05274266666666, "name": "0b17b649d98c4af9ce616a9c1330d71d"}, {"bike_id": "e9abac96404dee7c86d8c5f726961da7", "type": "electric_scooter", "is_disabled": 0, "lat": 38.90524, "rental_uris": {"ios": "https://dc.lft.to/lastmile_qr_scan", "android": "https://dc.lft.to/lastmile_qr_scan"}, "is_reserved": 0, "fusion_lon": 0.0, "fusion_lat": 0.0, "lon": -77.026146, "name": "e9abac96404dee7c86d8c5f726961da7"}, {"bike_id": "a26ed63d7d9c17e05f6197d34d41b3a9", "type": "electric_scooter", "is_disabled": 0, "lat": 38.908540333333335, "rental_uris": {"ios": "https://dc.lft.to/lastmile_qr_scan", "android": "https://dc.lft.to/lastmile_qr_scan"}, "is_reserved": 0, "fusion_lon": 0.0, "fusion_lat": 0.0, "lon": -77.00091983333333, "name": "a26ed63d7d9c17e05f6197d34d41b3a9"}, {"bike_id": "88c2f7c95bdc8d654d1e1300037c8de7", "type": "electric_scooter", "is_disabled": 0, "lat": 38.893248666666665, "rental_uris": {"ios": "https://dc.lft.to/lastmile_qr_scan", "android": "https://dc.lft.to/lastmile_qr_scan"}, "is_reserved": 0, "fusion_lon": 0.0, "fusion_lat": 0.0, "lon": -77.04875616666666, "name": "88c2f7c95bdc8d654d1e1300037c8de7"}, {"bike_id": "e905f0a26c41dc350f304f7419c751e1", "type": "electric_scooter", "is_disabled": 0, "lat": 38.91604516666666, "rental_uris": {"ios": "https://dc.lft.to/lastmile_qr_scan", "android": "https://dc.lft.to/lastmile_qr_scan"}, "is_reserved": 0, "fusion_lon": 0.0, "fusion_lat": 0.0, "lon": -77.0154925, "name": "e905f0a26c41dc350f304f7419c751e1"}, {"bike_id": "2befe12a42024af96c5786fb5471f074", "type": "electric_scooter", "is_disabled": 0, "lat": 38.93659433333333, "rental_uris": {"ios": "https://dc.lft.to/lastmile_qr_scan", "android": "https://dc.lft.to/lastmile_qr_scan"}, "is_reserved": 0, "fusion_lon": 0.0, "fusion_lat": 0.0, "lon": -77.05496216666667, "name": "2befe12a42024af96c5786fb5471f074"}, {"bike_id": "abf393f1d2e2cb2a9fe14a8001ad3d4e", "type": "electric_scooter", "is_disabled": 0, "lat": 38.92659616666667, "rental_uris": {"ios": "https://dc.lft.to/lastmile_qr_scan", "android": "https://dc.lft.to/lastmile_qr_scan"}, "is_reserved": 0, "fusion_lon": 0.0, "fusion_lat": 0.0, "lon": -77.03726683333333, "name": "abf393f1d2e2cb2a9fe14a8001ad3d4e"}, {"bike_id": "ba894729a7eaabfcd086385577d7a897", "type": "electric_scooter", "is_disabled": 0, "lat": 38.911185, "rental_uris": {"ios": "https://dc.lft.to/lastmile_qr_scan", "android": "https://dc.lft.to/lastmile_qr_scan"}, "is_reserved": 0, "fusion_lon": 0.0, "fusion_lat": 0.0, "lon": -77.03359033333334, "name": "ba894729a7eaabfcd086385577d7a897"}, {"bike_id": "415668f5d0f730bdc716e5e958f0239c", "type": "electric_scooter", "is_disabled": 0, "lat": 38.928208166666664, "rental_uris": {"ios": "https://dc.lft.to/lastmile_qr_scan", "android": "https://dc.lft.to/lastmile_qr_scan"}, "is_reserved": 0, "fusion_lon": 0.0, "fusion_lat": 0.0, "lon": -77.02260216666667, "name": "415668f5d0f730bdc716e5e958f0239c"}, {"bike_id": "e25cb13b15fcd157ae36f9d31c2b72aa", "type": "electric_scooter", "is_disabled": 0, "lat": 38.923564, "rental_uris": {"ios": "https://dc.lft.to/lastmile_qr_scan", "android": "https://dc.lft.to/lastmile_qr_scan"}, "is_reserved": 0, "fusion_lon": 0.0, "fusion_lat": 0.0, "lon": -77.04153616666666, "name": "e25cb13b15fcd157ae36f9d31c2b72aa"}, {"bike_id": "0408abaa287a6de94a9a75ec169708ff", "type": "electric_scooter", "is_disabled": 0, "lat": 38.922424666666664, "rental_uris": {"ios": "https://dc.lft.to/lastmile_qr_scan", "android": "https://dc.lft.to/lastmile_qr_scan"}, "is_reserved": 0, "fusion_lon": 0.0, "fusion_lat": 0.0, "lon": -77.039131, "name": "0408abaa287a6de94a9a75ec169708ff"}, {"bike_id": "581e4d1d9ca22f80b5221427fd66fa59", "type": "electric_bike", "is_disabled": 0, "lat": 38.857706, "rental_uris": {"ios": "https://dc.lft.to/lastmile_qr_scan", "android": "https://dc.lft.to/lastmile_qr_scan"}, "is_reserved": 0, "fusion_lon": 0.0, "fusion_lat": 0.0, "lon": -76.987627, "name": "581e4d1d9ca22f80b5221427fd66fa59"}, {"bike_id": "be62f3d7b9749672cdd6089eef64ecd9", "type": "electric_scooter", "is_disabled": 0, "lat": 38.9068525, "rental_uris": {"ios": "https://dc.lft.to/lastmile_qr_scan", "android": "https://dc.lft.to/lastmile_qr_scan"}, "is_reserved": 0, "fusion_lon": 0.0, "fusion_lat": 0.0, "lon": -77.02693816666667, "name": "be62f3d7b9749672cdd6089eef64ecd9"}, {"bike_id": "bf6d99999ec522d05fa75d1d2452d7af", "type": "electric_scooter", "is_disabled": 0, "lat": 38.91557433333333, "rental_uris": {"ios": "https://dc.lft.to/lastmile_qr_scan", "android": "https://dc.lft.to/lastmile_qr_scan"}, "is_reserved": 0, "fusion_lon": 0.0, "fusion_lat": 0.0, "lon": -77.03509583333333, "name": "bf6d99999ec522d05fa75d1d2452d7af"}, {"bike_id": "f26e62cbfa1d17081c8cd8f4e3e3d294", "type": "electric_bike", "is_disabled": 0, "lat": 38.93865666666667, "rental_uris": {"ios": "https://dc.lft.to/lastmile_qr_scan", "android": "https://dc.lft.to/lastmile_qr_scan"}, "is_reserved": 0, "fusion_lon": 0.0, "fusion_lat": 0.0, "lon": -77.026926, "name": "f26e62cbfa1d17081c8cd8f4e3e3d294"}, {"bike_id": "9096ad44aa451f9a95daf1cbbb2f7fab", "type": "electric_scooter", "is_disabled": 0, "lat": 38.9190675, "rental_uris": {"ios": "https://dc.lft.to/lastmile_qr_scan", "android": "https://dc.lft.to/lastmile_qr_scan"}, "is_reserved": 0, "fusion_lon": 0.0, "fusion_lat": 0.0, "lon": -77.03416733333333, "name": "9096ad44aa451f9a95daf1cbbb2f7fab"}, {"bike_id": "90b4c14175dd7d4a08a46fb960cbf82e", "type": "electric_scooter", "is_disabled": 0, "lat": 38.921505333333336, "rental_uris": {"ios": "https://dc.lft.to/lastmile_qr_scan", "android": "https://dc.lft.to/lastmile_qr_scan"}, "is_reserved": 0, "fusion_lon": 0.0, "fusion_lat": 0.0, "lon": -77.0353515, "name": "90b4c14175dd7d4a08a46fb960cbf82e"}, {"bike_id": "e185acdc8eccb82ee36b6354c0a2e76f", "type": "electric_scooter", "is_disabled": 0, "lat": 38.92249783333333, "rental_uris": {"ios": "https://dc.lft.to/lastmile_qr_scan", "android": "https://dc.lft.to/lastmile_qr_scan"}, "is_reserved": 0, "fusion_lon": 0.0, "fusion_lat": 0.0, "lon": -77.01957116666667, "name": "e185acdc8eccb82ee36b6354c0a2e76f"}, {"bike_id": "c88512619f6f2647f9544f0e1013379c", "type": "electric_scooter", "is_disabled": 0, "lat": 38.9067915, "rental_uris": {"ios": "https://dc.lft.to/lastmile_qr_scan", "android": "https://dc.lft.to/lastmile_qr_scan"}, "is_reserved": 0, "fusion_lon": 0.0, "fusion_lat": 0.0, "lon": -77.05329783333333, "name": "c88512619f6f2647f9544f0e1013379c"}, {"bike_id": "f376d6193d86130fef84f0b940255203", "type": "electric_scooter", "is_disabled": 0, "lat": 38.9285335, "rental_uris": {"ios": "https://dc.lft.to/lastmile_qr_scan", "android": "https://dc.lft.to/lastmile_qr_scan"}, "is_reserved": 0, "fusion_lon": 0.0, "fusion_lat": 0.0, "lon": -77.01947583333333, "name": "f376d6193d86130fef84f0b940255203"}, {"bike_id": "817827b3b6b2dffe31289debbe95f011", "type": "electric_scooter", "is_disabled": 0, "lat": 38.920886833333334, "rental_uris": {"ios": "https://dc.lft.to/lastmile_qr_scan", "android": "https://dc.lft.to/lastmile_qr_scan"}, "is_reserved": 0, "fusion_lon": 0.0, "fusion_lat": 0.0, "lon": -77.02538333333334, "name": "817827b3b6b2dffe31289debbe95f011"}, {"bike_id": "4be889886ec82919ed36f23088f5e285", "type": "electric_scooter", "is_disabled": 0, "lat": 38.9565665, "rental_uris": {"ios": "https://dc.lft.to/lastmile_qr_scan", "android": "https://dc.lft.to/lastmile_qr_scan"}, "is_reserved": 0, "fusion_lon": 0.0, "fusion_lat": 0.0, "lon": -77.01034566666667, "name": "4be889886ec82919ed36f23088f5e285"}, {"bike_id": "9669ec337c207593cbb3ecb0347e77fd", "type": "electric_scooter", "is_disabled": 0, "lat": 38.911199833333335, "rental_uris": {"ios": "https://dc.lft.to/lastmile_qr_scan", "android": "https://dc.lft.to/lastmile_qr_scan"}, "is_reserved": 0, "fusion_lon": 0.0, "fusion_lat": 0.0, "lon": -77.0222955, "name": "9669ec337c207593cbb3ecb0347e77fd"}, {"bike_id": "4b545ce937932772eb91df8dfc67affb", "type": "electric_scooter", "is_disabled": 0, "lat": 38.9055805, "rental_uris": {"ios": "https://dc.lft.to/lastmile_qr_scan", "android": "https://dc.lft.to/lastmile_qr_scan"}, "is_reserved": 0, "fusion_lon": 0.0, "fusion_lat": 0.0, "lon": -76.98858466666667, "name": "4b545ce937932772eb91df8dfc67affb"}, {"bike_id": "73a2bca52f937412dc69816b0d1b22e7", "type": "electric_bike", "is_disabled": 0, "lat": 38.834291666666665, "rental_uris": {"ios": "https://dc.lft.to/lastmile_qr_scan", "android": "https://dc.lft.to/lastmile_qr_scan"}, "is_reserved": 0, "fusion_lon": 0.0, "fusion_lat": 0.0, "lon": -77.10359033333333, "name": "73a2bca52f937412dc69816b0d1b22e7"}, {"bike_id": "9c69eb68e0e1fc579f2182cd281f8bc9", "type": "electric_scooter", "is_disabled": 0, "lat": 38.90143716666667, "rental_uris": {"ios": "https://dc.lft.to/lastmile_qr_scan", "android": "https://dc.lft.to/lastmile_qr_scan"}, "is_reserved": 0, "fusion_lon": 0.0, "fusion_lat": 0.0, "lon": -77.0150455, "name": "9c69eb68e0e1fc579f2182cd281f8bc9"}, {"bike_id": "ace6ebc5458869b9cc3dd6543211d78b", "type": "electric_scooter", "is_disabled": 0, "lat": 38.902795833333336, "rental_uris": {"ios": "https://dc.lft.to/lastmile_qr_scan", "android": "https://dc.lft.to/lastmile_qr_scan"}, "is_reserved": 0, "fusion_lon": 0.0, "fusion_lat": 0.0, "lon": -77.00337966666666, "name": "ace6ebc5458869b9cc3dd6543211d78b"}, {"bike_id": "a9fd157c3a000a45a21a57cb01153f28", "type": "electric_scooter", "is_disabled": 0, "lat": 38.935785, "rental_uris": {"ios": "https://dc.lft.to/lastmile_qr_scan", "android": "https://dc.lft.to/lastmile_qr_scan"}, "is_reserved": 0, "fusion_lon": 0.0, "fusion_lat": 0.0, "lon": -77.03802, "name": "a9fd157c3a000a45a21a57cb01153f28"}, {"bike_id": "b504c78b68c3c3aade2634b8f7e19be3", "type": "electric_scooter", "is_disabled": 0, "lat": 38.90491166666666, "rental_uris": {"ios": "https://dc.lft.to/lastmile_qr_scan", "android": "https://dc.lft.to/lastmile_qr_scan"}, "is_reserved": 0, "fusion_lon": 0.0, "fusion_lat": 0.0, "lon": -76.94960133333333, "name": "b504c78b68c3c3aade2634b8f7e19be3"}, {"bike_id": "854aada6aa8971aa9465c1e6eb0ff38b", "type": "electric_bike", "is_disabled": 0, "lat": 38.951756333333336, "rental_uris": {"ios": "https://dc.lft.to/lastmile_qr_scan", "android": "https://dc.lft.to/lastmile_qr_scan"}, "is_reserved": 0, "fusion_lon": 0.0, "fusion_lat": 0.0, "lon": -76.97726, "name": "854aada6aa8971aa9465c1e6eb0ff38b"}, {"bike_id": "dd97b2b43281d027ed0057ba1b8166e4", "type": "electric_scooter", "is_disabled": 0, "lat": 38.928301, "rental_uris": {"ios": "https://dc.lft.to/lastmile_qr_scan", "android": "https://dc.lft.to/lastmile_qr_scan"}, "is_reserved": 0, "fusion_lon": 0.0, "fusion_lat": 0.0, "lon": -77.01395983333333, "name": "dd97b2b43281d027ed0057ba1b8166e4"}, {"bike_id": "f39f1bf11e7ef41352800c75121312b1", "type": "electric_scooter", "is_disabled": 0, "lat": 38.928511666666665, "rental_uris": {"ios": "https://dc.lft.to/lastmile_qr_scan", "android": "https://dc.lft.to/lastmile_qr_scan"}, "is_reserved": 0, "fusion_lon": 0.0, "fusion_lat": 0.0, "lon": -77.019552, "name": "f39f1bf11e7ef41352800c75121312b1"}, {"bike_id": "f78b496981663a883fa778137ba896c7", "type": "electric_scooter", "is_disabled": 0, "lat": 38.90505433333333, "rental_uris": {"ios": "https://dc.lft.to/lastmile_qr_scan", "android": "https://dc.lft.to/lastmile_qr_scan"}, "is_reserved": 0, "fusion_lon": 0.0, "fusion_lat": 0.0, "lon": -77.0410065, "name": "f78b496981663a883fa778137ba896c7"}, {"bike_id": "37284c0d3f96b8bf776945c0d319497f", "type": "electric_scooter", "is_disabled": 0, "lat": 38.941111, "rental_uris": {"ios": "https://dc.lft.to/lastmile_qr_scan", "android": "https://dc.lft.to/lastmile_qr_scan"}, "is_reserved": 0, "fusion_lon": 0.0, "fusion_lat": 0.0, "lon": -77.02546533333333, "name": "37284c0d3f96b8bf776945c0d319497f"}, {"bike_id": "7ed3d0c8515ae2ae19ae8eb4ef1b8931", "type": "electric_scooter", "is_disabled": 0, "lat": 38.87157466666667, "rental_uris": {"ios": "https://dc.lft.to/lastmile_qr_scan", "android": "https://dc.lft.to/lastmile_qr_scan"}, "is_reserved": 0, "fusion_lon": 0.0, "fusion_lat": 0.0, "lon": -76.97740333333333, "name": "7ed3d0c8515ae2ae19ae8eb4ef1b8931"}, {"bike_id": "dfd8af41d692a0ae05e6948b1be4cf63", "type": "electric_scooter", "is_disabled": 0, "lat": 38.910374833333336, "rental_uris": {"ios": "https://dc.lft.to/lastmile_qr_scan", "android": "https://dc.lft.to/lastmile_qr_scan"}, "is_reserved": 0, "fusion_lon": 0.0, "fusion_lat": 0.0, "lon": -77.01284683333333, "name": "dfd8af41d692a0ae05e6948b1be4cf63"}, {"bike_id": "a1416fb45b431b035a0bb6c52e5fc60f", "type": "electric_bike", "is_disabled": 0, "lat": 38.89735616666667, "rental_uris": {"ios": "https://dc.lft.to/lastmile_qr_scan", "android": "https://dc.lft.to/lastmile_qr_scan"}, "is_reserved": 0, "fusion_lon": 0.0, "fusion_lat": 0.0, "lon": -76.942431, "name": "a1416fb45b431b035a0bb6c52e5fc60f"}, {"bike_id": "4a1a4b88fd247ede04a3fe8ed822c431", "type": "electric_scooter", "is_disabled": 0, "lat": 38.852106, "rental_uris": {"ios": "https://dc.lft.to/lastmile_qr_scan", "android": "https://dc.lft.to/lastmile_qr_scan"}, "is_reserved": 0, "fusion_lon": 0.0, "fusion_lat": 0.0, "lon": -76.98559516666667, "name": "4a1a4b88fd247ede04a3fe8ed822c431"}, {"bike_id": "7517d3d54bd6fd583233c11e7b978815", "type": "electric_scooter", "is_disabled": 0, "lat": 38.93534233333333, "rental_uris": {"ios": "https://dc.lft.to/lastmile_qr_scan", "android": "https://dc.lft.to/lastmile_qr_scan"}, "is_reserved": 0, "fusion_lon": 0.0, "fusion_lat": 0.0, "lon": -77.02349416666667, "name": "7517d3d54bd6fd583233c11e7b978815"}, {"bike_id": "88694b41c4bef3936a4bbd2d030f6f4e", "type": "electric_scooter", "is_disabled": 0, "lat": 38.9344155, "rental_uris": {"ios": "https://dc.lft.to/lastmile_qr_scan", "android": "https://dc.lft.to/lastmile_qr_scan"}, "is_reserved": 0, "fusion_lon": 0.0, "fusion_lat": 0.0, "lon": -77.029763, "name": "88694b41c4bef3936a4bbd2d030f6f4e"}, {"bike_id": "0e57da8538151fc8ce474611d6f26ab4", "type": "electric_scooter", "is_disabled": 0, "lat": 38.91274833333333, "rental_uris": {"ios": "https://dc.lft.to/lastmile_qr_scan", "android": "https://dc.lft.to/lastmile_qr_scan"}, "is_reserved": 0, "fusion_lon": 0.0, "fusion_lat": 0.0, "lon": -77.04729283333333, "name": "0e57da8538151fc8ce474611d6f26ab4"}, {"bike_id": "95a1808e3314b4d8025227eb4b3aa43f", "type": "electric_scooter", "is_disabled": 0, "lat": 38.921906666666665, "rental_uris": {"ios": "https://dc.lft.to/lastmile_qr_scan", "android": "https://dc.lft.to/lastmile_qr_scan"}, "is_reserved": 0, "fusion_lon": 0.0, "fusion_lat": 0.0, "lon": -76.99361533333334, "name": "95a1808e3314b4d8025227eb4b3aa43f"}, {"bike_id": "580af5c7b5a2a6244fa7b3a85196cb9b", "type": "electric_bike", "is_disabled": 0, "lat": 39.05787316666667, "rental_uris": {"ios": "https://dc.lft.to/lastmile_qr_scan", "android": "https://dc.lft.to/lastmile_qr_scan"}, "is_reserved": 0, "fusion_lon": 0.0, "fusion_lat": 0.0, "lon": -77.15024233333334, "name": "580af5c7b5a2a6244fa7b3a85196cb9b"}, {"bike_id": "b824ee2ac82624443dce9bfd26a9ab46", "type": "electric_bike", "is_disabled": 0, "lat": 38.853166, "rental_uris": {"ios": "https://dc.lft.to/lastmile_qr_scan", "android": "https://dc.lft.to/lastmile_qr_scan"}, "is_reserved": 0, "fusion_lon": 0.0, "fusion_lat": 0.0, "lon": -76.98010333333333, "name": "b824ee2ac82624443dce9bfd26a9ab46"}, {"bike_id": "e65cfdef7dd1977b1dd0176686ab6ae2", "type": "electric_scooter", "is_disabled": 0, "lat": 38.9300675, "rental_uris": {"ios": "https://dc.lft.to/lastmile_qr_scan", "android": "https://dc.lft.to/lastmile_qr_scan"}, "is_reserved": 0, "fusion_lon": 0.0, "fusion_lat": 0.0, "lon": -77.0143, "name": "e65cfdef7dd1977b1dd0176686ab6ae2"}, {"bike_id": "47c59d12c0c4718a2406d5309a584ba3", "type": "electric_scooter", "is_disabled": 0, "lat": 38.85698883333333, "rental_uris": {"ios": "https://dc.lft.to/lastmile_qr_scan", "android": "https://dc.lft.to/lastmile_qr_scan"}, "is_reserved": 0, "fusion_lon": 0.0, "fusion_lat": 0.0, "lon": -76.98972666666667, "name": "47c59d12c0c4718a2406d5309a584ba3"}, {"bike_id": "5067cac0fffb36987802b16343538c96", "type": "electric_scooter", "is_disabled": 0, "lat": 38.900595833333334, "rental_uris": {"ios": "https://dc.lft.to/lastmile_qr_scan", "android": "https://dc.lft.to/lastmile_qr_scan"}, "is_reserved": 0, "fusion_lon": 0.0, "fusion_lat": 0.0, "lon": -76.9347105, "name": "5067cac0fffb36987802b16343538c96"}, {"bike_id": "1ed6b8748096b8da2ebeade9d7aa1eb0", "type": "electric_scooter", "is_disabled": 0, "lat": 38.910508166666666, "rental_uris": {"ios": "https://dc.lft.to/lastmile_qr_scan", "android": "https://dc.lft.to/lastmile_qr_scan"}, "is_reserved": 0, "fusion_lon": 0.0, "fusion_lat": 0.0, "lon": -77.02684166666667, "name": "1ed6b8748096b8da2ebeade9d7aa1eb0"}, {"bike_id": "bc1a8c29796edf0a5bd57422f1d3a30d", "type": "electric_scooter", "is_disabled": 0, "lat": 38.87417466666667, "rental_uris": {"ios": "https://dc.lft.to/lastmile_qr_scan", "android": "https://dc.lft.to/lastmile_qr_scan"}, "is_reserved": 0, "fusion_lon": 0.0, "fusion_lat": 0.0, "lon": -77.00048433333333, "name": "bc1a8c29796edf0a5bd57422f1d3a30d"}, {"bike_id": "9ca9334ec326569e51ba2cdec55ff48e", "type": "electric_scooter", "is_disabled": 0, "lat": 38.878285, "rental_uris": {"ios": "https://dc.lft.to/lastmile_qr_scan", "android": "https://dc.lft.to/lastmile_qr_scan"}, "is_reserved": 0, "fusion_lon": 0.0, "fusion_lat": 0.0, "lon": -76.96310683333333, "name": "9ca9334ec326569e51ba2cdec55ff48e"}, {"bike_id": "70045476eb077eb6f54b29328988a993", "type": "electric_scooter", "is_disabled": 0, "lat": 38.9223245, "rental_uris": {"ios": "https://dc.lft.to/lastmile_qr_scan", "android": "https://dc.lft.to/lastmile_qr_scan"}, "is_reserved": 0, "fusion_lon": 0.0, "fusion_lat": 0.0, "lon": -77.042467, "name": "70045476eb077eb6f54b29328988a993"}, {"bike_id": "ac89caedbefe87838bee427049f89e01", "type": "electric_scooter", "is_disabled": 0, "lat": 38.94089433333333, "rental_uris": {"ios": "https://dc.lft.to/lastmile_qr_scan", "android": "https://dc.lft.to/lastmile_qr_scan"}, "is_reserved": 0, "fusion_lon": 0.0, "fusion_lat": 0.0, "lon": -77.0271675, "name": "ac89caedbefe87838bee427049f89e01"}, {"bike_id": "af75151f9bb20afd84f98883ee3a880e", "type": "electric_scooter", "is_disabled": 0, "lat": 38.866981, "rental_uris": {"ios": "https://dc.lft.to/lastmile_qr_scan", "android": "https://dc.lft.to/lastmile_qr_scan"}, "is_reserved": 0, "fusion_lon": 0.0, "fusion_lat": 0.0, "lon": -76.98717666666667, "name": "af75151f9bb20afd84f98883ee3a880e"}, {"bike_id": "98cb150abda76ac5045b0a4abd7bd530", "type": "electric_scooter", "is_disabled": 0, "lat": 38.87093516666667, "rental_uris": {"ios": "https://dc.lft.to/lastmile_qr_scan", "android": "https://dc.lft.to/lastmile_qr_scan"}, "is_reserved": 0, "fusion_lon": 0.0, "fusion_lat": 0.0, "lon": -76.96587666666667, "name": "98cb150abda76ac5045b0a4abd7bd530"}, {"bike_id": "ab7837b02cf862a404cc98eeaf49576d", "type": "electric_scooter", "is_disabled": 0, "lat": 38.914839666666666, "rental_uris": {"ios": "https://dc.lft.to/lastmile_qr_scan", "android": "https://dc.lft.to/lastmile_qr_scan"}, "is_reserved": 0, "fusion_lon": 0.0, "fusion_lat": 0.0, "lon": -76.98412416666666, "name": "ab7837b02cf862a404cc98eeaf49576d"}, {"bike_id": "9a94b6eda6fb0fcc5ec411c7e50b7790", "type": "electric_bike", "is_disabled": 0, "lat": 39.0527975, "rental_uris": {"ios": "https://dc.lft.to/lastmile_qr_scan", "android": "https://dc.lft.to/lastmile_qr_scan"}, "is_reserved": 0, "fusion_lon": 0.0, "fusion_lat": 0.0, "lon": -77.08074233333333, "name": "9a94b6eda6fb0fcc5ec411c7e50b7790"}, {"bike_id": "8bb597736417983a818901587b42c5d3", "type": "electric_scooter", "is_disabled": 0, "lat": 38.9182565, "rental_uris": {"ios": "https://dc.lft.to/lastmile_qr_scan", "android": "https://dc.lft.to/lastmile_qr_scan"}, "is_reserved": 0, "fusion_lon": 0.0, "fusion_lat": 0.0, "lon": -77.04940816666667, "name": "8bb597736417983a818901587b42c5d3"}, {"bike_id": "b5d23e423d12bcf770f18fa867fb7b2a", "type": "electric_scooter", "is_disabled": 0, "lat": 38.91542966666667, "rental_uris": {"ios": "https://dc.lft.to/lastmile_qr_scan", "android": "https://dc.lft.to/lastmile_qr_scan"}, "is_reserved": 0, "fusion_lon": 0.0, "fusion_lat": 0.0, "lon": -76.9834135, "name": "b5d23e423d12bcf770f18fa867fb7b2a"}, {"bike_id": "013886ed410a5968a46d96506d761865", "type": "electric_scooter", "is_disabled": 0, "lat": 38.917003, "rental_uris": {"ios": "https://dc.lft.to/lastmile_qr_scan", "android": "https://dc.lft.to/lastmile_qr_scan"}, "is_reserved": 0, "fusion_lon": 0.0, "fusion_lat": 0.0, "lon": -77.006554, "name": "013886ed410a5968a46d96506d761865"}, {"bike_id": "d0fc3044208fde567af7e580091928d5", "type": "electric_scooter", "is_disabled": 0, "lat": 38.899947833333336, "rental_uris": {"ios": "https://dc.lft.to/lastmile_qr_scan", "android": "https://dc.lft.to/lastmile_qr_scan"}, "is_reserved": 0, "fusion_lon": 0.0, "fusion_lat": 0.0, "lon": -77.04137666666666, "name": "d0fc3044208fde567af7e580091928d5"}, {"bike_id": "d530027e60db5389ea2c911e742a1678", "type": "electric_scooter", "is_disabled": 0, "lat": 38.89708266666667, "rental_uris": {"ios": "https://dc.lft.to/lastmile_qr_scan", "android": "https://dc.lft.to/lastmile_qr_scan"}, "is_reserved": 0, "fusion_lon": 0.0, "fusion_lat": 0.0, "lon": -77.00852316666666, "name": "d530027e60db5389ea2c911e742a1678"}, {"bike_id": "f01166b5411f517db5cdecdd5f84045e", "type": "electric_scooter", "is_disabled": 0, "lat": 38.89922983333334, "rental_uris": {"ios": "https://dc.lft.to/lastmile_qr_scan", "android": "https://dc.lft.to/lastmile_qr_scan"}, "is_reserved": 0, "fusion_lon": 0.0, "fusion_lat": 0.0, "lon": -77.0536735, "name": "f01166b5411f517db5cdecdd5f84045e"}, {"bike_id": "411418b2eecf4f698e13acdca23a077c", "type": "electric_bike", "is_disabled": 0, "lat": 38.963244333333336, "rental_uris": {"ios": "https://dc.lft.to/lastmile_qr_scan", "android": "https://dc.lft.to/lastmile_qr_scan"}, "is_reserved": 0, "fusion_lon": 0.0, "fusion_lat": 0.0, "lon": -76.97361266666667, "name": "411418b2eecf4f698e13acdca23a077c"}, {"bike_id": "95e109ec59c389fdd6de6e7bd2a1dfea", "type": "electric_scooter", "is_disabled": 0, "lat": 38.905257166666665, "rental_uris": {"ios": "https://dc.lft.to/lastmile_qr_scan", "android": "https://dc.lft.to/lastmile_qr_scan"}, "is_reserved": 0, "fusion_lon": 0.0, "fusion_lat": 0.0, "lon": -77.06131633333334, "name": "95e109ec59c389fdd6de6e7bd2a1dfea"}, {"bike_id": "c4e7d4edd3494e15c69f7117b63dc197", "type": "electric_scooter", "is_disabled": 0, "lat": 38.90116033333334, "rental_uris": {"ios": "https://dc.lft.to/lastmile_qr_scan", "android": "https://dc.lft.to/lastmile_qr_scan"}, "is_reserved": 0, "fusion_lon": 0.0, "fusion_lat": 0.0, "lon": -77.0181115, "name": "c4e7d4edd3494e15c69f7117b63dc197"}, {"bike_id": "103a43ee619a53946d68d6537cba1e03", "type": "electric_scooter", "is_disabled": 0, "lat": 38.905033, "rental_uris": {"ios": "https://dc.lft.to/lastmile_qr_scan", "android": "https://dc.lft.to/lastmile_qr_scan"}, "is_reserved": 0, "fusion_lon": 0.0, "fusion_lat": 0.0, "lon": -77.06017566666667, "name": "103a43ee619a53946d68d6537cba1e03"}, {"bike_id": "4aa5084e603bd81bb1b0e250e7965763", "type": "electric_scooter", "is_disabled": 0, "lat": 38.866741, "rental_uris": {"ios": "https://dc.lft.to/lastmile_qr_scan", "android": "https://dc.lft.to/lastmile_qr_scan"}, "is_reserved": 0, "fusion_lon": 0.0, "fusion_lat": 0.0, "lon": -76.98538433333333, "name": "4aa5084e603bd81bb1b0e250e7965763"}, {"bike_id": "fa7b98b6083599deade9641a8a6c7aa3", "type": "electric_bike", "is_disabled": 0, "lat": 38.963068666666665, "rental_uris": {"ios": "https://dc.lft.to/lastmile_qr_scan", "android": "https://dc.lft.to/lastmile_qr_scan"}, "is_reserved": 0, "fusion_lon": 0.0, "fusion_lat": 0.0, "lon": -77.011083, "name": "fa7b98b6083599deade9641a8a6c7aa3"}, {"bike_id": "d788f8e7cc3d0cb3448fcaa60b2749f4", "type": "electric_scooter", "is_disabled": 0, "lat": 38.9233805, "rental_uris": {"ios": "https://dc.lft.to/lastmile_qr_scan", "android": "https://dc.lft.to/lastmile_qr_scan"}, "is_reserved": 0, "fusion_lon": 0.0, "fusion_lat": 0.0, "lon": -77.04176816666667, "name": "d788f8e7cc3d0cb3448fcaa60b2749f4"}, {"bike_id": "b867a1404dbb50f40330f03997e33817", "type": "electric_scooter", "is_disabled": 0, "lat": 38.910639, "rental_uris": {"ios": "https://dc.lft.to/lastmile_qr_scan", "android": "https://dc.lft.to/lastmile_qr_scan"}, "is_reserved": 0, "fusion_lon": 0.0, "fusion_lat": 0.0, "lon": -77.037215, "name": "b867a1404dbb50f40330f03997e33817"}, {"bike_id": "6262cf47dd5cec0d7d946681285c6438", "type": "electric_scooter", "is_disabled": 0, "lat": 38.918099833333336, "rental_uris": {"ios": "https://dc.lft.to/lastmile_qr_scan", "android": "https://dc.lft.to/lastmile_qr_scan"}, "is_reserved": 0, "fusion_lon": 0.0, "fusion_lat": 0.0, "lon": -77.007615, "name": "6262cf47dd5cec0d7d946681285c6438"}, {"bike_id": "22de48cd3a04fbd6f4a69d087d8db11a", "type": "electric_bike", "is_disabled": 0, "lat": 38.93460316666667, "rental_uris": {"ios": "https://dc.lft.to/lastmile_qr_scan", "android": "https://dc.lft.to/lastmile_qr_scan"}, "is_reserved": 0, "fusion_lon": 0.0, "fusion_lat": 0.0, "lon": -77.0272045, "name": "22de48cd3a04fbd6f4a69d087d8db11a"}, {"bike_id": "4a0913a37dde6420fd32e08531d89e13", "type": "electric_scooter", "is_disabled": 0, "lat": 38.90332733333334, "rental_uris": {"ios": "https://dc.lft.to/lastmile_qr_scan", "android": "https://dc.lft.to/lastmile_qr_scan"}, "is_reserved": 0, "fusion_lon": 0.0, "fusion_lat": 0.0, "lon": -77.03669833333333, "name": "4a0913a37dde6420fd32e08531d89e13"}, {"bike_id": "da2a0f2ee30b3856838e0aae4e3ac07e", "type": "electric_scooter", "is_disabled": 0, "lat": 38.90529633333333, "rental_uris": {"ios": "https://dc.lft.to/lastmile_qr_scan", "android": "https://dc.lft.to/lastmile_qr_scan"}, "is_reserved": 0, "fusion_lon": 0.0, "fusion_lat": 0.0, "lon": -77.05930433333333, "name": "da2a0f2ee30b3856838e0aae4e3ac07e"}, {"bike_id": "8dfde6453e26594c79d14e4837d068c8", "type": "electric_scooter", "is_disabled": 0, "lat": 38.903357666666665, "rental_uris": {"ios": "https://dc.lft.to/lastmile_qr_scan", "android": "https://dc.lft.to/lastmile_qr_scan"}, "is_reserved": 0, "fusion_lon": 0.0, "fusion_lat": 0.0, "lon": -77.05295066666666, "name": "8dfde6453e26594c79d14e4837d068c8"}, {"bike_id": "a8001f1c4f0934607660d8acc711aefa", "type": "electric_scooter", "is_disabled": 0, "lat": 38.90952133333333, "rental_uris": {"ios": "https://dc.lft.to/lastmile_qr_scan", "android": "https://dc.lft.to/lastmile_qr_scan"}, "is_reserved": 0, "fusion_lon": 0.0, "fusion_lat": 0.0, "lon": -77.045006, "name": "a8001f1c4f0934607660d8acc711aefa"}, {"bike_id": "7941f530bd814e72ded3c50489571c7c", "type": "electric_scooter", "is_disabled": 0, "lat": 38.90150083333333, "rental_uris": {"ios": "https://dc.lft.to/lastmile_qr_scan", "android": "https://dc.lft.to/lastmile_qr_scan"}, "is_reserved": 0, "fusion_lon": 0.0, "fusion_lat": 0.0, "lon": -76.99034016666667, "name": "7941f530bd814e72ded3c50489571c7c"}, {"bike_id": "87a67d8df234012fa2f875da8d19cb05", "type": "electric_scooter", "is_disabled": 0, "lat": 38.89709883333333, "rental_uris": {"ios": "https://dc.lft.to/lastmile_qr_scan", "android": "https://dc.lft.to/lastmile_qr_scan"}, "is_reserved": 0, "fusion_lon": 0.0, "fusion_lat": 0.0, "lon": -76.929904, "name": "87a67d8df234012fa2f875da8d19cb05"}, {"bike_id": "bfe2703848092df9f7b34a47e39b9c17", "type": "electric_scooter", "is_disabled": 0, "lat": 38.914538, "rental_uris": {"ios": "https://dc.lft.to/lastmile_qr_scan", "android": "https://dc.lft.to/lastmile_qr_scan"}, "is_reserved": 0, "fusion_lon": 0.0, "fusion_lat": 0.0, "lon": -77.0218235, "name": "bfe2703848092df9f7b34a47e39b9c17"}, {"bike_id": "977dd467267e9e7ac06cb87d7bb0bd2a", "type": "electric_scooter", "is_disabled": 0, "lat": 38.907266, "rental_uris": {"ios": "https://dc.lft.to/lastmile_qr_scan", "android": "https://dc.lft.to/lastmile_qr_scan"}, "is_reserved": 0, "fusion_lon": 0.0, "fusion_lat": 0.0, "lon": -77.01312066666667, "name": "977dd467267e9e7ac06cb87d7bb0bd2a"}, {"bike_id": "cf4a9ee65a8321141fa95435c4eb3248", "type": "electric_bike", "is_disabled": 0, "lat": 38.87995633333333, "rental_uris": {"ios": "https://dc.lft.to/lastmile_qr_scan", "android": "https://dc.lft.to/lastmile_qr_scan"}, "is_reserved": 0, "fusion_lon": 0.0, "fusion_lat": 0.0, "lon": -76.98518916666667, "name": "cf4a9ee65a8321141fa95435c4eb3248"}, {"bike_id": "f42d0785974bbac6c8fa5c141d27d8a5", "type": "electric_scooter", "is_disabled": 0, "lat": 38.92483083333333, "rental_uris": {"ios": "https://dc.lft.to/lastmile_qr_scan", "android": "https://dc.lft.to/lastmile_qr_scan"}, "is_reserved": 0, "fusion_lon": 0.0, "fusion_lat": 0.0, "lon": -77.0283915, "name": "f42d0785974bbac6c8fa5c141d27d8a5"}, {"bike_id": "aed6ab65a32f564237657b07d5c703ce", "type": "electric_scooter", "is_disabled": 0, "lat": 38.90153083333333, "rental_uris": {"ios": "https://dc.lft.to/lastmile_qr_scan", "android": "https://dc.lft.to/lastmile_qr_scan"}, "is_reserved": 0, "fusion_lon": 0.0, "fusion_lat": 0.0, "lon": -77.02510383333333, "name": "aed6ab65a32f564237657b07d5c703ce"}, {"bike_id": "0362aaec31ae9aa0d87ea0a82f9a45f1", "type": "electric_scooter", "is_disabled": 0, "lat": 38.899757666666666, "rental_uris": {"ios": "https://dc.lft.to/lastmile_qr_scan", "android": "https://dc.lft.to/lastmile_qr_scan"}, "is_reserved": 0, "fusion_lon": 0.0, "fusion_lat": 0.0, "lon": -77.02080833333333, "name": "0362aaec31ae9aa0d87ea0a82f9a45f1"}, {"bike_id": "33e3b6a7b8caf3fb96b30d597d104e32", "type": "electric_scooter", "is_disabled": 0, "lat": 38.876567, "rental_uris": {"ios": "https://dc.lft.to/lastmile_qr_scan", "android": "https://dc.lft.to/lastmile_qr_scan"}, "is_reserved": 0, "fusion_lon": 0.0, "fusion_lat": 0.0, "lon": -76.9964235, "name": "33e3b6a7b8caf3fb96b30d597d104e32"}, {"bike_id": "761098842ccd92b79ac9902fa2e08bdf", "type": "electric_scooter", "is_disabled": 0, "lat": 38.90969033333333, "rental_uris": {"ios": "https://dc.lft.to/lastmile_qr_scan", "android": "https://dc.lft.to/lastmile_qr_scan"}, "is_reserved": 0, "fusion_lon": 0.0, "fusion_lat": 0.0, "lon": -77.0397285, "name": "761098842ccd92b79ac9902fa2e08bdf"}, {"bike_id": "265113f95ce3fa7a5c131c32b538ece0", "type": "electric_bike", "is_disabled": 0, "lat": 38.9310575, "rental_uris": {"ios": "https://dc.lft.to/lastmile_qr_scan", "android": "https://dc.lft.to/lastmile_qr_scan"}, "is_reserved": 0, "fusion_lon": 0.0, "fusion_lat": 0.0, "lon": -77.01849016666667, "name": "265113f95ce3fa7a5c131c32b538ece0"}, {"bike_id": "36943459dfa589af4f36fe3c111995e9", "type": "electric_scooter", "is_disabled": 0, "lat": 38.90637866666667, "rental_uris": {"ios": "https://dc.lft.to/lastmile_qr_scan", "android": "https://dc.lft.to/lastmile_qr_scan"}, "is_reserved": 0, "fusion_lon": 0.0, "fusion_lat": 0.0, "lon": -77.03467616666667, "name": "36943459dfa589af4f36fe3c111995e9"}, {"bike_id": "3dbe33a312ce8130c31e2947ddd44e0d", "type": "electric_scooter", "is_disabled": 0, "lat": 38.92093916666666, "rental_uris": {"ios": "https://dc.lft.to/lastmile_qr_scan", "android": "https://dc.lft.to/lastmile_qr_scan"}, "is_reserved": 0, "fusion_lon": 0.0, "fusion_lat": 0.0, "lon": -77.0169815, "name": "3dbe33a312ce8130c31e2947ddd44e0d"}, {"bike_id": "d5521b7610e3fbfead2c356aaff1ae68", "type": "electric_scooter", "is_disabled": 0, "lat": 38.91027033333334, "rental_uris": {"ios": "https://dc.lft.to/lastmile_qr_scan", "android": "https://dc.lft.to/lastmile_qr_scan"}, "is_reserved": 0, "fusion_lon": 0.0, "fusion_lat": 0.0, "lon": -77.00759433333333, "name": "d5521b7610e3fbfead2c356aaff1ae68"}, {"bike_id": "7bf0ad0b040d0f85c6dad71fdb459039", "type": "electric_scooter", "is_disabled": 0, "lat": 38.92230583333333, "rental_uris": {"ios": "https://dc.lft.to/lastmile_qr_scan", "android": "https://dc.lft.to/lastmile_qr_scan"}, "is_reserved": 0, "fusion_lon": 0.0, "fusion_lat": 0.0, "lon": -76.97532766666667, "name": "7bf0ad0b040d0f85c6dad71fdb459039"}, {"bike_id": "f9341a50ffa05ff8e584f81a9918d346", "type": "electric_scooter", "is_disabled": 0, "lat": 38.933127666666664, "rental_uris": {"ios": "https://dc.lft.to/lastmile_qr_scan", "android": "https://dc.lft.to/lastmile_qr_scan"}, "is_reserved": 0, "fusion_lon": 0.0, "fusion_lat": 0.0, "lon": -77.02758283333333, "name": "f9341a50ffa05ff8e584f81a9918d346"}, {"bike_id": "af58a3e679f47524faeb81fb15306ad6", "type": "electric_scooter", "is_disabled": 0, "lat": 38.901948166666664, "rental_uris": {"ios": "https://dc.lft.to/lastmile_qr_scan", "android": "https://dc.lft.to/lastmile_qr_scan"}, "is_reserved": 0, "fusion_lon": 0.0, "fusion_lat": 0.0, "lon": -76.98849433333334, "name": "af58a3e679f47524faeb81fb15306ad6"}, {"bike_id": "38f889034a49eddba0804acb32be0371", "type": "electric_scooter", "is_disabled": 0, "lat": 38.892343, "rental_uris": {"ios": "https://dc.lft.to/lastmile_qr_scan", "android": "https://dc.lft.to/lastmile_qr_scan"}, "is_reserved": 0, "fusion_lon": 0.0, "fusion_lat": 0.0, "lon": -77.02384216666667, "name": "38f889034a49eddba0804acb32be0371"}, {"bike_id": "2a6238c1f175e94dc569b265dde57f37", "type": "electric_scooter", "is_disabled": 0, "lat": 38.879361833333334, "rental_uris": {"ios": "https://dc.lft.to/lastmile_qr_scan", "android": "https://dc.lft.to/lastmile_qr_scan"}, "is_reserved": 0, "fusion_lon": 0.0, "fusion_lat": 0.0, "lon": -77.01540216666666, "name": "2a6238c1f175e94dc569b265dde57f37"}, {"bike_id": "ce71eda3a6fa2d2c9c253aa39a64a036", "type": "electric_scooter", "is_disabled": 0, "lat": 38.92601366666667, "rental_uris": {"ios": "https://dc.lft.to/lastmile_qr_scan", "android": "https://dc.lft.to/lastmile_qr_scan"}, "is_reserved": 0, "fusion_lon": 0.0, "fusion_lat": 0.0, "lon": -77.0215345, "name": "ce71eda3a6fa2d2c9c253aa39a64a036"}, {"bike_id": "77e5468678442524a3b88d907b290c39", "type": "electric_scooter", "is_disabled": 0, "lat": 38.9406915, "rental_uris": {"ios": "https://dc.lft.to/lastmile_qr_scan", "android": "https://dc.lft.to/lastmile_qr_scan"}, "is_reserved": 0, "fusion_lon": 0.0, "fusion_lat": 0.0, "lon": -77.05253516666667, "name": "77e5468678442524a3b88d907b290c39"}, {"bike_id": "f0bfda228f7b1de55449bf5fada930d3", "type": "electric_scooter", "is_disabled": 0, "lat": 38.91359533333333, "rental_uris": {"ios": "https://dc.lft.to/lastmile_qr_scan", "android": "https://dc.lft.to/lastmile_qr_scan"}, "is_reserved": 0, "fusion_lon": 0.0, "fusion_lat": 0.0, "lon": -77.04568, "name": "f0bfda228f7b1de55449bf5fada930d3"}, {"bike_id": "a57486c5b1ddbc040a393e5f357b647c", "type": "electric_scooter", "is_disabled": 0, "lat": 38.904217, "rental_uris": {"ios": "https://dc.lft.to/lastmile_qr_scan", "android": "https://dc.lft.to/lastmile_qr_scan"}, "is_reserved": 0, "fusion_lon": 0.0, "fusion_lat": 0.0, "lon": -77.02862066666667, "name": "a57486c5b1ddbc040a393e5f357b647c"},