{"data": {"bikes": [{"fusion_lat": 0.0, "name": "778cf1d2f61b6c5c1f1727a6dc4601d4", "is_disabled": 0, "rental_uris": {"android": "https://dc.lft.to/lastmile_qr_scan", "ios": "https://dc.lft.to/lastmile_qr_scan"}, "fusion_lon": 0.0, "lat": 38.90401283333333, "bike_id": "778cf1d2f61b6c5c1f1727a6dc4601d4", "type": "electric_scooter", "is_reserved": 0, "lon": -77.0466105}, {"fusion_lat": 0.0, "name": "ed3569a6165d81298e8d5705b2ce7071", "is_disabled": 0, "rental_uris": {"android": "https://dc.lft.to/lastmile_qr_scan", "ios": "https://dc.lft.to/lastmile_qr_scan"}, "fusion_lon": 0.0, "lat": 38.902371333333335, "bike_id": "ed3569a6165d81298e8d5705b2ce7071", "type": "electric_scooter", "is_reserved": 0, "lon": -77.04904683333334}, {"fusion_lat": 0.0, "name": "5b0551a186b6a2b0b4b989360b9500f0", "is_disabled": 0, "rental_uris": {"android": "https://dc.lft.to/lastmile_qr_scan", "ios": "https://dc.lft.to/lastmile_qr_scan"}, "fusion_lon": 0.0, "lat": 38.95966216666667, "bike_id": "5b0551a186b6a2b0b4b989360b9500f0", "type": "electric_bike", "is_reserved": 0, "lon": -76.9815895}, {"fusion_lat": 0.0, "name": "db66e5cb07e20b75031f4a25a6125ae1", "is_disabled": 0, "rental_uris": {"android": "https://dc.lft.to/lastmile_qr_scan", "ios": "https://dc.lft.to/lastmile_qr_scan"}, "fusion_lon": 0.0, "lat": 38.926985, "bike_id": "db66e5cb07e20b75031f4a25a6125ae1", "type": "electric_scooter", "is_reserved": 0, "lon": -77.02425983333333}, {"fusion_lat": 0.0, "name": "c6e248c03743e422e19a6953bb279923", "is_disabled": 0, "rental_uris": {"android": "https://dc.lft.to/lastmile_qr_scan", "ios": "https://dc.lft.to/lastmile_qr_scan"}, "fusion_lon": 0.0, "lat": 38.93224216666667, "bike_id": "c6e248c03743e422e19a6953bb279923", "type": "electric_scooter", "is_reserved": 0, "lon": -77.033467}, {"fusion_lat": 0.0, "name": "2add92a8d56fe6934960781fceca2f9d", "is_disabled": 0, "rental_uris": {"android": "https://dc.lft.to/lastmile_qr_scan", "ios": "https://dc.lft.to/lastmile_qr_scan"}, "fusion_lon": 0.0, "lat": 38.957395, "bike_id": "2add92a8d56fe6934960781fceca2f9d", "type": "electric_bike", "is_reserved": 0, "lon": -76.98081516666667}, {"fusion_lat": 0.0, "name": "2d37e4db2362e680edeb9976c6094c93", "is_disabled": 0, "rental_uris": {"android": "https://dc.lft.to/lastmile_qr_scan", "ios": "https://dc.lft.to/lastmile_qr_scan"}, "fusion_lon": 0.0, "lat": 38.9507335, "bike_id": "2d37e4db2362e680edeb9976c6094c93", "type": "electric_bike", "is_reserved": 0, "lon": -77.01199433333333}, {"fusion_lat": 0.0, "name": "09b8bf87816b1947d13a05e634549c25", "is_disabled": 0, "rental_uris": {"android": "https://dc.lft.to/lastmile_qr_scan", "ios": "https://dc.lft.to/lastmile_qr_scan"}, "fusion_lon": 0.0, "lat": 38.89906366666666, "bike_id": "09b8bf87816b1947d13a05e634549c25", "type": "electric_scooter", "is_reserved": 0, "lon": -76.93355983333333}, {"fusion_lat": 0.0, "name": "1dfdf4a04ef90383c81b5579262414b6", "is_disabled": 0, "rental_uris": {"android": "https://dc.lft.to/lastmile_qr_scan", "ios": "https://dc.lft.to/lastmile_qr_scan"}, "fusion_lon": 0.0, "lat": 38.9360895, "bike_id": "1dfdf4a04ef90383c81b5579262414b6", "type": "electric_scooter", "is_reserved": 0, "lon": -77.03189083333334}, {"fusion_lat": 0.0, "name": "10ff51745737ad2dd41a5464eb6c158a", "is_disabled": 0, "rental_uris": {"android": "https://dc.lft.to/lastmile_qr_scan", "ios": "https://dc.lft.to/lastmile_qr_scan"}, "fusion_lon": 0.0, "lat": 38.92193116666667, "bike_id": "10ff51745737ad2dd41a5464eb6c158a", "type": "electric_scooter", "is_reserved": 0, "lon": -77.08077916666667}, {"fusion_lat": 0.0, "name": "ee5720b245c976db760d83dbb4b6cd87", "is_disabled": 0, "rental_uris": {"android": "https://dc.lft.to/lastmile_qr_scan", "ios": "https://dc.lft.to/lastmile_qr_scan"}, "fusion_lon": 0.0, "lat": 38.89481383333333, "bike_id": "ee5720b245c976db760d83dbb4b6cd87", "type": "electric_scooter", "is_reserved": 0, "lon": -77.02181}, {"fusion_lat": 0.0, "name": "d71587000036b7d654a7ca7118bc1dc0", "is_disabled": 0, "rental_uris": {"android": "https://dc.lft.to/lastmile_qr_scan", "ios": "https://dc.lft.to/lastmile_qr_scan"}, "fusion_lon": 0.0, "lat": 38.914724, "bike_id": "d71587000036b7d654a7ca7118bc1dc0", "type": "electric_scooter", "is_reserved": 0, "lon": -77.038994}, {"fusion_lat": 0.0, "name": "caa8bdc50385533aaab1dcd14213ab26", "is_disabled": 0, "rental_uris": {"android": "https://dc.lft.to/lastmile_qr_scan", "ios": "https://dc.lft.to/lastmile_qr_scan"}, "fusion_lon": 0.0, "lat": 38.9385585, "bike_id": "caa8bdc50385533aaab1dcd14213ab26", "type": "electric_scooter", "is_reserved": 0, "lon": -77.02451433333333}, {"fusion_lat": 0.0, "name": "d04e6e885f26240e29fac70257fe2c47", "is_disabled": 0, "rental_uris": {"android": "https://dc.lft.to/lastmile_qr_scan", "ios": "https://dc.lft.to/lastmile_qr_scan"}, "fusion_lon": 0.0, "lat": 38.921071833333336, "bike_id": "d04e6e885f26240e29fac70257fe2c47", "type": "electric_scooter", "is_reserved": 0, "lon": -77.07476683333333}, {"fusion_lat": 0.0, "name": "321b34030811a371db8e6b191b028066", "is_disabled": 0, "rental_uris": {"android": "https://dc.lft.to/lastmile_qr_scan", "ios": "https://dc.lft.to/lastmile_qr_scan"}, "fusion_lon": 0.0, "lat": 38.91498283333333, "bike_id": "321b34030811a371db8e6b191b028066", "type": "electric_scooter", "is_reserved": 0, "lon": -77.00915333333333}, {"fusion_lat": 0.0, "name": "e4e219321471f24c188017f2772693e8", "is_disabled": 0, "rental_uris": {"android": "https://dc.lft.to/lastmile_qr_scan", "ios": "https://dc.lft.to/lastmile_qr_scan"}, "fusion_lon": 0.0, "lat": 38.89864883333333, "bike_id": "e4e219321471f24c188017f2772693e8", "type": "electric_scooter", "is_reserved": 0, "lon": -77.020422}, {"fusion_lat": 0.0, "name": "763b2891e46b4dc9eb42e793489f837d", "is_disabled": 0, "rental_uris": {"android": "https://dc.lft.to/lastmile_qr_scan", "ios": "https://dc.lft.to/lastmile_qr_scan"}, "fusion_lon": 0.0, "lat": 38.919524, "bike_id": "763b2891e46b4dc9eb42e793489f837d", "type": "electric_scooter", "is_reserved": 0, "lon": -77.04488833333333}, {"fusion_lat": 0.0, "name": "00c0d6eb9a9fbfb33d49c03ec6f56d30", "is_disabled": 0, "rental_uris": {"android": "https://dc.lft.to/lastmile_qr_scan", "ios": "https://dc.lft.to/lastmile_qr_scan"}, "fusion_lon": 0.0, "lat": 38.873769, "bike_id": "00c0d6eb9a9fbfb33d49c03ec6f56d30", "type": "electric_scooter", "is_reserved": 0, "lon": -77.00162}, {"fusion_lat": 0.0, "name": "16d641e2a74d127a3e98a5ff705cb346", "is_disabled": 0, "rental_uris": {"android": "https://dc.lft.to/lastmile_qr_scan", "ios": "https://dc.lft.to/lastmile_qr_scan"}, "fusion_lon": 0.0, "lat": 38.900288833333335, "bike_id": "16d641e2a74d127a3e98a5ff705cb346", "type": "electric_scooter", "is_reserved": 0, "lon": -77.00379066666666}, {"fusion_lat": 0.0, "name": "ac079d6451cfd43c30982a3501a9cb12", "is_disabled": 0, "rental_uris": {"android": "https://dc.lft.to/lastmile_qr_scan", "ios": "https://dc.lft.to/lastmile_qr_scan"}, "fusion_lon": 0.0, "lat": 38.90670216666667, "bike_id": "ac079d6451cfd43c30982a3501a9cb12", "type": "electric_scooter", "is_reserved": 0, "lon": -77.02708316666667}, {"fusion_lat": 0.0, "name": "bbc0c29e47ace4ee51f5d1af7a5aa72e", "is_disabled": 0, "rental_uris": {"android": "https://dc.lft.to/lastmile_qr_scan", "ios": "https://dc.lft.to/lastmile_qr_scan"}, "fusion_lon": 0.0, "lat": 38.9287005, "bike_id": "bbc0c29e47ace4ee51f5d1af7a5aa72e", "type": "electric_scooter", "is_reserved": 0, "lon": -77.03480366666666}, {"fusion_lat": 0.0, "name": "359b2eacdeb348759c7a6297feb985c1", "is_disabled": 0, "rental_uris": {"android": "https://dc.lft.to/lastmile_qr_scan", "ios": "https://dc.lft.to/lastmile_qr_scan"}, "fusion_lon": 0.0, "lat": 38.89607516666667, "bike_id": "359b2eacdeb348759c7a6297feb985c1", "type": "electric_scooter", "is_reserved": 0, "lon": -77.00926683333333}, {"fusion_lat": 0.0, "name": "99456e1ff5d2ff0a2ea4e9ff68065e65", "is_disabled": 0, "rental_uris": {"android": "https://dc.lft.to/lastmile_qr_scan", "ios": "https://dc.lft.to/lastmile_qr_scan"}, "fusion_lon": 0.0, "lat": 38.886135, "bike_id": "99456e1ff5d2ff0a2ea4e9ff68065e65", "type": "electric_scooter", "is_reserved": 0, "lon": -77.01556766666667}, {"fusion_lat": 0.0, "name": "ca14a3b577808dde40d4107c12982725", "is_disabled": 0, "rental_uris": {"android": "https://dc.lft.to/lastmile_qr_scan", "ios": "https://dc.lft.to/lastmile_qr_scan"}, "fusion_lon": 0.0, "lat": 38.900076166666665, "bike_id": "ca14a3b577808dde40d4107c12982725", "type": "electric_scooter", "is_reserved": 0, "lon": -77.00088416666667}, {"fusion_lat": 0.0, "name": "8b8318c6ad74f64a26deaca2c596489d", "is_disabled": 0, "rental_uris": {"android": "https://dc.lft.to/lastmile_qr_scan", "ios": "https://dc.lft.to/lastmile_qr_scan"}, "fusion_lon": 0.0, "lat": 38.920485, "bike_id": "8b8318c6ad74f64a26deaca2c596489d", "type": "electric_scooter", "is_reserved": 0, "lon": -77.02348}, {"fusion_lat": 0.0, "name": "212649bdf14f96762413239f1ecadb49", "is_disabled": 0, "rental_uris": {"android": "https://dc.lft.to/lastmile_qr_scan", "ios": "https://dc.lft.to/lastmile_qr_scan"}, "fusion_lon": 0.0, "lat": 38.877119666666665, "bike_id": "212649bdf14f96762413239f1ecadb49", "type": "electric_scooter", "is_reserved": 0, "lon": -76.993814}, {"fusion_lat": 0.0, "name": "d536db24469d0b90045704770de23332", "is_disabled": 0, "rental_uris": {"android": "https://dc.lft.to/lastmile_qr_scan", "ios": "https://dc.lft.to/lastmile_qr_scan"}, "fusion_lon": 0.0, "lat": 38.898782, "bike_id": "d536db24469d0b90045704770de23332", "type": "electric_scooter", "is_reserved": 0, "lon": -76.93183483333334}, {"fusion_lat": 0.0, "name": "c5d5013ea53f41682b717cc72fa3e475", "is_disabled": 0, "rental_uris": {"android": "https://dc.lft.to/lastmile_qr_scan", "ios": "https://dc.lft.to/lastmile_qr_scan"}, "fusion_lon": 0.0, "lat": 38.90805533333333, "bike_id": "c5d5013ea53f41682b717cc72fa3e475", "type": "electric_scooter", "is_reserved": 0, "lon": -77.04246666666667}, {"fusion_lat": 0.0, "name": "d2114817c6ef7557c2e5f43c1ce2f04a", "is_disabled": 0, "rental_uris": {"android": "https://dc.lft.to/lastmile_qr_scan", "ios": "https://dc.lft.to/lastmile_qr_scan"}, "fusion_lon": 0.0, "lat": 38.8840085, "bike_id": "d2114817c6ef7557c2e5f43c1ce2f04a", "type": "electric_scooter", "is_reserved": 0, "lon": -77.01965316666667}, {"fusion_lat": 0.0, "name": "f0717f2177a8869f58fbda6e781bcf6d", "is_disabled": 0, "rental_uris": {"android": "https://dc.lft.to/lastmile_qr_scan", "ios": "https://dc.lft.to/lastmile_qr_scan"}, "fusion_lon": 0.0, "lat": 38.96144066666667, "bike_id": "f0717f2177a8869f58fbda6e781bcf6d", "type": "electric_bike", "is_reserved": 0, "lon": -77.03223666666666}, {"fusion_lat": 0.0, "name": "1ec4e0a7123b925dbe4cd2e469c53346", "is_disabled": 0, "rental_uris": {"android": "https://dc.lft.to/lastmile_qr_scan", "ios": "https://dc.lft.to/lastmile_qr_scan"}, "fusion_lon": 0.0, "lat": 38.923443666666664, "bike_id": "1ec4e0a7123b925dbe4cd2e469c53346", "type": "electric_scooter", "is_reserved": 0, "lon": -77.00187083333333}, {"fusion_lat": 0.0, "name": "bead6c6a45a6d64c88cae9f1e1146fa1", "is_disabled": 0, "rental_uris": {"android": "https://dc.lft.to/lastmile_qr_scan", "ios": "https://dc.lft.to/lastmile_qr_scan"}, "fusion_lon": 0.0, "lat": 38.939205666666666, "bike_id": "bead6c6a45a6d64c88cae9f1e1146fa1", "type": "electric_scooter", "is_reserved": 0, "lon": -77.027986}, {"fusion_lat": 0.0, "name": "c8050fa6f13ecd18012bc62546c4eb0c", "is_disabled": 0, "rental_uris": {"android": "https://dc.lft.to/lastmile_qr_scan", "ios": "https://dc.lft.to/lastmile_qr_scan"}, "fusion_lon": 0.0, "lat": 38.920633, "bike_id": "c8050fa6f13ecd18012bc62546c4eb0c", "type": "electric_scooter", "is_reserved": 0, "lon": -76.99860283333334}, {"fusion_lat": 0.0, "name": "3ee489db94025887baa8c9d6277451c4", "is_disabled": 0, "rental_uris": {"android": "https://dc.lft.to/lastmile_qr_scan", "ios": "https://dc.lft.to/lastmile_qr_scan"}, "fusion_lon": 0.0, "lat": 38.910267166666664, "bike_id": "3ee489db94025887baa8c9d6277451c4", "type": "electric_scooter", "is_reserved": 0, "lon": -77.00758266666666}, {"fusion_lat": 0.0, "name": "1b6c128382092b11db0bd57859ba68ef", "is_disabled": 0, "rental_uris": {"android": "https://dc.lft.to/lastmile_qr_scan", "ios": "https://dc.lft.to/lastmile_qr_scan"}, "fusion_lon": 0.0, "lat": 38.90676916666666, "bike_id": "1b6c128382092b11db0bd57859ba68ef", "type": "electric_scooter", "is_reserved": 0, "lon": -77.02266133333333}, {"fusion_lat": 0.0, "name": "774cf167b3ab8267becff5e5eab8118e", "is_disabled": 0, "rental_uris": {"android": "https://dc.lft.to/lastmile_qr_scan", "ios": "https://dc.lft.to/lastmile_qr_scan"}, "fusion_lon": 0.0, "lat": 38.80294966666666, "bike_id": "774cf167b3ab8267becff5e5eab8118e", "type": "electric_bike", "is_reserved": 0, "lon": -77.05935716666667}, {"fusion_lat": 0.0, "name": "b040910e9b030feaa0cbc65ecfee3580", "is_disabled": 0, "rental_uris": {"android": "https://dc.lft.to/lastmile_qr_scan", "ios": "https://dc.lft.to/lastmile_qr_scan"}, "fusion_lon": 0.0, "lat": 38.961245166666664, "bike_id": "b040910e9b030feaa0cbc65ecfee3580", "type": "electric_bike", "is_reserved": 0, "lon": -77.03274966666666}, {"fusion_lat": 0.0, "name": "4c0acb38c1ee0434049fab0f44c91a48", "is_disabled": 0, "rental_uris": {"android": "https://dc.lft.to/lastmile_qr_scan", "ios": "https://dc.lft.to/lastmile_qr_scan"}, "fusion_lon": 0.0, "lat": 38.9274305, "bike_id": "4c0acb38c1ee0434049fab0f44c91a48", "type": "electric_scooter", "is_reserved": 0, "lon": -77.042149}, {"fusion_lat": 0.0, "name": "cb9576efd37fccc7861569951f0ed7b2", "is_disabled": 0, "rental_uris": {"android": "https://dc.lft.to/lastmile_qr_scan", "ios": "https://dc.lft.to/lastmile_qr_scan"}, "fusion_lon": 0.0, "lat": 38.89684416666667, "bike_id": "cb9576efd37fccc7861569951f0ed7b2", "type": "electric_scooter", "is_reserved": 0, "lon": -76.937106}, {"fusion_lat": 0.0, "name": "e07e66f9b4fca85a9f63199fd39e0242", "is_disabled": 0, "rental_uris": {"android": "https://dc.lft.to/lastmile_qr_scan", "ios": "https://dc.lft.to/lastmile_qr_scan"}, "fusion_lon": 0.0, "lat": 38.90431266666667, "bike_id": "e07e66f9b4fca85a9f63199fd39e0242", "type": "electric_scooter", "is_reserved": 0, "lon": -77.04333633333333}, {"fusion_lat": 0.0, "name": "7bd292616897ea2409ff2516b3d31859", "is_disabled": 0, "rental_uris": {"android": "https://dc.lft.to/lastmile_qr_scan", "ios": "https://dc.lft.to/lastmile_qr_scan"}, "fusion_lon": 0.0, "lat": 38.927083333333336, "bike_id": "7bd292616897ea2409ff2516b3d31859", "type": "electric_scooter", "is_reserved": 0, "lon": -77.037628}, {"fusion_lat": 0.0, "name": "c2f6b1d7c4676547f5980c2892dfafc9", "is_disabled": 0, "rental_uris": {"android": "https://dc.lft.to/lastmile_qr_scan", "ios": "https://dc.lft.to/lastmile_qr_scan"}, "fusion_lon": 0.0, "lat": 38.906180166666665, "bike_id": "c2f6b1d7c4676547f5980c2892dfafc9", "type": "electric_scooter", "is_reserved": 0, "lon": -77.02408866666667}, {"fusion_lat": 0.0, "name": "f4538fb7e0ed782091c0ed384043a201", "is_disabled": 0, "rental_uris": {"android": "https://dc.lft.to/lastmile_qr_scan", "ios": "https://dc.lft.to/lastmile_qr_scan"}, "fusion_lon": 0.0, "lat": 38.90625333333333, "bike_id": "f4538fb7e0ed782091c0ed384043a201", "type": "electric_scooter", "is_reserved": 0, "lon": -77.00907016666666}, {"fusion_lat": 0.0, "name": "cc792f21f3141fb5b7e3cd655f8f2b04", "is_disabled": 0, "rental_uris": {"android": "https://dc.lft.to/lastmile_qr_scan", "ios": "https://dc.lft.to/lastmile_qr_scan"}, "fusion_lon": 0.0, "lat": 38.884524, "bike_id": "cc792f21f3141fb5b7e3cd655f8f2b04", "type": "electric_scooter", "is_reserved": 0, "lon": -76.99841466666666}, {"fusion_lat": 0.0, "name": "c4dd30367e94951d56b0ce681b93b82c", "is_disabled": 0, "rental_uris": {"android": "https://dc.lft.to/lastmile_qr_scan", "ios": "https://dc.lft.to/lastmile_qr_scan"}, "fusion_lon": 0.0, "lat": 38.923350166666665, "bike_id": "c4dd30367e94951d56b0ce681b93b82c", "type": "electric_scooter", "is_reserved": 0, "lon": -77.05626116666667}, {"fusion_lat": 0.0, "name": "9b185c095433241995e5e135eac31c0a", "is_disabled": 0, "rental_uris": {"android": "https://dc.lft.to/lastmile_qr_scan", "ios": "https://dc.lft.to/lastmile_qr_scan"}, "fusion_lon": 0.0, "lat": 38.900253166666666, "bike_id": "9b185c095433241995e5e135eac31c0a", "type": "electric_scooter", "is_reserved": 0, "lon": -77.0120445}, {"fusion_lat": 0.0, "name": "6775b29504db82bc546be5d88c7641ba", "is_disabled": 0, "rental_uris": {"android": "https://dc.lft.to/lastmile_qr_scan", "ios": "https://dc.lft.to/lastmile_qr_scan"}, "fusion_lon": 0.0, "lat": 38.903977833333336, "bike_id": "6775b29504db82bc546be5d88c7641ba", "type": "electric_scooter", "is_reserved": 0, "lon": -77.05021316666667}, {"fusion_lat": 0.0, "name": "bdb96df6d1c461ac59c0a1baee1f07f5", "is_disabled": 0, "rental_uris": {"android": "https://dc.lft.to/lastmile_qr_scan", "ios": "https://dc.lft.to/lastmile_qr_scan"}, "fusion_lon": 0.0, "lat": 38.93934733333333, "bike_id": "bdb96df6d1c461ac59c0a1baee1f07f5", "type": "electric_scooter", "is_reserved": 0, "lon": -77.0748135}, {"fusion_lat": 0.0, "name": "50af1870379527b015cc2f7a0188c0d2", "is_disabled": 0, "rental_uris": {"android": "https://dc.lft.to/lastmile_qr_scan", "ios": "https://dc.lft.to/lastmile_qr_scan"}, "fusion_lon": 0.0, "lat": 38.804446666666664, "bike_id": "50af1870379527b015cc2f7a0188c0d2", "type": "electric_bike", "is_reserved": 0, "lon": -77.13225016666667}, {"fusion_lat": 0.0, "name": "d02dc04244d515774953261a47e0a9a4", "is_disabled": 0, "rental_uris": {"android": "https://dc.lft.to/lastmile_qr_scan", "ios": "https://dc.lft.to/lastmile_qr_scan"}, "fusion_lon": 0.0, "lat": 38.9070135, "bike_id": "d02dc04244d515774953261a47e0a9a4", "type": "electric_scooter", "is_reserved": 0, "lon": -77.065225}, {"fusion_lat": 0.0, "name": "6b425d5a45d9777dec846d79ffcf68aa", "is_disabled": 0, "rental_uris": {"android": "https://dc.lft.to/lastmile_qr_scan", "ios": "https://dc.lft.to/lastmile_qr_scan"}, "fusion_lon": 0.0, "lat": 38.918202, "bike_id": "6b425d5a45d9777dec846d79ffcf68aa", "type": "electric_scooter", "is_reserved": 0, "lon": -77.02612666666667}, {"fusion_lat": 0.0, "name": "370806376ed2e2fb182292d5002c8b8d", "is_disabled": 0, "rental_uris": {"android": "https://dc.lft.to/lastmile_qr_scan", "ios": "https://dc.lft.to/lastmile_qr_scan"}, "fusion_lon": 0.0, "lat": 38.9173275, "bike_id": "370806376ed2e2fb182292d5002c8b8d", "type": "electric_scooter", "is_reserved": 0, "lon": -77.03660766666667}, {"fusion_lat": 0.0, "name": "8ce45b8ccce3f77c84a3cb1b5c0100c7", "is_disabled": 0, "rental_uris": {"android": "https://dc.lft.to/lastmile_qr_scan", "ios": "https://dc.lft.to/lastmile_qr_scan"}, "fusion_lon": 0.0, "lat": 38.923853666666666, "bike_id": "8ce45b8ccce3f77c84a3cb1b5c0100c7", "type": "electric_scooter", "is_reserved": 0, "lon": -77.0402765}, {"fusion_lat": 0.0, "name": "d283b832f1150e98049f8a5f3d45f71b", "is_disabled": 0, "rental_uris": {"android": "https://dc.lft.to/lastmile_qr_scan", "ios": "https://dc.lft.to/lastmile_qr_scan"}, "fusion_lon": 0.0, "lat": 38.909577166666665, "bike_id": "d283b832f1150e98049f8a5f3d45f71b", "type": "electric_scooter", "is_reserved": 0, "lon": -77.0485995}, {"fusion_lat": 0.0, "name": "9b6941f5830a3d2cb7133f9f06463ef1", "is_disabled": 0, "rental_uris": {"android": "https://dc.lft.to/lastmile_qr_scan", "ios": "https://dc.lft.to/lastmile_qr_scan"}, "fusion_lon": 0.0, "lat": 38.901415166666666, "bike_id": "9b6941f5830a3d2cb7133f9f06463ef1", "type": "electric_scooter", "is_reserved": 0, "lon": -76.986489}, {"fusion_lat": 0.0, "name": "160705debde893d006376bad9df8378c", "is_disabled": 0, "rental_uris": {"android": "https://dc.lft.to/lastmile_qr_scan", "ios": "https://dc.lft.to/lastmile_qr_scan"}, "fusion_lon": 0.0, "lat": 38.927460833333335, "bike_id": "160705debde893d006376bad9df8378c", "type": "electric_scooter", "is_reserved": 0, "lon": -77.03638466666666}, {"fusion_lat": 0.0, "name": "5cc94acbf6fc6a5ca7afd58077edf904", "is_disabled": 0, "rental_uris": {"android": "https://dc.lft.to/lastmile_qr_scan", "ios": "https://dc.lft.to/lastmile_qr_scan"}, "fusion_lon": 0.0, "lat": 38.913997, "bike_id": "5cc94acbf6fc6a5ca7afd58077edf904", "type": "electric_scooter", "is_reserved": 0, "lon": -77.03857216666667}, {"fusion_lat": 0.0, "name": "da3bd5b966dc227178484f288c40bbcf", "is_disabled": 0, "rental_uris": {"android": "https://dc.lft.to/lastmile_qr_scan", "ios": "https://dc.lft.to/lastmile_qr_scan"}, "fusion_lon": 0.0, "lat": 38.9533495, "bike_id": "da3bd5b966dc227178484f288c40bbcf", "type": "electric_bike", "is_reserved": 0, "lon": -76.982532}, {"fusion_lat": 0.0, "name": "73df9a04b14b1b705c7c56235c5cb6db", "is_disabled": 0, "rental_uris": {"android": "https://dc.lft.to/lastmile_qr_scan", "ios": "https://dc.lft.to/lastmile_qr_scan"}, "fusion_lon": 0.0, "lat": 38.874649, "bike_id": "73df9a04b14b1b705c7c56235c5cb6db", "type": "electric_scooter", "is_reserved": 0, "lon": -77.00039933333333}, {"fusion_lat": 0.0, "name": "9997d49910ca670251975f03f9795957", "is_disabled": 0, "rental_uris": {"android": "https://dc.lft.to/lastmile_qr_scan", "ios": "https://dc.lft.to/lastmile_qr_scan"}, "fusion_lon": 0.0, "lat": 38.92615766666667, "bike_id": "9997d49910ca670251975f03f9795957", "type": "electric_scooter", "is_reserved": 0, "lon": -77.04326966666666}, {"fusion_lat": 0.0, "name": "420098babd29f681c918dc71fe1544d3", "is_disabled": 0, "rental_uris": {"android": "https://dc.lft.to/lastmile_qr_scan", "ios": "https://dc.lft.to/lastmile_qr_scan"}, "fusion_lon": 0.0, "lat": 38.89516833333333, "bike_id": "420098babd29f681c918dc71fe1544d3", "type": "electric_scooter", "is_reserved": 0, "lon": -76.99954116666666}, {"fusion_lat": 0.0, "name": "e54581c0f0b763dd4adabd7591e6fcc2", "is_disabled": 0, "rental_uris": {"android": "https://dc.lft.to/lastmile_qr_scan", "ios": "https://dc.lft.to/lastmile_qr_scan"}, "fusion_lon": 0.0, "lat": 38.94203816666667, "bike_id": "e54581c0f0b763dd4adabd7591e6fcc2", "type": "electric_scooter", "is_reserved": 0, "lon": -77.02590783333333}, {"fusion_lat": 0.0, "name": "9bb1578006ceeb0b4c9f853c65fb582e", "is_disabled": 0, "rental_uris": {"android": "https://dc.lft.to/lastmile_qr_scan", "ios": "https://dc.lft.to/lastmile_qr_scan"}, "fusion_lon": 0.0, "lat": 38.83934566666667, "bike_id": "9bb1578006ceeb0b4c9f853c65fb582e", "type": "electric_bike", "is_reserved": 0, "lon": -77.0790295}, {"fusion_lat": 0.0, "name": "408f6d6e5894e4147729092343bdb256", "is_disabled": 0, "rental_uris": {"android": "https://dc.lft.to/lastmile_qr_scan", "ios": "https://dc.lft.to/lastmile_qr_scan"}, "fusion_lon": 0.0, "lat": 38.97882533333333, "bike_id": "408f6d6e5894e4147729092343bdb256", "type": "electric_bike", "is_reserved": 0, "lon": -77.060279}, {"fusion_lat": 0.0, "name": "f847b7ec000ba84b53a50cffe073df42", "is_disabled": 0, "rental_uris": {"android": "https://dc.lft.to/lastmile_qr_scan", "ios": "https://dc.lft.to/lastmile_qr_scan"}, "fusion_lon": 0.0, "lat": 38.910658, "bike_id": "f847b7ec000ba84b53a50cffe073df42", "type": "electric_scooter", "is_reserved": 0, "lon": -77.03663316666666}, {"fusion_lat": 0.0, "name": "358482d7fbe418223bbccb47ac5ea658", "is_disabled": 0, "rental_uris": {"android": "https://dc.lft.to/lastmile_qr_scan", "ios": "https://dc.lft.to/lastmile_qr_scan"}, "fusion_lon": 0.0, "lat": 38.9352405, "bike_id": "358482d7fbe418223bbccb47ac5ea658", "type": "electric_scooter", "is_reserved": 0, "lon": -77.07262333333334}, {"fusion_lat": 0.0, "name": "00318d4b4b4f01e0cbf3f770dc532582", "is_disabled": 0, "rental_uris": {"android": "https://dc.lft.to/lastmile_qr_scan", "ios": "https://dc.lft.to/lastmile_qr_scan"}, "fusion_lon": 0.0, "lat": 38.914714333333336, "bike_id": "00318d4b4b4f01e0cbf3f770dc532582", "type": "electric_scooter", "is_reserved": 0, "lon": -77.02405333333333}, {"fusion_lat": 0.0, "name": "8c5ea0ec42f06e52b51fbddcd355a432", "is_disabled": 0, "rental_uris": {"android": "https://dc.lft.to/lastmile_qr_scan", "ios": "https://dc.lft.to/lastmile_qr_scan"}, "fusion_lon": 0.0, "lat": 38.89853566666667, "bike_id": "8c5ea0ec42f06e52b51fbddcd355a432", "type": "electric_scooter", "is_reserved": 0, "lon": -76.99033733333333}, {"fusion_lat": 0.0, "name": "b12282f9e09974ac128f4d0517a4dcec", "is_disabled": 0, "rental_uris": {"android": "https://dc.lft.to/lastmile_qr_scan", "ios": "https://dc.lft.to/lastmile_qr_scan"}, "fusion_lon": 0.0, "lat": 38.88327683333333, "bike_id": "b12282f9e09974ac128f4d0517a4dcec", "type": "electric_scooter", "is_reserved": 0, "lon": -77.0174945}, {"fusion_lat": 0.0, "name": "1fc416a96529f25e5275cd327efdaa92", "is_disabled": 0, "rental_uris": {"android": "https://dc.lft.to/lastmile_qr_scan", "ios": "https://dc.lft.to/lastmile_qr_scan"}, "fusion_lon": 0.0, "lat": 38.918130166666664, "bike_id": "1fc416a96529f25e5275cd327efdaa92", "type": "electric_scooter", "is_reserved": 0, "lon": -77.037198}, {"fusion_lat": 0.0, "name": "da89b563237ffc5ef0e0b809532271a8", "is_disabled": 0, "rental_uris": {"android": "https://dc.lft.to/lastmile_qr_scan", "ios": "https://dc.lft.to/lastmile_qr_scan"}, "fusion_lon": 0.0, "lat": 38.898760333333335, "bike_id": "da89b563237ffc5ef0e0b809532271a8", "type": "electric_scooter", "is_reserved": 0, "lon": -76.93185416666667}, {"fusion_lat": 0.0, "name": "82ead0141ee4c5cbd65a570e6c061d66", "is_disabled": 0, "rental_uris": {"android": "https://dc.lft.to/lastmile_qr_scan", "ios": "https://dc.lft.to/lastmile_qr_scan"}, "fusion_lon": 0.0, "lat": 38.847592166666665, "bike_id": "82ead0141ee4c5cbd65a570e6c061d66", "type": "electric_scooter", "is_reserved": 0, "lon": -76.99499616666667}, {"fusion_lat": 0.0, "name": "f83643ba60dba695ac2b1c73ffc45fa8", "is_disabled": 0, "rental_uris": {"android": "https://dc.lft.to/lastmile_qr_scan", "ios": "https://dc.lft.to/lastmile_qr_scan"}, "fusion_lon": 0.0, "lat": 38.902453, "bike_id": "f83643ba60dba695ac2b1c73ffc45fa8", "type": "electric_scooter", "is_reserved": 0, "lon": -77.00770583333333}, {"fusion_lat": 0.0, "name": "a2645d244814ef7f8fffef5f6310d8d1", "is_disabled": 0, "rental_uris": {"android": "https://dc.lft.to/lastmile_qr_scan", "ios": "https://dc.lft.to/lastmile_qr_scan"}, "fusion_lon": 0.0, "lat": 38.89717366666667, "bike_id": "a2645d244814ef7f8fffef5f6310d8d1", "type": "electric_scooter", "is_reserved": 0, "lon": -77.026977}, {"fusion_lat": 0.0, "name": "4932f132efd8084c1fb1c61e8144da3c", "is_disabled": 0, "rental_uris": {"android": "https://dc.lft.to/lastmile_qr_scan", "ios": "https://dc.lft.to/lastmile_qr_scan"}, "fusion_lon": 0.0, "lat": 38.93367116666667, "bike_id": "4932f132efd8084c1fb1c61e8144da3c", "type": "electric_scooter", "is_reserved": 0, "lon": -77.0241555}, {"fusion_lat": 0.0, "name": "13c76f3ff11a4b56cf3f247a075887c9", "is_disabled": 0, "rental_uris": {"android": "https://dc.lft.to/lastmile_qr_scan", "ios": "https://dc.lft.to/lastmile_qr_scan"}, "fusion_lon": 0.0, "lat": 39.05255366666667, "bike_id": "13c76f3ff11a4b56cf3f247a075887c9", "type": "electric_bike", "is_reserved": 0, "lon": -77.0806925}, {"fusion_lat": 0.0, "name": "90988330da7ab353d1fd2957c3a52ac0", "is_disabled": 0, "rental_uris": {"android": "https://dc.lft.to/lastmile_qr_scan", "ios": "https://dc.lft.to/lastmile_qr_scan"}, "fusion_lon": 0.0, "lat": 38.933848833333336, "bike_id": "90988330da7ab353d1fd2957c3a52ac0", "type": "electric_scooter", "is_reserved": 0, "lon": -77.03881566666666}, {"fusion_lat": 0.0, "name": "13102a676c7c858465f431dc755708c1", "is_disabled": 0, "rental_uris": {"android": "https://dc.lft.to/lastmile_qr_scan", "ios": "https://dc.lft.to/lastmile_qr_scan"}, "fusion_lon": 0.0, "lat": 38.93855516666667, "bike_id": "13102a676c7c858465f431dc755708c1", "type": "electric_scooter", "is_reserved": 0, "lon": -77.02451583333334}, {"fusion_lat": 0.0, "name": "0c7bfdf65fce422478b23afac6ca4042", "is_disabled": 0, "rental_uris": {"android": "https://dc.lft.to/lastmile_qr_scan", "ios": "https://dc.lft.to/lastmile_qr_scan"}, "fusion_lon": 0.0, "lat": 38.89688783333333, "bike_id": "0c7bfdf65fce422478b23afac6ca4042", "type": "electric_scooter", "is_reserved": 0, "lon": -77.043309}, {"fusion_lat": 0.0, "name": "3965b8d44055e20abbc57b480a92c0ec", "is_disabled": 0, "rental_uris": {"android": "https://dc.lft.to/lastmile_qr_scan", "ios": "https://dc.lft.to/lastmile_qr_scan"}, "fusion_lon": 0.0, "lat": 38.88123233333334, "bike_id": "3965b8d44055e20abbc57b480a92c0ec", "type": "electric_scooter", "is_reserved": 0, "lon": -77.01674283333334}, {"fusion_lat": 0.0, "name": "5249e23a3a5ec683b79deb61a35910f9", "is_disabled": 0, "rental_uris": {"android": "https://dc.lft.to/lastmile_qr_scan", "ios": "https://dc.lft.to/lastmile_qr_scan"}, "fusion_lon": 0.0, "lat": 38.878491, "bike_id": "5249e23a3a5ec683b79deb61a35910f9", "type": "electric_bike", "is_reserved": 0, "lon": -77.03017333333334}, {"fusion_lat": 0.0, "name": "24c825d9e5166112b5f45deb861355c5", "is_disabled": 0, "rental_uris": {"android": "https://dc.lft.to/lastmile_qr_scan", "ios": "https://dc.lft.to/lastmile_qr_scan"}, "fusion_lon": 0.0, "lat": 38.920764, "bike_id": "24c825d9e5166112b5f45deb861355c5", "type": "electric_scooter", "is_reserved": 0, "lon": -77.00444366666666}, {"fusion_lat": 0.0, "name": "4fb7b87e2f9a00c709b72a13ca6c8105", "is_disabled": 0, "rental_uris": {"android": "https://dc.lft.to/lastmile_qr_scan", "ios": "https://dc.lft.to/lastmile_qr_scan"}, "fusion_lon": 0.0, "lat": 38.91616483333333, "bike_id": "4fb7b87e2f9a00c709b72a13ca6c8105", "type": "electric_scooter", "is_reserved": 0, "lon": -77.03645566666667}, {"fusion_lat": 0.0, "name": "3b504d3548d4a9e8ec7cd808c5228e0e", "is_disabled": 0, "rental_uris": {"android": "https://dc.lft.to/lastmile_qr_scan", "ios": "https://dc.lft.to/lastmile_qr_scan"}, "fusion_lon": 0.0, "lat": 38.87476683333333, "bike_id": "3b504d3548d4a9e8ec7cd808c5228e0e", "type": "electric_scooter", "is_reserved": 0, "lon": -77.00047633333334}, {"fusion_lat": 0.0, "name": "cfc7bc4b02c3de205f8379c0cd777807", "is_disabled": 0, "rental_uris": {"android": "https://dc.lft.to/lastmile_qr_scan", "ios": "https://dc.lft.to/lastmile_qr_scan"}, "fusion_lon": 0.0, "lat": 38.903774, "bike_id": "cfc7bc4b02c3de205f8379c0cd777807", "type": "electric_scooter", "is_reserved": 0, "lon": -77.04602416666667}, {"fusion_lat": 0.0, "name": "725f149b7dbbe0ac74d56bfb5ae97500", "is_disabled": 0, "rental_uris": {"android": "https://dc.lft.to/lastmile_qr_scan", "ios": "https://dc.lft.to/lastmile_qr_scan"}, "fusion_lon": 0.0, "lat": 38.910456833333335, "bike_id": "725f149b7dbbe0ac74d56bfb5ae97500", "type": "electric_scooter", "is_reserved": 0, "lon": -77.00833383333334}, {"fusion_lat": 0.0, "name": "cf396714fc75b524ea2924f412a159c7", "is_disabled": 0, "rental_uris": {"android": "https://dc.lft.to/lastmile_qr_scan", "ios": "https://dc.lft.to/lastmile_qr_scan"}, "fusion_lon": 0.0, "lat": 38.9529755, "bike_id": "cf396714fc75b524ea2924f412a159c7", "type": "electric_scooter", "is_reserved": 0, "lon": -77.0687995}, {"fusion_lat": 0.0, "name": "7886e79fb776a11fe04c4cc68081a317", "is_disabled": 0, "rental_uris": {"android": "https://dc.lft.to/lastmile_qr_scan", "ios": "https://dc.lft.to/lastmile_qr_scan"}, "fusion_lon": 0.0, "lat": 38.92540366666667, "bike_id": "7886e79fb776a11fe04c4cc68081a317", "type": "electric_scooter", "is_reserved": 0, "lon": -77.03824266666666}, {"fusion_lat": 0.0, "name": "690e7d2816091193fbbf1d27ec0be534", "is_disabled": 0, "rental_uris": {"android": "https://dc.lft.to/lastmile_qr_scan", "ios": "https://dc.lft.to/lastmile_qr_scan"}, "fusion_lon": 0.0, "lat": 38.938748333333336, "bike_id": "690e7d2816091193fbbf1d27ec0be534", "type": "electric_scooter", "is_reserved": 0, "lon": -77.024783}, {"fusion_lat": 0.0, "name": "086b332e14963d0b7f63911aa89e45cd", "is_disabled": 0, "rental_uris": {"android": "https://dc.lft.to/lastmile_qr_scan", "ios": "https://dc.lft.to/lastmile_qr_scan"}, "fusion_lon": 0.0, "lat": 38.89794533333333, "bike_id": "086b332e14963d0b7f63911aa89e45cd", "type": "electric_scooter", "is_reserved": 0, "lon": -77.01199383333334}, {"fusion_lat": 0.0, "name": "794bb9b8f9349495a91a17db84c0e766", "is_disabled": 0, "rental_uris": {"android": "https://dc.lft.to/lastmile_qr_scan", "ios": "https://dc.lft.to/lastmile_qr_scan"}, "fusion_lon": 0.0, "lat": 38.90092683333334, "bike_id": "794bb9b8f9349495a91a17db84c0e766", "type": "electric_scooter", "is_reserved": 0, "lon": -76.983316}, {"fusion_lat": 0.0, "name": "b8ca82e7d7def27003d39685db004b5a", "is_disabled": 0, "rental_uris": {"android": "https://dc.lft.to/lastmile_qr_scan", "ios": "https://dc.lft.to/lastmile_qr_scan"}, "fusion_lon": 0.0, "lat": 38.928956, "bike_id": "b8ca82e7d7def27003d39685db004b5a", "type": "electric_bike", "is_reserved": 0, "lon": -77.23181983333333}, {"fusion_lat": 0.0, "name": "2432811b0c56bf39244a1d690ab87f58", "is_disabled": 0, "rental_uris": {"android": "https://dc.lft.to/lastmile_qr_scan", "ios": "https://dc.lft.to/lastmile_qr_scan"}, "fusion_lon": 0.0, "lat": 38.9358205, "bike_id": "2432811b0c56bf39244a1d690ab87f58", "type": "electric_scooter", "is_reserved": 0, "lon": -77.0284375}, {"fusion_lat": 0.0, "name": "36209f5b489f604591d3656692e83534", "is_disabled": 0, "rental_uris": {"android": "https://dc.lft.to/lastmile_qr_scan", "ios": "https://dc.lft.to/lastmile_qr_scan"}, "fusion_lon": 0.0, "lat": 38.95223333333333, "bike_id": "36209f5b489f604591d3656692e83534", "type": "electric_scooter", "is_reserved": 0, "lon": -77.08218783333334}, {"fusion_lat": 0.0, "name": "14e35fbf574205678c467d6ab6441450", "is_disabled": 0, "rental_uris": {"android": "https://dc.lft.to/lastmile_qr_scan", "ios": "https://dc.lft.to/lastmile_qr_scan"}, "fusion_lon": 0.0, "lat": 38.882202666666664, "bike_id": "14e35fbf574205678c467d6ab6441450", "type": "electric_scooter", "is_reserved": 0, "lon": -77.02939083333334}, {"fusion_lat": 0.0, "name": "699f287e3d080950b5167b684ad34812", "is_disabled": 0, "rental_uris": {"android": "https://dc.lft.to/lastmile_qr_scan", "ios": "https://dc.lft.to/lastmile_qr_scan"}, "fusion_lon": 0.0, "lat": 38.9198925, "bike_id": "699f287e3d080950b5167b684ad34812", "type": "electric_scooter", "is_reserved": 0, "lon": -77.07190866666667}, {"fusion_lat": 0.0, "name": "de03ee87184fb6f727e273d30a4c016f", "is_disabled": 0, "rental_uris": {"android": "https://dc.lft.to/lastmile_qr_scan", "ios": "https://dc.lft.to/lastmile_qr_scan"}, "fusion_lon": 0.0, "lat": 38.94855066666667, "bike_id": "de03ee87184fb6f727e273d30a4c016f", "type": "electric_scooter", "is_reserved": 0, "lon": -77.02567866666666}, {"fusion_lat": 0.0, "name": "1d40dd878864f40eee8d805553743e27", "is_disabled": 0, "rental_uris": {"android": "https://dc.lft.to/lastmile_qr_scan", "ios": "https://dc.lft.to/lastmile_qr_scan"}, "fusion_lon": 0.0, "lat": 38.8829905, "bike_id": "1d40dd878864f40eee8d805553743e27", "type": "electric_scooter", "is_reserved": 0, "lon": -76.94853566666667}, {"fusion_lat": 0.0, "name": "2b8b04eb2beb83baa242ced524feb34c", "is_disabled": 0, "rental_uris": {"android": "https://dc.lft.to/lastmile_qr_scan", "ios": "https://dc.lft.to/lastmile_qr_scan"}, "fusion_lon": 0.0, "lat": 38.81440933333333, "bike_id": "2b8b04eb2beb83baa242ced524feb34c", "type": "electric_bike", "is_reserved": 0, "lon": -77.03789633333334}, {"fusion_lat": 0.0, "name": "e1fe435bce8721cb794ad825d0aeb10f", "is_disabled": 0, "rental_uris": {"android": "https://dc.lft.to/lastmile_qr_scan", "ios": "https://dc.lft.to/lastmile_qr_scan"}, "fusion_lon": 0.0, "lat": 38.85428916666667, "bike_id": "e1fe435bce8721cb794ad825d0aeb10f", "type": "electric_bike", "is_reserved": 0, "lon": -77.12077433333333}, {"fusion_lat": 0.0, "name": "153c59152456acd0b9a149a4fa14b189", "is_disabled": 0, "rental_uris": {"android": "https://dc.lft.to/lastmile_qr_scan", "ios": "https://dc.lft.to/lastmile_qr_scan"}, "fusion_lon": 0.0, "lat": 38.9125955, "bike_id": "153c59152456acd0b9a149a4fa14b189", "type": "electric_scooter", "is_reserved": 0, "lon": -77.00627583333333}, {"fusion_lat": 0.0, "name": "40953abafe8b7544de07323ebe22520e", "is_disabled": 0, "rental_uris": {"android": "https://dc.lft.to/lastmile_qr_scan", "ios": "https://dc.lft.to/lastmile_qr_scan"}, "fusion_lon": 0.0, "lat": 38.920837166666665, "bike_id": "40953abafe8b7544de07323ebe22520e", "type": "electric_scooter", "is_reserved": 0, "lon": -76.99446616666667}, {"fusion_lat": 0.0, "name": "07d56d6c8f93cfecea35502ba86ff43d", "is_disabled": 0, "rental_uris": {"android": "https://dc.lft.to/lastmile_qr_scan", "ios": "https://dc.lft.to/lastmile_qr_scan"}, "fusion_lon": 0.0, "lat": 38.92423183333333, "bike_id": "07d56d6c8f93cfecea35502ba86ff43d", "type": "electric_scooter", "is_reserved": 0, "lon": -77.02542783333334}, {"fusion_lat": 0.0, "name": "75bf5e88ef21f65d9e0758cde349c212", "is_disabled": 0, "rental_uris": {"android": "https://dc.lft.to/lastmile_qr_scan", "ios": "https://dc.lft.to/lastmile_qr_scan"}, "fusion_lon": 0.0, "lat": 38.9315095, "bike_id": "75bf5e88ef21f65d9e0758cde349c212", "type": "electric_scooter", "is_reserved": 0, "lon": -77.0395805}, {"fusion_lat": 0.0, "name": "6870156f9528d1171efd6091c64e4d55", "is_disabled": 0, "rental_uris": {"android": "https://dc.lft.to/lastmile_qr_scan", "ios": "https://dc.lft.to/lastmile_qr_scan"}, "fusion_lon": 0.0, "lat": 38.90454533333333, "bike_id": "6870156f9528d1171efd6091c64e4d55", "type": "electric_scooter", "is_reserved": 0, "lon": -77.001613}, {"fusion_lat": 0.0, "name": "5de11d363bf4743d8b7eaa50881a1e11", "is_disabled": 0, "rental_uris": {"android": "https://dc.lft.to/lastmile_qr_scan", "ios": "https://dc.lft.to/lastmile_qr_scan"}, "fusion_lon": 0.0, "lat": 38.91163383333333, "bike_id": "5de11d363bf4743d8b7eaa50881a1e11", "type": "electric_scooter", "is_reserved": 0, "lon": -77.01995866666667}, {"fusion_lat": 0.0, "name": "c1aff923ffce71c5b825b8499a287044", "is_disabled": 0, "rental_uris": {"android": "https://dc.lft.to/lastmile_qr_scan", "ios": "https://dc.lft.to/lastmile_qr_scan"}, "fusion_lon": 0.0, "lat": 38.89607983333333, "bike_id": "c1aff923ffce71c5b825b8499a287044", "type": "electric_scooter", "is_reserved": 0, "lon": -77.02531366666666}, {"fusion_lat": 0.0, "name": "7afb28c4a65731e8bbf1adc120810c38", "is_disabled": 0, "rental_uris": {"android": "https://dc.lft.to/lastmile_qr_scan", "ios": "https://dc.lft.to/lastmile_qr_scan"}, "fusion_lon": 0.0, "lat": 38.88535233333333, "bike_id": "7afb28c4a65731e8bbf1adc120810c38", "type": "electric_scooter", "is_reserved": 0, "lon": -77.01526116666666}, {"fusion_lat": 0.0, "name": "a8b3ecf6213d731dcbe3fd6abb5c82b3", "is_disabled": 0, "rental_uris": {"android": "https://dc.lft.to/lastmile_qr_scan", "ios": "https://dc.lft.to/lastmile_qr_scan"}, "fusion_lon": 0.0, "lat": 38.89997416666667, "bike_id": "a8b3ecf6213d731dcbe3fd6abb5c82b3", "type": "electric_scooter", "is_reserved": 0, "lon": -77.00649533333333}, {"fusion_lat": 0.0, "name": "aca083c4c69b7019c6d8e11bfb52c1db", "is_disabled": 0, "rental_uris": {"android": "https://dc.lft.to/lastmile_qr_scan", "ios": "https://dc.lft.to/lastmile_qr_scan"}, "fusion_lon": 0.0, "lat": 38.93255033333333, "bike_id": "aca083c4c69b7019c6d8e11bfb52c1db", "type": "electric_scooter", "is_reserved": 0, "lon": -77.04003816666666}, {"fusion_lat": 0.0, "name": "ae693960a5c0a07c961e8c96acd9f30c", "is_disabled": 0, "rental_uris": {"android": "https://dc.lft.to/lastmile_qr_scan", "ios": "https://dc.lft.to/lastmile_qr_scan"}, "fusion_lon": 0.0, "lat": 38.8968, "bike_id": "ae693960a5c0a07c961e8c96acd9f30c", "type": "electric_scooter", "is_reserved": 0, "lon": -77.00788683333333}, {"fusion_lat": 0.0, "name": "f11703bad598ada1864ac4c9f4cfdf51", "is_disabled": 0, "rental_uris": {"android": "https://dc.lft.to/lastmile_qr_scan", "ios": "https://dc.lft.to/lastmile_qr_scan"}, "fusion_lon": 0.0, "lat": 38.904293, "bike_id": "f11703bad598ada1864ac4c9f4cfdf51", "type": "electric_scooter", "is_reserved": 0, "lon": -76.9497475}, {"fusion_lat": 0.0, "name": "19108293818a84c76efe0be514602d80", "is_disabled": 0, "rental_uris": {"android": "https://dc.lft.to/lastmile_qr_scan", "ios": "https://dc.lft.to/lastmile_qr_scan"}, "fusion_lon": 0.0, "lat": 38.92492416666666, "bike_id": "19108293818a84c76efe0be514602d80", "type": "electric_scooter", "is_reserved": 0, "lon": -77.05759016666667}, {"fusion_lat": 0.0, "name": "981b5af323c664509a1eb4db6938a2bf", "is_disabled": 0, "rental_uris": {"android": "https://dc.lft.to/lastmile_qr_scan", "ios": "https://dc.lft.to/lastmile_qr_scan"}, "fusion_lon": 0.0, "lat": 38.940801666666665, "bike_id": "981b5af323c664509a1eb4db6938a2bf", "type": "electric_scooter", "is_reserved": 0, "lon": -77.02388383333333}, {"fusion_lat": 0.0, "name": "63b14d09cc6a6f4eabfac953e130e23b", "is_disabled": 0, "rental_uris": {"android": "https://dc.lft.to/lastmile_qr_scan", "ios": "https://dc.lft.to/lastmile_qr_scan"}, "fusion_lon": 0.0, "lat": 38.90961016666667, "bike_id": "63b14d09cc6a6f4eabfac953e130e23b", "type": "electric_scooter", "is_reserved": 0, "lon": -77.01037666666667}, {"fusion_lat": 0.0, "name": "3eb37665c02c3283583e268ecb0c24e3", "is_disabled": 0, "rental_uris": {"android": "https://dc.lft.to/lastmile_qr_scan", "ios": "https://dc.lft.to/lastmile_qr_scan"}, "fusion_lon": 0.0, "lat": 38.92822316666667, "bike_id": "3eb37665c02c3283583e268ecb0c24e3", "type": "electric_scooter", "is_reserved": 0, "lon": -77.02255366666667}, {"fusion_lat": 0.0, "name": "60119fbfb63514687c7c83ee96d27914", "is_disabled": 0, "rental_uris": {"android": "https://dc.lft.to/lastmile_qr_scan", "ios": "https://dc.lft.to/lastmile_qr_scan"}, "fusion_lon": 0.0, "lat": 38.9370215, "bike_id": "60119fbfb63514687c7c83ee96d27914", "type": "electric_scooter", "is_reserved": 0, "lon": -77.0559955}, {"fusion_lat": 0.0, "name": "56c4435ecae8f31bb7a56e652fe99c2b", "is_disabled": 0, "rental_uris": {"android": "https://dc.lft.to/lastmile_qr_scan", "ios": "https://dc.lft.to/lastmile_qr_scan"}, "fusion_lon": 0.0, "lat": 38.926251666666666, "bike_id": "56c4435ecae8f31bb7a56e652fe99c2b", "type": "electric_scooter", "is_reserved": 0, "lon": -77.05474816666667}, {"fusion_lat": 0.0, "name": "f15f7ce9bd03fb7ccf8c3028e8a887f0", "is_disabled": 0, "rental_uris": {"android": "https://dc.lft.to/lastmile_qr_scan", "ios": "https://dc.lft.to/lastmile_qr_scan"}, "fusion_lon": 0.0, "lat": 38.88764666666667, "bike_id": "f15f7ce9bd03fb7ccf8c3028e8a887f0", "type": "electric_scooter", "is_reserved": 0, "lon": -76.97740783333333}, {"fusion_lat": 0.0, "name": "1f6fb68ad662f48388e2e7e612c5e215", "is_disabled": 0, "rental_uris": {"android": "https://dc.lft.to/lastmile_qr_scan", "ios": "https://dc.lft.to/lastmile_qr_scan"}, "fusion_lon": 0.0, "lat": 38.901514, "bike_id": "1f6fb68ad662f48388e2e7e612c5e215", "type": "electric_scooter", "is_reserved": 0, "lon": -76.93065683333333}, {"fusion_lat": 0.0, "name": "644be994e091196dc11fd5dcc142ab21", "is_disabled": 0, "rental_uris": {"android": "https://dc.lft.to/lastmile_qr_scan", "ios": "https://dc.lft.to/lastmile_qr_scan"}, "fusion_lon": 0.0, "lat": 38.89751966666667, "bike_id": "644be994e091196dc11fd5dcc142ab21", "type": "electric_scooter", "is_reserved": 0, "lon": -77.0249735}, {"fusion_lat": 0.0, "name": "911b1e3b8c357eb2305253013c4f7423", "is_disabled": 0, "rental_uris": {"android": "https://dc.lft.to/lastmile_qr_scan", "ios": "https://dc.lft.to/lastmile_qr_scan"}, "fusion_lon": 0.0, "lat": 38.93771516666666, "bike_id": "911b1e3b8c357eb2305253013c4f7423", "type": "electric_scooter", "is_reserved": 0, "lon": -77.0328095}, {"fusion_lat": 0.0, "name": "ea4c079fa554e7a024a296db34399269", "is_disabled": 0, "rental_uris": {"android": "https://dc.lft.to/lastmile_qr_scan", "ios": "https://dc.lft.to/lastmile_qr_scan"}, "fusion_lon": 0.0, "lat": 38.93145783333333, "bike_id": "ea4c079fa554e7a024a296db34399269", "type": "electric_bike", "is_reserved": 0, "lon": -77.03832833333334}, {"fusion_lat": 0.0, "name": "3f7ac52dfd6a466a066514cc09eb61f7", "is_disabled": 0, "rental_uris": {"android": "https://dc.lft.to/lastmile_qr_scan", "ios": "https://dc.lft.to/lastmile_qr_scan"}, "fusion_lon": 0.0, "lat": 38.9094155, "bike_id": "3f7ac52dfd6a466a066514cc09eb61f7", "type": "electric_scooter", "is_reserved": 0, "lon": -77.01845083333333}, {"fusion_lat": 0.0, "name": "4876ddc75292b2672d920ea8503ab422", "is_disabled": 0, "rental_uris": {"android": "https://dc.lft.to/lastmile_qr_scan", "ios": "https://dc.lft.to/lastmile_qr_scan"}, "fusion_lon": 0.0, "lat": 38.90685033333333, "bike_id": "4876ddc75292b2672d920ea8503ab422", "type": "electric_bike", "is_reserved": 0, "lon": -76.94495116666667}, {"fusion_lat": 0.0, "name": "5114b8af2996aef4034cf3bb3fce49e3", "is_disabled": 0, "rental_uris": {"android": "https://dc.lft.to/lastmile_qr_scan", "ios": "https://dc.lft.to/lastmile_qr_scan"}, "fusion_lon": 0.0, "lat": 38.863732, "bike_id": "5114b8af2996aef4034cf3bb3fce49e3", "type": "electric_bike", "is_reserved": 0, "lon": -76.97002683333334}, {"fusion_lat": 0.0, "name": "b340649cc243711243ce558fa6f98216", "is_disabled": 0, "rental_uris": {"android": "https://dc.lft.to/lastmile_qr_scan", "ios": "https://dc.lft.to/lastmile_qr_scan"}, "fusion_lon": 0.0, "lat": 38.9056955, "bike_id": "b340649cc243711243ce558fa6f98216", "type": "electric_scooter", "is_reserved": 0, "lon": -77.02925783333333}, {"fusion_lat": 0.0, "name": "5f828b8e1c16ccda036f82b902883cd3", "is_disabled": 0, "rental_uris": {"android": "https://dc.lft.to/lastmile_qr_scan", "ios": "https://dc.lft.to/lastmile_qr_scan"}, "fusion_lon": 0.0, "lat": 38.88724216666667, "bike_id": "5f828b8e1c16ccda036f82b902883cd3", "type": "electric_scooter", "is_reserved": 0, "lon": -76.98356216666667}, {"fusion_lat": 0.0, "name": "833f6627725d5996a0cbaf9c862e66d5", "is_disabled": 0, "rental_uris": {"android": "https://dc.lft.to/lastmile_qr_scan", "ios": "https://dc.lft.to/lastmile_qr_scan"}, "fusion_lon": 0.0, "lat": 38.88530383333333, "bike_id": "833f6627725d5996a0cbaf9c862e66d5", "type": "electric_scooter", "is_reserved": 0, "lon": -77.01522683333333}, {"fusion_lat": 0.0, "name": "8644493ae0aa48ed60efd0d9de2b04fc", "is_disabled": 0, "rental_uris": {"android": "https://dc.lft.to/lastmile_qr_scan", "ios": "https://dc.lft.to/lastmile_qr_scan"}, "fusion_lon": 0.0, "lat": 38.899669, "bike_id": "8644493ae0aa48ed60efd0d9de2b04fc", "type": "electric_scooter", "is_reserved": 0, "lon": -76.98710233333334}, {"fusion_lat": 0.0, "name": "c975aa138d46ca0818dc0d29b783e30a", "is_disabled": 0, "rental_uris": {"android": "https://dc.lft.to/lastmile_qr_scan", "ios": "https://dc.lft.to/lastmile_qr_scan"}, "fusion_lon": 0.0, "lat": 38.9002145, "bike_id": "c975aa138d46ca0818dc0d29b783e30a", "type": "electric_scooter", "is_reserved": 0, "lon": -77.01260016666667}, {"fusion_lat": 0.0, "name": "04c47452ef4323f5b28dd69ebd9827e2", "is_disabled": 0, "rental_uris": {"android": "https://dc.lft.to/lastmile_qr_scan", "ios": "https://dc.lft.to/lastmile_qr_scan"}, "fusion_lon": 0.0, "lat": 38.9364695, "bike_id": "04c47452ef4323f5b28dd69ebd9827e2", "type": "electric_scooter", "is_reserved": 0, "lon": -77.03057283333334}, {"fusion_lat": 0.0, "name": "1aef0ddb0271057463e32b6177320586", "is_disabled": 0, "rental_uris": {"android": "https://dc.lft.to/lastmile_qr_scan", "ios": "https://dc.lft.to/lastmile_qr_scan"}, "fusion_lon": 0.0, "lat": 38.920796833333334, "bike_id": "1aef0ddb0271057463e32b6177320586", "type": "electric_bike", "is_reserved": 0, "lon": -76.98947266666667}, {"fusion_lat": 0.0, "name": "bfa4d43f0f43d921acc1eda3b7ccc19a", "is_disabled": 0, "rental_uris": {"android": "https://dc.lft.to/lastmile_qr_scan", "ios": "https://dc.lft.to/lastmile_qr_scan"}, "fusion_lon": 0.0, "lat": 38.917658, "bike_id": "bfa4d43f0f43d921acc1eda3b7ccc19a", "type": "electric_scooter", "is_reserved": 0, "lon": -77.01500766666666}, {"fusion_lat": 0.0, "name": "813a9012215bb17bd51adf296a79b2b7", "is_disabled": 0, "rental_uris": {"android": "https://dc.lft.to/lastmile_qr_scan", "ios": "https://dc.lft.to/lastmile_qr_scan"}, "fusion_lon": 0.0, "lat": 38.89740283333333, "bike_id": "813a9012215bb17bd51adf296a79b2b7", "type": "electric_scooter", "is_reserved": 0, "lon": -77.0335}, {"fusion_lat": 0.0, "name": "98b31efdeccd773bc5ecf3d883aaee68", "is_disabled": 0, "rental_uris": {"android": "https://dc.lft.to/lastmile_qr_scan", "ios": "https://dc.lft.to/lastmile_qr_scan"}, "fusion_lon": 0.0, "lat": 38.942299166666665, "bike_id": "98b31efdeccd773bc5ecf3d883aaee68", "type": "electric_scooter", "is_reserved": 0, "lon": -77.0138595}, {"fusion_lat": 0.0, "name": "8cf110d8fb1bfb367cb80df6046e2ba2", "is_disabled": 0, "rental_uris": {"android": "https://dc.lft.to/lastmile_qr_scan", "ios": "https://dc.lft.to/lastmile_qr_scan"}, "fusion_lon": 0.0, "lat": 38.89329133333333, "bike_id": "8cf110d8fb1bfb367cb80df6046e2ba2", "type": "electric_scooter", "is_reserved": 0, "lon": -77.0224645}, {"fusion_lat": 0.0, "name": "2c2f3cc9b96b78e754bcfa48cea15b62", "is_disabled": 0, "rental_uris": {"android": "https://dc.lft.to/lastmile_qr_scan", "ios": "https://dc.lft.to/lastmile_qr_scan"}, "fusion_lon": 0.0, "lat": 38.89539283333333, "bike_id": "2c2f3cc9b96b78e754bcfa48cea15b62", "type": "electric_scooter", "is_reserved": 0, "lon": -77.01142983333334}, {"fusion_lat": 0.0, "name": "9f6d0106f6fc7b6a809dbcd0382813a4", "is_disabled": 0, "rental_uris": {"android": "https://dc.lft.to/lastmile_qr_scan", "ios": "https://dc.lft.to/lastmile_qr_scan"}, "fusion_lon": 0.0, "lat": 38.923710666666665, "bike_id": "9f6d0106f6fc7b6a809dbcd0382813a4", "type": "electric_scooter", "is_reserved": 0, "lon": -77.03519983333334}, {"fusion_lat": 0.0, "name": "4f35e78f8a27f631eb0b32a808e33f84", "is_disabled": 0, "rental_uris": {"android": "https://dc.lft.to/lastmile_qr_scan", "ios": "https://dc.lft.to/lastmile_qr_scan"}, "fusion_lon": 0.0, "lat": 38.9104405, "bike_id": "4f35e78f8a27f631eb0b32a808e33f84", "type": "electric_scooter", "is_reserved": 0, "lon": -77.01287983333333}, {"fusion_lat": 0.0, "name": "abd822e045b22fb590aa13018564f985", "is_disabled": 0, "rental_uris": {"android": "https://dc.lft.to/lastmile_qr_scan", "ios": "https://dc.lft.to/lastmile_qr_scan"}, "fusion_lon": 0.0, "lat": 38.90562, "bike_id": "abd822e045b22fb590aa13018564f985", "type": "electric_scooter", "is_reserved": 0, "lon": -77.05130916666667}, {"fusion_lat": 0.0, "name": "92f31a1437cae1628d156dab003fd1bb", "is_disabled": 0, "rental_uris": {"android": "https://dc.lft.to/lastmile_qr_scan", "ios": "https://dc.lft.to/lastmile_qr_scan"}, "fusion_lon": 0.0, "lat": 38.941876, "bike_id": "92f31a1437cae1628d156dab003fd1bb", "type": "electric_scooter", "is_reserved": 0, "lon": -77.02314416666667}, {"fusion_lat": 0.0, "name": "013bf50a9459d1417e5041666a8ddccb", "is_disabled": 0, "rental_uris": {"android": "https://dc.lft.to/lastmile_qr_scan", "ios": "https://dc.lft.to/lastmile_qr_scan"}, "fusion_lon": 0.0, "lat": 38.91925066666667, "bike_id": "013bf50a9459d1417e5041666a8ddccb", "type": "electric_scooter", "is_reserved": 0, "lon": -77.009824}, {"fusion_lat": 0.0, "name": "7a1e9c05b2b944459c03ad407a74557e", "is_disabled": 0, "rental_uris": {"android": "https://dc.lft.to/lastmile_qr_scan", "ios": "https://dc.lft.to/lastmile_qr_scan"}, "fusion_lon": 0.0, "lat": 38.813323, "bike_id": "7a1e9c05b2b944459c03ad407a74557e", "type": "electric_bike", "is_reserved": 0, "lon": -77.05088383333333}, {"fusion_lat": 0.0, "name": "d2663753c26aca43badba4d29ad23fd1", "is_disabled": 0, "rental_uris": {"android": "https://dc.lft.to/lastmile_qr_scan", "ios": "https://dc.lft.to/lastmile_qr_scan"}, "fusion_lon": 0.0, "lat": 38.90019983333333, "bike_id": "d2663753c26aca43badba4d29ad23fd1", "type": "electric_scooter", "is_reserved": 0, "lon": -77.012469}, {"fusion_lat": 0.0, "name": "2c69c2c417e12a705314911e743d1a03", "is_disabled": 0, "rental_uris": {"android": "https://dc.lft.to/lastmile_qr_scan", "ios": "https://dc.lft.to/lastmile_qr_scan"}, "fusion_lon": 0.0, "lat": 38.8842135, "bike_id": "2c69c2c417e12a705314911e743d1a03", "type": "electric_scooter", "is_reserved": 0, "lon": -76.99213583333334}, {"fusion_lat": 0.0, "name": "ddca752f95ae62168c43dafe11dcc466", "is_disabled": 0, "rental_uris": {"android": "https://dc.lft.to/lastmile_qr_scan", "ios": "https://dc.lft.to/lastmile_qr_scan"}, "fusion_lon": 0.0, "lat": 38.91488966666667, "bike_id": "ddca752f95ae62168c43dafe11dcc466", "type": "electric_scooter", "is_reserved": 0, "lon": -77.03269466666667}, {"fusion_lat": 0.0, "name": "545aba5ef54cdc8d776d1492d6fbd11d", "is_disabled": 0, "rental_uris": {"android": "https://dc.lft.to/lastmile_qr_scan", "ios": "https://dc.lft.to/lastmile_qr_scan"}, "fusion_lon": 0.0, "lat": 38.889928166666664, "bike_id": "545aba5ef54cdc8d776d1492d6fbd11d", "type": "electric_scooter", "is_reserved": 0, "lon": -76.996345}, {"fusion_lat": 0.0, "name": "d2e3ed0f39e62c040735e13e0c7e3d0c", "is_disabled": 0, "rental_uris": {"android": "https://dc.lft.to/lastmile_qr_scan", "ios": "https://dc.lft.to/lastmile_qr_scan"}, "fusion_lon": 0.0, "lat": 38.90938633333333, "bike_id": "d2e3ed0f39e62c040735e13e0c7e3d0c", "type": "electric_scooter", "is_reserved": 0, "lon": -77.02120533333333}, {"fusion_lat": 0.0, "name": "6952d85e57558214ba3b8044a7798d7c", "is_disabled": 0, "rental_uris": {"android": "https://dc.lft.to/lastmile_qr_scan", "ios": "https://dc.lft.to/lastmile_qr_scan"}, "fusion_lon": 0.0, "lat": 38.917333166666666, "bike_id": "6952d85e57558214ba3b8044a7798d7c", "type": "electric_scooter", "is_reserved": 0, "lon": -77.048246}, {"fusion_lat": 0.0, "name": "a615865feb799056d37bec90563e7bdb", "is_disabled": 0, "rental_uris": {"android": "https://dc.lft.to/lastmile_qr_scan", "ios": "https://dc.lft.to/lastmile_qr_scan"}, "fusion_lon": 0.0, "lat": 38.89946483333333, "bike_id": "a615865feb799056d37bec90563e7bdb", "type": "electric_scooter", "is_reserved": 0, "lon": -77.0536035}, {"fusion_lat": 0.0, "name": "c0533aa4a46af7ddcf33495d9bfd4ffa", "is_disabled": 0, "rental_uris": {"android": "https://dc.lft.to/lastmile_qr_scan", "ios": "https://dc.lft.to/lastmile_qr_scan"}, "fusion_lon": 0.0, "lat": 38.92056016666667, "bike_id": "c0533aa4a46af7ddcf33495d9bfd4ffa", "type": "electric_scooter", "is_reserved": 0, "lon": -77.03388383333333}, {"fusion_lat": 0.0, "name": "a7eedfe60d056c160b930a87aaf77063", "is_disabled": 0, "rental_uris": {"android": "https://dc.lft.to/lastmile_qr_scan", "ios": "https://dc.lft.to/lastmile_qr_scan"}, "fusion_lon": 0.0, "lat": 38.913936, "bike_id": "a7eedfe60d056c160b930a87aaf77063", "type": "electric_scooter", "is_reserved": 0, "lon": -77.034673}, {"fusion_lat": 0.0, "name": "4379bb56cd9379a72a38834072362569", "is_disabled": 0, "rental_uris": {"android": "https://dc.lft.to/lastmile_qr_scan", "ios": "https://dc.lft.to/lastmile_qr_scan"}, "fusion_lon": 0.0, "lat": 38.88988416666667, "bike_id": "4379bb56cd9379a72a38834072362569", "type": "electric_scooter", "is_reserved": 0, "lon": -76.987417}, {"fusion_lat": 0.0, "name": "9fb421805fdcb16e8a5c60300fdc9094", "is_disabled": 0, "rental_uris": {"android": "https://dc.lft.to/lastmile_qr_scan", "ios": "https://dc.lft.to/lastmile_qr_scan"}, "fusion_lon": 0.0, "lat": 38.939457, "bike_id": "9fb421805fdcb16e8a5c60300fdc9094", "type": "electric_scooter", "is_reserved": 0, "lon": -77.033217}, {"fusion_lat": 0.0, "name": "f0342457de913869c888e8a124300a04", "is_disabled": 0, "rental_uris": {"android": "https://dc.lft.to/lastmile_qr_scan", "ios": "https://dc.lft.to/lastmile_qr_scan"}, "fusion_lon": 0.0, "lat": 38.92963566666667, "bike_id": "f0342457de913869c888e8a124300a04", "type": "electric_scooter", "is_reserved": 0, "lon": -77.02015383333334}, {"fusion_lat": 0.0, "name": "cae5ff31178c3d0316b34b6ac04a8cf7", "is_disabled": 0, "rental_uris": {"android": "https://dc.lft.to/lastmile_qr_scan", "ios": "https://dc.lft.to/lastmile_qr_scan"}, "fusion_lon": 0.0, "lat": 38.9004035, "bike_id": "cae5ff31178c3d0316b34b6ac04a8cf7", "type": "electric_scooter", "is_reserved": 0, "lon": -77.0020025}, {"fusion_lat": 0.0, "name": "e485d7d26747c9052e0f7dac75ec0fb1", "is_disabled": 0, "rental_uris": {"android": "https://dc.lft.to/lastmile_qr_scan", "ios": "https://dc.lft.to/lastmile_qr_scan"}, "fusion_lon": 0.0, "lat": 38.9095455, "bike_id": "e485d7d26747c9052e0f7dac75ec0fb1", "type": "electric_scooter", "is_reserved": 0, "lon": -77.02384766666667}, {"fusion_lat": 0.0, "name": "3b2f2c950656437da08fdbfb2a0fadcb", "is_disabled": 0, "rental_uris": {"android": "https://dc.lft.to/lastmile_qr_scan", "ios": "https://dc.lft.to/lastmile_qr_scan"}, "fusion_lon": 0.0, "lat": 38.858901833333334, "bike_id": "3b2f2c950656437da08fdbfb2a0fadcb", "type": "electric_bike", "is_reserved": 0, "lon": -77.09544083333333}, {"fusion_lat": 0.0, "name": "a3ab5c759adb4ea99674e394dfb69ed7", "is_disabled": 0, "rental_uris": {"android": "https://dc.lft.to/lastmile_qr_scan", "ios": "https://dc.lft.to/lastmile_qr_scan"}, "fusion_lon": 0.0, "lat": 38.896574666666666, "bike_id": "a3ab5c759adb4ea99674e394dfb69ed7", "type": "electric_scooter", "is_reserved": 0, "lon": -77.050701}, {"fusion_lat": 0.0, "name": "b0c8ac62428fc2c095d5151b0bdbfe2f", "is_disabled": 0, "rental_uris": {"android": "https://dc.lft.to/lastmile_qr_scan", "ios": "https://dc.lft.to/lastmile_qr_scan"}, "fusion_lon": 0.0, "lat": 38.9209185, "bike_id": "b0c8ac62428fc2c095d5151b0bdbfe2f", "type": "electric_scooter", "is_reserved": 0, "lon": -77.02502366666667}, {"fusion_lat": 0.0, "name": "cb1408799c220cde6ccdb1a0d1f7a709", "is_disabled": 0, "rental_uris": {"android": "https://dc.lft.to/lastmile_qr_scan", "ios": "https://dc.lft.to/lastmile_qr_scan"}, "fusion_lon": 0.0, "lat": 38.92448916666667, "bike_id": "cb1408799c220cde6ccdb1a0d1f7a709", "type": "electric_scooter", "is_reserved": 0, "lon": -77.00878016666667}, {"fusion_lat": 0.0, "name": "5ca03026e6ea6c302e1c46f16b7dd091", "is_disabled": 0, "rental_uris": {"android": "https://dc.lft.to/lastmile_qr_scan", "ios": "https://dc.lft.to/lastmile_qr_scan"}, "fusion_lon": 0.0, "lat": 38.89944883333333, "bike_id": "5ca03026e6ea6c302e1c46f16b7dd091", "type": "electric_scooter", "is_reserved": 0, "lon": -76.99733016666667}, {"fusion_lat": 0.0, "name": "9a8e3fb0b21f03606943224fd1cf8170", "is_disabled": 0, "rental_uris": {"android": "https://dc.lft.to/lastmile_qr_scan", "ios": "https://dc.lft.to/lastmile_qr_scan"}, "fusion_lon": 0.0, "lat": 38.935837166666666, "bike_id": "9a8e3fb0b21f03606943224fd1cf8170", "type": "electric_scooter", "is_reserved": 0, "lon": -77.0335375}, {"fusion_lat": 0.0, "name": "b48c88225530707c2199f07897f4bdfa", "is_disabled": 0, "rental_uris": {"android": "https://dc.lft.to/lastmile_qr_scan", "ios": "https://dc.lft.to/lastmile_qr_scan"}, "fusion_lon": 0.0, "lat": 38.928817, "bike_id": "b48c88225530707c2199f07897f4bdfa", "type": "electric_scooter", "is_reserved": 0, "lon": -77.0334995}, {"fusion_lat": 0.0, "name": "f78e958edbf45177784a3f68f48b0be5", "is_disabled": 0, "rental_uris": {"android": "https://dc.lft.to/lastmile_qr_scan", "ios": "https://dc.lft.to/lastmile_qr_scan"}, "fusion_lon": 0.0, "lat": 38.9974975, "bike_id": "f78e958edbf45177784a3f68f48b0be5", "type": "electric_bike", "is_reserved": 0, "lon": -77.026862}, {"fusion_lat": 0.0, "name": "f55914e814b6bf3465e45e65d61117af", "is_disabled": 0, "rental_uris": {"android": "https://dc.lft.to/lastmile_qr_scan", "ios": "https://dc.lft.to/lastmile_qr_scan"}, "fusion_lon": 0.0, "lat": 38.92290116666667, "bike_id": "f55914e814b6bf3465e45e65d61117af", "type": "electric_scooter", "is_reserved": 0, "lon": -77.02339333333333}, {"fusion_lat": 0.0, "name": "36a42b2a1e96643cc9b28ab0fcc76b4e", "is_disabled": 0, "rental_uris": {"android": "https://dc.lft.to/lastmile_qr_scan", "ios": "https://dc.lft.to/lastmile_qr_scan"}, "fusion_lon": 0.0, "lat": 38.928588833333336, "bike_id": "36a42b2a1e96643cc9b28ab0fcc76b4e", "type": "electric_scooter", "is_reserved": 0, "lon": -77.03282366666667}, {"fusion_lat": 0.0, "name": "53873285e611937a113d4eceb522ebca", "is_disabled": 0, "rental_uris": {"android": "https://dc.lft.to/lastmile_qr_scan", "ios": "https://dc.lft.to/lastmile_qr_scan"}, "fusion_lon": 0.0, "lat": 38.902820166666665, "bike_id": "53873285e611937a113d4eceb522ebca", "type": "electric_scooter", "is_reserved": 0, "lon": -77.04370716666666}, {"fusion_lat": 0.0, "name": "03b0ddf34cbccf012ee493f9ad9976da", "is_disabled": 0, "rental_uris": {"android": "https://dc.lft.to/lastmile_qr_scan", "ios": "https://dc.lft.to/lastmile_qr_scan"}, "fusion_lon": 0.0, "lat": 38.883233833333335, "bike_id": "03b0ddf34cbccf012ee493f9ad9976da", "type": "electric_scooter", "is_reserved": 0, "lon": -77.013877}, {"fusion_lat": 0.0, "name": "2b0a83cf5426a54a4ae19f4c05bd1d53", "is_disabled": 0, "rental_uris": {"android": "https://dc.lft.to/lastmile_qr_scan", "ios": "https://dc.lft.to/lastmile_qr_scan"}, "fusion_lon": 0.0, "lat": 38.92679866666667, "bike_id": "2b0a83cf5426a54a4ae19f4c05bd1d53", "type": "electric_scooter", "is_reserved": 0, "lon": -77.03088433333333}, {"fusion_lat": 0.0, "name": "ea673349a0ac5c3eaa808c0fce003e03", "is_disabled": 0, "rental_uris": {"android": "https://dc.lft.to/lastmile_qr_scan", "ios": "https://dc.lft.to/lastmile_qr_scan"}, "fusion_lon": 0.0, "lat": 38.9191555, "bike_id": "ea673349a0ac5c3eaa808c0fce003e03", "type": "electric_scooter", "is_reserved": 0, "lon": -77.02611033333334}, {"fusion_lat": 0.0, "name": "95fec0b8b237f1dac37a4030e114473d", "is_disabled": 0, "rental_uris": {"android": "https://dc.lft.to/lastmile_qr_scan", "ios": "https://dc.lft.to/lastmile_qr_scan"}, "fusion_lon": 0.0, "lat": 38.93184866666667, "bike_id": "95fec0b8b237f1dac37a4030e114473d", "type": "electric_scooter", "is_reserved": 0, "lon": -77.0196065}, {"fusion_lat": 0.0, "name": "2bfa24d4096f499337791c31246d6e97", "is_disabled": 0, "rental_uris": {"android": "https://dc.lft.to/lastmile_qr_scan", "ios": "https://dc.lft.to/lastmile_qr_scan"}, "fusion_lon": 0.0, "lat": 38.892569333333334, "bike_id": "2bfa24d4096f499337791c31246d6e97", "type": "electric_bike", "is_reserved": 0, "lon": -76.95115116666666}, {"fusion_lat": 0.0, "name": "4c88028257e0dc339d5585802fd7a3e5", "is_disabled": 0, "rental_uris": {"android": "https://dc.lft.to/lastmile_qr_scan", "ios": "https://dc.lft.to/lastmile_qr_scan"}, "fusion_lon": 0.0, "lat": 38.92978133333333, "bike_id": "4c88028257e0dc339d5585802fd7a3e5", "type": "electric_scooter", "is_reserved": 0, "lon": -77.04189933333333}, {"fusion_lat": 0.0, "name": "9cb5a617e87ec311f5b60920cf4c982f", "is_disabled": 0, "rental_uris": {"android": "https://dc.lft.to/lastmile_qr_scan", "ios": "https://dc.lft.to/lastmile_qr_scan"}, "fusion_lon": 0.0, "lat": 38.924641666666666, "bike_id": "9cb5a617e87ec311f5b60920cf4c982f", "type": "electric_scooter", "is_reserved": 0, "lon": -77.0802575}, {"fusion_lat": 0.0, "name": "7125cd29b5b8a146c9f2a911d5046e36", "is_disabled": 0, "rental_uris": {"android": "https://dc.lft.to/lastmile_qr_scan", "ios": "https://dc.lft.to/lastmile_qr_scan"}, "fusion_lon": 0.0, "lat": 38.92385266666667, "bike_id": "7125cd29b5b8a146c9f2a911d5046e36", "type": "electric_scooter", "is_reserved": 0, "lon": -77.030613}, {"fusion_lat": 0.0, "name": "419690d74ef72c09a1ea76a2f42dfe3e", "is_disabled": 0, "rental_uris": {"android": "https://dc.lft.to/lastmile_qr_scan", "ios": "https://dc.lft.to/lastmile_qr_scan"}, "fusion_lon": 0.0, "lat": 38.9072945, "bike_id": "419690d74ef72c09a1ea76a2f42dfe3e", "type": "electric_scooter", "is_reserved": 0, "lon": -77.01089266666666}, {"fusion_lat": 0.0, "name": "4cd9f9be13c6c0a2e80250ec6473853e", "is_disabled": 0, "rental_uris": {"android": "https://dc.lft.to/lastmile_qr_scan", "ios": "https://dc.lft.to/lastmile_qr_scan"}, "fusion_lon": 0.0, "lat": 38.88009866666667, "bike_id": "4cd9f9be13c6c0a2e80250ec6473853e", "type": "electric_scooter", "is_reserved": 0, "lon": -76.98506983333333}, {"fusion_lat": 0.0, "name": "c93b9a7ab03d2dbe65628656fc99098a", "is_disabled": 0, "rental_uris": {"android": "https://dc.lft.to/lastmile_qr_scan", "ios": "https://dc.lft.to/lastmile_qr_scan"}, "fusion_lon": 0.0, "lat": 38.90528233333333, "bike_id": "c93b9a7ab03d2dbe65628656fc99098a", "type": "electric_scooter", "is_reserved": 0, "lon": -77.06100833333333}, {"fusion_lat": 0.0, "name": "dcacd76670e09b140d11f2f0a4eaa535", "is_disabled": 0, "rental_uris": {"android": "https://dc.lft.to/lastmile_qr_scan", "ios": "https://dc.lft.to/lastmile_qr_scan"}, "fusion_lon": 0.0, "lat": 38.952511, "bike_id": "dcacd76670e09b140d11f2f0a4eaa535", "type": "electric_scooter", "is_reserved": 0, "lon": -77.0237505}, {"fusion_lat": 0.0, "name": "02eeb69603518fa069bfb5a85309a250", "is_disabled": 0, "rental_uris": {"android": "https://dc.lft.to/lastmile_qr_scan", "ios": "https://dc.lft.to/lastmile_qr_scan"}, "fusion_lon": 0.0, "lat": 38.8959085, "bike_id": "02eeb69603518fa069bfb5a85309a250", "type": "electric_scooter", "is_reserved": 0, "lon": -77.02956966666666}, {"fusion_lat": 0.0, "name": "3a094afc4bb02a67ee1c50b3da3b9561", "is_disabled": 0, "rental_uris": {"android": "https://dc.lft.to/lastmile_qr_scan", "ios": "https://dc.lft.to/lastmile_qr_scan"}, "fusion_lon": 0.0, "lat": 38.91364266666667, "bike_id": "3a094afc4bb02a67ee1c50b3da3b9561", "type": "electric_scooter", "is_reserved": 0, "lon": -77.020539}, {"fusion_lat": 0.0, "name": "b2fcb498a392a78b0556b7ca6d7bc9c1", "is_disabled": 0, "rental_uris": {"android": "https://dc.lft.to/lastmile_qr_scan", "ios": "https://dc.lft.to/lastmile_qr_scan"}, "fusion_lon": 0.0, "lat": 38.879288, "bike_id": "b2fcb498a392a78b0556b7ca6d7bc9c1", "type": "electric_scooter", "is_reserved": 0, "lon": -77.0041195}, {"fusion_lat": 0.0, "name": "5534f181853c1b9df53f4f4a5c1f5893", "is_disabled": 0, "rental_uris": {"android": "https://dc.lft.to/lastmile_qr_scan", "ios": "https://dc.lft.to/lastmile_qr_scan"}, "fusion_lon": 0.0, "lat": 38.885064, "bike_id": "5534f181853c1b9df53f4f4a5c1f5893", "type": "electric_scooter", "is_reserved": 0, "lon": -76.99761633333334}, {"fusion_lat": 0.0, "name": "d5cbb8f9701adb28534c1e34679df553", "is_disabled": 0, "rental_uris": {"android": "https://dc.lft.to/lastmile_qr_scan", "ios": "https://dc.lft.to/lastmile_qr_scan"}, "fusion_lon": 0.0, "lat": 38.92426833333333, "bike_id": "d5cbb8f9701adb28534c1e34679df553", "type": "electric_scooter", "is_reserved": 0, "lon": -76.98590766666666}, {"fusion_lat": 0.0, "name": "eb7bd454f47b5f33ea5bef325c6ee04f", "is_disabled": 0, "rental_uris": {"android": "https://dc.lft.to/lastmile_qr_scan", "ios": "https://dc.lft.to/lastmile_qr_scan"}, "fusion_lon": 0.0, "lat": 38.888755833333335, "bike_id": "eb7bd454f47b5f33ea5bef325c6ee04f", "type": "electric_scooter", "is_reserved": 0, "lon": -76.984554}, {"fusion_lat": 0.0, "name": "71f5f1b7e9758ab5aba5b2eb03c403fc", "is_disabled": 0, "rental_uris": {"android": "https://dc.lft.to/lastmile_qr_scan", "ios": "https://dc.lft.to/lastmile_qr_scan"}, "fusion_lon": 0.0, "lat": 38.90116116666667, "bike_id": "71f5f1b7e9758ab5aba5b2eb03c403fc", "type": "electric_scooter", "is_reserved": 0, "lon": -77.05132016666667}, {"fusion_lat": 0.0, "name": "efd8884ebd31db87d8db63e027a42f16", "is_disabled": 0, "rental_uris": {"android": "https://dc.lft.to/lastmile_qr_scan", "ios": "https://dc.lft.to/lastmile_qr_scan"}, "fusion_lon": 0.0, "lat": 38.894833, "bike_id": "efd8884ebd31db87d8db63e027a42f16", "type": "electric_scooter", "is_reserved": 0, "lon": -76.99731483333333}, {"fusion_lat": 0.0, "name": "378277d61f4441c4a96f1e3a48c43491", "is_disabled": 0, "rental_uris": {"android": "https://dc.lft.to/lastmile_qr_scan", "ios": "https://dc.lft.to/lastmile_qr_scan"}, "fusion_lon": 0.0, "lat": 38.90194483333333, "bike_id": "378277d61f4441c4a96f1e3a48c43491", "type": "electric_scooter", "is_reserved": 0, "lon": -76.92904016666667}, {"fusion_lat": 0.0, "name": "681a502c31d4f2dca475725d3c9a7f9f", "is_disabled": 0, "rental_uris": {"android": "https://dc.lft.to/lastmile_qr_scan", "ios": "https://dc.lft.to/lastmile_qr_scan"}, "fusion_lon": 0.0, "lat": 38.855138, "bike_id": "681a502c31d4f2dca475725d3c9a7f9f", "type": "electric_bike", "is_reserved": 0, "lon": -77.10538333333334}, {"fusion_lat": 0.0, "name": "78be853a03d959a3da89b1f1d064a60b", "is_disabled": 0, "rental_uris": {"android": "https://dc.lft.to/lastmile_qr_scan", "ios": "https://dc.lft.to/lastmile_qr_scan"}, "fusion_lon": 0.0, "lat": 38.905112333333335, "bike_id": "78be853a03d959a3da89b1f1d064a60b", "type": "electric_scooter", "is_reserved": 0, "lon": -77.01713333333333}, {"fusion_lat": 0.0, "name": "0713081976165a6722db0c7a10f5cac6", "is_disabled": 0, "rental_uris": {"android": "https://dc.lft.to/lastmile_qr_scan", "ios": "https://dc.lft.to/lastmile_qr_scan"}, "fusion_lon": 0.0, "lat": 38.887481333333334, "bike_id": "0713081976165a6722db0c7a10f5cac6", "type": "electric_scooter", "is_reserved": 0, "lon": -76.99627016666666}, {"fusion_lat": 0.0, "name": "9017a27b9c8c7cd7afd0d23c40a03fcf", "is_disabled": 0, "rental_uris": {"android": "https://dc.lft.to/lastmile_qr_scan", "ios": "https://dc.lft.to/lastmile_qr_scan"}, "fusion_lon": 0.0, "lat": 38.91978683333333, "bike_id": "9017a27b9c8c7cd7afd0d23c40a03fcf", "type": "electric_scooter", "is_reserved": 0, "lon": -77.0217385}, {"fusion_lat": 0.0, "name": "cb59d72b382c46706196efd8ba884ee6", "is_disabled": 0, "rental_uris": {"android": "https://dc.lft.to/lastmile_qr_scan", "ios": "https://dc.lft.to/lastmile_qr_scan"}, "fusion_lon": 0.0, "lat": 38.90315183333333, "bike_id": "cb59d72b382c46706196efd8ba884ee6", "type": "electric_scooter", "is_reserved": 0, "lon": -76.97796633333333}, {"fusion_lat": 0.0, "name": "05310a78cf10e7e1bc422c0e52c2af6c", "is_disabled": 0, "rental_uris": {"android": "https://dc.lft.to/lastmile_qr_scan", "ios": "https://dc.lft.to/lastmile_qr_scan"}, "fusion_lon": 0.0, "lat": 38.9013465, "bike_id": "05310a78cf10e7e1bc422c0e52c2af6c", "type": "electric_scooter", "is_reserved": 0, "lon": -77.04019616666666}, {"fusion_lat": 0.0, "name": "49e23e1186107b33f1bbaa9d5da88f00", "is_disabled": 0, "rental_uris": {"android": "https://dc.lft.to/lastmile_qr_scan", "ios": "https://dc.lft.to/lastmile_qr_scan"}, "fusion_lon": 0.0, "lat": 38.94110033333333, "bike_id": "49e23e1186107b33f1bbaa9d5da88f00", "type": "electric_scooter", "is_reserved": 0, "lon": -77.03476533333334}, {"fusion_lat": 0.0, "name": "6d17ce1a8d2c5fc3b0804eda0f816e69", "is_disabled": 0, "rental_uris": {"android": "https://dc.lft.to/lastmile_qr_scan", "ios": "https://dc.lft.to/lastmile_qr_scan"}, "fusion_lon": 0.0, "lat": 38.90322, "bike_id": "6d17ce1a8d2c5fc3b0804eda0f816e69", "type": "electric_scooter", "is_reserved": 0, "lon": -77.032018}, {"fusion_lat": 0.0, "name": "bef3c0d2593df2e5d8b861a32a7b1a28", "is_disabled": 0, "rental_uris": {"android": "https://dc.lft.to/lastmile_qr_scan", "ios": "https://dc.lft.to/lastmile_qr_scan"}, "fusion_lon": 0.0, "lat": 38.8875305, "bike_id": "bef3c0d2593df2e5d8b861a32a7b1a28", "type": "electric_scooter", "is_reserved": 0, "lon": -76.99786}, {"fusion_lat": 0.0, "name": "ded5f5bf029ce81344f91dde7d163bc8", "is_disabled": 0, "rental_uris": {"android": "https://dc.lft.to/lastmile_qr_scan", "ios": "https://dc.lft.to/lastmile_qr_scan"}, "fusion_lon": 0.0, "lat": 38.93584883333333, "bike_id": "ded5f5bf029ce81344f91dde7d163bc8", "type": "electric_scooter", "is_reserved": 0, "lon": -77.02378316666666}, {"fusion_lat": 0.0, "name": "efc465fb8b686ec4065d29c732c01491", "is_disabled": 0, "rental_uris": {"android": "https://dc.lft.to/lastmile_qr_scan", "ios": "https://dc.lft.to/lastmile_qr_scan"}, "fusion_lon": 0.0, "lat": 38.90667783333333, "bike_id": "efc465fb8b686ec4065d29c732c01491", "type": "electric_scooter", "is_reserved": 0, "lon": -77.02960783333333}, {"fusion_lat": 0.0, "name": "a7c0e9ac5a0a81bd831b2bffc1bfabe6", "is_disabled": 0, "rental_uris": {"android": "https://dc.lft.to/lastmile_qr_scan", "ios": "https://dc.lft.to/lastmile_qr_scan"}, "fusion_lon": 0.0, "lat": 38.917053, "bike_id": "a7c0e9ac5a0a81bd831b2bffc1bfabe6", "type": "electric_scooter", "is_reserved": 0, "lon": -77.02746366666666}, {"fusion_lat": 0.0, "name": "c8833d99c4e1ea674b7cf50475900803", "is_disabled": 0, "rental_uris": {"android": "https://dc.lft.to/lastmile_qr_scan", "ios": "https://dc.lft.to/lastmile_qr_scan"}, "fusion_lon": 0.0, "lat": 38.889864, "bike_id": "c8833d99c4e1ea674b7cf50475900803", "type": "electric_scooter", "is_reserved": 0, "lon": -76.929841}, {"fusion_lat": 0.0, "name": "3208ad5cd4e175ea9fc59a48ce7e2c8f", "is_disabled": 0, "rental_uris": {"android": "https://dc.lft.to/lastmile_qr_scan", "ios": "https://dc.lft.to/lastmile_qr_scan"}, "fusion_lon": 0.0, "lat": 38.94518433333333, "bike_id": "3208ad5cd4e175ea9fc59a48ce7e2c8f", "type": "electric_scooter", "is_reserved": 0, "lon": -77.03886}, {"fusion_lat": 0.0, "name": "2aff12485907231d5e76928e74bcfd92", "is_disabled": 0, "rental_uris": {"android": "https://dc.lft.to/lastmile_qr_scan", "ios": "https://dc.lft.to/lastmile_qr_scan"}, "fusion_lon": 0.0, "lat": 38.923486833333335, "bike_id": "2aff12485907231d5e76928e74bcfd92", "type": "electric_scooter", "is_reserved": 0, "lon": -76.99246333333333}, {"fusion_lat": 0.0, "name": "cd92427baa47ee5d9619554438acfa52", "is_disabled": 0, "rental_uris": {"android": "https://dc.lft.to/lastmile_qr_scan", "ios": "https://dc.lft.to/lastmile_qr_scan"}, "fusion_lon": 0.0, "lat": 38.847571, "bike_id": "cd92427baa47ee5d9619554438acfa52", "type": "electric_scooter", "is_reserved": 0, "lon": -76.994984}, {"fusion_lat": 0.0, "name": "db417caac5fd2a68e85a683c73971095", "is_disabled": 0, "rental_uris": {"android": "https://dc.lft.to/lastmile_qr_scan", "ios": "https://dc.lft.to/lastmile_qr_scan"}, "fusion_lon": 0.0, "lat": 38.93705933333333, "bike_id": "db417caac5fd2a68e85a683c73971095", "type": "electric_scooter", "is_reserved": 0, "lon": -77.06103116666667}, {"fusion_lat": 0.0, "name": "03a9f73d084ec50fc29d53ecd39b9326", "is_disabled": 0, "rental_uris": {"android": "https://dc.lft.to/lastmile_qr_scan", "ios": "https://dc.lft.to/lastmile_qr_scan"}, "fusion_lon": 0.0, "lat": 38.932945833333335, "bike_id": "03a9f73d084ec50fc29d53ecd39b9326", "type": "electric_scooter", "is_reserved": 0, "lon": -77.02796383333333}, {"fusion_lat": 0.0, "name": "620f5b5f9fae75606bf69b288977cbab", "is_disabled": 0, "rental_uris": {"android": "https://dc.lft.to/lastmile_qr_scan", "ios": "https://dc.lft.to/lastmile_qr_scan"}, "fusion_lon": 0.0, "lat": 38.87814983333333, "bike_id": "620f5b5f9fae75606bf69b288977cbab", "type": "electric_scooter", "is_reserved": 0, "lon": -77.013162}, {"fusion_lat": 0.0, "name": "bcc77f7a07bdf9574cb5173ea89c719a", "is_disabled": 0, "rental_uris": {"android": "https://dc.lft.to/lastmile_qr_scan", "ios": "https://dc.lft.to/lastmile_qr_scan"}, "fusion_lon": 0.0, "lat": 38.914288, "bike_id": "bcc77f7a07bdf9574cb5173ea89c719a", "type": "electric_scooter", "is_reserved": 0, "lon": -77.06410833333334}, {"fusion_lat": 0.0, "name": "60c13004384745ff2f08623c22330983", "is_disabled": 0, "rental_uris": {"android": "https://dc.lft.to/lastmile_qr_scan", "ios": "https://dc.lft.to/lastmile_qr_scan"}, "fusion_lon": 0.0, "lat": 38.882326166666665, "bike_id": "60c13004384745ff2f08623c22330983", "type": "electric_scooter", "is_reserved": 0, "lon": -77.02617766666667}, {"fusion_lat": 0.0, "name": "fffb86af614cb70e59667802281a1596", "is_disabled": 0, "rental_uris": {"android": "https://dc.lft.to/lastmile_qr_scan", "ios": "https://dc.lft.to/lastmile_qr_scan"}, "fusion_lon": 0.0, "lat": 38.92911933333333, "bike_id": "fffb86af614cb70e59667802281a1596", "type": "electric_scooter", "is_reserved": 0, "lon": -77.03740633333334}, {"fusion_lat": 0.0, "name": "83c4306ec162df4a6361d322e35a11d1", "is_disabled": 0, "rental_uris": {"android": "https://dc.lft.to/lastmile_qr_scan", "ios": "https://dc.lft.to/lastmile_qr_scan"}, "fusion_lon": 0.0, "lat": 38.920295333333335, "bike_id": "83c4306ec162df4a6361d322e35a11d1", "type": "electric_scooter", "is_reserved": 0, "lon": -77.017679}, {"fusion_lat": 0.0, "name": "98b9faeb63e25711165a440f2be1aed6", "is_disabled": 0, "rental_uris": {"android": "https://dc.lft.to/lastmile_qr_scan", "ios": "https://dc.lft.to/lastmile_qr_scan"}, "fusion_lon": 0.0, "lat": 38.897304166666665, "bike_id": "98b9faeb63e25711165a440f2be1aed6", "type": "electric_scooter", "is_reserved": 0, "lon": -76.99505933333333}, {"fusion_lat": 0.0, "name": "80da0b224b8154efb70a3c07cc8db7ff", "is_disabled": 0, "rental_uris": {"android": "https://dc.lft.to/lastmile_qr_scan", "ios": "https://dc.lft.to/lastmile_qr_scan"}, "fusion_lon": 0.0, "lat": 38.925813833333336, "bike_id": "80da0b224b8154efb70a3c07cc8db7ff", "type": "electric_scooter", "is_reserved": 0, "lon": -77.027586}, {"fusion_lat": 0.0, "name": "115a2f6d35ee5840efba4addd647a503", "is_disabled": 0, "rental_uris": {"android": "https://dc.lft.to/lastmile_qr_scan", "ios": "https://dc.lft.to/lastmile_qr_scan"}, "fusion_lon": 0.0, "lat": 38.884469833333334, "bike_id": "115a2f6d35ee5840efba4addd647a503", "type": "electric_scooter", "is_reserved": 0, "lon": -76.98585783333333}, {"fusion_lat": 0.0, "name": "a2c961f9058a06f7741fbc7b93621cbf", "is_disabled": 0, "rental_uris": {"android": "https://dc.lft.to/lastmile_qr_scan", "ios": "https://dc.lft.to/lastmile_qr_scan"}, "fusion_lon": 0.0, "lat": 38.93354083333333, "bike_id": "a2c961f9058a06f7741fbc7b93621cbf", "type": "electric_scooter", "is_reserved": 0, "lon": -77.02441816666666}, {"fusion_lat": 0.0, "name": "5e7667769aa460459baecb148f40c625", "is_disabled": 0, "rental_uris": {"android": "https://dc.lft.to/lastmile_qr_scan", "ios": "https://dc.lft.to/lastmile_qr_scan"}, "fusion_lon": 0.0, "lat": 38.92259266666667, "bike_id": "5e7667769aa460459baecb148f40c625", "type": "electric_scooter", "is_reserved": 0, "lon": -77.03518116666666}, {"fusion_lat": 0.0, "name": "8cfd5ea7439d399fe96d07be634b834b", "is_disabled": 0, "rental_uris": {"android": "https://dc.lft.to/lastmile_qr_scan", "ios": "https://dc.lft.to/lastmile_qr_scan"}, "fusion_lon": 0.0, "lat": 38.89876316666667, "bike_id": "8cfd5ea7439d399fe96d07be634b834b", "type": "electric_scooter", "is_reserved": 0, "lon": -76.93182483333334}, {"fusion_lat": 0.0, "name": "6cdd48a7d9f6c19f92195cd168ca1a45", "is_disabled": 0, "rental_uris": {"android": "https://dc.lft.to/lastmile_qr_scan", "ios": "https://dc.lft.to/lastmile_qr_scan"}, "fusion_lon": 0.0, "lat": 38.93401433333333, "bike_id": "6cdd48a7d9f6c19f92195cd168ca1a45", "type": "electric_scooter", "is_reserved": 0, "lon": -77.05745783333333}, {"fusion_lat": 0.0, "name": "423feae9686b69cc6af78cd90caf63f5", "is_disabled": 0, "rental_uris": {"android": "https://dc.lft.to/lastmile_qr_scan", "ios": "https://dc.lft.to/lastmile_qr_scan"}, "fusion_lon": 0.0, "lat": 38.90556683333333, "bike_id": "423feae9686b69cc6af78cd90caf63f5", "type": "electric_scooter", "is_reserved": 0, "lon": -76.9978945}, {"fusion_lat": 0.0, "name": "8a002bf609e92bcd99e06297f093a712", "is_disabled": 0, "rental_uris": {"android": "https://dc.lft.to/lastmile_qr_scan", "ios": "https://dc.lft.to/lastmile_qr_scan"}, "fusion_lon": 0.0, "lat": 38.907923333333336, "bike_id": "8a002bf609e92bcd99e06297f093a712", "type": "electric_scooter", "is_reserved": 0, "lon": -76.99422516666667}, {"fusion_lat": 0.0, "name": "cb2636532da1e1e87a59b5d83df4101b", "is_disabled": 0, "rental_uris": {"android": "https://dc.lft.to/lastmile_qr_scan", "ios": "https://dc.lft.to/lastmile_qr_scan"}, "fusion_lon": 0.0, "lat": 38.9056345, "bike_id": "cb2636532da1e1e87a59b5d83df4101b", "type": "electric_scooter", "is_reserved": 0, "lon": -76.98194833333334}, {"fusion_lat": 0.0, "name": "28062587ee6ad795bb225d081f99a71d", "is_disabled": 0, "rental_uris": {"android": "https://dc.lft.to/lastmile_qr_scan", "ios": "https://dc.lft.to/lastmile_qr_scan"}, "fusion_lon": 0.0, "lat": 38.88825083333333, "bike_id": "28062587ee6ad795bb225d081f99a71d", "type": "electric_scooter", "is_reserved": 0, "lon": -76.986627}, {"fusion_lat": 0.0, "name": "747008891deb07987267ca76e6afbe5e", "is_disabled": 0, "rental_uris": {"android": "https://dc.lft.to/lastmile_qr_scan", "ios": "https://dc.lft.to/lastmile_qr_scan"}, "fusion_lon": 0.0, "lat": 38.9055445, "bike_id": "747008891deb07987267ca76e6afbe5e", "type": "electric_scooter", "is_reserved": 0, "lon": -77.06517283333334}, {"fusion_lat": 0.0, "name": "5fbc0ab39b6fc9866a495956f2a566e5", "is_disabled": 0, "rental_uris": {"android": "https://dc.lft.to/lastmile_qr_scan", "ios": "https://dc.lft.to/lastmile_qr_scan"}, "fusion_lon": 0.0, "lat": 38.922508, "bike_id": "5fbc0ab39b6fc9866a495956f2a566e5", "type": "electric_scooter", "is_reserved": 0, "lon": -77.07451216666666}, {"fusion_lat": 0.0, "name": "b95e01cda9deed1fe84bb569a94b699c", "is_disabled": 0, "rental_uris": {"android": "https://dc.lft.to/lastmile_qr_scan", "ios": "https://dc.lft.to/lastmile_qr_scan"}, "fusion_lon": 0.0, "lat": 38.914992, "bike_id": "b95e01cda9deed1fe84bb569a94b699c", "type": "electric_scooter", "is_reserved": 0, "lon": -76.98373633333334}, {"fusion_lat": 0.0, "name": "a381867f4e7e2f42c7efd85c27135032", "is_disabled": 0, "rental_uris": {"android": "https://dc.lft.to/lastmile_qr_scan", "ios": "https://dc.lft.to/lastmile_qr_scan"}, "fusion_lon": 0.0, "lat": 38.916742166666666, "bike_id": "a381867f4e7e2f42c7efd85c27135032", "type": "electric_scooter", "is_reserved": 0, "lon": -77.02814083333334}, {"fusion_lat": 0.0, "name": "ac36f5333cf609096d5496c43a375566", "is_disabled": 0, "rental_uris": {"android": "https://dc.lft.to/lastmile_qr_scan", "ios": "https://dc.lft.to/lastmile_qr_scan"}, "fusion_lon": 0.0, "lat": 38.86624283333333, "bike_id": "ac36f5333cf609096d5496c43a375566", "type": "electric_scooter", "is_reserved": 0, "lon": -76.98713216666667}, {"fusion_lat": 0.0, "name": "ed0666cd938b7caf8254599c96ecb534", "is_disabled": 0, "rental_uris": {"android": "https://dc.lft.to/lastmile_qr_scan", "ios": "https://dc.lft.to/lastmile_qr_scan"}, "fusion_lon": 0.0, "lat": 38.924133833333336, "bike_id": "ed0666cd938b7caf8254599c96ecb534", "type": "electric_scooter", "is_reserved": 0, "lon": -77.02011716666667}, {"fusion_lat": 0.0, "name": "ef46b8faff73d79119777780750eb787", "is_disabled": 0, "rental_uris": {"android": "https://dc.lft.to/lastmile_qr_scan", "ios": "https://dc.lft.to/lastmile_qr_scan"}, "fusion_lon": 0.0, "lat": 38.8918485, "bike_id": "ef46b8faff73d79119777780750eb787", "type": "electric_scooter", "is_reserved": 0, "lon": -76.99940283333333}, {"fusion_lat": 0.0, "name": "fc71ecfff033344776d64639a46a5ad4", "is_disabled": 0, "rental_uris": {"android": "https://dc.lft.to/lastmile_qr_scan", "ios": "https://dc.lft.to/lastmile_qr_scan"}, "fusion_lon": 0.0, "lat": 38.92034433333333, "bike_id": "fc71ecfff033344776d64639a46a5ad4", "type": "electric_scooter", "is_reserved": 0, "lon": -77.0176645}, {"fusion_lat": 0.0, "name": "b00fe8e00dc449552a3a054ee196cd49", "is_disabled": 0, "rental_uris": {"android": "https://dc.lft.to/lastmile_qr_scan", "ios": "https://dc.lft.to/lastmile_qr_scan"}, "fusion_lon": 0.0, "lat": 38.90268233333333, "bike_id": "b00fe8e00dc449552a3a054ee196cd49", "type": "electric_scooter", "is_reserved": 0, "lon": -77.043837}, {"fusion_lat": 0.0, "name": "748c0d41e761b0e45f7236a741c24886", "is_disabled": 0, "rental_uris": {"android": "https://dc.lft.to/lastmile_qr_scan", "ios": "https://dc.lft.to/lastmile_qr_scan"}, "fusion_lon": 0.0, "lat": 38.9313805, "bike_id": "748c0d41e761b0e45f7236a741c24886", "type": "electric_scooter", "is_reserved": 0, "lon": -77.07837716666667}, {"fusion_lat": 0.0, "name": "b0b6b80ef576ba3c258d5a1a511eaf53", "is_disabled": 0, "rental_uris": {"android": "https://dc.lft.to/lastmile_qr_scan", "ios": "https://dc.lft.to/lastmile_qr_scan"}, "fusion_lon": 0.0, "lat": 38.9595375, "bike_id": "b0b6b80ef576ba3c258d5a1a511eaf53", "type": "electric_bike", "is_reserved": 0, "lon": -77.0306205}, {"fusion_lat": 0.0, "name": "746ac996e61affea4ef686482fed9472", "is_disabled": 0, "rental_uris": {"android": "https://dc.lft.to/lastmile_qr_scan", "ios": "https://dc.lft.to/lastmile_qr_scan"}, "fusion_lon": 0.0, "lat": 38.90721966666667, "bike_id": "746ac996e61affea4ef686482fed9472", "type": "electric_scooter", "is_reserved": 0, "lon": -77.04817766666666}, {"fusion_lat": 0.0, "name": "225e3859f475a294302d55a30da6c82c", "is_disabled": 0, "rental_uris": {"android": "https://dc.lft.to/lastmile_qr_scan", "ios": "https://dc.lft.to/lastmile_qr_scan"}, "fusion_lon": 0.0, "lat": 38.933645166666665, "bike_id": "225e3859f475a294302d55a30da6c82c", "type": "electric_scooter", "is_reserved": 0, "lon": -77.032649}, {"fusion_lat": 0.0, "name": "1ed0a785ae5feb8d139108d037ea6019", "is_disabled": 0, "rental_uris": {"android": "https://dc.lft.to/lastmile_qr_scan", "ios": "https://dc.lft.to/lastmile_qr_scan"}, "fusion_lon": 0.0, "lat": 38.87688983333334, "bike_id": "1ed0a785ae5feb8d139108d037ea6019", "type": "electric_scooter", "is_reserved": 0, "lon": -77.01754283333334}, {"fusion_lat": 0.0, "name": "a0fb2a8ada575818ab08b583f2a8fb04", "is_disabled": 0, "rental_uris": {"android": "https://dc.lft.to/lastmile_qr_scan", "ios": "https://dc.lft.to/lastmile_qr_scan"}, "fusion_lon": 0.0, "lat": 38.923736, "bike_id": "a0fb2a8ada575818ab08b583f2a8fb04", "type": "electric_scooter", "is_reserved": 0, "lon": -77.02531216666667}, {"fusion_lat": 0.0, "name": "393e67fcab9aaa701135c5b2380610c9", "is_disabled": 0, "rental_uris": {"android": "https://dc.lft.to/lastmile_qr_scan", "ios": "https://dc.lft.to/lastmile_qr_scan"}, "fusion_lon": 0.0, "lat": 38.849113, "bike_id": "393e67fcab9aaa701135c5b2380610c9", "type": "electric_bike", "is_reserved": 0, "lon": -77.09981633333334}, {"fusion_lat": 0.0, "name": "1531ebb51da7aab669d7085bcb59bda1", "is_disabled": 0, "rental_uris": {"android": "https://dc.lft.to/lastmile_qr_scan", "ios": "https://dc.lft.to/lastmile_qr_scan"}, "fusion_lon": 0.0, "lat": 38.9035865, "bike_id": "1531ebb51da7aab669d7085bcb59bda1", "type": "electric_scooter", "is_reserved": 0, "lon": -77.06267466666667}, {"fusion_lat": 0.0, "name": "7db901d6ac02e23228c573f251bbf941", "is_disabled": 0, "rental_uris": {"android": "https://dc.lft.to/lastmile_qr_scan", "ios": "https://dc.lft.to/lastmile_qr_scan"}, "fusion_lon": 0.0, "lat": 38.914076666666666, "bike_id": "7db901d6ac02e23228c573f251bbf941", "type": "electric_scooter", "is_reserved": 0, "lon": -77.031427}, {"fusion_lat": 0.0, "name": "22d742adb1d6c699f106fadd41759d5c", "is_disabled": 0, "rental_uris": {"android": "https://dc.lft.to/lastmile_qr_scan", "ios": "https://dc.lft.to/lastmile_qr_scan"}, "fusion_lon": 0.0, "lat": 38.92874233333333, "bike_id": "22d742adb1d6c699f106fadd41759d5c", "type": "electric_scooter", "is_reserved": 0, "lon": -77.03476766666667}, {"fusion_lat": 0.0, "name": "8ad5b06eca39a2f1b1703218b488f6fd", "is_disabled": 0, "rental_uris": {"android": "https://dc.lft.to/lastmile_qr_scan", "ios": "https://dc.lft.to/lastmile_qr_scan"}, "fusion_lon": 0.0, "lat": 38.93881533333333, "bike_id": "8ad5b06eca39a2f1b1703218b488f6fd", "type": "electric_scooter", "is_reserved": 0, "lon": -77.02462966666667}, {"fusion_lat": 0.0, "name": "dea0ad72aa59f59dadade6577391da83", "is_disabled": 0, "rental_uris": {"android": "https://dc.lft.to/lastmile_qr_scan", "ios": "https://dc.lft.to/lastmile_qr_scan"}, "fusion_lon": 0.0, "lat": 38.89343366666667, "bike_id": "dea0ad72aa59f59dadade6577391da83", "type": "electric_scooter", "is_reserved": 0, "lon": -76.993801}, {"fusion_lat": 0.0, "name": "3a2ffc69ac0d7eeb8e6e4f52151a0225", "is_disabled": 0, "rental_uris": {"android": "https://dc.lft.to/lastmile_qr_scan", "ios": "https://dc.lft.to/lastmile_qr_scan"}, "fusion_lon": 0.0, "lat": 38.86518983333333, "bike_id": "3a2ffc69ac0d7eeb8e6e4f52151a0225", "type": "electric_bike", "is_reserved": 0, "lon": -76.97335133333333}, {"fusion_lat": 0.0, "name": "fda9cb62e7963f0c2a35a9f6e3e1281a", "is_disabled": 0, "rental_uris": {"android": "https://dc.lft.to/lastmile_qr_scan", "ios": "https://dc.lft.to/lastmile_qr_scan"}, "fusion_lon": 0.0, "lat": 38.93060666666667, "bike_id": "fda9cb62e7963f0c2a35a9f6e3e1281a", "type": "electric_scooter", "is_reserved": 0, "lon": -77.04053183333333}, {"fusion_lat": 0.0, "name": "a127784d9ff2942dc98d3a046cbb685b", "is_disabled": 0, "rental_uris": {"android": "https://dc.lft.to/lastmile_qr_scan", "ios": "https://dc.lft.to/lastmile_qr_scan"}, "fusion_lon": 0.0, "lat": 38.904782, "bike_id": "a127784d9ff2942dc98d3a046cbb685b", "type": "electric_scooter", "is_reserved": 0, "lon": -77.04848366666667}, {"fusion_lat": 0.0, "name": "84f2a1542036b76a997db6d0f6de685a", "is_disabled": 0, "rental_uris": {"android": "https://dc.lft.to/lastmile_qr_scan", "ios": "https://dc.lft.to/lastmile_qr_scan"}, "fusion_lon": 0.0, "lat": 38.91110066666667, "bike_id": "84f2a1542036b76a997db6d0f6de685a", "type": "electric_scooter", "is_reserved": 0, "lon": -77.0292545}, {"fusion_lat": 0.0, "name": "a3f48b8b41580af67b917c5650e8aeda", "is_disabled": 0, "rental_uris": {"android": "https://dc.lft.to/lastmile_qr_scan", "ios": "https://dc.lft.to/lastmile_qr_scan"}, "fusion_lon": 0.0, "lat": 38.92438666666666, "bike_id": "a3f48b8b41580af67b917c5650e8aeda", "type": "electric_scooter", "is_reserved": 0, "lon": -77.04461616666667}, {"fusion_lat": 0.0, "name": "20bd2cb59723272aeed90e7402f8e22e", "is_disabled": 0, "rental_uris": {"android": "https://dc.lft.to/lastmile_qr_scan", "ios": "https://dc.lft.to/lastmile_qr_scan"}, "fusion_lon": 0.0, "lat": 38.8975095, "bike_id": "20bd2cb59723272aeed90e7402f8e22e", "type": "electric_scooter", "is_reserved": 0, "lon": -77.02492883333333}, {"fusion_lat": 0.0, "name": "b32bc98d5999c75a6953e5ce91243fe2", "is_disabled": 0, "rental_uris": {"android": "https://dc.lft.to/lastmile_qr_scan", "ios": "https://dc.lft.to/lastmile_qr_scan"}, "fusion_lon": 0.0, "lat": 38.961851833333334, "bike_id": "b32bc98d5999c75a6953e5ce91243fe2", "type": "electric_bike", "is_reserved": 0, "lon": -77.0526795}, {"fusion_lat": 0.0, "name": "4134bc3b7b224a39f382e304cf9d3f14", "is_disabled": 0, "rental_uris": {"android": "https://dc.lft.to/lastmile_qr_scan", "ios": "https://dc.lft.to/lastmile_qr_scan"}, "fusion_lon": 0.0, "lat": 38.90429683333333, "bike_id": "4134bc3b7b224a39f382e304cf9d3f14", "type": "electric_scooter", "is_reserved": 0, "lon": -77.01889933333334}, {"fusion_lat": 0.0, "name": "71c80509109b04ef0dfad1c39cd3e9fb", "is_disabled": 0, "rental_uris": {"android": "https://dc.lft.to/lastmile_qr_scan", "ios": "https://dc.lft.to/lastmile_qr_scan"}, "fusion_lon": 0.0, "lat": 38.973776666666666, "bike_id": "71c80509109b04ef0dfad1c39cd3e9fb", "type": "electric_scooter", "is_reserved": 0, "lon": -77.0128345}, {"fusion_lat": 0.0, "name": "468c6ae007cf64035423795f226c863d", "is_disabled": 0, "rental_uris": {"android": "https://dc.lft.to/lastmile_qr_scan", "ios": "https://dc.lft.to/lastmile_qr_scan"}, "fusion_lon": 0.0, "lat": 38.90288533333333, "bike_id": "468c6ae007cf64035423795f226c863d", "type": "electric_scooter", "is_reserved": 0, "lon": -77.0364555}, {"fusion_lat": 0.0, "name": "a32bbca725d505f3b466aeb12f05c113", "is_disabled": 0, "rental_uris": {"android": "https://dc.lft.to/lastmile_qr_scan", "ios": "https://dc.lft.to/lastmile_qr_scan"}, "fusion_lon": 0.0, "lat": 38.9699305, "bike_id": "a32bbca725d505f3b466aeb12f05c113", "type": "electric_scooter", "is_reserved": 0, "lon": -77.0115925}, {"fusion_lat": 0.0, "name": "f6eae724454ea059429d56b58e147416", "is_disabled": 0, "rental_uris": {"android": "https://dc.lft.to/lastmile_qr_scan", "ios": "https://dc.lft.to/lastmile_qr_scan"}, "fusion_lon": 0.0, "lat": 38.932581, "bike_id": "f6eae724454ea059429d56b58e147416", "type": "electric_scooter", "is_reserved": 0, "lon": -77.03858883333334}, {"fusion_lat": 0.0, "name": "df6bc3736c2b962106ac5f58df67df3c", "is_disabled": 0, "rental_uris": {"android": "https://dc.lft.to/lastmile_qr_scan", "ios": "https://dc.lft.to/lastmile_qr_scan"}, "fusion_lon": 0.0, "lat": 38.892418666666664, "bike_id": "df6bc3736c2b962106ac5f58df67df3c", "type": "electric_scooter", "is_reserved": 0, "lon": -77.03349533333333}, {"fusion_lat": 0.0, "name": "be4a54bf3ba12db117eefd1883e07708", "is_disabled": 0, "rental_uris": {"android": "https://dc.lft.to/lastmile_qr_scan", "ios": "https://dc.lft.to/lastmile_qr_scan"}, "fusion_lon": 0.0, "lat": 38.8910995, "bike_id": "be4a54bf3ba12db117eefd1883e07708", "type": "electric_scooter", "is_reserved": 0, "lon": -76.943802}, {"fusion_lat": 0.0, "name": "357799b99fdf99b548c175d9ca17251a", "is_disabled": 0, "rental_uris": {"android": "https://dc.lft.to/lastmile_qr_scan", "ios": "https://dc.lft.to/lastmile_qr_scan"}, "fusion_lon": 0.0, "lat": 38.91194316666667, "bike_id": "357799b99fdf99b548c175d9ca17251a", "type": "electric_scooter", "is_reserved": 0, "lon": -77.01196216666666}, {"fusion_lat": 0.0, "name": "c34c7c1af5658175b15e6badbef62d04", "is_disabled": 0, "rental_uris": {"android": "https://dc.lft.to/lastmile_qr_scan", "ios": "https://dc.lft.to/lastmile_qr_scan"}, "fusion_lon": 0.0, "lat": 38.930581333333336, "bike_id": "c34c7c1af5658175b15e6badbef62d04", "type": "electric_scooter", "is_reserved": 0, "lon": -77.033499}, {"fusion_lat": 0.0, "name": "5d308595797bc380811413afb2826314", "is_disabled": 0, "rental_uris": {"android": "https://dc.lft.to/lastmile_qr_scan", "ios": "https://dc.lft.to/lastmile_qr_scan"}, "fusion_lon": 0.0, "lat": 38.857960166666665, "bike_id": "5d308595797bc380811413afb2826314", "type": "electric_bike", "is_reserved": 0, "lon": -77.12012116666666}, {"fusion_lat": 0.0, "name": "e60cdc06d8925106fb109d4c056ef75a", "is_disabled": 0, "rental_uris": {"android": "https://dc.lft.to/lastmile_qr_scan", "ios": "https://dc.lft.to/lastmile_qr_scan"}, "fusion_lon": 0.0, "lat": 38.89453316666667, "bike_id": "e60cdc06d8925106fb109d4c056ef75a", "type": "electric_scooter", "is_reserved": 0, "lon": -77.02686616666666}, {"fusion_lat": 0.0, "name": "18933e1e9e4fd49c89ae3bdda3dcc271", "is_disabled": 0, "rental_uris": {"android": "https://dc.lft.to/lastmile_qr_scan", "ios": "https://dc.lft.to/lastmile_qr_scan"}, "fusion_lon": 0.0, "lat": 38.902531333333336, "bike_id": "18933e1e9e4fd49c89ae3bdda3dcc271", "type": "electric_scooter", "is_reserved": 0, "lon": -77.01937783333334}, {"fusion_lat": 0.0, "name": "929ce46fe2bbe6477917dc677ad87dc0", "is_disabled": 0, "rental_uris": {"android": "https://dc.lft.to/lastmile_qr_scan", "ios": "https://dc.lft.to/lastmile_qr_scan"}, "fusion_lon": 0.0, "lat": 38.935649833333336, "bike_id": "929ce46fe2bbe6477917dc677ad87dc0", "type": "electric_scooter", "is_reserved": 0, "lon": -77.034885}, {"fusion_lat": 0.0, "name": "1511d686188193aa534ce1a809a89f17", "is_disabled": 0, "rental_uris": {"android": "https://dc.lft.to/lastmile_qr_scan", "ios": "https://dc.lft.to/lastmile_qr_scan"}, "fusion_lon": 0.0, "lat": 38.862643166666665, "bike_id": "1511d686188193aa534ce1a809a89f17", "type": "electric_bike", "is_reserved": 0, "lon": -76.98350266666667}, {"fusion_lat": 0.0, "name": "ab953c0bdf770f4f1ac0abf759848410", "is_disabled": 0, "rental_uris": {"android": "https://dc.lft.to/lastmile_qr_scan", "ios": "https://dc.lft.to/lastmile_qr_scan"}, "fusion_lon": 0.0, "lat": 38.91670966666667, "bike_id": "ab953c0bdf770f4f1ac0abf759848410", "type": "electric_scooter", "is_reserved": 0, "lon": -77.0272265}, {"fusion_lat": 0.0, "name": "e00abf4d6a91b275643d80285c908bae", "is_disabled": 0, "rental_uris": {"android": "https://dc.lft.to/lastmile_qr_scan", "ios": "https://dc.lft.to/lastmile_qr_scan"}, "fusion_lon": 0.0, "lat": 38.930683333333334, "bike_id": "e00abf4d6a91b275643d80285c908bae", "type": "electric_scooter", "is_reserved": 0, "lon": -77.02977216666666}, {"fusion_lat": 0.0, "name": "2460078e4dbe79915b6f4e6e84c20e94", "is_disabled": 0, "rental_uris": {"android": "https://dc.lft.to/lastmile_qr_scan", "ios": "https://dc.lft.to/lastmile_qr_scan"}, "fusion_lon": 0.0, "lat": 38.92285116666667, "bike_id": "2460078e4dbe79915b6f4e6e84c20e94", "type": "electric_scooter", "is_reserved": 0, "lon": -77.03659233333333}, {"fusion_lat": 0.0, "name": "7bf25684dffae7473c1da374fdabea83", "is_disabled": 0, "rental_uris": {"android": "https://dc.lft.to/lastmile_qr_scan", "ios": "https://dc.lft.to/lastmile_qr_scan"}, "fusion_lon": 0.0, "lat": 38.895139, "bike_id": "7bf25684dffae7473c1da374fdabea83", "type": "electric_scooter", "is_reserved": 0, "lon": -77.0110965}, {"fusion_lat": 0.0, "name": "acc0d2c9a17dcb0f0921f1d7546a908c", "is_disabled": 0, "rental_uris": {"android": "https://dc.lft.to/lastmile_qr_scan", "ios": "https://dc.lft.to/lastmile_qr_scan"}, "fusion_lon": 0.0, "lat": 38.90977066666667, "bike_id": "acc0d2c9a17dcb0f0921f1d7546a908c", "type": "electric_scooter", "is_reserved": 0, "lon": -77.00895833333334}, {"fusion_lat": 0.0, "name": "05ca22109b648e39a941e7ee64650408", "is_disabled": 0, "rental_uris": {"android": "https://dc.lft.to/lastmile_qr_scan", "ios": "https://dc.lft.to/lastmile_qr_scan"}, "fusion_lon": 0.0, "lat": 38.887623833333336, "bike_id": "05ca22109b648e39a941e7ee64650408", "type": "electric_scooter", "is_reserved": 0, "lon": -76.97747983333333}, {"fusion_lat": 0.0, "name": "86d87ba10eb9131bf51132bcda9424a1", "is_disabled": 0, "rental_uris": {"android": "https://dc.lft.to/lastmile_qr_scan", "ios": "https://dc.lft.to/lastmile_qr_scan"}, "fusion_lon": 0.0, "lat": 38.85464, "bike_id": "86d87ba10eb9131bf51132bcda9424a1", "type": "electric_scooter", "is_reserved": 0, "lon": -76.97233566666667}, {"fusion_lat": 0.0, "name": "322d507fb225fc568a70170ee38e30c2", "is_disabled": 0, "rental_uris": {"android": "https://dc.lft.to/lastmile_qr_scan", "ios": "https://dc.lft.to/lastmile_qr_scan"}, "fusion_lon": 0.0, "lat": 38.8924745, "bike_id": "322d507fb225fc568a70170ee38e30c2", "type": "electric_scooter", "is_reserved": 0, "lon": -77.0334275}, {"fusion_lat": 0.0, "name": "df6d6bd2229bfca857621d0c3c217187", "is_disabled": 0, "rental_uris": {"android": "https://dc.lft.to/lastmile_qr_scan", "ios": "https://dc.lft.to/lastmile_qr_scan"}, "fusion_lon": 0.0, "lat": 38.936293, "bike_id": "df6d6bd2229bfca857621d0c3c217187", "type": "electric_scooter", "is_reserved": 0, "lon": -77.0365725}, {"fusion_lat": 0.0, "name": "95f632f7176078abbce56009bfe8e3f3", "is_disabled": 0, "rental_uris": {"android": "https://dc.lft.to/lastmile_qr_scan", "ios": "https://dc.lft.to/lastmile_qr_scan"}, "fusion_lon": 0.0, "lat": 38.90075183333333, "bike_id": "95f632f7176078abbce56009bfe8e3f3", "type": "electric_scooter", "is_reserved": 0, "lon": -77.02626116666667}, {"fusion_lat": 0.0, "name": "181560856b9a37291e755100610eae48", "is_disabled": 0, "rental_uris": {"android": "https://dc.lft.to/lastmile_qr_scan", "ios": "https://dc.lft.to/lastmile_qr_scan"}, "fusion_lon": 0.0, "lat": 38.8790975, "bike_id": "181560856b9a37291e755100610eae48", "type": "electric_scooter", "is_reserved": 0, "lon": -77.00820116666667}, {"fusion_lat": 0.0, "name": "4f0d13b4dda0db23368d15aee73da9c9", "is_disabled": 0, "rental_uris": {"android": "https://dc.lft.to/lastmile_qr_scan", "ios": "https://dc.lft.to/lastmile_qr_scan"}, "fusion_lon": 0.0, "lat": 38.89235266666667, "bike_id": "4f0d13b4dda0db23368d15aee73da9c9", "type": "electric_scooter", "is_reserved": 0, "lon": -77.01711033333333}, {"fusion_lat": 0.0, "name": "6dd7d9979f45dfa1dd8835d5ed4263db", "is_disabled": 0, "rental_uris": {"android": "https://dc.lft.to/lastmile_qr_scan", "ios": "https://dc.lft.to/lastmile_qr_scan"}, "fusion_lon": 0.0, "lat": 38.9272805, "bike_id": "6dd7d9979f45dfa1dd8835d5ed4263db", "type": "electric_scooter", "is_reserved": 0, "lon": -77.02310233333333}, {"fusion_lat": 0.0, "name": "5d1c4f5abd63f26192070086080bb023", "is_disabled": 0, "rental_uris": {"android": "https://dc.lft.to/lastmile_qr_scan", "ios": "https://dc.lft.to/lastmile_qr_scan"}, "fusion_lon": 0.0, "lat": 38.921578, "bike_id": "5d1c4f5abd63f26192070086080bb023", "type": "electric_scooter", "is_reserved": 0, "lon": -77.03376466666667}, {"fusion_lat": 0.0, "name": "6cd2e93155a32bf36432f8ae418a2fcd", "is_disabled": 0, "rental_uris": {"android": "https://dc.lft.to/lastmile_qr_scan", "ios": "https://dc.lft.to/lastmile_qr_scan"}, "fusion_lon": 0.0, "lat": 38.92855616666667, "bike_id": "6cd2e93155a32bf36432f8ae418a2fcd", "type": "electric_scooter", "is_reserved": 0, "lon": -77.02440383333334}, {"fusion_lat": 0.0, "name": "7070365f5ee897c13346972a29e01a3e", "is_disabled": 0, "rental_uris": {"android": "https://dc.lft.to/lastmile_qr_scan", "ios": "https://dc.lft.to/lastmile_qr_scan"}, "fusion_lon": 0.0, "lat": 38.907399166666664, "bike_id": "7070365f5ee897c13346972a29e01a3e", "type": "electric_scooter", "is_reserved": 0, "lon": -77.000564},