{"data": {"bikes": [{"lat": 38.9003035, "fusion_lat": 0.0, "is_disabled": 0, "fusion_lon": 0.0, "type": "electric_scooter", "bike_id": "9671ec72cd6831257970793d572a2ba1", "is_reserved": 0, "rental_uris": {"ios": "https://dc.lft.to/lastmile_qr_scan", "android": "https://dc.lft.to/lastmile_qr_scan"}, "name": "9671ec72cd6831257970793d572a2ba1", "lon": -77.01218133333333}, {"lat": 38.901580833333334, "fusion_lat": 0.0, "is_disabled": 0, "fusion_lon": 0.0, "type": "electric_scooter", "bike_id": "0761aa77dfbea953df5b0e3759a96742", "is_reserved": 0, "rental_uris": {"ios": "https://dc.lft.to/lastmile_qr_scan", "android": "https://dc.lft.to/lastmile_qr_scan"}, "name": "0761aa77dfbea953df5b0e3759a96742", "lon": -77.02213266666666}, {"lat": 38.8995645, "fusion_lat": 0.0, "is_disabled": 0, "fusion_lon": 0.0, "type": "electric_scooter", "bike_id": "9dee62763620afabc49a29c204873fa9", "is_reserved": 0, "rental_uris": {"ios": "https://dc.lft.to/lastmile_qr_scan", "android": "https://dc.lft.to/lastmile_qr_scan"}, "name": "9dee62763620afabc49a29c204873fa9", "lon": -77.04516116666667}, {"lat": 38.91833466666667, "fusion_lat": 0.0, "is_disabled": 0, "fusion_lon": 0.0, "type": "electric_scooter", "bike_id": "099debadefd8d3b70cc37a91b70668a0", "is_reserved": 0, "rental_uris": {"ios": "https://dc.lft.to/lastmile_qr_scan", "android": "https://dc.lft.to/lastmile_qr_scan"}, "name": "099debadefd8d3b70cc37a91b70668a0", "lon": -77.041656}, {"lat": 38.8966465, "fusion_lat": 0.0, "is_disabled": 0, "fusion_lon": 0.0, "type": "electric_scooter", "bike_id": "63fac98ce1ef85a5c96021df7247edb0", "is_reserved": 0, "rental_uris": {"ios": "https://dc.lft.to/lastmile_qr_scan", "android": "https://dc.lft.to/lastmile_qr_scan"}, "name": "63fac98ce1ef85a5c96021df7247edb0", "lon": -76.93212266666667}, {"lat": 38.902406, "fusion_lat": 0.0, "is_disabled": 0, "fusion_lon": 0.0, "type": "electric_scooter", "bike_id": "330af6689e7f0eda86310f37f39335f5", "is_reserved": 0, "rental_uris": {"ios": "https://dc.lft.to/lastmile_qr_scan", "android": "https://dc.lft.to/lastmile_qr_scan"}, "name": "330af6689e7f0eda86310f37f39335f5", "lon": -77.0247525}, {"lat": 38.920580666666666, "fusion_lat": 0.0, "is_disabled": 0, "fusion_lon": 0.0, "type": "electric_scooter", "bike_id": "446b775dd9e8513e0f59b96dddc58d71", "is_reserved": 0, "rental_uris": {"ios": "https://dc.lft.to/lastmile_qr_scan", "android": "https://dc.lft.to/lastmile_qr_scan"}, "name": "446b775dd9e8513e0f59b96dddc58d71", "lon": -77.04193066666667}, {"lat": 38.9071915, "fusion_lat": 0.0, "is_disabled": 0, "fusion_lon": 0.0, "type": "electric_scooter", "bike_id": "af79e3f2bd46bf583407c49fad9c12fd", "is_reserved": 0, "rental_uris": {"ios": "https://dc.lft.to/lastmile_qr_scan", "android": "https://dc.lft.to/lastmile_qr_scan"}, "name": "af79e3f2bd46bf583407c49fad9c12fd", "lon": -77.0486}, {"lat": 38.911037, "fusion_lat": 0.0, "is_disabled": 0, "fusion_lon": 0.0, "type": "electric_scooter", "bike_id": "84939282b04b5ac17b1ffafc7d4cafd0", "is_reserved": 0, "rental_uris": {"ios": "https://dc.lft.to/lastmile_qr_scan", "android": "https://dc.lft.to/lastmile_qr_scan"}, "name": "84939282b04b5ac17b1ffafc7d4cafd0", "lon": -77.01153633333334}, {"lat": 38.930424, "fusion_lat": 0.0, "is_disabled": 0, "fusion_lon": 0.0, "type": "electric_scooter", "bike_id": "7bb4eff5a7afbc4029120b002c81ab88", "is_reserved": 0, "rental_uris": {"ios": "https://dc.lft.to/lastmile_qr_scan", "android": "https://dc.lft.to/lastmile_qr_scan"}, "name": "7bb4eff5a7afbc4029120b002c81ab88", "lon": -77.05568583333333}, {"lat": 38.915887166666664, "fusion_lat": 0.0, "is_disabled": 0, "fusion_lon": 0.0, "type": "electric_scooter", "bike_id": "2ef1aa29f8b5692b1f6a1f256cac8450", "is_reserved": 0, "rental_uris": {"ios": "https://dc.lft.to/lastmile_qr_scan", "android": "https://dc.lft.to/lastmile_qr_scan"}, "name": "2ef1aa29f8b5692b1f6a1f256cac8450", "lon": -77.023969}, {"lat": 38.8681925, "fusion_lat": 0.0, "is_disabled": 0, "fusion_lon": 0.0, "type": "electric_bike", "bike_id": "f7fcb125c8431960348eb96f11556c6a", "is_reserved": 0, "rental_uris": {"ios": "https://dc.lft.to/lastmile_qr_scan", "android": "https://dc.lft.to/lastmile_qr_scan"}, "name": "f7fcb125c8431960348eb96f11556c6a", "lon": -76.98020633333333}, {"lat": 38.898263166666666, "fusion_lat": 0.0, "is_disabled": 0, "fusion_lon": 0.0, "type": "electric_scooter", "bike_id": "426405a85882378e3ef83fe1fda8e50e", "is_reserved": 0, "rental_uris": {"ios": "https://dc.lft.to/lastmile_qr_scan", "android": "https://dc.lft.to/lastmile_qr_scan"}, "name": "426405a85882378e3ef83fe1fda8e50e", "lon": -77.05029633333334}, {"lat": 38.914007833333336, "fusion_lat": 0.0, "is_disabled": 0, "fusion_lon": 0.0, "type": "electric_scooter", "bike_id": "c93340b454352a2bbf450302c9eeff5e", "is_reserved": 0, "rental_uris": {"ios": "https://dc.lft.to/lastmile_qr_scan", "android": "https://dc.lft.to/lastmile_qr_scan"}, "name": "c93340b454352a2bbf450302c9eeff5e", "lon": -77.032599}, {"lat": 38.906548, "fusion_lat": 0.0, "is_disabled": 0, "fusion_lon": 0.0, "type": "electric_scooter", "bike_id": "c9a4160f99a24e8b76b3006ab39858a6", "is_reserved": 0, "rental_uris": {"ios": "https://dc.lft.to/lastmile_qr_scan", "android": "https://dc.lft.to/lastmile_qr_scan"}, "name": "c9a4160f99a24e8b76b3006ab39858a6", "lon": -77.01412016666667}, {"lat": 38.900155, "fusion_lat": 0.0, "is_disabled": 0, "fusion_lon": 0.0, "type": "electric_scooter", "bike_id": "3cf2c7a5cf650c4456c805203053be04", "is_reserved": 0, "rental_uris": {"ios": "https://dc.lft.to/lastmile_qr_scan", "android": "https://dc.lft.to/lastmile_qr_scan"}, "name": "3cf2c7a5cf650c4456c805203053be04", "lon": -77.04509416666667}, {"lat": 38.922363, "fusion_lat": 0.0, "is_disabled": 0, "fusion_lon": 0.0, "type": "electric_scooter", "bike_id": "986b1bc4c68f13d7e6bdd0c294ddff73", "is_reserved": 0, "rental_uris": {"ios": "https://dc.lft.to/lastmile_qr_scan", "android": "https://dc.lft.to/lastmile_qr_scan"}, "name": "986b1bc4c68f13d7e6bdd0c294ddff73", "lon": -77.03346566666667}, {"lat": 38.895542, "fusion_lat": 0.0, "is_disabled": 0, "fusion_lon": 0.0, "type": "electric_scooter", "bike_id": "00792dd22dc3299b4471c295675d2574", "is_reserved": 0, "rental_uris": {"ios": "https://dc.lft.to/lastmile_qr_scan", "android": "https://dc.lft.to/lastmile_qr_scan"}, "name": "00792dd22dc3299b4471c295675d2574", "lon": -77.04673833333334}, {"lat": 38.909654, "fusion_lat": 0.0, "is_disabled": 0, "fusion_lon": 0.0, "type": "electric_scooter", "bike_id": "4f00dcc42d80a92b3f084bd1990b9ae6", "is_reserved": 0, "rental_uris": {"ios": "https://dc.lft.to/lastmile_qr_scan", "android": "https://dc.lft.to/lastmile_qr_scan"}, "name": "4f00dcc42d80a92b3f084bd1990b9ae6", "lon": -77.02411983333333}, {"lat": 38.9368815, "fusion_lat": 0.0, "is_disabled": 0, "fusion_lon": 0.0, "type": "electric_bike", "bike_id": "116e9dc3e30411fb1bd4edf14a3435fc", "is_reserved": 0, "rental_uris": {"ios": "https://dc.lft.to/lastmile_qr_scan", "android": "https://dc.lft.to/lastmile_qr_scan"}, "name": "116e9dc3e30411fb1bd4edf14a3435fc", "lon": -76.99060733333333}, {"lat": 38.90160183333333, "fusion_lat": 0.0, "is_disabled": 0, "fusion_lon": 0.0, "type": "electric_scooter", "bike_id": "80f2fb07315be6b6dd6d2e4ebefc4a3e", "is_reserved": 0, "rental_uris": {"ios": "https://dc.lft.to/lastmile_qr_scan", "android": "https://dc.lft.to/lastmile_qr_scan"}, "name": "80f2fb07315be6b6dd6d2e4ebefc4a3e", "lon": -77.02212166666666}, {"lat": 38.81544016666667, "fusion_lat": 0.0, "is_disabled": 0, "fusion_lon": 0.0, "type": "electric_bike", "bike_id": "ec45155b924cb073e557d5e98c74eebf", "is_reserved": 0, "rental_uris": {"ios": "https://dc.lft.to/lastmile_qr_scan", "android": "https://dc.lft.to/lastmile_qr_scan"}, "name": "ec45155b924cb073e557d5e98c74eebf", "lon": -77.0464115}, {"lat": 38.89720416666667, "fusion_lat": 0.0, "is_disabled": 0, "fusion_lon": 0.0, "type": "electric_scooter", "bike_id": "a8a34aa2717060a2f0b493ebe4c95f87", "is_reserved": 0, "rental_uris": {"ios": "https://dc.lft.to/lastmile_qr_scan", "android": "https://dc.lft.to/lastmile_qr_scan"}, "name": "a8a34aa2717060a2f0b493ebe4c95f87", "lon": -76.978515}, {"lat": 38.9324155, "fusion_lat": 0.0, "is_disabled": 0, "fusion_lon": 0.0, "type": "electric_scooter", "bike_id": "746dd7f97fb25a4a42943e5c9df369ef", "is_reserved": 0, "rental_uris": {"ios": "https://dc.lft.to/lastmile_qr_scan", "android": "https://dc.lft.to/lastmile_qr_scan"}, "name": "746dd7f97fb25a4a42943e5c9df369ef", "lon": -77.03280033333333}, {"lat": 38.925467, "fusion_lat": 0.0, "is_disabled": 0, "fusion_lon": 0.0, "type": "electric_scooter", "bike_id": "59ae776045b3823547f4a7ebf77d0f62", "is_reserved": 0, "rental_uris": {"ios": "https://dc.lft.to/lastmile_qr_scan", "android": "https://dc.lft.to/lastmile_qr_scan"}, "name": "59ae776045b3823547f4a7ebf77d0f62", "lon": -77.041749}, {"lat": 38.90073233333333, "fusion_lat": 0.0, "is_disabled": 0, "fusion_lon": 0.0, "type": "electric_scooter", "bike_id": "b356a225ff329f2ce2af62795b30abe4", "is_reserved": 0, "rental_uris": {"ios": "https://dc.lft.to/lastmile_qr_scan", "android": "https://dc.lft.to/lastmile_qr_scan"}, "name": "b356a225ff329f2ce2af62795b30abe4", "lon": -77.02718616666667}, {"lat": 38.90555783333333, "fusion_lat": 0.0, "is_disabled": 0, "fusion_lon": 0.0, "type": "electric_scooter", "bike_id": "ddd14449085ee4f03b8ddbb69a19a994", "is_reserved": 0, "rental_uris": {"ios": "https://dc.lft.to/lastmile_qr_scan", "android": "https://dc.lft.to/lastmile_qr_scan"}, "name": "ddd14449085ee4f03b8ddbb69a19a994", "lon": -77.02812733333333}, {"lat": 38.900507833333336, "fusion_lat": 0.0, "is_disabled": 0, "fusion_lon": 0.0, "type": "electric_scooter", "bike_id": "2b473ce92d35a41f4a990208b8891d72", "is_reserved": 0, "rental_uris": {"ios": "https://dc.lft.to/lastmile_qr_scan", "android": "https://dc.lft.to/lastmile_qr_scan"}, "name": "2b473ce92d35a41f4a990208b8891d72", "lon": -77.04874816666667}, {"lat": 38.920992, "fusion_lat": 0.0, "is_disabled": 0, "fusion_lon": 0.0, "type": "electric_scooter", "bike_id": "5d0cc740d300d5c8e2743a649ab62833", "is_reserved": 0, "rental_uris": {"ios": "https://dc.lft.to/lastmile_qr_scan", "android": "https://dc.lft.to/lastmile_qr_scan"}, "name": "5d0cc740d300d5c8e2743a649ab62833", "lon": -77.04696383333334}, {"lat": 38.932683, "fusion_lat": 0.0, "is_disabled": 0, "fusion_lon": 0.0, "type": "electric_scooter", "bike_id": "b490b2d0b26620866229499eb9aecf1b", "is_reserved": 0, "rental_uris": {"ios": "https://dc.lft.to/lastmile_qr_scan", "android": "https://dc.lft.to/lastmile_qr_scan"}, "name": "b490b2d0b26620866229499eb9aecf1b", "lon": -77.03950933333333}, {"lat": 38.9236805, "fusion_lat": 0.0, "is_disabled": 0, "fusion_lon": 0.0, "type": "electric_scooter", "bike_id": "1e0e5f7bdfbf263f6e1921df03495e44", "is_reserved": 0, "rental_uris": {"ios": "https://dc.lft.to/lastmile_qr_scan", "android": "https://dc.lft.to/lastmile_qr_scan"}, "name": "1e0e5f7bdfbf263f6e1921df03495e44", "lon": -77.0195635}, {"lat": 38.9306095, "fusion_lat": 0.0, "is_disabled": 0, "fusion_lon": 0.0, "type": "electric_scooter", "bike_id": "c38147b84998288d56d5d0bd5bd64250", "is_reserved": 0, "rental_uris": {"ios": "https://dc.lft.to/lastmile_qr_scan", "android": "https://dc.lft.to/lastmile_qr_scan"}, "name": "c38147b84998288d56d5d0bd5bd64250", "lon": -77.03212916666666}, {"lat": 38.91817416666667, "fusion_lat": 0.0, "is_disabled": 0, "fusion_lon": 0.0, "type": "electric_scooter", "bike_id": "c22febbcabc6f83b3e9eb69ff1a2ca72", "is_reserved": 0, "rental_uris": {"ios": "https://dc.lft.to/lastmile_qr_scan", "android": "https://dc.lft.to/lastmile_qr_scan"}, "name": "c22febbcabc6f83b3e9eb69ff1a2ca72", "lon": -77.04510416666666}, {"lat": 38.905091166666665, "fusion_lat": 0.0, "is_disabled": 0, "fusion_lon": 0.0, "type": "electric_scooter", "bike_id": "ad2cf8b1f273dc409f09c04fe3297d69", "is_reserved": 0, "rental_uris": {"ios": "https://dc.lft.to/lastmile_qr_scan", "android": "https://dc.lft.to/lastmile_qr_scan"}, "name": "ad2cf8b1f273dc409f09c04fe3297d69", "lon": -76.98483666666667}, {"lat": 38.90531, "fusion_lat": 0.0, "is_disabled": 0, "fusion_lon": 0.0, "type": "electric_scooter", "bike_id": "789f1c5787f01873568ae1503e6dbb87", "is_reserved": 0, "rental_uris": {"ios": "https://dc.lft.to/lastmile_qr_scan", "android": "https://dc.lft.to/lastmile_qr_scan"}, "name": "789f1c5787f01873568ae1503e6dbb87", "lon": -77.05005783333333}, {"lat": 38.8979915, "fusion_lat": 0.0, "is_disabled": 0, "fusion_lon": 0.0, "type": "electric_scooter", "bike_id": "0cc9bd37e08dba2f20e1fb12e288ac71", "is_reserved": 0, "rental_uris": {"ios": "https://dc.lft.to/lastmile_qr_scan", "android": "https://dc.lft.to/lastmile_qr_scan"}, "name": "0cc9bd37e08dba2f20e1fb12e288ac71", "lon": -77.03188216666666}, {"lat": 38.87848966666667, "fusion_lat": 0.0, "is_disabled": 0, "fusion_lon": 0.0, "type": "electric_scooter", "bike_id": "1028d281f80ee89a981f0c5a0a59bba0", "is_reserved": 0, "rental_uris": {"ios": "https://dc.lft.to/lastmile_qr_scan", "android": "https://dc.lft.to/lastmile_qr_scan"}, "name": "1028d281f80ee89a981f0c5a0a59bba0", "lon": -77.00688416666667}, {"lat": 38.904790166666665, "fusion_lat": 0.0, "is_disabled": 0, "fusion_lon": 0.0, "type": "electric_scooter", "bike_id": "1c048e35ce3e90dc07aa710ef15c2944", "is_reserved": 0, "rental_uris": {"ios": "https://dc.lft.to/lastmile_qr_scan", "android": "https://dc.lft.to/lastmile_qr_scan"}, "name": "1c048e35ce3e90dc07aa710ef15c2944", "lon": -77.0434515}, {"lat": 38.846058666666664, "fusion_lat": 0.0, "is_disabled": 0, "fusion_lon": 0.0, "type": "electric_bike", "bike_id": "f8ec5660235c1b103e511e38dbbdee18", "is_reserved": 0, "rental_uris": {"ios": "https://dc.lft.to/lastmile_qr_scan", "android": "https://dc.lft.to/lastmile_qr_scan"}, "name": "f8ec5660235c1b103e511e38dbbdee18", "lon": -76.97822366666666}, {"lat": 38.89466016666667, "fusion_lat": 0.0, "is_disabled": 0, "fusion_lon": 0.0, "type": "electric_scooter", "bike_id": "c99d7bc6338bfbc8363ef6b65bdc13b7", "is_reserved": 0, "rental_uris": {"ios": "https://dc.lft.to/lastmile_qr_scan", "android": "https://dc.lft.to/lastmile_qr_scan"}, "name": "c99d7bc6338bfbc8363ef6b65bdc13b7", "lon": -76.98591933333333}, {"lat": 38.875308833333335, "fusion_lat": 0.0, "is_disabled": 0, "fusion_lon": 0.0, "type": "electric_scooter", "bike_id": "c55b4bf3eca2844e06861eb5b87385c5", "is_reserved": 0, "rental_uris": {"ios": "https://dc.lft.to/lastmile_qr_scan", "android": "https://dc.lft.to/lastmile_qr_scan"}, "name": "c55b4bf3eca2844e06861eb5b87385c5", "lon": -77.00509483333333}, {"lat": 38.930900666666666, "fusion_lat": 0.0, "is_disabled": 0, "fusion_lon": 0.0, "type": "electric_scooter", "bike_id": "236ede53c45367543cef57bab9e8ff05", "is_reserved": 0, "rental_uris": {"ios": "https://dc.lft.to/lastmile_qr_scan", "android": "https://dc.lft.to/lastmile_qr_scan"}, "name": "236ede53c45367543cef57bab9e8ff05", "lon": -77.03439033333333}, {"lat": 38.9246725, "fusion_lat": 0.0, "is_disabled": 0, "fusion_lon": 0.0, "type": "electric_scooter", "bike_id": "4a424a5f9a6d08afd8e7eb8480fe38ec", "is_reserved": 0, "rental_uris": {"ios": "https://dc.lft.to/lastmile_qr_scan", "android": "https://dc.lft.to/lastmile_qr_scan"}, "name": "4a424a5f9a6d08afd8e7eb8480fe38ec", "lon": -77.02213383333333}, {"lat": 38.921876, "fusion_lat": 0.0, "is_disabled": 0, "fusion_lon": 0.0, "type": "electric_scooter", "bike_id": "834cd4395e7be40b5afc0a30f6361aa7", "is_reserved": 0, "rental_uris": {"ios": "https://dc.lft.to/lastmile_qr_scan", "android": "https://dc.lft.to/lastmile_qr_scan"}, "name": "834cd4395e7be40b5afc0a30f6361aa7", "lon": -77.09944283333333}, {"lat": 38.88709433333333, "fusion_lat": 0.0, "is_disabled": 0, "fusion_lon": 0.0, "type": "electric_scooter", "bike_id": "2e5b8fa5444ea3e25750460770be40a8", "is_reserved": 0, "rental_uris": {"ios": "https://dc.lft.to/lastmile_qr_scan", "android": "https://dc.lft.to/lastmile_qr_scan"}, "name": "2e5b8fa5444ea3e25750460770be40a8", "lon": -76.98341716666667}, {"lat": 38.90271333333333, "fusion_lat": 0.0, "is_disabled": 0, "fusion_lon": 0.0, "type": "electric_scooter", "bike_id": "081fdafa86e57e12d364a08899fe89b7", "is_reserved": 0, "rental_uris": {"ios": "https://dc.lft.to/lastmile_qr_scan", "android": "https://dc.lft.to/lastmile_qr_scan"}, "name": "081fdafa86e57e12d364a08899fe89b7", "lon": -77.04041283333333}, {"lat": 38.90056666666667, "fusion_lat": 0.0, "is_disabled": 0, "fusion_lon": 0.0, "type": "electric_scooter", "bike_id": "972c75babf5630b24c20266e7645c58e", "is_reserved": 0, "rental_uris": {"ios": "https://dc.lft.to/lastmile_qr_scan", "android": "https://dc.lft.to/lastmile_qr_scan"}, "name": "972c75babf5630b24c20266e7645c58e", "lon": -77.0443185}, {"lat": 38.92636616666667, "fusion_lat": 0.0, "is_disabled": 0, "fusion_lon": 0.0, "type": "electric_scooter", "bike_id": "31d131a9ad8f0a35d112073becd46dca", "is_reserved": 0, "rental_uris": {"ios": "https://dc.lft.to/lastmile_qr_scan", "android": "https://dc.lft.to/lastmile_qr_scan"}, "name": "31d131a9ad8f0a35d112073becd46dca", "lon": -77.03694016666667}, {"lat": 38.9259735, "fusion_lat": 0.0, "is_disabled": 0, "fusion_lon": 0.0, "type": "electric_scooter", "bike_id": "982c25d90cb9ddd3d3a29dca1d9d77aa", "is_reserved": 0, "rental_uris": {"ios": "https://dc.lft.to/lastmile_qr_scan", "android": "https://dc.lft.to/lastmile_qr_scan"}, "name": "982c25d90cb9ddd3d3a29dca1d9d77aa", "lon": -77.02490716666667}, {"lat": 38.950475, "fusion_lat": 0.0, "is_disabled": 0, "fusion_lon": 0.0, "type": "electric_bike", "bike_id": "f5f131461afaacf3acea179eaebfab5b", "is_reserved": 0, "rental_uris": {"ios": "https://dc.lft.to/lastmile_qr_scan", "android": "https://dc.lft.to/lastmile_qr_scan"}, "name": "f5f131461afaacf3acea179eaebfab5b", "lon": -77.0776395}, {"lat": 38.918036666666666, "fusion_lat": 0.0, "is_disabled": 0, "fusion_lon": 0.0, "type": "electric_scooter", "bike_id": "60d95ccdbbba1447acb54e4773806ee4", "is_reserved": 0, "rental_uris": {"ios": "https://dc.lft.to/lastmile_qr_scan", "android": "https://dc.lft.to/lastmile_qr_scan"}, "name": "60d95ccdbbba1447acb54e4773806ee4", "lon": -77.01188533333334}, {"lat": 38.90073683333333, "fusion_lat": 0.0, "is_disabled": 0, "fusion_lon": 0.0, "type": "electric_scooter", "bike_id": "0dea9d44ec83592beeb120a3327f207c", "is_reserved": 0, "rental_uris": {"ios": "https://dc.lft.to/lastmile_qr_scan", "android": "https://dc.lft.to/lastmile_qr_scan"}, "name": "0dea9d44ec83592beeb120a3327f207c", "lon": -77.02715016666667}, {"lat": 38.90977683333333, "fusion_lat": 0.0, "is_disabled": 0, "fusion_lon": 0.0, "type": "electric_scooter", "bike_id": "378d004db1d5cba4138cd88c7e099bb5", "is_reserved": 0, "rental_uris": {"ios": "https://dc.lft.to/lastmile_qr_scan", "android": "https://dc.lft.to/lastmile_qr_scan"}, "name": "378d004db1d5cba4138cd88c7e099bb5", "lon": -77.03180666666667}, {"lat": 38.92248283333333, "fusion_lat": 0.0, "is_disabled": 0, "fusion_lon": 0.0, "type": "electric_scooter", "bike_id": "90baf8d6d1b1beef28d9cfcaee97e7ec", "is_reserved": 0, "rental_uris": {"ios": "https://dc.lft.to/lastmile_qr_scan", "android": "https://dc.lft.to/lastmile_qr_scan"}, "name": "90baf8d6d1b1beef28d9cfcaee97e7ec", "lon": -77.01970033333333}, {"lat": 38.89682916666667, "fusion_lat": 0.0, "is_disabled": 0, "fusion_lon": 0.0, "type": "electric_scooter", "bike_id": "e710b14914600f9da0898a374212cb27", "is_reserved": 0, "rental_uris": {"ios": "https://dc.lft.to/lastmile_qr_scan", "android": "https://dc.lft.to/lastmile_qr_scan"}, "name": "e710b14914600f9da0898a374212cb27", "lon": -77.0490285}, {"lat": 38.898516, "fusion_lat": 0.0, "is_disabled": 0, "fusion_lon": 0.0, "type": "electric_scooter", "bike_id": "7d787a56bbd8766a2cbf7335d4e7870a", "is_reserved": 0, "rental_uris": {"ios": "https://dc.lft.to/lastmile_qr_scan", "android": "https://dc.lft.to/lastmile_qr_scan"}, "name": "7d787a56bbd8766a2cbf7335d4e7870a", "lon": -76.92749133333334}, {"lat": 38.832938166666665, "fusion_lat": 0.0, "is_disabled": 0, "fusion_lon": 0.0, "type": "electric_bike", "bike_id": "5d7718d66bedcd51a136e4fbf922ff6d", "is_reserved": 0, "rental_uris": {"ios": "https://dc.lft.to/lastmile_qr_scan", "android": "https://dc.lft.to/lastmile_qr_scan"}, "name": "5d7718d66bedcd51a136e4fbf922ff6d", "lon": -77.08409266666666}, {"lat": 38.87838816666667, "fusion_lat": 0.0, "is_disabled": 0, "fusion_lon": 0.0, "type": "electric_scooter", "bike_id": "b85e8979adc2aa11b59089cb540549f9", "is_reserved": 0, "rental_uris": {"ios": "https://dc.lft.to/lastmile_qr_scan", "android": "https://dc.lft.to/lastmile_qr_scan"}, "name": "b85e8979adc2aa11b59089cb540549f9", "lon": -77.0228195}, {"lat": 38.9043485, "fusion_lat": 0.0, "is_disabled": 0, "fusion_lon": 0.0, "type": "electric_bike", "bike_id": "ff05bcb0e8253a35e02de243303e5396", "is_reserved": 0, "rental_uris": {"ios": "https://dc.lft.to/lastmile_qr_scan", "android": "https://dc.lft.to/lastmile_qr_scan"}, "name": "ff05bcb0e8253a35e02de243303e5396", "lon": -76.97232033333333}, {"lat": 38.9296135, "fusion_lat": 0.0, "is_disabled": 0, "fusion_lon": 0.0, "type": "electric_scooter", "bike_id": "0cf8bde79713e3847a36f82a2ce78959", "is_reserved": 0, "rental_uris": {"ios": "https://dc.lft.to/lastmile_qr_scan", "android": "https://dc.lft.to/lastmile_qr_scan"}, "name": "0cf8bde79713e3847a36f82a2ce78959", "lon": -77.031506}, {"lat": 38.921524833333336, "fusion_lat": 0.0, "is_disabled": 0, "fusion_lon": 0.0, "type": "electric_bike", "bike_id": "f70654fe5271acd3f184894560fee68c", "is_reserved": 0, "rental_uris": {"ios": "https://dc.lft.to/lastmile_qr_scan", "android": "https://dc.lft.to/lastmile_qr_scan"}, "name": "f70654fe5271acd3f184894560fee68c", "lon": -77.07892483333333}, {"lat": 38.90526916666666, "fusion_lat": 0.0, "is_disabled": 0, "fusion_lon": 0.0, "type": "electric_scooter", "bike_id": "d179e428f8e5db29e74bc10b4147e32d", "is_reserved": 0, "rental_uris": {"ios": "https://dc.lft.to/lastmile_qr_scan", "android": "https://dc.lft.to/lastmile_qr_scan"}, "name": "d179e428f8e5db29e74bc10b4147e32d", "lon": -77.04767566666666}, {"lat": 38.921503333333334, "fusion_lat": 0.0, "is_disabled": 0, "fusion_lon": 0.0, "type": "electric_scooter", "bike_id": "10e146943e7b9145cd70f4a920001144", "is_reserved": 0, "rental_uris": {"ios": "https://dc.lft.to/lastmile_qr_scan", "android": "https://dc.lft.to/lastmile_qr_scan"}, "name": "10e146943e7b9145cd70f4a920001144", "lon": -77.04239466666667}, {"lat": 38.912785, "fusion_lat": 0.0, "is_disabled": 0, "fusion_lon": 0.0, "type": "electric_scooter", "bike_id": "6fd16c26825f3033807602b1a5e6cdfa", "is_reserved": 0, "rental_uris": {"ios": "https://dc.lft.to/lastmile_qr_scan", "android": "https://dc.lft.to/lastmile_qr_scan"}, "name": "6fd16c26825f3033807602b1a5e6cdfa", "lon": -77.03443183333333}, {"lat": 38.83689533333333, "fusion_lat": 0.0, "is_disabled": 0, "fusion_lon": 0.0, "type": "electric_bike", "bike_id": "6b02621753c56c13156c6b3e298e88d9", "is_reserved": 0, "rental_uris": {"ios": "https://dc.lft.to/lastmile_qr_scan", "android": "https://dc.lft.to/lastmile_qr_scan"}, "name": "6b02621753c56c13156c6b3e298e88d9", "lon": -77.057197}, {"lat": 38.92235466666666, "fusion_lat": 0.0, "is_disabled": 0, "fusion_lon": 0.0, "type": "electric_scooter", "bike_id": "7f4b6cda471a0e379404c3b65b7c432c", "is_reserved": 0, "rental_uris": {"ios": "https://dc.lft.to/lastmile_qr_scan", "android": "https://dc.lft.to/lastmile_qr_scan"}, "name": "7f4b6cda471a0e379404c3b65b7c432c", "lon": -77.03661633333333}, {"lat": 38.9157425, "fusion_lat": 0.0, "is_disabled": 0, "fusion_lon": 0.0, "type": "electric_scooter", "bike_id": "92b9cbf28e41946ce479bfdadeaca9f4", "is_reserved": 0, "rental_uris": {"ios": "https://dc.lft.to/lastmile_qr_scan", "android": "https://dc.lft.to/lastmile_qr_scan"}, "name": "92b9cbf28e41946ce479bfdadeaca9f4", "lon": -77.0320495}, {"lat": 38.900568166666666, "fusion_lat": 0.0, "is_disabled": 0, "fusion_lon": 0.0, "type": "electric_scooter", "bike_id": "a1a4ccff7a63703442b500b04d908809", "is_reserved": 0, "rental_uris": {"ios": "https://dc.lft.to/lastmile_qr_scan", "android": "https://dc.lft.to/lastmile_qr_scan"}, "name": "a1a4ccff7a63703442b500b04d908809", "lon": -77.0454465}, {"lat": 38.90218766666667, "fusion_lat": 0.0, "is_disabled": 0, "fusion_lon": 0.0, "type": "electric_scooter", "bike_id": "e2d5687c10cc36f4059aad1d4c2716ca", "is_reserved": 0, "rental_uris": {"ios": "https://dc.lft.to/lastmile_qr_scan", "android": "https://dc.lft.to/lastmile_qr_scan"}, "name": "e2d5687c10cc36f4059aad1d4c2716ca", "lon": -77.02365166666667}, {"lat": 38.932865666666665, "fusion_lat": 0.0, "is_disabled": 0, "fusion_lon": 0.0, "type": "electric_scooter", "bike_id": "531e2aed0b843800ccb8e243d5c70785", "is_reserved": 0, "rental_uris": {"ios": "https://dc.lft.to/lastmile_qr_scan", "android": "https://dc.lft.to/lastmile_qr_scan"}, "name": "531e2aed0b843800ccb8e243d5c70785", "lon": -76.98647783333334}, {"lat": 38.91920866666667, "fusion_lat": 0.0, "is_disabled": 0, "fusion_lon": 0.0, "type": "electric_scooter", "bike_id": "d9878352f7dc5a6c2a7044532a89f0c2", "is_reserved": 0, "rental_uris": {"ios": "https://dc.lft.to/lastmile_qr_scan", "android": "https://dc.lft.to/lastmile_qr_scan"}, "name": "d9878352f7dc5a6c2a7044532a89f0c2", "lon": -77.03416466666667}, {"lat": 38.97435316666667, "fusion_lat": 0.0, "is_disabled": 0, "fusion_lon": 0.0, "type": "electric_bike", "bike_id": "b9eee07658bd17a00f22dff1d6d2c0b5", "is_reserved": 0, "rental_uris": {"ios": "https://dc.lft.to/lastmile_qr_scan", "android": "https://dc.lft.to/lastmile_qr_scan"}, "name": "b9eee07658bd17a00f22dff1d6d2c0b5", "lon": -77.09613283333333}, {"lat": 38.854517333333334, "fusion_lat": 0.0, "is_disabled": 0, "fusion_lon": 0.0, "type": "electric_scooter", "bike_id": "0ee0237cba2b289fe220e994cdaa4664", "is_reserved": 0, "rental_uris": {"ios": "https://dc.lft.to/lastmile_qr_scan", "android": "https://dc.lft.to/lastmile_qr_scan"}, "name": "0ee0237cba2b289fe220e994cdaa4664", "lon": -76.98606633333333}, {"lat": 38.92403133333333, "fusion_lat": 0.0, "is_disabled": 0, "fusion_lon": 0.0, "type": "electric_scooter", "bike_id": "3e75b98d68c819471184963691997b03", "is_reserved": 0, "rental_uris": {"ios": "https://dc.lft.to/lastmile_qr_scan", "android": "https://dc.lft.to/lastmile_qr_scan"}, "name": "3e75b98d68c819471184963691997b03", "lon": -77.0200285}, {"lat": 38.9909175, "fusion_lat": 0.0, "is_disabled": 0, "fusion_lon": 0.0, "type": "electric_bike", "bike_id": "0b6f210f31aea8373a74b460d44862b7", "is_reserved": 0, "rental_uris": {"ios": "https://dc.lft.to/lastmile_qr_scan", "android": "https://dc.lft.to/lastmile_qr_scan"}, "name": "0b6f210f31aea8373a74b460d44862b7", "lon": -76.99371666666667}, {"lat": 38.939371, "fusion_lat": 0.0, "is_disabled": 0, "fusion_lon": 0.0, "type": "electric_scooter", "bike_id": "dd45ae8a95fffdc290dfc474785f7e03", "is_reserved": 0, "rental_uris": {"ios": "https://dc.lft.to/lastmile_qr_scan", "android": "https://dc.lft.to/lastmile_qr_scan"}, "name": "dd45ae8a95fffdc290dfc474785f7e03", "lon": -77.0605435}, {"lat": 38.8661635, "fusion_lat": 0.0, "is_disabled": 0, "fusion_lon": 0.0, "type": "electric_bike", "bike_id": "9e72819f902b0e0e743f46551f1d456f", "is_reserved": 0, "rental_uris": {"ios": "https://dc.lft.to/lastmile_qr_scan", "android": "https://dc.lft.to/lastmile_qr_scan"}, "name": "9e72819f902b0e0e743f46551f1d456f", "lon": -76.99005233333334}, {"lat": 38.915992, "fusion_lat": 0.0, "is_disabled": 0, "fusion_lon": 0.0, "type": "electric_scooter", "bike_id": "473b3c917526478a15a0cb1b59253b78", "is_reserved": 0, "rental_uris": {"ios": "https://dc.lft.to/lastmile_qr_scan", "android": "https://dc.lft.to/lastmile_qr_scan"}, "name": "473b3c917526478a15a0cb1b59253b78", "lon": -77.02969333333333}, {"lat": 38.921014166666666, "fusion_lat": 0.0, "is_disabled": 0, "fusion_lon": 0.0, "type": "electric_scooter", "bike_id": "cac464c0dd579b370e60743b7cf1d7fc", "is_reserved": 0, "rental_uris": {"ios": "https://dc.lft.to/lastmile_qr_scan", "android": "https://dc.lft.to/lastmile_qr_scan"}, "name": "cac464c0dd579b370e60743b7cf1d7fc", "lon": -77.04380766666667}, {"lat": 38.879021333333334, "fusion_lat": 0.0, "is_disabled": 0, "fusion_lon": 0.0, "type": "electric_scooter", "bike_id": "a9c4a29c9b48ebcc2f5e4b89dc9ab94a", "is_reserved": 0, "rental_uris": {"ios": "https://dc.lft.to/lastmile_qr_scan", "android": "https://dc.lft.to/lastmile_qr_scan"}, "name": "a9c4a29c9b48ebcc2f5e4b89dc9ab94a", "lon": -76.944699}, {"lat": 38.902662666666664, "fusion_lat": 0.0, "is_disabled": 0, "fusion_lon": 0.0, "type": "electric_scooter", "bike_id": "974cf01e4c75829e61e72177fef50f0f", "is_reserved": 0, "rental_uris": {"ios": "https://dc.lft.to/lastmile_qr_scan", "android": "https://dc.lft.to/lastmile_qr_scan"}, "name": "974cf01e4c75829e61e72177fef50f0f", "lon": -77.02747883333333}, {"lat": 38.926697833333336, "fusion_lat": 0.0, "is_disabled": 0, "fusion_lon": 0.0, "type": "electric_scooter", "bike_id": "f87f8e683292a6b0cc7c4542cb050746", "is_reserved": 0, "rental_uris": {"ios": "https://dc.lft.to/lastmile_qr_scan", "android": "https://dc.lft.to/lastmile_qr_scan"}, "name": "f87f8e683292a6b0cc7c4542cb050746", "lon": -77.01472766666667}, {"lat": 38.88668416666667, "fusion_lat": 0.0, "is_disabled": 0, "fusion_lon": 0.0, "type": "electric_scooter", "bike_id": "351e448b8b517add31016ee0a3230eb2", "is_reserved": 0, "rental_uris": {"ios": "https://dc.lft.to/lastmile_qr_scan", "android": "https://dc.lft.to/lastmile_qr_scan"}, "name": "351e448b8b517add31016ee0a3230eb2", "lon": -76.991442}, {"lat": 38.924815333333335, "fusion_lat": 0.0, "is_disabled": 0, "fusion_lon": 0.0, "type": "electric_scooter", "bike_id": "ee0d121c291949ccb8310a7e709cc0e1", "is_reserved": 0, "rental_uris": {"ios": "https://dc.lft.to/lastmile_qr_scan", "android": "https://dc.lft.to/lastmile_qr_scan"}, "name": "ee0d121c291949ccb8310a7e709cc0e1", "lon": -77.027178}, {"lat": 38.898792, "fusion_lat": 0.0, "is_disabled": 0, "fusion_lon": 0.0, "type": "electric_scooter", "bike_id": "19d073085d1a4978e219159eed9a7983", "is_reserved": 0, "rental_uris": {"ios": "https://dc.lft.to/lastmile_qr_scan", "android": "https://dc.lft.to/lastmile_qr_scan"}, "name": "19d073085d1a4978e219159eed9a7983", "lon": -77.0329285}, {"lat": 38.91701166666667, "fusion_lat": 0.0, "is_disabled": 0, "fusion_lon": 0.0, "type": "electric_scooter", "bike_id": "ccebcd9bccd433b0210e3cd829bb81e5", "is_reserved": 0, "rental_uris": {"ios": "https://dc.lft.to/lastmile_qr_scan", "android": "https://dc.lft.to/lastmile_qr_scan"}, "name": "ccebcd9bccd433b0210e3cd829bb81e5", "lon": -77.02412733333334}, {"lat": 38.892292166666664, "fusion_lat": 0.0, "is_disabled": 0, "fusion_lon": 0.0, "type": "electric_scooter", "bike_id": "904f9fa8a173a5f770ecb67930386a20", "is_reserved": 0, "rental_uris": {"ios": "https://dc.lft.to/lastmile_qr_scan", "android": "https://dc.lft.to/lastmile_qr_scan"}, "name": "904f9fa8a173a5f770ecb67930386a20", "lon": -77.04995816666667}, {"lat": 39.01074633333333, "fusion_lat": 0.0, "is_disabled": 0, "fusion_lon": 0.0, "type": "electric_bike", "bike_id": "b7fa1cb209b26a0aa1226945aa43719f", "is_reserved": 0, "rental_uris": {"ios": "https://dc.lft.to/lastmile_qr_scan", "android": "https://dc.lft.to/lastmile_qr_scan"}, "name": "b7fa1cb209b26a0aa1226945aa43719f", "lon": -76.91063433333333}, {"lat": 38.872789, "fusion_lat": 0.0, "is_disabled": 0, "fusion_lon": 0.0, "type": "electric_scooter", "bike_id": "a6b2bd60697298d44cd71cad45b4a839", "is_reserved": 0, "rental_uris": {"ios": "https://dc.lft.to/lastmile_qr_scan", "android": "https://dc.lft.to/lastmile_qr_scan"}, "name": "a6b2bd60697298d44cd71cad45b4a839", "lon": -77.01522866666667}, {"lat": 38.9126505, "fusion_lat": 0.0, "is_disabled": 0, "fusion_lon": 0.0, "type": "electric_scooter", "bike_id": "e4c91f14187e2a0fe8ccd0bdb639cec1", "is_reserved": 0, "rental_uris": {"ios": "https://dc.lft.to/lastmile_qr_scan", "android": "https://dc.lft.to/lastmile_qr_scan"}, "name": "e4c91f14187e2a0fe8ccd0bdb639cec1", "lon": -77.03878233333333}, {"lat": 38.923832, "fusion_lat": 0.0, "is_disabled": 0, "fusion_lon": 0.0, "type": "electric_scooter", "bike_id": "54c343ee24e59e48cfb6ae39678267a2", "is_reserved": 0, "rental_uris": {"ios": "https://dc.lft.to/lastmile_qr_scan", "android": "https://dc.lft.to/lastmile_qr_scan"}, "name": "54c343ee24e59e48cfb6ae39678267a2", "lon": -77.05175533333333}, {"lat": 38.923984, "fusion_lat": 0.0, "is_disabled": 0, "fusion_lon": 0.0, "type": "electric_scooter", "bike_id": "d83547f72d5e48abaa0c2e30e02e9014", "is_reserved": 0, "rental_uris": {"ios": "https://dc.lft.to/lastmile_qr_scan", "android": "https://dc.lft.to/lastmile_qr_scan"}, "name": "d83547f72d5e48abaa0c2e30e02e9014", "lon": -77.02549516666667}, {"lat": 38.90649366666667, "fusion_lat": 0.0, "is_disabled": 0, "fusion_lon": 0.0, "type": "electric_scooter", "bike_id": "af748745ae2659b6a23a7579c1cbfa57", "is_reserved": 0, "rental_uris": {"ios": "https://dc.lft.to/lastmile_qr_scan", "android": "https://dc.lft.to/lastmile_qr_scan"}, "name": "af748745ae2659b6a23a7579c1cbfa57", "lon": -77.05317766666667}, {"lat": 38.907475833333336, "fusion_lat": 0.0, "is_disabled": 0, "fusion_lon": 0.0, "type": "electric_scooter", "bike_id": "6ec9f7e5b1cbaf5a88d14992822f6dbf", "is_reserved": 0, "rental_uris": {"ios": "https://dc.lft.to/lastmile_qr_scan", "android": "https://dc.lft.to/lastmile_qr_scan"}, "name": "6ec9f7e5b1cbaf5a88d14992822f6dbf", "lon": -77.0455415}, {"lat": 38.911152666666666, "fusion_lat": 0.0, "is_disabled": 0, "fusion_lon": 0.0, "type": "electric_scooter", "bike_id": "1b6bd04f60a683225dba4041758ba7e2", "is_reserved": 0, "rental_uris": {"ios": "https://dc.lft.to/lastmile_qr_scan", "android": "https://dc.lft.to/lastmile_qr_scan"}, "name": "1b6bd04f60a683225dba4041758ba7e2", "lon": -77.00600766666666}, {"lat": 38.876628833333335, "fusion_lat": 0.0, "is_disabled": 0, "fusion_lon": 0.0, "type": "electric_scooter", "bike_id": "c163b538558dd6e67921cec23007276c", "is_reserved": 0, "rental_uris": {"ios": "https://dc.lft.to/lastmile_qr_scan", "android": "https://dc.lft.to/lastmile_qr_scan"}, "name": "c163b538558dd6e67921cec23007276c", "lon": -77.00067983333334}, {"lat": 38.895401166666666, "fusion_lat": 0.0, "is_disabled": 0, "fusion_lon": 0.0, "type": "electric_scooter", "bike_id": "4ec027b8fe081d1eedf3f5ec6c2d58a8", "is_reserved": 0, "rental_uris": {"ios": "https://dc.lft.to/lastmile_qr_scan", "android": "https://dc.lft.to/lastmile_qr_scan"}, "name": "4ec027b8fe081d1eedf3f5ec6c2d58a8", "lon": -76.98338233333334}, {"lat": 38.898337166666664, "fusion_lat": 0.0, "is_disabled": 0, "fusion_lon": 0.0, "type": "electric_scooter", "bike_id": "5a701c422a94d7dc6c14abe20fe6061b", "is_reserved": 0, "rental_uris": {"ios": "https://dc.lft.to/lastmile_qr_scan", "android": "https://dc.lft.to/lastmile_qr_scan"}, "name": "5a701c422a94d7dc6c14abe20fe6061b", "lon": -77.0219235}, {"lat": 38.807368833333335, "fusion_lat": 0.0, "is_disabled": 0, "fusion_lon": 0.0, "type": "electric_bike", "bike_id": "66930b787c6b5248e5e97372e6425a08", "is_reserved": 0, "rental_uris": {"ios": "https://dc.lft.to/lastmile_qr_scan", "android": "https://dc.lft.to/lastmile_qr_scan"}, "name": "66930b787c6b5248e5e97372e6425a08", "lon": -77.0968515}, {"lat": 38.923078, "fusion_lat": 0.0, "is_disabled": 0, "fusion_lon": 0.0, "type": "electric_bike", "bike_id": "502cc9ff37cf471c6d99ce70ba1f9d22", "is_reserved": 0, "rental_uris": {"ios": "https://dc.lft.to/lastmile_qr_scan", "android": "https://dc.lft.to/lastmile_qr_scan"}, "name": "502cc9ff37cf471c6d99ce70ba1f9d22", "lon": -77.07509933333333}, {"lat": 38.90030483333334, "fusion_lat": 0.0, "is_disabled": 0, "fusion_lon": 0.0, "type": "electric_scooter", "bike_id": "1c3a3590e0251f9177f2626c44b1ffa4", "is_reserved": 0, "rental_uris": {"ios": "https://dc.lft.to/lastmile_qr_scan", "android": "https://dc.lft.to/lastmile_qr_scan"}, "name": "1c3a3590e0251f9177f2626c44b1ffa4", "lon": -76.99866883333334}, {"lat": 38.87168416666667, "fusion_lat": 0.0, "is_disabled": 0, "fusion_lon": 0.0, "type": "electric_bike", "bike_id": "12a5a55896395c49780ec929685006b3", "is_reserved": 0, "rental_uris": {"ios": "https://dc.lft.to/lastmile_qr_scan", "android": "https://dc.lft.to/lastmile_qr_scan"}, "name": "12a5a55896395c49780ec929685006b3", "lon": -77.2338885}, {"lat": 38.8990015, "fusion_lat": 0.0, "is_disabled": 0, "fusion_lon": 0.0, "type": "electric_scooter", "bike_id": "64ab6a915a26b82c058ac01891c311d9", "is_reserved": 0, "rental_uris": {"ios": "https://dc.lft.to/lastmile_qr_scan", "android": "https://dc.lft.to/lastmile_qr_scan"}, "name": "64ab6a915a26b82c058ac01891c311d9", "lon": -77.0402845}, {"lat": 38.9068875, "fusion_lat": 0.0, "is_disabled": 0, "fusion_lon": 0.0, "type": "electric_scooter", "bike_id": "32646e3756e22ce6cdd77ad72df29aba", "is_reserved": 0, "rental_uris": {"ios": "https://dc.lft.to/lastmile_qr_scan", "android": "https://dc.lft.to/lastmile_qr_scan"}, "name": "32646e3756e22ce6cdd77ad72df29aba", "lon": -77.02719533333334}, {"lat": 38.9222955, "fusion_lat": 0.0, "is_disabled": 0, "fusion_lon": 0.0, "type": "electric_scooter", "bike_id": "c9a585edc6743edc32c1838530c2de16", "is_reserved": 0, "rental_uris": {"ios": "https://dc.lft.to/lastmile_qr_scan", "android": "https://dc.lft.to/lastmile_qr_scan"}, "name": "c9a585edc6743edc32c1838530c2de16", "lon": -77.04251916666666}, {"lat": 38.916717, "fusion_lat": 0.0, "is_disabled": 0, "fusion_lon": 0.0, "type": "electric_scooter", "bike_id": "79763bb25f57afcfeaf360b3197fccf8", "is_reserved": 0, "rental_uris": {"ios": "https://dc.lft.to/lastmile_qr_scan", "android": "https://dc.lft.to/lastmile_qr_scan"}, "name": "79763bb25f57afcfeaf360b3197fccf8", "lon": -77.034605}, {"lat": 38.9353715, "fusion_lat": 0.0, "is_disabled": 0, "fusion_lon": 0.0, "type": "electric_scooter", "bike_id": "dbad0de429f1331f040c52ba7b407f04", "is_reserved": 0, "rental_uris": {"ios": "https://dc.lft.to/lastmile_qr_scan", "android": "https://dc.lft.to/lastmile_qr_scan"}, "name": "dbad0de429f1331f040c52ba7b407f04", "lon": -77.03260066666667}, {"lat": 38.952568666666664, "fusion_lat": 0.0, "is_disabled": 0, "fusion_lon": 0.0, "type": "electric_scooter", "bike_id": "6368637e0f34018c9b3b43a67e7f7262", "is_reserved": 0, "rental_uris": {"ios": "https://dc.lft.to/lastmile_qr_scan", "android": "https://dc.lft.to/lastmile_qr_scan"}, "name": "6368637e0f34018c9b3b43a67e7f7262", "lon": -77.02074983333333}, {"lat": 38.912473166666665, "fusion_lat": 0.0, "is_disabled": 0, "fusion_lon": 0.0, "type": "electric_scooter", "bike_id": "f2dcf9c6421ee394d58eceac50495e8d", "is_reserved": 0, "rental_uris": {"ios": "https://dc.lft.to/lastmile_qr_scan", "android": "https://dc.lft.to/lastmile_qr_scan"}, "name": "f2dcf9c6421ee394d58eceac50495e8d", "lon": -77.02808316666666}, {"lat": 38.93620816666667, "fusion_lat": 0.0, "is_disabled": 0, "fusion_lon": 0.0, "type": "electric_scooter", "bike_id": "3aa20d72e5706e8de55cb81ca4dd3b00", "is_reserved": 0, "rental_uris": {"ios": "https://dc.lft.to/lastmile_qr_scan", "android": "https://dc.lft.to/lastmile_qr_scan"}, "name": "3aa20d72e5706e8de55cb81ca4dd3b00", "lon": -77.0329225}, {"lat": 38.930572833333336, "fusion_lat": 0.0, "is_disabled": 0, "fusion_lon": 0.0, "type": "electric_scooter", "bike_id": "f6bed73ec1bb5129dbedbbc1db12b6cd", "is_reserved": 0, "rental_uris": {"ios": "https://dc.lft.to/lastmile_qr_scan", "android": "https://dc.lft.to/lastmile_qr_scan"}, "name": "f6bed73ec1bb5129dbedbbc1db12b6cd", "lon": -77.03939733333333}, {"lat": 38.93250333333334, "fusion_lat": 0.0, "is_disabled": 0, "fusion_lon": 0.0, "type": "electric_scooter", "bike_id": "cf81f4ed7bc0b0fa75d987f2824be2c1", "is_reserved": 0, "rental_uris": {"ios": "https://dc.lft.to/lastmile_qr_scan", "android": "https://dc.lft.to/lastmile_qr_scan"}, "name": "cf81f4ed7bc0b0fa75d987f2824be2c1", "lon": -77.03870333333333}, {"lat": 38.917472, "fusion_lat": 0.0, "is_disabled": 0, "fusion_lon": 0.0, "type": "electric_scooter", "bike_id": "5bd79e3299538eb5f5c2818e618c29f8", "is_reserved": 0, "rental_uris": {"ios": "https://dc.lft.to/lastmile_qr_scan", "android": "https://dc.lft.to/lastmile_qr_scan"}, "name": "5bd79e3299538eb5f5c2818e618c29f8", "lon": -77.02117266666667}, {"lat": 38.89905533333334, "fusion_lat": 0.0, "is_disabled": 0, "fusion_lon": 0.0, "type": "electric_scooter", "bike_id": "1ec74e990ca3978320fdb838a3500df7", "is_reserved": 0, "rental_uris": {"ios": "https://dc.lft.to/lastmile_qr_scan", "android": "https://dc.lft.to/lastmile_qr_scan"}, "name": "1ec74e990ca3978320fdb838a3500df7", "lon": -77.02317433333333}, {"lat": 38.8900275, "fusion_lat": 0.0, "is_disabled": 0, "fusion_lon": 0.0, "type": "electric_scooter", "bike_id": "c0dcebc777e09450277ab65e662c965f", "is_reserved": 0, "rental_uris": {"ios": "https://dc.lft.to/lastmile_qr_scan", "android": "https://dc.lft.to/lastmile_qr_scan"}, "name": "c0dcebc777e09450277ab65e662c965f", "lon": -76.93747333333333}, {"lat": 38.898235, "fusion_lat": 0.0, "is_disabled": 0, "fusion_lon": 0.0, "type": "electric_scooter", "bike_id": "0f62f113e192136dc9b503f8f266cca1", "is_reserved": 0, "rental_uris": {"ios": "https://dc.lft.to/lastmile_qr_scan", "android": "https://dc.lft.to/lastmile_qr_scan"}, "name": "0f62f113e192136dc9b503f8f266cca1", "lon": -77.04614}, {"lat": 38.91059766666667, "fusion_lat": 0.0, "is_disabled": 0, "fusion_lon": 0.0, "type": "electric_scooter", "bike_id": "b81d6d484034fdcf4a2802a96b681b0f", "is_reserved": 0, "rental_uris": {"ios": "https://dc.lft.to/lastmile_qr_scan", "android": "https://dc.lft.to/lastmile_qr_scan"}, "name": "b81d6d484034fdcf4a2802a96b681b0f", "lon": -77.0409735}, {"lat": 38.90331416666667, "fusion_lat": 0.0, "is_disabled": 0, "fusion_lon": 0.0, "type": "electric_scooter", "bike_id": "eb17ab575b5c11befabb3f5a419dcc7e", "is_reserved": 0, "rental_uris": {"ios": "https://dc.lft.to/lastmile_qr_scan", "android": "https://dc.lft.to/lastmile_qr_scan"}, "name": "eb17ab575b5c11befabb3f5a419dcc7e", "lon": -77.03829316666666}, {"lat": 38.903723, "fusion_lat": 0.0, "is_disabled": 0, "fusion_lon": 0.0, "type": "electric_bike", "bike_id": "62687ff1d7b2d1687aa07fad9b15117b", "is_reserved": 0, "rental_uris": {"ios": "https://dc.lft.to/lastmile_qr_scan", "android": "https://dc.lft.to/lastmile_qr_scan"}, "name": "62687ff1d7b2d1687aa07fad9b15117b", "lon": -76.93755966666667}, {"lat": 38.88383666666667, "fusion_lat": 0.0, "is_disabled": 0, "fusion_lon": 0.0, "type": "electric_scooter", "bike_id": "4c240e2483b9f8a2f2fb24e2481afaf3", "is_reserved": 0, "rental_uris": {"ios": "https://dc.lft.to/lastmile_qr_scan", "android": "https://dc.lft.to/lastmile_qr_scan"}, "name": "4c240e2483b9f8a2f2fb24e2481afaf3", "lon": -76.99512883333334}, {"lat": 38.90664066666667, "fusion_lat": 0.0, "is_disabled": 0, "fusion_lon": 0.0, "type": "electric_scooter", "bike_id": "a461b57744d8de821927c832c1d096ac", "is_reserved": 0, "rental_uris": {"ios": "https://dc.lft.to/lastmile_qr_scan", "android": "https://dc.lft.to/lastmile_qr_scan"}, "name": "a461b57744d8de821927c832c1d096ac", "lon": -77.07199683333333}, {"lat": 38.90497416666667, "fusion_lat": 0.0, "is_disabled": 0, "fusion_lon": 0.0, "type": "electric_scooter", "bike_id": "595a26a61b3a5cac947ff93e8d8365bb", "is_reserved": 0, "rental_uris": {"ios": "https://dc.lft.to/lastmile_qr_scan", "android": "https://dc.lft.to/lastmile_qr_scan"}, "name": "595a26a61b3a5cac947ff93e8d8365bb", "lon": -77.0491235}, {"lat": 38.920875333333335, "fusion_lat": 0.0, "is_disabled": 0, "fusion_lon": 0.0, "type": "electric_scooter", "bike_id": "b7b710cd68f06f3593433607db92a421", "is_reserved": 0, "rental_uris": {"ios": "https://dc.lft.to/lastmile_qr_scan", "android": "https://dc.lft.to/lastmile_qr_scan"}, "name": "b7b710cd68f06f3593433607db92a421", "lon": -77.02406966666666}, {"lat": 38.838641833333334, "fusion_lat": 0.0, "is_disabled": 0, "fusion_lon": 0.0, "type": "electric_bike", "bike_id": "6ea9e66ee9b362991b87d53eb75741e0", "is_reserved": 0, "rental_uris": {"ios": "https://dc.lft.to/lastmile_qr_scan", "android": "https://dc.lft.to/lastmile_qr_scan"}, "name": "6ea9e66ee9b362991b87d53eb75741e0", "lon": -76.99694333333333}, {"lat": 38.924298666666665, "fusion_lat": 0.0, "is_disabled": 0, "fusion_lon": 0.0, "type": "electric_scooter", "bike_id": "3895e98c75014ff9682a3a199c02331f", "is_reserved": 0, "rental_uris": {"ios": "https://dc.lft.to/lastmile_qr_scan", "android": "https://dc.lft.to/lastmile_qr_scan"}, "name": "3895e98c75014ff9682a3a199c02331f", "lon": -77.02244066666667}, {"lat": 38.935996333333335, "fusion_lat": 0.0, "is_disabled": 0, "fusion_lon": 0.0, "type": "electric_scooter", "bike_id": "fbb9f0ada06283f0985bb1dff489ad22", "is_reserved": 0, "rental_uris": {"ios": "https://dc.lft.to/lastmile_qr_scan", "android": "https://dc.lft.to/lastmile_qr_scan"}, "name": "fbb9f0ada06283f0985bb1dff489ad22", "lon": -77.055884}, {"lat": 38.87652216666667, "fusion_lat": 0.0, "is_disabled": 0, "fusion_lon": 0.0, "type": "electric_scooter", "bike_id": "d46e45c300f67395245920c3d5fac09a", "is_reserved": 0, "rental_uris": {"ios": "https://dc.lft.to/lastmile_qr_scan", "android": "https://dc.lft.to/lastmile_qr_scan"}, "name": "d46e45c300f67395245920c3d5fac09a", "lon": -77.0079435}, {"lat": 38.9009395, "fusion_lat": 0.0, "is_disabled": 0, "fusion_lon": 0.0, "type": "electric_scooter", "bike_id": "a81ea0c9f6b604d92ca6f494931b5891", "is_reserved": 0, "rental_uris": {"ios": "https://dc.lft.to/lastmile_qr_scan", "android": "https://dc.lft.to/lastmile_qr_scan"}, "name": "a81ea0c9f6b604d92ca6f494931b5891", "lon": -77.0250995}, {"lat": 38.93015466666667, "fusion_lat": 0.0, "is_disabled": 0, "fusion_lon": 0.0, "type": "electric_scooter", "bike_id": "9af1c6824626363156f1c5e6d258e850", "is_reserved": 0, "rental_uris": {"ios": "https://dc.lft.to/lastmile_qr_scan", "android": "https://dc.lft.to/lastmile_qr_scan"}, "name": "9af1c6824626363156f1c5e6d258e850", "lon": -77.038015}, {"lat": 38.9200695, "fusion_lat": 0.0, "is_disabled": 0, "fusion_lon": 0.0, "type": "electric_scooter", "bike_id": "6c19fff9f2bec22c40c4b21d3c2aef41", "is_reserved": 0, "rental_uris": {"ios": "https://dc.lft.to/lastmile_qr_scan", "android": "https://dc.lft.to/lastmile_qr_scan"}, "name": "6c19fff9f2bec22c40c4b21d3c2aef41", "lon": -77.07123633333333}, {"lat": 38.944589, "fusion_lat": 0.0, "is_disabled": 0, "fusion_lon": 0.0, "type": "electric_scooter", "bike_id": "914d770bd5730f353ccffeb724e16166", "is_reserved": 0, "rental_uris": {"ios": "https://dc.lft.to/lastmile_qr_scan", "android": "https://dc.lft.to/lastmile_qr_scan"}, "name": "914d770bd5730f353ccffeb724e16166", "lon": -77.02629416666667}, {"lat": 38.90223783333333, "fusion_lat": 0.0, "is_disabled": 0, "fusion_lon": 0.0, "type": "electric_scooter", "bike_id": "d314155c4da86a787269adf11e2d301e", "is_reserved": 0, "rental_uris": {"ios": "https://dc.lft.to/lastmile_qr_scan", "android": "https://dc.lft.to/lastmile_qr_scan"}, "name": "d314155c4da86a787269adf11e2d301e", "lon": -77.02683766666667}, {"lat": 38.921702333333336, "fusion_lat": 0.0, "is_disabled": 0, "fusion_lon": 0.0, "type": "electric_scooter", "bike_id": "341cd21492fd3ff9fc398500ee4a94b3", "is_reserved": 0, "rental_uris": {"ios": "https://dc.lft.to/lastmile_qr_scan", "android": "https://dc.lft.to/lastmile_qr_scan"}, "name": "341cd21492fd3ff9fc398500ee4a94b3", "lon": -77.04026983333333}, {"lat": 38.8874495, "fusion_lat": 0.0, "is_disabled": 0, "fusion_lon": 0.0, "type": "electric_scooter", "bike_id": "e5ccc616b2e88f3cebe71542924f2980", "is_reserved": 0, "rental_uris": {"ios": "https://dc.lft.to/lastmile_qr_scan", "android": "https://dc.lft.to/lastmile_qr_scan"}, "name": "e5ccc616b2e88f3cebe71542924f2980", "lon": -77.0283485}, {"lat": 38.928573, "fusion_lat": 0.0, "is_disabled": 0, "fusion_lon": 0.0, "type": "electric_scooter", "bike_id": "ef18aedb94bbe7bc6d187c1b2e2b87e4", "is_reserved": 0, "rental_uris": {"ios": "https://dc.lft.to/lastmile_qr_scan", "android": "https://dc.lft.to/lastmile_qr_scan"}, "name": "ef18aedb94bbe7bc6d187c1b2e2b87e4", "lon": -77.03358033333333}, {"lat": 38.9110705, "fusion_lat": 0.0, "is_disabled": 0, "fusion_lon": 0.0, "type": "electric_scooter", "bike_id": "6e0daccfcdcea279adf71bc298a5636d", "is_reserved": 0, "rental_uris": {"ios": "https://dc.lft.to/lastmile_qr_scan", "android": "https://dc.lft.to/lastmile_qr_scan"}, "name": "6e0daccfcdcea279adf71bc298a5636d", "lon": -77.018036}, {"lat": 38.89966616666667, "fusion_lat": 0.0, "is_disabled": 0, "fusion_lon": 0.0, "type": "electric_scooter", "bike_id": "eb541f7b777f26b07da662ece3c84712", "is_reserved": 0, "rental_uris": {"ios": "https://dc.lft.to/lastmile_qr_scan", "android": "https://dc.lft.to/lastmile_qr_scan"}, "name": "eb541f7b777f26b07da662ece3c84712", "lon": -77.0261765}, {"lat": 38.90030933333333, "fusion_lat": 0.0, "is_disabled": 0, "fusion_lon": 0.0, "type": "electric_scooter", "bike_id": "81e59aa824ed099f97223cd5d8b6b4cd", "is_reserved": 0, "rental_uris": {"ios": "https://dc.lft.to/lastmile_qr_scan", "android": "https://dc.lft.to/lastmile_qr_scan"}, "name": "81e59aa824ed099f97223cd5d8b6b4cd", "lon": -76.9915455}, {"lat": 38.926112833333335, "fusion_lat": 0.0, "is_disabled": 0, "fusion_lon": 0.0, "type": "electric_scooter", "bike_id": "a66a345c68468c67a19b41a7160c6857", "is_reserved": 0, "rental_uris": {"ios": "https://dc.lft.to/lastmile_qr_scan", "android": "https://dc.lft.to/lastmile_qr_scan"}, "name": "a66a345c68468c67a19b41a7160c6857", "lon": -76.99054216666667}, {"lat": 38.89960766666667, "fusion_lat": 0.0, "is_disabled": 0, "fusion_lon": 0.0, "type": "electric_scooter", "bike_id": "bdb77bdc454cda862a281ef92a0cb278", "is_reserved": 0, "rental_uris": {"ios": "https://dc.lft.to/lastmile_qr_scan", "android": "https://dc.lft.to/lastmile_qr_scan"}, "name": "bdb77bdc454cda862a281ef92a0cb278", "lon": -77.0471335}, {"lat": 38.896862, "fusion_lat": 0.0, "is_disabled": 0, "fusion_lon": 0.0, "type": "electric_scooter", "bike_id": "a8a646464bb4e0db9e9dc66f5056419b", "is_reserved": 0, "rental_uris": {"ios": "https://dc.lft.to/lastmile_qr_scan", "android": "https://dc.lft.to/lastmile_qr_scan"}, "name": "a8a646464bb4e0db9e9dc66f5056419b", "lon": -77.004932}, {"lat": 38.90171516666667, "fusion_lat": 0.0, "is_disabled": 0, "fusion_lon": 0.0, "type": "electric_scooter", "bike_id": "29d513ba2c6dc2ac41fcc1336970aa73", "is_reserved": 0, "rental_uris": {"ios": "https://dc.lft.to/lastmile_qr_scan", "android": "https://dc.lft.to/lastmile_qr_scan"}, "name": "29d513ba2c6dc2ac41fcc1336970aa73", "lon": -76.98059516666666}, {"lat": 38.83157216666667, "fusion_lat": 0.0, "is_disabled": 0, "fusion_lon": 0.0, "type": "electric_bike", "bike_id": "c69c35605b8aa5b1e5043042a1aeb755", "is_reserved": 0, "rental_uris": {"ios": "https://dc.lft.to/lastmile_qr_scan", "android": "https://dc.lft.to/lastmile_qr_scan"}, "name": "c69c35605b8aa5b1e5043042a1aeb755", "lon": -76.99567716666667}, {"lat": 38.92035083333333, "fusion_lat": 0.0, "is_disabled": 0, "fusion_lon": 0.0, "type": "electric_scooter", "bike_id": "82ece3928652fa15a0ed4308ce3d0f62", "is_reserved": 0, "rental_uris": {"ios": "https://dc.lft.to/lastmile_qr_scan", "android": "https://dc.lft.to/lastmile_qr_scan"}, "name": "82ece3928652fa15a0ed4308ce3d0f62", "lon": -76.97801266666667}, {"lat": 38.92582383333333, "fusion_lat": 0.0, "is_disabled": 0, "fusion_lon": 0.0, "type": "electric_scooter", "bike_id": "c7cdb5ae674625c9a0f8e0eded21441e", "is_reserved": 0, "rental_uris": {"ios": "https://dc.lft.to/lastmile_qr_scan", "android": "https://dc.lft.to/lastmile_qr_scan"}, "name": "c7cdb5ae674625c9a0f8e0eded21441e", "lon": -77.02879083333333}, {"lat": 38.899717, "fusion_lat": 0.0, "is_disabled": 0, "fusion_lon": 0.0, "type": "electric_scooter", "bike_id": "2457d9e8fa90fbe73dfc5e7ba1102518", "is_reserved": 0, "rental_uris": {"ios": "https://dc.lft.to/lastmile_qr_scan", "android": "https://dc.lft.to/lastmile_qr_scan"}, "name": "2457d9e8fa90fbe73dfc5e7ba1102518", "lon": -77.03932966666666}, {"lat": 38.870668, "fusion_lat": 0.0, "is_disabled": 0, "fusion_lon": 0.0, "type": "electric_scooter", "bike_id": "70913b3f5f8f68dae6c19850cce533ea", "is_reserved": 0, "rental_uris": {"ios": "https://dc.lft.to/lastmile_qr_scan", "android": "https://dc.lft.to/lastmile_qr_scan"}, "name": "70913b3f5f8f68dae6c19850cce533ea", "lon": -76.9793875}, {"lat": 38.934748666666664, "fusion_lat": 0.0, "is_disabled": 0, "fusion_lon": 0.0, "type": "electric_scooter", "bike_id": "25591b0a65b15375c728540b2a09a591", "is_reserved": 0, "rental_uris": {"ios": "https://dc.lft.to/lastmile_qr_scan", "android": "https://dc.lft.to/lastmile_qr_scan"}, "name": "25591b0a65b15375c728540b2a09a591", "lon": -77.057914}, {"lat": 38.83062316666667, "fusion_lat": 0.0, "is_disabled": 0, "fusion_lon": 0.0, "type": "electric_bike", "bike_id": "c053d7221f68e820ccd62fbdce2cc914", "is_reserved": 0, "rental_uris": {"ios": "https://dc.lft.to/lastmile_qr_scan", "android": "https://dc.lft.to/lastmile_qr_scan"}, "name": "c053d7221f68e820ccd62fbdce2cc914", "lon": -77.04079016666667}, {"lat": 38.882714166666666, "fusion_lat": 0.0, "is_disabled": 0, "fusion_lon": 0.0, "type": "electric_scooter", "bike_id": "cea245cbf06ae861778937a8d2b0000b", "is_reserved": 0, "rental_uris": {"ios": "https://dc.lft.to/lastmile_qr_scan", "android": "https://dc.lft.to/lastmile_qr_scan"}, "name": "cea245cbf06ae861778937a8d2b0000b", "lon": -77.00582166666666}, {"lat": 38.905047833333334, "fusion_lat": 0.0, "is_disabled": 0, "fusion_lon": 0.0, "type": "electric_scooter", "bike_id": "898dd7f9a869d99c7faeb2bfdf998ce4", "is_reserved": 0, "rental_uris": {"ios": "https://dc.lft.to/lastmile_qr_scan", "android": "https://dc.lft.to/lastmile_qr_scan"}, "name": "898dd7f9a869d99c7faeb2bfdf998ce4", "lon": -77.02937883333334}, {"lat": 38.917195166666666, "fusion_lat": 0.0, "is_disabled": 0, "fusion_lon": 0.0, "type": "electric_scooter", "bike_id": "ad694a0011964dc3d5a5ea10c92b1516", "is_reserved": 0, "rental_uris": {"ios": "https://dc.lft.to/lastmile_qr_scan", "android": "https://dc.lft.to/lastmile_qr_scan"}, "name": "ad694a0011964dc3d5a5ea10c92b1516", "lon": -77.04177083333333}, {"lat": 38.875062166666666, "fusion_lat": 0.0, "is_disabled": 0, "fusion_lon": 0.0, "type": "electric_scooter", "bike_id": "b8d72c42b5ed3de944d409312ae404ca", "is_reserved": 0, "rental_uris": {"ios": "https://dc.lft.to/lastmile_qr_scan", "android": "https://dc.lft.to/lastmile_qr_scan"}, "name": "b8d72c42b5ed3de944d409312ae404ca", "lon": -76.97656366666666}, {"lat": 38.902770333333336, "fusion_lat": 0.0, "is_disabled": 0, "fusion_lon": 0.0, "type": "electric_scooter", "bike_id": "8ee653265970e7de764754f21af8ec6b", "is_reserved": 0, "rental_uris": {"ios": "https://dc.lft.to/lastmile_qr_scan", "android": "https://dc.lft.to/lastmile_qr_scan"}, "name": "8ee653265970e7de764754f21af8ec6b", "lon": -77.02269466666667}, {"lat": 38.93089966666667, "fusion_lat": 0.0, "is_disabled": 0, "fusion_lon": 0.0, "type": "electric_scooter", "bike_id": "445ba76fd3d5a51bef6fe61e0a5b2f14", "is_reserved": 0, "rental_uris": {"ios": "https://dc.lft.to/lastmile_qr_scan", "android": "https://dc.lft.to/lastmile_qr_scan"}, "name": "445ba76fd3d5a51bef6fe61e0a5b2f14", "lon": -77.034414}, {"lat": 38.90857916666667, "fusion_lat": 0.0, "is_disabled": 0, "fusion_lon": 0.0, "type": "electric_scooter", "bike_id": "dad9409ab019d64f8d63ba6d0f9be99e", "is_reserved": 0, "rental_uris": {"ios": "https://dc.lft.to/lastmile_qr_scan", "android": "https://dc.lft.to/lastmile_qr_scan"}, "name": "dad9409ab019d64f8d63ba6d0f9be99e", "lon": -77.01249616666666}, {"lat": 38.92541133333334, "fusion_lat": 0.0, "is_disabled": 0, "fusion_lon": 0.0, "type": "electric_scooter", "bike_id": "0d04051cff1460123430c4cfa1beefe4", "is_reserved": 0, "rental_uris": {"ios": "https://dc.lft.to/lastmile_qr_scan", "android": "https://dc.lft.to/lastmile_qr_scan"}, "name": "0d04051cff1460123430c4cfa1beefe4", "lon": -77.042586}, {"lat": 38.8986055, "fusion_lat": 0.0, "is_disabled": 0, "fusion_lon": 0.0, "type": "electric_scooter", "bike_id": "c25033e15b15f4f45ac782791df15352", "is_reserved": 0, "rental_uris": {"ios": "https://dc.lft.to/lastmile_qr_scan", "android": "https://dc.lft.to/lastmile_qr_scan"}, "name": "c25033e15b15f4f45ac782791df15352", "lon": -76.946388}, {"lat": 38.90890016666667, "fusion_lat": 0.0, "is_disabled": 0, "fusion_lon": 0.0, "type": "electric_scooter", "bike_id": "94d76a346919577f0efc6a5290b91c66", "is_reserved": 0, "rental_uris": {"ios": "https://dc.lft.to/lastmile_qr_scan", "android": "https://dc.lft.to/lastmile_qr_scan"}, "name": "94d76a346919577f0efc6a5290b91c66", "lon": -77.04298116666666}, {"lat": 38.9040565, "fusion_lat": 0.0, "is_disabled": 0, "fusion_lon": 0.0, "type": "electric_scooter", "bike_id": "8de70ac1519e7db394b39dfbf1cef50d", "is_reserved": 0, "rental_uris": {"ios": "https://dc.lft.to/lastmile_qr_scan", "android": "https://dc.lft.to/lastmile_qr_scan"}, "name": "8de70ac1519e7db394b39dfbf1cef50d", "lon": -77.02589216666667}, {"lat": 38.9023615, "fusion_lat": 0.0, "is_disabled": 0, "fusion_lon": 0.0, "type": "electric_scooter", "bike_id": "2c752ec8b6c90b0c16e60c79d786a969", "is_reserved": 0, "rental_uris": {"ios": "https://dc.lft.to/lastmile_qr_scan", "android": "https://dc.lft.to/lastmile_qr_scan"}, "name": "2c752ec8b6c90b0c16e60c79d786a969", "lon": -77.01435866666667}, {"lat": 38.90478316666667, "fusion_lat": 0.0, "is_disabled": 0, "fusion_lon": 0.0, "type": "electric_scooter", "bike_id": "141818b7ff19cee51fb849dfc0083f2d", "is_reserved": 0, "rental_uris": {"ios": "https://dc.lft.to/lastmile_qr_scan", "android": "https://dc.lft.to/lastmile_qr_scan"}, "name": "141818b7ff19cee51fb849dfc0083f2d", "lon": -77.03565183333333}, {"lat": 38.984948833333334, "fusion_lat": 0.0, "is_disabled": 0, "fusion_lon": 0.0, "type": "electric_bike", "bike_id": "faf960794d11186c99c8a23a9b135d54", "is_reserved": 0, "rental_uris": {"ios": "https://dc.lft.to/lastmile_qr_scan", "android": "https://dc.lft.to/lastmile_qr_scan"}, "name": "faf960794d11186c99c8a23a9b135d54", "lon": -76.98199566666666}, {"lat": 38.92066716666667, "fusion_lat": 0.0, "is_disabled": 0, "fusion_lon": 0.0, "type": "electric_scooter", "bike_id": "929ba7ee16e2c544a700f4798636ee68", "is_reserved": 0, "rental_uris": {"ios": "https://dc.lft.to/lastmile_qr_scan", "android": "https://dc.lft.to/lastmile_qr_scan"}, "name": "929ba7ee16e2c544a700f4798636ee68", "lon": -77.017168}, {"lat": 38.877282, "fusion_lat": 0.0, "is_disabled": 0, "fusion_lon": 0.0, "type": "electric_bike", "bike_id": "8b4dac07104fc3240f5c2cf7ebfb8a6e", "is_reserved": 0, "rental_uris": {"ios": "https://dc.lft.to/lastmile_qr_scan", "android": "https://dc.lft.to/lastmile_qr_scan"}, "name": "8b4dac07104fc3240f5c2cf7ebfb8a6e", "lon": -77.11846666666666}, {"lat": 38.906257833333335, "fusion_lat": 0.0, "is_disabled": 0, "fusion_lon": 0.0, "type": "electric_scooter", "bike_id": "d073126d16e3799d56bb5a12e4fde8a0", "is_reserved": 0, "rental_uris": {"ios": "https://dc.lft.to/lastmile_qr_scan", "android": "https://dc.lft.to/lastmile_qr_scan"}, "name": "d073126d16e3799d56bb5a12e4fde8a0", "lon": -77.03882783333333}, {"lat": 38.911401, "fusion_lat": 0.0, "is_disabled": 0, "fusion_lon": 0.0, "type": "electric_scooter", "bike_id": "70be5dfc81aded292bb8770e125ae167", "is_reserved": 0, "rental_uris": {"ios": "https://dc.lft.to/lastmile_qr_scan", "android": "https://dc.lft.to/lastmile_qr_scan"}, "name": "70be5dfc81aded292bb8770e125ae167", "lon": -77.010767}, {"lat": 38.91979333333333, "fusion_lat": 0.0, "is_disabled": 0, "fusion_lon": 0.0, "type": "electric_scooter", "bike_id": "d2af482d670236594bf5f21fc845f8f1", "is_reserved": 0, "rental_uris": {"ios": "https://dc.lft.to/lastmile_qr_scan", "android": "https://dc.lft.to/lastmile_qr_scan"}, "name": "d2af482d670236594bf5f21fc845f8f1", "lon": -77.021744}, {"lat": 38.90354166666667, "fusion_lat": 0.0, "is_disabled": 0, "fusion_lon": 0.0, "type": "electric_scooter", "bike_id": "a54d6f323485b99b709bb53fe2ad2872", "is_reserved": 0, "rental_uris": {"ios": "https://dc.lft.to/lastmile_qr_scan", "android": "https://dc.lft.to/lastmile_qr_scan"}, "name": "a54d6f323485b99b709bb53fe2ad2872", "lon": -77.02617216666667}, {"lat": 38.877022833333335, "fusion_lat": 0.0, "is_disabled": 0, "fusion_lon": 0.0, "type": "electric_scooter", "bike_id": "bbc5d04fd60a3f24b8ce8bad758fceba", "is_reserved": 0, "rental_uris": {"ios": "https://dc.lft.to/lastmile_qr_scan", "android": "https://dc.lft.to/lastmile_qr_scan"}, "name": "bbc5d04fd60a3f24b8ce8bad758fceba", "lon": -77.01763933333334}, {"lat": 38.90163616666667, "fusion_lat": 0.0, "is_disabled": 0, "fusion_lon": 0.0, "type": "electric_scooter", "bike_id": "d7ea9687a5dd61b8099fb81ceb2e52c7", "is_reserved": 0, "rental_uris": {"ios": "https://dc.lft.to/lastmile_qr_scan", "android": "https://dc.lft.to/lastmile_qr_scan"}, "name": "d7ea9687a5dd61b8099fb81ceb2e52c7", "lon": -76.98453833333333}, {"lat": 38.93858566666667, "fusion_lat": 0.0, "is_disabled": 0, "fusion_lon": 0.0, "type": "electric_scooter", "bike_id": "7632e94824fc846e3ce034b08f5b1941", "is_reserved": 0, "rental_uris": {"ios": "https://dc.lft.to/lastmile_qr_scan", "android": "https://dc.lft.to/lastmile_qr_scan"}, "name": "7632e94824fc846e3ce034b08f5b1941", "lon": -77.072354}, {"lat": 38.9067795, "fusion_lat": 0.0, "is_disabled": 0, "fusion_lon": 0.0, "type": "electric_scooter", "bike_id": "66336bea5cb77046a79a12348818431e", "is_reserved": 0, "rental_uris": {"ios": "https://dc.lft.to/lastmile_qr_scan", "android": "https://dc.lft.to/lastmile_qr_scan"}, "name": "66336bea5cb77046a79a12348818431e", "lon": -77.03642433333333}, {"lat": 38.875324666666664, "fusion_lat": 0.0, "is_disabled": 0, "fusion_lon": 0.0, "type": "electric_scooter", "bike_id": "09138cab41bc51ed7c45e9a4d6f22993", "is_reserved": 0, "rental_uris": {"ios": "https://dc.lft.to/lastmile_qr_scan", "android": "https://dc.lft.to/lastmile_qr_scan"}, "name": "09138cab41bc51ed7c45e9a4d6f22993", "lon": -77.00882466666667}, {"lat": 38.924333833333336, "fusion_lat": 0.0, "is_disabled": 0, "fusion_lon": 0.0, "type": "electric_scooter", "bike_id": "d5d36a94b5afa0ead8b314aab987bdd0", "is_reserved": 0, "rental_uris": {"ios": "https://dc.lft.to/lastmile_qr_scan", "android": "https://dc.lft.to/lastmile_qr_scan"}, "name": "d5d36a94b5afa0ead8b314aab987bdd0", "lon": -77.0203305}, {"lat": 38.921076, "fusion_lat": 0.0, "is_disabled": 0, "fusion_lon": 0.0, "type": "electric_scooter", "bike_id": "0c09f5e7b9dad3e3fa4e9bb8e254d2eb", "is_reserved": 0, "rental_uris": {"ios": "https://dc.lft.to/lastmile_qr_scan", "android": "https://dc.lft.to/lastmile_qr_scan"}, "name": "0c09f5e7b9dad3e3fa4e9bb8e254d2eb", "lon": -77.03922216666666}, {"lat": 38.911233833333334, "fusion_lat": 0.0, "is_disabled": 0, "fusion_lon": 0.0, "type": "electric_scooter", "bike_id": "a04a857b430abd3ffb5b8105ff7e1278", "is_reserved": 0, "rental_uris": {"ios": "https://dc.lft.to/lastmile_qr_scan", "android": "https://dc.lft.to/lastmile_qr_scan"}, "name": "a04a857b430abd3ffb5b8105ff7e1278", "lon": -77.02193783333334}, {"lat": 38.924539833333334, "fusion_lat": 0.0, "is_disabled": 0, "fusion_lon": 0.0, "type": "electric_scooter", "bike_id": "83b67444ac72a6261d684471b77c9acb", "is_reserved": 0, "rental_uris": {"ios": "https://dc.lft.to/lastmile_qr_scan", "android": "https://dc.lft.to/lastmile_qr_scan"}, "name": "83b67444ac72a6261d684471b77c9acb", "lon": -77.0220435}, {"lat": 38.9156355, "fusion_lat": 0.0, "is_disabled": 0, "fusion_lon": 0.0, "type": "electric_scooter", "bike_id": "fb74797fdee8de90d200f17b546b0c88", "is_reserved": 0, "rental_uris": {"ios": "https://dc.lft.to/lastmile_qr_scan", "android": "https://dc.lft.to/lastmile_qr_scan"}, "name": "fb74797fdee8de90d200f17b546b0c88", "lon": -77.00698083333333}, {"lat": 38.871626666666664, "fusion_lat": 0.0, "is_disabled": 0, "fusion_lon": 0.0, "type": "electric_scooter", "bike_id": "ce91f7094bf33f685f22dff487d31493", "is_reserved": 0, "rental_uris": {"ios": "https://dc.lft.to/lastmile_qr_scan", "android": "https://dc.lft.to/lastmile_qr_scan"}, "name": "ce91f7094bf33f685f22dff487d31493", "lon": -77.00636183333333}, {"lat": 38.91565883333333, "fusion_lat": 0.0, "is_disabled": 0, "fusion_lon": 0.0, "type": "electric_scooter", "bike_id": "ef22a57821df7ae91d4bc00d2bc98209", "is_reserved": 0, "rental_uris": {"ios": "https://dc.lft.to/lastmile_qr_scan", "android": "https://dc.lft.to/lastmile_qr_scan"}, "name": "ef22a57821df7ae91d4bc00d2bc98209", "lon": -77.03347033333333}, {"lat": 38.83267983333333, "fusion_lat": 0.0, "is_disabled": 0, "fusion_lon": 0.0, "type": "electric_bike", "bike_id": "4dd9dd10b18ceb08334fae1432417e0e", "is_reserved": 0, "rental_uris": {"ios": "https://dc.lft.to/lastmile_qr_scan", "android": "https://dc.lft.to/lastmile_qr_scan"}, "name": "4dd9dd10b18ceb08334fae1432417e0e", "lon": -77.08366533333333}, {"lat": 38.91802083333333, "fusion_lat": 0.0, "is_disabled": 0, "fusion_lon": 0.0, "type": "electric_scooter", "bike_id": "23a2b54d7a36741658711db5b649b47b", "is_reserved": 0, "rental_uris": {"ios": "https://dc.lft.to/lastmile_qr_scan", "android": "https://dc.lft.to/lastmile_qr_scan"}, "name": "23a2b54d7a36741658711db5b649b47b", "lon": -77.02493616666666}, {"lat": 38.90542533333333, "fusion_lat": 0.0, "is_disabled": 0, "fusion_lon": 0.0, "type": "electric_scooter", "bike_id": "7bf14c769a249a161994630f6ed68b14", "is_reserved": 0, "rental_uris": {"ios": "https://dc.lft.to/lastmile_qr_scan", "android": "https://dc.lft.to/lastmile_qr_scan"}, "name": "7bf14c769a249a161994630f6ed68b14", "lon": -77.02188416666667}, {"lat": 38.930292666666666, "fusion_lat": 0.0, "is_disabled": 0, "fusion_lon": 0.0, "type": "electric_scooter", "bike_id": "5f15d1b4b42b05663ab56aa3206d61ce", "is_reserved": 0, "rental_uris": {"ios": "https://dc.lft.to/lastmile_qr_scan", "android": "https://dc.lft.to/lastmile_qr_scan"}, "name": "5f15d1b4b42b05663ab56aa3206d61ce", "lon": -77.03806716666666}, {"lat": 38.898505, "fusion_lat": 0.0, "is_disabled": 0, "fusion_lon": 0.0, "type": "electric_scooter", "bike_id": "42ab6aca0637d0e0ab064d32785eca52", "is_reserved": 0, "rental_uris": {"ios": "https://dc.lft.to/lastmile_qr_scan", "android": "https://dc.lft.to/lastmile_qr_scan"}, "name": "42ab6aca0637d0e0ab064d32785eca52", "lon": -77.02257166666666}, {"lat": 38.90227566666667, "fusion_lat": 0.0, "is_disabled": 0, "fusion_lon": 0.0, "type": "electric_scooter", "bike_id": "430f430ba83bb53c277c83c7117a039f", "is_reserved": 0, "rental_uris": {"ios": "https://dc.lft.to/lastmile_qr_scan", "android": "https://dc.lft.to/lastmile_qr_scan"}, "name": "430f430ba83bb53c277c83c7117a039f", "lon": -77.02687016666667}, {"lat": 38.92750083333333, "fusion_lat": 0.0, "is_disabled": 0, "fusion_lon": 0.0, "type": "electric_scooter", "bike_id": "8cdff09503645f2ac5bb1098354a9764", "is_reserved": 0, "rental_uris": {"ios": "https://dc.lft.to/lastmile_qr_scan", "android": "https://dc.lft.to/lastmile_qr_scan"}, "name": "8cdff09503645f2ac5bb1098354a9764", "lon": -77.02976416666667}, {"lat": 38.94322483333333, "fusion_lat": 0.0, "is_disabled": 0, "fusion_lon": 0.0, "type": "electric_scooter", "bike_id": "d6ebff441a428963dc1dfc716a0ad05d", "is_reserved": 0, "rental_uris": {"ios": "https://dc.lft.to/lastmile_qr_scan", "android": "https://dc.lft.to/lastmile_qr_scan"}, "name": "d6ebff441a428963dc1dfc716a0ad05d", "lon": -77.073224}, {"lat": 38.9156255, "fusion_lat": 0.0, "is_disabled": 0, "fusion_lon": 0.0, "type": "electric_scooter", "bike_id": "bd22869074fcd3447c467edfd1db5641", "is_reserved": 0, "rental_uris": {"ios": "https://dc.lft.to/lastmile_qr_scan", "android": "https://dc.lft.to/lastmile_qr_scan"}, "name": "bd22869074fcd3447c467edfd1db5641", "lon": -77.04627816666667}, {"lat": 38.88493283333333, "fusion_lat": 0.0, "is_disabled": 0, "fusion_lon": 0.0, "type": "electric_scooter", "bike_id": "353c01cf993ae0f377b91b467da55e73", "is_reserved": 0, "rental_uris": {"ios": "https://dc.lft.to/lastmile_qr_scan", "android": "https://dc.lft.to/lastmile_qr_scan"}, "name": "353c01cf993ae0f377b91b467da55e73", "lon": -77.02357383333333}, {"lat": 38.9171305, "fusion_lat": 0.0, "is_disabled": 0, "fusion_lon": 0.0, "type": "electric_scooter", "bike_id": "ddcea8a4b49fad0d645ddecec8eba0cb", "is_reserved": 0, "rental_uris": {"ios": "https://dc.lft.to/lastmile_qr_scan", "android": "https://dc.lft.to/lastmile_qr_scan"}, "name": "ddcea8a4b49fad0d645ddecec8eba0cb", "lon": -77.02649833333334}, {"lat": 38.87922783333333, "fusion_lat": 0.0, "is_disabled": 0, "fusion_lon": 0.0, "type": "electric_scooter", "bike_id": "7fbe36014bfb70782ba962fd5cf1d5ce", "is_reserved": 0, "rental_uris": {"ios": "https://dc.lft.to/lastmile_qr_scan", "android": "https://dc.lft.to/lastmile_qr_scan"}, "name": "7fbe36014bfb70782ba962fd5cf1d5ce", "lon": -77.01320366666667}, {"lat": 38.9086155, "fusion_lat": 0.0, "is_disabled": 0, "fusion_lon": 0.0, "type": "electric_scooter", "bike_id": "75315f5c08c4ed9ce4d5176fba6ac2d1", "is_reserved": 0, "rental_uris": {"ios": "https://dc.lft.to/lastmile_qr_scan", "android": "https://dc.lft.to/lastmile_qr_scan"}, "name": "75315f5c08c4ed9ce4d5176fba6ac2d1", "lon": -77.02301516666667}, {"lat": 38.92507033333333, "fusion_lat": 0.0, "is_disabled": 0, "fusion_lon": 0.0, "type": "electric_scooter", "bike_id": "d1dece2e326f40bf22c00d7291dcf651", "is_reserved": 0, "rental_uris": {"ios": "https://dc.lft.to/lastmile_qr_scan", "android": "https://dc.lft.to/lastmile_qr_scan"}, "name": "d1dece2e326f40bf22c00d7291dcf651", "lon": -77.02164666666667}, {"lat": 38.909489, "fusion_lat": 0.0, "is_disabled": 0, "fusion_lon": 0.0, "type": "electric_scooter", "bike_id": "fc52fa1fc2c72923fc20003d4cd2133f", "is_reserved": 0, "rental_uris": {"ios": "https://dc.lft.to/lastmile_qr_scan", "android": "https://dc.lft.to/lastmile_qr_scan"}, "name": "fc52fa1fc2c72923fc20003d4cd2133f", "lon": -76.98536133333333}, {"lat": 38.89795733333333, "fusion_lat": 0.0, "is_disabled": 0, "fusion_lon": 0.0, "type": "electric_scooter", "bike_id": "154c2ceda2a98530362e2904b824b690", "is_reserved": 0, "rental_uris": {"ios": "https://dc.lft.to/lastmile_qr_scan", "android": "https://dc.lft.to/lastmile_qr_scan"}, "name": "154c2ceda2a98530362e2904b824b690", "lon": -77.0118825}, {"lat": 38.920250833333334, "fusion_lat": 0.0, "is_disabled": 0, "fusion_lon": 0.0, "type": "electric_scooter", "bike_id": "38aa21127389f9a5faa283d5c2e25e64", "is_reserved": 0, "rental_uris": {"ios": "https://dc.lft.to/lastmile_qr_scan", "android": "https://dc.lft.to/lastmile_qr_scan"}, "name": "38aa21127389f9a5faa283d5c2e25e64", "lon": -77.04186683333333}, {"lat": 38.900390333333334, "fusion_lat": 0.0, "is_disabled": 0, "fusion_lon": 0.0, "type": "electric_scooter", "bike_id": "9c223031e2aba92a9a6359a4997ce803", "is_reserved": 0, "rental_uris": {"ios": "https://dc.lft.to/lastmile_qr_scan", "android": "https://dc.lft.to/lastmile_qr_scan"}, "name": "9c223031e2aba92a9a6359a4997ce803", "lon": -77.0115305}, {"lat": 38.905230333333336, "fusion_lat": 0.0, "is_disabled": 0, "fusion_lon": 0.0, "type": "electric_scooter", "bike_id": "5d968f9379ee3fe5cbd5fdbbd1e147e8", "is_reserved": 0, "rental_uris": {"ios": "https://dc.lft.to/lastmile_qr_scan", "android": "https://dc.lft.to/lastmile_qr_scan"}, "name": "5d968f9379ee3fe5cbd5fdbbd1e147e8", "lon": -77.02964883333334}, {"lat": 38.96717, "fusion_lat": 0.0, "is_disabled": 0, "fusion_lon": 0.0, "type": "electric_scooter", "bike_id": "899d38dfaca8a2216b33c380053cddea", "is_reserved": 0, "rental_uris": {"ios": "https://dc.lft.to/lastmile_qr_scan", "android": "https://dc.lft.to/lastmile_qr_scan"}, "name": "899d38dfaca8a2216b33c380053cddea", "lon": -77.025903}, {"lat": 38.846728, "fusion_lat": 0.0, "is_disabled": 0, "fusion_lon": 0.0, "type": "electric_bike", "bike_id": "ee16d950add0dac25a97396384ad3f6d", "is_reserved": 0, "rental_uris": {"ios": "https://dc.lft.to/lastmile_qr_scan", "android": "https://dc.lft.to/lastmile_qr_scan"}, "name": "ee16d950add0dac25a97396384ad3f6d", "lon": -77.1393005}, {"lat": 38.88628633333333, "fusion_lat": 0.0, "is_disabled": 0, "fusion_lon": 0.0, "type": "electric_scooter", "bike_id": "e739cb936a0e8b5580cbced374a3dd76", "is_reserved": 0, "rental_uris": {"ios": "https://dc.lft.to/lastmile_qr_scan", "android": "https://dc.lft.to/lastmile_qr_scan"}, "name": "e739cb936a0e8b5580cbced374a3dd76", "lon": -76.98183183333333}, {"lat": 38.92418083333333, "fusion_lat": 0.0, "is_disabled": 0, "fusion_lon": 0.0, "type": "electric_scooter", "bike_id": "97eafd8df31206a4580fc4069e68fc1c", "is_reserved": 0, "rental_uris": {"ios": "https://dc.lft.to/lastmile_qr_scan", "android": "https://dc.lft.to/lastmile_qr_scan"}, "name": "97eafd8df31206a4580fc4069e68fc1c", "lon": -77.02127}, {"lat": 38.87630333333333, "fusion_lat": 0.0, "is_disabled": 0, "fusion_lon": 0.0, "type": "electric_scooter", "bike_id": "c57bf2901b3b9ba63937d953b44f0095", "is_reserved": 0, "rental_uris": {"ios": "https://dc.lft.to/lastmile_qr_scan", "android": "https://dc.lft.to/lastmile_qr_scan"}, "name": "c57bf2901b3b9ba63937d953b44f0095", "lon": -77.00953416666667}, {"lat": 38.890950333333336, "fusion_lat": 0.0, "is_disabled": 0, "fusion_lon": 0.0, "type": "electric_scooter", "bike_id": "477a5df997c3b32918421f13d71348e6", "is_reserved": 0, "rental_uris": {"ios": "https://dc.lft.to/lastmile_qr_scan", "android": "https://dc.lft.to/lastmile_qr_scan"}, "name": "477a5df997c3b32918421f13d71348e6", "lon": -76.98837083333333}, {"lat": 38.918146, "fusion_lat": 0.0, "is_disabled": 0, "fusion_lon": 0.0, "type": "electric_scooter", "bike_id": "6ea091712f5677a8a963400ac03158e3", "is_reserved": 0, "rental_uris": {"ios": "https://dc.lft.to/lastmile_qr_scan", "android": "https://dc.lft.to/lastmile_qr_scan"}, "name": "6ea091712f5677a8a963400ac03158e3", "lon": -77.0373015}, {"lat": 38.90025766666667, "fusion_lat": 0.0, "is_disabled": 0, "fusion_lon": 0.0, "type": "electric_scooter", "bike_id": "7339a6c46bc5ae0e0f818b3cc97d9850", "is_reserved": 0, "rental_uris": {"ios": "https://dc.lft.to/lastmile_qr_scan", "android": "https://dc.lft.to/lastmile_qr_scan"}, "name": "7339a6c46bc5ae0e0f818b3cc97d9850", "lon": -77.00209116666667}, {"lat": 38.9161265, "fusion_lat": 0.0, "is_disabled": 0, "fusion_lon": 0.0, "type": "electric_scooter", "bike_id": "15c9bb9f6969dd3724169540a0b9b54f", "is_reserved": 0, "rental_uris": {"ios": "https://dc.lft.to/lastmile_qr_scan", "android": "https://dc.lft.to/lastmile_qr_scan"}, "name": "15c9bb9f6969dd3724169540a0b9b54f", "lon": -77.03196916666667}, {"lat": 38.89365133333333, "fusion_lat": 0.0, "is_disabled": 0, "fusion_lon": 0.0, "type": "electric_scooter", "bike_id": "750ca062f80324651aaf5bb64274cf6d", "is_reserved": 0, "rental_uris": {"ios": "https://dc.lft.to/lastmile_qr_scan", "android": "https://dc.lft.to/lastmile_qr_scan"}, "name": "750ca062f80324651aaf5bb64274cf6d", "lon": -77.0395515}, {"lat": 38.8937005, "fusion_lat": 0.0, "is_disabled": 0, "fusion_lon": 0.0, "type": "electric_scooter", "bike_id": "01b05959ae9f91f24b454d4736b49a7f", "is_reserved": 0, "rental_uris": {"ios": "https://dc.lft.to/lastmile_qr_scan", "android": "https://dc.lft.to/lastmile_qr_scan"}, "name": "01b05959ae9f91f24b454d4736b49a7f", "lon": -77.01551666666667}, {"lat": 38.908189666666665, "fusion_lat": 0.0, "is_disabled": 0, "fusion_lon": 0.0, "type": "electric_scooter", "bike_id": "c523ee874c9b159efd7667537b729351", "is_reserved": 0, "rental_uris": {"ios": "https://dc.lft.to/lastmile_qr_scan", "android": "https://dc.lft.to/lastmile_qr_scan"}, "name": "c523ee874c9b159efd7667537b729351", "lon": -77.0436225}, {"lat": 38.91973016666667, "fusion_lat": 0.0, "is_disabled": 0, "fusion_lon": 0.0, "type": "electric_scooter", "bike_id": "d0aa6af02c3938a3d239716987dfe371", "is_reserved": 0, "rental_uris": {"ios": "https://dc.lft.to/lastmile_qr_scan", "android": "https://dc.lft.to/lastmile_qr_scan"}, "name": "d0aa6af02c3938a3d239716987dfe371", "lon": -77.04081816666667}, {"lat": 38.92870833333333, "fusion_lat": 0.0, "is_disabled": 0, "fusion_lon": 0.0, "type": "electric_scooter", "bike_id": "8dc056e8e148b9ff3a1765cde8fa87b0", "is_reserved": 0, "rental_uris": {"ios": "https://dc.lft.to/lastmile_qr_scan", "android": "https://dc.lft.to/lastmile_qr_scan"}, "name": "8dc056e8e148b9ff3a1765cde8fa87b0", "lon": -77.01395183333334}, {"lat": 38.89850916666666, "fusion_lat": 0.0, "is_disabled": 0, "fusion_lon": 0.0, "type": "electric_scooter", "bike_id": "d0660efffbef56c0293fd79e18f62efd", "is_reserved": 0, "rental_uris": {"ios": "https://dc.lft.to/lastmile_qr_scan", "android": "https://dc.lft.to/lastmile_qr_scan"}, "name": "d0660efffbef56c0293fd79e18f62efd", "lon": -77.02258633333334}, {"lat": 38.91860766666667, "fusion_lat": 0.0, "is_disabled": 0, "fusion_lon": 0.0, "type": "electric_scooter", "bike_id": "d1349c65d31fc91e1c62fd54205af79e", "is_reserved": 0, "rental_uris": {"ios": "https://dc.lft.to/lastmile_qr_scan", "android": "https://dc.lft.to/lastmile_qr_scan"}, "name": "d1349c65d31fc91e1c62fd54205af79e", "lon": -77.0415775}, {"lat": 38.904253, "fusion_lat": 0.0, "is_disabled": 0, "fusion_lon": 0.0, "type": "electric_scooter", "bike_id": "9594dfc5ec3e9e737774bd79d15c0d14", "is_reserved": 0, "rental_uris": {"ios": "https://dc.lft.to/lastmile_qr_scan", "android": "https://dc.lft.to/lastmile_qr_scan"}, "name": "9594dfc5ec3e9e737774bd79d15c0d14", "lon": -77.05337133333333}, {"lat": 38.8961795, "fusion_lat": 0.0, "is_disabled": 0, "fusion_lon": 0.0, "type": "electric_scooter", "bike_id": "b6f8b5d3f226e29b3c118c617056b1f1", "is_reserved": 0, "rental_uris": {"ios": "https://dc.lft.to/lastmile_qr_scan", "android": "https://dc.lft.to/lastmile_qr_scan"}, "name": "b6f8b5d3f226e29b3c118c617056b1f1", "lon": -76.998462}, {"lat": 38.893699833333336, "fusion_lat": 0.0, "is_disabled": 0, "fusion_lon": 0.0, "type": "electric_scooter", "bike_id": "b1bccd782127b97007ecd86a8cbeca53", "is_reserved": 0, "rental_uris": {"ios": "https://dc.lft.to/lastmile_qr_scan", "android": "https://dc.lft.to/lastmile_qr_scan"}, "name": "b1bccd782127b97007ecd86a8cbeca53", "lon": -77.02055416666667}, {"lat": 38.93584366666666, "fusion_lat": 0.0, "is_disabled": 0, "fusion_lon": 0.0, "type": "electric_scooter", "bike_id": "02b64f468d49ede2221f7f886a8a54dd", "is_reserved": 0, "rental_uris": {"ios": "https://dc.lft.to/lastmile_qr_scan", "android": "https://dc.lft.to/lastmile_qr_scan"}, "name": "02b64f468d49ede2221f7f886a8a54dd", "lon": -77.07432333333334}, {"lat": 38.882403333333336, "fusion_lat": 0.0, "is_disabled": 0, "fusion_lon": 0.0, "type": "electric_scooter", "bike_id": "21b31aac7255e37fa53fcd79c75454b0", "is_reserved": 0, "rental_uris": {"ios": "https://dc.lft.to/lastmile_qr_scan", "android": "https://dc.lft.to/lastmile_qr_scan"}, "name": "21b31aac7255e37fa53fcd79c75454b0", "lon": -76.93322083333334}, {"lat": 38.8624555, "fusion_lat": 0.0, "is_disabled": 0, "fusion_lon": 0.0, "type": "electric_scooter", "bike_id": "e7661b03b943b724a697830b75496762", "is_reserved": 0, "rental_uris": {"ios": "https://dc.lft.to/lastmile_qr_scan", "android": "https://dc.lft.to/lastmile_qr_scan"}, "name": "e7661b03b943b724a697830b75496762", "lon": -76.99501083333334}, {"lat": 38.924737, "fusion_lat": 0.0, "is_disabled": 0, "fusion_lon": 0.0, "type": "electric_scooter", "bike_id": "c6766aa91e854d44e4af545028eb8a14", "is_reserved": 0, "rental_uris": {"ios": "https://dc.lft.to/lastmile_qr_scan", "android": "https://dc.lft.to/lastmile_qr_scan"}, "name": "c6766aa91e854d44e4af545028eb8a14", "lon": -77.02139083333333}, {"lat": 38.89850116666667, "fusion_lat": 0.0, "is_disabled": 0, "fusion_lon": 0.0, "type": "electric_scooter", "bike_id": "ee7eb40a6c4481e61f5972eb1adf7b93", "is_reserved": 0, "rental_uris": {"ios": "https://dc.lft.to/lastmile_qr_scan", "android": "https://dc.lft.to/lastmile_qr_scan"}, "name": "ee7eb40a6c4481e61f5972eb1adf7b93", "lon": -76.9320905}, {"lat": 38.86616583333333, "fusion_lat": 0.0, "is_disabled": 0, "fusion_lon": 0.0, "type": "electric_bike", "bike_id": "89fb07ec5b5032c8f69bbfde7631b784", "is_reserved": 0, "rental_uris": {"ios": "https://dc.lft.to/lastmile_qr_scan", "android": "https://dc.lft.to/lastmile_qr_scan"}, "name": "89fb07ec5b5032c8f69bbfde7631b784", "lon": -76.9457245}, {"lat": 38.92417666666667, "fusion_lat": 0.0, "is_disabled": 0, "fusion_lon": 0.0, "type": "electric_scooter", "bike_id": "4d28482fd20db999e83a6d51288f1bff", "is_reserved": 0, "rental_uris": {"ios": "https://dc.lft.to/lastmile_qr_scan", "android": "https://dc.lft.to/lastmile_qr_scan"}, "name": "4d28482fd20db999e83a6d51288f1bff", "lon": -77.0226465}, {"lat": 38.915547, "fusion_lat": 0.0, "is_disabled": 0, "fusion_lon": 0.0, "type": "electric_scooter", "bike_id": "ab434b63c148279325e5cd759fd0fa7f", "is_reserved": 0, "rental_uris": {"ios": "https://dc.lft.to/lastmile_qr_scan", "android": "https://dc.lft.to/lastmile_qr_scan"}, "name": "ab434b63c148279325e5cd759fd0fa7f", "lon": -77.06758383333333}, {"lat": 38.91567366666666, "fusion_lat": 0.0, "is_disabled": 0, "fusion_lon": 0.0, "type": "electric_scooter", "bike_id": "7768d508df6f832459255caf330b923f", "is_reserved": 0, "rental_uris": {"ios": "https://dc.lft.to/lastmile_qr_scan", "android": "https://dc.lft.to/lastmile_qr_scan"}, "name": "7768d508df6f832459255caf330b923f", "lon": -77.04624466666667}, {"lat": 38.90507483333333, "fusion_lat": 0.0, "is_disabled": 0, "fusion_lon": 0.0, "type": "electric_scooter", "bike_id": "93762f4f1ba4626b9682f6c02675188f", "is_reserved": 0, "rental_uris": {"ios": "https://dc.lft.to/lastmile_qr_scan", "android": "https://dc.lft.to/lastmile_qr_scan"}, "name": "93762f4f1ba4626b9682f6c02675188f", "lon": -77.051383}, {"lat": 38.90813033333333, "fusion_lat": 0.0, "is_disabled": 0, "fusion_lon": 0.0, "type": "electric_scooter", "bike_id": "fd1fc5e89c6101ab8d44325e14346f7b", "is_reserved": 0, "rental_uris": {"ios": "https://dc.lft.to/lastmile_qr_scan", "android": "https://dc.lft.to/lastmile_qr_scan"}, "name": "fd1fc5e89c6101ab8d44325e14346f7b", "lon": -77.02961683333334}, {"lat": 38.90578083333333, "fusion_lat": 0.0, "is_disabled": 0, "fusion_lon": 0.0, "type": "electric_scooter", "bike_id": "d9b44b76e04d27592bd6de4659574f3d", "is_reserved": 0, "rental_uris": {"ios": "https://dc.lft.to/lastmile_qr_scan", "android": "https://dc.lft.to/lastmile_qr_scan"}, "name": "d9b44b76e04d27592bd6de4659574f3d", "lon": -76.99092733333333}, {"lat": 38.91183766666666, "fusion_lat": 0.0, "is_disabled": 0, "fusion_lon": 0.0, "type": "electric_scooter", "bike_id": "eea746a0cf7804cb3ba890a4853f3e61", "is_reserved": 0, "rental_uris": {"ios": "https://dc.lft.to/lastmile_qr_scan", "android": "https://dc.lft.to/lastmile_qr_scan"}, "name": "eea746a0cf7804cb3ba890a4853f3e61", "lon": -77.06606633333334}, {"lat": 38.924107666666664, "fusion_lat": 0.0, "is_disabled": 0, "fusion_lon": 0.0, "type": "electric_scooter", "bike_id": "454dec3567952fa713da6d05aabb462c", "is_reserved": 0, "rental_uris": {"ios": "https://dc.lft.to/lastmile_qr_scan", "android": "https://dc.lft.to/lastmile_qr_scan"}, "name": "454dec3567952fa713da6d05aabb462c", "lon": -77.02124716666667}, {"lat": 38.885517, "fusion_lat": 0.0, "is_disabled": 0, "fusion_lon": 0.0, "type": "electric_scooter", "bike_id": "829998dbfa6a0a55c3dfa36ce14d4070", "is_reserved": 0, "rental_uris": {"ios": "https://dc.lft.to/lastmile_qr_scan", "android": "https://dc.lft.to/lastmile_qr_scan"}, "name": "829998dbfa6a0a55c3dfa36ce14d4070", "lon": -77.02003133333334}, {"lat": 38.92599033333333, "fusion_lat": 0.0, "is_disabled": 0, "fusion_lon": 0.0, "type": "electric_scooter", "bike_id": "3788342f0e728370a4e00f7b68d0a5b4", "is_reserved": 0, "rental_uris": {"ios": "https://dc.lft.to/lastmile_qr_scan", "android": "https://dc.lft.to/lastmile_qr_scan"}, "name": "3788342f0e728370a4e00f7b68d0a5b4", "lon": -77.02156766666667}, {"lat": 38.915325833333334, "fusion_lat": 0.0, "is_disabled": 0, "fusion_lon": 0.0, "type": "electric_scooter", "bike_id": "5715b09b92136dc7407b31a57c041841", "is_reserved": 0, "rental_uris": {"ios": "https://dc.lft.to/lastmile_qr_scan", "android": "https://dc.lft.to/lastmile_qr_scan"}, "name": "5715b09b92136dc7407b31a57c041841", "lon": -77.07544583333333}, {"lat": 38.941474166666666, "fusion_lat": 0.0, "is_disabled": 0, "fusion_lon": 0.0, "type": "electric_bike", "bike_id": "2aab725bd34d626cba0aa7e79732755a", "is_reserved": 0, "rental_uris": {"ios": "https://dc.lft.to/lastmile_qr_scan", "android": "https://dc.lft.to/lastmile_qr_scan"}, "name": "2aab725bd34d626cba0aa7e79732755a", "lon": -77.00194016666667}, {"lat": 38.90030633333333, "fusion_lat": 0.0, "is_disabled": 0, "fusion_lon": 0.0, "type": "electric_bike", "bike_id": "78d173390959929b9cb3c5789ca4d6ee", "is_reserved": 0, "rental_uris": {"ios": "https://dc.lft.to/lastmile_qr_scan", "android": "https://dc.lft.to/lastmile_qr_scan"}, "name": "78d173390959929b9cb3c5789ca4d6ee", "lon": -76.9722355}, {"lat": 38.9987175, "fusion_lat": 0.0, "is_disabled": 0, "fusion_lon": 0.0, "type": "electric_bike", "bike_id": "428a6506f40190a66bab16b68557c12d", "is_reserved": 0, "rental_uris": {"ios": "https://dc.lft.to/lastmile_qr_scan", "android": "https://dc.lft.to/lastmile_qr_scan"}, "name": "428a6506f40190a66bab16b68557c12d", "lon": -76.91087466666667}, {"lat": 38.92722033333333, "fusion_lat": 0.0, "is_disabled": 0, "fusion_lon": 0.0, "type": "electric_scooter", "bike_id": "536c2e43e83508a8ea75e6196bedbd74", "is_reserved": 0, "rental_uris": {"ios": "https://dc.lft.to/lastmile_qr_scan", "android": "https://dc.lft.to/lastmile_qr_scan"}, "name": "536c2e43e83508a8ea75e6196bedbd74", "lon": -77.02283016666667}, {"lat": 38.89958816666667, "fusion_lat": 0.0, "is_disabled": 0, "fusion_lon": 0.0, "type": "electric_scooter", "bike_id": "377760964de00269168836809b4c0190", "is_reserved": 0, "rental_uris": {"ios": "https://dc.lft.to/lastmile_qr_scan", "android": "https://dc.lft.to/lastmile_qr_scan"}, "name": "377760964de00269168836809b4c0190", "lon": -77.0452705}, {"lat": 38.93969216666667, "fusion_lat": 0.0, "is_disabled": 0, "fusion_lon": 0.0, "type": "electric_scooter", "bike_id": "b84afa34659114bfd660166cf547fc7a", "is_reserved": 0, "rental_uris": {"ios": "https://dc.lft.to/lastmile_qr_scan", "android": "https://dc.lft.to/lastmile_qr_scan"}, "name": "b84afa34659114bfd660166cf547fc7a", "lon": -77.02941616666666}, {"lat": 38.90485366666667, "fusion_lat": 0.0, "is_disabled": 0, "fusion_lon": 0.0, "type": "electric_scooter", "bike_id": "b000a2fa38467b292ac045dfe3ba6607", "is_reserved": 0, "rental_uris": {"ios": "https://dc.lft.to/lastmile_qr_scan", "android": "https://dc.lft.to/lastmile_qr_scan"}, "name": "b000a2fa38467b292ac045dfe3ba6607", "lon": -77.06013583333333}, {"lat": 38.917244833333335, "fusion_lat": 0.0, "is_disabled": 0, "fusion_lon": 0.0, "type": "electric_scooter", "bike_id": "9cc7b5dd0c816ec21088b77941424b90", "is_reserved": 0, "rental_uris": {"ios": "https://dc.lft.to/lastmile_qr_scan", "android": "https://dc.lft.to/lastmile_qr_scan"}, "name": "9cc7b5dd0c816ec21088b77941424b90", "lon": -77.01917166666667}, {"lat": 38.91190316666667, "fusion_lat": 0.0, "is_disabled": 0, "fusion_lon": 0.0, "type": "electric_scooter", "bike_id": "a1def8b23b8cfdf04bdae22757bf8f26", "is_reserved": 0, "rental_uris": {"ios": "https://dc.lft.to/lastmile_qr_scan", "android": "https://dc.lft.to/lastmile_qr_scan"}, "name": "a1def8b23b8cfdf04bdae22757bf8f26", "lon": -77.00784133333333}, {"lat": 38.92472016666667, "fusion_lat": 0.0, "is_disabled": 0, "fusion_lon": 0.0, "type": "electric_scooter", "bike_id": "6af2b06341d7fab9e421ee4a026aecff", "is_reserved": 0, "rental_uris": {"ios": "https://dc.lft.to/lastmile_qr_scan", "android": "https://dc.lft.to/lastmile_qr_scan"}, "name": "6af2b06341d7fab9e421ee4a026aecff", "lon": -77.0350435}, {"lat": 38.8986755, "fusion_lat": 0.0, "is_disabled": 0, "fusion_lon": 0.0, "type": "electric_scooter", "bike_id": "fa21f8ba2a642fe6d565ed38bfe7219f", "is_reserved": 0, "rental_uris": {"ios": "https://dc.lft.to/lastmile_qr_scan", "android": "https://dc.lft.to/lastmile_qr_scan"}, "name": "fa21f8ba2a642fe6d565ed38bfe7219f", "lon": -77.02611416666667}, {"lat": 38.9282645, "fusion_lat": 0.0, "is_disabled": 0, "fusion_lon": 0.0, "type": "electric_scooter", "bike_id": "a3414204e14ec2b6e95f2e57b826b321", "is_reserved": 0, "rental_uris": {"ios": "https://dc.lft.to/lastmile_qr_scan", "android": "https://dc.lft.to/lastmile_qr_scan"}, "name": "a3414204e14ec2b6e95f2e57b826b321", "lon": -77.02156566666666}, {"lat": 38.895082, "fusion_lat": 0.0, "is_disabled": 0, "fusion_lon": 0.0, "type": "electric_scooter", "bike_id": "0b4172cbb1926033bb35fc08c3510b2a", "is_reserved": 0, "rental_uris": {"ios": "https://dc.lft.to/lastmile_qr_scan", "android": "https://dc.lft.to/lastmile_qr_scan"}, "name": "0b4172cbb1926033bb35fc08c3510b2a", "lon": -76.94885483333333}, {"lat": 38.931344, "fusion_lat": 0.0, "is_disabled": 0, "fusion_lon": 0.0, "type": "electric_scooter", "bike_id": "61132b72a8ccee719576639888f711de", "is_reserved": 0, "rental_uris": {"ios": "https://dc.lft.to/lastmile_qr_scan", "android": "https://dc.lft.to/lastmile_qr_scan"}, "name": "61132b72a8ccee719576639888f711de", "lon": -77.02155383333333}, {"lat": 38.909658666666665, "fusion_lat": 0.0, "is_disabled": 0, "fusion_lon": 0.0, "type": "electric_scooter", "bike_id": "93a49c19a388a13e63c69f17489a2914", "is_reserved": 0, "rental_uris": {"ios": "https://dc.lft.to/lastmile_qr_scan", "android": "https://dc.lft.to/lastmile_qr_scan"}, "name": "93a49c19a388a13e63c69f17489a2914", "lon": -77.0486725}, {"lat": 38.886209666666666, "fusion_lat": 0.0, "is_disabled": 0, "fusion_lon": 0.0, "type": "electric_scooter", "bike_id": "d49f4a364587640c309f3e86a0bad980", "is_reserved": 0, "rental_uris": {"ios": "https://dc.lft.to/lastmile_qr_scan", "android": "https://dc.lft.to/lastmile_qr_scan"}, "name": "d49f4a364587640c309f3e86a0bad980", "lon": -76.92633}, {"lat": 38.91402466666667, "fusion_lat": 0.0, "is_disabled": 0, "fusion_lon": 0.0, "type": "electric_scooter", "bike_id": "00859c52f5c04a4830116bca8cac4fe3", "is_reserved": 0, "rental_uris": {"ios": "https://dc.lft.to/lastmile_qr_scan", "android": "https://dc.lft.to/lastmile_qr_scan"}, "name": "00859c52f5c04a4830116bca8cac4fe3", "lon": -77.009783}, {"lat": 38.931225166666664, "fusion_lat": 0.0, "is_disabled": 0, "fusion_lon": 0.0, "type": "electric_scooter", "bike_id": "c3afacb917947af96e2b69d95ade3cc5", "is_reserved": 0, "rental_uris": {"ios": "https://dc.lft.to/lastmile_qr_scan", "android": "https://dc.lft.to/lastmile_qr_scan"}, "name": "c3afacb917947af96e2b69d95ade3cc5", "lon": -77.038823}, {"lat": 38.93252233333333, "fusion_lat": 0.0, "is_disabled": 0, "fusion_lon": 0.0, "type": "electric_scooter", "bike_id": "9af91ed0f8994838a46916f224db3c75", "is_reserved": 0, "rental_uris": {"ios": "https://dc.lft.to/lastmile_qr_scan", "android": "https://dc.lft.to/lastmile_qr_scan"}, "name": "9af91ed0f8994838a46916f224db3c75", "lon": -77.03871333333333}, {"lat": 38.927024833333334, "fusion_lat": 0.0, "is_disabled": 0, "fusion_lon": 0.0, "type": "electric_scooter", "bike_id": "580a375c99cd781430d856dc922d63ec", "is_reserved": 0, "rental_uris": {"ios": "https://dc.lft.to/lastmile_qr_scan", "android": "https://dc.lft.to/lastmile_qr_scan"}, "name": "580a375c99cd781430d856dc922d63ec", "lon": -77.0600875}, {"lat": 38.915380666666664, "fusion_lat": 0.0, "is_disabled": 0, "fusion_lon": 0.0, "type": "electric_scooter", "bike_id": "f75ec851f7a66acac1ebe2655ce9c57e", "is_reserved": 0, "rental_uris": {"ios": "https://dc.lft.to/lastmile_qr_scan", "android": "https://dc.lft.to/lastmile_qr_scan"}, "name": "f75ec851f7a66acac1ebe2655ce9c57e", "lon": -77.04453333333333}, {"lat": 38.9003945, "fusion_lat": 0.0, "is_disabled": 0, "fusion_lon": 0.0, "type": "electric_scooter", "bike_id": "d2c5514613b2e19d98d57bc3743d0ae1", "is_reserved": 0, "rental_uris": {"ios": "https://dc.lft.to/lastmile_qr_scan", "android": "https://dc.lft.to/lastmile_qr_scan"}, "name": "d2c5514613b2e19d98d57bc3743d0ae1", "lon": -76.98834783333334}, {"lat": 38.9195635, "fusion_lat": 0.0, "is_disabled": 0, "fusion_lon": 0.0, "type": "electric_scooter", "bike_id": "ac9128af34b9156105fd81faba3f2871", "is_reserved": 0, "rental_uris": {"ios": "https://dc.lft.to/lastmile_qr_scan", "android": "https://dc.lft.to/lastmile_qr_scan"}, "name": "ac9128af34b9156105fd81faba3f2871", "lon": -77.07868166666667}, {"lat": 38.93099216666667, "fusion_lat": 0.0, "is_disabled": 0, "fusion_lon": 0.0, "type": "electric_scooter", "bike_id": "e04b47b529cf166c571eb2bc1131feb5", "is_reserved": 0, "rental_uris": {"ios": "https://dc.lft.to/lastmile_qr_scan", "android": "https://dc.lft.to/lastmile_qr_scan"}, "name": "e04b47b529cf166c571eb2bc1131feb5", "lon": -77.026653}, {"lat": 38.94204166666667, "fusion_lat": 0.0, "is_disabled": 0, "fusion_lon": 0.0, "type": "electric_scooter", "bike_id": "8fb21b082e2d02f0d8455fe5ee7dbcb8", "is_reserved": 0, "rental_uris": {"ios": "https://dc.lft.to/lastmile_qr_scan", "android": "https://dc.lft.to/lastmile_qr_scan"}, "name": "8fb21b082e2d02f0d8455fe5ee7dbcb8", "lon": -77.01330966666667}, {"lat": 38.9558035, "fusion_lat": 0.0, "is_disabled": 0, "fusion_lon": 0.0, "type": "electric_scooter", "bike_id": "66a9765666e1d2e573c7d73d37d2cd8b", "is_reserved": 0, "rental_uris": {"ios": "https://dc.lft.to/lastmile_qr_scan", "android": "https://dc.lft.to/lastmile_qr_scan"}, "name": "66a9765666e1d2e573c7d73d37d2cd8b", "lon": -77.01782683333333}, {"lat": 38.90438233333333, "fusion_lat": 0.0, "is_disabled": 0, "fusion_lon": 0.0, "type": "electric_scooter", "bike_id": "54cd49fedd330e6d7c21d30ccd60f8dc", "is_reserved": 0, "rental_uris": {"ios": "https://dc.lft.to/lastmile_qr_scan", "android": "https://dc.lft.to/lastmile_qr_scan"}, "name": "54cd49fedd330e6d7c21d30ccd60f8dc", "lon": -77.03442566666666}, {"lat": 38.88506833333334, "fusion_lat": 0.0, "is_disabled": 0, "fusion_lon": 0.0, "type": "electric_scooter", "bike_id": "9ce9bef7dfb746ccaaa0d4ccc1881baf", "is_reserved": 0, "rental_uris": {"ios": "https://dc.lft.to/lastmile_qr_scan", "android": "https://dc.lft.to/lastmile_qr_scan"}, "name": "9ce9bef7dfb746ccaaa0d4ccc1881baf", "lon": -77.0210305}, {"lat": 39.02648683333334, "fusion_lat": 0.0, "is_disabled": 0, "fusion_lon": 0.0, "type": "electric_bike", "bike_id": "31dad365f99ad1a2061a50c5146dc4b9", "is_reserved": 0, "rental_uris": {"ios": "https://dc.lft.to/lastmile_qr_scan", "android": "https://dc.lft.to/lastmile_qr_scan"}, "name": "31dad365f99ad1a2061a50c5146dc4b9", "lon": -77.03682533333334}, {"lat": 38.901151166666665, "fusion_lat": 0.0, "is_disabled": 0, "fusion_lon": 0.0, "type": "electric_scooter", "bike_id": "66d0779e2fb97fe193c7231f47a4b23a", "is_reserved": 0, "rental_uris": {"ios": "https://dc.lft.to/lastmile_qr_scan", "android": "https://dc.lft.to/lastmile_qr_scan"}, "name": "66d0779e2fb97fe193c7231f47a4b23a", "lon": -76.99843216666666}, {"lat": 38.976014166666666, "fusion_lat": 0.0, "is_disabled": 0, "fusion_lon": 0.0, "type": "electric_scooter", "bike_id": "ff28ddf890a467fe247cfe5812338207", "is_reserved": 0, "rental_uris": {"ios": "https://dc.lft.to/lastmile_qr_scan", "android": "https://dc.lft.to/lastmile_qr_scan"}, "name": "ff28ddf890a467fe247cfe5812338207", "lon": -77.02648466666666}, {"lat": 38.928968833333336, "fusion_lat": 0.0, "is_disabled": 0, "fusion_lon": 0.0, "type": "electric_scooter", "bike_id": "6da89d7ad95838dd511110c81456bb06", "is_reserved": 0, "rental_uris": {"ios": "https://dc.lft.to/lastmile_qr_scan", "android": "https://dc.lft.to/lastmile_qr_scan"}, "name": "6da89d7ad95838dd511110c81456bb06", "lon": -77.02255}, {"lat": 38.91805683333333, "fusion_lat": 0.0, "is_disabled": 0, "fusion_lon": 0.0, "type": "electric_scooter", "bike_id": "71196707a4ef50b293c2a247d114291a", "is_reserved": 0, "rental_uris": {"ios": "https://dc.lft.to/lastmile_qr_scan", "android": "https://dc.lft.to/lastmile_qr_scan"}, "name": "71196707a4ef50b293c2a247d114291a", "lon": -77.02449716666666}, {"lat": 38.91554466666667, "fusion_lat": 0.0, "is_disabled": 0, "fusion_lon": 0.0, "type": "electric_scooter", "bike_id": "35ba3e35322663297603f2306f5190ca", "is_reserved": 0, "rental_uris": {"ios": "https://dc.lft.to/lastmile_qr_scan", "android": "https://dc.lft.to/lastmile_qr_scan"}, "name": "35ba3e35322663297603f2306f5190ca", "lon": -77.01202983333333}, {"lat": 38.92767933333333, "fusion_lat": 0.0, "is_disabled": 0, "fusion_lon": 0.0, "type": "electric_scooter", "bike_id": "ed3ee2ef6a84f8dc1c85712c09f43ae9", "is_reserved": 0, "rental_uris": {"ios": "https://dc.lft.to/lastmile_qr_scan", "android": "https://dc.lft.to/lastmile_qr_scan"}, "name": "ed3ee2ef6a84f8dc1c85712c09f43ae9", "lon": -77.0205145}, {"lat": 38.93263733333333, "fusion_lat": 0.0, "is_disabled": 0, "fusion_lon": 0.0, "type": "electric_scooter", "bike_id": "e01c0e897d84ce3d641f2b9e6a2514c7", "is_reserved": 0, "rental_uris": {"ios": "https://dc.lft.to/lastmile_qr_scan", "android": "https://dc.lft.to/lastmile_qr_scan"}, "name": "e01c0e897d84ce3d641f2b9e6a2514c7", "lon": -77.0349}, {"lat": 38.90809433333333, "fusion_lat": 0.0, "is_disabled": 0, "fusion_lon": 0.0, "type": "electric_scooter", "bike_id": "feff4ffb0f4b6f0620fb598fac84ea0a", "is_reserved": 0, "rental_uris": {"ios": "https://dc.lft.to/lastmile_qr_scan", "android": "https://dc.lft.to/lastmile_qr_scan"}, "name": "feff4ffb0f4b6f0620fb598fac84ea0a", "lon": -77.04353483333334}, {"lat": 38.900968666666664, "fusion_lat": 0.0, "is_disabled": 0, "fusion_lon": 0.0, "type": "electric_scooter", "bike_id": "540f3c3aeec559fec53b0984c7ad5176", "is_reserved": 0, "rental_uris": {"ios": "https://dc.lft.to/lastmile_qr_scan", "android": "https://dc.lft.to/lastmile_qr_scan"}, "name": "540f3c3aeec559fec53b0984c7ad5176", "lon": -77.04486816666666}, {"lat": 38.856419, "fusion_lat": 0.0, "is_disabled": 0, "fusion_lon": 0.0, "type": "electric_bike", "bike_id": "631eadf13aaca656213992df345a9b78", "is_reserved": 0, "rental_uris": {"ios": "https://dc.lft.to/lastmile_qr_scan", "android": "https://dc.lft.to/lastmile_qr_scan"}, "name": "631eadf13aaca656213992df345a9b78", "lon": -77.085237}, {"lat": 38.907516, "fusion_lat": 0.0, "is_disabled": 0, "fusion_lon": 0.0, "type": "electric_scooter", "bike_id": "78fd6f8be75193d9d8a312ee3226b199", "is_reserved": 0, "rental_uris": {"ios": "https://dc.lft.to/lastmile_qr_scan", "android": "https://dc.lft.to/lastmile_qr_scan"}, "name": "78fd6f8be75193d9d8a312ee3226b199", "lon": -77.04552966666667}, {"lat": 38.90202766666667, "fusion_lat": 0.0, "is_disabled": 0, "fusion_lon": 0.0, "type": "electric_scooter", "bike_id": "16a34fd0fec1fc947bbdf2173a339d51", "is_reserved": 0, "rental_uris": {"ios": "https://dc.lft.to/lastmile_qr_scan", "android": "https://dc.lft.to/lastmile_qr_scan"}, "name": "16a34fd0fec1fc947bbdf2173a339d51", "lon": -77.00214133333333}, {"lat": 38.89616016666667, "fusion_lat": 0.0, "is_disabled": 0, "fusion_lon": 0.0, "type": "electric_scooter", "bike_id": "4122ab81361c1b720d3fea52ed5b803b", "is_reserved": 0, "rental_uris": {"ios": "https://dc.lft.to/lastmile_qr_scan", "android": "https://dc.lft.to/lastmile_qr_scan"}, "name": "4122ab81361c1b720d3fea52ed5b803b", "lon": -77.021929}, {"lat": 38.865058833333336, "fusion_lat": 0.0, "is_disabled": 0, "fusion_lon": 0.0, "type": "electric_bike", "bike_id": "0a760231dbdcf1eb766e3edce341a93f", "is_reserved": 0, "rental_uris": {"ios": "https://dc.lft.to/lastmile_qr_scan", "android": "https://dc.lft.to/lastmile_qr_scan"}, "name": "0a760231dbdcf1eb766e3edce341a93f", "lon": -76.97325566666666}, {"lat": 38.912599166666666, "fusion_lat": 0.0, "is_disabled": 0, "fusion_lon": 0.0, "type": "electric_scooter", "bike_id": "f7d041a5dc21e927a71d79d7eab35dc1", "is_reserved": 0, "rental_uris": {"ios": "https://dc.lft.to/lastmile_qr_scan", "android": "https://dc.lft.to/lastmile_qr_scan"}, "name": "f7d041a5dc21e927a71d79d7eab35dc1", "lon": -77.038697}, {"lat": 38.9056525, "fusion_lat": 0.0, "is_disabled": 0, "fusion_lon": 0.0, "type": "electric_scooter", "bike_id": "a48867df6c2183ebb673662246b007ae", "is_reserved": 0, "rental_uris": {"ios": "https://dc.lft.to/lastmile_qr_scan", "android": "https://dc.lft.to/lastmile_qr_scan"}, "name": "a48867df6c2183ebb673662246b007ae", "lon": -77.03450333333333}, {"lat": 38.90696283333333, "fusion_lat": 0.0, "is_disabled": 0, "fusion_lon": 0.0, "type": "electric_scooter", "bike_id": "e93579d16a79a7c4ca411ddab514dacc", "is_reserved": 0, "rental_uris": {"ios": "https://dc.lft.to/lastmile_qr_scan", "android": "https://dc.lft.to/lastmile_qr_scan"}, "name": "e93579d16a79a7c4ca411ddab514dacc", "lon": -77.02183516666666},