{"data": {"bikes": [{"lat": 38.86919966666667, "is_disabled": 0, "type": "electric_scooter", "lon": -76.98307933333334, "bike_id": "dec5ef592fc9d736b9552c035f3b682b", "fusion_lat": 0.0, "name": "dec5ef592fc9d736b9552c035f3b682b", "is_reserved": 0, "rental_uris": {"android": "https://dc.lft.to/lastmile_qr_scan", "ios": "https://dc.lft.to/lastmile_qr_scan"}, "fusion_lon": 0.0}, {"lat": 38.9232945, "is_disabled": 0, "type": "electric_scooter", "lon": -77.03571233333334, "bike_id": "680f74a8d570e9943f46a0b78bf49459", "fusion_lat": 0.0, "name": "680f74a8d570e9943f46a0b78bf49459", "is_reserved": 0, "rental_uris": {"android": "https://dc.lft.to/lastmile_qr_scan", "ios": "https://dc.lft.to/lastmile_qr_scan"}, "fusion_lon": 0.0}, {"lat": 38.91328716666666, "is_disabled": 0, "type": "electric_scooter", "lon": -77.03125733333333, "bike_id": "d441092b3dd811573abd85ee6637e321", "fusion_lat": 0.0, "name": "d441092b3dd811573abd85ee6637e321", "is_reserved": 0, "rental_uris": {"android": "https://dc.lft.to/lastmile_qr_scan", "ios": "https://dc.lft.to/lastmile_qr_scan"}, "fusion_lon": 0.0}, {"lat": 38.88600566666667, "is_disabled": 0, "type": "electric_scooter", "lon": -77.0021445, "bike_id": "1ff32c712d5144c1646caf81f3282aa7", "fusion_lat": 0.0, "name": "1ff32c712d5144c1646caf81f3282aa7", "is_reserved": 0, "rental_uris": {"android": "https://dc.lft.to/lastmile_qr_scan", "ios": "https://dc.lft.to/lastmile_qr_scan"}, "fusion_lon": 0.0}, {"lat": 38.9065425, "is_disabled": 0, "type": "electric_scooter", "lon": -77.02947566666667, "bike_id": "14fae8e3334476a2aab180c1ac745c7f", "fusion_lat": 0.0, "name": "14fae8e3334476a2aab180c1ac745c7f", "is_reserved": 0, "rental_uris": {"android": "https://dc.lft.to/lastmile_qr_scan", "ios": "https://dc.lft.to/lastmile_qr_scan"}, "fusion_lon": 0.0}, {"lat": 38.884271166666664, "is_disabled": 0, "type": "electric_scooter", "lon": -77.00022666666666, "bike_id": "07d761bbcf5ef71b416c3df466a1ffcd", "fusion_lat": 0.0, "name": "07d761bbcf5ef71b416c3df466a1ffcd", "is_reserved": 0, "rental_uris": {"android": "https://dc.lft.to/lastmile_qr_scan", "ios": "https://dc.lft.to/lastmile_qr_scan"}, "fusion_lon": 0.0}, {"lat": 38.9058815, "is_disabled": 0, "type": "electric_scooter", "lon": -77.06517683333334, "bike_id": "41861db42ba1ca21758ffaeecfd14980", "fusion_lat": 0.0, "name": "41861db42ba1ca21758ffaeecfd14980", "is_reserved": 0, "rental_uris": {"android": "https://dc.lft.to/lastmile_qr_scan", "ios": "https://dc.lft.to/lastmile_qr_scan"}, "fusion_lon": 0.0}, {"lat": 38.98654616666666, "is_disabled": 0, "type": "electric_bike", "lon": -77.05631766666667, "bike_id": "825326695de0cb6b01adc9251493a148", "fusion_lat": 0.0, "name": "825326695de0cb6b01adc9251493a148", "is_reserved": 0, "rental_uris": {"android": "https://dc.lft.to/lastmile_qr_scan", "ios": "https://dc.lft.to/lastmile_qr_scan"}, "fusion_lon": 0.0}, {"lat": 38.844287, "is_disabled": 0, "type": "electric_scooter", "lon": -76.99778616666667, "bike_id": "da793ef81a7be70b3b7d4d0f2b0e67e3", "fusion_lat": 0.0, "name": "da793ef81a7be70b3b7d4d0f2b0e67e3", "is_reserved": 0, "rental_uris": {"android": "https://dc.lft.to/lastmile_qr_scan", "ios": "https://dc.lft.to/lastmile_qr_scan"}, "fusion_lon": 0.0}, {"lat": 38.907931, "is_disabled": 0, "type": "electric_scooter", "lon": -77.03661716666667, "bike_id": "10898caf61f96e73504594670194ff39", "fusion_lat": 0.0, "name": "10898caf61f96e73504594670194ff39", "is_reserved": 0, "rental_uris": {"android": "https://dc.lft.to/lastmile_qr_scan", "ios": "https://dc.lft.to/lastmile_qr_scan"}, "fusion_lon": 0.0}, {"lat": 38.869804, "is_disabled": 0, "type": "electric_bike", "lon": -76.95983466666667, "bike_id": "1a0ffab3c9753ddd26e5b8d875173560", "fusion_lat": 0.0, "name": "1a0ffab3c9753ddd26e5b8d875173560", "is_reserved": 0, "rental_uris": {"android": "https://dc.lft.to/lastmile_qr_scan", "ios": "https://dc.lft.to/lastmile_qr_scan"}, "fusion_lon": 0.0}, {"lat": 38.92758, "is_disabled": 0, "type": "electric_scooter", "lon": -77.03260166666666, "bike_id": "7def7047e09d91683f604e78f02b2370", "fusion_lat": 0.0, "name": "7def7047e09d91683f604e78f02b2370", "is_reserved": 0, "rental_uris": {"android": "https://dc.lft.to/lastmile_qr_scan", "ios": "https://dc.lft.to/lastmile_qr_scan"}, "fusion_lon": 0.0}, {"lat": 38.9096475, "is_disabled": 0, "type": "electric_bike", "lon": -77.0356905, "bike_id": "0bb82bbcf40c02c40c9efb20bf8043e8", "fusion_lat": 0.0, "name": "0bb82bbcf40c02c40c9efb20bf8043e8", "is_reserved": 0, "rental_uris": {"android": "https://dc.lft.to/lastmile_qr_scan", "ios": "https://dc.lft.to/lastmile_qr_scan"}, "fusion_lon": 0.0}, {"lat": 38.92296366666667, "is_disabled": 0, "type": "electric_scooter", "lon": -77.03656533333333, "bike_id": "ad82a6f26f54e92045bfff512a03ea0f", "fusion_lat": 0.0, "name": "ad82a6f26f54e92045bfff512a03ea0f", "is_reserved": 0, "rental_uris": {"android": "https://dc.lft.to/lastmile_qr_scan", "ios": "https://dc.lft.to/lastmile_qr_scan"}, "fusion_lon": 0.0}, {"lat": 38.89510116666666, "is_disabled": 0, "type": "electric_scooter", "lon": -77.01124883333334, "bike_id": "cc979faa1845a50fab65ab4cc84f2099", "fusion_lat": 0.0, "name": "cc979faa1845a50fab65ab4cc84f2099", "is_reserved": 0, "rental_uris": {"android": "https://dc.lft.to/lastmile_qr_scan", "ios": "https://dc.lft.to/lastmile_qr_scan"}, "fusion_lon": 0.0}, {"lat": 38.973097833333334, "is_disabled": 0, "type": "electric_scooter", "lon": -77.02703683333333, "bike_id": "85210caa1e5811b17bc232bff216b3af", "fusion_lat": 0.0, "name": "85210caa1e5811b17bc232bff216b3af", "is_reserved": 0, "rental_uris": {"android": "https://dc.lft.to/lastmile_qr_scan", "ios": "https://dc.lft.to/lastmile_qr_scan"}, "fusion_lon": 0.0}, {"lat": 38.985121166666666, "is_disabled": 0, "type": "electric_bike", "lon": -76.98217216666667, "bike_id": "b9e4c896e46d63c917279b522a35d125", "fusion_lat": 0.0, "name": "b9e4c896e46d63c917279b522a35d125", "is_reserved": 0, "rental_uris": {"android": "https://dc.lft.to/lastmile_qr_scan", "ios": "https://dc.lft.to/lastmile_qr_scan"}, "fusion_lon": 0.0}, {"lat": 38.8984885, "is_disabled": 0, "type": "electric_scooter", "lon": -77.0395135, "bike_id": "731380a21cb84fda5575e008f4bb699f", "fusion_lat": 0.0, "name": "731380a21cb84fda5575e008f4bb699f", "is_reserved": 0, "rental_uris": {"android": "https://dc.lft.to/lastmile_qr_scan", "ios": "https://dc.lft.to/lastmile_qr_scan"}, "fusion_lon": 0.0}, {"lat": 38.93882, "is_disabled": 0, "type": "electric_scooter", "lon": -77.03283516666667, "bike_id": "f6cd98026e6f90ec7f48d06d794db508", "fusion_lat": 0.0, "name": "f6cd98026e6f90ec7f48d06d794db508", "is_reserved": 0, "rental_uris": {"android": "https://dc.lft.to/lastmile_qr_scan", "ios": "https://dc.lft.to/lastmile_qr_scan"}, "fusion_lon": 0.0}, {"lat": 38.8226415, "is_disabled": 0, "type": "electric_bike", "lon": -77.05809416666666, "bike_id": "0fbf4096467cd4cb0e247ebba0a64608", "fusion_lat": 0.0, "name": "0fbf4096467cd4cb0e247ebba0a64608", "is_reserved": 0, "rental_uris": {"android": "https://dc.lft.to/lastmile_qr_scan", "ios": "https://dc.lft.to/lastmile_qr_scan"}, "fusion_lon": 0.0}, {"lat": 38.908333666666664, "is_disabled": 0, "type": "electric_scooter", "lon": -76.99691083333333, "bike_id": "fe795a7aaa636c36bf649aac6d18405b", "fusion_lat": 0.0, "name": "fe795a7aaa636c36bf649aac6d18405b", "is_reserved": 0, "rental_uris": {"android": "https://dc.lft.to/lastmile_qr_scan", "ios": "https://dc.lft.to/lastmile_qr_scan"}, "fusion_lon": 0.0}, {"lat": 38.899890166666665, "is_disabled": 0, "type": "electric_scooter", "lon": -77.02100566666667, "bike_id": "26db51afab04d2162ad5050988978924", "fusion_lat": 0.0, "name": "26db51afab04d2162ad5050988978924", "is_reserved": 0, "rental_uris": {"android": "https://dc.lft.to/lastmile_qr_scan", "ios": "https://dc.lft.to/lastmile_qr_scan"}, "fusion_lon": 0.0}, {"lat": 38.858974, "is_disabled": 0, "type": "electric_scooter", "lon": -76.99433633333334, "bike_id": "b386934c0dd8e523948c93c774111f83", "fusion_lat": 0.0, "name": "b386934c0dd8e523948c93c774111f83", "is_reserved": 0, "rental_uris": {"android": "https://dc.lft.to/lastmile_qr_scan", "ios": "https://dc.lft.to/lastmile_qr_scan"}, "fusion_lon": 0.0}, {"lat": 38.902332666666666, "is_disabled": 0, "type": "electric_scooter", "lon": -77.05344133333334, "bike_id": "3158641c42d4b317fb888e8777684c6d", "fusion_lat": 0.0, "name": "3158641c42d4b317fb888e8777684c6d", "is_reserved": 0, "rental_uris": {"android": "https://dc.lft.to/lastmile_qr_scan", "ios": "https://dc.lft.to/lastmile_qr_scan"}, "fusion_lon": 0.0}, {"lat": 38.89822016666667, "is_disabled": 0, "type": "electric_scooter", "lon": -77.03162066666667, "bike_id": "6e0d1bbe88ac870c222343817c5e429d", "fusion_lat": 0.0, "name": "6e0d1bbe88ac870c222343817c5e429d", "is_reserved": 0, "rental_uris": {"android": "https://dc.lft.to/lastmile_qr_scan", "ios": "https://dc.lft.to/lastmile_qr_scan"}, "fusion_lon": 0.0}, {"lat": 38.916006, "is_disabled": 0, "type": "electric_scooter", "lon": -77.03208283333333, "bike_id": "c3779d0da224e3cce97a21a3a04d7d29", "fusion_lat": 0.0, "name": "c3779d0da224e3cce97a21a3a04d7d29", "is_reserved": 0, "rental_uris": {"android": "https://dc.lft.to/lastmile_qr_scan", "ios": "https://dc.lft.to/lastmile_qr_scan"}, "fusion_lon": 0.0}, {"lat": 38.92581066666666, "is_disabled": 0, "type": "electric_scooter", "lon": -77.02753866666667, "bike_id": "a51c87b3265a1fcbb9c06a147659ac50", "fusion_lat": 0.0, "name": "a51c87b3265a1fcbb9c06a147659ac50", "is_reserved": 0, "rental_uris": {"android": "https://dc.lft.to/lastmile_qr_scan", "ios": "https://dc.lft.to/lastmile_qr_scan"}, "fusion_lon": 0.0}, {"lat": 38.89684666666667, "is_disabled": 0, "type": "electric_scooter", "lon": -76.99622616666667, "bike_id": "aae1bf44c8e648e8df2191b808e3cf05", "fusion_lat": 0.0, "name": "aae1bf44c8e648e8df2191b808e3cf05", "is_reserved": 0, "rental_uris": {"android": "https://dc.lft.to/lastmile_qr_scan", "ios": "https://dc.lft.to/lastmile_qr_scan"}, "fusion_lon": 0.0}, {"lat": 38.8532375, "is_disabled": 0, "type": "electric_bike", "lon": -76.98011566666666, "bike_id": "de047118e12a32fc852c7635b4f7a03f", "fusion_lat": 0.0, "name": "de047118e12a32fc852c7635b4f7a03f", "is_reserved": 0, "rental_uris": {"android": "https://dc.lft.to/lastmile_qr_scan", "ios": "https://dc.lft.to/lastmile_qr_scan"}, "fusion_lon": 0.0}, {"lat": 38.895025833333335, "is_disabled": 0, "type": "electric_scooter", "lon": -77.022933, "bike_id": "1e6c48cbea2d74989b3fdf7835cc3c90", "fusion_lat": 0.0, "name": "1e6c48cbea2d74989b3fdf7835cc3c90", "is_reserved": 0, "rental_uris": {"android": "https://dc.lft.to/lastmile_qr_scan", "ios": "https://dc.lft.to/lastmile_qr_scan"}, "fusion_lon": 0.0}, {"lat": 38.930788166666666, "is_disabled": 0, "type": "electric_scooter", "lon": -77.01661866666667, "bike_id": "7ec90c8db3d38a4cd5a30ddd46581de6", "fusion_lat": 0.0, "name": "7ec90c8db3d38a4cd5a30ddd46581de6", "is_reserved": 0, "rental_uris": {"android": "https://dc.lft.to/lastmile_qr_scan", "ios": "https://dc.lft.to/lastmile_qr_scan"}, "fusion_lon": 0.0}, {"lat": 38.896809166666664, "is_disabled": 0, "type": "electric_scooter", "lon": -76.93606366666667, "bike_id": "ce3b259d061eff7555803f9adf9c63ad", "fusion_lat": 0.0, "name": "ce3b259d061eff7555803f9adf9c63ad", "is_reserved": 0, "rental_uris": {"android": "https://dc.lft.to/lastmile_qr_scan", "ios": "https://dc.lft.to/lastmile_qr_scan"}, "fusion_lon": 0.0}, {"lat": 38.920815, "is_disabled": 0, "type": "electric_scooter", "lon": -77.04191533333334, "bike_id": "94b64f1feb9087266f7981387488695c", "fusion_lat": 0.0, "name": "94b64f1feb9087266f7981387488695c", "is_reserved": 0, "rental_uris": {"android": "https://dc.lft.to/lastmile_qr_scan", "ios": "https://dc.lft.to/lastmile_qr_scan"}, "fusion_lon": 0.0}, {"lat": 38.895602, "is_disabled": 0, "type": "electric_scooter", "lon": -77.02185566666667, "bike_id": "892d916e24691f065bf821de4c4ddf0e", "fusion_lat": 0.0, "name": "892d916e24691f065bf821de4c4ddf0e", "is_reserved": 0, "rental_uris": {"android": "https://dc.lft.to/lastmile_qr_scan", "ios": "https://dc.lft.to/lastmile_qr_scan"}, "fusion_lon": 0.0}, {"lat": 38.88726616666667, "is_disabled": 0, "type": "electric_scooter", "lon": -76.95477066666666, "bike_id": "2983b4c88586f5e600adc623cfce6221", "fusion_lat": 0.0, "name": "2983b4c88586f5e600adc623cfce6221", "is_reserved": 0, "rental_uris": {"android": "https://dc.lft.to/lastmile_qr_scan", "ios": "https://dc.lft.to/lastmile_qr_scan"}, "fusion_lon": 0.0}, {"lat": 38.907043333333334, "is_disabled": 0, "type": "electric_scooter", "lon": -77.034505, "bike_id": "cabd6374474f4660872543321fb2df81", "fusion_lat": 0.0, "name": "cabd6374474f4660872543321fb2df81", "is_reserved": 0, "rental_uris": {"android": "https://dc.lft.to/lastmile_qr_scan", "ios": "https://dc.lft.to/lastmile_qr_scan"}, "fusion_lon": 0.0}, {"lat": 38.9125715, "is_disabled": 0, "type": "electric_scooter", "lon": -77.03500116666666, "bike_id": "8326158823d60f124a21e8670750e4b4", "fusion_lat": 0.0, "name": "8326158823d60f124a21e8670750e4b4", "is_reserved": 0, "rental_uris": {"android": "https://dc.lft.to/lastmile_qr_scan", "ios": "https://dc.lft.to/lastmile_qr_scan"}, "fusion_lon": 0.0}, {"lat": 38.922410166666666, "is_disabled": 0, "type": "electric_scooter", "lon": -77.02908716666667, "bike_id": "8ab82859414d169921bdbd43078897b9", "fusion_lat": 0.0, "name": "8ab82859414d169921bdbd43078897b9", "is_reserved": 0, "rental_uris": {"android": "https://dc.lft.to/lastmile_qr_scan", "ios": "https://dc.lft.to/lastmile_qr_scan"}, "fusion_lon": 0.0}, {"lat": 38.908878, "is_disabled": 0, "type": "electric_scooter", "lon": -77.0366435, "bike_id": "c94b8aa848f5e34caf66b91f3bac7367", "fusion_lat": 0.0, "name": "c94b8aa848f5e34caf66b91f3bac7367", "is_reserved": 0, "rental_uris": {"android": "https://dc.lft.to/lastmile_qr_scan", "ios": "https://dc.lft.to/lastmile_qr_scan"}, "fusion_lon": 0.0}, {"lat": 38.9055925, "is_disabled": 0, "type": "electric_scooter", "lon": -77.0570015, "bike_id": "a7933d77766dea016ac06a5302ab990b", "fusion_lat": 0.0, "name": "a7933d77766dea016ac06a5302ab990b", "is_reserved": 0, "rental_uris": {"android": "https://dc.lft.to/lastmile_qr_scan", "ios": "https://dc.lft.to/lastmile_qr_scan"}, "fusion_lon": 0.0}, {"lat": 38.916992, "is_disabled": 0, "type": "electric_scooter", "lon": -77.02989883333333, "bike_id": "9919bfc6bb7d07a4bc2da487bc03020b", "fusion_lat": 0.0, "name": "9919bfc6bb7d07a4bc2da487bc03020b", "is_reserved": 0, "rental_uris": {"android": "https://dc.lft.to/lastmile_qr_scan", "ios": "https://dc.lft.to/lastmile_qr_scan"}, "fusion_lon": 0.0}, {"lat": 38.862320833333335, "is_disabled": 0, "type": "electric_scooter", "lon": -76.983589, "bike_id": "d3ff9a9ec760d01fbac388f2b0c49220", "fusion_lat": 0.0, "name": "d3ff9a9ec760d01fbac388f2b0c49220", "is_reserved": 0, "rental_uris": {"android": "https://dc.lft.to/lastmile_qr_scan", "ios": "https://dc.lft.to/lastmile_qr_scan"}, "fusion_lon": 0.0}, {"lat": 38.882763833333335, "is_disabled": 0, "type": "electric_bike", "lon": -76.93236983333334, "bike_id": "23d1a212213cea59cc8b0c6d143a37c7", "fusion_lat": 0.0, "name": "23d1a212213cea59cc8b0c6d143a37c7", "is_reserved": 0, "rental_uris": {"android": "https://dc.lft.to/lastmile_qr_scan", "ios": "https://dc.lft.to/lastmile_qr_scan"}, "fusion_lon": 0.0}, {"lat": 38.86620816666667, "is_disabled": 0, "type": "electric_scooter", "lon": -76.986643, "bike_id": "baf8be8f978bb92b31ac2adeea749942", "fusion_lat": 0.0, "name": "baf8be8f978bb92b31ac2adeea749942", "is_reserved": 0, "rental_uris": {"android": "https://dc.lft.to/lastmile_qr_scan", "ios": "https://dc.lft.to/lastmile_qr_scan"}, "fusion_lon": 0.0}, {"lat": 38.93575083333333, "is_disabled": 0, "type": "electric_scooter", "lon": -77.03730116666667, "bike_id": "fcdb194091125c303395f323d49ce458", "fusion_lat": 0.0, "name": "fcdb194091125c303395f323d49ce458", "is_reserved": 0, "rental_uris": {"android": "https://dc.lft.to/lastmile_qr_scan", "ios": "https://dc.lft.to/lastmile_qr_scan"}, "fusion_lon": 0.0}, {"lat": 38.887419666666666, "is_disabled": 0, "type": "electric_scooter", "lon": -77.01532066666667, "bike_id": "c2a6d2593d4da9ce1f2a87ecb29111cd", "fusion_lat": 0.0, "name": "c2a6d2593d4da9ce1f2a87ecb29111cd", "is_reserved": 0, "rental_uris": {"android": "https://dc.lft.to/lastmile_qr_scan", "ios": "https://dc.lft.to/lastmile_qr_scan"}, "fusion_lon": 0.0}, {"lat": 38.8948455, "is_disabled": 0, "type": "electric_scooter", "lon": -76.94953716666667, "bike_id": "162c160d9080b28110c03014d1e80d18", "fusion_lat": 0.0, "name": "162c160d9080b28110c03014d1e80d18", "is_reserved": 0, "rental_uris": {"android": "https://dc.lft.to/lastmile_qr_scan", "ios": "https://dc.lft.to/lastmile_qr_scan"}, "fusion_lon": 0.0}, {"lat": 38.9165675, "is_disabled": 0, "type": "electric_scooter", "lon": -77.02202733333333, "bike_id": "2b9cc61f7dff5390421d57bcd46e22e3", "fusion_lat": 0.0, "name": "2b9cc61f7dff5390421d57bcd46e22e3", "is_reserved": 0, "rental_uris": {"android": "https://dc.lft.to/lastmile_qr_scan", "ios": "https://dc.lft.to/lastmile_qr_scan"}, "fusion_lon": 0.0}, {"lat": 38.91011783333333, "is_disabled": 0, "type": "electric_scooter", "lon": -76.993873, "bike_id": "4a6af995603d293e2c85d0e2d664ff3a", "fusion_lat": 0.0, "name": "4a6af995603d293e2c85d0e2d664ff3a", "is_reserved": 0, "rental_uris": {"android": "https://dc.lft.to/lastmile_qr_scan", "ios": "https://dc.lft.to/lastmile_qr_scan"}, "fusion_lon": 0.0}, {"lat": 38.89227983333333, "is_disabled": 0, "type": "electric_scooter", "lon": -77.048636, "bike_id": "91b673d15fc9b09d2923895245292e9a", "fusion_lat": 0.0, "name": "91b673d15fc9b09d2923895245292e9a", "is_reserved": 0, "rental_uris": {"android": "https://dc.lft.to/lastmile_qr_scan", "ios": "https://dc.lft.to/lastmile_qr_scan"}, "fusion_lon": 0.0}, {"lat": 38.96145466666667, "is_disabled": 0, "type": "electric_bike", "lon": -77.03233866666666, "bike_id": "6579ba391b95eef4fae1dc2efc114b55", "fusion_lat": 0.0, "name": "6579ba391b95eef4fae1dc2efc114b55", "is_reserved": 0, "rental_uris": {"android": "https://dc.lft.to/lastmile_qr_scan", "ios": "https://dc.lft.to/lastmile_qr_scan"}, "fusion_lon": 0.0}, {"lat": 38.87937083333333, "is_disabled": 0, "type": "electric_scooter", "lon": -77.007188, "bike_id": "6712f60a6d7731855a5465cab08f61a5", "fusion_lat": 0.0, "name": "6712f60a6d7731855a5465cab08f61a5", "is_reserved": 0, "rental_uris": {"android": "https://dc.lft.to/lastmile_qr_scan", "ios": "https://dc.lft.to/lastmile_qr_scan"}, "fusion_lon": 0.0}, {"lat": 38.91995, "is_disabled": 0, "type": "electric_scooter", "lon": -77.02395466666667, "bike_id": "bac190d56a0cec4c365b5c2fa7843044", "fusion_lat": 0.0, "name": "bac190d56a0cec4c365b5c2fa7843044", "is_reserved": 0, "rental_uris": {"android": "https://dc.lft.to/lastmile_qr_scan", "ios": "https://dc.lft.to/lastmile_qr_scan"}, "fusion_lon": 0.0}, {"lat": 38.90339566666667, "is_disabled": 0, "type": "electric_scooter", "lon": -76.97058316666667, "bike_id": "b30a0ec909133ebd34e1e17e6e3f1e27", "fusion_lat": 0.0, "name": "b30a0ec909133ebd34e1e17e6e3f1e27", "is_reserved": 0, "rental_uris": {"android": "https://dc.lft.to/lastmile_qr_scan", "ios": "https://dc.lft.to/lastmile_qr_scan"}, "fusion_lon": 0.0}, {"lat": 38.915633, "is_disabled": 0, "type": "electric_scooter", "lon": -77.00975716666666, "bike_id": "99731192bacd6fc9c8756c33d2fbe2b1", "fusion_lat": 0.0, "name": "99731192bacd6fc9c8756c33d2fbe2b1", "is_reserved": 0, "rental_uris": {"android": "https://dc.lft.to/lastmile_qr_scan", "ios": "https://dc.lft.to/lastmile_qr_scan"}, "fusion_lon": 0.0}, {"lat": 38.8987565, "is_disabled": 0, "type": "electric_scooter", "lon": -77.029445, "bike_id": "269ff958884547a18f9e2e1c2fb078e8", "fusion_lat": 0.0, "name": "269ff958884547a18f9e2e1c2fb078e8", "is_reserved": 0, "rental_uris": {"android": "https://dc.lft.to/lastmile_qr_scan", "ios": "https://dc.lft.to/lastmile_qr_scan"}, "fusion_lon": 0.0}, {"lat": 38.91287666666667, "is_disabled": 0, "type": "electric_scooter", "lon": -77.02265766666666, "bike_id": "bcfc0a1e68f9cc31c3f6a2436484ed89", "fusion_lat": 0.0, "name": "bcfc0a1e68f9cc31c3f6a2436484ed89", "is_reserved": 0, "rental_uris": {"android": "https://dc.lft.to/lastmile_qr_scan", "ios": "https://dc.lft.to/lastmile_qr_scan"}, "fusion_lon": 0.0}, {"lat": 38.953318833333334, "is_disabled": 0, "type": "electric_bike", "lon": -76.98816183333334, "bike_id": "a45fdab944ca96d8dd0d3d15af0285ba", "fusion_lat": 0.0, "name": "a45fdab944ca96d8dd0d3d15af0285ba", "is_reserved": 0, "rental_uris": {"android": "https://dc.lft.to/lastmile_qr_scan", "ios": "https://dc.lft.to/lastmile_qr_scan"}, "fusion_lon": 0.0}, {"lat": 38.906894666666666, "is_disabled": 0, "type": "electric_bike", "lon": -76.95197766666666, "bike_id": "2ab0622d01c0d53d1208c78adabe18e8", "fusion_lat": 0.0, "name": "2ab0622d01c0d53d1208c78adabe18e8", "is_reserved": 0, "rental_uris": {"android": "https://dc.lft.to/lastmile_qr_scan", "ios": "https://dc.lft.to/lastmile_qr_scan"}, "fusion_lon": 0.0}, {"lat": 38.909487, "is_disabled": 0, "type": "electric_scooter", "lon": -77.04421433333333, "bike_id": "29078502eceb7f38b60933ff157fc097", "fusion_lat": 0.0, "name": "29078502eceb7f38b60933ff157fc097", "is_reserved": 0, "rental_uris": {"android": "https://dc.lft.to/lastmile_qr_scan", "ios": "https://dc.lft.to/lastmile_qr_scan"}, "fusion_lon": 0.0}, {"lat": 38.807567666666664, "is_disabled": 0, "type": "electric_bike", "lon": -77.09454716666667, "bike_id": "8dea8778bdd34a87b711b683bed7280e", "fusion_lat": 0.0, "name": "8dea8778bdd34a87b711b683bed7280e", "is_reserved": 0, "rental_uris": {"android": "https://dc.lft.to/lastmile_qr_scan", "ios": "https://dc.lft.to/lastmile_qr_scan"}, "fusion_lon": 0.0}, {"lat": 38.9076235, "is_disabled": 0, "type": "electric_scooter", "lon": -77.0206055, "bike_id": "60d12eb21e6c22a02d8c0285018ca2c2", "fusion_lat": 0.0, "name": "60d12eb21e6c22a02d8c0285018ca2c2", "is_reserved": 0, "rental_uris": {"android": "https://dc.lft.to/lastmile_qr_scan", "ios": "https://dc.lft.to/lastmile_qr_scan"}, "fusion_lon": 0.0}, {"lat": 38.890851833333336, "is_disabled": 0, "type": "electric_scooter", "lon": -76.98676133333333, "bike_id": "99135a12516a05ca7547602e5f03feb3", "fusion_lat": 0.0, "name": "99135a12516a05ca7547602e5f03feb3", "is_reserved": 0, "rental_uris": {"android": "https://dc.lft.to/lastmile_qr_scan", "ios": "https://dc.lft.to/lastmile_qr_scan"}, "fusion_lon": 0.0}, {"lat": 38.922558, "is_disabled": 0, "type": "electric_scooter", "lon": -77.039108, "bike_id": "806571f3404db59e228364505f74c34e", "fusion_lat": 0.0, "name": "806571f3404db59e228364505f74c34e", "is_reserved": 0, "rental_uris": {"android": "https://dc.lft.to/lastmile_qr_scan", "ios": "https://dc.lft.to/lastmile_qr_scan"}, "fusion_lon": 0.0}, {"lat": 38.914952666666665, "is_disabled": 0, "type": "electric_scooter", "lon": -77.019938, "bike_id": "848c761441b3b1b28bebc97c199cf176", "fusion_lat": 0.0, "name": "848c761441b3b1b28bebc97c199cf176", "is_reserved": 0, "rental_uris": {"android": "https://dc.lft.to/lastmile_qr_scan", "ios": "https://dc.lft.to/lastmile_qr_scan"}, "fusion_lon": 0.0}, {"lat": 38.915512166666666, "is_disabled": 0, "type": "electric_scooter", "lon": -77.032423, "bike_id": "4b24c5acddf7bdb3dabfee6843669df9", "fusion_lat": 0.0, "name": "4b24c5acddf7bdb3dabfee6843669df9", "is_reserved": 0, "rental_uris": {"android": "https://dc.lft.to/lastmile_qr_scan", "ios": "https://dc.lft.to/lastmile_qr_scan"}, "fusion_lon": 0.0}, {"lat": 38.86620033333333, "is_disabled": 0, "type": "electric_scooter", "lon": -76.986517, "bike_id": "5b928d7b8a0b0a887ab2e40ceb19f80a", "fusion_lat": 0.0, "name": "5b928d7b8a0b0a887ab2e40ceb19f80a", "is_reserved": 0, "rental_uris": {"android": "https://dc.lft.to/lastmile_qr_scan", "ios": "https://dc.lft.to/lastmile_qr_scan"}, "fusion_lon": 0.0}, {"lat": 38.84424583333333, "is_disabled": 0, "type": "electric_scooter", "lon": -76.99780433333333, "bike_id": "469f41fdcdfed51169024ff46e70826a", "fusion_lat": 0.0, "name": "469f41fdcdfed51169024ff46e70826a", "is_reserved": 0, "rental_uris": {"android": "https://dc.lft.to/lastmile_qr_scan", "ios": "https://dc.lft.to/lastmile_qr_scan"}, "fusion_lon": 0.0}, {"lat": 38.93386433333333, "is_disabled": 0, "type": "electric_scooter", "lon": -77.02732333333333, "bike_id": "11dbd7bd5e3084af1c8b3a23b55c89a4", "fusion_lat": 0.0, "name": "11dbd7bd5e3084af1c8b3a23b55c89a4", "is_reserved": 0, "rental_uris": {"android": "https://dc.lft.to/lastmile_qr_scan", "ios": "https://dc.lft.to/lastmile_qr_scan"}, "fusion_lon": 0.0}, {"lat": 38.89853183333334, "is_disabled": 0, "type": "electric_scooter", "lon": -76.9903335, "bike_id": "4468db68aa5609062716049cacda76ed", "fusion_lat": 0.0, "name": "4468db68aa5609062716049cacda76ed", "is_reserved": 0, "rental_uris": {"android": "https://dc.lft.to/lastmile_qr_scan", "ios": "https://dc.lft.to/lastmile_qr_scan"}, "fusion_lon": 0.0}, {"lat": 38.91575983333333, "is_disabled": 0, "type": "electric_scooter", "lon": -77.04679633333333, "bike_id": "a751e6a4c98590c568b4213570be9855", "fusion_lat": 0.0, "name": "a751e6a4c98590c568b4213570be9855", "is_reserved": 0, "rental_uris": {"android": "https://dc.lft.to/lastmile_qr_scan", "ios": "https://dc.lft.to/lastmile_qr_scan"}, "fusion_lon": 0.0}, {"lat": 38.90217583333333, "is_disabled": 0, "type": "electric_scooter", "lon": -76.94587933333334, "bike_id": "2c3db3c11941f7a3b7949bf1b6b57729", "fusion_lat": 0.0, "name": "2c3db3c11941f7a3b7949bf1b6b57729", "is_reserved": 0, "rental_uris": {"android": "https://dc.lft.to/lastmile_qr_scan", "ios": "https://dc.lft.to/lastmile_qr_scan"}, "fusion_lon": 0.0}, {"lat": 38.955392, "is_disabled": 0, "type": "electric_bike", "lon": -77.0178535, "bike_id": "a039093e5967ba15cc5a9d7d37c8c62c", "fusion_lat": 0.0, "name": "a039093e5967ba15cc5a9d7d37c8c62c", "is_reserved": 0, "rental_uris": {"android": "https://dc.lft.to/lastmile_qr_scan", "ios": "https://dc.lft.to/lastmile_qr_scan"}, "fusion_lon": 0.0}, {"lat": 38.94947366666667, "is_disabled": 0, "type": "electric_scooter", "lon": -77.01611283333334, "bike_id": "f02c18253949c062a98f21edcf18bae1", "fusion_lat": 0.0, "name": "f02c18253949c062a98f21edcf18bae1", "is_reserved": 0, "rental_uris": {"android": "https://dc.lft.to/lastmile_qr_scan", "ios": "https://dc.lft.to/lastmile_qr_scan"}, "fusion_lon": 0.0}, {"lat": 38.91782366666666, "is_disabled": 0, "type": "electric_scooter", "lon": -77.0231135, "bike_id": "4b57dfbb67eebfa35cba6db5ab754327", "fusion_lat": 0.0, "name": "4b57dfbb67eebfa35cba6db5ab754327", "is_reserved": 0, "rental_uris": {"android": "https://dc.lft.to/lastmile_qr_scan", "ios": "https://dc.lft.to/lastmile_qr_scan"}, "fusion_lon": 0.0}, {"lat": 38.897752, "is_disabled": 0, "type": "electric_scooter", "lon": -77.043584, "bike_id": "005e75b940269dd0398fe29b711f02f1", "fusion_lat": 0.0, "name": "005e75b940269dd0398fe29b711f02f1", "is_reserved": 0, "rental_uris": {"android": "https://dc.lft.to/lastmile_qr_scan", "ios": "https://dc.lft.to/lastmile_qr_scan"}, "fusion_lon": 0.0}, {"lat": 38.92329516666667, "is_disabled": 0, "type": "electric_bike", "lon": -77.05678566666667, "bike_id": "2786d8b073a80385887bfd7c77802de9", "fusion_lat": 0.0, "name": "2786d8b073a80385887bfd7c77802de9", "is_reserved": 0, "rental_uris": {"android": "https://dc.lft.to/lastmile_qr_scan", "ios": "https://dc.lft.to/lastmile_qr_scan"}, "fusion_lon": 0.0}, {"lat": 38.902771333333334, "is_disabled": 0, "type": "electric_scooter", "lon": -77.0335835, "bike_id": "bd5e931b2b825bcd99b8b516a6f197f6", "fusion_lat": 0.0, "name": "bd5e931b2b825bcd99b8b516a6f197f6", "is_reserved": 0, "rental_uris": {"android": "https://dc.lft.to/lastmile_qr_scan", "ios": "https://dc.lft.to/lastmile_qr_scan"}, "fusion_lon": 0.0}, {"lat": 38.93014983333333, "is_disabled": 0, "type": "electric_bike", "lon": -77.2164465, "bike_id": "b5ed30c1c5b8a7df8eccc6a6fb90ece1", "fusion_lat": 0.0, "name": "b5ed30c1c5b8a7df8eccc6a6fb90ece1", "is_reserved": 0, "rental_uris": {"android": "https://dc.lft.to/lastmile_qr_scan", "ios": "https://dc.lft.to/lastmile_qr_scan"}, "fusion_lon": 0.0}, {"lat": 38.96284633333333, "is_disabled": 0, "type": "electric_bike", "lon": -77.03256766666667, "bike_id": "80d54f7a18a0b47b615e1aa892094c2b", "fusion_lat": 0.0, "name": "80d54f7a18a0b47b615e1aa892094c2b", "is_reserved": 0, "rental_uris": {"android": "https://dc.lft.to/lastmile_qr_scan", "ios": "https://dc.lft.to/lastmile_qr_scan"}, "fusion_lon": 0.0}, {"lat": 38.913196, "is_disabled": 0, "type": "electric_scooter", "lon": -77.0366355, "bike_id": "7e4a929b4591fa0827aeb0dbdcc5933a", "fusion_lat": 0.0, "name": "7e4a929b4591fa0827aeb0dbdcc5933a", "is_reserved": 0, "rental_uris": {"android": "https://dc.lft.to/lastmile_qr_scan", "ios": "https://dc.lft.to/lastmile_qr_scan"}, "fusion_lon": 0.0}, {"lat": 38.911031333333334, "is_disabled": 0, "type": "electric_scooter", "lon": -77.03559566666667, "bike_id": "8708987d5db06657bae7a4e9c0d6772a", "fusion_lat": 0.0, "name": "8708987d5db06657bae7a4e9c0d6772a", "is_reserved": 0, "rental_uris": {"android": "https://dc.lft.to/lastmile_qr_scan", "ios": "https://dc.lft.to/lastmile_qr_scan"}, "fusion_lon": 0.0}, {"lat": 38.90774, "is_disabled": 0, "type": "electric_scooter", "lon": -77.04352733333333, "bike_id": "6bf5428d52b02ba2dc5cfc5decdd403a", "fusion_lat": 0.0, "name": "6bf5428d52b02ba2dc5cfc5decdd403a", "is_reserved": 0, "rental_uris": {"android": "https://dc.lft.to/lastmile_qr_scan", "ios": "https://dc.lft.to/lastmile_qr_scan"}, "fusion_lon": 0.0}, {"lat": 38.9196155, "is_disabled": 0, "type": "electric_bike", "lon": -76.9726325, "bike_id": "62946ba3f84b3655b9900b83fc0e664d", "fusion_lat": 0.0, "name": "62946ba3f84b3655b9900b83fc0e664d", "is_reserved": 0, "rental_uris": {"android": "https://dc.lft.to/lastmile_qr_scan", "ios": "https://dc.lft.to/lastmile_qr_scan"}, "fusion_lon": 0.0}, {"lat": 38.9374505, "is_disabled": 0, "type": "electric_scooter", "lon": -77.03619733333333, "bike_id": "46096669e05b28ec57210d70b981aef5", "fusion_lat": 0.0, "name": "46096669e05b28ec57210d70b981aef5", "is_reserved": 0, "rental_uris": {"android": "https://dc.lft.to/lastmile_qr_scan", "ios": "https://dc.lft.to/lastmile_qr_scan"}, "fusion_lon": 0.0}, {"lat": 38.89832633333333, "is_disabled": 0, "type": "electric_scooter", "lon": -77.0303365, "bike_id": "c925cd5b409de20ad0a9190fe7a95a6a", "fusion_lat": 0.0, "name": "c925cd5b409de20ad0a9190fe7a95a6a", "is_reserved": 0, "rental_uris": {"android": "https://dc.lft.to/lastmile_qr_scan", "ios": "https://dc.lft.to/lastmile_qr_scan"}, "fusion_lon": 0.0}, {"lat": 38.916213, "is_disabled": 0, "type": "electric_scooter", "lon": -77.03162133333333, "bike_id": "1ab9bb3553d7f8dfff62292dd0cb2324", "fusion_lat": 0.0, "name": "1ab9bb3553d7f8dfff62292dd0cb2324", "is_reserved": 0, "rental_uris": {"android": "https://dc.lft.to/lastmile_qr_scan", "ios": "https://dc.lft.to/lastmile_qr_scan"}, "fusion_lon": 0.0}, {"lat": 38.940874666666666, "is_disabled": 0, "type": "electric_scooter", "lon": -77.06131083333334, "bike_id": "1dab8281c3cbf45c730e9aacebfa6c8b", "fusion_lat": 0.0, "name": "1dab8281c3cbf45c730e9aacebfa6c8b", "is_reserved": 0, "rental_uris": {"android": "https://dc.lft.to/lastmile_qr_scan", "ios": "https://dc.lft.to/lastmile_qr_scan"}, "fusion_lon": 0.0}, {"lat": 38.93986233333333, "is_disabled": 0, "type": "electric_scooter", "lon": -77.02894883333333, "bike_id": "541034e3069011231e8ab74bf41de2ef", "fusion_lat": 0.0, "name": "541034e3069011231e8ab74bf41de2ef", "is_reserved": 0, "rental_uris": {"android": "https://dc.lft.to/lastmile_qr_scan", "ios": "https://dc.lft.to/lastmile_qr_scan"}, "fusion_lon": 0.0}, {"lat": 38.930767333333336, "is_disabled": 0, "type": "electric_scooter", "lon": -77.03136066666667, "bike_id": "1ac30d4609350b1d0986f8faf0b92532", "fusion_lat": 0.0, "name": "1ac30d4609350b1d0986f8faf0b92532", "is_reserved": 0, "rental_uris": {"android": "https://dc.lft.to/lastmile_qr_scan", "ios": "https://dc.lft.to/lastmile_qr_scan"}, "fusion_lon": 0.0}, {"lat": 38.94904, "is_disabled": 0, "type": "electric_bike", "lon": -76.97237833333334, "bike_id": "8e72f316690150959cd11c12705e8bea", "fusion_lat": 0.0, "name": "8e72f316690150959cd11c12705e8bea", "is_reserved": 0, "rental_uris": {"android": "https://dc.lft.to/lastmile_qr_scan", "ios": "https://dc.lft.to/lastmile_qr_scan"}, "fusion_lon": 0.0}, {"lat": 38.903865333333336, "is_disabled": 0, "type": "electric_scooter", "lon": -77.0444665, "bike_id": "ea4a9ce05c4a7b6a67e21c234ab2a9dc", "fusion_lat": 0.0, "name": "ea4a9ce05c4a7b6a67e21c234ab2a9dc", "is_reserved": 0, "rental_uris": {"android": "https://dc.lft.to/lastmile_qr_scan", "ios": "https://dc.lft.to/lastmile_qr_scan"}, "fusion_lon": 0.0}, {"lat": 38.9240455, "is_disabled": 0, "type": "electric_scooter", "lon": -77.026962, "bike_id": "5d154e1ee2e297c87f9d293414307a7c", "fusion_lat": 0.0, "name": "5d154e1ee2e297c87f9d293414307a7c", "is_reserved": 0, "rental_uris": {"android": "https://dc.lft.to/lastmile_qr_scan", "ios": "https://dc.lft.to/lastmile_qr_scan"}, "fusion_lon": 0.0}, {"lat": 38.92341966666667, "is_disabled": 0, "type": "electric_scooter", "lon": -77.05112783333334, "bike_id": "64a62cce07cce5edee6dd1773c0dc66f", "fusion_lat": 0.0, "name": "64a62cce07cce5edee6dd1773c0dc66f", "is_reserved": 0, "rental_uris": {"android": "https://dc.lft.to/lastmile_qr_scan", "ios": "https://dc.lft.to/lastmile_qr_scan"}, "fusion_lon": 0.0}, {"lat": 38.9574985, "is_disabled": 0, "type": "electric_scooter", "lon": -77.02068483333333, "bike_id": "b2c329e0ece70394188636fa66cfbe85", "fusion_lat": 0.0, "name": "b2c329e0ece70394188636fa66cfbe85", "is_reserved": 0, "rental_uris": {"android": "https://dc.lft.to/lastmile_qr_scan", "ios": "https://dc.lft.to/lastmile_qr_scan"}, "fusion_lon": 0.0}, {"lat": 38.916834, "is_disabled": 0, "type": "electric_scooter", "lon": -77.00197283333334, "bike_id": "265315ee634b2d5745e008fb6af4aa09", "fusion_lat": 0.0, "name": "265315ee634b2d5745e008fb6af4aa09", "is_reserved": 0, "rental_uris": {"android": "https://dc.lft.to/lastmile_qr_scan", "ios": "https://dc.lft.to/lastmile_qr_scan"}, "fusion_lon": 0.0}, {"lat": 38.927420833333336, "is_disabled": 0, "type": "electric_scooter", "lon": -77.042834, "bike_id": "f8dbee5e2bf3bbe268eab4c60e865b82", "fusion_lat": 0.0, "name": "f8dbee5e2bf3bbe268eab4c60e865b82", "is_reserved": 0, "rental_uris": {"android": "https://dc.lft.to/lastmile_qr_scan", "ios": "https://dc.lft.to/lastmile_qr_scan"}, "fusion_lon": 0.0}, {"lat": 38.921992, "is_disabled": 0, "type": "electric_scooter", "lon": -76.98367383333333, "bike_id": "68383c189ce5fd630aa098025cd9a2a9", "fusion_lat": 0.0, "name": "68383c189ce5fd630aa098025cd9a2a9", "is_reserved": 0, "rental_uris": {"android": "https://dc.lft.to/lastmile_qr_scan", "ios": "https://dc.lft.to/lastmile_qr_scan"}, "fusion_lon": 0.0}, {"lat": 38.926267, "is_disabled": 0, "type": "electric_scooter", "lon": -77.0378435, "bike_id": "6fe7572aac8feb61c664d8bee761316e", "fusion_lat": 0.0, "name": "6fe7572aac8feb61c664d8bee761316e", "is_reserved": 0, "rental_uris": {"android": "https://dc.lft.to/lastmile_qr_scan", "ios": "https://dc.lft.to/lastmile_qr_scan"}, "fusion_lon": 0.0}, {"lat": 38.97327333333333, "is_disabled": 0, "type": "electric_bike", "lon": -77.02149916666667, "bike_id": "31cf08c6b246467431c7968e0fdca434", "fusion_lat": 0.0, "name": "31cf08c6b246467431c7968e0fdca434", "is_reserved": 0, "rental_uris": {"android": "https://dc.lft.to/lastmile_qr_scan", "ios": "https://dc.lft.to/lastmile_qr_scan"}, "fusion_lon": 0.0}, {"lat": 38.883136, "is_disabled": 0, "type": "electric_bike", "lon": -77.03158, "bike_id": "7b1fbc17f9030a595b07d8816e44c739", "fusion_lat": 0.0, "name": "7b1fbc17f9030a595b07d8816e44c739", "is_reserved": 0, "rental_uris": {"android": "https://dc.lft.to/lastmile_qr_scan", "ios": "https://dc.lft.to/lastmile_qr_scan"}, "fusion_lon": 0.0}, {"lat": 38.958898166666664, "is_disabled": 0, "type": "electric_bike", "lon": -76.92483616666667, "bike_id": "ece4be8a4b8cce02834cd8e3b4fb14a7", "fusion_lat": 0.0, "name": "ece4be8a4b8cce02834cd8e3b4fb14a7", "is_reserved": 0, "rental_uris": {"android": "https://dc.lft.to/lastmile_qr_scan", "ios": "https://dc.lft.to/lastmile_qr_scan"}, "fusion_lon": 0.0}, {"lat": 38.918211166666666, "is_disabled": 0, "type": "electric_scooter", "lon": -77.04171566666666, "bike_id": "5cdebfd6e3d54bfa855a0d6ee9d1d5c6", "fusion_lat": 0.0, "name": "5cdebfd6e3d54bfa855a0d6ee9d1d5c6", "is_reserved": 0, "rental_uris": {"android": "https://dc.lft.to/lastmile_qr_scan", "ios": "https://dc.lft.to/lastmile_qr_scan"}, "fusion_lon": 0.0}, {"lat": 38.887440166666664, "is_disabled": 0, "type": "electric_scooter", "lon": -77.02171866666667, "bike_id": "dc546b473463a5f7c25aa93b140a43d4", "fusion_lat": 0.0, "name": "dc546b473463a5f7c25aa93b140a43d4", "is_reserved": 0, "rental_uris": {"android": "https://dc.lft.to/lastmile_qr_scan", "ios": "https://dc.lft.to/lastmile_qr_scan"}, "fusion_lon": 0.0}, {"lat": 38.88364833333333, "is_disabled": 0, "type": "electric_scooter", "lon": -76.94155566666667, "bike_id": "50b2806231a21260bc34a5b42e2c0e16", "fusion_lat": 0.0, "name": "50b2806231a21260bc34a5b42e2c0e16", "is_reserved": 0, "rental_uris": {"android": "https://dc.lft.to/lastmile_qr_scan", "ios": "https://dc.lft.to/lastmile_qr_scan"}, "fusion_lon": 0.0}, {"lat": 38.8724795, "is_disabled": 0, "type": "electric_scooter", "lon": -76.97725233333334, "bike_id": "88767ba21249d583dbaa1bca8510599f", "fusion_lat": 0.0, "name": "88767ba21249d583dbaa1bca8510599f", "is_reserved": 0, "rental_uris": {"android": "https://dc.lft.to/lastmile_qr_scan", "ios": "https://dc.lft.to/lastmile_qr_scan"}, "fusion_lon": 0.0}, {"lat": 38.90963433333334, "is_disabled": 0, "type": "electric_scooter", "lon": -77.02682816666666, "bike_id": "65bdc9edc34775319461f0645f9c6181", "fusion_lat": 0.0, "name": "65bdc9edc34775319461f0645f9c6181", "is_reserved": 0, "rental_uris": {"android": "https://dc.lft.to/lastmile_qr_scan", "ios": "https://dc.lft.to/lastmile_qr_scan"}, "fusion_lon": 0.0}, {"lat": 38.94325533333333, "is_disabled": 0, "type": "electric_scooter", "lon": -77.06134283333333, "bike_id": "321d2aca09d14eaefcd44b6c6225f26b", "fusion_lat": 0.0, "name": "321d2aca09d14eaefcd44b6c6225f26b", "is_reserved": 0, "rental_uris": {"android": "https://dc.lft.to/lastmile_qr_scan", "ios": "https://dc.lft.to/lastmile_qr_scan"}, "fusion_lon": 0.0}, {"lat": 38.92841516666667, "is_disabled": 0, "type": "electric_scooter", "lon": -77.05420216666667, "bike_id": "6c3758bdd9316cbd19b012cc5c7438f9", "fusion_lat": 0.0, "name": "6c3758bdd9316cbd19b012cc5c7438f9", "is_reserved": 0, "rental_uris": {"android": "https://dc.lft.to/lastmile_qr_scan", "ios": "https://dc.lft.to/lastmile_qr_scan"}, "fusion_lon": 0.0}, {"lat": 38.932326333333336, "is_disabled": 0, "type": "electric_scooter", "lon": -77.03389633333333, "bike_id": "8c175db302135b17f28ede209306f3c3", "fusion_lat": 0.0, "name": "8c175db302135b17f28ede209306f3c3", "is_reserved": 0, "rental_uris": {"android": "https://dc.lft.to/lastmile_qr_scan", "ios": "https://dc.lft.to/lastmile_qr_scan"}, "fusion_lon": 0.0}, {"lat": 38.906591666666664, "is_disabled": 0, "type": "electric_scooter", "lon": -77.0141285, "bike_id": "28dc3606d4ad7d79975b840b60aa5b49", "fusion_lat": 0.0, "name": "28dc3606d4ad7d79975b840b60aa5b49", "is_reserved": 0, "rental_uris": {"android": "https://dc.lft.to/lastmile_qr_scan", "ios": "https://dc.lft.to/lastmile_qr_scan"}, "fusion_lon": 0.0}, {"lat": 38.915764, "is_disabled": 0, "type": "electric_scooter", "lon": -77.05015066666667, "bike_id": "f2f8ef7037f92931b6144fdd4add64de", "fusion_lat": 0.0, "name": "f2f8ef7037f92931b6144fdd4add64de", "is_reserved": 0, "rental_uris": {"android": "https://dc.lft.to/lastmile_qr_scan", "ios": "https://dc.lft.to/lastmile_qr_scan"}, "fusion_lon": 0.0}, {"lat": 38.92106966666667, "is_disabled": 0, "type": "electric_scooter", "lon": -77.04690216666667, "bike_id": "aa84bd9355ac313efd23165dd78b9e84", "fusion_lat": 0.0, "name": "aa84bd9355ac313efd23165dd78b9e84", "is_reserved": 0, "rental_uris": {"android": "https://dc.lft.to/lastmile_qr_scan", "ios": "https://dc.lft.to/lastmile_qr_scan"}, "fusion_lon": 0.0}, {"lat": 38.88492033333333, "is_disabled": 0, "type": "electric_scooter", "lon": -77.00708966666667, "bike_id": "abddccea445ff1df6c17d199d30e32e8", "fusion_lat": 0.0, "name": "abddccea445ff1df6c17d199d30e32e8", "is_reserved": 0, "rental_uris": {"android": "https://dc.lft.to/lastmile_qr_scan", "ios": "https://dc.lft.to/lastmile_qr_scan"}, "fusion_lon": 0.0}, {"lat": 38.905238, "is_disabled": 0, "type": "electric_scooter", "lon": -77.03437466666666, "bike_id": "7ab6905c0d8256036c17e11078f10a71", "fusion_lat": 0.0, "name": "7ab6905c0d8256036c17e11078f10a71", "is_reserved": 0, "rental_uris": {"android": "https://dc.lft.to/lastmile_qr_scan", "ios": "https://dc.lft.to/lastmile_qr_scan"}, "fusion_lon": 0.0}, {"lat": 38.92824433333333, "is_disabled": 0, "type": "electric_scooter", "lon": -77.02257, "bike_id": "42926f844b756b788e9db15ccc6e1483", "fusion_lat": 0.0, "name": "42926f844b756b788e9db15ccc6e1483", "is_reserved": 0, "rental_uris": {"android": "https://dc.lft.to/lastmile_qr_scan", "ios": "https://dc.lft.to/lastmile_qr_scan"}, "fusion_lon": 0.0}, {"lat": 38.92255733333333, "is_disabled": 0, "type": "electric_scooter", "lon": -77.01936616666667, "bike_id": "5d3ded5d37932eb7584c14380481ff21", "fusion_lat": 0.0, "name": "5d3ded5d37932eb7584c14380481ff21", "is_reserved": 0, "rental_uris": {"android": "https://dc.lft.to/lastmile_qr_scan", "ios": "https://dc.lft.to/lastmile_qr_scan"}, "fusion_lon": 0.0}, {"lat": 38.802255833333334, "is_disabled": 0, "type": "electric_bike", "lon": -77.07914116666667, "bike_id": "74bec2d5f67e45040ab34ef10ccb5a68", "fusion_lat": 0.0, "name": "74bec2d5f67e45040ab34ef10ccb5a68", "is_reserved": 0, "rental_uris": {"android": "https://dc.lft.to/lastmile_qr_scan", "ios": "https://dc.lft.to/lastmile_qr_scan"}, "fusion_lon": 0.0}, {"lat": 38.85793016666667, "is_disabled": 0, "type": "electric_bike", "lon": -76.987448, "bike_id": "3dda42d1b97b1ae00249a30041ef466c", "fusion_lat": 0.0, "name": "3dda42d1b97b1ae00249a30041ef466c", "is_reserved": 0, "rental_uris": {"android": "https://dc.lft.to/lastmile_qr_scan", "ios": "https://dc.lft.to/lastmile_qr_scan"}, "fusion_lon": 0.0}, {"lat": 38.898486, "is_disabled": 0, "type": "electric_scooter", "lon": -77.033081, "bike_id": "70c90e561e284e8ac047f012513ed820", "fusion_lat": 0.0, "name": "70c90e561e284e8ac047f012513ed820", "is_reserved": 0, "rental_uris": {"android": "https://dc.lft.to/lastmile_qr_scan", "ios": "https://dc.lft.to/lastmile_qr_scan"}, "fusion_lon": 0.0}, {"lat": 38.91761266666666, "is_disabled": 0, "type": "electric_scooter", "lon": -77.039963, "bike_id": "cfa37c69bd59509c085d99cb01e4f5fb", "fusion_lat": 0.0, "name": "cfa37c69bd59509c085d99cb01e4f5fb", "is_reserved": 0, "rental_uris": {"android": "https://dc.lft.to/lastmile_qr_scan", "ios": "https://dc.lft.to/lastmile_qr_scan"}, "fusion_lon": 0.0}, {"lat": 38.92009433333333, "is_disabled": 0, "type": "electric_scooter", "lon": -77.04172066666666, "bike_id": "0205565fa50835293184c3beef63eb17", "fusion_lat": 0.0, "name": "0205565fa50835293184c3beef63eb17", "is_reserved": 0, "rental_uris": {"android": "https://dc.lft.to/lastmile_qr_scan", "ios": "https://dc.lft.to/lastmile_qr_scan"}, "fusion_lon": 0.0}, {"lat": 38.91228433333333, "is_disabled": 0, "type": "electric_scooter", "lon": -77.0045885, "bike_id": "a77df7759e6c22dc9cfefb3a06f7dd5e", "fusion_lat": 0.0, "name": "a77df7759e6c22dc9cfefb3a06f7dd5e", "is_reserved": 0, "rental_uris": {"android": "https://dc.lft.to/lastmile_qr_scan", "ios": "https://dc.lft.to/lastmile_qr_scan"}, "fusion_lon": 0.0}, {"lat": 38.885038, "is_disabled": 0, "type": "electric_scooter", "lon": -77.02090833333334, "bike_id": "acec27db73e451200afb84dca85418ce", "fusion_lat": 0.0, "name": "acec27db73e451200afb84dca85418ce", "is_reserved": 0, "rental_uris": {"android": "https://dc.lft.to/lastmile_qr_scan", "ios": "https://dc.lft.to/lastmile_qr_scan"}, "fusion_lon": 0.0}, {"lat": 38.91473966666667, "is_disabled": 0, "type": "electric_scooter", "lon": -77.032086, "bike_id": "382607db61b834545247ea0de0e0fe55", "fusion_lat": 0.0, "name": "382607db61b834545247ea0de0e0fe55", "is_reserved": 0, "rental_uris": {"android": "https://dc.lft.to/lastmile_qr_scan", "ios": "https://dc.lft.to/lastmile_qr_scan"}, "fusion_lon": 0.0}, {"lat": 38.898768833333335, "is_disabled": 0, "type": "electric_scooter", "lon": -77.02279866666667, "bike_id": "c854d6a8ad5842fa7bca8f37e8e5cb48", "fusion_lat": 0.0, "name": "c854d6a8ad5842fa7bca8f37e8e5cb48", "is_reserved": 0, "rental_uris": {"android": "https://dc.lft.to/lastmile_qr_scan", "ios": "https://dc.lft.to/lastmile_qr_scan"}, "fusion_lon": 0.0}, {"lat": 38.8929455, "is_disabled": 0, "type": "electric_scooter", "lon": -77.002064, "bike_id": "1c83330384226ba74a91f59f142003df", "fusion_lat": 0.0, "name": "1c83330384226ba74a91f59f142003df", "is_reserved": 0, "rental_uris": {"android": "https://dc.lft.to/lastmile_qr_scan", "ios": "https://dc.lft.to/lastmile_qr_scan"}, "fusion_lon": 0.0}, {"lat": 38.911206, "is_disabled": 0, "type": "electric_scooter", "lon": -77.038269, "bike_id": "b8ba99e3c69db0702af0cdea293a26bf", "fusion_lat": 0.0, "name": "b8ba99e3c69db0702af0cdea293a26bf", "is_reserved": 0, "rental_uris": {"android": "https://dc.lft.to/lastmile_qr_scan", "ios": "https://dc.lft.to/lastmile_qr_scan"}, "fusion_lon": 0.0}, {"lat": 38.925098, "is_disabled": 0, "type": "electric_scooter", "lon": -77.037797, "bike_id": "15e78c94e0436fbfe119faf10de42517", "fusion_lat": 0.0, "name": "15e78c94e0436fbfe119faf10de42517", "is_reserved": 0, "rental_uris": {"android": "https://dc.lft.to/lastmile_qr_scan", "ios": "https://dc.lft.to/lastmile_qr_scan"}, "fusion_lon": 0.0}, {"lat": 38.88460033333333, "is_disabled": 0, "type": "electric_scooter", "lon": -76.9262225, "bike_id": "26d5357b650d3c58e85f691c0c692a88", "fusion_lat": 0.0, "name": "26d5357b650d3c58e85f691c0c692a88", "is_reserved": 0, "rental_uris": {"android": "https://dc.lft.to/lastmile_qr_scan", "ios": "https://dc.lft.to/lastmile_qr_scan"}, "fusion_lon": 0.0}, {"lat": 38.90955016666667, "is_disabled": 0, "type": "electric_scooter", "lon": -77.036657, "bike_id": "973118c8552b8ffb4c502f270412f7b1", "fusion_lat": 0.0, "name": "973118c8552b8ffb4c502f270412f7b1", "is_reserved": 0, "rental_uris": {"android": "https://dc.lft.to/lastmile_qr_scan", "ios": "https://dc.lft.to/lastmile_qr_scan"}, "fusion_lon": 0.0}, {"lat": 38.92244266666667, "is_disabled": 0, "type": "electric_scooter", "lon": -77.0779535, "bike_id": "913457b75bcb73e01347d8586f98a72d", "fusion_lat": 0.0, "name": "913457b75bcb73e01347d8586f98a72d", "is_reserved": 0, "rental_uris": {"android": "https://dc.lft.to/lastmile_qr_scan", "ios": "https://dc.lft.to/lastmile_qr_scan"}, "fusion_lon": 0.0}, {"lat": 38.807455833333336, "is_disabled": 0, "type": "electric_bike", "lon": -77.09428466666667, "bike_id": "22922e8cf0e0645dd29eeb79a9a83174", "fusion_lat": 0.0, "name": "22922e8cf0e0645dd29eeb79a9a83174", "is_reserved": 0, "rental_uris": {"android": "https://dc.lft.to/lastmile_qr_scan", "ios": "https://dc.lft.to/lastmile_qr_scan"}, "fusion_lon": 0.0}, {"lat": 38.938765833333335, "is_disabled": 0, "type": "electric_scooter", "lon": -77.02443033333333, "bike_id": "9af941dfed168f82c3645f84dbc55afc", "fusion_lat": 0.0, "name": "9af941dfed168f82c3645f84dbc55afc", "is_reserved": 0, "rental_uris": {"android": "https://dc.lft.to/lastmile_qr_scan", "ios": "https://dc.lft.to/lastmile_qr_scan"}, "fusion_lon": 0.0}, {"lat": 38.937600333333336, "is_disabled": 0, "type": "electric_scooter", "lon": -77.03140383333333, "bike_id": "f90c55b48780094fa6566ecfced04b8d", "fusion_lat": 0.0, "name": "f90c55b48780094fa6566ecfced04b8d", "is_reserved": 0, "rental_uris": {"android": "https://dc.lft.to/lastmile_qr_scan", "ios": "https://dc.lft.to/lastmile_qr_scan"}, "fusion_lon": 0.0}, {"lat": 38.90024983333333, "is_disabled": 0, "type": "electric_scooter", "lon": -76.9981205, "bike_id": "31254f49b8fbcf132128d54d91eb0c8b", "fusion_lat": 0.0, "name": "31254f49b8fbcf132128d54d91eb0c8b", "is_reserved": 0, "rental_uris": {"android": "https://dc.lft.to/lastmile_qr_scan", "ios": "https://dc.lft.to/lastmile_qr_scan"}, "fusion_lon": 0.0}, {"lat": 38.9088195, "is_disabled": 0, "type": "electric_scooter", "lon": -77.06434133333333, "bike_id": "c4a666604976c20b3375ea87ec4267f0", "fusion_lat": 0.0, "name": "c4a666604976c20b3375ea87ec4267f0", "is_reserved": 0, "rental_uris": {"android": "https://dc.lft.to/lastmile_qr_scan", "ios": "https://dc.lft.to/lastmile_qr_scan"}, "fusion_lon": 0.0}, {"lat": 38.92852933333333, "is_disabled": 0, "type": "electric_bike", "lon": -77.106783, "bike_id": "6fd43c408872ce91a46683719b240eb0", "fusion_lat": 0.0, "name": "6fd43c408872ce91a46683719b240eb0", "is_reserved": 0, "rental_uris": {"android": "https://dc.lft.to/lastmile_qr_scan", "ios": "https://dc.lft.to/lastmile_qr_scan"}, "fusion_lon": 0.0}, {"lat": 38.90617683333333, "is_disabled": 0, "type": "electric_scooter", "lon": -77.065163, "bike_id": "42b0d11f442b399207bcc943b5b980bd", "fusion_lat": 0.0, "name": "42b0d11f442b399207bcc943b5b980bd", "is_reserved": 0, "rental_uris": {"android": "https://dc.lft.to/lastmile_qr_scan", "ios": "https://dc.lft.to/lastmile_qr_scan"}, "fusion_lon": 0.0}, {"lat": 38.9186455, "is_disabled": 0, "type": "electric_scooter", "lon": -77.03642616666667, "bike_id": "6b572900445e07751cd4e84272597d48", "fusion_lat": 0.0, "name": "6b572900445e07751cd4e84272597d48", "is_reserved": 0, "rental_uris": {"android": "https://dc.lft.to/lastmile_qr_scan", "ios": "https://dc.lft.to/lastmile_qr_scan"}, "fusion_lon": 0.0}, {"lat": 38.93181583333333, "is_disabled": 0, "type": "electric_scooter", "lon": -77.03154416666666, "bike_id": "bb2c01fcc0fe8d30317599a1680f3f4b", "fusion_lat": 0.0, "name": "bb2c01fcc0fe8d30317599a1680f3f4b", "is_reserved": 0, "rental_uris": {"android": "https://dc.lft.to/lastmile_qr_scan", "ios": "https://dc.lft.to/lastmile_qr_scan"}, "fusion_lon": 0.0}, {"lat": 38.9119565, "is_disabled": 0, "type": "electric_scooter", "lon": -77.04477833333333, "bike_id": "e0763f94cd7392fb68394305623a556d", "fusion_lat": 0.0, "name": "e0763f94cd7392fb68394305623a556d", "is_reserved": 0, "rental_uris": {"android": "https://dc.lft.to/lastmile_qr_scan", "ios": "https://dc.lft.to/lastmile_qr_scan"}, "fusion_lon": 0.0}, {"lat": 38.89632783333333, "is_disabled": 0, "type": "electric_scooter", "lon": -77.0449555, "bike_id": "37d80091f4bda9bc843e6853ad3dfdd7", "fusion_lat": 0.0, "name": "37d80091f4bda9bc843e6853ad3dfdd7", "is_reserved": 0, "rental_uris": {"android": "https://dc.lft.to/lastmile_qr_scan", "ios": "https://dc.lft.to/lastmile_qr_scan"}, "fusion_lon": 0.0}, {"lat": 38.9639995, "is_disabled": 0, "type": "electric_scooter", "lon": -77.02587316666667, "bike_id": "066777f36a339f6c9e6ea308397b1ac0", "fusion_lat": 0.0, "name": "066777f36a339f6c9e6ea308397b1ac0", "is_reserved": 0, "rental_uris": {"android": "https://dc.lft.to/lastmile_qr_scan", "ios": "https://dc.lft.to/lastmile_qr_scan"}, "fusion_lon": 0.0}, {"lat": 38.89093183333333, "is_disabled": 0, "type": "electric_scooter", "lon": -76.94300783333334, "bike_id": "8ad00e97835699626b2a0cafe82efe87", "fusion_lat": 0.0, "name": "8ad00e97835699626b2a0cafe82efe87", "is_reserved": 0, "rental_uris": {"android": "https://dc.lft.to/lastmile_qr_scan", "ios": "https://dc.lft.to/lastmile_qr_scan"}, "fusion_lon": 0.0}, {"lat": 38.909763, "is_disabled": 0, "type": "electric_scooter", "lon": -77.033335, "bike_id": "cab7a4fb64067c500d656002bc7721fe", "fusion_lat": 0.0, "name": "cab7a4fb64067c500d656002bc7721fe", "is_reserved": 0, "rental_uris": {"android": "https://dc.lft.to/lastmile_qr_scan", "ios": "https://dc.lft.to/lastmile_qr_scan"}, "fusion_lon": 0.0}, {"lat": 38.924174, "is_disabled": 0, "type": "electric_bike", "lon": -77.05043466666666, "bike_id": "d8593c951b4f5967e24666a2be989ee1", "fusion_lat": 0.0, "name": "d8593c951b4f5967e24666a2be989ee1", "is_reserved": 0, "rental_uris": {"android": "https://dc.lft.to/lastmile_qr_scan", "ios": "https://dc.lft.to/lastmile_qr_scan"}, "fusion_lon": 0.0}, {"lat": 38.924698666666664, "is_disabled": 0, "type": "electric_bike", "lon": -77.2083765, "bike_id": "f06bddb5b939325c739bb99341991153", "fusion_lat": 0.0, "name": "f06bddb5b939325c739bb99341991153", "is_reserved": 0, "rental_uris": {"android": "https://dc.lft.to/lastmile_qr_scan", "ios": "https://dc.lft.to/lastmile_qr_scan"}, "fusion_lon": 0.0}, {"lat": 38.900377666666664, "is_disabled": 0, "type": "electric_scooter", "lon": -77.00576616666666, "bike_id": "1bc0f5ac7ca322d54e3bbdd1e7863e2e", "fusion_lat": 0.0, "name": "1bc0f5ac7ca322d54e3bbdd1e7863e2e", "is_reserved": 0, "rental_uris": {"android": "https://dc.lft.to/lastmile_qr_scan", "ios": "https://dc.lft.to/lastmile_qr_scan"}, "fusion_lon": 0.0}, {"lat": 38.92709683333333, "is_disabled": 0, "type": "electric_scooter", "lon": -77.02094383333333, "bike_id": "a05927c8887b4ca3645d4a56cc70f950", "fusion_lat": 0.0, "name": "a05927c8887b4ca3645d4a56cc70f950", "is_reserved": 0, "rental_uris": {"android": "https://dc.lft.to/lastmile_qr_scan", "ios": "https://dc.lft.to/lastmile_qr_scan"}, "fusion_lon": 0.0}, {"lat": 38.915647666666665, "is_disabled": 0, "type": "electric_scooter", "lon": -77.03169033333333, "bike_id": "4129689f4ff4793146a30864e91e9ca4", "fusion_lat": 0.0, "name": "4129689f4ff4793146a30864e91e9ca4", "is_reserved": 0, "rental_uris": {"android": "https://dc.lft.to/lastmile_qr_scan", "ios": "https://dc.lft.to/lastmile_qr_scan"}, "fusion_lon": 0.0}, {"lat": 38.8937815, "is_disabled": 0, "type": "electric_scooter", "lon": -77.04791666666667, "bike_id": "15a9accb0f08b3d944c38606e09a6da6", "fusion_lat": 0.0, "name": "15a9accb0f08b3d944c38606e09a6da6", "is_reserved": 0, "rental_uris": {"android": "https://dc.lft.to/lastmile_qr_scan", "ios": "https://dc.lft.to/lastmile_qr_scan"}, "fusion_lon": 0.0}, {"lat": 38.87451266666667, "is_disabled": 0, "type": "electric_bike", "lon": -77.10818816666666, "bike_id": "d3664d440e29985c218ccb32c17ec9d5", "fusion_lat": 0.0, "name": "d3664d440e29985c218ccb32c17ec9d5", "is_reserved": 0, "rental_uris": {"android": "https://dc.lft.to/lastmile_qr_scan", "ios": "https://dc.lft.to/lastmile_qr_scan"}, "fusion_lon": 0.0}, {"lat": 38.858091, "is_disabled": 0, "type": "electric_scooter", "lon": -76.9865315, "bike_id": "9e95736f6cdf55982bbe008fc5e66bf7", "fusion_lat": 0.0, "name": "9e95736f6cdf55982bbe008fc5e66bf7", "is_reserved": 0, "rental_uris": {"android": "https://dc.lft.to/lastmile_qr_scan", "ios": "https://dc.lft.to/lastmile_qr_scan"}, "fusion_lon": 0.0}, {"lat": 38.95279683333333, "is_disabled": 0, "type": "electric_scooter", "lon": -77.03654783333333, "bike_id": "15fc888f4706f57c70fe69939d514df8", "fusion_lat": 0.0, "name": "15fc888f4706f57c70fe69939d514df8", "is_reserved": 0, "rental_uris": {"android": "https://dc.lft.to/lastmile_qr_scan", "ios": "https://dc.lft.to/lastmile_qr_scan"}, "fusion_lon": 0.0}, {"lat": 38.917217666666666, "is_disabled": 0, "type": "electric_scooter", "lon": -77.0297095, "bike_id": "fec7f6187eec79b63ea9f87512952acd", "fusion_lat": 0.0, "name": "fec7f6187eec79b63ea9f87512952acd", "is_reserved": 0, "rental_uris": {"android": "https://dc.lft.to/lastmile_qr_scan", "ios": "https://dc.lft.to/lastmile_qr_scan"}, "fusion_lon": 0.0}, {"lat": 38.944514, "is_disabled": 0, "type": "electric_scooter", "lon": -77.03282666666667, "bike_id": "0c02e0219e773b0d9a90c1215d1733ff", "fusion_lat": 0.0, "name": "0c02e0219e773b0d9a90c1215d1733ff", "is_reserved": 0, "rental_uris": {"android": "https://dc.lft.to/lastmile_qr_scan", "ios": "https://dc.lft.to/lastmile_qr_scan"}, "fusion_lon": 0.0}, {"lat": 38.9178905, "is_disabled": 0, "type": "electric_scooter", "lon": -77.04149883333334, "bike_id": "15d836eccd39331b6b07ba17224faa72", "fusion_lat": 0.0, "name": "15d836eccd39331b6b07ba17224faa72", "is_reserved": 0, "rental_uris": {"android": "https://dc.lft.to/lastmile_qr_scan", "ios": "https://dc.lft.to/lastmile_qr_scan"}, "fusion_lon": 0.0}, {"lat": 38.917004166666665, "is_disabled": 0, "type": "electric_scooter", "lon": -77.04330866666666, "bike_id": "2d00818b11cfdf31f2ced07d7b3847db", "fusion_lat": 0.0, "name": "2d00818b11cfdf31f2ced07d7b3847db", "is_reserved": 0, "rental_uris": {"android": "https://dc.lft.to/lastmile_qr_scan", "ios": "https://dc.lft.to/lastmile_qr_scan"}, "fusion_lon": 0.0}, {"lat": 38.904663166666666, "is_disabled": 0, "type": "electric_scooter", "lon": -77.03088683333333, "bike_id": "eb42067fe17e5a64afb28bd9e13b7f00", "fusion_lat": 0.0, "name": "eb42067fe17e5a64afb28bd9e13b7f00", "is_reserved": 0, "rental_uris": {"android": "https://dc.lft.to/lastmile_qr_scan", "ios": "https://dc.lft.to/lastmile_qr_scan"}, "fusion_lon": 0.0}, {"lat": 38.914831666666664, "is_disabled": 0, "type": "electric_scooter", "lon": -77.0181425, "bike_id": "b642ece757a049082ddaa19c57722ff7", "fusion_lat": 0.0, "name": "b642ece757a049082ddaa19c57722ff7", "is_reserved": 0, "rental_uris": {"android": "https://dc.lft.to/lastmile_qr_scan", "ios": "https://dc.lft.to/lastmile_qr_scan"}, "fusion_lon": 0.0}, {"lat": 38.89918266666667, "is_disabled": 0, "type": "electric_scooter", "lon": -76.93380866666666, "bike_id": "31cdf12fd3d027f2b2ddaa2929873744", "fusion_lat": 0.0, "name": "31cdf12fd3d027f2b2ddaa2929873744", "is_reserved": 0, "rental_uris": {"android": "https://dc.lft.to/lastmile_qr_scan", "ios": "https://dc.lft.to/lastmile_qr_scan"}, "fusion_lon": 0.0}, {"lat": 38.926829166666664, "is_disabled": 0, "type": "electric_scooter", "lon": -77.05103033333333, "bike_id": "0315dfb5cee0de0c02507856b92bd4e5", "fusion_lat": 0.0, "name": "0315dfb5cee0de0c02507856b92bd4e5", "is_reserved": 0, "rental_uris": {"android": "https://dc.lft.to/lastmile_qr_scan", "ios": "https://dc.lft.to/lastmile_qr_scan"}, "fusion_lon": 0.0}, {"lat": 38.957761166666664, "is_disabled": 0, "type": "electric_scooter", "lon": -77.0246325, "bike_id": "413cd959ddab3e864fc3a293dd6c4a66", "fusion_lat": 0.0, "name": "413cd959ddab3e864fc3a293dd6c4a66", "is_reserved": 0, "rental_uris": {"android": "https://dc.lft.to/lastmile_qr_scan", "ios": "https://dc.lft.to/lastmile_qr_scan"}, "fusion_lon": 0.0}, {"lat": 38.90271383333334, "is_disabled": 0, "type": "electric_scooter", "lon": -77.01638533333333, "bike_id": "dc143c80eea930c1c5504b4a7652519a", "fusion_lat": 0.0, "name": "dc143c80eea930c1c5504b4a7652519a", "is_reserved": 0, "rental_uris": {"android": "https://dc.lft.to/lastmile_qr_scan", "ios": "https://dc.lft.to/lastmile_qr_scan"}, "fusion_lon": 0.0}, {"lat": 38.88047983333333, "is_disabled": 0, "type": "electric_scooter", "lon": -77.01767133333334, "bike_id": "2a089c7ed37df81eb10e5b533399798f", "fusion_lat": 0.0, "name": "2a089c7ed37df81eb10e5b533399798f", "is_reserved": 0, "rental_uris": {"android": "https://dc.lft.to/lastmile_qr_scan", "ios": "https://dc.lft.to/lastmile_qr_scan"}, "fusion_lon": 0.0}, {"lat": 38.863460833333335, "is_disabled": 0, "type": "electric_scooter", "lon": -76.990019, "bike_id": "35c5f976f059cbe207f72e9feb6b5268", "fusion_lat": 0.0, "name": "35c5f976f059cbe207f72e9feb6b5268", "is_reserved": 0, "rental_uris": {"android": "https://dc.lft.to/lastmile_qr_scan", "ios": "https://dc.lft.to/lastmile_qr_scan"}, "fusion_lon": 0.0}, {"lat": 38.84293366666667, "is_disabled": 0, "type": "electric_scooter", "lon": -76.99949633333334, "bike_id": "824e4bb45a0bde8b35e8ac0c0cbeb861", "fusion_lat": 0.0, "name": "824e4bb45a0bde8b35e8ac0c0cbeb861", "is_reserved": 0, "rental_uris": {"android": "https://dc.lft.to/lastmile_qr_scan", "ios": "https://dc.lft.to/lastmile_qr_scan"}, "fusion_lon": 0.0}, {"lat": 38.91912416666667, "is_disabled": 0, "type": "electric_bike", "lon": -77.04622433333333, "bike_id": "074ccbf0e5ef368463859166bb181233", "fusion_lat": 0.0, "name": "074ccbf0e5ef368463859166bb181233", "is_reserved": 0, "rental_uris": {"android": "https://dc.lft.to/lastmile_qr_scan", "ios": "https://dc.lft.to/lastmile_qr_scan"}, "fusion_lon": 0.0}, {"lat": 38.955552833333336, "is_disabled": 0, "type": "electric_bike", "lon": -76.93545, "bike_id": "18e059d025b330fbf868596e684eb173", "fusion_lat": 0.0, "name": "18e059d025b330fbf868596e684eb173", "is_reserved": 0, "rental_uris": {"android": "https://dc.lft.to/lastmile_qr_scan", "ios": "https://dc.lft.to/lastmile_qr_scan"}, "fusion_lon": 0.0}, {"lat": 38.93196316666667, "is_disabled": 0, "type": "electric_bike", "lon": -77.078308, "bike_id": "2678d6b89891e837cf51b2a4ff71fe4b", "fusion_lat": 0.0, "name": "2678d6b89891e837cf51b2a4ff71fe4b", "is_reserved": 0, "rental_uris": {"android": "https://dc.lft.to/lastmile_qr_scan", "ios": "https://dc.lft.to/lastmile_qr_scan"}, "fusion_lon": 0.0}, {"lat": 38.954956, "is_disabled": 0, "type": "electric_scooter", "lon": -77.06567133333333, "bike_id": "6c06eaddc500c7391c75807c0ace6e78", "fusion_lat": 0.0, "name": "6c06eaddc500c7391c75807c0ace6e78", "is_reserved": 0, "rental_uris": {"android": "https://dc.lft.to/lastmile_qr_scan", "ios": "https://dc.lft.to/lastmile_qr_scan"}, "fusion_lon": 0.0}, {"lat": 38.9045345, "is_disabled": 0, "type": "electric_scooter", "lon": -77.032225, "bike_id": "43db277a5b418a0f3484189854f11f1f", "fusion_lat": 0.0, "name": "43db277a5b418a0f3484189854f11f1f", "is_reserved": 0, "rental_uris": {"android": "https://dc.lft.to/lastmile_qr_scan", "ios": "https://dc.lft.to/lastmile_qr_scan"}, "fusion_lon": 0.0}, {"lat": 38.91550616666667, "is_disabled": 0, "type": "electric_scooter", "lon": -77.032322, "bike_id": "ceab0f42c1071ae78aed24bfa4e89ebe", "fusion_lat": 0.0, "name": "ceab0f42c1071ae78aed24bfa4e89ebe", "is_reserved": 0, "rental_uris": {"android": "https://dc.lft.to/lastmile_qr_scan", "ios": "https://dc.lft.to/lastmile_qr_scan"}, "fusion_lon": 0.0}, {"lat": 38.866590333333335, "is_disabled": 0, "type": "electric_scooter", "lon": -76.98880466666667, "bike_id": "e3155f3549690d8f78b9fdfe03ed32b8", "fusion_lat": 0.0, "name": "e3155f3549690d8f78b9fdfe03ed32b8", "is_reserved": 0, "rental_uris": {"android": "https://dc.lft.to/lastmile_qr_scan", "ios": "https://dc.lft.to/lastmile_qr_scan"}, "fusion_lon": 0.0}, {"lat": 38.920316666666665, "is_disabled": 0, "type": "electric_bike", "lon": -77.00343033333333, "bike_id": "bb33feae829e17c356a72eb1836392c0", "fusion_lat": 0.0, "name": "bb33feae829e17c356a72eb1836392c0", "is_reserved": 0, "rental_uris": {"android": "https://dc.lft.to/lastmile_qr_scan", "ios": "https://dc.lft.to/lastmile_qr_scan"}, "fusion_lon": 0.0}, {"lat": 38.89519383333333, "is_disabled": 0, "type": "electric_scooter", "lon": -76.97730116666666, "bike_id": "ecad470bb18e5a84e1846efc6db7a6c2", "fusion_lat": 0.0, "name": "ecad470bb18e5a84e1846efc6db7a6c2", "is_reserved": 0, "rental_uris": {"android": "https://dc.lft.to/lastmile_qr_scan", "ios": "https://dc.lft.to/lastmile_qr_scan"}, "fusion_lon": 0.0}, {"lat": 38.902707, "is_disabled": 0, "type": "electric_scooter", "lon": -77.03675666666666, "bike_id": "86bf5f421a556f9b4268db2163cf5b1c", "fusion_lat": 0.0, "name": "86bf5f421a556f9b4268db2163cf5b1c", "is_reserved": 0, "rental_uris": {"android": "https://dc.lft.to/lastmile_qr_scan", "ios": "https://dc.lft.to/lastmile_qr_scan"}, "fusion_lon": 0.0}, {"lat": 38.92198583333333, "is_disabled": 0, "type": "electric_scooter", "lon": -77.04137316666667, "bike_id": "916540960b2fd21bfee43072f02cc78c", "fusion_lat": 0.0, "name": "916540960b2fd21bfee43072f02cc78c", "is_reserved": 0, "rental_uris": {"android": "https://dc.lft.to/lastmile_qr_scan", "ios": "https://dc.lft.to/lastmile_qr_scan"}, "fusion_lon": 0.0}, {"lat": 38.9004405, "is_disabled": 0, "type": "electric_scooter", "lon": -77.0290525, "bike_id": "b223cea2f82b3413726ef6d8e61d97fb", "fusion_lat": 0.0, "name": "b223cea2f82b3413726ef6d8e61d97fb", "is_reserved": 0, "rental_uris": {"android": "https://dc.lft.to/lastmile_qr_scan", "ios": "https://dc.lft.to/lastmile_qr_scan"}, "fusion_lon": 0.0}, {"lat": 38.919915833333334, "is_disabled": 0, "type": "electric_scooter", "lon": -77.03211966666667, "bike_id": "2569279cdcab27739e16b11e0a2d87c9", "fusion_lat": 0.0, "name": "2569279cdcab27739e16b11e0a2d87c9", "is_reserved": 0, "rental_uris": {"android": "https://dc.lft.to/lastmile_qr_scan", "ios": "https://dc.lft.to/lastmile_qr_scan"}, "fusion_lon": 0.0}, {"lat": 38.869987, "is_disabled": 0, "type": "electric_bike", "lon": -77.06565316666666, "bike_id": "7bda53d86bb93c20fb71766f2842c785", "fusion_lat": 0.0, "name": "7bda53d86bb93c20fb71766f2842c785", "is_reserved": 0, "rental_uris": {"android": "https://dc.lft.to/lastmile_qr_scan", "ios": "https://dc.lft.to/lastmile_qr_scan"}, "fusion_lon": 0.0}, {"lat": 38.86524033333333, "is_disabled": 0, "type": "electric_scooter", "lon": -76.990317, "bike_id": "9ac18df65225287611c4a1f726f67c95", "fusion_lat": 0.0, "name": "9ac18df65225287611c4a1f726f67c95", "is_reserved": 0, "rental_uris": {"android": "https://dc.lft.to/lastmile_qr_scan", "ios": "https://dc.lft.to/lastmile_qr_scan"}, "fusion_lon": 0.0}, {"lat": 38.859314166666664, "is_disabled": 0, "type": "electric_scooter", "lon": -76.9971895, "bike_id": "384d50e9789268a273836338687ec39f", "fusion_lat": 0.0, "name": "384d50e9789268a273836338687ec39f", "is_reserved": 0, "rental_uris": {"android": "https://dc.lft.to/lastmile_qr_scan", "ios": "https://dc.lft.to/lastmile_qr_scan"}, "fusion_lon": 0.0}, {"lat": 38.930116166666664, "is_disabled": 0, "type": "electric_scooter", "lon": -77.05667483333333, "bike_id": "f92ae44ef994a7c59b209eef20246817", "fusion_lat": 0.0, "name": "f92ae44ef994a7c59b209eef20246817", "is_reserved": 0, "rental_uris": {"android": "https://dc.lft.to/lastmile_qr_scan", "ios": "https://dc.lft.to/lastmile_qr_scan"}, "fusion_lon": 0.0}, {"lat": 38.918190333333335, "is_disabled": 0, "type": "electric_scooter", "lon": -77.02717166666666, "bike_id": "371ab8bf7b454102f24ba3ead28ba75b", "fusion_lat": 0.0, "name": "371ab8bf7b454102f24ba3ead28ba75b", "is_reserved": 0, "rental_uris": {"android": "https://dc.lft.to/lastmile_qr_scan", "ios": "https://dc.lft.to/lastmile_qr_scan"}, "fusion_lon": 0.0}, {"lat": 38.89047216666667, "is_disabled": 0, "type": "electric_scooter", "lon": -76.93756933333333, "bike_id": "a754359e20a9dcbed7e78037fb19dafb", "fusion_lat": 0.0, "name": "a754359e20a9dcbed7e78037fb19dafb", "is_reserved": 0, "rental_uris": {"android": "https://dc.lft.to/lastmile_qr_scan", "ios": "https://dc.lft.to/lastmile_qr_scan"}, "fusion_lon": 0.0}, {"lat": 38.83811633333333, "is_disabled": 0, "type": "electric_bike", "lon": -77.09522783333334, "bike_id": "a2753fccf7e62755f862c72c2f84b225", "fusion_lat": 0.0, "name": "a2753fccf7e62755f862c72c2f84b225", "is_reserved": 0, "rental_uris": {"android": "https://dc.lft.to/lastmile_qr_scan", "ios": "https://dc.lft.to/lastmile_qr_scan"}, "fusion_lon": 0.0}, {"lat": 38.91567766666667, "is_disabled": 0, "type": "electric_scooter", "lon": -77.011936, "bike_id": "7e4ba67b5870ed0d6a014b960915b617", "fusion_lat": 0.0, "name": "7e4ba67b5870ed0d6a014b960915b617", "is_reserved": 0, "rental_uris": {"android": "https://dc.lft.to/lastmile_qr_scan", "ios": "https://dc.lft.to/lastmile_qr_scan"}, "fusion_lon": 0.0}, {"lat": 38.9026485, "is_disabled": 0, "type": "electric_scooter", "lon": -77.01765016666667, "bike_id": "659b4fecca47d409d8fe3dc31036e14f", "fusion_lat": 0.0, "name": "659b4fecca47d409d8fe3dc31036e14f", "is_reserved": 0, "rental_uris": {"android": "https://dc.lft.to/lastmile_qr_scan", "ios": "https://dc.lft.to/lastmile_qr_scan"}, "fusion_lon": 0.0}, {"lat": 38.9462965, "is_disabled": 0, "type": "electric_scooter", "lon": -77.01843183333334, "bike_id": "be6b804d42d63bf76175bd318d2307a7", "fusion_lat": 0.0, "name": "be6b804d42d63bf76175bd318d2307a7", "is_reserved": 0, "rental_uris": {"android": "https://dc.lft.to/lastmile_qr_scan", "ios": "https://dc.lft.to/lastmile_qr_scan"}, "fusion_lon": 0.0}, {"lat": 38.904469166666665, "is_disabled": 0, "type": "electric_scooter", "lon": -77.03653966666667, "bike_id": "0ebe4997769713d42a10699f85d8ac6b", "fusion_lat": 0.0, "name": "0ebe4997769713d42a10699f85d8ac6b", "is_reserved": 0, "rental_uris": {"android": "https://dc.lft.to/lastmile_qr_scan", "ios": "https://dc.lft.to/lastmile_qr_scan"}, "fusion_lon": 0.0}, {"lat": 38.876307833333335, "is_disabled": 0, "type": "electric_scooter", "lon": -76.96527916666666, "bike_id": "a650be34933020f3ce6456c2e835f0e8", "fusion_lat": 0.0, "name": "a650be34933020f3ce6456c2e835f0e8", "is_reserved": 0, "rental_uris": {"android": "https://dc.lft.to/lastmile_qr_scan", "ios": "https://dc.lft.to/lastmile_qr_scan"}, "fusion_lon": 0.0}, {"lat": 38.954053, "is_disabled": 0, "type": "electric_scooter", "lon": -77.02752016666666, "bike_id": "24ae5bb551d50917882a24bb4a3bec2e", "fusion_lat": 0.0, "name": "24ae5bb551d50917882a24bb4a3bec2e", "is_reserved": 0, "rental_uris": {"android": "https://dc.lft.to/lastmile_qr_scan", "ios": "https://dc.lft.to/lastmile_qr_scan"}, "fusion_lon": 0.0}, {"lat": 38.902666333333336, "is_disabled": 0, "type": "electric_scooter", "lon": -77.04042266666667, "bike_id": "06925190c20057d86205f528671b15db", "fusion_lat": 0.0, "name": "06925190c20057d86205f528671b15db", "is_reserved": 0, "rental_uris": {"android": "https://dc.lft.to/lastmile_qr_scan", "ios": "https://dc.lft.to/lastmile_qr_scan"}, "fusion_lon": 0.0}, {"lat": 38.920010833333336, "is_disabled": 0, "type": "electric_scooter", "lon": -77.0418455, "bike_id": "be4fcfe81a08c60f00871a3b3155c2bc", "fusion_lat": 0.0, "name": "be4fcfe81a08c60f00871a3b3155c2bc", "is_reserved": 0, "rental_uris": {"android": "https://dc.lft.to/lastmile_qr_scan", "ios": "https://dc.lft.to/lastmile_qr_scan"}, "fusion_lon": 0.0}, {"lat": 38.88746366666667, "is_disabled": 0, "type": "electric_scooter", "lon": -77.02071, "bike_id": "a4af9d5e8b142f1f25c1e300e704a319", "fusion_lat": 0.0, "name": "a4af9d5e8b142f1f25c1e300e704a319", "is_reserved": 0, "rental_uris": {"android": "https://dc.lft.to/lastmile_qr_scan", "ios": "https://dc.lft.to/lastmile_qr_scan"}, "fusion_lon": 0.0}, {"lat": 38.867071, "is_disabled": 0, "type": "electric_scooter", "lon": -76.98724483333334, "bike_id": "072c65202d89ee0bf1f7087b8f1f82ef", "fusion_lat": 0.0, "name": "072c65202d89ee0bf1f7087b8f1f82ef", "is_reserved": 0, "rental_uris": {"android": "https://dc.lft.to/lastmile_qr_scan", "ios": "https://dc.lft.to/lastmile_qr_scan"}, "fusion_lon": 0.0}, {"lat": 38.94442333333333, "is_disabled": 0, "type": "electric_scooter", "lon": -77.06408466666667, "bike_id": "7b4c0434a7d6742dfb21097f9d49fcba", "fusion_lat": 0.0, "name": "7b4c0434a7d6742dfb21097f9d49fcba", "is_reserved": 0, "rental_uris": {"android": "https://dc.lft.to/lastmile_qr_scan", "ios": "https://dc.lft.to/lastmile_qr_scan"}, "fusion_lon": 0.0}, {"lat": 38.91715766666667, "is_disabled": 0, "type": "electric_scooter", "lon": -77.03093433333333, "bike_id": "f089a622decdf9e36666ae5ae0f6d2e8", "fusion_lat": 0.0, "name": "f089a622decdf9e36666ae5ae0f6d2e8", "is_reserved": 0, "rental_uris": {"android": "https://dc.lft.to/lastmile_qr_scan", "ios": "https://dc.lft.to/lastmile_qr_scan"}, "fusion_lon": 0.0}, {"lat": 38.9203695, "is_disabled": 0, "type": "electric_scooter", "lon": -76.97802583333333, "bike_id": "a7267cd159b7635ede55b328664cf5b2", "fusion_lat": 0.0, "name": "a7267cd159b7635ede55b328664cf5b2", "is_reserved": 0, "rental_uris": {"android": "https://dc.lft.to/lastmile_qr_scan", "ios": "https://dc.lft.to/lastmile_qr_scan"}, "fusion_lon": 0.0}, {"lat": 38.905593, "is_disabled": 0, "type": "electric_scooter", "lon": -77.056916, "bike_id": "302ce75c78571bae909a8589d48959b9", "fusion_lat": 0.0, "name": "302ce75c78571bae909a8589d48959b9", "is_reserved": 0, "rental_uris": {"android": "https://dc.lft.to/lastmile_qr_scan", "ios": "https://dc.lft.to/lastmile_qr_scan"}, "fusion_lon": 0.0}, {"lat": 38.920686333333336, "is_disabled": 0, "type": "electric_scooter", "lon": -76.97600433333334, "bike_id": "148f05a90d10476a43549a51eb8e1f29", "fusion_lat": 0.0, "name": "148f05a90d10476a43549a51eb8e1f29", "is_reserved": 0, "rental_uris": {"android": "https://dc.lft.to/lastmile_qr_scan", "ios": "https://dc.lft.to/lastmile_qr_scan"}, "fusion_lon": 0.0}, {"lat": 38.879141833333335, "is_disabled": 0, "type": "electric_scooter", "lon": -76.9914755, "bike_id": "e6b0040927fb47375ffe8fe58c6bd7d8", "fusion_lat": 0.0, "name": "e6b0040927fb47375ffe8fe58c6bd7d8", "is_reserved": 0, "rental_uris": {"android": "https://dc.lft.to/lastmile_qr_scan", "ios": "https://dc.lft.to/lastmile_qr_scan"}, "fusion_lon": 0.0}, {"lat": 38.961528, "is_disabled": 0, "type": "electric_scooter", "lon": -77.02781666666667, "bike_id": "2e764e11fd65f745c1e5fea08fa0f263", "fusion_lat": 0.0, "name": "2e764e11fd65f745c1e5fea08fa0f263", "is_reserved": 0, "rental_uris": {"android": "https://dc.lft.to/lastmile_qr_scan", "ios": "https://dc.lft.to/lastmile_qr_scan"}, "fusion_lon": 0.0}, {"lat": 38.959574833333335, "is_disabled": 0, "type": "electric_bike", "lon": -77.10090283333334, "bike_id": "ee1880a353167e5abb724a700062698e", "fusion_lat": 0.0, "name": "ee1880a353167e5abb724a700062698e", "is_reserved": 0, "rental_uris": {"android": "https://dc.lft.to/lastmile_qr_scan", "ios": "https://dc.lft.to/lastmile_qr_scan"}, "fusion_lon": 0.0}, {"lat": 38.93142733333333, "is_disabled": 0, "type": "electric_scooter", "lon": -77.03830283333333, "bike_id": "6b7a8dc49aca2bd2a36be2c8b69498ab", "fusion_lat": 0.0, "name": "6b7a8dc49aca2bd2a36be2c8b69498ab", "is_reserved": 0, "rental_uris": {"android": "https://dc.lft.to/lastmile_qr_scan", "ios": "https://dc.lft.to/lastmile_qr_scan"}, "fusion_lon": 0.0}, {"lat": 38.842632, "is_disabled": 0, "type": "electric_scooter", "lon": -77.002385, "bike_id": "9e632792e202a9547db37eebbe47dd97", "fusion_lat": 0.0, "name": "9e632792e202a9547db37eebbe47dd97", "is_reserved": 0, "rental_uris": {"android": "https://dc.lft.to/lastmile_qr_scan", "ios": "https://dc.lft.to/lastmile_qr_scan"}, "fusion_lon": 0.0}, {"lat": 38.88046816666667, "is_disabled": 0, "type": "electric_scooter", "lon": -76.98628, "bike_id": "d1c20e2a85e42cbb5e163e235d041480", "fusion_lat": 0.0, "name": "d1c20e2a85e42cbb5e163e235d041480", "is_reserved": 0, "rental_uris": {"android": "https://dc.lft.to/lastmile_qr_scan", "ios": "https://dc.lft.to/lastmile_qr_scan"}, "fusion_lon": 0.0}, {"lat": 38.88745616666667, "is_disabled": 0, "type": "electric_scooter", "lon": -77.021717, "bike_id": "2d729115bd1397d8b26f61f395a8e2f3", "fusion_lat": 0.0, "name": "2d729115bd1397d8b26f61f395a8e2f3", "is_reserved": 0, "rental_uris": {"android": "https://dc.lft.to/lastmile_qr_scan", "ios": "https://dc.lft.to/lastmile_qr_scan"}, "fusion_lon": 0.0}, {"lat": 38.920657166666665, "is_disabled": 0, "type": "electric_scooter", "lon": -77.04344466666667, "bike_id": "f858cdb7789b933ec4bec5a2e03556ab", "fusion_lat": 0.0, "name": "f858cdb7789b933ec4bec5a2e03556ab", "is_reserved": 0, "rental_uris": {"android": "https://dc.lft.to/lastmile_qr_scan", "ios": "https://dc.lft.to/lastmile_qr_scan"}, "fusion_lon": 0.0}, {"lat": 38.89864733333334, "is_disabled": 0, "type": "electric_scooter", "lon": -77.01878183333334, "bike_id": "919c5c68521159ea14b208e29dff6666", "fusion_lat": 0.0, "name": "919c5c68521159ea14b208e29dff6666", "is_reserved": 0, "rental_uris": {"android": "https://dc.lft.to/lastmile_qr_scan", "ios": "https://dc.lft.to/lastmile_qr_scan"}, "fusion_lon": 0.0}, {"lat": 38.90375083333333, "is_disabled": 0, "type": "electric_scooter", "lon": -77.06025033333333, "bike_id": "6733c77a74a086ef6d82b904edd40474", "fusion_lat": 0.0, "name": "6733c77a74a086ef6d82b904edd40474", "is_reserved": 0, "rental_uris": {"android": "https://dc.lft.to/lastmile_qr_scan", "ios": "https://dc.lft.to/lastmile_qr_scan"}, "fusion_lon": 0.0}, {"lat": 38.88437833333333, "is_disabled": 0, "type": "electric_scooter", "lon": -77.0303885, "bike_id": "73c7dcc22699f312996b90f15af4c8c2", "fusion_lat": 0.0, "name": "73c7dcc22699f312996b90f15af4c8c2", "is_reserved": 0, "rental_uris": {"android": "https://dc.lft.to/lastmile_qr_scan", "ios": "https://dc.lft.to/lastmile_qr_scan"}, "fusion_lon": 0.0}, {"lat": 38.9035285, "is_disabled": 0, "type": "electric_scooter", "lon": -77.06585766666667, "bike_id": "84ff5fc388959a31661d323d7593c8b6", "fusion_lat": 0.0, "name": "84ff5fc388959a31661d323d7593c8b6", "is_reserved": 0, "rental_uris": {"android": "https://dc.lft.to/lastmile_qr_scan", "ios": "https://dc.lft.to/lastmile_qr_scan"}, "fusion_lon": 0.0}, {"lat": 38.924801333333335, "is_disabled": 0, "type": "electric_scooter", "lon": -77.02841983333333, "bike_id": "320b5430ab8aefc567ed2e1909b8ffce", "fusion_lat": 0.0, "name": "320b5430ab8aefc567ed2e1909b8ffce", "is_reserved": 0, "rental_uris": {"android": "https://dc.lft.to/lastmile_qr_scan", "ios": "https://dc.lft.to/lastmile_qr_scan"}, "fusion_lon": 0.0}, {"lat": 38.898226, "is_disabled": 0, "type": "electric_scooter", "lon": -76.99694666666667, "bike_id": "46f1b95ff5a4e14d7c9daf8403893122", "fusion_lat": 0.0, "name": "46f1b95ff5a4e14d7c9daf8403893122", "is_reserved": 0, "rental_uris": {"android": "https://dc.lft.to/lastmile_qr_scan", "ios": "https://dc.lft.to/lastmile_qr_scan"}, "fusion_lon": 0.0}, {"lat": 38.901874, "is_disabled": 0, "type": "electric_scooter", "lon": -77.02416916666667, "bike_id": "93a8ab72351d5019d06c19fad154b774", "fusion_lat": 0.0, "name": "93a8ab72351d5019d06c19fad154b774", "is_reserved": 0, "rental_uris": {"android": "https://dc.lft.to/lastmile_qr_scan", "ios": "https://dc.lft.to/lastmile_qr_scan"}, "fusion_lon": 0.0}, {"lat": 38.911275, "is_disabled": 0, "type": "electric_scooter", "lon": -77.03761116666666, "bike_id": "c3a14642c0a7de30d47327dfe9e1072b", "fusion_lat": 0.0, "name": "c3a14642c0a7de30d47327dfe9e1072b", "is_reserved": 0, "rental_uris": {"android": "https://dc.lft.to/lastmile_qr_scan", "ios": "https://dc.lft.to/lastmile_qr_scan"}, "fusion_lon": 0.0}, {"lat": 38.88639716666667, "is_disabled": 0, "type": "electric_bike", "lon": -76.95475233333333, "bike_id": "608e26702ceae7aa248d72fb4d14a4bd", "fusion_lat": 0.0, "name": "608e26702ceae7aa248d72fb4d14a4bd", "is_reserved": 0, "rental_uris": {"android": "https://dc.lft.to/lastmile_qr_scan", "ios": "https://dc.lft.to/lastmile_qr_scan"}, "fusion_lon": 0.0}, {"lat": 38.91178466666667, "is_disabled": 0, "type": "electric_scooter", "lon": -77.06095333333333, "bike_id": "71abd03cc6f61358c25290df0343cda9", "fusion_lat": 0.0, "name": "71abd03cc6f61358c25290df0343cda9", "is_reserved": 0, "rental_uris": {"android": "https://dc.lft.to/lastmile_qr_scan", "ios": "https://dc.lft.to/lastmile_qr_scan"}, "fusion_lon": 0.0}, {"lat": 38.927350833333335, "is_disabled": 0, "type": "electric_scooter", "lon": -77.03448616666667, "bike_id": "edfb4b07dc04c69ab29e9aa252e86d19", "fusion_lat": 0.0, "name": "edfb4b07dc04c69ab29e9aa252e86d19", "is_reserved": 0, "rental_uris": {"android": "https://dc.lft.to/lastmile_qr_scan", "ios": "https://dc.lft.to/lastmile_qr_scan"}, "fusion_lon": 0.0}, {"lat": 39.056363166666664, "is_disabled": 0, "type": "electric_bike", "lon": -77.125275, "bike_id": "cb98abbc80d4ce0ab226500c2e705251", "fusion_lat": 0.0, "name": "cb98abbc80d4ce0ab226500c2e705251", "is_reserved": 0, "rental_uris": {"android": "https://dc.lft.to/lastmile_qr_scan", "ios": "https://dc.lft.to/lastmile_qr_scan"}, "fusion_lon": 0.0}, {"lat": 38.91925966666667, "is_disabled": 0, "type": "electric_scooter", "lon": -77.04538866666667, "bike_id": "a8324a397d6d6795e5373506c0547c66", "fusion_lat": 0.0, "name": "a8324a397d6d6795e5373506c0547c66", "is_reserved": 0, "rental_uris": {"android": "https://dc.lft.to/lastmile_qr_scan", "ios": "https://dc.lft.to/lastmile_qr_scan"}, "fusion_lon": 0.0}, {"lat": 38.95611316666667, "is_disabled": 0, "type": "electric_scooter", "lon": -77.02759883333333, "bike_id": "d995a07e1d2cdccf3a5fb33733e2e16a", "fusion_lat": 0.0, "name": "d995a07e1d2cdccf3a5fb33733e2e16a", "is_reserved": 0, "rental_uris": {"android": "https://dc.lft.to/lastmile_qr_scan", "ios": "https://dc.lft.to/lastmile_qr_scan"}, "fusion_lon": 0.0}, {"lat": 38.927601, "is_disabled": 0, "type": "electric_scooter", "lon": -77.03214416666667, "bike_id": "02e6269cbaf57af7997a0decf5df512b", "fusion_lat": 0.0, "name": "02e6269cbaf57af7997a0decf5df512b", "is_reserved": 0, "rental_uris": {"android": "https://dc.lft.to/lastmile_qr_scan", "ios": "https://dc.lft.to/lastmile_qr_scan"}, "fusion_lon": 0.0}, {"lat": 38.89545783333333, "is_disabled": 0, "type": "electric_scooter", "lon": -76.93377066666666, "bike_id": "c6f8f0706a517d5c70203d45f89976d7", "fusion_lat": 0.0, "name": "c6f8f0706a517d5c70203d45f89976d7", "is_reserved": 0, "rental_uris": {"android": "https://dc.lft.to/lastmile_qr_scan", "ios": "https://dc.lft.to/lastmile_qr_scan"}, "fusion_lon": 0.0}, {"lat": 38.90527133333333, "is_disabled": 0, "type": "electric_scooter", "lon": -77.03483266666667, "bike_id": "939d8641626efde6d12caf27c631254c", "fusion_lat": 0.0, "name": "939d8641626efde6d12caf27c631254c", "is_reserved": 0, "rental_uris": {"android": "https://dc.lft.to/lastmile_qr_scan", "ios": "https://dc.lft.to/lastmile_qr_scan"}, "fusion_lon": 0.0}, {"lat": 38.793046, "is_disabled": 0, "type": "electric_bike", "lon": -77.0492315, "bike_id": "213ee7907fd53d3d4a71e6e62cc054f8", "fusion_lat": 0.0, "name": "213ee7907fd53d3d4a71e6e62cc054f8", "is_reserved": 0, "rental_uris": {"android": "https://dc.lft.to/lastmile_qr_scan", "ios": "https://dc.lft.to/lastmile_qr_scan"}, "fusion_lon": 0.0}, {"lat": 38.904613, "is_disabled": 0, "type": "electric_scooter", "lon": -77.007775, "bike_id": "ca73f12a0f06c281d97d572ba0298c76", "fusion_lat": 0.0, "name": "ca73f12a0f06c281d97d572ba0298c76", "is_reserved": 0, "rental_uris": {"android": "https://dc.lft.to/lastmile_qr_scan", "ios": "https://dc.lft.to/lastmile_qr_scan"}, "fusion_lon": 0.0}, {"lat": 38.9020755, "is_disabled": 0, "type": "electric_scooter", "lon": -76.98846316666666, "bike_id": "9a8343d934ce2d2596c0219093c08ff3", "fusion_lat": 0.0, "name": "9a8343d934ce2d2596c0219093c08ff3", "is_reserved": 0, "rental_uris": {"android": "https://dc.lft.to/lastmile_qr_scan", "ios": "https://dc.lft.to/lastmile_qr_scan"}, "fusion_lon": 0.0}, {"lat": 38.9044275, "is_disabled": 0, "type": "electric_scooter", "lon": -77.04350833333334, "bike_id": "c314b3c5a0c42aaab7fcee1bcc380b6e", "fusion_lat": 0.0, "name": "c314b3c5a0c42aaab7fcee1bcc380b6e", "is_reserved": 0, "rental_uris": {"android": "https://dc.lft.to/lastmile_qr_scan", "ios": "https://dc.lft.to/lastmile_qr_scan"}, "fusion_lon": 0.0}, {"lat": 38.9046565, "is_disabled": 0, "type": "electric_scooter", "lon": -77.017801, "bike_id": "9abd47fb8f51c76ee7ee7f9d721ec640", "fusion_lat": 0.0, "name": "9abd47fb8f51c76ee7ee7f9d721ec640", "is_reserved": 0, "rental_uris": {"android": "https://dc.lft.to/lastmile_qr_scan", "ios": "https://dc.lft.to/lastmile_qr_scan"}, "fusion_lon": 0.0}, {"lat": 38.920148833333336, "is_disabled": 0, "type": "electric_scooter", "lon": -77.01945316666666, "bike_id": "4749b4c42dac826c8ea6720ebafa5e74", "fusion_lat": 0.0, "name": "4749b4c42dac826c8ea6720ebafa5e74", "is_reserved": 0, "rental_uris": {"android": "https://dc.lft.to/lastmile_qr_scan", "ios": "https://dc.lft.to/lastmile_qr_scan"}, "fusion_lon": 0.0}, {"lat": 38.91962933333333, "is_disabled": 0, "type": "electric_scooter", "lon": -77.03952516666666, "bike_id": "e502d6d2a7c3820a2418613afdf13991", "fusion_lat": 0.0, "name": "e502d6d2a7c3820a2418613afdf13991", "is_reserved": 0, "rental_uris": {"android": "https://dc.lft.to/lastmile_qr_scan", "ios": "https://dc.lft.to/lastmile_qr_scan"}, "fusion_lon": 0.0}, {"lat": 38.8801935, "is_disabled": 0, "type": "electric_scooter", "lon": -76.93128183333333, "bike_id": "b3ff355c0c5483d269a54ce25f0bd760", "fusion_lat": 0.0, "name": "b3ff355c0c5483d269a54ce25f0bd760", "is_reserved": 0, "rental_uris": {"android": "https://dc.lft.to/lastmile_qr_scan", "ios": "https://dc.lft.to/lastmile_qr_scan"}, "fusion_lon": 0.0}, {"lat": 38.89940716666667, "is_disabled": 0, "type": "electric_scooter", "lon": -77.0163395, "bike_id": "0448fcdda89e3dfcfffa17abd6588657", "fusion_lat": 0.0, "name": "0448fcdda89e3dfcfffa17abd6588657", "is_reserved": 0, "rental_uris": {"android": "https://dc.lft.to/lastmile_qr_scan", "ios": "https://dc.lft.to/lastmile_qr_scan"}, "fusion_lon": 0.0}, {"lat": 38.926637166666666, "is_disabled": 0, "type": "electric_scooter", "lon": -77.05597116666667, "bike_id": "d95e0478026091a4a63cf781cae5d300", "fusion_lat": 0.0, "name": "d95e0478026091a4a63cf781cae5d300", "is_reserved": 0, "rental_uris": {"android": "https://dc.lft.to/lastmile_qr_scan", "ios": "https://dc.lft.to/lastmile_qr_scan"}, "fusion_lon": 0.0}, {"lat": 38.903658666666665, "is_disabled": 0, "type": "electric_scooter", "lon": -76.97657033333333, "bike_id": "5d2fa8ce348961bec5a81082c480441c", "fusion_lat": 0.0, "name": "5d2fa8ce348961bec5a81082c480441c", "is_reserved": 0, "rental_uris": {"android": "https://dc.lft.to/lastmile_qr_scan", "ios": "https://dc.lft.to/lastmile_qr_scan"}, "fusion_lon": 0.0}, {"lat": 38.91416066666667, "is_disabled": 0, "type": "electric_scooter", "lon": -77.04073733333334, "bike_id": "f0171852e258f351d27d3c885c59576f", "fusion_lat": 0.0, "name": "f0171852e258f351d27d3c885c59576f", "is_reserved": 0, "rental_uris": {"android": "https://dc.lft.to/lastmile_qr_scan", "ios": "https://dc.lft.to/lastmile_qr_scan"}, "fusion_lon": 0.0}, {"lat": 38.923309833333334, "is_disabled": 0, "type": "electric_scooter", "lon": -77.03576583333333, "bike_id": "620ef377d55beb29bc32d8f32c17a439", "fusion_lat": 0.0, "name": "620ef377d55beb29bc32d8f32c17a439", "is_reserved": 0, "rental_uris": {"android": "https://dc.lft.to/lastmile_qr_scan", "ios": "https://dc.lft.to/lastmile_qr_scan"}, "fusion_lon": 0.0}, {"lat": 38.91135516666667, "is_disabled": 0, "type": "electric_scooter", "lon": -77.02194716666666, "bike_id": "7cf11f2b592f8681bd28afe1b080fd5e", "fusion_lat": 0.0, "name": "7cf11f2b592f8681bd28afe1b080fd5e", "is_reserved": 0, "rental_uris": {"android": "https://dc.lft.to/lastmile_qr_scan", "ios": "https://dc.lft.to/lastmile_qr_scan"}, "fusion_lon": 0.0}, {"lat": 38.933470666666665, "is_disabled": 0, "type": "electric_scooter", "lon": -77.071847, "bike_id": "895b43303c3fd8b615ef2ef80f036e09", "fusion_lat": 0.0, "name": "895b43303c3fd8b615ef2ef80f036e09", "is_reserved": 0, "rental_uris": {"android": "https://dc.lft.to/lastmile_qr_scan", "ios": "https://dc.lft.to/lastmile_qr_scan"}, "fusion_lon": 0.0}, {"lat": 38.9207885, "is_disabled": 0, "type": "electric_scooter", "lon": -77.04561266666667, "bike_id": "0dd71c37bc1fa926755bcf41e23e869c", "fusion_lat": 0.0, "name": "0dd71c37bc1fa926755bcf41e23e869c", "is_reserved": 0, "rental_uris": {"android": "https://dc.lft.to/lastmile_qr_scan", "ios": "https://dc.lft.to/lastmile_qr_scan"}, "fusion_lon": 0.0}, {"lat": 38.9275895, "is_disabled": 0, "type": "electric_scooter", "lon": -77.00594583333333, "bike_id": "5659ab9319347cb940fe233b52dc7755", "fusion_lat": 0.0, "name": "5659ab9319347cb940fe233b52dc7755", "is_reserved": 0, "rental_uris": {"android": "https://dc.lft.to/lastmile_qr_scan", "ios": "https://dc.lft.to/lastmile_qr_scan"}, "fusion_lon": 0.0}, {"lat": 38.8999235, "is_disabled": 0, "type": "electric_bike", "lon": -76.981187, "bike_id": "2d67e96ee800d853e2330f6950fb9acb", "fusion_lat": 0.0, "name": "2d67e96ee800d853e2330f6950fb9acb", "is_reserved": 0, "rental_uris": {"android": "https://dc.lft.to/lastmile_qr_scan", "ios": "https://dc.lft.to/lastmile_qr_scan"}, "fusion_lon": 0.0}, {"lat": 38.933316, "is_disabled": 0, "type": "electric_scooter", "lon": -77.02927616666666, "bike_id": "6acb74d5b35c51c31509f8f29e00c450", "fusion_lat": 0.0, "name": "6acb74d5b35c51c31509f8f29e00c450", "is_reserved": 0, "rental_uris": {"android": "https://dc.lft.to/lastmile_qr_scan", "ios": "https://dc.lft.to/lastmile_qr_scan"}, "fusion_lon": 0.0}, {"lat": 38.90010633333333, "is_disabled": 0, "type": "electric_scooter", "lon": -76.92238416666666, "bike_id": "3db5ef41f4b97d3feb3034c97e0fe4a9", "fusion_lat": 0.0, "name": "3db5ef41f4b97d3feb3034c97e0fe4a9", "is_reserved": 0, "rental_uris": {"android": "https://dc.lft.to/lastmile_qr_scan", "ios": "https://dc.lft.to/lastmile_qr_scan"}, "fusion_lon": 0.0}, {"lat": 38.90030733333333, "is_disabled": 0, "type": "electric_scooter", "lon": -77.025862, "bike_id": "7160ada31c14cde4c3b695c8f210e56e", "fusion_lat": 0.0, "name": "7160ada31c14cde4c3b695c8f210e56e", "is_reserved": 0, "rental_uris": {"android": "https://dc.lft.to/lastmile_qr_scan", "ios": "https://dc.lft.to/lastmile_qr_scan"}, "fusion_lon": 0.0}, {"lat": 38.96256, "is_disabled": 0, "type": "electric_scooter", "lon": -77.03823866666667, "bike_id": "837a7710552a8bdaa53b38e6db34fe57", "fusion_lat": 0.0, "name": "837a7710552a8bdaa53b38e6db34fe57", "is_reserved": 0, "rental_uris": {"android": "https://dc.lft.to/lastmile_qr_scan", "ios": "https://dc.lft.to/lastmile_qr_scan"}, "fusion_lon": 0.0}, {"lat": 38.9204775, "is_disabled": 0, "type": "electric_scooter", "lon": -77.032887, "bike_id": "c02c8d53549290089288620ac25b0209", "fusion_lat": 0.0, "name": "c02c8d53549290089288620ac25b0209", "is_reserved": 0, "rental_uris": {"android": "https://dc.lft.to/lastmile_qr_scan", "ios": "https://dc.lft.to/lastmile_qr_scan"}, "fusion_lon": 0.0}, {"lat": 38.91354616666667, "is_disabled": 0, "type": "electric_scooter", "lon": -77.03189266666666, "bike_id": "9b8efc6064bbef8881b520ac9c0b90e2", "fusion_lat": 0.0, "name": "9b8efc6064bbef8881b520ac9c0b90e2", "is_reserved": 0, "rental_uris": {"android": "https://dc.lft.to/lastmile_qr_scan", "ios": "https://dc.lft.to/lastmile_qr_scan"}, "fusion_lon": 0.0}, {"lat": 38.92848466666667, "is_disabled": 0, "type": "electric_scooter", "lon": -77.035943, "bike_id": "4b9995944f45db7b0f4fb9abf77a5994", "fusion_lat": 0.0, "name": "4b9995944f45db7b0f4fb9abf77a5994", "is_reserved": 0, "rental_uris": {"android": "https://dc.lft.to/lastmile_qr_scan", "ios": "https://dc.lft.to/lastmile_qr_scan"}, "fusion_lon": 0.0}, {"lat": 38.904943833333334, "is_disabled": 0, "type": "electric_scooter", "lon": -76.9870995, "bike_id": "45ac28a131ac995d9cdd1d90f64f2803", "fusion_lat": 0.0, "name": "45ac28a131ac995d9cdd1d90f64f2803", "is_reserved": 0, "rental_uris": {"android": "https://dc.lft.to/lastmile_qr_scan", "ios": "https://dc.lft.to/lastmile_qr_scan"}, "fusion_lon": 0.0}, {"lat": 38.94439216666667, "is_disabled": 0, "type": "electric_scooter", "lon": -77.0635415, "bike_id": "68395c978ff25c531a0bce8845841f29", "fusion_lat": 0.0, "name": "68395c978ff25c531a0bce8845841f29", "is_reserved": 0, "rental_uris": {"android": "https://dc.lft.to/lastmile_qr_scan", "ios": "https://dc.lft.to/lastmile_qr_scan"}, "fusion_lon": 0.0}, {"lat": 38.87341966666666, "is_disabled": 0, "type": "electric_scooter", "lon": -76.99164666666667, "bike_id": "b0b2cc308c274400718473e92956d6c1", "fusion_lat": 0.0, "name": "b0b2cc308c274400718473e92956d6c1", "is_reserved": 0, "rental_uris": {"android": "https://dc.lft.to/lastmile_qr_scan", "ios": "https://dc.lft.to/lastmile_qr_scan"}, "fusion_lon": 0.0}, {"lat": 38.921093166666665, "is_disabled": 0, "type": "electric_scooter", "lon": -77.042011, "bike_id": "6bb6e1b54294a8920da684e503d1039c", "fusion_lat": 0.0, "name": "6bb6e1b54294a8920da684e503d1039c", "is_reserved": 0, "rental_uris": {"android": "https://dc.lft.to/lastmile_qr_scan", "ios": "https://dc.lft.to/lastmile_qr_scan"}, "fusion_lon": 0.0}, {"lat": 38.93893083333333, "is_disabled": 0, "type": "electric_scooter", "lon": -77.02824016666666, "bike_id": "b135e3bf437afe58d95b1ac0dd1f4b47", "fusion_lat": 0.0, "name": "b135e3bf437afe58d95b1ac0dd1f4b47", "is_reserved": 0, "rental_uris": {"android": "https://dc.lft.to/lastmile_qr_scan", "ios": "https://dc.lft.to/lastmile_qr_scan"}, "fusion_lon": 0.0}, {"lat": 38.92474583333333, "is_disabled": 0, "type": "electric_scooter", "lon": -77.02651033333333, "bike_id": "fa8fae4db2126e0885d32cfe2f2be91b", "fusion_lat": 0.0, "name": "fa8fae4db2126e0885d32cfe2f2be91b", "is_reserved": 0, "rental_uris": {"android": "https://dc.lft.to/lastmile_qr_scan", "ios": "https://dc.lft.to/lastmile_qr_scan"}, "fusion_lon": 0.0}, {"lat": 38.904924666666666, "is_disabled": 0, "type": "electric_scooter", "lon": -77.01999816666667, "bike_id": "7fe726461d2d68ea49ef4f958d2d46e1", "fusion_lat": 0.0, "name": "7fe726461d2d68ea49ef4f958d2d46e1", "is_reserved": 0, "rental_uris": {"android": "https://dc.lft.to/lastmile_qr_scan", "ios": "https://dc.lft.to/lastmile_qr_scan"}, "fusion_lon": 0.0}, {"lat": 38.88388966666667, "is_disabled": 0, "type": "electric_scooter", "lon": -77.018873, "bike_id": "4bfa8daafcb8b23d3ffeb2d8ab03884b", "fusion_lat": 0.0, "name": "4bfa8daafcb8b23d3ffeb2d8ab03884b", "is_reserved": 0, "rental_uris": {"android": "https://dc.lft.to/lastmile_qr_scan", "ios": "https://dc.lft.to/lastmile_qr_scan"}, "fusion_lon": 0.0}, {"lat": 38.909205, "is_disabled": 0, "type": "electric_scooter", "lon": -77.0364035, "bike_id": "bb3debf1315997cebf76847599a7e6a8", "fusion_lat": 0.0, "name": "bb3debf1315997cebf76847599a7e6a8", "is_reserved": 0, "rental_uris": {"android": "https://dc.lft.to/lastmile_qr_scan", "ios": "https://dc.lft.to/lastmile_qr_scan"}, "fusion_lon": 0.0}, {"lat": 38.86889216666667, "is_disabled": 0, "type": "electric_scooter", "lon": -76.98309866666666, "bike_id": "ed0a05db9fbfc952b8d7f1348fd896d6", "fusion_lat": 0.0, "name": "ed0a05db9fbfc952b8d7f1348fd896d6", "is_reserved": 0, "rental_uris": {"android": "https://dc.lft.to/lastmile_qr_scan", "ios": "https://dc.lft.to/lastmile_qr_scan"}, "fusion_lon": 0.0}, {"lat": 38.920724, "is_disabled": 0, "type": "electric_scooter", "lon": -77.04211366666667, "bike_id": "dc95dfa1d4fab5580e10630ccce77bb3", "fusion_lat": 0.0, "name": "dc95dfa1d4fab5580e10630ccce77bb3", "is_reserved": 0, "rental_uris": {"android": "https://dc.lft.to/lastmile_qr_scan", "ios": "https://dc.lft.to/lastmile_qr_scan"}, "fusion_lon": 0.0}, {"lat": 38.904964666666665, "is_disabled": 0, "type": "electric_scooter", "lon": -77.06826916666667, "bike_id": "ff085a19f2d100d84352396c24b1a519", "fusion_lat": 0.0, "name": "ff085a19f2d100d84352396c24b1a519", "is_reserved": 0, "rental_uris": {"android": "https://dc.lft.to/lastmile_qr_scan", "ios": "https://dc.lft.to/lastmile_qr_scan"}, "fusion_lon": 0.0}, {"lat": 38.917264833333334, "is_disabled": 0, "type": "electric_scooter", "lon": -77.04103216666667, "bike_id": "7c3e2245e72ae8f1baf1c636412ceaa9", "fusion_lat": 0.0, "name": "7c3e2245e72ae8f1baf1c636412ceaa9", "is_reserved": 0, "rental_uris": {"android": "https://dc.lft.to/lastmile_qr_scan", "ios": "https://dc.lft.to/lastmile_qr_scan"}, "fusion_lon": 0.0}, {"lat": 38.96022716666667, "is_disabled": 0, "type": "electric_bike", "lon": -77.01727966666667, "bike_id": "158404cb3835e177c1cee013887489b0", "fusion_lat": 0.0, "name": "158404cb3835e177c1cee013887489b0", "is_reserved": 0, "rental_uris": {"android": "https://dc.lft.to/lastmile_qr_scan", "ios": "https://dc.lft.to/lastmile_qr_scan"}, "fusion_lon": 0.0}, {"lat": 39.0293565, "is_disabled": 0, "type": "electric_bike", "lon": -77.04925416666667, "bike_id": "40304d2dc9e0cd96a9f40cc0c7028c80", "fusion_lat": 0.0, "name": "40304d2dc9e0cd96a9f40cc0c7028c80", "is_reserved": 0, "rental_uris": {"android": "https://dc.lft.to/lastmile_qr_scan", "ios": "https://dc.lft.to/lastmile_qr_scan"}, "fusion_lon": 0.0}, {"lat": 38.8847335, "is_disabled": 0, "type": "electric_scooter", "lon": -76.99265033333333, "bike_id": "f11e930617ede0a79b129677a734548a", "fusion_lat": 0.0, "name": "f11e930617ede0a79b129677a734548a", "is_reserved": 0, "rental_uris": {"android": "https://dc.lft.to/lastmile_qr_scan", "ios": "https://dc.lft.to/lastmile_qr_scan"}, "fusion_lon": 0.0}, {"lat": 38.950753666666664, "is_disabled": 0, "type": "electric_scooter", "lon": -77.00879533333334, "bike_id": "a3ec710e9cc5cb15569fe1047b4d7fe3", "fusion_lat": 0.0, "name": "a3ec710e9cc5cb15569fe1047b4d7fe3", "is_reserved": 0, "rental_uris": {"android": "https://dc.lft.to/lastmile_qr_scan", "ios": "https://dc.lft.to/lastmile_qr_scan"}, "fusion_lon": 0.0}, {"lat": 38.919828833333334, "is_disabled": 0, "type": "electric_scooter", "lon": -76.9730735, "bike_id": "3af6bee022d4688a5a41ff0249a2a23b", "fusion_lat": 0.0, "name": "3af6bee022d4688a5a41ff0249a2a23b", "is_reserved": 0, "rental_uris": {"android": "https://dc.lft.to/lastmile_qr_scan", "ios": "https://dc.lft.to/lastmile_qr_scan"}, "fusion_lon": 0.0}, {"lat": 38.89980083333333, "is_disabled": 0, "type": "electric_scooter", "lon": -77.0229195, "bike_id": "5937ea4c97de840ed81a3a17d493fd1b", "fusion_lat": 0.0, "name": "5937ea4c97de840ed81a3a17d493fd1b", "is_reserved": 0, "rental_uris": {"android": "https://dc.lft.to/lastmile_qr_scan", "ios": "https://dc.lft.to/lastmile_qr_scan"}, "fusion_lon": 0.0}, {"lat": 38.8757685, "is_disabled": 0, "type": "electric_scooter", "lon": -77.01334983333334, "bike_id": "2b98ef4a0a8827e28c46097ce1a81cb6", "fusion_lat": 0.0, "name": "2b98ef4a0a8827e28c46097ce1a81cb6", "is_reserved": 0, "rental_uris": {"android": "https://dc.lft.to/lastmile_qr_scan", "ios": "https://dc.lft.to/lastmile_qr_scan"}, "fusion_lon": 0.0}, {"lat": 38.8807745, "is_disabled": 0, "type": "electric_scooter", "lon": -76.98530716666667, "bike_id": "b9b3d31354739843c6db91b38cfcb951", "fusion_lat": 0.0, "name": "b9b3d31354739843c6db91b38cfcb951", "is_reserved": 0, "rental_uris": {"android": "https://dc.lft.to/lastmile_qr_scan", "ios": "https://dc.lft.to/lastmile_qr_scan"}, "fusion_lon": 0.0}, {"lat": 38.923433, "is_disabled": 0, "type": "electric_scooter", "lon": -77.0336555, "bike_id": "d5867bc773378065caacf894484caf78", "fusion_lat": 0.0, "name": "d5867bc773378065caacf894484caf78", "is_reserved": 0, "rental_uris": {"android": "https://dc.lft.to/lastmile_qr_scan", "ios": "https://dc.lft.to/lastmile_qr_scan"}, "fusion_lon": 0.0}, {"lat": 38.876668, "is_disabled": 0, "type": "electric_scooter", "lon": -77.00439083333333, "bike_id": "2665e064300bd35969cfdba93e0e3a4f", "fusion_lat": 0.0, "name": "2665e064300bd35969cfdba93e0e3a4f", "is_reserved": 0, "rental_uris": {"android": "https://dc.lft.to/lastmile_qr_scan", "ios": "https://dc.lft.to/lastmile_qr_scan"}, "fusion_lon": 0.0}, {"lat": 38.959238166666665, "is_disabled": 0, "type": "electric_bike", "lon": -77.03120016666666, "bike_id": "433f950fb322fb141f2874a03efa889e", "fusion_lat": 0.0, "name": "433f950fb322fb141f2874a03efa889e", "is_reserved": 0, "rental_uris": {"android": "https://dc.lft.to/lastmile_qr_scan", "ios": "https://dc.lft.to/lastmile_qr_scan"}, "fusion_lon": 0.0}, {"lat": 38.908613, "is_disabled": 0, "type": "electric_bike", "lon": -77.08074783333333, "bike_id": "66457b057edc144300a5e81a350636e0", "fusion_lat": 0.0, "name": "66457b057edc144300a5e81a350636e0", "is_reserved": 0, "rental_uris": {"android": "https://dc.lft.to/lastmile_qr_scan", "ios": "https://dc.lft.to/lastmile_qr_scan"}, "fusion_lon": 0.0}, {"lat": 38.9540675, "is_disabled": 0, "type": "electric_scooter", "lon": -77.02751383333333, "bike_id": "e8180f0491dce0d91aa24e5750687a37", "fusion_lat": 0.0, "name": "e8180f0491dce0d91aa24e5750687a37", "is_reserved": 0, "rental_uris": {"android": "https://dc.lft.to/lastmile_qr_scan", "ios": "https://dc.lft.to/lastmile_qr_scan"}, "fusion_lon": 0.0}, {"lat": 38.92327983333333, "is_disabled": 0, "type": "electric_scooter", "lon": -77.03908683333333, "bike_id": "ff0851ff5cac1a7e052a648a12290924", "fusion_lat": 0.0, "name": "ff0851ff5cac1a7e052a648a12290924", "is_reserved": 0, "rental_uris": {"android": "https://dc.lft.to/lastmile_qr_scan", "ios": "https://dc.lft.to/lastmile_qr_scan"}, "fusion_lon": 0.0}, {"lat": 38.909678666666665, "is_disabled": 0, "type": "electric_scooter", "lon": -77.04515083333334, "bike_id": "149e43e41426ad3c132ea53760c2b9bb", "fusion_lat": 0.0, "name": "149e43e41426ad3c132ea53760c2b9bb", "is_reserved": 0, "rental_uris": {"android": "https://dc.lft.to/lastmile_qr_scan", "ios": "https://dc.lft.to/lastmile_qr_scan"}, "fusion_lon": 0.0}, {"lat": 38.901442333333335, "is_disabled": 0, "type": "electric_scooter", "lon": -77.00069433333333, "bike_id": "95aeddb8ed6af30da1c06e788ae07120", "fusion_lat": 0.0, "name": "95aeddb8ed6af30da1c06e788ae07120", "is_reserved": 0, "rental_uris": {"android": "https://dc.lft.to/lastmile_qr_scan", "ios": "https://dc.lft.to/lastmile_qr_scan"}, "fusion_lon": 0.0},