{"data": {"bikes": [{"rental_uris": {"android": "https://dc.lft.to/lastmile_qr_scan", "ios": "https://dc.lft.to/lastmile_qr_scan"}, "is_reserved": 0, "is_disabled": 0, "name": "892603c57c102a186c67a17734e9b808", "bike_id": "892603c57c102a186c67a17734e9b808", "fusion_lat": 0.0, "lon": -77.04070266666666, "type": "electric_scooter", "fusion_lon": 0.0, "lat": 38.90156783333333}, {"rental_uris": {"android": "https://dc.lft.to/lastmile_qr_scan", "ios": "https://dc.lft.to/lastmile_qr_scan"}, "is_reserved": 0, "is_disabled": 0, "name": "f097a879ea672dbc43ce43478abc7138", "bike_id": "f097a879ea672dbc43ce43478abc7138", "fusion_lat": 0.0, "lon": -77.032461, "type": "electric_scooter", "fusion_lon": 0.0, "lat": 38.917125666666664}, {"rental_uris": {"android": "https://dc.lft.to/lastmile_qr_scan", "ios": "https://dc.lft.to/lastmile_qr_scan"}, "is_reserved": 0, "is_disabled": 0, "name": "fb50fad290b20a830c35a0e5f05323e2", "bike_id": "fb50fad290b20a830c35a0e5f05323e2", "fusion_lat": 0.0, "lon": -77.002017, "type": "electric_scooter", "fusion_lon": 0.0, "lat": 38.90238383333333}, {"rental_uris": {"android": "https://dc.lft.to/lastmile_qr_scan", "ios": "https://dc.lft.to/lastmile_qr_scan"}, "is_reserved": 0, "is_disabled": 0, "name": "3fa6db1980998883ba3621d7d3f7f149", "bike_id": "3fa6db1980998883ba3621d7d3f7f149", "fusion_lat": 0.0, "lon": -77.00210466666667, "type": "electric_scooter", "fusion_lon": 0.0, "lat": 38.900189166666664}, {"rental_uris": {"android": "https://dc.lft.to/lastmile_qr_scan", "ios": "https://dc.lft.to/lastmile_qr_scan"}, "is_reserved": 0, "is_disabled": 0, "name": "2392104ddd106d78c81e6d75929df111", "bike_id": "2392104ddd106d78c81e6d75929df111", "fusion_lat": 0.0, "lon": -77.00180316666666, "type": "electric_scooter", "fusion_lon": 0.0, "lat": 38.908064833333334}, {"rental_uris": {"android": "https://dc.lft.to/lastmile_qr_scan", "ios": "https://dc.lft.to/lastmile_qr_scan"}, "is_reserved": 0, "is_disabled": 0, "name": "7fb04c3a2cc06d7b50bac1b15c50c4c6", "bike_id": "7fb04c3a2cc06d7b50bac1b15c50c4c6", "fusion_lat": 0.0, "lon": -77.01460233333333, "type": "electric_scooter", "fusion_lon": 0.0, "lat": 38.91771883333333}, {"rental_uris": {"android": "https://dc.lft.to/lastmile_qr_scan", "ios": "https://dc.lft.to/lastmile_qr_scan"}, "is_reserved": 0, "is_disabled": 0, "name": "2db8976cbbf730eb6347359c18839091", "bike_id": "2db8976cbbf730eb6347359c18839091", "fusion_lat": 0.0, "lon": -77.043269, "type": "electric_scooter", "fusion_lon": 0.0, "lat": 38.8922045}, {"rental_uris": {"android": "https://dc.lft.to/lastmile_qr_scan", "ios": "https://dc.lft.to/lastmile_qr_scan"}, "is_reserved": 0, "is_disabled": 0, "name": "9f70a9840abad2dc3ca966e666083392", "bike_id": "9f70a9840abad2dc3ca966e666083392", "fusion_lat": 0.0, "lon": -77.0216685, "type": "electric_scooter", "fusion_lon": 0.0, "lat": 38.924949166666664}, {"rental_uris": {"android": "https://dc.lft.to/lastmile_qr_scan", "ios": "https://dc.lft.to/lastmile_qr_scan"}, "is_reserved": 0, "is_disabled": 0, "name": "a99b1c90cd4a0657ed4ff4038d89a978", "bike_id": "a99b1c90cd4a0657ed4ff4038d89a978", "fusion_lat": 0.0, "lon": -77.08532516666666, "type": "electric_bike", "fusion_lon": 0.0, "lat": 38.85664033333333}, {"rental_uris": {"android": "https://dc.lft.to/lastmile_qr_scan", "ios": "https://dc.lft.to/lastmile_qr_scan"}, "is_reserved": 0, "is_disabled": 0, "name": "76b5575d6f7ad461637caeed71aae8f0", "bike_id": "76b5575d6f7ad461637caeed71aae8f0", "fusion_lat": 0.0, "lon": -77.035381, "type": "electric_scooter", "fusion_lon": 0.0, "lat": 38.92339833333333}, {"rental_uris": {"android": "https://dc.lft.to/lastmile_qr_scan", "ios": "https://dc.lft.to/lastmile_qr_scan"}, "is_reserved": 0, "is_disabled": 0, "name": "7eeb6eae3a96a117702361e8ac511831", "bike_id": "7eeb6eae3a96a117702361e8ac511831", "fusion_lat": 0.0, "lon": -77.01841483333334, "type": "electric_scooter", "fusion_lon": 0.0, "lat": 38.909577}, {"rental_uris": {"android": "https://dc.lft.to/lastmile_qr_scan", "ios": "https://dc.lft.to/lastmile_qr_scan"}, "is_reserved": 0, "is_disabled": 0, "name": "b243ba4c0aed236efc55b239a3df99f6", "bike_id": "b243ba4c0aed236efc55b239a3df99f6", "fusion_lat": 0.0, "lon": -77.0281395, "type": "electric_scooter", "fusion_lon": 0.0, "lat": 38.881792}, {"rental_uris": {"android": "https://dc.lft.to/lastmile_qr_scan", "ios": "https://dc.lft.to/lastmile_qr_scan"}, "is_reserved": 0, "is_disabled": 0, "name": "a5ce998f24813e5c4133e79c4c1a4f6a", "bike_id": "a5ce998f24813e5c4133e79c4c1a4f6a", "fusion_lat": 0.0, "lon": -77.0271605, "type": "electric_scooter", "fusion_lon": 0.0, "lat": 38.90678966666667}, {"rental_uris": {"android": "https://dc.lft.to/lastmile_qr_scan", "ios": "https://dc.lft.to/lastmile_qr_scan"}, "is_reserved": 0, "is_disabled": 0, "name": "2e1c78805ba658763d40149a9033109f", "bike_id": "2e1c78805ba658763d40149a9033109f", "fusion_lat": 0.0, "lon": -77.03618366666667, "type": "electric_scooter", "fusion_lon": 0.0, "lat": 38.93751916666667}, {"rental_uris": {"android": "https://dc.lft.to/lastmile_qr_scan", "ios": "https://dc.lft.to/lastmile_qr_scan"}, "is_reserved": 0, "is_disabled": 0, "name": "500d84a6d83e9aee435afd8cbe0df356", "bike_id": "500d84a6d83e9aee435afd8cbe0df356", "fusion_lat": 0.0, "lon": -77.00469133333333, "type": "electric_scooter", "fusion_lon": 0.0, "lat": 38.911483}, {"rental_uris": {"android": "https://dc.lft.to/lastmile_qr_scan", "ios": "https://dc.lft.to/lastmile_qr_scan"}, "is_reserved": 0, "is_disabled": 0, "name": "34133b772b0fac87c617879c29365959", "bike_id": "34133b772b0fac87c617879c29365959", "fusion_lat": 0.0, "lon": -77.03446666666666, "type": "electric_scooter", "fusion_lon": 0.0, "lat": 38.922203}, {"rental_uris": {"android": "https://dc.lft.to/lastmile_qr_scan", "ios": "https://dc.lft.to/lastmile_qr_scan"}, "is_reserved": 0, "is_disabled": 0, "name": "275110b50d02a9cf14395fab07939202", "bike_id": "275110b50d02a9cf14395fab07939202", "fusion_lat": 0.0, "lon": -77.0218575, "type": "electric_scooter", "fusion_lon": 0.0, "lat": 38.887126333333335}, {"rental_uris": {"android": "https://dc.lft.to/lastmile_qr_scan", "ios": "https://dc.lft.to/lastmile_qr_scan"}, "is_reserved": 0, "is_disabled": 0, "name": "96c9f6ab235ff59bbd37dbec0820ad11", "bike_id": "96c9f6ab235ff59bbd37dbec0820ad11", "fusion_lat": 0.0, "lon": -77.00356516666666, "type": "electric_scooter", "fusion_lon": 0.0, "lat": 38.87678783333333}, {"rental_uris": {"android": "https://dc.lft.to/lastmile_qr_scan", "ios": "https://dc.lft.to/lastmile_qr_scan"}, "is_reserved": 0, "is_disabled": 0, "name": "7e791400f56bb4c24a81ab0802d96d4d", "bike_id": "7e791400f56bb4c24a81ab0802d96d4d", "fusion_lat": 0.0, "lon": -77.02771883333334, "type": "electric_scooter", "fusion_lon": 0.0, "lat": 38.934176666666666}, {"rental_uris": {"android": "https://dc.lft.to/lastmile_qr_scan", "ios": "https://dc.lft.to/lastmile_qr_scan"}, "is_reserved": 0, "is_disabled": 0, "name": "5b8151229fe76dbc327df3782aa5f1b7", "bike_id": "5b8151229fe76dbc327df3782aa5f1b7", "fusion_lat": 0.0, "lon": -76.9355575, "type": "electric_scooter", "fusion_lon": 0.0, "lat": 38.88272883333333}, {"rental_uris": {"android": "https://dc.lft.to/lastmile_qr_scan", "ios": "https://dc.lft.to/lastmile_qr_scan"}, "is_reserved": 0, "is_disabled": 0, "name": "e317c4e30054a4d3dd4690931c621ae8", "bike_id": "e317c4e30054a4d3dd4690931c621ae8", "fusion_lat": 0.0, "lon": -77.00642766666667, "type": "electric_scooter", "fusion_lon": 0.0, "lat": 38.89981916666667}, {"rental_uris": {"android": "https://dc.lft.to/lastmile_qr_scan", "ios": "https://dc.lft.to/lastmile_qr_scan"}, "is_reserved": 0, "is_disabled": 0, "name": "13d526d307e77e7e8119df62e72e1523", "bike_id": "13d526d307e77e7e8119df62e72e1523", "fusion_lat": 0.0, "lon": -77.02127433333334, "type": "electric_scooter", "fusion_lon": 0.0, "lat": 38.922748}, {"rental_uris": {"android": "https://dc.lft.to/lastmile_qr_scan", "ios": "https://dc.lft.to/lastmile_qr_scan"}, "is_reserved": 0, "is_disabled": 0, "name": "f37693c58e07da289bf9a9e21bb425a5", "bike_id": "f37693c58e07da289bf9a9e21bb425a5", "fusion_lat": 0.0, "lon": -76.9655055, "type": "electric_scooter", "fusion_lon": 0.0, "lat": 38.918574166666666}, {"rental_uris": {"android": "https://dc.lft.to/lastmile_qr_scan", "ios": "https://dc.lft.to/lastmile_qr_scan"}, "is_reserved": 0, "is_disabled": 0, "name": "9579f7c8f06bc187004a409fa3d0e6c4", "bike_id": "9579f7c8f06bc187004a409fa3d0e6c4", "fusion_lat": 0.0, "lon": -77.03163616666667, "type": "electric_scooter", "fusion_lon": 0.0, "lat": 38.92969516666667}, {"rental_uris": {"android": "https://dc.lft.to/lastmile_qr_scan", "ios": "https://dc.lft.to/lastmile_qr_scan"}, "is_reserved": 0, "is_disabled": 0, "name": "d1d9cc640914c0aa46fb7bc97b04d034", "bike_id": "d1d9cc640914c0aa46fb7bc97b04d034", "fusion_lat": 0.0, "lon": -77.0551895, "type": "electric_scooter", "fusion_lon": 0.0, "lat": 38.928296}, {"rental_uris": {"android": "https://dc.lft.to/lastmile_qr_scan", "ios": "https://dc.lft.to/lastmile_qr_scan"}, "is_reserved": 0, "is_disabled": 0, "name": "93cc5956009288d514cc11dd0354b0f3", "bike_id": "93cc5956009288d514cc11dd0354b0f3", "fusion_lat": 0.0, "lon": -77.03462666666667, "type": "electric_scooter", "fusion_lon": 0.0, "lat": 38.928677}, {"rental_uris": {"android": "https://dc.lft.to/lastmile_qr_scan", "ios": "https://dc.lft.to/lastmile_qr_scan"}, "is_reserved": 0, "is_disabled": 0, "name": "10c6dddcfb83adf7bab882e5da9410a1", "bike_id": "10c6dddcfb83adf7bab882e5da9410a1", "fusion_lat": 0.0, "lon": -77.03247766666667, "type": "electric_scooter", "fusion_lon": 0.0, "lat": 38.91708083333333}, {"rental_uris": {"android": "https://dc.lft.to/lastmile_qr_scan", "ios": "https://dc.lft.to/lastmile_qr_scan"}, "is_reserved": 0, "is_disabled": 0, "name": "533540fb96895c000ffddfda03369da2", "bike_id": "533540fb96895c000ffddfda03369da2", "fusion_lat": 0.0, "lon": -76.9671215, "type": "electric_scooter", "fusion_lon": 0.0, "lat": 38.859708833333336}, {"rental_uris": {"android": "https://dc.lft.to/lastmile_qr_scan", "ios": "https://dc.lft.to/lastmile_qr_scan"}, "is_reserved": 0, "is_disabled": 0, "name": "59ac291f0a80c6e2aeed11c91dfd66cf", "bike_id": "59ac291f0a80c6e2aeed11c91dfd66cf", "fusion_lat": 0.0, "lon": -76.99540516666667, "type": "electric_bike", "fusion_lon": 0.0, "lat": 38.956351166666664}, {"rental_uris": {"android": "https://dc.lft.to/lastmile_qr_scan", "ios": "https://dc.lft.to/lastmile_qr_scan"}, "is_reserved": 0, "is_disabled": 0, "name": "e59fb572e8149b779b07914b738a91de", "bike_id": "e59fb572e8149b779b07914b738a91de", "fusion_lat": 0.0, "lon": -77.0305915, "type": "electric_scooter", "fusion_lon": 0.0, "lat": 38.9236885}, {"rental_uris": {"android": "https://dc.lft.to/lastmile_qr_scan", "ios": "https://dc.lft.to/lastmile_qr_scan"}, "is_reserved": 0, "is_disabled": 0, "name": "9a7ea6317d79cefc7dca5f7ca4e50600", "bike_id": "9a7ea6317d79cefc7dca5f7ca4e50600", "fusion_lat": 0.0, "lon": -77.02168333333333, "type": "electric_scooter", "fusion_lon": 0.0, "lat": 38.94289283333333}, {"rental_uris": {"android": "https://dc.lft.to/lastmile_qr_scan", "ios": "https://dc.lft.to/lastmile_qr_scan"}, "is_reserved": 0, "is_disabled": 0, "name": "2106e7fc2d5a2c1f60337d8e1a250b52", "bike_id": "2106e7fc2d5a2c1f60337d8e1a250b52", "fusion_lat": 0.0, "lon": -77.018677, "type": "electric_scooter", "fusion_lon": 0.0, "lat": 38.9736765}, {"rental_uris": {"android": "https://dc.lft.to/lastmile_qr_scan", "ios": "https://dc.lft.to/lastmile_qr_scan"}, "is_reserved": 0, "is_disabled": 0, "name": "21205a7507ddef60d9cb06a422890673", "bike_id": "21205a7507ddef60d9cb06a422890673", "fusion_lat": 0.0, "lon": -77.02568466666666, "type": "electric_scooter", "fusion_lon": 0.0, "lat": 38.912553}, {"rental_uris": {"android": "https://dc.lft.to/lastmile_qr_scan", "ios": "https://dc.lft.to/lastmile_qr_scan"}, "is_reserved": 0, "is_disabled": 0, "name": "423731ac57f217514866214c084017a7", "bike_id": "423731ac57f217514866214c084017a7", "fusion_lat": 0.0, "lon": -77.02696466666667, "type": "electric_scooter", "fusion_lon": 0.0, "lat": 38.92780533333333}, {"rental_uris": {"android": "https://dc.lft.to/lastmile_qr_scan", "ios": "https://dc.lft.to/lastmile_qr_scan"}, "is_reserved": 0, "is_disabled": 0, "name": "f31c1e6045fb363e599aa06a4e87a094", "bike_id": "f31c1e6045fb363e599aa06a4e87a094", "fusion_lat": 0.0, "lon": -77.041407, "type": "electric_scooter", "fusion_lon": 0.0, "lat": 38.922613}, {"rental_uris": {"android": "https://dc.lft.to/lastmile_qr_scan", "ios": "https://dc.lft.to/lastmile_qr_scan"}, "is_reserved": 0, "is_disabled": 0, "name": "ba53d3a2e52b69159ca8b01a8a1a43d2", "bike_id": "ba53d3a2e52b69159ca8b01a8a1a43d2", "fusion_lat": 0.0, "lon": -77.0831315, "type": "electric_bike", "fusion_lon": 0.0, "lat": 38.85436933333333}, {"rental_uris": {"android": "https://dc.lft.to/lastmile_qr_scan", "ios": "https://dc.lft.to/lastmile_qr_scan"}, "is_reserved": 0, "is_disabled": 0, "name": "8f7dbb91f85df8a246e7c20dce50dd40", "bike_id": "8f7dbb91f85df8a246e7c20dce50dd40", "fusion_lat": 0.0, "lon": -77.04510683333334, "type": "electric_scooter", "fusion_lon": 0.0, "lat": 38.89223533333333}, {"rental_uris": {"android": "https://dc.lft.to/lastmile_qr_scan", "ios": "https://dc.lft.to/lastmile_qr_scan"}, "is_reserved": 0, "is_disabled": 0, "name": "790677ef8eb25bd83bb41bdff9f1723f", "bike_id": "790677ef8eb25bd83bb41bdff9f1723f", "fusion_lat": 0.0, "lon": -77.02405166666667, "type": "electric_scooter", "fusion_lon": 0.0, "lat": 38.91707866666667}, {"rental_uris": {"android": "https://dc.lft.to/lastmile_qr_scan", "ios": "https://dc.lft.to/lastmile_qr_scan"}, "is_reserved": 0, "is_disabled": 0, "name": "882bd1477025a538d553d218b0a81e55", "bike_id": "882bd1477025a538d553d218b0a81e55", "fusion_lat": 0.0, "lon": -76.9352495, "type": "electric_scooter", "fusion_lon": 0.0, "lat": 38.87897983333333}, {"rental_uris": {"android": "https://dc.lft.to/lastmile_qr_scan", "ios": "https://dc.lft.to/lastmile_qr_scan"}, "is_reserved": 0, "is_disabled": 0, "name": "72ad3305da4136bec26b1fdf4ff6d7bb", "bike_id": "72ad3305da4136bec26b1fdf4ff6d7bb", "fusion_lat": 0.0, "lon": -77.005558, "type": "electric_scooter", "fusion_lon": 0.0, "lat": 38.902193}, {"rental_uris": {"android": "https://dc.lft.to/lastmile_qr_scan", "ios": "https://dc.lft.to/lastmile_qr_scan"}, "is_reserved": 0, "is_disabled": 0, "name": "ed361bdf2463307aa0ff48f97c15e1e9", "bike_id": "ed361bdf2463307aa0ff48f97c15e1e9", "fusion_lat": 0.0, "lon": -77.03186916666667, "type": "electric_scooter", "fusion_lon": 0.0, "lat": 38.91344216666667}, {"rental_uris": {"android": "https://dc.lft.to/lastmile_qr_scan", "ios": "https://dc.lft.to/lastmile_qr_scan"}, "is_reserved": 0, "is_disabled": 0, "name": "6b5a4cf7532f550293633824f16fc6a4", "bike_id": "6b5a4cf7532f550293633824f16fc6a4", "fusion_lat": 0.0, "lon": -77.02823183333334, "type": "electric_scooter", "fusion_lon": 0.0, "lat": 38.91748966666667}, {"rental_uris": {"android": "https://dc.lft.to/lastmile_qr_scan", "ios": "https://dc.lft.to/lastmile_qr_scan"}, "is_reserved": 0, "is_disabled": 0, "name": "6f7affe95b4180fa71382de44dce80ff", "bike_id": "6f7affe95b4180fa71382de44dce80ff", "fusion_lat": 0.0, "lon": -77.03269233333333, "type": "electric_scooter", "fusion_lon": 0.0, "lat": 38.920026166666666}, {"rental_uris": {"android": "https://dc.lft.to/lastmile_qr_scan", "ios": "https://dc.lft.to/lastmile_qr_scan"}, "is_reserved": 0, "is_disabled": 0, "name": "5eaacd7c1d085721c250696699a64acb", "bike_id": "5eaacd7c1d085721c250696699a64acb", "fusion_lat": 0.0, "lon": -77.03577316666667, "type": "electric_scooter", "fusion_lon": 0.0, "lat": 38.90811133333333}, {"rental_uris": {"android": "https://dc.lft.to/lastmile_qr_scan", "ios": "https://dc.lft.to/lastmile_qr_scan"}, "is_reserved": 0, "is_disabled": 0, "name": "f258dd50b5ce6990ba2ee225a7730170", "bike_id": "f258dd50b5ce6990ba2ee225a7730170", "fusion_lat": 0.0, "lon": -76.98542483333334, "type": "electric_scooter", "fusion_lon": 0.0, "lat": 38.90587133333333}, {"rental_uris": {"android": "https://dc.lft.to/lastmile_qr_scan", "ios": "https://dc.lft.to/lastmile_qr_scan"}, "is_reserved": 0, "is_disabled": 0, "name": "72ad1fb070bcbe04cce89c77bc073195", "bike_id": "72ad1fb070bcbe04cce89c77bc073195", "fusion_lat": 0.0, "lon": -77.02508016666667, "type": "electric_scooter", "fusion_lon": 0.0, "lat": 38.919435166666666}, {"rental_uris": {"android": "https://dc.lft.to/lastmile_qr_scan", "ios": "https://dc.lft.to/lastmile_qr_scan"}, "is_reserved": 0, "is_disabled": 0, "name": "73d9ad91e66041cd96988f7d169dde74", "bike_id": "73d9ad91e66041cd96988f7d169dde74", "fusion_lat": 0.0, "lon": -76.977016, "type": "electric_bike", "fusion_lon": 0.0, "lat": 38.822082}, {"rental_uris": {"android": "https://dc.lft.to/lastmile_qr_scan", "ios": "https://dc.lft.to/lastmile_qr_scan"}, "is_reserved": 0, "is_disabled": 0, "name": "32724ff77ac329767349e1ac8f74c2c2", "bike_id": "32724ff77ac329767349e1ac8f74c2c2", "fusion_lat": 0.0, "lon": -76.95461216666666, "type": "electric_bike", "fusion_lon": 0.0, "lat": 38.936335166666666}, {"rental_uris": {"android": "https://dc.lft.to/lastmile_qr_scan", "ios": "https://dc.lft.to/lastmile_qr_scan"}, "is_reserved": 0, "is_disabled": 0, "name": "e4bdb228fec7643a060d907816a314b4", "bike_id": "e4bdb228fec7643a060d907816a314b4", "fusion_lat": 0.0, "lon": -77.02089816666667, "type": "electric_scooter", "fusion_lon": 0.0, "lat": 38.921731666666666}, {"rental_uris": {"android": "https://dc.lft.to/lastmile_qr_scan", "ios": "https://dc.lft.to/lastmile_qr_scan"}, "is_reserved": 0, "is_disabled": 0, "name": "40bdbf3d61e5bc444d3d4b7e9e647abc", "bike_id": "40bdbf3d61e5bc444d3d4b7e9e647abc", "fusion_lat": 0.0, "lon": -77.0239825, "type": "electric_scooter", "fusion_lon": 0.0, "lat": 38.90963416666666}, {"rental_uris": {"android": "https://dc.lft.to/lastmile_qr_scan", "ios": "https://dc.lft.to/lastmile_qr_scan"}, "is_reserved": 0, "is_disabled": 0, "name": "6fae33a092ad7014aa92281edb1d3751", "bike_id": "6fae33a092ad7014aa92281edb1d3751", "fusion_lat": 0.0, "lon": -77.03266416666666, "type": "electric_scooter", "fusion_lon": 0.0, "lat": 38.932187666666664}, {"rental_uris": {"android": "https://dc.lft.to/lastmile_qr_scan", "ios": "https://dc.lft.to/lastmile_qr_scan"}, "is_reserved": 0, "is_disabled": 0, "name": "347336d1a8a323aaae3a1207bdc7d8f9", "bike_id": "347336d1a8a323aaae3a1207bdc7d8f9", "fusion_lat": 0.0, "lon": -77.01108183333334, "type": "electric_scooter", "fusion_lon": 0.0, "lat": 38.909654}, {"rental_uris": {"android": "https://dc.lft.to/lastmile_qr_scan", "ios": "https://dc.lft.to/lastmile_qr_scan"}, "is_reserved": 0, "is_disabled": 0, "name": "4b539c30774cffa6846289807f9db877", "bike_id": "4b539c30774cffa6846289807f9db877", "fusion_lat": 0.0, "lon": -77.04156966666666, "type": "electric_scooter", "fusion_lon": 0.0, "lat": 38.90112466666667}, {"rental_uris": {"android": "https://dc.lft.to/lastmile_qr_scan", "ios": "https://dc.lft.to/lastmile_qr_scan"}, "is_reserved": 0, "is_disabled": 0, "name": "6abb9b6011468aae608a127bec546f57", "bike_id": "6abb9b6011468aae608a127bec546f57", "fusion_lat": 0.0, "lon": -77.0433355, "type": "electric_scooter", "fusion_lon": 0.0, "lat": 38.905287}, {"rental_uris": {"android": "https://dc.lft.to/lastmile_qr_scan", "ios": "https://dc.lft.to/lastmile_qr_scan"}, "is_reserved": 0, "is_disabled": 0, "name": "4ca486f4d55c8a251bea3859c4c2ad10", "bike_id": "4ca486f4d55c8a251bea3859c4c2ad10", "fusion_lat": 0.0, "lon": -77.051335, "type": "electric_bike", "fusion_lon": 0.0, "lat": 38.921705333333335}, {"rental_uris": {"android": "https://dc.lft.to/lastmile_qr_scan", "ios": "https://dc.lft.to/lastmile_qr_scan"}, "is_reserved": 0, "is_disabled": 0, "name": "3d6093a377382a8fabaced7c0e15380e", "bike_id": "3d6093a377382a8fabaced7c0e15380e", "fusion_lat": 0.0, "lon": -77.03838433333334, "type": "electric_scooter", "fusion_lon": 0.0, "lat": 38.921755166666664}, {"rental_uris": {"android": "https://dc.lft.to/lastmile_qr_scan", "ios": "https://dc.lft.to/lastmile_qr_scan"}, "is_reserved": 0, "is_disabled": 0, "name": "c3b7126ef431e7d72b2f6de8a06478c0", "bike_id": "c3b7126ef431e7d72b2f6de8a06478c0", "fusion_lat": 0.0, "lon": -77.0348145, "type": "electric_scooter", "fusion_lon": 0.0, "lat": 38.905734333333335}, {"rental_uris": {"android": "https://dc.lft.to/lastmile_qr_scan", "ios": "https://dc.lft.to/lastmile_qr_scan"}, "is_reserved": 0, "is_disabled": 0, "name": "0751c8df3e5fc2b9a7407afc1ee5f368", "bike_id": "0751c8df3e5fc2b9a7407afc1ee5f368", "fusion_lat": 0.0, "lon": -77.02608733333334, "type": "electric_scooter", "fusion_lon": 0.0, "lat": 38.9203585}, {"rental_uris": {"android": "https://dc.lft.to/lastmile_qr_scan", "ios": "https://dc.lft.to/lastmile_qr_scan"}, "is_reserved": 0, "is_disabled": 0, "name": "d728871850793559491e252b891042b6", "bike_id": "d728871850793559491e252b891042b6", "fusion_lat": 0.0, "lon": -77.06927966666667, "type": "electric_scooter", "fusion_lon": 0.0, "lat": 38.952177}, {"rental_uris": {"android": "https://dc.lft.to/lastmile_qr_scan", "ios": "https://dc.lft.to/lastmile_qr_scan"}, "is_reserved": 0, "is_disabled": 0, "name": "92dcbe9a3a89feb0f4e1e28ecdf8471f", "bike_id": "92dcbe9a3a89feb0f4e1e28ecdf8471f", "fusion_lat": 0.0, "lon": -77.041388, "type": "electric_scooter", "fusion_lon": 0.0, "lat": 38.9168415}, {"rental_uris": {"android": "https://dc.lft.to/lastmile_qr_scan", "ios": "https://dc.lft.to/lastmile_qr_scan"}, "is_reserved": 0, "is_disabled": 0, "name": "6ea81da3c7a4100a9d368f77c5f76d85", "bike_id": "6ea81da3c7a4100a9d368f77c5f76d85", "fusion_lat": 0.0, "lon": -76.99166516666666, "type": "electric_scooter", "fusion_lon": 0.0, "lat": 38.90852683333333}, {"rental_uris": {"android": "https://dc.lft.to/lastmile_qr_scan", "ios": "https://dc.lft.to/lastmile_qr_scan"}, "is_reserved": 0, "is_disabled": 0, "name": "5cfa11fe9d80503a60286ac48d59cc16", "bike_id": "5cfa11fe9d80503a60286ac48d59cc16", "fusion_lat": 0.0, "lon": -77.029865, "type": "electric_scooter", "fusion_lon": 0.0, "lat": 38.9073405}, {"rental_uris": {"android": "https://dc.lft.to/lastmile_qr_scan", "ios": "https://dc.lft.to/lastmile_qr_scan"}, "is_reserved": 0, "is_disabled": 0, "name": "d4e469af9dfc7750f929f227b8f0e7f1", "bike_id": "d4e469af9dfc7750f929f227b8f0e7f1", "fusion_lat": 0.0, "lon": -77.03260366666666, "type": "electric_scooter", "fusion_lon": 0.0, "lat": 38.91997716666667}, {"rental_uris": {"android": "https://dc.lft.to/lastmile_qr_scan", "ios": "https://dc.lft.to/lastmile_qr_scan"}, "is_reserved": 0, "is_disabled": 0, "name": "4f482f2024aaca27f2f0c976cfe7c280", "bike_id": "4f482f2024aaca27f2f0c976cfe7c280", "fusion_lat": 0.0, "lon": -77.0852385, "type": "electric_bike", "fusion_lon": 0.0, "lat": 38.858601166666666}, {"rental_uris": {"android": "https://dc.lft.to/lastmile_qr_scan", "ios": "https://dc.lft.to/lastmile_qr_scan"}, "is_reserved": 0, "is_disabled": 0, "name": "ffcbd16d655db2663b7d91ee5ce728b4", "bike_id": "ffcbd16d655db2663b7d91ee5ce728b4", "fusion_lat": 0.0, "lon": -77.001217, "type": "electric_scooter", "fusion_lon": 0.0, "lat": 38.87628183333333}, {"rental_uris": {"android": "https://dc.lft.to/lastmile_qr_scan", "ios": "https://dc.lft.to/lastmile_qr_scan"}, "is_reserved": 0, "is_disabled": 0, "name": "e9efb36b8dd8a58fdfa5211f72acd449", "bike_id": "e9efb36b8dd8a58fdfa5211f72acd449", "fusion_lat": 0.0, "lon": -77.02406066666667, "type": "electric_scooter", "fusion_lon": 0.0, "lat": 38.931112166666665}, {"rental_uris": {"android": "https://dc.lft.to/lastmile_qr_scan", "ios": "https://dc.lft.to/lastmile_qr_scan"}, "is_reserved": 0, "is_disabled": 0, "name": "0eed44ad22ccbb39ce0a0262db5212ea", "bike_id": "0eed44ad22ccbb39ce0a0262db5212ea", "fusion_lat": 0.0, "lon": -77.023221, "type": "electric_scooter", "fusion_lon": 0.0, "lat": 38.920917833333334}, {"rental_uris": {"android": "https://dc.lft.to/lastmile_qr_scan", "ios": "https://dc.lft.to/lastmile_qr_scan"}, "is_reserved": 0, "is_disabled": 0, "name": "86e10f682054380d1ce33bacbfe59133", "bike_id": "86e10f682054380d1ce33bacbfe59133", "fusion_lat": 0.0, "lon": -77.01359216666667, "type": "electric_scooter", "fusion_lon": 0.0, "lat": 38.89815816666667}, {"rental_uris": {"android": "https://dc.lft.to/lastmile_qr_scan", "ios": "https://dc.lft.to/lastmile_qr_scan"}, "is_reserved": 0, "is_disabled": 0, "name": "5ddfe66f8fb074cc2ae70bc6ead388b5", "bike_id": "5ddfe66f8fb074cc2ae70bc6ead388b5", "fusion_lat": 0.0, "lon": -77.04468566666667, "type": "electric_scooter", "fusion_lon": 0.0, "lat": 38.9189415}, {"rental_uris": {"android": "https://dc.lft.to/lastmile_qr_scan", "ios": "https://dc.lft.to/lastmile_qr_scan"}, "is_reserved": 0, "is_disabled": 0, "name": "a36e26d6cf16c8680ef4aece40dccda0", "bike_id": "a36e26d6cf16c8680ef4aece40dccda0", "fusion_lat": 0.0, "lon": -77.02370516666667, "type": "electric_scooter", "fusion_lon": 0.0, "lat": 38.89819083333333}, {"rental_uris": {"android": "https://dc.lft.to/lastmile_qr_scan", "ios": "https://dc.lft.to/lastmile_qr_scan"}, "is_reserved": 0, "is_disabled": 0, "name": "be4b2114b597969983ce32a068c1afe5", "bike_id": "be4b2114b597969983ce32a068c1afe5", "fusion_lat": 0.0, "lon": -77.01816666666667, "type": "electric_scooter", "fusion_lon": 0.0, "lat": 38.921528333333335}, {"rental_uris": {"android": "https://dc.lft.to/lastmile_qr_scan", "ios": "https://dc.lft.to/lastmile_qr_scan"}, "is_reserved": 0, "is_disabled": 0, "name": "0d3533847522f85c7183db130e7ad331", "bike_id": "0d3533847522f85c7183db130e7ad331", "fusion_lat": 0.0, "lon": -77.07854133333333, "type": "electric_scooter", "fusion_lon": 0.0, "lat": 38.945979666666666}, {"rental_uris": {"android": "https://dc.lft.to/lastmile_qr_scan", "ios": "https://dc.lft.to/lastmile_qr_scan"}, "is_reserved": 0, "is_disabled": 0, "name": "7bea3732db6e3f310221fe21a34c3d73", "bike_id": "7bea3732db6e3f310221fe21a34c3d73", "fusion_lat": 0.0, "lon": -77.04156116666667, "type": "electric_scooter", "fusion_lon": 0.0, "lat": 38.91714316666667}, {"rental_uris": {"android": "https://dc.lft.to/lastmile_qr_scan", "ios": "https://dc.lft.to/lastmile_qr_scan"}, "is_reserved": 0, "is_disabled": 0, "name": "fd73ab6ea9e371039622ce211f49ef16", "bike_id": "fd73ab6ea9e371039622ce211f49ef16", "fusion_lat": 0.0, "lon": -77.05359683333333, "type": "electric_scooter", "fusion_lon": 0.0, "lat": 38.9271895}, {"rental_uris": {"android": "https://dc.lft.to/lastmile_qr_scan", "ios": "https://dc.lft.to/lastmile_qr_scan"}, "is_reserved": 0, "is_disabled": 0, "name": "ebe460e8d38360ee575e27c75168e675", "bike_id": "ebe460e8d38360ee575e27c75168e675", "fusion_lat": 0.0, "lon": -77.03440316666666, "type": "electric_scooter", "fusion_lon": 0.0, "lat": 38.91805083333333}, {"rental_uris": {"android": "https://dc.lft.to/lastmile_qr_scan", "ios": "https://dc.lft.to/lastmile_qr_scan"}, "is_reserved": 0, "is_disabled": 0, "name": "9bee287a303b4e54300e0c6a7b99ca2a", "bike_id": "9bee287a303b4e54300e0c6a7b99ca2a", "fusion_lat": 0.0, "lon": -76.98114833333334, "type": "electric_bike", "fusion_lon": 0.0, "lat": 38.94570933333333}, {"rental_uris": {"android": "https://dc.lft.to/lastmile_qr_scan", "ios": "https://dc.lft.to/lastmile_qr_scan"}, "is_reserved": 0, "is_disabled": 0, "name": "a108c791d4ed32e0eacd0528620eb315", "bike_id": "a108c791d4ed32e0eacd0528620eb315", "fusion_lat": 0.0, "lon": -77.04564583333334, "type": "electric_scooter", "fusion_lon": 0.0, "lat": 38.91940733333333}, {"rental_uris": {"android": "https://dc.lft.to/lastmile_qr_scan", "ios": "https://dc.lft.to/lastmile_qr_scan"}, "is_reserved": 0, "is_disabled": 0, "name": "a83ea3f607b4b01caddc51e1c4ad6bfb", "bike_id": "a83ea3f607b4b01caddc51e1c4ad6bfb", "fusion_lat": 0.0, "lon": -77.040232, "type": "electric_scooter", "fusion_lon": 0.0, "lat": 38.898335333333335}, {"rental_uris": {"android": "https://dc.lft.to/lastmile_qr_scan", "ios": "https://dc.lft.to/lastmile_qr_scan"}, "is_reserved": 0, "is_disabled": 0, "name": "f65cbda5f6de2c03e881797a27bee930", "bike_id": "f65cbda5f6de2c03e881797a27bee930", "fusion_lat": 0.0, "lon": -76.98388816666667, "type": "electric_scooter", "fusion_lon": 0.0, "lat": 38.8794285}, {"rental_uris": {"android": "https://dc.lft.to/lastmile_qr_scan", "ios": "https://dc.lft.to/lastmile_qr_scan"}, "is_reserved": 0, "is_disabled": 0, "name": "7fbae936290d2d7579e1c1c61814036e", "bike_id": "7fbae936290d2d7579e1c1c61814036e", "fusion_lat": 0.0, "lon": -77.08246383333334, "type": "electric_scooter", "fusion_lon": 0.0, "lat": 38.907388833333336}, {"rental_uris": {"android": "https://dc.lft.to/lastmile_qr_scan", "ios": "https://dc.lft.to/lastmile_qr_scan"}, "is_reserved": 0, "is_disabled": 0, "name": "95a3f7255479c5604200b871012f08d2", "bike_id": "95a3f7255479c5604200b871012f08d2", "fusion_lat": 0.0, "lon": -77.03192883333334, "type": "electric_scooter", "fusion_lon": 0.0, "lat": 38.9114965}, {"rental_uris": {"android": "https://dc.lft.to/lastmile_qr_scan", "ios": "https://dc.lft.to/lastmile_qr_scan"}, "is_reserved": 0, "is_disabled": 0, "name": "b40f1241c719c2ca2293f7a85faa643d", "bike_id": "b40f1241c719c2ca2293f7a85faa643d", "fusion_lat": 0.0, "lon": -77.010401, "type": "electric_scooter", "fusion_lon": 0.0, "lat": 38.921220166666664}, {"rental_uris": {"android": "https://dc.lft.to/lastmile_qr_scan", "ios": "https://dc.lft.to/lastmile_qr_scan"}, "is_reserved": 0, "is_disabled": 0, "name": "fee3a823c249fdc15e9b1482ee29a2af", "bike_id": "fee3a823c249fdc15e9b1482ee29a2af", "fusion_lat": 0.0, "lon": -77.050265, "type": "electric_scooter", "fusion_lon": 0.0, "lat": 38.896583666666665}, {"rental_uris": {"android": "https://dc.lft.to/lastmile_qr_scan", "ios": "https://dc.lft.to/lastmile_qr_scan"}, "is_reserved": 0, "is_disabled": 0, "name": "c38bc28f0597deced106fab1d22ce83f", "bike_id": "c38bc28f0597deced106fab1d22ce83f", "fusion_lat": 0.0, "lon": -76.9974975, "type": "electric_bike", "fusion_lon": 0.0, "lat": 38.9240895}, {"rental_uris": {"android": "https://dc.lft.to/lastmile_qr_scan", "ios": "https://dc.lft.to/lastmile_qr_scan"}, "is_reserved": 0, "is_disabled": 0, "name": "2a3309e2dbca790757cfab00c0a2fea0", "bike_id": "2a3309e2dbca790757cfab00c0a2fea0", "fusion_lat": 0.0, "lon": -77.02729283333333, "type": "electric_scooter", "fusion_lon": 0.0, "lat": 38.93253416666667}, {"rental_uris": {"android": "https://dc.lft.to/lastmile_qr_scan", "ios": "https://dc.lft.to/lastmile_qr_scan"}, "is_reserved": 0, "is_disabled": 0, "name": "2159ee0bc61f8e973b893a792172e7de", "bike_id": "2159ee0bc61f8e973b893a792172e7de", "fusion_lat": 0.0, "lon": -77.0431245, "type": "electric_scooter", "fusion_lon": 0.0, "lat": 38.918837}, {"rental_uris": {"android": "https://dc.lft.to/lastmile_qr_scan", "ios": "https://dc.lft.to/lastmile_qr_scan"}, "is_reserved": 0, "is_disabled": 0, "name": "888df98a90696d193ad2f101175c1c0c", "bike_id": "888df98a90696d193ad2f101175c1c0c", "fusion_lat": 0.0, "lon": -77.0295185, "type": "electric_scooter", "fusion_lon": 0.0, "lat": 38.91652233333333}, {"rental_uris": {"android": "https://dc.lft.to/lastmile_qr_scan", "ios": "https://dc.lft.to/lastmile_qr_scan"}, "is_reserved": 0, "is_disabled": 0, "name": "3a06f1f2f6734ff09e4ee674b2fafe1d", "bike_id": "3a06f1f2f6734ff09e4ee674b2fafe1d", "fusion_lat": 0.0, "lon": -77.03178416666667, "type": "electric_scooter", "fusion_lon": 0.0, "lat": 38.91931566666667}, {"rental_uris": {"android": "https://dc.lft.to/lastmile_qr_scan", "ios": "https://dc.lft.to/lastmile_qr_scan"}, "is_reserved": 0, "is_disabled": 0, "name": "4630a54c50acf32d0ded2bedf21d6922", "bike_id": "4630a54c50acf32d0ded2bedf21d6922", "fusion_lat": 0.0, "lon": -77.02607933333333, "type": "electric_scooter", "fusion_lon": 0.0, "lat": 38.92037416666667}, {"rental_uris": {"android": "https://dc.lft.to/lastmile_qr_scan", "ios": "https://dc.lft.to/lastmile_qr_scan"}, "is_reserved": 0, "is_disabled": 0, "name": "42722b62fc3aa2e010bdb292eb3da815", "bike_id": "42722b62fc3aa2e010bdb292eb3da815", "fusion_lat": 0.0, "lon": -77.02861916666667, "type": "electric_scooter", "fusion_lon": 0.0, "lat": 38.93532883333334}, {"rental_uris": {"android": "https://dc.lft.to/lastmile_qr_scan", "ios": "https://dc.lft.to/lastmile_qr_scan"}, "is_reserved": 0, "is_disabled": 0, "name": "20d50fb770daab0584284c88c90af72f", "bike_id": "20d50fb770daab0584284c88c90af72f", "fusion_lat": 0.0, "lon": -77.05126016666667, "type": "electric_scooter", "fusion_lon": 0.0, "lat": 38.906512166666666}, {"rental_uris": {"android": "https://dc.lft.to/lastmile_qr_scan", "ios": "https://dc.lft.to/lastmile_qr_scan"}, "is_reserved": 0, "is_disabled": 0, "name": "224321253d8c73991bf89e5cf73aa5bf", "bike_id": "224321253d8c73991bf89e5cf73aa5bf", "fusion_lat": 0.0, "lon": -77.0059945, "type": "electric_scooter", "fusion_lon": 0.0, "lat": 38.875418}, {"rental_uris": {"android": "https://dc.lft.to/lastmile_qr_scan", "ios": "https://dc.lft.to/lastmile_qr_scan"}, "is_reserved": 0, "is_disabled": 0, "name": "dbc6a20767568cf9ce7f5280d6674f25", "bike_id": "dbc6a20767568cf9ce7f5280d6674f25", "fusion_lat": 0.0, "lon": -77.02303216666667, "type": "electric_scooter", "fusion_lon": 0.0, "lat": 38.91687866666667}, {"rental_uris": {"android": "https://dc.lft.to/lastmile_qr_scan", "ios": "https://dc.lft.to/lastmile_qr_scan"}, "is_reserved": 0, "is_disabled": 0, "name": "c5b247cfe0901f2d6b2719961d688955", "bike_id": "c5b247cfe0901f2d6b2719961d688955", "fusion_lat": 0.0, "lon": -77.03199383333333, "type": "electric_scooter", "fusion_lon": 0.0, "lat": 38.91593666666667}, {"rental_uris": {"android": "https://dc.lft.to/lastmile_qr_scan", "ios": "https://dc.lft.to/lastmile_qr_scan"}, "is_reserved": 0, "is_disabled": 0, "name": "63a594649da29b12d920c592bf4c0a85", "bike_id": "63a594649da29b12d920c592bf4c0a85", "fusion_lat": 0.0, "lon": -77.0266555, "type": "electric_scooter", "fusion_lon": 0.0, "lat": 38.92175266666667}, {"rental_uris": {"android": "https://dc.lft.to/lastmile_qr_scan", "ios": "https://dc.lft.to/lastmile_qr_scan"}, "is_reserved": 0, "is_disabled": 0, "name": "df4d8c8891b6d395525ed9cc52b4f4e0", "bike_id": "df4d8c8891b6d395525ed9cc52b4f4e0", "fusion_lat": 0.0, "lon": -77.0332545, "type": "electric_scooter", "fusion_lon": 0.0, "lat": 38.90012316666667}, {"rental_uris": {"android": "https://dc.lft.to/lastmile_qr_scan", "ios": "https://dc.lft.to/lastmile_qr_scan"}, "is_reserved": 0, "is_disabled": 0, "name": "214e487970322dc5dc71b474d2a8681d", "bike_id": "214e487970322dc5dc71b474d2a8681d", "fusion_lat": 0.0, "lon": -77.02140683333333, "type": "electric_scooter", "fusion_lon": 0.0, "lat": 38.904822833333334}, {"rental_uris": {"android": "https://dc.lft.to/lastmile_qr_scan", "ios": "https://dc.lft.to/lastmile_qr_scan"}, "is_reserved": 0, "is_disabled": 0, "name": "ffbb7c2399f92e122bcc32b4a290c6ef", "bike_id": "ffbb7c2399f92e122bcc32b4a290c6ef", "fusion_lat": 0.0, "lon": -77.0434045, "type": "electric_scooter", "fusion_lon": 0.0, "lat": 38.91312583333333}, {"rental_uris": {"android": "https://dc.lft.to/lastmile_qr_scan", "ios": "https://dc.lft.to/lastmile_qr_scan"}, "is_reserved": 0, "is_disabled": 0, "name": "fade423d64ad663ce37ecb833473d86f", "bike_id": "fade423d64ad663ce37ecb833473d86f", "fusion_lat": 0.0, "lon": -77.02081566666666, "type": "electric_scooter", "fusion_lon": 0.0, "lat": 38.927189}, {"rental_uris": {"android": "https://dc.lft.to/lastmile_qr_scan", "ios": "https://dc.lft.to/lastmile_qr_scan"}, "is_reserved": 0, "is_disabled": 0, "name": "b93ca2ba5a41a0be25bbf239f70c0300", "bike_id": "b93ca2ba5a41a0be25bbf239f70c0300", "fusion_lat": 0.0, "lon": -77.02695833333334, "type": "electric_scooter", "fusion_lon": 0.0, "lat": 38.949799666666664}, {"rental_uris": {"android": "https://dc.lft.to/lastmile_qr_scan", "ios": "https://dc.lft.to/lastmile_qr_scan"}, "is_reserved": 0, "is_disabled": 0, "name": "47120e5672a4d6e0598a5ad689fbe74b", "bike_id": "47120e5672a4d6e0598a5ad689fbe74b", "fusion_lat": 0.0, "lon": -76.984954, "type": "electric_scooter", "fusion_lon": 0.0, "lat": 38.860599}, {"rental_uris": {"android": "https://dc.lft.to/lastmile_qr_scan", "ios": "https://dc.lft.to/lastmile_qr_scan"}, "is_reserved": 0, "is_disabled": 0, "name": "f71c0e279bbecb1afa0fae9771facc43", "bike_id": "f71c0e279bbecb1afa0fae9771facc43", "fusion_lat": 0.0, "lon": -77.03268983333334, "type": "electric_scooter", "fusion_lon": 0.0, "lat": 38.93420733333333}, {"rental_uris": {"android": "https://dc.lft.to/lastmile_qr_scan", "ios": "https://dc.lft.to/lastmile_qr_scan"}, "is_reserved": 0, "is_disabled": 0, "name": "651279f19ff4f6476c495fb7a6b3df7a", "bike_id": "651279f19ff4f6476c495fb7a6b3df7a", "fusion_lat": 0.0, "lon": -77.03347566666666, "type": "electric_scooter", "fusion_lon": 0.0, "lat": 38.90284333333334}, {"rental_uris": {"android": "https://dc.lft.to/lastmile_qr_scan", "ios": "https://dc.lft.to/lastmile_qr_scan"}, "is_reserved": 0, "is_disabled": 0, "name": "e21e190ab32eab08babbb1dad744b74d", "bike_id": "e21e190ab32eab08babbb1dad744b74d", "fusion_lat": 0.0, "lon": -76.94574833333333, "type": "electric_scooter", "fusion_lon": 0.0, "lat": 38.89922216666667}, {"rental_uris": {"android": "https://dc.lft.to/lastmile_qr_scan", "ios": "https://dc.lft.to/lastmile_qr_scan"}, "is_reserved": 0, "is_disabled": 0, "name": "1360fef0be6d8f4bc45710936979df6f", "bike_id": "1360fef0be6d8f4bc45710936979df6f", "fusion_lat": 0.0, "lon": -77.12738716666667, "type": "electric_bike", "fusion_lon": 0.0, "lat": 38.895647333333336}, {"rental_uris": {"android": "https://dc.lft.to/lastmile_qr_scan", "ios": "https://dc.lft.to/lastmile_qr_scan"}, "is_reserved": 0, "is_disabled": 0, "name": "4ea82224f8295e2cde537daad3abba77", "bike_id": "4ea82224f8295e2cde537daad3abba77", "fusion_lat": 0.0, "lon": -77.03879083333334, "type": "electric_bike", "fusion_lon": 0.0, "lat": 39.02620433333333}, {"rental_uris": {"android": "https://dc.lft.to/lastmile_qr_scan", "ios": "https://dc.lft.to/lastmile_qr_scan"}, "is_reserved": 0, "is_disabled": 0, "name": "02f20375671c9c87283a414bde06a7d0", "bike_id": "02f20375671c9c87283a414bde06a7d0", "fusion_lat": 0.0, "lon": -77.00462233333333, "type": "electric_scooter", "fusion_lon": 0.0, "lat": 38.911551833333334}, {"rental_uris": {"android": "https://dc.lft.to/lastmile_qr_scan", "ios": "https://dc.lft.to/lastmile_qr_scan"}, "is_reserved": 0, "is_disabled": 0, "name": "c5f3890d76e8f693a5353fb4492266e9", "bike_id": "c5f3890d76e8f693a5353fb4492266e9", "fusion_lat": 0.0, "lon": -77.0457405, "type": "electric_scooter", "fusion_lon": 0.0, "lat": 38.90708516666667}, {"rental_uris": {"android": "https://dc.lft.to/lastmile_qr_scan", "ios": "https://dc.lft.to/lastmile_qr_scan"}, "is_reserved": 0, "is_disabled": 0, "name": "eb2f03626354789f3186910484d8af81", "bike_id": "eb2f03626354789f3186910484d8af81", "fusion_lat": 0.0, "lon": -76.97915883333333, "type": "electric_bike", "fusion_lon": 0.0, "lat": 38.958507166666664}, {"rental_uris": {"android": "https://dc.lft.to/lastmile_qr_scan", "ios": "https://dc.lft.to/lastmile_qr_scan"}, "is_reserved": 0, "is_disabled": 0, "name": "73a4bb5de7fff3b4a4e85035ebcb9f3f", "bike_id": "73a4bb5de7fff3b4a4e85035ebcb9f3f", "fusion_lat": 0.0, "lon": -77.01139433333333, "type": "electric_scooter", "fusion_lon": 0.0, "lat": 38.89662583333333}, {"rental_uris": {"android": "https://dc.lft.to/lastmile_qr_scan", "ios": "https://dc.lft.to/lastmile_qr_scan"}, "is_reserved": 0, "is_disabled": 0, "name": "a0607e80f05c98a8a0a6ed3b9c10b802", "bike_id": "a0607e80f05c98a8a0a6ed3b9c10b802", "fusion_lat": 0.0, "lon": -77.02717916666667, "type": "electric_scooter", "fusion_lon": 0.0, "lat": 38.92223233333333}, {"rental_uris": {"android": "https://dc.lft.to/lastmile_qr_scan", "ios": "https://dc.lft.to/lastmile_qr_scan"}, "is_reserved": 0, "is_disabled": 0, "name": "ed46532c5e09478a10eb8d61c5370dc0", "bike_id": "ed46532c5e09478a10eb8d61c5370dc0", "fusion_lat": 0.0, "lon": -77.02380783333334, "type": "electric_scooter", "fusion_lon": 0.0, "lat": 38.891966833333335}, {"rental_uris": {"android": "https://dc.lft.to/lastmile_qr_scan", "ios": "https://dc.lft.to/lastmile_qr_scan"}, "is_reserved": 0, "is_disabled": 0, "name": "5ea51ea38de7f121a15d0ec475f4059e", "bike_id": "5ea51ea38de7f121a15d0ec475f4059e", "fusion_lat": 0.0, "lon": -77.09616016666666, "type": "electric_bike", "fusion_lon": 0.0, "lat": 38.97439683333333}, {"rental_uris": {"android": "https://dc.lft.to/lastmile_qr_scan", "ios": "https://dc.lft.to/lastmile_qr_scan"}, "is_reserved": 0, "is_disabled": 0, "name": "758f813178dfac5d5c64181b6b3552cf", "bike_id": "758f813178dfac5d5c64181b6b3552cf", "fusion_lat": 0.0, "lon": -76.95349766666666, "type": "electric_bike", "fusion_lon": 0.0, "lat": 38.9417075}, {"rental_uris": {"android": "https://dc.lft.to/lastmile_qr_scan", "ios": "https://dc.lft.to/lastmile_qr_scan"}, "is_reserved": 0, "is_disabled": 0, "name": "441326ac8af0a55f1da98fef29ea010c", "bike_id": "441326ac8af0a55f1da98fef29ea010c", "fusion_lat": 0.0, "lon": -77.06866033333333, "type": "electric_scooter", "fusion_lon": 0.0, "lat": 38.930169}, {"rental_uris": {"android": "https://dc.lft.to/lastmile_qr_scan", "ios": "https://dc.lft.to/lastmile_qr_scan"}, "is_reserved": 0, "is_disabled": 0, "name": "bdeb08c36ebe0a82c1d3353e275a8a0c", "bike_id": "bdeb08c36ebe0a82c1d3353e275a8a0c", "fusion_lat": 0.0, "lon": -77.03235116666667, "type": "electric_scooter", "fusion_lon": 0.0, "lat": 38.915638333333334}, {"rental_uris": {"android": "https://dc.lft.to/lastmile_qr_scan", "ios": "https://dc.lft.to/lastmile_qr_scan"}, "is_reserved": 0, "is_disabled": 0, "name": "37e5bfbecbaa0a0f84c33b8a63b198d7", "bike_id": "37e5bfbecbaa0a0f84c33b8a63b198d7", "fusion_lat": 0.0, "lon": -77.00220583333333, "type": "electric_scooter", "fusion_lon": 0.0, "lat": 38.874931333333336}, {"rental_uris": {"android": "https://dc.lft.to/lastmile_qr_scan", "ios": "https://dc.lft.to/lastmile_qr_scan"}, "is_reserved": 0, "is_disabled": 0, "name": "4976670cfe6337f67cc1dea925d4989c", "bike_id": "4976670cfe6337f67cc1dea925d4989c", "fusion_lat": 0.0, "lon": -77.03171366666666, "type": "electric_scooter", "fusion_lon": 0.0, "lat": 38.915639666666664}, {"rental_uris": {"android": "https://dc.lft.to/lastmile_qr_scan", "ios": "https://dc.lft.to/lastmile_qr_scan"}, "is_reserved": 0, "is_disabled": 0, "name": "bdb935ad5a8bd589c18b6b7b2a452459", "bike_id": "bdb935ad5a8bd589c18b6b7b2a452459", "fusion_lat": 0.0, "lon": -77.02571716666667, "type": "electric_scooter", "fusion_lon": 0.0, "lat": 38.94196383333333}, {"rental_uris": {"android": "https://dc.lft.to/lastmile_qr_scan", "ios": "https://dc.lft.to/lastmile_qr_scan"}, "is_reserved": 0, "is_disabled": 0, "name": "a51ff0f09bd14b2dddf01ba6e8dbfef5", "bike_id": "a51ff0f09bd14b2dddf01ba6e8dbfef5", "fusion_lat": 0.0, "lon": -77.0095, "type": "electric_scooter", "fusion_lon": 0.0, "lat": 38.874549}, {"rental_uris": {"android": "https://dc.lft.to/lastmile_qr_scan", "ios": "https://dc.lft.to/lastmile_qr_scan"}, "is_reserved": 0, "is_disabled": 0, "name": "311a96bfb2c02bdb87f2bded6a31534e", "bike_id": "311a96bfb2c02bdb87f2bded6a31534e", "fusion_lat": 0.0, "lon": -77.03181366666666, "type": "electric_scooter", "fusion_lon": 0.0, "lat": 38.90739133333334}, {"rental_uris": {"android": "https://dc.lft.to/lastmile_qr_scan", "ios": "https://dc.lft.to/lastmile_qr_scan"}, "is_reserved": 0, "is_disabled": 0, "name": "c5423a6ceda1d6237b4baf4353a8ee69", "bike_id": "c5423a6ceda1d6237b4baf4353a8ee69", "fusion_lat": 0.0, "lon": -77.02354966666667, "type": "electric_scooter", "fusion_lon": 0.0, "lat": 38.92065083333333}, {"rental_uris": {"android": "https://dc.lft.to/lastmile_qr_scan", "ios": "https://dc.lft.to/lastmile_qr_scan"}, "is_reserved": 0, "is_disabled": 0, "name": "40eb3c02ec95df0f181f9d7d5593ed8e", "bike_id": "40eb3c02ec95df0f181f9d7d5593ed8e", "fusion_lat": 0.0, "lon": -77.02258516666667, "type": "electric_scooter", "fusion_lon": 0.0, "lat": 38.916327333333335}, {"rental_uris": {"android": "https://dc.lft.to/lastmile_qr_scan", "ios": "https://dc.lft.to/lastmile_qr_scan"}, "is_reserved": 0, "is_disabled": 0, "name": "a4cfd38d44b3639dfe68f77ad0b9ea9e", "bike_id": "a4cfd38d44b3639dfe68f77ad0b9ea9e", "fusion_lat": 0.0, "lon": -77.05457633333333, "type": "electric_scooter", "fusion_lon": 0.0, "lat": 38.928996833333336}, {"rental_uris": {"android": "https://dc.lft.to/lastmile_qr_scan", "ios": "https://dc.lft.to/lastmile_qr_scan"}, "is_reserved": 0, "is_disabled": 0, "name": "0968418744c6871a1923c94d071bf0a0", "bike_id": "0968418744c6871a1923c94d071bf0a0", "fusion_lat": 0.0, "lon": -76.98795766666667, "type": "electric_scooter", "fusion_lon": 0.0, "lat": 38.900288333333336}, {"rental_uris": {"android": "https://dc.lft.to/lastmile_qr_scan", "ios": "https://dc.lft.to/lastmile_qr_scan"}, "is_reserved": 0, "is_disabled": 0, "name": "fcb5eac50d2c0dc23c178fbae83ea27c", "bike_id": "fcb5eac50d2c0dc23c178fbae83ea27c", "fusion_lat": 0.0, "lon": -77.00877166666666, "type": "electric_scooter", "fusion_lon": 0.0, "lat": 38.876626333333334}, {"rental_uris": {"android": "https://dc.lft.to/lastmile_qr_scan", "ios": "https://dc.lft.to/lastmile_qr_scan"}, "is_reserved": 0, "is_disabled": 0, "name": "f2be2b22cfe74272108b24a67df8c617", "bike_id": "f2be2b22cfe74272108b24a67df8c617", "fusion_lat": 0.0, "lon": -77.0214, "type": "electric_scooter", "fusion_lon": 0.0, "lat": 38.92806366666667}, {"rental_uris": {"android": "https://dc.lft.to/lastmile_qr_scan", "ios": "https://dc.lft.to/lastmile_qr_scan"}, "is_reserved": 0, "is_disabled": 0, "name": "e10edf4530aaa472741e4c4cf8e98e18", "bike_id": "e10edf4530aaa472741e4c4cf8e98e18", "fusion_lat": 0.0, "lon": -76.98955533333333, "type": "electric_bike", "fusion_lon": 0.0, "lat": 38.8340415}, {"rental_uris": {"android": "https://dc.lft.to/lastmile_qr_scan", "ios": "https://dc.lft.to/lastmile_qr_scan"}, "is_reserved": 0, "is_disabled": 0, "name": "ef44f87d3b9bae8887aac201d1f66d4b", "bike_id": "ef44f87d3b9bae8887aac201d1f66d4b", "fusion_lat": 0.0, "lon": -77.0297505, "type": "electric_scooter", "fusion_lon": 0.0, "lat": 38.896255}, {"rental_uris": {"android": "https://dc.lft.to/lastmile_qr_scan", "ios": "https://dc.lft.to/lastmile_qr_scan"}, "is_reserved": 0, "is_disabled": 0, "name": "82e35102aa72cc5c3b0f5a1c2f4275e4", "bike_id": "82e35102aa72cc5c3b0f5a1c2f4275e4", "fusion_lat": 0.0, "lon": -76.97720066666666, "type": "electric_scooter", "fusion_lon": 0.0, "lat": 38.8882015}, {"rental_uris": {"android": "https://dc.lft.to/lastmile_qr_scan", "ios": "https://dc.lft.to/lastmile_qr_scan"}, "is_reserved": 0, "is_disabled": 0, "name": "83067728b86c51319d33fe15f43fafd8", "bike_id": "83067728b86c51319d33fe15f43fafd8", "fusion_lat": 0.0, "lon": -77.05119716666667, "type": "electric_scooter", "fusion_lon": 0.0, "lat": 38.9234495}, {"rental_uris": {"android": "https://dc.lft.to/lastmile_qr_scan", "ios": "https://dc.lft.to/lastmile_qr_scan"}, "is_reserved": 0, "is_disabled": 0, "name": "2ec89ddd0fa6a64c10af606a1cf7f13a", "bike_id": "2ec89ddd0fa6a64c10af606a1cf7f13a", "fusion_lat": 0.0, "lon": -77.02599633333334, "type": "electric_scooter", "fusion_lon": 0.0, "lat": 38.917055833333336}, {"rental_uris": {"android": "https://dc.lft.to/lastmile_qr_scan", "ios": "https://dc.lft.to/lastmile_qr_scan"}, "is_reserved": 0, "is_disabled": 0, "name": "326303e10d8add0c40f7f45a8639e7c1", "bike_id": "326303e10d8add0c40f7f45a8639e7c1", "fusion_lat": 0.0, "lon": -76.92368816666666, "type": "electric_scooter", "fusion_lon": 0.0, "lat": 38.892470833333334}, {"rental_uris": {"android": "https://dc.lft.to/lastmile_qr_scan", "ios": "https://dc.lft.to/lastmile_qr_scan"}, "is_reserved": 0, "is_disabled": 0, "name": "c49a5070f3a30c5f63c81cb3c686bb98", "bike_id": "c49a5070f3a30c5f63c81cb3c686bb98", "fusion_lat": 0.0, "lon": -77.00891033333333, "type": "electric_bike", "fusion_lon": 0.0, "lat": 38.92147166666667}, {"rental_uris": {"android": "https://dc.lft.to/lastmile_qr_scan", "ios": "https://dc.lft.to/lastmile_qr_scan"}, "is_reserved": 0, "is_disabled": 0, "name": "a40e47668858d5d1c89733e76fceb5d6", "bike_id": "a40e47668858d5d1c89733e76fceb5d6", "fusion_lat": 0.0, "lon": -77.01579466666666, "type": "electric_scooter", "fusion_lon": 0.0, "lat": 38.916830166666664}, {"rental_uris": {"android": "https://dc.lft.to/lastmile_qr_scan", "ios": "https://dc.lft.to/lastmile_qr_scan"}, "is_reserved": 0, "is_disabled": 0, "name": "91f2deec980addce28bc45e7fc0bb79f", "bike_id": "91f2deec980addce28bc45e7fc0bb79f", "fusion_lat": 0.0, "lon": -77.0075455, "type": "electric_scooter", "fusion_lon": 0.0, "lat": 38.871299}, {"rental_uris": {"android": "https://dc.lft.to/lastmile_qr_scan", "ios": "https://dc.lft.to/lastmile_qr_scan"}, "is_reserved": 0, "is_disabled": 0, "name": "506c91dbf92e734616de5a03c8995a14", "bike_id": "506c91dbf92e734616de5a03c8995a14", "fusion_lat": 0.0, "lon": -77.02804183333333, "type": "electric_scooter", "fusion_lon": 0.0, "lat": 38.9074865}, {"rental_uris": {"android": "https://dc.lft.to/lastmile_qr_scan", "ios": "https://dc.lft.to/lastmile_qr_scan"}, "is_reserved": 0, "is_disabled": 0, "name": "7b584298f33ccd29cf85cc7aee6a21ce", "bike_id": "7b584298f33ccd29cf85cc7aee6a21ce", "fusion_lat": 0.0, "lon": -77.032007, "type": "electric_scooter", "fusion_lon": 0.0, "lat": 38.91595983333333}, {"rental_uris": {"android": "https://dc.lft.to/lastmile_qr_scan", "ios": "https://dc.lft.to/lastmile_qr_scan"}, "is_reserved": 0, "is_disabled": 0, "name": "c1e1d055b86faf05eef08e8a61e9cc97", "bike_id": "c1e1d055b86faf05eef08e8a61e9cc97", "fusion_lat": 0.0, "lon": -77.067223, "type": "electric_scooter", "fusion_lon": 0.0, "lat": 38.950109833333336}, {"rental_uris": {"android": "https://dc.lft.to/lastmile_qr_scan", "ios": "https://dc.lft.to/lastmile_qr_scan"}, "is_reserved": 0, "is_disabled": 0, "name": "f6cc29c55dd077e08c901257b181e8a6", "bike_id": "f6cc29c55dd077e08c901257b181e8a6", "fusion_lat": 0.0, "lon": -77.11412183333333, "type": "electric_bike", "fusion_lon": 0.0, "lat": 38.87318633333334}, {"rental_uris": {"android": "https://dc.lft.to/lastmile_qr_scan", "ios": "https://dc.lft.to/lastmile_qr_scan"}, "is_reserved": 0, "is_disabled": 0, "name": "52d2d1709646021d571d5669b24586dd", "bike_id": "52d2d1709646021d571d5669b24586dd", "fusion_lat": 0.0, "lon": -76.99877066666667, "type": "electric_scooter", "fusion_lon": 0.0, "lat": 38.9074945}, {"rental_uris": {"android": "https://dc.lft.to/lastmile_qr_scan", "ios": "https://dc.lft.to/lastmile_qr_scan"}, "is_reserved": 0, "is_disabled": 0, "name": "0ccaa07b16dcb26718448c746c04cd3d", "bike_id": "0ccaa07b16dcb26718448c746c04cd3d", "fusion_lat": 0.0, "lon": -77.03480166666667, "type": "electric_scooter", "fusion_lon": 0.0, "lat": 38.915635333333334}, {"rental_uris": {"android": "https://dc.lft.to/lastmile_qr_scan", "ios": "https://dc.lft.to/lastmile_qr_scan"}, "is_reserved": 0, "is_disabled": 0, "name": "7dcfe7088f77a5b84e99168e3e48bf2b", "bike_id": "7dcfe7088f77a5b84e99168e3e48bf2b", "fusion_lat": 0.0, "lon": -77.045031, "type": "electric_scooter", "fusion_lon": 0.0, "lat": 38.8922415}, {"rental_uris": {"android": "https://dc.lft.to/lastmile_qr_scan", "ios": "https://dc.lft.to/lastmile_qr_scan"}, "is_reserved": 0, "is_disabled": 0, "name": "ba352be9c51a82c1d1876cc07f15df64", "bike_id": "ba352be9c51a82c1d1876cc07f15df64", "fusion_lat": 0.0, "lon": -77.0320195, "type": "electric_scooter", "fusion_lon": 0.0, "lat": 38.91781566666667}, {"rental_uris": {"android": "https://dc.lft.to/lastmile_qr_scan", "ios": "https://dc.lft.to/lastmile_qr_scan"}, "is_reserved": 0, "is_disabled": 0, "name": "f26dde6deaaa30fe492e7e2baa3dfe5e", "bike_id": "f26dde6deaaa30fe492e7e2baa3dfe5e", "fusion_lat": 0.0, "lon": -77.0378745, "type": "electric_scooter", "fusion_lon": 0.0, "lat": 38.93319016666667}, {"rental_uris": {"android": "https://dc.lft.to/lastmile_qr_scan", "ios": "https://dc.lft.to/lastmile_qr_scan"}, "is_reserved": 0, "is_disabled": 0, "name": "cd93156a47c61551dfacf397f152c9c5", "bike_id": "cd93156a47c61551dfacf397f152c9c5", "fusion_lat": 0.0, "lon": -77.0321045, "type": "electric_scooter", "fusion_lon": 0.0, "lat": 38.9166105}, {"rental_uris": {"android": "https://dc.lft.to/lastmile_qr_scan", "ios": "https://dc.lft.to/lastmile_qr_scan"}, "is_reserved": 0, "is_disabled": 0, "name": "0ed1618d354b8217afa208abcf921456", "bike_id": "0ed1618d354b8217afa208abcf921456", "fusion_lat": 0.0, "lon": -77.03305033333334, "type": "electric_scooter", "fusion_lon": 0.0, "lat": 38.92647766666666}, {"rental_uris": {"android": "https://dc.lft.to/lastmile_qr_scan", "ios": "https://dc.lft.to/lastmile_qr_scan"}, "is_reserved": 0, "is_disabled": 0, "name": "d906b1b5f557b4fc6475453e3e68015b", "bike_id": "d906b1b5f557b4fc6475453e3e68015b", "fusion_lat": 0.0, "lon": -77.0405675, "type": "electric_scooter", "fusion_lon": 0.0, "lat": 38.909521833333336}, {"rental_uris": {"android": "https://dc.lft.to/lastmile_qr_scan", "ios": "https://dc.lft.to/lastmile_qr_scan"}, "is_reserved": 0, "is_disabled": 0, "name": "ec039a795109a3c2ee661d5dd74fa690", "bike_id": "ec039a795109a3c2ee661d5dd74fa690", "fusion_lat": 0.0, "lon": -77.04332683333334, "type": "electric_scooter", "fusion_lon": 0.0, "lat": 38.92317833333333}, {"rental_uris": {"android": "https://dc.lft.to/lastmile_qr_scan", "ios": "https://dc.lft.to/lastmile_qr_scan"}, "is_reserved": 0, "is_disabled": 0, "name": "a58aee5cbf3a5e7d9da09b55f27356dc", "bike_id": "a58aee5cbf3a5e7d9da09b55f27356dc", "fusion_lat": 0.0, "lon": -77.0296675, "type": "electric_scooter", "fusion_lon": 0.0, "lat": 38.90484333333333}, {"rental_uris": {"android": "https://dc.lft.to/lastmile_qr_scan", "ios": "https://dc.lft.to/lastmile_qr_scan"}, "is_reserved": 0, "is_disabled": 0, "name": "3f17ea9efa334ec94361c4df68da4924", "bike_id": "3f17ea9efa334ec94361c4df68da4924", "fusion_lat": 0.0, "lon": -77.02155233333333, "type": "electric_scooter", "fusion_lon": 0.0, "lat": 38.9245745}, {"rental_uris": {"android": "https://dc.lft.to/lastmile_qr_scan", "ios": "https://dc.lft.to/lastmile_qr_scan"}, "is_reserved": 0, "is_disabled": 0, "name": "54784baca60d0c5278b4b3bf63d5311e", "bike_id": "54784baca60d0c5278b4b3bf63d5311e", "fusion_lat": 0.0, "lon": -76.98340833333333, "type": "electric_scooter", "fusion_lon": 0.0, "lat": 38.89547483333333}, {"rental_uris": {"android": "https://dc.lft.to/lastmile_qr_scan", "ios": "https://dc.lft.to/lastmile_qr_scan"}, "is_reserved": 0, "is_disabled": 0, "name": "94619718e443f2033a0ab1152ff8ae96", "bike_id": "94619718e443f2033a0ab1152ff8ae96", "fusion_lat": 0.0, "lon": -77.05006716666666, "type": "electric_scooter", "fusion_lon": 0.0, "lat": 38.903965166666666}, {"rental_uris": {"android": "https://dc.lft.to/lastmile_qr_scan", "ios": "https://dc.lft.to/lastmile_qr_scan"}, "is_reserved": 0, "is_disabled": 0, "name": "09a0c592a49a3316eeca2476db2461cd", "bike_id": "09a0c592a49a3316eeca2476db2461cd", "fusion_lat": 0.0, "lon": -76.95355383333333, "type": "electric_scooter", "fusion_lon": 0.0, "lat": 38.889578}, {"rental_uris": {"android": "https://dc.lft.to/lastmile_qr_scan", "ios": "https://dc.lft.to/lastmile_qr_scan"}, "is_reserved": 0, "is_disabled": 0, "name": "37fb7524a0f68585e0334f013d729e27", "bike_id": "37fb7524a0f68585e0334f013d729e27", "fusion_lat": 0.0, "lon": -77.00526333333333, "type": "electric_bike", "fusion_lon": 0.0, "lat": 38.87927066666666}, {"rental_uris": {"android": "https://dc.lft.to/lastmile_qr_scan", "ios": "https://dc.lft.to/lastmile_qr_scan"}, "is_reserved": 0, "is_disabled": 0, "name": "0873301eb62ce5670ba176554c1081e1", "bike_id": "0873301eb62ce5670ba176554c1081e1", "fusion_lat": 0.0, "lon": -77.03854816666667, "type": "electric_scooter", "fusion_lon": 0.0, "lat": 38.91965033333334}, {"rental_uris": {"android": "https://dc.lft.to/lastmile_qr_scan", "ios": "https://dc.lft.to/lastmile_qr_scan"}, "is_reserved": 0, "is_disabled": 0, "name": "bda1dcaec64b477da3b780d64073afde", "bike_id": "bda1dcaec64b477da3b780d64073afde", "fusion_lat": 0.0, "lon": -76.9425645, "type": "electric_scooter", "fusion_lon": 0.0, "lat": 38.89846516666667}, {"rental_uris": {"android": "https://dc.lft.to/lastmile_qr_scan", "ios": "https://dc.lft.to/lastmile_qr_scan"}, "is_reserved": 0, "is_disabled": 0, "name": "5e2aff89816b8ce0a7a64e06a1229a4e", "bike_id": "5e2aff89816b8ce0a7a64e06a1229a4e", "fusion_lat": 0.0, "lon": -76.9979525, "type": "electric_scooter", "fusion_lon": 0.0, "lat": 38.9217845}, {"rental_uris": {"android": "https://dc.lft.to/lastmile_qr_scan", "ios": "https://dc.lft.to/lastmile_qr_scan"}, "is_reserved": 0, "is_disabled": 0, "name": "952ae46db334bf3b4430b97e7a51fad3", "bike_id": "952ae46db334bf3b4430b97e7a51fad3", "fusion_lat": 0.0, "lon": -77.03197016666667, "type": "electric_scooter", "fusion_lon": 0.0, "lat": 38.92256}, {"rental_uris": {"android": "https://dc.lft.to/lastmile_qr_scan", "ios": "https://dc.lft.to/lastmile_qr_scan"}, "is_reserved": 0, "is_disabled": 0, "name": "d6a8b9304ab10597398664912f34c941", "bike_id": "d6a8b9304ab10597398664912f34c941", "fusion_lat": 0.0, "lon": -77.0899665, "type": "electric_bike", "fusion_lon": 0.0, "lat": 38.90902216666667}, {"rental_uris": {"android": "https://dc.lft.to/lastmile_qr_scan", "ios": "https://dc.lft.to/lastmile_qr_scan"}, "is_reserved": 0, "is_disabled": 0, "name": "8de1957949522affe053d1be5287d54c", "bike_id": "8de1957949522affe053d1be5287d54c", "fusion_lat": 0.0, "lon": -77.032069, "type": "electric_scooter", "fusion_lon": 0.0, "lat": 38.91834633333333}, {"rental_uris": {"android": "https://dc.lft.to/lastmile_qr_scan", "ios": "https://dc.lft.to/lastmile_qr_scan"}, "is_reserved": 0, "is_disabled": 0, "name": "d525329b921ded2b096a4e13c0a3c787", "bike_id": "d525329b921ded2b096a4e13c0a3c787", "fusion_lat": 0.0, "lon": -77.027889, "type": "electric_scooter", "fusion_lon": 0.0, "lat": 38.96217333333333}, {"rental_uris": {"android": "https://dc.lft.to/lastmile_qr_scan", "ios": "https://dc.lft.to/lastmile_qr_scan"}, "is_reserved": 0, "is_disabled": 0, "name": "a106b2668655ca135e0759e432e29aa1", "bike_id": "a106b2668655ca135e0759e432e29aa1", "fusion_lat": 0.0, "lon": -76.94185416666667, "type": "electric_scooter", "fusion_lon": 0.0, "lat": 38.8975845}, {"rental_uris": {"android": "https://dc.lft.to/lastmile_qr_scan", "ios": "https://dc.lft.to/lastmile_qr_scan"}, "is_reserved": 0, "is_disabled": 0, "name": "414793708614c80feefe79f8dd5f41ef", "bike_id": "414793708614c80feefe79f8dd5f41ef", "fusion_lat": 0.0, "lon": -77.068261, "type": "electric_bike", "fusion_lon": 0.0, "lat": 38.95108916666667}, {"rental_uris": {"android": "https://dc.lft.to/lastmile_qr_scan", "ios": "https://dc.lft.to/lastmile_qr_scan"}, "is_reserved": 0, "is_disabled": 0, "name": "6f49b75bd8a034e37f84cc1bb0fa5b5e", "bike_id": "6f49b75bd8a034e37f84cc1bb0fa5b5e", "fusion_lat": 0.0, "lon": -76.97820583333333, "type": "electric_scooter", "fusion_lon": 0.0, "lat": 38.89396516666667}, {"rental_uris": {"android": "https://dc.lft.to/lastmile_qr_scan", "ios": "https://dc.lft.to/lastmile_qr_scan"}, "is_reserved": 0, "is_disabled": 0, "name": "1c9709eeb17cffa5dcc5d34302901f67", "bike_id": "1c9709eeb17cffa5dcc5d34302901f67", "fusion_lat": 0.0, "lon": -77.04875783333334, "type": "electric_scooter", "fusion_lon": 0.0, "lat": 38.897935833333335}, {"rental_uris": {"android": "https://dc.lft.to/lastmile_qr_scan", "ios": "https://dc.lft.to/lastmile_qr_scan"}, "is_reserved": 0, "is_disabled": 0, "name": "e43051b64ef7577f0f52c6a4c7687237", "bike_id": "e43051b64ef7577f0f52c6a4c7687237", "fusion_lat": 0.0, "lon": -77.00120616666666, "type": "electric_scooter", "fusion_lon": 0.0, "lat": 38.8764795}, {"rental_uris": {"android": "https://dc.lft.to/lastmile_qr_scan", "ios": "https://dc.lft.to/lastmile_qr_scan"}, "is_reserved": 0, "is_disabled": 0, "name": "88d41ad672515df97545ad97b30d2c9b", "bike_id": "88d41ad672515df97545ad97b30d2c9b", "fusion_lat": 0.0, "lon": -77.07664866666667, "type": "electric_bike", "fusion_lon": 0.0, "lat": 38.80978483333333}, {"rental_uris": {"android": "https://dc.lft.to/lastmile_qr_scan", "ios": "https://dc.lft.to/lastmile_qr_scan"}, "is_reserved": 0, "is_disabled": 0, "name": "c55e637a9d27b5bbaef8a86458ad515c", "bike_id": "c55e637a9d27b5bbaef8a86458ad515c", "fusion_lat": 0.0, "lon": -77.033943, "type": "electric_scooter", "fusion_lon": 0.0, "lat": 38.9192475}, {"rental_uris": {"android": "https://dc.lft.to/lastmile_qr_scan", "ios": "https://dc.lft.to/lastmile_qr_scan"}, "is_reserved": 0, "is_disabled": 0, "name": "b3b951e3140ca59f0316d05e232dd641", "bike_id": "b3b951e3140ca59f0316d05e232dd641", "fusion_lat": 0.0, "lon": -77.04755216666666, "type": "electric_bike", "fusion_lon": 0.0, "lat": 38.9199775}, {"rental_uris": {"android": "https://dc.lft.to/lastmile_qr_scan", "ios": "https://dc.lft.to/lastmile_qr_scan"}, "is_reserved": 0, "is_disabled": 0, "name": "27b22cbac6084f3dbcfadf6405fdbf75", "bike_id": "27b22cbac6084f3dbcfadf6405fdbf75", "fusion_lat": 0.0, "lon": -77.022992, "type": "electric_scooter", "fusion_lon": 0.0, "lat": 38.92412516666667}, {"rental_uris": {"android": "https://dc.lft.to/lastmile_qr_scan", "ios": "https://dc.lft.to/lastmile_qr_scan"}, "is_reserved": 0, "is_disabled": 0, "name": "6b816bd2019b1171d64cf5f474adeb67", "bike_id": "6b816bd2019b1171d64cf5f474adeb67", "fusion_lat": 0.0, "lon": -77.00059483333334, "type": "electric_scooter", "fusion_lon": 0.0, "lat": 38.878784333333336}, {"rental_uris": {"android": "https://dc.lft.to/lastmile_qr_scan", "ios": "https://dc.lft.to/lastmile_qr_scan"}, "is_reserved": 0, "is_disabled": 0, "name": "136f26045643cd9993072d9b139bdd43", "bike_id": "136f26045643cd9993072d9b139bdd43", "fusion_lat": 0.0, "lon": -77.03379216666667, "type": "electric_scooter", "fusion_lon": 0.0, "lat": 38.90142516666667}, {"rental_uris": {"android": "https://dc.lft.to/lastmile_qr_scan", "ios": "https://dc.lft.to/lastmile_qr_scan"}, "is_reserved": 0, "is_disabled": 0, "name": "b0250aafc939736330674124b7672592", "bike_id": "b0250aafc939736330674124b7672592", "fusion_lat": 0.0, "lon": -77.02695066666666, "type": "electric_scooter", "fusion_lon": 0.0, "lat": 38.912706666666665}, {"rental_uris": {"android": "https://dc.lft.to/lastmile_qr_scan", "ios": "https://dc.lft.to/lastmile_qr_scan"}, "is_reserved": 0, "is_disabled": 0, "name": "49f14422ae114420692ce763d80e5c37", "bike_id": "49f14422ae114420692ce763d80e5c37", "fusion_lat": 0.0, "lon": -77.0218135, "type": "electric_scooter", "fusion_lon": 0.0, "lat": 38.9249435}, {"rental_uris": {"android": "https://dc.lft.to/lastmile_qr_scan", "ios": "https://dc.lft.to/lastmile_qr_scan"}, "is_reserved": 0, "is_disabled": 0, "name": "e86d2bb055ab785a5a60ae8adb9fdb3b", "bike_id": "e86d2bb055ab785a5a60ae8adb9fdb3b", "fusion_lat": 0.0, "lon": -77.02996683333333, "type": "electric_scooter", "fusion_lon": 0.0, "lat": 38.89755016666667}, {"rental_uris": {"android": "https://dc.lft.to/lastmile_qr_scan", "ios": "https://dc.lft.to/lastmile_qr_scan"}, "is_reserved": 0, "is_disabled": 0, "name": "937bd2b4455cc5054584579f92f0b64e", "bike_id": "937bd2b4455cc5054584579f92f0b64e", "fusion_lat": 0.0, "lon": -77.016508, "type": "electric_scooter", "fusion_lon": 0.0, "lat": 38.88125983333333}, {"rental_uris": {"android": "https://dc.lft.to/lastmile_qr_scan", "ios": "https://dc.lft.to/lastmile_qr_scan"}, "is_reserved": 0, "is_disabled": 0, "name": "80c06200bedd9b4db51f65286c7de4ac", "bike_id": "80c06200bedd9b4db51f65286c7de4ac", "fusion_lat": 0.0, "lon": -77.03699816666666, "type": "electric_scooter", "fusion_lon": 0.0, "lat": 38.926307333333334}, {"rental_uris": {"android": "https://dc.lft.to/lastmile_qr_scan", "ios": "https://dc.lft.to/lastmile_qr_scan"}, "is_reserved": 0, "is_disabled": 0, "name": "31d04e772103ee0c4269ccf2eeb917da", "bike_id": "31d04e772103ee0c4269ccf2eeb917da", "fusion_lat": 0.0, "lon": -77.03552283333333, "type": "electric_scooter", "fusion_lon": 0.0, "lat": 38.92475683333333}, {"rental_uris": {"android": "https://dc.lft.to/lastmile_qr_scan", "ios": "https://dc.lft.to/lastmile_qr_scan"}, "is_reserved": 0, "is_disabled": 0, "name": "39302c54a16d6462d78dfbc987f1ac6d", "bike_id": "39302c54a16d6462d78dfbc987f1ac6d", "fusion_lat": 0.0, "lon": -77.02066033333334, "type": "electric_bike", "fusion_lon": 0.0, "lat": 38.96443383333333}, {"rental_uris": {"android": "https://dc.lft.to/lastmile_qr_scan", "ios": "https://dc.lft.to/lastmile_qr_scan"}, "is_reserved": 0, "is_disabled": 0, "name": "5e6e7ab1fbbe17d8c83742702b44c28b", "bike_id": "5e6e7ab1fbbe17d8c83742702b44c28b", "fusion_lat": 0.0, "lon": -77.0474045, "type": "electric_scooter", "fusion_lon": 0.0, "lat": 38.912499333333336}, {"rental_uris": {"android": "https://dc.lft.to/lastmile_qr_scan", "ios": "https://dc.lft.to/lastmile_qr_scan"}, "is_reserved": 0, "is_disabled": 0, "name": "75d6633e537e341b65bac5f3a66eed51", "bike_id": "75d6633e537e341b65bac5f3a66eed51", "fusion_lat": 0.0, "lon": -77.00719216666667, "type": "electric_scooter", "fusion_lon": 0.0, "lat": 38.91188666666667}, {"rental_uris": {"android": "https://dc.lft.to/lastmile_qr_scan", "ios": "https://dc.lft.to/lastmile_qr_scan"}, "is_reserved": 0, "is_disabled": 0, "name": "ed3980564f2d2b8159618b1b3c936e6d", "bike_id": "ed3980564f2d2b8159618b1b3c936e6d", "fusion_lat": 0.0, "lon": -76.95364466666666, "type": "electric_scooter", "fusion_lon": 0.0, "lat": 38.88948216666667}, {"rental_uris": {"android": "https://dc.lft.to/lastmile_qr_scan", "ios": "https://dc.lft.to/lastmile_qr_scan"}, "is_reserved": 0, "is_disabled": 0, "name": "ebf94b34d9fca9e1f77ce41cc549d542", "bike_id": "ebf94b34d9fca9e1f77ce41cc549d542", "fusion_lat": 0.0, "lon": -77.031374, "type": "electric_scooter", "fusion_lon": 0.0, "lat": 38.92237816666667}, {"rental_uris": {"android": "https://dc.lft.to/lastmile_qr_scan", "ios": "https://dc.lft.to/lastmile_qr_scan"}, "is_reserved": 0, "is_disabled": 0, "name": "eeacc4c509fde55fb21da819fd3dadfd", "bike_id": "eeacc4c509fde55fb21da819fd3dadfd", "fusion_lat": 0.0, "lon": -77.03657883333334, "type": "electric_scooter", "fusion_lon": 0.0, "lat": 38.903294}, {"rental_uris": {"android": "https://dc.lft.to/lastmile_qr_scan", "ios": "https://dc.lft.to/lastmile_qr_scan"}, "is_reserved": 0, "is_disabled": 0, "name": "d6dbbe0015d7ca30db9d74efd7d69261", "bike_id": "d6dbbe0015d7ca30db9d74efd7d69261", "fusion_lat": 0.0, "lon": -77.03464983333333, "type": "electric_scooter", "fusion_lon": 0.0, "lat": 38.9138345}, {"rental_uris": {"android": "https://dc.lft.to/lastmile_qr_scan", "ios": "https://dc.lft.to/lastmile_qr_scan"}, "is_reserved": 0, "is_disabled": 0, "name": "ecad1ce3a1488e9808c929a51a504cdd", "bike_id": "ecad1ce3a1488e9808c929a51a504cdd", "fusion_lat": 0.0, "lon": -77.01811416666666, "type": "electric_scooter", "fusion_lon": 0.0, "lat": 38.914013}, {"rental_uris": {"android": "https://dc.lft.to/lastmile_qr_scan", "ios": "https://dc.lft.to/lastmile_qr_scan"}, "is_reserved": 0, "is_disabled": 0, "name": "12e59dd1eb6e3808ac5215824fe833be", "bike_id": "12e59dd1eb6e3808ac5215824fe833be", "fusion_lat": 0.0, "lon": -76.988336, "type": "electric_scooter", "fusion_lon": 0.0, "lat": 38.900438}, {"rental_uris": {"android": "https://dc.lft.to/lastmile_qr_scan", "ios": "https://dc.lft.to/lastmile_qr_scan"}, "is_reserved": 0, "is_disabled": 0, "name": "fd87d0448002d919ad7466ce9462fe7a", "bike_id": "fd87d0448002d919ad7466ce9462fe7a", "fusion_lat": 0.0, "lon": -77.02785066666667, "type": "electric_scooter", "fusion_lon": 0.0, "lat": 38.96163083333333}, {"rental_uris": {"android": "https://dc.lft.to/lastmile_qr_scan", "ios": "https://dc.lft.to/lastmile_qr_scan"}, "is_reserved": 0, "is_disabled": 0, "name": "3bb019f39b40106af74afd7fa2b283b7", "bike_id": "3bb019f39b40106af74afd7fa2b283b7", "fusion_lat": 0.0, "lon": -77.01620433333333, "type": "electric_scooter", "fusion_lon": 0.0, "lat": 38.887283333333336}, {"rental_uris": {"android": "https://dc.lft.to/lastmile_qr_scan", "ios": "https://dc.lft.to/lastmile_qr_scan"}, "is_reserved": 0, "is_disabled": 0, "name": "5ca2e91ab96236446068ecdf6900e60d", "bike_id": "5ca2e91ab96236446068ecdf6900e60d", "fusion_lat": 0.0, "lon": -77.03024716666667, "type": "electric_bike", "fusion_lon": 0.0, "lat": 38.90011033333333}, {"rental_uris": {"android": "https://dc.lft.to/lastmile_qr_scan", "ios": "https://dc.lft.to/lastmile_qr_scan"}, "is_reserved": 0, "is_disabled": 0, "name": "d92bd5e9567d4a63c2f206c636be3a7a", "bike_id": "d92bd5e9567d4a63c2f206c636be3a7a", "fusion_lat": 0.0, "lon": -77.04207883333333, "type": "electric_scooter", "fusion_lon": 0.0, "lat": 38.91879333333333}, {"rental_uris": {"android": "https://dc.lft.to/lastmile_qr_scan", "ios": "https://dc.lft.to/lastmile_qr_scan"}, "is_reserved": 0, "is_disabled": 0, "name": "427762092b40bee1045c8a5335712ea1", "bike_id": "427762092b40bee1045c8a5335712ea1", "fusion_lat": 0.0, "lon": -77.05909766666667, "type": "electric_scooter", "fusion_lon": 0.0, "lat": 38.901490833333334}, {"rental_uris": {"android": "https://dc.lft.to/lastmile_qr_scan", "ios": "https://dc.lft.to/lastmile_qr_scan"}, "is_reserved": 0, "is_disabled": 0, "name": "2debcf102d9ae08b1082a10f2feb11b2", "bike_id": "2debcf102d9ae08b1082a10f2feb11b2", "fusion_lat": 0.0, "lon": -77.01081233333333, "type": "electric_scooter", "fusion_lon": 0.0, "lat": 38.90317916666667}, {"rental_uris": {"android": "https://dc.lft.to/lastmile_qr_scan", "ios": "https://dc.lft.to/lastmile_qr_scan"}, "is_reserved": 0, "is_disabled": 0, "name": "99bfe76b36f65f93f666f59d402218a0", "bike_id": "99bfe76b36f65f93f666f59d402218a0", "fusion_lat": 0.0, "lon": -77.03322216666666, "type": "electric_scooter", "fusion_lon": 0.0, "lat": 38.898801166666665}, {"rental_uris": {"android": "https://dc.lft.to/lastmile_qr_scan", "ios": "https://dc.lft.to/lastmile_qr_scan"}, "is_reserved": 0, "is_disabled": 0, "name": "4e55242dc5ba744e1cee8edf9e31bdc6", "bike_id": "4e55242dc5ba744e1cee8edf9e31bdc6", "fusion_lat": 0.0, "lon": -76.98084466666667, "type": "electric_scooter", "fusion_lon": 0.0, "lat": 38.89436516666667}, {"rental_uris": {"android": "https://dc.lft.to/lastmile_qr_scan", "ios": "https://dc.lft.to/lastmile_qr_scan"}, "is_reserved": 0, "is_disabled": 0, "name": "f72cb3141943959639449ff460954e69", "bike_id": "f72cb3141943959639449ff460954e69", "fusion_lat": 0.0, "lon": -77.03979983333333, "type": "electric_scooter", "fusion_lon": 0.0, "lat": 38.915549}, {"rental_uris": {"android": "https://dc.lft.to/lastmile_qr_scan", "ios": "https://dc.lft.to/lastmile_qr_scan"}, "is_reserved": 0, "is_disabled": 0, "name": "95b81c6221c53b8fe87729184444d9da", "bike_id": "95b81c6221c53b8fe87729184444d9da", "fusion_lat": 0.0, "lon": -77.00916616666666, "type": "electric_scooter", "fusion_lon": 0.0, "lat": 38.895512}, {"rental_uris": {"android": "https://dc.lft.to/lastmile_qr_scan", "ios": "https://dc.lft.to/lastmile_qr_scan"}, "is_reserved": 0, "is_disabled": 0, "name": "0a494b8726eb2603a030ca38c3eef1f1", "bike_id": "0a494b8726eb2603a030ca38c3eef1f1", "fusion_lat": 0.0, "lon": -77.02175516666667, "type": "electric_scooter", "fusion_lon": 0.0, "lat": 38.926061833333335}, {"rental_uris": {"android": "https://dc.lft.to/lastmile_qr_scan", "ios": "https://dc.lft.to/lastmile_qr_scan"}, "is_reserved": 0, "is_disabled": 0, "name": "0c77d6919d52685c25f5d9f7f60f93e5", "bike_id": "0c77d6919d52685c25f5d9f7f60f93e5", "fusion_lat": 0.0, "lon": -77.05324733333333, "type": "electric_scooter", "fusion_lon": 0.0, "lat": 38.91552766666667}, {"rental_uris": {"android": "https://dc.lft.to/lastmile_qr_scan", "ios": "https://dc.lft.to/lastmile_qr_scan"}, "is_reserved": 0, "is_disabled": 0, "name": "1bae4b17e4ad90760ab78c92981f2cb2", "bike_id": "1bae4b17e4ad90760ab78c92981f2cb2", "fusion_lat": 0.0, "lon": -77.035044, "type": "electric_scooter", "fusion_lon": 0.0, "lat": 38.918746}, {"rental_uris": {"android": "https://dc.lft.to/lastmile_qr_scan", "ios": "https://dc.lft.to/lastmile_qr_scan"}, "is_reserved": 0, "is_disabled": 0, "name": "ab6bf90c73d8ac9ff9805e7f1d257064", "bike_id": "ab6bf90c73d8ac9ff9805e7f1d257064", "fusion_lat": 0.0, "lon": -77.03638833333333, "type": "electric_scooter", "fusion_lon": 0.0, "lat": 38.926996833333334}, {"rental_uris": {"android": "https://dc.lft.to/lastmile_qr_scan", "ios": "https://dc.lft.to/lastmile_qr_scan"}, "is_reserved": 0, "is_disabled": 0, "name": "d2e5775d909bcb2e4a901c27d030f3d3", "bike_id": "d2e5775d909bcb2e4a901c27d030f3d3", "fusion_lat": 0.0, "lon": -77.0207235, "type": "electric_scooter", "fusion_lon": 0.0, "lat": 38.923676666666665}, {"rental_uris": {"android": "https://dc.lft.to/lastmile_qr_scan", "ios": "https://dc.lft.to/lastmile_qr_scan"}, "is_reserved": 0, "is_disabled": 0, "name": "052f1901c332b2f8cf6209ba20e4a4db", "bike_id": "052f1901c332b2f8cf6209ba20e4a4db", "fusion_lat": 0.0, "lon": -77.03551033333333, "type": "electric_scooter", "fusion_lon": 0.0, "lat": 38.918269333333335}, {"rental_uris": {"android": "https://dc.lft.to/lastmile_qr_scan", "ios": "https://dc.lft.to/lastmile_qr_scan"}, "is_reserved": 0, "is_disabled": 0, "name": "fee4a724f48294026ca5e4e4b97da15e", "bike_id": "fee4a724f48294026ca5e4e4b97da15e", "fusion_lat": 0.0, "lon": -77.031675, "type": "electric_scooter", "fusion_lon": 0.0, "lat": 38.892221666666664}, {"rental_uris": {"android": "https://dc.lft.to/lastmile_qr_scan", "ios": "https://dc.lft.to/lastmile_qr_scan"}, "is_reserved": 0, "is_disabled": 0, "name": "22a955ee7cc2787e81a2ea971277efd6", "bike_id": "22a955ee7cc2787e81a2ea971277efd6", "fusion_lat": 0.0, "lon": -77.02714733333333, "type": "electric_scooter", "fusion_lon": 0.0, "lat": 38.92466016666667}, {"rental_uris": {"android": "https://dc.lft.to/lastmile_qr_scan", "ios": "https://dc.lft.to/lastmile_qr_scan"}, "is_reserved": 0, "is_disabled": 0, "name": "7b697f1fa2fab4bb93d85cef315a2a1d", "bike_id": "7b697f1fa2fab4bb93d85cef315a2a1d", "fusion_lat": 0.0, "lon": -77.03408216666666, "type": "electric_scooter", "fusion_lon": 0.0, "lat": 38.923824}, {"rental_uris": {"android": "https://dc.lft.to/lastmile_qr_scan", "ios": "https://dc.lft.to/lastmile_qr_scan"}, "is_reserved": 0, "is_disabled": 0, "name": "1b164171c6db294e43992bcf687edaec", "bike_id": "1b164171c6db294e43992bcf687edaec", "fusion_lat": 0.0, "lon": -77.09701766666667, "type": "electric_bike", "fusion_lon": 0.0, "lat": 38.88685016666667}, {"rental_uris": {"android": "https://dc.lft.to/lastmile_qr_scan", "ios": "https://dc.lft.to/lastmile_qr_scan"}, "is_reserved": 0, "is_disabled": 0, "name": "1db4cda0a6321f5a5b4e58fdc053e466", "bike_id": "1db4cda0a6321f5a5b4e58fdc053e466", "fusion_lat": 0.0, "lon": -77.04700166666667, "type": "electric_scooter", "fusion_lon": 0.0, "lat": 38.902297833333336}, {"rental_uris": {"android": "https://dc.lft.to/lastmile_qr_scan", "ios": "https://dc.lft.to/lastmile_qr_scan"}, "is_reserved": 0, "is_disabled": 0, "name": "472cf1ccb81c2fe7031833384441c35c", "bike_id": "472cf1ccb81c2fe7031833384441c35c", "fusion_lat": 0.0, "lon": -77.03548266666667, "type": "electric_scooter", "fusion_lon": 0.0, "lat": 38.92645316666667}, {"rental_uris": {"android": "https://dc.lft.to/lastmile_qr_scan", "ios": "https://dc.lft.to/lastmile_qr_scan"}, "is_reserved": 0, "is_disabled": 0, "name": "10769d3bad793b9d3e5fd571aedfb4bf", "bike_id": "10769d3bad793b9d3e5fd571aedfb4bf", "fusion_lat": 0.0, "lon": -77.02971283333333, "type": "electric_scooter", "fusion_lon": 0.0, "lat": 38.90378233333333}, {"rental_uris": {"android": "https://dc.lft.to/lastmile_qr_scan", "ios": "https://dc.lft.to/lastmile_qr_scan"}, "is_reserved": 0, "is_disabled": 0, "name": "a12f3952951c7adb5496c6ce05bd7543", "bike_id": "a12f3952951c7adb5496c6ce05bd7543", "fusion_lat": 0.0, "lon": -77.02194816666666, "type": "electric_scooter", "fusion_lon": 0.0, "lat": 38.914755666666665}, {"rental_uris": {"android": "https://dc.lft.to/lastmile_qr_scan", "ios": "https://dc.lft.to/lastmile_qr_scan"}, "is_reserved": 0, "is_disabled": 0, "name": "67471cd6d29183da3b991ad5b8fde41b", "bike_id": "67471cd6d29183da3b991ad5b8fde41b", "fusion_lat": 0.0, "lon": -77.018717, "type": "electric_scooter", "fusion_lon": 0.0, "lat": 38.9515405}, {"rental_uris": {"android": "https://dc.lft.to/lastmile_qr_scan", "ios": "https://dc.lft.to/lastmile_qr_scan"}, "is_reserved": 0, "is_disabled": 0, "name": "3803ba7465102ffdebf398b31d8caf11", "bike_id": "3803ba7465102ffdebf398b31d8caf11", "fusion_lat": 0.0, "lon": -77.024935, "type": "electric_scooter", "fusion_lon": 0.0, "lat": 38.91750616666667}, {"rental_uris": {"android": "https://dc.lft.to/lastmile_qr_scan", "ios": "https://dc.lft.to/lastmile_qr_scan"}, "is_reserved": 0, "is_disabled": 0, "name": "ea5332418364024bf545ff02183fa559", "bike_id": "ea5332418364024bf545ff02183fa559", "fusion_lat": 0.0, "lon": -76.98562566666666, "type": "electric_scooter", "fusion_lon": 0.0, "lat": 38.90707166666667}, {"rental_uris": {"android": "https://dc.lft.to/lastmile_qr_scan", "ios": "https://dc.lft.to/lastmile_qr_scan"}, "is_reserved": 0, "is_disabled": 0, "name": "4dd1344ce5aebda54201c0daed12712b", "bike_id": "4dd1344ce5aebda54201c0daed12712b", "fusion_lat": 0.0, "lon": -77.01652683333333, "type": "electric_scooter", "fusion_lon": 0.0, "lat": 38.90384183333333}, {"rental_uris": {"android": "https://dc.lft.to/lastmile_qr_scan", "ios": "https://dc.lft.to/lastmile_qr_scan"}, "is_reserved": 0, "is_disabled": 0, "name": "e47174018b2f97a1899de0bdf1693a8f", "bike_id": "e47174018b2f97a1899de0bdf1693a8f", "fusion_lat": 0.0, "lon": -77.022071, "type": "electric_bike", "fusion_lon": 0.0, "lat": 38.96489566666666}, {"rental_uris": {"android": "https://dc.lft.to/lastmile_qr_scan", "ios": "https://dc.lft.to/lastmile_qr_scan"}, "is_reserved": 0, "is_disabled": 0, "name": "3a7d7205812532a240419b77fbde066f", "bike_id": "3a7d7205812532a240419b77fbde066f", "fusion_lat": 0.0, "lon": -77.02714266666666, "type": "electric_scooter", "fusion_lon": 0.0, "lat": 38.90673783333333}, {"rental_uris": {"android": "https://dc.lft.to/lastmile_qr_scan", "ios": "https://dc.lft.to/lastmile_qr_scan"}, "is_reserved": 0, "is_disabled": 0, "name": "9d5be868183dd0b09706b6d130e10bb7", "bike_id": "9d5be868183dd0b09706b6d130e10bb7", "fusion_lat": 0.0, "lon": -77.02077183333333, "type": "electric_scooter", "fusion_lon": 0.0, "lat": 38.927176}, {"rental_uris": {"android": "https://dc.lft.to/lastmile_qr_scan", "ios": "https://dc.lft.to/lastmile_qr_scan"}, "is_reserved": 0, "is_disabled": 0, "name": "0ba1237ad44ed0d295e982507bad6fff", "bike_id": "0ba1237ad44ed0d295e982507bad6fff", "fusion_lat": 0.0, "lon": -77.04748083333334, "type": "electric_scooter", "fusion_lon": 0.0, "lat": 38.9008225}, {"rental_uris": {"android": "https://dc.lft.to/lastmile_qr_scan", "ios": "https://dc.lft.to/lastmile_qr_scan"}, "is_reserved": 0, "is_disabled": 0, "name": "bc664a8e30e055a9e74848cdc85a6ed7", "bike_id": "bc664a8e30e055a9e74848cdc85a6ed7", "fusion_lat": 0.0, "lon": -77.00768983333333, "type": "electric_scooter", "fusion_lon": 0.0, "lat": 38.926718666666666}, {"rental_uris": {"android": "https://dc.lft.to/lastmile_qr_scan", "ios": "https://dc.lft.to/lastmile_qr_scan"}, "is_reserved": 0, "is_disabled": 0, "name": "f86ab12106f3aea8a5c7a798baee3a8d", "bike_id": "f86ab12106f3aea8a5c7a798baee3a8d", "fusion_lat": 0.0, "lon": -77.03655933333333, "type": "electric_scooter", "fusion_lon": 0.0, "lat": 38.9360015}, {"rental_uris": {"android": "https://dc.lft.to/lastmile_qr_scan", "ios": "https://dc.lft.to/lastmile_qr_scan"}, "is_reserved": 0, "is_disabled": 0, "name": "25e3048c7f46dcb6a2fdee8e29aa8ece", "bike_id": "25e3048c7f46dcb6a2fdee8e29aa8ece", "fusion_lat": 0.0, "lon": -77.073228, "type": "electric_scooter", "fusion_lon": 0.0, "lat": 38.926036833333335}, {"rental_uris": {"android": "https://dc.lft.to/lastmile_qr_scan", "ios": "https://dc.lft.to/lastmile_qr_scan"}, "is_reserved": 0, "is_disabled": 0, "name": "4efa9aa62186ac494b337d125cc4c429", "bike_id": "4efa9aa62186ac494b337d125cc4c429", "fusion_lat": 0.0, "lon": -77.015643, "type": "electric_scooter", "fusion_lon": 0.0, "lat": 38.88314366666667}, {"rental_uris": {"android": "https://dc.lft.to/lastmile_qr_scan", "ios": "https://dc.lft.to/lastmile_qr_scan"}, "is_reserved": 0, "is_disabled": 0, "name": "93aa52d1b8974224eb4f23c2214d3e41", "bike_id": "93aa52d1b8974224eb4f23c2214d3e41", "fusion_lat": 0.0, "lon": -76.98615416666667, "type": "electric_scooter", "fusion_lon": 0.0, "lat": 38.9072745}, {"rental_uris": {"android": "https://dc.lft.to/lastmile_qr_scan", "ios": "https://dc.lft.to/lastmile_qr_scan"}, "is_reserved": 0, "is_disabled": 0, "name": "91046ebc6edc12a426c53020daa60394", "bike_id": "91046ebc6edc12a426c53020daa60394", "fusion_lat": 0.0, "lon": -77.0130745, "type": "electric_scooter", "fusion_lon": 0.0, "lat": 38.897403}, {"rental_uris": {"android": "https://dc.lft.to/lastmile_qr_scan", "ios": "https://dc.lft.to/lastmile_qr_scan"}, "is_reserved": 0, "is_disabled": 0, "name": "fa7ac4a543bded32ad815e9719b05431", "bike_id": "fa7ac4a543bded32ad815e9719b05431", "fusion_lat": 0.0, "lon": -77.03519033333333, "type": "electric_scooter", "fusion_lon": 0.0, "lat": 38.93595666666667}, {"rental_uris": {"android": "https://dc.lft.to/lastmile_qr_scan", "ios": "https://dc.lft.to/lastmile_qr_scan"}, "is_reserved": 0, "is_disabled": 0, "name": "b9e7b8a37638607d6f2d47ee3bbaca7f", "bike_id": "b9e7b8a37638607d6f2d47ee3bbaca7f", "fusion_lat": 0.0, "lon": -77.0246985, "type": "electric_scooter", "fusion_lon": 0.0, "lat": 38.897371666666665}, {"rental_uris": {"android": "https://dc.lft.to/lastmile_qr_scan", "ios": "https://dc.lft.to/lastmile_qr_scan"}, "is_reserved": 0, "is_disabled": 0, "name": "4013b8b3770911ed86c1ffb57cdaa95c", "bike_id": "4013b8b3770911ed86c1ffb57cdaa95c", "fusion_lat": 0.0, "lon": -77.03487966666667, "type": "electric_scooter", "fusion_lon": 0.0, "lat": 38.9214685}, {"rental_uris": {"android": "https://dc.lft.to/lastmile_qr_scan", "ios": "https://dc.lft.to/lastmile_qr_scan"}, "is_reserved": 0, "is_disabled": 0, "name": "a0595c6d9e79f4ae4d9444f6d2d137f7", "bike_id": "a0595c6d9e79f4ae4d9444f6d2d137f7", "fusion_lat": 0.0, "lon": -77.0504175, "type": "electric_scooter", "fusion_lon": 0.0, "lat": 38.92363983333333}, {"rental_uris": {"android": "https://dc.lft.to/lastmile_qr_scan", "ios": "https://dc.lft.to/lastmile_qr_scan"}, "is_reserved": 0, "is_disabled": 0, "name": "c842de6cf35fbce088d0e89b87842d38", "bike_id": "c842de6cf35fbce088d0e89b87842d38", "fusion_lat": 0.0, "lon": -76.9506065, "type": "electric_bike", "fusion_lon": 0.0, "lat": 39.085075333333336}, {"rental_uris": {"android": "https://dc.lft.to/lastmile_qr_scan", "ios": "https://dc.lft.to/lastmile_qr_scan"}, "is_reserved": 0, "is_disabled": 0, "name": "fa09e5c1347f3a0f70d65fbeb2861628", "bike_id": "fa09e5c1347f3a0f70d65fbeb2861628", "fusion_lat": 0.0, "lon": -77.014973, "type": "electric_scooter", "fusion_lon": 0.0, "lat": 38.90614466666667}, {"rental_uris": {"android": "https://dc.lft.to/lastmile_qr_scan", "ios": "https://dc.lft.to/lastmile_qr_scan"}, "is_reserved": 0, "is_disabled": 0, "name": "1f2d3bc54cd08e00aaa4afe9610bb64d", "bike_id": "1f2d3bc54cd08e00aaa4afe9610bb64d", "fusion_lat": 0.0, "lon": -77.03480983333333, "type": "electric_scooter", "fusion_lon": 0.0, "lat": 38.924808}, {"rental_uris": {"android": "https://dc.lft.to/lastmile_qr_scan", "ios": "https://dc.lft.to/lastmile_qr_scan"}, "is_reserved": 0, "is_disabled": 0, "name": "6d242658e2186d1ec65d7d2576104f37", "bike_id": "6d242658e2186d1ec65d7d2576104f37", "fusion_lat": 0.0, "lon": -77.03339716666666, "type": "electric_scooter", "fusion_lon": 0.0, "lat": 38.935082333333334}, {"rental_uris": {"android": "https://dc.lft.to/lastmile_qr_scan", "ios": "https://dc.lft.to/lastmile_qr_scan"}, "is_reserved": 0, "is_disabled": 0, "name": "e56e966d8e4ba638eae8e0b983d24505", "bike_id": "e56e966d8e4ba638eae8e0b983d24505", "fusion_lat": 0.0, "lon": -77.019143, "type": "electric_scooter", "fusion_lon": 0.0, "lat": 38.9172875}, {"rental_uris": {"android": "https://dc.lft.to/lastmile_qr_scan", "ios": "https://dc.lft.to/lastmile_qr_scan"}, "is_reserved": 0, "is_disabled": 0, "name": "33c7bdd3f1df16f8df3afb3ec32591fd", "bike_id": "33c7bdd3f1df16f8df3afb3ec32591fd", "fusion_lat": 0.0, "lon": -77.09106083333333, "type": "electric_scooter", "fusion_lon": 0.0, "lat": 38.93096583333333}, {"rental_uris": {"android": "https://dc.lft.to/lastmile_qr_scan", "ios": "https://dc.lft.to/lastmile_qr_scan"}, "is_reserved": 0, "is_disabled": 0, "name": "072130529bf19a0f70115b3512d768ad", "bike_id": "072130529bf19a0f70115b3512d768ad", "fusion_lat": 0.0, "lon": -77.05338433333333, "type": "electric_scooter", "fusion_lon": 0.0, "lat": 38.90644733333333}, {"rental_uris": {"android": "https://dc.lft.to/lastmile_qr_scan", "ios": "https://dc.lft.to/lastmile_qr_scan"}, "is_reserved": 0, "is_disabled": 0, "name": "36f4bb7585dca6259dd3d32e1a67fbd0", "bike_id": "36f4bb7585dca6259dd3d32e1a67fbd0", "fusion_lat": 0.0, "lon": -77.021943, "type": "electric_scooter", "fusion_lon": 0.0, "lat": 38.924828166666664}, {"rental_uris": {"android": "https://dc.lft.to/lastmile_qr_scan", "ios": "https://dc.lft.to/lastmile_qr_scan"}, "is_reserved": 0, "is_disabled": 0, "name": "4d12131b81b0d4500224e6fbbc015d4c", "bike_id": "4d12131b81b0d4500224e6fbbc015d4c", "fusion_lat": 0.0, "lon": -77.02149583333333, "type": "electric_scooter", "fusion_lon": 0.0, "lat": 38.941317}, {"rental_uris": {"android": "https://dc.lft.to/lastmile_qr_scan", "ios": "https://dc.lft.to/lastmile_qr_scan"}, "is_reserved": 0, "is_disabled": 0, "name": "46f05b416dd2a1c583f2d16a33db17be", "bike_id": "46f05b416dd2a1c583f2d16a33db17be", "fusion_lat": 0.0, "lon": -76.94651616666667, "type": "electric_scooter", "fusion_lon": 0.0, "lat": 38.8982565}, {"rental_uris": {"android": "https://dc.lft.to/lastmile_qr_scan", "ios": "https://dc.lft.to/lastmile_qr_scan"}, "is_reserved": 0, "is_disabled": 0, "name": "2a0bd333e8d3a64fd2068c02cce3a8de", "bike_id": "2a0bd333e8d3a64fd2068c02cce3a8de", "fusion_lat": 0.0, "lon": -77.02409933333334, "type": "electric_scooter", "fusion_lon": 0.0, "lat": 38.915686}, {"rental_uris": {"android": "https://dc.lft.to/lastmile_qr_scan", "ios": "https://dc.lft.to/lastmile_qr_scan"}, "is_reserved": 0, "is_disabled": 0, "name": "236c23b2a10446cfd3f785a0419b81fa", "bike_id": "236c23b2a10446cfd3f785a0419b81fa", "fusion_lat": 0.0, "lon": -77.02805533333333, "type": "electric_scooter", "fusion_lon": 0.0, "lat": 38.892244166666664}, {"rental_uris": {"android": "https://dc.lft.to/lastmile_qr_scan", "ios": "https://dc.lft.to/lastmile_qr_scan"}, "is_reserved": 0, "is_disabled": 0, "name": "a6862379e184cc04e8a45549e5f8731c", "bike_id": "a6862379e184cc04e8a45549e5f8731c", "fusion_lat": 0.0, "lon": -77.04678883333334, "type": "electric_scooter", "fusion_lon": 0.0, "lat": 38.8922315}, {"rental_uris": {"android": "https://dc.lft.to/lastmile_qr_scan", "ios": "https://dc.lft.to/lastmile_qr_scan"}, "is_reserved": 0, "is_disabled": 0, "name": "3a337953a032a391f46921129b2588b0", "bike_id": "3a337953a032a391f46921129b2588b0", "fusion_lat": 0.0, "lon": -77.04692683333333, "type": "electric_scooter", "fusion_lon": 0.0, "lat": 38.89608}, {"rental_uris": {"android": "https://dc.lft.to/lastmile_qr_scan", "ios": "https://dc.lft.to/lastmile_qr_scan"}, "is_reserved": 0, "is_disabled": 0, "name": "a6f0fae146d187259647fcbb427f1d17", "bike_id": "a6f0fae146d187259647fcbb427f1d17", "fusion_lat": 0.0, "lon": -77.06322116666666, "type": "electric_scooter", "fusion_lon": 0.0, "lat": 38.91338316666667}, {"rental_uris": {"android": "https://dc.lft.to/lastmile_qr_scan", "ios": "https://dc.lft.to/lastmile_qr_scan"}, "is_reserved": 0, "is_disabled": 0, "name": "fbfd5a4783664e3c7992c2f028b658e3", "bike_id": "fbfd5a4783664e3c7992c2f028b658e3", "fusion_lat": 0.0, "lon": -76.98372916666666, "type": "electric_scooter", "fusion_lon": 0.0, "lat": 38.892636333333336}, {"rental_uris": {"android": "https://dc.lft.to/lastmile_qr_scan", "ios": "https://dc.lft.to/lastmile_qr_scan"}, "is_reserved": 0, "is_disabled": 0, "name": "b8e39dfce98682fcd92ab68401f30ec9", "bike_id": "b8e39dfce98682fcd92ab68401f30ec9", "fusion_lat": 0.0, "lon": -76.99696616666667, "type": "electric_scooter", "fusion_lon": 0.0, "lat": 38.88434483333333}, {"rental_uris": {"android": "https://dc.lft.to/lastmile_qr_scan", "ios": "https://dc.lft.to/lastmile_qr_scan"}, "is_reserved": 0, "is_disabled": 0, "name": "eeb79ad11c4958700918b4014ae885a6", "bike_id": "eeb79ad11c4958700918b4014ae885a6", "fusion_lat": 0.0, "lon": -77.0462445, "type": "electric_scooter", "fusion_lon": 0.0, "lat": 38.915622}, {"rental_uris": {"android": "https://dc.lft.to/lastmile_qr_scan", "ios": "https://dc.lft.to/lastmile_qr_scan"}, "is_reserved": 0, "is_disabled": 0, "name": "ec16a946ec6614513d6650bc5f374bc6", "bike_id": "ec16a946ec6614513d6650bc5f374bc6", "fusion_lat": 0.0, "lon": -77.06364633333334, "type": "electric_scooter", "fusion_lon": 0.0, "lat": 38.92016816666667}, {"rental_uris": {"android": "https://dc.lft.to/lastmile_qr_scan", "ios": "https://dc.lft.to/lastmile_qr_scan"}, "is_reserved": 0, "is_disabled": 0, "name": "5c2db73537cde5603c5dc5c897f855c0", "bike_id": "5c2db73537cde5603c5dc5c897f855c0", "fusion_lat": 0.0, "lon": -77.02332266666667, "type": "electric_scooter", "fusion_lon": 0.0, "lat": 38.93048433333333}, {"rental_uris": {"android": "https://dc.lft.to/lastmile_qr_scan", "ios": "https://dc.lft.to/lastmile_qr_scan"}, "is_reserved": 0, "is_disabled": 0, "name": "63eb718804487cde8fb7a9b8ce972bb9", "bike_id": "63eb718804487cde8fb7a9b8ce972bb9", "fusion_lat": 0.0, "lon": -76.99846866666667, "type": "electric_scooter", "fusion_lon": 0.0, "lat": 38.900583166666664}, {"rental_uris": {"android": "https://dc.lft.to/lastmile_qr_scan", "ios": "https://dc.lft.to/lastmile_qr_scan"}, "is_reserved": 0, "is_disabled": 0, "name": "56329d31f567f634c548a4220846e27d", "bike_id": "56329d31f567f634c548a4220846e27d", "fusion_lat": 0.0, "lon": -76.99843133333333, "type": "electric_scooter", "fusion_lon": 0.0, "lat": 38.900796666666665}, {"rental_uris": {"android": "https://dc.lft.to/lastmile_qr_scan", "ios": "https://dc.lft.to/lastmile_qr_scan"}, "is_reserved": 0, "is_disabled": 0, "name": "b592a0ec29811bbc1db02f345de5db6d", "bike_id": "b592a0ec29811bbc1db02f345de5db6d", "fusion_lat": 0.0, "lon": -77.042117, "type": "electric_scooter", "fusion_lon": 0.0, "lat": 38.9092595}, {"rental_uris": {"android": "https://dc.lft.to/lastmile_qr_scan", "ios": "https://dc.lft.to/lastmile_qr_scan"}, "is_reserved": 0, "is_disabled": 0, "name": "c5d3f3431349b1043b7c7d5f7f6cf84c", "bike_id": "c5d3f3431349b1043b7c7d5f7f6cf84c", "fusion_lat": 0.0, "lon": -77.02348483333333, "type": "electric_scooter", "fusion_lon": 0.0, "lat": 38.9420105}, {"rental_uris": {"android": "https://dc.lft.to/lastmile_qr_scan", "ios": "https://dc.lft.to/lastmile_qr_scan"}, "is_reserved": 0, "is_disabled": 0, "name": "7ae19f5204a2da66b0468a2cbbe24262", "bike_id": "7ae19f5204a2da66b0468a2cbbe24262", "fusion_lat": 0.0, "lon": -77.00215383333334, "type": "electric_scooter", "fusion_lon": 0.0, "lat": 38.9086565}, {"rental_uris": {"android": "https://dc.lft.to/lastmile_qr_scan", "ios": "https://dc.lft.to/lastmile_qr_scan"}, "is_reserved": 0, "is_disabled": 0, "name": "f16e9b75ccf8c7aa7518c1181919ac7a", "bike_id": "f16e9b75ccf8c7aa7518c1181919ac7a", "fusion_lat": 0.0, "lon": -77.04565166666667, "type": "electric_scooter", "fusion_lon": 0.0, "lat": 38.903825833333336}, {"rental_uris": {"android": "https://dc.lft.to/lastmile_qr_scan", "ios": "https://dc.lft.to/lastmile_qr_scan"}, "is_reserved": 0, "is_disabled": 0, "name": "dc5c92ce857ce6dd3cbcb084b1aee57b", "bike_id": "dc5c92ce857ce6dd3cbcb084b1aee57b", "fusion_lat": 0.0, "lon": -77.03856966666666, "type": "electric_scooter", "fusion_lon": 0.0, "lat": 38.916606}, {"rental_uris": {"android": "https://dc.lft.to/lastmile_qr_scan", "ios": "https://dc.lft.to/lastmile_qr_scan"}, "is_reserved": 0, "is_disabled": 0, "name": "5e5276c3cf0911e6f26dbb1a32c1492f", "bike_id": "5e5276c3cf0911e6f26dbb1a32c1492f", "fusion_lat": 0.0, "lon": -77.0254715, "type": "electric_scooter", "fusion_lon": 0.0, "lat": 38.970012833333335}, {"rental_uris": {"android": "https://dc.lft.to/lastmile_qr_scan", "ios": "https://dc.lft.to/lastmile_qr_scan"}, "is_reserved": 0, "is_disabled": 0, "name": "1d76000a12a4a5734a1097b1b7fff61e", "bike_id": "1d76000a12a4a5734a1097b1b7fff61e", "fusion_lat": 0.0, "lon": -77.02234016666667, "type": "electric_scooter", "fusion_lon": 0.0, "lat": 38.90082666666667}, {"rental_uris": {"android": "https://dc.lft.to/lastmile_qr_scan", "ios": "https://dc.lft.to/lastmile_qr_scan"}, "is_reserved": 0, "is_disabled": 0, "name": "f6267c3501f7db63996378d07ca2379d", "bike_id": "f6267c3501f7db63996378d07ca2379d", "fusion_lat": 0.0, "lon": -76.99751666666667, "type": "electric_scooter", "fusion_lon": 0.0, "lat": 38.885037833333335}, {"rental_uris": {"android": "https://dc.lft.to/lastmile_qr_scan", "ios": "https://dc.lft.to/lastmile_qr_scan"}, "is_reserved": 0, "is_disabled": 0, "name": "de57e5c957dc320c0f21db25c9cb5fa1", "bike_id": "de57e5c957dc320c0f21db25c9cb5fa1", "fusion_lat": 0.0, "lon": -77.0145385, "type": "electric_scooter", "fusion_lon": 0.0, "lat": 38.90721933333333}, {"rental_uris": {"android": "https://dc.lft.to/lastmile_qr_scan", "ios": "https://dc.lft.to/lastmile_qr_scan"}, "is_reserved": 0, "is_disabled": 0, "name": "27504fee72c4b5e15f03c2273a629273", "bike_id": "27504fee72c4b5e15f03c2273a629273", "fusion_lat": 0.0, "lon": -77.03471083333334, "type": "electric_scooter", "fusion_lon": 0.0, "lat": 38.92862983333333}, {"rental_uris": {"android": "https://dc.lft.to/lastmile_qr_scan", "ios": "https://dc.lft.to/lastmile_qr_scan"}, "is_reserved": 0, "is_disabled": 0, "name": "8666b82b846723f1915f2a2b469abd8a", "bike_id": "8666b82b846723f1915f2a2b469abd8a", "fusion_lat": 0.0, "lon": -76.99870516666667, "type": "electric_scooter", "fusion_lon": 0.0, "lat": 38.9002525}, {"rental_uris": {"android": "https://dc.lft.to/lastmile_qr_scan", "ios": "https://dc.lft.to/lastmile_qr_scan"}, "is_reserved": 0, "is_disabled": 0, "name": "e91c169c0dfd7afd8dbdec4bc3294b4d", "bike_id": "e91c169c0dfd7afd8dbdec4bc3294b4d", "fusion_lat": 0.0, "lon": -77.027163, "type": "electric_scooter", "fusion_lon": 0.0, "lat": 38.92466783333333}, {"rental_uris": {"android": "https://dc.lft.to/lastmile_qr_scan", "ios": "https://dc.lft.to/lastmile_qr_scan"}, "is_reserved": 0, "is_disabled": 0, "name": "430db0357733d5ae54a08800fc3262c4", "bike_id": "430db0357733d5ae54a08800fc3262c4", "fusion_lat": 0.0, "lon": -77.02410433333333, "type": "electric_scooter", "fusion_lon": 0.0, "lat": 38.909672666666665}, {"rental_uris": {"android": "https://dc.lft.to/lastmile_qr_scan", "ios": "https://dc.lft.to/lastmile_qr_scan"}, "is_reserved": 0, "is_disabled": 0, "name": "a0b6ac8bd675c9272077d21fa8ce549f", "bike_id": "a0b6ac8bd675c9272077d21fa8ce549f", "fusion_lat": 0.0, "lon": -77.03854983333333, "type": "electric_scooter", "fusion_lon": 0.0, "lat": 38.917168}, {"rental_uris": {"android": "https://dc.lft.to/lastmile_qr_scan", "ios": "https://dc.lft.to/lastmile_qr_scan"}, "is_reserved": 0, "is_disabled": 0, "name": "65acc45ce3086e8582988746d508d2ac", "bike_id": "65acc45ce3086e8582988746d508d2ac", "fusion_lat": 0.0, "lon": -77.00049966666667, "type": "electric_scooter", "fusion_lon": 0.0, "lat": 38.87882116666667}, {"rental_uris": {"android": "https://dc.lft.to/lastmile_qr_scan", "ios": "https://dc.lft.to/lastmile_qr_scan"}, "is_reserved": 0, "is_disabled": 0, "name": "b0674fbc6b093672e1786af373b20bef", "bike_id": "b0674fbc6b093672e1786af373b20bef", "fusion_lat": 0.0, "lon": -77.00799933333333, "type": "electric_scooter", "fusion_lon": 0.0, "lat": 38.897165333333334}, {"rental_uris": {"android": "https://dc.lft.to/lastmile_qr_scan", "ios": "https://dc.lft.to/lastmile_qr_scan"}, "is_reserved": 0, "is_disabled": 0, "name": "12c754ff85f98a6d53f0a6d83cd69c50", "bike_id": "12c754ff85f98a6d53f0a6d83cd69c50", "fusion_lat": 0.0, "lon": -77.04610483333333, "type": "electric_scooter", "fusion_lon": 0.0, "lat": 38.91647533333333}, {"rental_uris": {"android": "https://dc.lft.to/lastmile_qr_scan", "ios": "https://dc.lft.to/lastmile_qr_scan"}, "is_reserved": 0, "is_disabled": 0, "name": "fa9b1711794c8274535915af84743f4e", "bike_id": "fa9b1711794c8274535915af84743f4e", "fusion_lat": 0.0, "lon": -77.02430383333333, "type": "electric_bike", "fusion_lon": 0.0, "lat": 38.92304816666667}, {"rental_uris": {"android": "https://dc.lft.to/lastmile_qr_scan", "ios": "https://dc.lft.to/lastmile_qr_scan"}, "is_reserved": 0, "is_disabled": 0, "name": "c6368ff0b77e49eccd6657c2992b1832", "bike_id": "c6368ff0b77e49eccd6657c2992b1832", "fusion_lat": 0.0, "lon": -76.930844, "type": "electric_scooter", "fusion_lon": 0.0, "lat": 38.895575}, {"rental_uris": {"android": "https://dc.lft.to/lastmile_qr_scan", "ios": "https://dc.lft.to/lastmile_qr_scan"}, "is_reserved": 0, "is_disabled": 0, "name": "f975a1a18cf4bca674ba74ca4cef1f90", "bike_id": "f975a1a18cf4bca674ba74ca4cef1f90", "fusion_lat": 0.0, "lon": -77.00581916666667, "type": "electric_scooter", "fusion_lon": 0.0, "lat": 38.9056185}, {"rental_uris": {"android": "https://dc.lft.to/lastmile_qr_scan", "ios": "https://dc.lft.to/lastmile_qr_scan"}, "is_reserved": 0, "is_disabled": 0, "name": "5555380e7324d6ba82df606c1ad9c2bd", "bike_id": "5555380e7324d6ba82df606c1ad9c2bd", "fusion_lat": 0.0, "lon": -77.03877433333334, "type": "electric_scooter", "fusion_lon": 0.0, "lat": 38.932075166666664}, {"rental_uris": {"android": "https://dc.lft.to/lastmile_qr_scan", "ios": "https://dc.lft.to/lastmile_qr_scan"}, "is_reserved": 0, "is_disabled": 0, "name": "b0839e07062851eb7d5f2d3fd6e7b7a7", "bike_id": "b0839e07062851eb7d5f2d3fd6e7b7a7", "fusion_lat": 0.0, "lon": -77.0165455, "type": "electric_scooter", "fusion_lon": 0.0, "lat": 38.942041}, {"rental_uris": {"android": "https://dc.lft.to/lastmile_qr_scan", "ios": "https://dc.lft.to/lastmile_qr_scan"}, "is_reserved": 0, "is_disabled": 0, "name": "e27c2583226be0b2a59a07f11a1dd724", "bike_id": "e27c2583226be0b2a59a07f11a1dd724", "fusion_lat": 0.0, "lon": -77.02191733333333, "type": "electric_scooter", "fusion_lon": 0.0, "lat": 38.921756}, {"rental_uris": {"android": "https://dc.lft.to/lastmile_qr_scan", "ios": "https://dc.lft.to/lastmile_qr_scan"}, "is_reserved": 0, "is_disabled": 0, "name": "f3651ef5d985184912ca954452a3d110", "bike_id": "f3651ef5d985184912ca954452a3d110", "fusion_lat": 0.0, "lon": -77.02552266666666, "type": "electric_scooter", "fusion_lon": 0.0, "lat": 38.883547}, {"rental_uris": {"android": "https://dc.lft.to/lastmile_qr_scan", "ios": "https://dc.lft.to/lastmile_qr_scan"}, "is_reserved": 0, "is_disabled": 0, "name": "527e72fac7d03ca23c0ba00cb925a305", "bike_id": "527e72fac7d03ca23c0ba00cb925a305", "fusion_lat": 0.0, "lon": -77.04003933333334, "type": "electric_scooter", "fusion_lon": 0.0, "lat": 38.92428133333333}, {"rental_uris": {"android": "https://dc.lft.to/lastmile_qr_scan", "ios": "https://dc.lft.to/lastmile_qr_scan"}, "is_reserved": 0, "is_disabled": 0, "name": "a5e29006a88f6b311ac3adc98236c6fa", "bike_id": "a5e29006a88f6b311ac3adc98236c6fa", "fusion_lat": 0.0, "lon": -77.03220766666666, "type": "electric_scooter", "fusion_lon": 0.0, "lat": 38.925489}, {"rental_uris": {"android": "https://dc.lft.to/lastmile_qr_scan", "ios": "https://dc.lft.to/lastmile_qr_scan"}, "is_reserved": 0, "is_disabled": 0, "name": "110d3edf0b974f378ce0f9b243e34a87", "bike_id": "110d3edf0b974f378ce0f9b243e34a87", "fusion_lat": 0.0, "lon": -76.986426, "type": "electric_scooter", "fusion_lon": 0.0, "lat": 38.855118833333336}, {"rental_uris": {"android": "https://dc.lft.to/lastmile_qr_scan", "ios": "https://dc.lft.to/lastmile_qr_scan"}, "is_reserved": 0, "is_disabled": 0, "name": "fc89dcc1c49266bff3ed32f30d483525", "bike_id": "fc89dcc1c49266bff3ed32f30d483525", "fusion_lat": 0.0, "lon": -77.03529416666667, "type": "electric_scooter", "fusion_lon": 0.0, "lat": 38.9246735}, {"rental_uris": {"android": "https://dc.lft.to/lastmile_qr_scan", "ios": "https://dc.lft.to/lastmile_qr_scan"}, "is_reserved": 0, "is_disabled": 0, "name": "fc46d3661554b020fe8f64ad17a17f0c", "bike_id": "fc46d3661554b020fe8f64ad17a17f0c", "fusion_lat": 0.0, "lon": -77.04345833333333, "type": "electric_scooter", "fusion_lon": 0.0, "lat": 38.8969175}, {"rental_uris": {"android": "https://dc.lft.to/lastmile_qr_scan", "ios": "https://dc.lft.to/lastmile_qr_scan"}, "is_reserved": 0, "is_disabled": 0, "name": "f19a5777fc2d72d5b83d53b299632cd8", "bike_id": "f19a5777fc2d72d5b83d53b299632cd8", "fusion_lat": 0.0, "lon": -76.95501866666666, "type": "electric_scooter", "fusion_lon": 0.0, "lat": 38.888760833333336},