{"data": {"bikes": [{"bike_id": "b7f65e436d8165b7fc81c0f0a69b2d93", "fusion_lon": 0.0, "lon": -77.02472966666667, "name": "b7f65e436d8165b7fc81c0f0a69b2d93", "is_disabled": 0, "rental_uris": {"android": "https://dc.lft.to/lastmile_qr_scan", "ios": "https://dc.lft.to/lastmile_qr_scan"}, "type": "electric_scooter", "lat": 38.9310185, "is_reserved": 0, "fusion_lat": 0.0}, {"bike_id": "c421d800d796ea361e366f32b60607c5", "fusion_lon": 0.0, "lon": -76.98777533333333, "name": "c421d800d796ea361e366f32b60607c5", "is_disabled": 0, "rental_uris": {"android": "https://dc.lft.to/lastmile_qr_scan", "ios": "https://dc.lft.to/lastmile_qr_scan"}, "type": "electric_bike", "lat": 38.8659405, "is_reserved": 0, "fusion_lat": 0.0}, {"bike_id": "c9f8a314756fb0226f2354e6fb3fb254", "fusion_lon": 0.0, "lon": -77.0588405, "name": "c9f8a314756fb0226f2354e6fb3fb254", "is_disabled": 0, "rental_uris": {"android": "https://dc.lft.to/lastmile_qr_scan", "ios": "https://dc.lft.to/lastmile_qr_scan"}, "type": "electric_scooter", "lat": 38.918232833333334, "is_reserved": 0, "fusion_lat": 0.0}, {"bike_id": "45e75f454332d692f3b2612cc245cff4", "fusion_lon": 0.0, "lon": -77.028533, "name": "45e75f454332d692f3b2612cc245cff4", "is_disabled": 0, "rental_uris": {"android": "https://dc.lft.to/lastmile_qr_scan", "ios": "https://dc.lft.to/lastmile_qr_scan"}, "type": "electric_scooter", "lat": 38.92762, "is_reserved": 0, "fusion_lat": 0.0}, {"bike_id": "29dc2c745d9012f3d9dc57df65131d6e", "fusion_lon": 0.0, "lon": -76.98403033333334, "name": "29dc2c745d9012f3d9dc57df65131d6e", "is_disabled": 0, "rental_uris": {"android": "https://dc.lft.to/lastmile_qr_scan", "ios": "https://dc.lft.to/lastmile_qr_scan"}, "type": "electric_scooter", "lat": 38.867017, "is_reserved": 0, "fusion_lat": 0.0}, {"bike_id": "99604098a678a151cccee8a2f23b58d3", "fusion_lon": 0.0, "lon": -77.03211916666666, "name": "99604098a678a151cccee8a2f23b58d3", "is_disabled": 0, "rental_uris": {"android": "https://dc.lft.to/lastmile_qr_scan", "ios": "https://dc.lft.to/lastmile_qr_scan"}, "type": "electric_scooter", "lat": 38.917070833333334, "is_reserved": 0, "fusion_lat": 0.0}, {"bike_id": "ff2839b019d69a43cbcc0ddb88a3b100", "fusion_lon": 0.0, "lon": -77.03464716666667, "name": "ff2839b019d69a43cbcc0ddb88a3b100", "is_disabled": 0, "rental_uris": {"android": "https://dc.lft.to/lastmile_qr_scan", "ios": "https://dc.lft.to/lastmile_qr_scan"}, "type": "electric_scooter", "lat": 38.90806716666667, "is_reserved": 0, "fusion_lat": 0.0}, {"bike_id": "bbdad631ca8596aa2d7dd461acddbd0c", "fusion_lon": 0.0, "lon": -76.99400566666667, "name": "bbdad631ca8596aa2d7dd461acddbd0c", "is_disabled": 0, "rental_uris": {"android": "https://dc.lft.to/lastmile_qr_scan", "ios": "https://dc.lft.to/lastmile_qr_scan"}, "type": "electric_scooter", "lat": 38.92163433333333, "is_reserved": 0, "fusion_lat": 0.0}, {"bike_id": "29469e5b1f9e58abe05fc430a4d5046f", "fusion_lon": 0.0, "lon": -77.032383, "name": "29469e5b1f9e58abe05fc430a4d5046f", "is_disabled": 0, "rental_uris": {"android": "https://dc.lft.to/lastmile_qr_scan", "ios": "https://dc.lft.to/lastmile_qr_scan"}, "type": "electric_scooter", "lat": 38.90528166666667, "is_reserved": 0, "fusion_lat": 0.0}, {"bike_id": "39f7c20d72532e4c82db6c4fbc45d91c", "fusion_lon": 0.0, "lon": -77.05911133333333, "name": "39f7c20d72532e4c82db6c4fbc45d91c", "is_disabled": 0, "rental_uris": {"android": "https://dc.lft.to/lastmile_qr_scan", "ios": "https://dc.lft.to/lastmile_qr_scan"}, "type": "electric_scooter", "lat": 38.933476666666664, "is_reserved": 0, "fusion_lat": 0.0}, {"bike_id": "05162fb0c00729bdbfa9697d1089a37c", "fusion_lon": 0.0, "lon": -77.03435866666666, "name": "05162fb0c00729bdbfa9697d1089a37c", "is_disabled": 0, "rental_uris": {"android": "https://dc.lft.to/lastmile_qr_scan", "ios": "https://dc.lft.to/lastmile_qr_scan"}, "type": "electric_scooter", "lat": 38.907625, "is_reserved": 0, "fusion_lat": 0.0}, {"bike_id": "8f0452c477ebeabd01d27c4375455d49", "fusion_lon": 0.0, "lon": -77.02671033333333, "name": "8f0452c477ebeabd01d27c4375455d49", "is_disabled": 0, "rental_uris": {"android": "https://dc.lft.to/lastmile_qr_scan", "ios": "https://dc.lft.to/lastmile_qr_scan"}, "type": "electric_scooter", "lat": 38.971927, "is_reserved": 0, "fusion_lat": 0.0}, {"bike_id": "256b774c1a89de0c47fb5ef4adbdc250", "fusion_lon": 0.0, "lon": -77.03408116666667, "name": "256b774c1a89de0c47fb5ef4adbdc250", "is_disabled": 0, "rental_uris": {"android": "https://dc.lft.to/lastmile_qr_scan", "ios": "https://dc.lft.to/lastmile_qr_scan"}, "type": "electric_scooter", "lat": 38.920567, "is_reserved": 0, "fusion_lat": 0.0}, {"bike_id": "303e851fe19ff9c026bc3f8a0d126eb0", "fusion_lon": 0.0, "lon": -76.93343916666667, "name": "303e851fe19ff9c026bc3f8a0d126eb0", "is_disabled": 0, "rental_uris": {"android": "https://dc.lft.to/lastmile_qr_scan", "ios": "https://dc.lft.to/lastmile_qr_scan"}, "type": "electric_scooter", "lat": 38.8881265, "is_reserved": 0, "fusion_lat": 0.0}, {"bike_id": "901ca667e601850bee04cda083e5b490", "fusion_lon": 0.0, "lon": -77.02692633333334, "name": "901ca667e601850bee04cda083e5b490", "is_disabled": 0, "rental_uris": {"android": "https://dc.lft.to/lastmile_qr_scan", "ios": "https://dc.lft.to/lastmile_qr_scan"}, "type": "electric_scooter", "lat": 38.898456, "is_reserved": 0, "fusion_lat": 0.0}, {"bike_id": "d893c904b902b50eff2dc9dfd90199ad", "fusion_lon": 0.0, "lon": -77.02893316666666, "name": "d893c904b902b50eff2dc9dfd90199ad", "is_disabled": 0, "rental_uris": {"android": "https://dc.lft.to/lastmile_qr_scan", "ios": "https://dc.lft.to/lastmile_qr_scan"}, "type": "electric_scooter", "lat": 38.90720133333333, "is_reserved": 0, "fusion_lat": 0.0}, {"bike_id": "3f316dbc8b177a6f4511ec26d63e411f", "fusion_lon": 0.0, "lon": -77.03989266666666, "name": "3f316dbc8b177a6f4511ec26d63e411f", "is_disabled": 0, "rental_uris": {"android": "https://dc.lft.to/lastmile_qr_scan", "ios": "https://dc.lft.to/lastmile_qr_scan"}, "type": "electric_scooter", "lat": 38.9175965, "is_reserved": 0, "fusion_lat": 0.0}, {"bike_id": "7b8c63e0b1c45b564a17360e0491cdee", "fusion_lon": 0.0, "lon": -76.92487333333334, "name": "7b8c63e0b1c45b564a17360e0491cdee", "is_disabled": 0, "rental_uris": {"android": "https://dc.lft.to/lastmile_qr_scan", "ios": "https://dc.lft.to/lastmile_qr_scan"}, "type": "electric_bike", "lat": 38.958752, "is_reserved": 0, "fusion_lat": 0.0}, {"bike_id": "aa6522237b375f6cf84c30408fda9500", "fusion_lon": 0.0, "lon": -77.031265, "name": "aa6522237b375f6cf84c30408fda9500", "is_disabled": 0, "rental_uris": {"android": "https://dc.lft.to/lastmile_qr_scan", "ios": "https://dc.lft.to/lastmile_qr_scan"}, "type": "electric_scooter", "lat": 38.91553, "is_reserved": 0, "fusion_lat": 0.0}, {"bike_id": "28f78c568f1e09f2ba1d63a6470b40e1", "fusion_lon": 0.0, "lon": -77.13484033333333, "name": "28f78c568f1e09f2ba1d63a6470b40e1", "is_disabled": 0, "rental_uris": {"android": "https://dc.lft.to/lastmile_qr_scan", "ios": "https://dc.lft.to/lastmile_qr_scan"}, "type": "electric_bike", "lat": 38.85350283333333, "is_reserved": 0, "fusion_lat": 0.0}, {"bike_id": "ac669f0d57ce4670b755ffd2d99566c8", "fusion_lon": 0.0, "lon": -77.030787, "name": "ac669f0d57ce4670b755ffd2d99566c8", "is_disabled": 0, "rental_uris": {"android": "https://dc.lft.to/lastmile_qr_scan", "ios": "https://dc.lft.to/lastmile_qr_scan"}, "type": "electric_scooter", "lat": 38.89744266666666, "is_reserved": 0, "fusion_lat": 0.0}, {"bike_id": "bcfb51d82407e5937210ea88c84e979e", "fusion_lon": 0.0, "lon": -77.00932966666667, "name": "bcfb51d82407e5937210ea88c84e979e", "is_disabled": 0, "rental_uris": {"android": "https://dc.lft.to/lastmile_qr_scan", "ios": "https://dc.lft.to/lastmile_qr_scan"}, "type": "electric_scooter", "lat": 38.908253333333334, "is_reserved": 0, "fusion_lat": 0.0}, {"bike_id": "569913473037f76c0bcb3704a17d364a", "fusion_lon": 0.0, "lon": -77.0087565, "name": "569913473037f76c0bcb3704a17d364a", "is_disabled": 0, "rental_uris": {"android": "https://dc.lft.to/lastmile_qr_scan", "ios": "https://dc.lft.to/lastmile_qr_scan"}, "type": "electric_scooter", "lat": 38.917008, "is_reserved": 0, "fusion_lat": 0.0}, {"bike_id": "0a545f900235ab18d6e93e8d994b48f9", "fusion_lon": 0.0, "lon": -77.03254766666667, "name": "0a545f900235ab18d6e93e8d994b48f9", "is_disabled": 0, "rental_uris": {"android": "https://dc.lft.to/lastmile_qr_scan", "ios": "https://dc.lft.to/lastmile_qr_scan"}, "type": "electric_scooter", "lat": 38.928542166666666, "is_reserved": 0, "fusion_lat": 0.0}, {"bike_id": "7b6a6023a5b9f1a90d445b552eb96f05", "fusion_lon": 0.0, "lon": -77.03454583333334, "name": "7b6a6023a5b9f1a90d445b552eb96f05", "is_disabled": 0, "rental_uris": {"android": "https://dc.lft.to/lastmile_qr_scan", "ios": "https://dc.lft.to/lastmile_qr_scan"}, "type": "electric_scooter", "lat": 38.9181215, "is_reserved": 0, "fusion_lat": 0.0}, {"bike_id": "3a673dfb8abcb882f79e79cbf68039ca", "fusion_lon": 0.0, "lon": -77.034993, "name": "3a673dfb8abcb882f79e79cbf68039ca", "is_disabled": 0, "rental_uris": {"android": "https://dc.lft.to/lastmile_qr_scan", "ios": "https://dc.lft.to/lastmile_qr_scan"}, "type": "electric_scooter", "lat": 38.9187585, "is_reserved": 0, "fusion_lat": 0.0}, {"bike_id": "2641e93b15c535797549531e2d94df20", "fusion_lon": 0.0, "lon": -77.01621083333333, "name": "2641e93b15c535797549531e2d94df20", "is_disabled": 0, "rental_uris": {"android": "https://dc.lft.to/lastmile_qr_scan", "ios": "https://dc.lft.to/lastmile_qr_scan"}, "type": "electric_scooter", "lat": 38.905851, "is_reserved": 0, "fusion_lat": 0.0}, {"bike_id": "cbcd1942cfc5f70cac985e0b54fd708f", "fusion_lon": 0.0, "lon": -77.03403616666667, "name": "cbcd1942cfc5f70cac985e0b54fd708f", "is_disabled": 0, "rental_uris": {"android": "https://dc.lft.to/lastmile_qr_scan", "ios": "https://dc.lft.to/lastmile_qr_scan"}, "type": "electric_scooter", "lat": 38.93123666666666, "is_reserved": 0, "fusion_lat": 0.0}, {"bike_id": "978c93d33790b41afe735f38abf3a18e", "fusion_lon": 0.0, "lon": -77.0271985, "name": "978c93d33790b41afe735f38abf3a18e", "is_disabled": 0, "rental_uris": {"android": "https://dc.lft.to/lastmile_qr_scan", "ios": "https://dc.lft.to/lastmile_qr_scan"}, "type": "electric_scooter", "lat": 38.916743333333336, "is_reserved": 0, "fusion_lat": 0.0}, {"bike_id": "d4db41d16752c3c58752cf3e3e412fe1", "fusion_lon": 0.0, "lon": -77.01327683333334, "name": "d4db41d16752c3c58752cf3e3e412fe1", "is_disabled": 0, "rental_uris": {"android": "https://dc.lft.to/lastmile_qr_scan", "ios": "https://dc.lft.to/lastmile_qr_scan"}, "type": "electric_scooter", "lat": 38.881385, "is_reserved": 0, "fusion_lat": 0.0}, {"bike_id": "00ba7341e3fae29b99cd26b9e3815570", "fusion_lon": 0.0, "lon": -77.02050033333333, "name": "00ba7341e3fae29b99cd26b9e3815570", "is_disabled": 0, "rental_uris": {"android": "https://dc.lft.to/lastmile_qr_scan", "ios": "https://dc.lft.to/lastmile_qr_scan"}, "type": "electric_scooter", "lat": 38.915557166666666, "is_reserved": 0, "fusion_lat": 0.0}, {"bike_id": "e21994d719c7ef637c40108d77f468f5", "fusion_lon": 0.0, "lon": -77.00801066666666, "name": "e21994d719c7ef637c40108d77f468f5", "is_disabled": 0, "rental_uris": {"android": "https://dc.lft.to/lastmile_qr_scan", "ios": "https://dc.lft.to/lastmile_qr_scan"}, "type": "electric_bike", "lat": 38.94921516666667, "is_reserved": 0, "fusion_lat": 0.0}, {"bike_id": "23be1314fb744bc8e6d47d07c4a6b0c3", "fusion_lon": 0.0, "lon": -77.05753466666667, "name": "23be1314fb744bc8e6d47d07c4a6b0c3", "is_disabled": 0, "rental_uris": {"android": "https://dc.lft.to/lastmile_qr_scan", "ios": "https://dc.lft.to/lastmile_qr_scan"}, "type": "electric_bike", "lat": 38.92529283333333, "is_reserved": 0, "fusion_lat": 0.0}, {"bike_id": "52428ae14605b38bc1627c0306fd3ce3", "fusion_lon": 0.0, "lon": -77.04365933333334, "name": "52428ae14605b38bc1627c0306fd3ce3", "is_disabled": 0, "rental_uris": {"android": "https://dc.lft.to/lastmile_qr_scan", "ios": "https://dc.lft.to/lastmile_qr_scan"}, "type": "electric_scooter", "lat": 38.892256, "is_reserved": 0, "fusion_lat": 0.0}, {"bike_id": "11567b94cf96aa4eb442b9208176415b", "fusion_lon": 0.0, "lon": -77.03762016666667, "name": "11567b94cf96aa4eb442b9208176415b", "is_disabled": 0, "rental_uris": {"android": "https://dc.lft.to/lastmile_qr_scan", "ios": "https://dc.lft.to/lastmile_qr_scan"}, "type": "electric_scooter", "lat": 38.9067725, "is_reserved": 0, "fusion_lat": 0.0}, {"bike_id": "b58bb0aac759f45d2bae7c76c0fd340e", "fusion_lon": 0.0, "lon": -77.04418466666667, "name": "b58bb0aac759f45d2bae7c76c0fd340e", "is_disabled": 0, "rental_uris": {"android": "https://dc.lft.to/lastmile_qr_scan", "ios": "https://dc.lft.to/lastmile_qr_scan"}, "type": "electric_bike", "lat": 39.015737, "is_reserved": 0, "fusion_lat": 0.0}, {"bike_id": "b8ba6445a9878a940f3b0ef7beb7a9c6", "fusion_lon": 0.0, "lon": -77.0241475, "name": "b8ba6445a9878a940f3b0ef7beb7a9c6", "is_disabled": 0, "rental_uris": {"android": "https://dc.lft.to/lastmile_qr_scan", "ios": "https://dc.lft.to/lastmile_qr_scan"}, "type": "electric_scooter", "lat": 38.916973666666664, "is_reserved": 0, "fusion_lat": 0.0}, {"bike_id": "e9f836442799259bfb7487cf2b9b0211", "fusion_lon": 0.0, "lon": -77.05859866666667, "name": "e9f836442799259bfb7487cf2b9b0211", "is_disabled": 0, "rental_uris": {"android": "https://dc.lft.to/lastmile_qr_scan", "ios": "https://dc.lft.to/lastmile_qr_scan"}, "type": "electric_scooter", "lat": 38.936040166666665, "is_reserved": 0, "fusion_lat": 0.0}, {"bike_id": "c83c91b2f776d2cfe2a18cdfa7d09507", "fusion_lon": 0.0, "lon": -77.01402883333333, "name": "c83c91b2f776d2cfe2a18cdfa7d09507", "is_disabled": 0, "rental_uris": {"android": "https://dc.lft.to/lastmile_qr_scan", "ios": "https://dc.lft.to/lastmile_qr_scan"}, "type": "electric_scooter", "lat": 38.881218, "is_reserved": 0, "fusion_lat": 0.0}, {"bike_id": "2e0dd9f5a9b30b294a8b16acbaaa3092", "fusion_lon": 0.0, "lon": -77.02960966666667, "name": "2e0dd9f5a9b30b294a8b16acbaaa3092", "is_disabled": 0, "rental_uris": {"android": "https://dc.lft.to/lastmile_qr_scan", "ios": "https://dc.lft.to/lastmile_qr_scan"}, "type": "electric_scooter", "lat": 38.923228, "is_reserved": 0, "fusion_lat": 0.0}, {"bike_id": "1c860494f4fed8a38c6dcfc87980c627", "fusion_lon": 0.0, "lon": -76.990333, "name": "1c860494f4fed8a38c6dcfc87980c627", "is_disabled": 0, "rental_uris": {"android": "https://dc.lft.to/lastmile_qr_scan", "ios": "https://dc.lft.to/lastmile_qr_scan"}, "type": "electric_scooter", "lat": 38.898486, "is_reserved": 0, "fusion_lat": 0.0}, {"bike_id": "2a47b56f543f05495a1c5e0d4d229570", "fusion_lon": 0.0, "lon": -77.03260666666667, "name": "2a47b56f543f05495a1c5e0d4d229570", "is_disabled": 0, "rental_uris": {"android": "https://dc.lft.to/lastmile_qr_scan", "ios": "https://dc.lft.to/lastmile_qr_scan"}, "type": "electric_scooter", "lat": 38.9323925, "is_reserved": 0, "fusion_lat": 0.0}, {"bike_id": "574781371fd869e97835e8cfff8f2892", "fusion_lon": 0.0, "lon": -77.02963533333333, "name": "574781371fd869e97835e8cfff8f2892", "is_disabled": 0, "rental_uris": {"android": "https://dc.lft.to/lastmile_qr_scan", "ios": "https://dc.lft.to/lastmile_qr_scan"}, "type": "electric_scooter", "lat": 38.92367, "is_reserved": 0, "fusion_lat": 0.0}, {"bike_id": "fcfa6d1e0d947b967b2cbdb0676c7ead", "fusion_lon": 0.0, "lon": -77.03094266666666, "name": "fcfa6d1e0d947b967b2cbdb0676c7ead", "is_disabled": 0, "rental_uris": {"android": "https://dc.lft.to/lastmile_qr_scan", "ios": "https://dc.lft.to/lastmile_qr_scan"}, "type": "electric_scooter", "lat": 38.91908333333333, "is_reserved": 0, "fusion_lat": 0.0}, {"bike_id": "fd5859934c1042a229dfb56757299bed", "fusion_lon": 0.0, "lon": -76.98376633333334, "name": "fd5859934c1042a229dfb56757299bed", "is_disabled": 0, "rental_uris": {"android": "https://dc.lft.to/lastmile_qr_scan", "ios": "https://dc.lft.to/lastmile_qr_scan"}, "type": "electric_bike", "lat": 38.87835466666667, "is_reserved": 0, "fusion_lat": 0.0}, {"bike_id": "4e51e2cf53b720c9bf699217c27d7e51", "fusion_lon": 0.0, "lon": -77.00335083333333, "name": "4e51e2cf53b720c9bf699217c27d7e51", "is_disabled": 0, "rental_uris": {"android": "https://dc.lft.to/lastmile_qr_scan", "ios": "https://dc.lft.to/lastmile_qr_scan"}, "type": "electric_scooter", "lat": 38.89515466666667, "is_reserved": 0, "fusion_lat": 0.0}, {"bike_id": "af3f145ff58876c75f6b81c570a58710", "fusion_lon": 0.0, "lon": -77.18740149999999, "name": "af3f145ff58876c75f6b81c570a58710", "is_disabled": 0, "rental_uris": {"android": "https://dc.lft.to/lastmile_qr_scan", "ios": "https://dc.lft.to/lastmile_qr_scan"}, "type": "electric_bike", "lat": 38.893549, "is_reserved": 0, "fusion_lat": 0.0}, {"bike_id": "9ce44b66f0e90b35866107666786ae23", "fusion_lon": 0.0, "lon": -77.03217783333334, "name": "9ce44b66f0e90b35866107666786ae23", "is_disabled": 0, "rental_uris": {"android": "https://dc.lft.to/lastmile_qr_scan", "ios": "https://dc.lft.to/lastmile_qr_scan"}, "type": "electric_scooter", "lat": 38.91402566666667, "is_reserved": 0, "fusion_lat": 0.0}, {"bike_id": "5ac7e07a8d6457b290eef8bd85c62379", "fusion_lon": 0.0, "lon": -77.03439366666667, "name": "5ac7e07a8d6457b290eef8bd85c62379", "is_disabled": 0, "rental_uris": {"android": "https://dc.lft.to/lastmile_qr_scan", "ios": "https://dc.lft.to/lastmile_qr_scan"}, "type": "electric_scooter", "lat": 38.90729016666667, "is_reserved": 0, "fusion_lat": 0.0}, {"bike_id": "b44f53aa60d0c4069a9deef36b0800ce", "fusion_lon": 0.0, "lon": -77.03124683333333, "name": "b44f53aa60d0c4069a9deef36b0800ce", "is_disabled": 0, "rental_uris": {"android": "https://dc.lft.to/lastmile_qr_scan", "ios": "https://dc.lft.to/lastmile_qr_scan"}, "type": "electric_scooter", "lat": 38.91553233333333, "is_reserved": 0, "fusion_lat": 0.0}, {"bike_id": "314f0c94f3bf5500646bfe73830a45f4", "fusion_lon": 0.0, "lon": -77.07310516666666, "name": "314f0c94f3bf5500646bfe73830a45f4", "is_disabled": 0, "rental_uris": {"android": "https://dc.lft.to/lastmile_qr_scan", "ios": "https://dc.lft.to/lastmile_qr_scan"}, "type": "electric_scooter", "lat": 38.922392333333335, "is_reserved": 0, "fusion_lat": 0.0}, {"bike_id": "d3d76545247def0558b2cfc051253ae1", "fusion_lon": 0.0, "lon": -77.02191933333333, "name": "d3d76545247def0558b2cfc051253ae1", "is_disabled": 0, "rental_uris": {"android": "https://dc.lft.to/lastmile_qr_scan", "ios": "https://dc.lft.to/lastmile_qr_scan"}, "type": "electric_scooter", "lat": 38.91844733333333, "is_reserved": 0, "fusion_lat": 0.0}, {"bike_id": "339dc0e07c1a23d848842a9da458917f", "fusion_lon": 0.0, "lon": -76.980833, "name": "339dc0e07c1a23d848842a9da458917f", "is_disabled": 0, "rental_uris": {"android": "https://dc.lft.to/lastmile_qr_scan", "ios": "https://dc.lft.to/lastmile_qr_scan"}, "type": "electric_scooter", "lat": 38.9016125, "is_reserved": 0, "fusion_lat": 0.0}, {"bike_id": "c9ee2b935bc16e8fd216871971a7fa28", "fusion_lon": 0.0, "lon": -76.99609433333333, "name": "c9ee2b935bc16e8fd216871971a7fa28", "is_disabled": 0, "rental_uris": {"android": "https://dc.lft.to/lastmile_qr_scan", "ios": "https://dc.lft.to/lastmile_qr_scan"}, "type": "electric_scooter", "lat": 38.899183666666666, "is_reserved": 0, "fusion_lat": 0.0}, {"bike_id": "7be8c4792edb5586b1c4f37b31dad456", "fusion_lon": 0.0, "lon": -77.00139166666666, "name": "7be8c4792edb5586b1c4f37b31dad456", "is_disabled": 0, "rental_uris": {"android": "https://dc.lft.to/lastmile_qr_scan", "ios": "https://dc.lft.to/lastmile_qr_scan"}, "type": "electric_bike", "lat": 38.925450833333336, "is_reserved": 0, "fusion_lat": 0.0}, {"bike_id": "7fdcf4322b08f163c372d8a4d3ce186b", "fusion_lon": 0.0, "lon": -76.99345216666667, "name": "7fdcf4322b08f163c372d8a4d3ce186b", "is_disabled": 0, "rental_uris": {"android": "https://dc.lft.to/lastmile_qr_scan", "ios": "https://dc.lft.to/lastmile_qr_scan"}, "type": "electric_bike", "lat": 38.97223866666667, "is_reserved": 0, "fusion_lat": 0.0}, {"bike_id": "cdacc6b6b296fa4e9a67400a54ed1bef", "fusion_lon": 0.0, "lon": -76.97177266666667, "name": "cdacc6b6b296fa4e9a67400a54ed1bef", "is_disabled": 0, "rental_uris": {"android": "https://dc.lft.to/lastmile_qr_scan", "ios": "https://dc.lft.to/lastmile_qr_scan"}, "type": "electric_scooter", "lat": 38.854336833333335, "is_reserved": 0, "fusion_lat": 0.0}, {"bike_id": "d8a7959e3d93dc9ab9d783071ac82213", "fusion_lon": 0.0, "lon": -76.933045, "name": "d8a7959e3d93dc9ab9d783071ac82213", "is_disabled": 0, "rental_uris": {"android": "https://dc.lft.to/lastmile_qr_scan", "ios": "https://dc.lft.to/lastmile_qr_scan"}, "type": "electric_scooter", "lat": 38.88136683333333, "is_reserved": 0, "fusion_lat": 0.0}, {"bike_id": "0bbb206b487e42f2b2634c50cc71d105", "fusion_lon": 0.0, "lon": -76.99695216666667, "name": "0bbb206b487e42f2b2634c50cc71d105", "is_disabled": 0, "rental_uris": {"android": "https://dc.lft.to/lastmile_qr_scan", "ios": "https://dc.lft.to/lastmile_qr_scan"}, "type": "electric_scooter", "lat": 38.90834183333333, "is_reserved": 0, "fusion_lat": 0.0}, {"bike_id": "872c636e215efd68a7428ff840f2805c", "fusion_lon": 0.0, "lon": -77.01867966666667, "name": "872c636e215efd68a7428ff840f2805c", "is_disabled": 0, "rental_uris": {"android": "https://dc.lft.to/lastmile_qr_scan", "ios": "https://dc.lft.to/lastmile_qr_scan"}, "type": "electric_scooter", "lat": 38.93148333333333, "is_reserved": 0, "fusion_lat": 0.0}, {"bike_id": "78abad41ebca40a1b9b79fd484507038", "fusion_lon": 0.0, "lon": -77.03689683333333, "name": "78abad41ebca40a1b9b79fd484507038", "is_disabled": 0, "rental_uris": {"android": "https://dc.lft.to/lastmile_qr_scan", "ios": "https://dc.lft.to/lastmile_qr_scan"}, "type": "electric_scooter", "lat": 38.936101, "is_reserved": 0, "fusion_lat": 0.0}, {"bike_id": "43f163c8c1fa36b8789a4934f8243b32", "fusion_lon": 0.0, "lon": -77.01792283333333, "name": "43f163c8c1fa36b8789a4934f8243b32", "is_disabled": 0, "rental_uris": {"android": "https://dc.lft.to/lastmile_qr_scan", "ios": "https://dc.lft.to/lastmile_qr_scan"}, "type": "electric_scooter", "lat": 38.903842, "is_reserved": 0, "fusion_lat": 0.0}, {"bike_id": "d9c3ee0f50b3c9ef22f51a2ebee936ad", "fusion_lon": 0.0, "lon": -77.02208533333334, "name": "d9c3ee0f50b3c9ef22f51a2ebee936ad", "is_disabled": 0, "rental_uris": {"android": "https://dc.lft.to/lastmile_qr_scan", "ios": "https://dc.lft.to/lastmile_qr_scan"}, "type": "electric_scooter", "lat": 38.9020015, "is_reserved": 0, "fusion_lat": 0.0}, {"bike_id": "f201431e2405aa8c14cf57fc67420028", "fusion_lon": 0.0, "lon": -77.03255816666666, "name": "f201431e2405aa8c14cf57fc67420028", "is_disabled": 0, "rental_uris": {"android": "https://dc.lft.to/lastmile_qr_scan", "ios": "https://dc.lft.to/lastmile_qr_scan"}, "type": "electric_scooter", "lat": 38.939675333333334, "is_reserved": 0, "fusion_lat": 0.0}, {"bike_id": "56d4ab534505316a6e4fdaeec5b2ce76", "fusion_lon": 0.0, "lon": -77.01190266666667, "name": "56d4ab534505316a6e4fdaeec5b2ce76", "is_disabled": 0, "rental_uris": {"android": "https://dc.lft.to/lastmile_qr_scan", "ios": "https://dc.lft.to/lastmile_qr_scan"}, "type": "electric_scooter", "lat": 38.915487166666665, "is_reserved": 0, "fusion_lat": 0.0}, {"bike_id": "9cadaa1a3e42ea78811e943789f28c74", "fusion_lon": 0.0, "lon": -77.00673383333333, "name": "9cadaa1a3e42ea78811e943789f28c74", "is_disabled": 0, "rental_uris": {"android": "https://dc.lft.to/lastmile_qr_scan", "ios": "https://dc.lft.to/lastmile_qr_scan"}, "type": "electric_bike", "lat": 38.945115, "is_reserved": 0, "fusion_lat": 0.0}, {"bike_id": "fd4fe7c43de567efa1a13c575cd880fa", "fusion_lon": 0.0, "lon": -77.01948133333333, "name": "fd4fe7c43de567efa1a13c575cd880fa", "is_disabled": 0, "rental_uris": {"android": "https://dc.lft.to/lastmile_qr_scan", "ios": "https://dc.lft.to/lastmile_qr_scan"}, "type": "electric_scooter", "lat": 38.924182, "is_reserved": 0, "fusion_lat": 0.0}, {"bike_id": "3326d9b3b5b2adfb1926f1aaea6fa423", "fusion_lon": 0.0, "lon": -76.98714533333333, "name": "3326d9b3b5b2adfb1926f1aaea6fa423", "is_disabled": 0, "rental_uris": {"android": "https://dc.lft.to/lastmile_qr_scan", "ios": "https://dc.lft.to/lastmile_qr_scan"}, "type": "electric_scooter", "lat": 38.866975, "is_reserved": 0, "fusion_lat": 0.0}, {"bike_id": "a55abb7504dc589c3cd572537f12b7ab", "fusion_lon": 0.0, "lon": -77.0370295, "name": "a55abb7504dc589c3cd572537f12b7ab", "is_disabled": 0, "rental_uris": {"android": "https://dc.lft.to/lastmile_qr_scan", "ios": "https://dc.lft.to/lastmile_qr_scan"}, "type": "electric_scooter", "lat": 38.926415, "is_reserved": 0, "fusion_lat": 0.0}, {"bike_id": "0920ae9b7d03ec2f83a4dd4f1b63b04f", "fusion_lon": 0.0, "lon": -76.94945033333333, "name": "0920ae9b7d03ec2f83a4dd4f1b63b04f", "is_disabled": 0, "rental_uris": {"android": "https://dc.lft.to/lastmile_qr_scan", "ios": "https://dc.lft.to/lastmile_qr_scan"}, "type": "electric_scooter", "lat": 38.89348233333333, "is_reserved": 0, "fusion_lat": 0.0}, {"bike_id": "f2a8a7c6f12f8bd53756795ab1790df0", "fusion_lon": 0.0, "lon": -77.02514716666667, "name": "f2a8a7c6f12f8bd53756795ab1790df0", "is_disabled": 0, "rental_uris": {"android": "https://dc.lft.to/lastmile_qr_scan", "ios": "https://dc.lft.to/lastmile_qr_scan"}, "type": "electric_scooter", "lat": 38.94621216666667, "is_reserved": 0, "fusion_lat": 0.0}, {"bike_id": "c74c20bfa665c960c3f692ad849bbb56", "fusion_lon": 0.0, "lon": -77.00561066666667, "name": "c74c20bfa665c960c3f692ad849bbb56", "is_disabled": 0, "rental_uris": {"android": "https://dc.lft.to/lastmile_qr_scan", "ios": "https://dc.lft.to/lastmile_qr_scan"}, "type": "electric_scooter", "lat": 38.9056395, "is_reserved": 0, "fusion_lat": 0.0}, {"bike_id": "40146f476646a4ec4689c2f7768dbb4d", "fusion_lon": 0.0, "lon": -77.05398266666667, "name": "40146f476646a4ec4689c2f7768dbb4d", "is_disabled": 0, "rental_uris": {"android": "https://dc.lft.to/lastmile_qr_scan", "ios": "https://dc.lft.to/lastmile_qr_scan"}, "type": "electric_scooter", "lat": 38.928128666666666, "is_reserved": 0, "fusion_lat": 0.0}, {"bike_id": "147881e7a8e65f12a140e37299fea016", "fusion_lon": 0.0, "lon": -77.03657783333334, "name": "147881e7a8e65f12a140e37299fea016", "is_disabled": 0, "rental_uris": {"android": "https://dc.lft.to/lastmile_qr_scan", "ios": "https://dc.lft.to/lastmile_qr_scan"}, "type": "electric_scooter", "lat": 38.92979716666667, "is_reserved": 0, "fusion_lat": 0.0}, {"bike_id": "02b756d0c0b37f91dcc3e432c54d3b80", "fusion_lon": 0.0, "lon": -77.03529833333333, "name": "02b756d0c0b37f91dcc3e432c54d3b80", "is_disabled": 0, "rental_uris": {"android": "https://dc.lft.to/lastmile_qr_scan", "ios": "https://dc.lft.to/lastmile_qr_scan"}, "type": "electric_scooter", "lat": 38.923165166666664, "is_reserved": 0, "fusion_lat": 0.0}, {"bike_id": "35268826ecba5e22239723be1fdf4745", "fusion_lon": 0.0, "lon": -77.04460316666666, "name": "35268826ecba5e22239723be1fdf4745", "is_disabled": 0, "rental_uris": {"android": "https://dc.lft.to/lastmile_qr_scan", "ios": "https://dc.lft.to/lastmile_qr_scan"}, "type": "electric_scooter", "lat": 38.918510833333336, "is_reserved": 0, "fusion_lat": 0.0}, {"bike_id": "9db205664c57ef4e5384afb2fa9c40ba", "fusion_lon": 0.0, "lon": -77.03300066666667, "name": "9db205664c57ef4e5384afb2fa9c40ba", "is_disabled": 0, "rental_uris": {"android": "https://dc.lft.to/lastmile_qr_scan", "ios": "https://dc.lft.to/lastmile_qr_scan"}, "type": "electric_scooter", "lat": 38.92039366666667, "is_reserved": 0, "fusion_lat": 0.0}, {"bike_id": "d3627ff6931bd7e6fb1db30454cfbbaf", "fusion_lon": 0.0, "lon": -77.0380335, "name": "d3627ff6931bd7e6fb1db30454cfbbaf", "is_disabled": 0, "rental_uris": {"android": "https://dc.lft.to/lastmile_qr_scan", "ios": "https://dc.lft.to/lastmile_qr_scan"}, "type": "electric_scooter", "lat": 38.925545666666665, "is_reserved": 0, "fusion_lat": 0.0}, {"bike_id": "51e988f341f74bd6bbfeac64a7d3877e", "fusion_lon": 0.0, "lon": -77.03158683333334, "name": "51e988f341f74bd6bbfeac64a7d3877e", "is_disabled": 0, "rental_uris": {"android": "https://dc.lft.to/lastmile_qr_scan", "ios": "https://dc.lft.to/lastmile_qr_scan"}, "type": "electric_bike", "lat": 38.999476333333334, "is_reserved": 0, "fusion_lat": 0.0}, {"bike_id": "26b69e141aa23382d00a038ea3795ba3", "fusion_lon": 0.0, "lon": -76.983673, "name": "26b69e141aa23382d00a038ea3795ba3", "is_disabled": 0, "rental_uris": {"android": "https://dc.lft.to/lastmile_qr_scan", "ios": "https://dc.lft.to/lastmile_qr_scan"}, "type": "electric_scooter", "lat": 38.88592116666667, "is_reserved": 0, "fusion_lat": 0.0}, {"bike_id": "532f9a24c7edda9b1bfe6e327815d30a", "fusion_lon": 0.0, "lon": -77.0392965, "name": "532f9a24c7edda9b1bfe6e327815d30a", "is_disabled": 0, "rental_uris": {"android": "https://dc.lft.to/lastmile_qr_scan", "ios": "https://dc.lft.to/lastmile_qr_scan"}, "type": "electric_scooter", "lat": 38.924921166666664, "is_reserved": 0, "fusion_lat": 0.0}, {"bike_id": "367d93ec59b034e29456eaf0913c7ab3", "fusion_lon": 0.0, "lon": -77.0020065, "name": "367d93ec59b034e29456eaf0913c7ab3", "is_disabled": 0, "rental_uris": {"android": "https://dc.lft.to/lastmile_qr_scan", "ios": "https://dc.lft.to/lastmile_qr_scan"}, "type": "electric_scooter", "lat": 38.902387, "is_reserved": 0, "fusion_lat": 0.0}, {"bike_id": "b03b415342275bf8189587e90d65f4f5", "fusion_lon": 0.0, "lon": -77.03557016666667, "name": "b03b415342275bf8189587e90d65f4f5", "is_disabled": 0, "rental_uris": {"android": "https://dc.lft.to/lastmile_qr_scan", "ios": "https://dc.lft.to/lastmile_qr_scan"}, "type": "electric_scooter", "lat": 38.92860666666667, "is_reserved": 0, "fusion_lat": 0.0}, {"bike_id": "a338fde185e735080cd9f50f8b6b6bb3", "fusion_lon": 0.0, "lon": -77.02957583333334, "name": "a338fde185e735080cd9f50f8b6b6bb3", "is_disabled": 0, "rental_uris": {"android": "https://dc.lft.to/lastmile_qr_scan", "ios": "https://dc.lft.to/lastmile_qr_scan"}, "type": "electric_scooter", "lat": 38.92332966666667, "is_reserved": 0, "fusion_lat": 0.0}, {"bike_id": "01e9c9c2c34a55673cdcf3b2d26f0756", "fusion_lon": 0.0, "lon": -76.990291, "name": "01e9c9c2c34a55673cdcf3b2d26f0756", "is_disabled": 0, "rental_uris": {"android": "https://dc.lft.to/lastmile_qr_scan", "ios": "https://dc.lft.to/lastmile_qr_scan"}, "type": "electric_scooter", "lat": 38.901845, "is_reserved": 0, "fusion_lat": 0.0}, {"bike_id": "fd4def6148ae335dd12cdfdb28dc184e", "fusion_lon": 0.0, "lon": -77.02206833333334, "name": "fd4def6148ae335dd12cdfdb28dc184e", "is_disabled": 0, "rental_uris": {"android": "https://dc.lft.to/lastmile_qr_scan", "ios": "https://dc.lft.to/lastmile_qr_scan"}, "type": "electric_scooter", "lat": 38.911001666666664, "is_reserved": 0, "fusion_lat": 0.0}, {"bike_id": "0a8ed8e3d8bd4bfaf8abca9eb3086564", "fusion_lon": 0.0, "lon": -77.039859, "name": "0a8ed8e3d8bd4bfaf8abca9eb3086564", "is_disabled": 0, "rental_uris": {"android": "https://dc.lft.to/lastmile_qr_scan", "ios": "https://dc.lft.to/lastmile_qr_scan"}, "type": "electric_scooter", "lat": 38.92577166666667, "is_reserved": 0, "fusion_lat": 0.0}, {"bike_id": "e12559df0eb7cd23f34fca805309d11f", "fusion_lon": 0.0, "lon": -77.0295875, "name": "e12559df0eb7cd23f34fca805309d11f", "is_disabled": 0, "rental_uris": {"android": "https://dc.lft.to/lastmile_qr_scan", "ios": "https://dc.lft.to/lastmile_qr_scan"}, "type": "electric_scooter", "lat": 38.9049285, "is_reserved": 0, "fusion_lat": 0.0}, {"bike_id": "fe54afb8140f68396f2393cb47075961", "fusion_lon": 0.0, "lon": -77.005521, "name": "fe54afb8140f68396f2393cb47075961", "is_disabled": 0, "rental_uris": {"android": "https://dc.lft.to/lastmile_qr_scan", "ios": "https://dc.lft.to/lastmile_qr_scan"}, "type": "electric_scooter", "lat": 38.90572733333333, "is_reserved": 0, "fusion_lat": 0.0}, {"bike_id": "317cfb9e00e26791f9e54d0a23c9aad1", "fusion_lon": 0.0, "lon": -77.0253095, "name": "317cfb9e00e26791f9e54d0a23c9aad1", "is_disabled": 0, "rental_uris": {"android": "https://dc.lft.to/lastmile_qr_scan", "ios": "https://dc.lft.to/lastmile_qr_scan"}, "type": "electric_scooter", "lat": 38.9096025, "is_reserved": 0, "fusion_lat": 0.0}, {"bike_id": "7133d5c88f918a27a73608c5412a4f59", "fusion_lon": 0.0, "lon": -77.02449066666667, "name": "7133d5c88f918a27a73608c5412a4f59", "is_disabled": 0, "rental_uris": {"android": "https://dc.lft.to/lastmile_qr_scan", "ios": "https://dc.lft.to/lastmile_qr_scan"}, "type": "electric_scooter", "lat": 38.92052983333333, "is_reserved": 0, "fusion_lat": 0.0}, {"bike_id": "4134d3752c147038a3f510457e65cad7", "fusion_lon": 0.0, "lon": -76.9990685, "name": "4134d3752c147038a3f510457e65cad7", "is_disabled": 0, "rental_uris": {"android": "https://dc.lft.to/lastmile_qr_scan", "ios": "https://dc.lft.to/lastmile_qr_scan"}, "type": "electric_bike", "lat": 38.89207783333333, "is_reserved": 0, "fusion_lat": 0.0}, {"bike_id": "23350ecf937f8f8cdd7fd7c867bd12c5", "fusion_lon": 0.0, "lon": -77.0252795, "name": "23350ecf937f8f8cdd7fd7c867bd12c5", "is_disabled": 0, "rental_uris": {"android": "https://dc.lft.to/lastmile_qr_scan", "ios": "https://dc.lft.to/lastmile_qr_scan"}, "type": "electric_scooter", "lat": 38.898365166666665, "is_reserved": 0, "fusion_lat": 0.0}, {"bike_id": "5edca9d9bc2806e7cbceded873cd0d2e", "fusion_lon": 0.0, "lon": -77.01528683333333, "name": "5edca9d9bc2806e7cbceded873cd0d2e", "is_disabled": 0, "rental_uris": {"android": "https://dc.lft.to/lastmile_qr_scan", "ios": "https://dc.lft.to/lastmile_qr_scan"}, "type": "electric_scooter", "lat": 38.88407866666667, "is_reserved": 0, "fusion_lat": 0.0}, {"bike_id": "b22b527d4a5d9f6fb7f59ae15ac2dba4", "fusion_lon": 0.0, "lon": -77.046061, "name": "b22b527d4a5d9f6fb7f59ae15ac2dba4", "is_disabled": 0, "rental_uris": {"android": "https://dc.lft.to/lastmile_qr_scan", "ios": "https://dc.lft.to/lastmile_qr_scan"}, "type": "electric_scooter", "lat": 38.9172625, "is_reserved": 0, "fusion_lat": 0.0}, {"bike_id": "f3e6a14ec3728c9fd7090efc748453c2", "fusion_lon": 0.0, "lon": -77.0079965, "name": "f3e6a14ec3728c9fd7090efc748453c2", "is_disabled": 0, "rental_uris": {"android": "https://dc.lft.to/lastmile_qr_scan", "ios": "https://dc.lft.to/lastmile_qr_scan"}, "type": "electric_bike", "lat": 38.94924783333333, "is_reserved": 0, "fusion_lat": 0.0}, {"bike_id": "9e180d3965959b90335b60de502bc614", "fusion_lon": 0.0, "lon": -77.03644083333333, "name": "9e180d3965959b90335b60de502bc614", "is_disabled": 0, "rental_uris": {"android": "https://dc.lft.to/lastmile_qr_scan", "ios": "https://dc.lft.to/lastmile_qr_scan"}, "type": "electric_scooter", "lat": 38.92347733333333, "is_reserved": 0, "fusion_lat": 0.0}, {"bike_id": "131543165a8dcdf403ac8928cdf77c24", "fusion_lon": 0.0, "lon": -77.028007, "name": "131543165a8dcdf403ac8928cdf77c24", "is_disabled": 0, "rental_uris": {"android": "https://dc.lft.to/lastmile_qr_scan", "ios": "https://dc.lft.to/lastmile_qr_scan"}, "type": "electric_scooter", "lat": 38.930859833333336, "is_reserved": 0, "fusion_lat": 0.0}, {"bike_id": "3f544feae7cba19559248fc7f4fd45c0", "fusion_lon": 0.0, "lon": -76.99679533333334, "name": "3f544feae7cba19559248fc7f4fd45c0", "is_disabled": 0, "rental_uris": {"android": "https://dc.lft.to/lastmile_qr_scan", "ios": "https://dc.lft.to/lastmile_qr_scan"}, "type": "electric_bike", "lat": 38.924918166666664, "is_reserved": 0, "fusion_lat": 0.0}, {"bike_id": "cde946efb147cba6e2eca9a5cb2aa9d5", "fusion_lon": 0.0, "lon": -77.028198, "name": "cde946efb147cba6e2eca9a5cb2aa9d5", "is_disabled": 0, "rental_uris": {"android": "https://dc.lft.to/lastmile_qr_scan", "ios": "https://dc.lft.to/lastmile_qr_scan"}, "type": "electric_scooter", "lat": 38.916875, "is_reserved": 0, "fusion_lat": 0.0}, {"bike_id": "e424033ab32f946edeba8ff510133933", "fusion_lon": 0.0, "lon": -77.01200783333333, "name": "e424033ab32f946edeba8ff510133933", "is_disabled": 0, "rental_uris": {"android": "https://dc.lft.to/lastmile_qr_scan", "ios": "https://dc.lft.to/lastmile_qr_scan"}, "type": "electric_scooter", "lat": 38.900117, "is_reserved": 0, "fusion_lat": 0.0}, {"bike_id": "dd7840d2407cc2cdbc2738d980cc15f2", "fusion_lon": 0.0, "lon": -77.021081, "name": "dd7840d2407cc2cdbc2738d980cc15f2", "is_disabled": 0, "rental_uris": {"android": "https://dc.lft.to/lastmile_qr_scan", "ios": "https://dc.lft.to/lastmile_qr_scan"}, "type": "electric_scooter", "lat": 38.92708833333333, "is_reserved": 0, "fusion_lat": 0.0}, {"bike_id": "45a4ae8fcec731f163124ff44639590e", "fusion_lon": 0.0, "lon": -77.0454755, "name": "45a4ae8fcec731f163124ff44639590e", "is_disabled": 0, "rental_uris": {"android": "https://dc.lft.to/lastmile_qr_scan", "ios": "https://dc.lft.to/lastmile_qr_scan"}, "type": "electric_scooter", "lat": 38.934075, "is_reserved": 0, "fusion_lat": 0.0}, {"bike_id": "2108c43d3faa2c4c3da5f23f4965b747", "fusion_lon": 0.0, "lon": -77.0352285, "name": "2108c43d3faa2c4c3da5f23f4965b747", "is_disabled": 0, "rental_uris": {"android": "https://dc.lft.to/lastmile_qr_scan", "ios": "https://dc.lft.to/lastmile_qr_scan"}, "type": "electric_scooter", "lat": 38.90074116666667, "is_reserved": 0, "fusion_lat": 0.0}, {"bike_id": "3779a94cf6d2c48ee69b428e49b0360a", "fusion_lon": 0.0, "lon": -77.03510783333333, "name": "3779a94cf6d2c48ee69b428e49b0360a", "is_disabled": 0, "rental_uris": {"android": "https://dc.lft.to/lastmile_qr_scan", "ios": "https://dc.lft.to/lastmile_qr_scan"}, "type": "electric_bike", "lat": 38.962033, "is_reserved": 0, "fusion_lat": 0.0}, {"bike_id": "cf1ebfd1d19cd2a7018ed63fd56afc93", "fusion_lon": 0.0, "lon": -77.05859133333334, "name": "cf1ebfd1d19cd2a7018ed63fd56afc93", "is_disabled": 0, "rental_uris": {"android": "https://dc.lft.to/lastmile_qr_scan", "ios": "https://dc.lft.to/lastmile_qr_scan"}, "type": "electric_scooter", "lat": 38.93604033333333, "is_reserved": 0, "fusion_lat": 0.0}, {"bike_id": "8506a6703984865fdb27f99a3f965d5c", "fusion_lon": 0.0, "lon": -77.00683316666667, "name": "8506a6703984865fdb27f99a3f965d5c", "is_disabled": 0, "rental_uris": {"android": "https://dc.lft.to/lastmile_qr_scan", "ios": "https://dc.lft.to/lastmile_qr_scan"}, "type": "electric_scooter", "lat": 38.900101, "is_reserved": 0, "fusion_lat": 0.0}, {"bike_id": "2f8c96d5832bd6c57b1ad33cabbb3b65", "fusion_lon": 0.0, "lon": -77.02545, "name": "2f8c96d5832bd6c57b1ad33cabbb3b65", "is_disabled": 0, "rental_uris": {"android": "https://dc.lft.to/lastmile_qr_scan", "ios": "https://dc.lft.to/lastmile_qr_scan"}, "type": "electric_scooter", "lat": 38.9411235, "is_reserved": 0, "fusion_lat": 0.0}, {"bike_id": "bb21b7677f2e0fcf3d5b6663c52acdfd", "fusion_lon": 0.0, "lon": -77.03869933333333, "name": "bb21b7677f2e0fcf3d5b6663c52acdfd", "is_disabled": 0, "rental_uris": {"android": "https://dc.lft.to/lastmile_qr_scan", "ios": "https://dc.lft.to/lastmile_qr_scan"}, "type": "electric_scooter", "lat": 38.918171, "is_reserved": 0, "fusion_lat": 0.0}, {"bike_id": "f20dc95bd7e4cb7ce15a11234696b012", "fusion_lon": 0.0, "lon": -77.02513383333333, "name": "f20dc95bd7e4cb7ce15a11234696b012", "is_disabled": 0, "rental_uris": {"android": "https://dc.lft.to/lastmile_qr_scan", "ios": "https://dc.lft.to/lastmile_qr_scan"}, "type": "electric_scooter", "lat": 38.92073933333333, "is_reserved": 0, "fusion_lat": 0.0}, {"bike_id": "4d6655b79cbe61fa79b000951221349a", "fusion_lon": 0.0, "lon": -77.041727, "name": "4d6655b79cbe61fa79b000951221349a", "is_disabled": 0, "rental_uris": {"android": "https://dc.lft.to/lastmile_qr_scan", "ios": "https://dc.lft.to/lastmile_qr_scan"}, "type": "electric_scooter", "lat": 38.905683333333336, "is_reserved": 0, "fusion_lat": 0.0}, {"bike_id": "350a0e65fcfc4ef29aeaac625a1d57fc", "fusion_lon": 0.0, "lon": -77.042404, "name": "350a0e65fcfc4ef29aeaac625a1d57fc", "is_disabled": 0, "rental_uris": {"android": "https://dc.lft.to/lastmile_qr_scan", "ios": "https://dc.lft.to/lastmile_qr_scan"}, "type": "electric_scooter", "lat": 38.922245833333335, "is_reserved": 0, "fusion_lat": 0.0}, {"bike_id": "5bbe8cd63467aa91db4e87e2688450c9", "fusion_lon": 0.0, "lon": -77.03063616666667, "name": "5bbe8cd63467aa91db4e87e2688450c9", "is_disabled": 0, "rental_uris": {"android": "https://dc.lft.to/lastmile_qr_scan", "ios": "https://dc.lft.to/lastmile_qr_scan"}, "type": "electric_scooter", "lat": 38.922496833333334, "is_reserved": 0, "fusion_lat": 0.0}, {"bike_id": "dd0132d35a80ee35803b8b9c27739305", "fusion_lon": 0.0, "lon": -77.03439633333333, "name": "dd0132d35a80ee35803b8b9c27739305", "is_disabled": 0, "rental_uris": {"android": "https://dc.lft.to/lastmile_qr_scan", "ios": "https://dc.lft.to/lastmile_qr_scan"}, "type": "electric_scooter", "lat": 38.90730216666667, "is_reserved": 0, "fusion_lat": 0.0}, {"bike_id": "c12a64471060af5d456fbe20d82e9c4f", "fusion_lon": 0.0, "lon": -77.01548233333334, "name": "c12a64471060af5d456fbe20d82e9c4f", "is_disabled": 0, "rental_uris": {"android": "https://dc.lft.to/lastmile_qr_scan", "ios": "https://dc.lft.to/lastmile_qr_scan"}, "type": "electric_scooter", "lat": 38.891344, "is_reserved": 0, "fusion_lat": 0.0}, {"bike_id": "13ff9ca2c09da9e82a9ed3a8b07cc8b9", "fusion_lon": 0.0, "lon": -77.0058985, "name": "13ff9ca2c09da9e82a9ed3a8b07cc8b9", "is_disabled": 0, "rental_uris": {"android": "https://dc.lft.to/lastmile_qr_scan", "ios": "https://dc.lft.to/lastmile_qr_scan"}, "type": "electric_scooter", "lat": 38.905668, "is_reserved": 0, "fusion_lat": 0.0}, {"bike_id": "f552798880ab7481ab0440d36d5f2b20", "fusion_lon": 0.0, "lon": -77.04926166666667, "name": "f552798880ab7481ab0440d36d5f2b20", "is_disabled": 0, "rental_uris": {"android": "https://dc.lft.to/lastmile_qr_scan", "ios": "https://dc.lft.to/lastmile_qr_scan"}, "type": "electric_bike", "lat": 38.813387, "is_reserved": 0, "fusion_lat": 0.0}, {"bike_id": "587fed9999ba1a9876b424c21cd607b0", "fusion_lon": 0.0, "lon": -77.05094233333334, "name": "587fed9999ba1a9876b424c21cd607b0", "is_disabled": 0, "rental_uris": {"android": "https://dc.lft.to/lastmile_qr_scan", "ios": "https://dc.lft.to/lastmile_qr_scan"}, "type": "electric_scooter", "lat": 38.92334983333333, "is_reserved": 0, "fusion_lat": 0.0}, {"bike_id": "6217818966e1911b15ebee149ebbfa6d", "fusion_lon": 0.0, "lon": -77.02402883333333, "name": "6217818966e1911b15ebee149ebbfa6d", "is_disabled": 0, "rental_uris": {"android": "https://dc.lft.to/lastmile_qr_scan", "ios": "https://dc.lft.to/lastmile_qr_scan"}, "type": "electric_scooter", "lat": 38.9174965, "is_reserved": 0, "fusion_lat": 0.0}, {"bike_id": "6402331e9ddd16a091b6639da313e110", "fusion_lon": 0.0, "lon": -77.22340083333333, "name": "6402331e9ddd16a091b6639da313e110", "is_disabled": 0, "rental_uris": {"android": "https://dc.lft.to/lastmile_qr_scan", "ios": "https://dc.lft.to/lastmile_qr_scan"}, "type": "electric_bike", "lat": 38.918066833333334, "is_reserved": 0, "fusion_lat": 0.0}, {"bike_id": "61e8ffb289d719d2191b2ee29c13fdc7", "fusion_lon": 0.0, "lon": -77.03863116666666, "name": "61e8ffb289d719d2191b2ee29c13fdc7", "is_disabled": 0, "rental_uris": {"android": "https://dc.lft.to/lastmile_qr_scan", "ios": "https://dc.lft.to/lastmile_qr_scan"}, "type": "electric_scooter", "lat": 38.9077875, "is_reserved": 0, "fusion_lat": 0.0}, {"bike_id": "f40f1f92e5020cbcd94a48936951a3f1", "fusion_lon": 0.0, "lon": -77.095262, "name": "f40f1f92e5020cbcd94a48936951a3f1", "is_disabled": 0, "rental_uris": {"android": "https://dc.lft.to/lastmile_qr_scan", "ios": "https://dc.lft.to/lastmile_qr_scan"}, "type": "electric_bike", "lat": 38.83808116666667, "is_reserved": 0, "fusion_lat": 0.0}, {"bike_id": "75a618d0f2b6a9c3fb46bc2ae7d13e75", "fusion_lon": 0.0, "lon": -77.03814233333334, "name": "75a618d0f2b6a9c3fb46bc2ae7d13e75", "is_disabled": 0, "rental_uris": {"android": "https://dc.lft.to/lastmile_qr_scan", "ios": "https://dc.lft.to/lastmile_qr_scan"}, "type": "electric_scooter", "lat": 38.914107, "is_reserved": 0, "fusion_lat": 0.0}, {"bike_id": "31ef725ba4cee62c43e90a31d8f57c50", "fusion_lon": 0.0, "lon": -77.0234725, "name": "31ef725ba4cee62c43e90a31d8f57c50", "is_disabled": 0, "rental_uris": {"android": "https://dc.lft.to/lastmile_qr_scan", "ios": "https://dc.lft.to/lastmile_qr_scan"}, "type": "electric_scooter", "lat": 38.935349, "is_reserved": 0, "fusion_lat": 0.0}, {"bike_id": "fc506fb3f102eafd4ea2cd061089dc12", "fusion_lon": 0.0, "lon": -77.07859983333333, "name": "fc506fb3f102eafd4ea2cd061089dc12", "is_disabled": 0, "rental_uris": {"android": "https://dc.lft.to/lastmile_qr_scan", "ios": "https://dc.lft.to/lastmile_qr_scan"}, "type": "electric_bike", "lat": 38.931396666666664, "is_reserved": 0, "fusion_lat": 0.0}, {"bike_id": "ecb89e8eb216d33a87a559a0cf434076", "fusion_lon": 0.0, "lon": -77.01405183333334, "name": "ecb89e8eb216d33a87a559a0cf434076", "is_disabled": 0, "rental_uris": {"android": "https://dc.lft.to/lastmile_qr_scan", "ios": "https://dc.lft.to/lastmile_qr_scan"}, "type": "electric_scooter", "lat": 38.91818516666667, "is_reserved": 0, "fusion_lat": 0.0}, {"bike_id": "6e556f3b380e726f9cce9791d53569cb", "fusion_lon": 0.0, "lon": -77.04832316666666, "name": "6e556f3b380e726f9cce9791d53569cb", "is_disabled": 0, "rental_uris": {"android": "https://dc.lft.to/lastmile_qr_scan", "ios": "https://dc.lft.to/lastmile_qr_scan"}, "type": "electric_scooter", "lat": 38.911063666666664, "is_reserved": 0, "fusion_lat": 0.0}, {"bike_id": "83176f488a18578ffb78754530fd419a", "fusion_lon": 0.0, "lon": -76.93862583333333, "name": "83176f488a18578ffb78754530fd419a", "is_disabled": 0, "rental_uris": {"android": "https://dc.lft.to/lastmile_qr_scan", "ios": "https://dc.lft.to/lastmile_qr_scan"}, "type": "electric_scooter", "lat": 38.898970166666665, "is_reserved": 0, "fusion_lat": 0.0}, {"bike_id": "f7b247930328b5cc24c6c3d9a465a09a", "fusion_lon": 0.0, "lon": -76.9985965, "name": "f7b247930328b5cc24c6c3d9a465a09a", "is_disabled": 0, "rental_uris": {"android": "https://dc.lft.to/lastmile_qr_scan", "ios": "https://dc.lft.to/lastmile_qr_scan"}, "type": "electric_scooter", "lat": 38.903647, "is_reserved": 0, "fusion_lat": 0.0}, {"bike_id": "a124ffc1faa8db88724a51ca4d2be966", "fusion_lon": 0.0, "lon": -77.0136205, "name": "a124ffc1faa8db88724a51ca4d2be966", "is_disabled": 0, "rental_uris": {"android": "https://dc.lft.to/lastmile_qr_scan", "ios": "https://dc.lft.to/lastmile_qr_scan"}, "type": "electric_scooter", "lat": 38.893360666666666, "is_reserved": 0, "fusion_lat": 0.0}, {"bike_id": "d2d0af640431e60bea1295b5e2463854", "fusion_lon": 0.0, "lon": -77.04165033333334, "name": "d2d0af640431e60bea1295b5e2463854", "is_disabled": 0, "rental_uris": {"android": "https://dc.lft.to/lastmile_qr_scan", "ios": "https://dc.lft.to/lastmile_qr_scan"}, "type": "electric_scooter", "lat": 38.919824, "is_reserved": 0, "fusion_lat": 0.0}, {"bike_id": "42ea6d389b74b24d1c3db3c1f8d93c2f", "fusion_lon": 0.0, "lon": -77.03833483333334, "name": "42ea6d389b74b24d1c3db3c1f8d93c2f", "is_disabled": 0, "rental_uris": {"android": "https://dc.lft.to/lastmile_qr_scan", "ios": "https://dc.lft.to/lastmile_qr_scan"}, "type": "electric_scooter", "lat": 38.910153666666666, "is_reserved": 0, "fusion_lat": 0.0}, {"bike_id": "35962705a566d20b0b6833f0c88ff074", "fusion_lon": 0.0, "lon": -77.03756116666666, "name": "35962705a566d20b0b6833f0c88ff074", "is_disabled": 0, "rental_uris": {"android": "https://dc.lft.to/lastmile_qr_scan", "ios": "https://dc.lft.to/lastmile_qr_scan"}, "type": "electric_scooter", "lat": 38.91270683333333, "is_reserved": 0, "fusion_lat": 0.0}, {"bike_id": "4de4d1f98a80014f5e54da2db639e401", "fusion_lon": 0.0, "lon": -77.03840016666666, "name": "4de4d1f98a80014f5e54da2db639e401", "is_disabled": 0, "rental_uris": {"android": "https://dc.lft.to/lastmile_qr_scan", "ios": "https://dc.lft.to/lastmile_qr_scan"}, "type": "electric_scooter", "lat": 38.91105116666667, "is_reserved": 0, "fusion_lat": 0.0}, {"bike_id": "bc09091fc29b09926f709d6e9e5956da", "fusion_lon": 0.0, "lon": -77.113093, "name": "bc09091fc29b09926f709d6e9e5956da", "is_disabled": 0, "rental_uris": {"android": "https://dc.lft.to/lastmile_qr_scan", "ios": "https://dc.lft.to/lastmile_qr_scan"}, "type": "electric_bike", "lat": 38.8556675, "is_reserved": 0, "fusion_lat": 0.0}, {"bike_id": "2591fb690d5445e30e2df59fb00d1cb6", "fusion_lon": 0.0, "lon": -76.98039083333333, "name": "2591fb690d5445e30e2df59fb00d1cb6", "is_disabled": 0, "rental_uris": {"android": "https://dc.lft.to/lastmile_qr_scan", "ios": "https://dc.lft.to/lastmile_qr_scan"}, "type": "electric_scooter", "lat": 38.85332866666667, "is_reserved": 0, "fusion_lat": 0.0}, {"bike_id": "3fb00abf7d00dc3bbe13f313fe634c0d", "fusion_lon": 0.0, "lon": -76.99268333333333, "name": "3fb00abf7d00dc3bbe13f313fe634c0d", "is_disabled": 0, "rental_uris": {"android": "https://dc.lft.to/lastmile_qr_scan", "ios": "https://dc.lft.to/lastmile_qr_scan"}, "type": "electric_scooter", "lat": 38.90389416666667, "is_reserved": 0, "fusion_lat": 0.0}, {"bike_id": "e10db548244a1acdc01363a678b8d24f", "fusion_lon": 0.0, "lon": -77.0486965, "name": "e10db548244a1acdc01363a678b8d24f", "is_disabled": 0, "rental_uris": {"android": "https://dc.lft.to/lastmile_qr_scan", "ios": "https://dc.lft.to/lastmile_qr_scan"}, "type": "electric_scooter", "lat": 38.892212, "is_reserved": 0, "fusion_lat": 0.0}, {"bike_id": "46e34b04bce74152a73c95f8d86c6889", "fusion_lon": 0.0, "lon": -77.01946666666667, "name": "46e34b04bce74152a73c95f8d86c6889", "is_disabled": 0, "rental_uris": {"android": "https://dc.lft.to/lastmile_qr_scan", "ios": "https://dc.lft.to/lastmile_qr_scan"}, "type": "electric_scooter", "lat": 38.924198, "is_reserved": 0, "fusion_lat": 0.0}, {"bike_id": "59d534d6028dc7a54c6e675b1e6ccd64", "fusion_lon": 0.0, "lon": -77.046948, "name": "59d534d6028dc7a54c6e675b1e6ccd64", "is_disabled": 0, "rental_uris": {"android": "https://dc.lft.to/lastmile_qr_scan", "ios": "https://dc.lft.to/lastmile_qr_scan"}, "type": "electric_scooter", "lat": 38.9210835, "is_reserved": 0, "fusion_lat": 0.0}, {"bike_id": "95c99d017bbe629e8fa32c6dd65d1848", "fusion_lon": 0.0, "lon": -77.0308295, "name": "95c99d017bbe629e8fa32c6dd65d1848", "is_disabled": 0, "rental_uris": {"android": "https://dc.lft.to/lastmile_qr_scan", "ios": "https://dc.lft.to/lastmile_qr_scan"}, "type": "electric_scooter", "lat": 38.92251483333333, "is_reserved": 0, "fusion_lat": 0.0}, {"bike_id": "3600ecbe06bbe5550fa6555f03f7ad53", "fusion_lon": 0.0, "lon": -77.005935, "name": "3600ecbe06bbe5550fa6555f03f7ad53", "is_disabled": 0, "rental_uris": {"android": "https://dc.lft.to/lastmile_qr_scan", "ios": "https://dc.lft.to/lastmile_qr_scan"}, "type": "electric_scooter", "lat": 38.905687, "is_reserved": 0, "fusion_lat": 0.0}, {"bike_id": "125493ea6dbe3bfe3669b4fd7cb08207", "fusion_lon": 0.0, "lon": -77.02835083333333, "name": "125493ea6dbe3bfe3669b4fd7cb08207", "is_disabled": 0, "rental_uris": {"android": "https://dc.lft.to/lastmile_qr_scan", "ios": "https://dc.lft.to/lastmile_qr_scan"}, "type": "electric_scooter", "lat": 38.924854333333336, "is_reserved": 0, "fusion_lat": 0.0}, {"bike_id": "119fd329e2014fcb89363c49c163e6fb", "fusion_lon": 0.0, "lon": -77.113181, "name": "119fd329e2014fcb89363c49c163e6fb", "is_disabled": 0, "rental_uris": {"android": "https://dc.lft.to/lastmile_qr_scan", "ios": "https://dc.lft.to/lastmile_qr_scan"}, "type": "electric_bike", "lat": 38.83153433333333, "is_reserved": 0, "fusion_lat": 0.0}, {"bike_id": "d68eeb93663ef5983d71e1433541e7cd", "fusion_lon": 0.0, "lon": -77.01135366666666, "name": "d68eeb93663ef5983d71e1433541e7cd", "is_disabled": 0, "rental_uris": {"android": "https://dc.lft.to/lastmile_qr_scan", "ios": "https://dc.lft.to/lastmile_qr_scan"}, "type": "electric_scooter", "lat": 38.906397, "is_reserved": 0, "fusion_lat": 0.0}, {"bike_id": "9cab79ce20a9da9397c76621229b3b7c", "fusion_lon": 0.0, "lon": -77.03664633333334, "name": "9cab79ce20a9da9397c76621229b3b7c", "is_disabled": 0, "rental_uris": {"android": "https://dc.lft.to/lastmile_qr_scan", "ios": "https://dc.lft.to/lastmile_qr_scan"}, "type": "electric_scooter", "lat": 38.936348333333335, "is_reserved": 0, "fusion_lat": 0.0}, {"bike_id": "23050197c7f56975e80fdd83c0099a0a", "fusion_lon": 0.0, "lon": -77.01450433333333, "name": "23050197c7f56975e80fdd83c0099a0a", "is_disabled": 0, "rental_uris": {"android": "https://dc.lft.to/lastmile_qr_scan", "ios": "https://dc.lft.to/lastmile_qr_scan"}, "type": "electric_scooter", "lat": 38.91774433333333, "is_reserved": 0, "fusion_lat": 0.0}, {"bike_id": "36269865804baa822e57d78bfc72dabe", "fusion_lon": 0.0, "lon": -77.20851183333333, "name": "36269865804baa822e57d78bfc72dabe", "is_disabled": 0, "rental_uris": {"android": "https://dc.lft.to/lastmile_qr_scan", "ios": "https://dc.lft.to/lastmile_qr_scan"}, "type": "electric_bike", "lat": 38.92466, "is_reserved": 0, "fusion_lat": 0.0}, {"bike_id": "c07228c5feea9a10b000f0774c61660b", "fusion_lon": 0.0, "lon": -76.997019, "name": "c07228c5feea9a10b000f0774c61660b", "is_disabled": 0, "rental_uris": {"android": "https://dc.lft.to/lastmile_qr_scan", "ios": "https://dc.lft.to/lastmile_qr_scan"}, "type": "electric_scooter", "lat": 38.9218705, "is_reserved": 0, "fusion_lat": 0.0}, {"bike_id": "97e8b88d4f4148a069a9915edcd81c3b", "fusion_lon": 0.0, "lon": -77.0204465, "name": "97e8b88d4f4148a069a9915edcd81c3b", "is_disabled": 0, "rental_uris": {"android": "https://dc.lft.to/lastmile_qr_scan", "ios": "https://dc.lft.to/lastmile_qr_scan"}, "type": "electric_scooter", "lat": 38.9084525, "is_reserved": 0, "fusion_lat": 0.0}, {"bike_id": "f8ba508bc6f6e00355955a2a7762904a", "fusion_lon": 0.0, "lon": -77.0247875, "name": "f8ba508bc6f6e00355955a2a7762904a", "is_disabled": 0, "rental_uris": {"android": "https://dc.lft.to/lastmile_qr_scan", "ios": "https://dc.lft.to/lastmile_qr_scan"}, "type": "electric_scooter", "lat": 38.918858666666665, "is_reserved": 0, "fusion_lat": 0.0}, {"bike_id": "262f0d5926a17e69dfc575cfdb8c57b9", "fusion_lon": 0.0, "lon": -77.0290235, "name": "262f0d5926a17e69dfc575cfdb8c57b9", "is_disabled": 0, "rental_uris": {"android": "https://dc.lft.to/lastmile_qr_scan", "ios": "https://dc.lft.to/lastmile_qr_scan"}, "type": "electric_scooter", "lat": 38.928173666666666, "is_reserved": 0, "fusion_lat": 0.0}, {"bike_id": "63182b1270ff8b39804d1fa2ba8ec715", "fusion_lon": 0.0, "lon": -77.03751116666666, "name": "63182b1270ff8b39804d1fa2ba8ec715", "is_disabled": 0, "rental_uris": {"android": "https://dc.lft.to/lastmile_qr_scan", "ios": "https://dc.lft.to/lastmile_qr_scan"}, "type": "electric_scooter", "lat": 38.925957833333335, "is_reserved": 0, "fusion_lat": 0.0}, {"bike_id": "b574ac1b5b2e5dc9ea1c573dd15d55be", "fusion_lon": 0.0, "lon": -76.9949905, "name": "b574ac1b5b2e5dc9ea1c573dd15d55be", "is_disabled": 0, "rental_uris": {"android": "https://dc.lft.to/lastmile_qr_scan", "ios": "https://dc.lft.to/lastmile_qr_scan"}, "type": "electric_scooter", "lat": 38.891593666666665, "is_reserved": 0, "fusion_lat": 0.0}, {"bike_id": "e7b2bffd5fa46d1bcf484ad2fd021af6", "fusion_lon": 0.0, "lon": -77.00918283333333, "name": "e7b2bffd5fa46d1bcf484ad2fd021af6", "is_disabled": 0, "rental_uris": {"android": "https://dc.lft.to/lastmile_qr_scan", "ios": "https://dc.lft.to/lastmile_qr_scan"}, "type": "electric_scooter", "lat": 38.827863666666666, "is_reserved": 0, "fusion_lat": 0.0}, {"bike_id": "b5c19b4cf013c33581af53501ed5e3f2", "fusion_lon": 0.0, "lon": -77.009326, "name": "b5c19b4cf013c33581af53501ed5e3f2", "is_disabled": 0, "rental_uris": {"android": "https://dc.lft.to/lastmile_qr_scan", "ios": "https://dc.lft.to/lastmile_qr_scan"}, "type": "electric_scooter", "lat": 38.897282, "is_reserved": 0, "fusion_lat": 0.0}, {"bike_id": "e3433e1ecf928abaea52c62772a0bbed", "fusion_lon": 0.0, "lon": -76.996914, "name": "e3433e1ecf928abaea52c62772a0bbed", "is_disabled": 0, "rental_uris": {"android": "https://dc.lft.to/lastmile_qr_scan", "ios": "https://dc.lft.to/lastmile_qr_scan"}, "type": "electric_bike", "lat": 38.910934833333336, "is_reserved": 0, "fusion_lat": 0.0}, {"bike_id": "381e7925796c06e8b39a4761f2bdd96f", "fusion_lon": 0.0, "lon": -77.0185405, "name": "381e7925796c06e8b39a4761f2bdd96f", "is_disabled": 0, "rental_uris": {"android": "https://dc.lft.to/lastmile_qr_scan", "ios": "https://dc.lft.to/lastmile_qr_scan"}, "type": "electric_scooter", "lat": 38.97366366666667, "is_reserved": 0, "fusion_lat": 0.0}, {"bike_id": "de431d2b13fc2985579783d8492c7606", "fusion_lon": 0.0, "lon": -77.03184116666667, "name": "de431d2b13fc2985579783d8492c7606", "is_disabled": 0, "rental_uris": {"android": "https://dc.lft.to/lastmile_qr_scan", "ios": "https://dc.lft.to/lastmile_qr_scan"}, "type": "electric_scooter", "lat": 38.92488083333333, "is_reserved": 0, "fusion_lat": 0.0}, {"bike_id": "7c085ad1ea39fe7c63bf3177a11b3e23", "fusion_lon": 0.0, "lon": -77.0333, "name": "7c085ad1ea39fe7c63bf3177a11b3e23", "is_disabled": 0, "rental_uris": {"android": "https://dc.lft.to/lastmile_qr_scan", "ios": "https://dc.lft.to/lastmile_qr_scan"}, "type": "electric_bike", "lat": 38.93707633333333, "is_reserved": 0, "fusion_lat": 0.0}, {"bike_id": "c6f8a2678d6018571b59430cd4a42e1f", "fusion_lon": 0.0, "lon": -77.03825566666667, "name": "c6f8a2678d6018571b59430cd4a42e1f", "is_disabled": 0, "rental_uris": {"android": "https://dc.lft.to/lastmile_qr_scan", "ios": "https://dc.lft.to/lastmile_qr_scan"}, "type": "electric_scooter", "lat": 38.91822033333333, "is_reserved": 0, "fusion_lat": 0.0}, {"bike_id": "1dea6ec30b154e1e8bcac51744c69d91", "fusion_lon": 0.0, "lon": -76.94958916666667, "name": "1dea6ec30b154e1e8bcac51744c69d91", "is_disabled": 0, "rental_uris": {"android": "https://dc.lft.to/lastmile_qr_scan", "ios": "https://dc.lft.to/lastmile_qr_scan"}, "type": "electric_scooter", "lat": 38.904950666666664, "is_reserved": 0, "fusion_lat": 0.0}, {"bike_id": "7b0dd08d86a2f58563273c96de982f92", "fusion_lon": 0.0, "lon": -76.97529116666666, "name": "7b0dd08d86a2f58563273c96de982f92", "is_disabled": 0, "rental_uris": {"android": "https://dc.lft.to/lastmile_qr_scan", "ios": "https://dc.lft.to/lastmile_qr_scan"}, "type": "electric_bike", "lat": 38.90330633333333, "is_reserved": 0, "fusion_lat": 0.0}, {"bike_id": "bee80994447d3d5e0fa79ac8f63a2f8b", "fusion_lon": 0.0, "lon": -77.031339, "name": "bee80994447d3d5e0fa79ac8f63a2f8b", "is_disabled": 0, "rental_uris": {"android": "https://dc.lft.to/lastmile_qr_scan", "ios": "https://dc.lft.to/lastmile_qr_scan"}, "type": "electric_scooter", "lat": 38.9148915, "is_reserved": 0, "fusion_lat": 0.0}, {"bike_id": "a8f5c22de669e06ac80cfd6254f522c1", "fusion_lon": 0.0, "lon": -77.04466783333334, "name": "a8f5c22de669e06ac80cfd6254f522c1", "is_disabled": 0, "rental_uris": {"android": "https://dc.lft.to/lastmile_qr_scan", "ios": "https://dc.lft.to/lastmile_qr_scan"}, "type": "electric_scooter", "lat": 38.91532083333333, "is_reserved": 0, "fusion_lat": 0.0}, {"bike_id": "22d9f7a25bde6aa311c4e20c8f04cf39", "fusion_lon": 0.0, "lon": -77.052328, "name": "22d9f7a25bde6aa311c4e20c8f04cf39", "is_disabled": 0, "rental_uris": {"android": "https://dc.lft.to/lastmile_qr_scan", "ios": "https://dc.lft.to/lastmile_qr_scan"}, "type": "electric_scooter", "lat": 38.92462183333333, "is_reserved": 0, "fusion_lat": 0.0}, {"bike_id": "3c98e3c5e2172fadbe90241946413d34", "fusion_lon": 0.0, "lon": -77.02988483333333, "name": "3c98e3c5e2172fadbe90241946413d34", "is_disabled": 0, "rental_uris": {"android": "https://dc.lft.to/lastmile_qr_scan", "ios": "https://dc.lft.to/lastmile_qr_scan"}, "type": "electric_bike", "lat": 38.93694516666667, "is_reserved": 0, "fusion_lat": 0.0}, {"bike_id": "801a139a352e57ec31f492ba91a28fce", "fusion_lon": 0.0, "lon": -77.0188695, "name": "801a139a352e57ec31f492ba91a28fce", "is_disabled": 0, "rental_uris": {"android": "https://dc.lft.to/lastmile_qr_scan", "ios": "https://dc.lft.to/lastmile_qr_scan"}, "type": "electric_scooter", "lat": 38.90605433333333, "is_reserved": 0, "fusion_lat": 0.0}, {"bike_id": "8b5a8c0fa1560de01b151d6a8b08a9d0", "fusion_lon": 0.0, "lon": -77.04043316666667, "name": "8b5a8c0fa1560de01b151d6a8b08a9d0", "is_disabled": 0, "rental_uris": {"android": "https://dc.lft.to/lastmile_qr_scan", "ios": "https://dc.lft.to/lastmile_qr_scan"}, "type": "electric_scooter", "lat": 38.913475, "is_reserved": 0, "fusion_lat": 0.0}, {"bike_id": "57146f6d170cb8220af0e75aa9750d8c", "fusion_lon": 0.0, "lon": -77.05062433333333, "name": "57146f6d170cb8220af0e75aa9750d8c", "is_disabled": 0, "rental_uris": {"android": "https://dc.lft.to/lastmile_qr_scan", "ios": "https://dc.lft.to/lastmile_qr_scan"}, "type": "electric_scooter", "lat": 38.924127666666664, "is_reserved": 0, "fusion_lat": 0.0}, {"bike_id": "f01153893bd5ec0b919fe111b0fd7f16", "fusion_lon": 0.0, "lon": -76.9575025, "name": "f01153893bd5ec0b919fe111b0fd7f16", "is_disabled": 0, "rental_uris": {"android": "https://dc.lft.to/lastmile_qr_scan", "ios": "https://dc.lft.to/lastmile_qr_scan"}, "type": "electric_scooter", "lat": 38.88425066666667, "is_reserved": 0, "fusion_lat": 0.0}, {"bike_id": "bb00f28243b396cc301d67f219f93085", "fusion_lon": 0.0, "lon": -76.9598505, "name": "bb00f28243b396cc301d67f219f93085", "is_disabled": 0, "rental_uris": {"android": "https://dc.lft.to/lastmile_qr_scan", "ios": "https://dc.lft.to/lastmile_qr_scan"}, "type": "electric_bike", "lat": 38.869856666666664, "is_reserved": 0, "fusion_lat": 0.0}, {"bike_id": "57b344e16f9f77c92f79746fcf71aa71", "fusion_lon": 0.0, "lon": -77.03463666666667, "name": "57b344e16f9f77c92f79746fcf71aa71", "is_disabled": 0, "rental_uris": {"android": "https://dc.lft.to/lastmile_qr_scan", "ios": "https://dc.lft.to/lastmile_qr_scan"}, "type": "electric_scooter", "lat": 38.906355833333336, "is_reserved": 0, "fusion_lat": 0.0}, {"bike_id": "8ba834bd1238091c38a80b1852a9496c", "fusion_lon": 0.0, "lon": -77.03296233333333, "name": "8ba834bd1238091c38a80b1852a9496c", "is_disabled": 0, "rental_uris": {"android": "https://dc.lft.to/lastmile_qr_scan", "ios": "https://dc.lft.to/lastmile_qr_scan"}, "type": "electric_scooter", "lat": 38.956463666666664, "is_reserved": 0, "fusion_lat": 0.0}, {"bike_id": "dcc829122800dc906ef8f5e8640e547c", "fusion_lon": 0.0, "lon": -77.036473, "name": "dcc829122800dc906ef8f5e8640e547c", "is_disabled": 0, "rental_uris": {"android": "https://dc.lft.to/lastmile_qr_scan", "ios": "https://dc.lft.to/lastmile_qr_scan"}, "type": "electric_scooter", "lat": 38.913148166666666, "is_reserved": 0, "fusion_lat": 0.0}, {"bike_id": "b7e7f02fd26dea2ea0ea4b6abacc150e", "fusion_lon": 0.0, "lon": -77.03152266666666, "name": "b7e7f02fd26dea2ea0ea4b6abacc150e", "is_disabled": 0, "rental_uris": {"android": "https://dc.lft.to/lastmile_qr_scan", "ios": "https://dc.lft.to/lastmile_qr_scan"}, "type": "electric_scooter", "lat": 38.9156265, "is_reserved": 0, "fusion_lat": 0.0}, {"bike_id": "e57b510020b3fc6cf6fda08b31081fce", "fusion_lon": 0.0, "lon": -77.03714533333333, "name": "e57b510020b3fc6cf6fda08b31081fce", "is_disabled": 0, "rental_uris": {"android": "https://dc.lft.to/lastmile_qr_scan", "ios": "https://dc.lft.to/lastmile_qr_scan"}, "type": "electric_scooter", "lat": 38.909695166666666, "is_reserved": 0, "fusion_lat": 0.0}, {"bike_id": "452b9163387207b69653ab6f3c39bb4d", "fusion_lon": 0.0, "lon": -77.05389016666666, "name": "452b9163387207b69653ab6f3c39bb4d", "is_disabled": 0, "rental_uris": {"android": "https://dc.lft.to/lastmile_qr_scan", "ios": "https://dc.lft.to/lastmile_qr_scan"}, "type": "electric_scooter", "lat": 38.910694166666666, "is_reserved": 0, "fusion_lat": 0.0}, {"bike_id": "18be65694c65f27f97a49b540796d320", "fusion_lon": 0.0, "lon": -76.9315895, "name": "18be65694c65f27f97a49b540796d320", "is_disabled": 0, "rental_uris": {"android": "https://dc.lft.to/lastmile_qr_scan", "ios": "https://dc.lft.to/lastmile_qr_scan"}, "type": "electric_scooter", "lat": 38.8987985, "is_reserved": 0, "fusion_lat": 0.0}, {"bike_id": "5747a467aa2ff900f90a67b686bc6e8b", "fusion_lon": 0.0, "lon": -77.04836283333333, "name": "5747a467aa2ff900f90a67b686bc6e8b", "is_disabled": 0, "rental_uris": {"android": "https://dc.lft.to/lastmile_qr_scan", "ios": "https://dc.lft.to/lastmile_qr_scan"}, "type": "electric_scooter", "lat": 38.90715983333333, "is_reserved": 0, "fusion_lat": 0.0}, {"bike_id": "40b15ee6204a705d7ea6c628d1f9d3a5", "fusion_lon": 0.0, "lon": -77.03327966666667, "name": "40b15ee6204a705d7ea6c628d1f9d3a5", "is_disabled": 0, "rental_uris": {"android": "https://dc.lft.to/lastmile_qr_scan", "ios": "https://dc.lft.to/lastmile_qr_scan"}, "type": "electric_scooter", "lat": 38.921601333333335, "is_reserved": 0, "fusion_lat": 0.0}, {"bike_id": "7dc71f6eecd1e138261f238323a9d05a", "fusion_lon": 0.0, "lon": -77.0401855, "name": "7dc71f6eecd1e138261f238323a9d05a", "is_disabled": 0, "rental_uris": {"android": "https://dc.lft.to/lastmile_qr_scan", "ios": "https://dc.lft.to/lastmile_qr_scan"}, "type": "electric_scooter", "lat": 38.92173583333334, "is_reserved": 0, "fusion_lat": 0.0}, {"bike_id": "a33d36e1481ebd688d17108f5d6b92fb", "fusion_lon": 0.0, "lon": -77.02915166666666, "name": "a33d36e1481ebd688d17108f5d6b92fb", "is_disabled": 0, "rental_uris": {"android": "https://dc.lft.to/lastmile_qr_scan", "ios": "https://dc.lft.to/lastmile_qr_scan"}, "type": "electric_scooter", "lat": 38.933258333333335, "is_reserved": 0, "fusion_lat": 0.0}, {"bike_id": "9c331e9ce36b83e33adc5d9e2b68a62e", "fusion_lon": 0.0, "lon": -77.04166133333334, "name": "9c331e9ce36b83e33adc5d9e2b68a62e", "is_disabled": 0, "rental_uris": {"android": "https://dc.lft.to/lastmile_qr_scan", "ios": "https://dc.lft.to/lastmile_qr_scan"}, "type": "electric_bike", "lat": 38.919817, "is_reserved": 0, "fusion_lat": 0.0}, {"bike_id": "530a0289c76b10c10f6166e289079451", "fusion_lon": 0.0, "lon": -77.04285116666667, "name": "530a0289c76b10c10f6166e289079451", "is_disabled": 0, "rental_uris": {"android": "https://dc.lft.to/lastmile_qr_scan", "ios": "https://dc.lft.to/lastmile_qr_scan"}, "type": "electric_scooter", "lat": 38.914061833333335, "is_reserved": 0, "fusion_lat": 0.0}, {"bike_id": "f0856d231713246bd2fb5b14115fb52d", "fusion_lon": 0.0, "lon": -77.0365705, "name": "f0856d231713246bd2fb5b14115fb52d", "is_disabled": 0, "rental_uris": {"android": "https://dc.lft.to/lastmile_qr_scan", "ios": "https://dc.lft.to/lastmile_qr_scan"}, "type": "electric_scooter", "lat": 38.934890333333335, "is_reserved": 0, "fusion_lat": 0.0}, {"bike_id": "755dc0086a6cce26ebcea94df26bf482", "fusion_lon": 0.0, "lon": -77.0033825, "name": "755dc0086a6cce26ebcea94df26bf482", "is_disabled": 0, "rental_uris": {"android": "https://dc.lft.to/lastmile_qr_scan", "ios": "https://dc.lft.to/lastmile_qr_scan"}, "type": "electric_scooter", "lat": 38.895203333333335, "is_reserved": 0, "fusion_lat": 0.0}, {"bike_id": "8427c994d855553a8e7b0858a3396cf3", "fusion_lon": 0.0, "lon": -76.965304, "name": "8427c994d855553a8e7b0858a3396cf3", "is_disabled": 0, "rental_uris": {"android": "https://dc.lft.to/lastmile_qr_scan", "ios": "https://dc.lft.to/lastmile_qr_scan"}, "type": "electric_scooter", "lat": 38.876280666666666, "is_reserved": 0, "fusion_lat": 0.0}, {"bike_id": "57cae91564613f69b5307ae13c1ebf3b", "fusion_lon": 0.0, "lon": -77.03841666666666, "name": "57cae91564613f69b5307ae13c1ebf3b", "is_disabled": 0, "rental_uris": {"android": "https://dc.lft.to/lastmile_qr_scan", "ios": "https://dc.lft.to/lastmile_qr_scan"}, "type": "electric_scooter", "lat": 38.91092716666667, "is_reserved": 0, "fusion_lat": 0.0}, {"bike_id": "d4eb039fa8f85e1830402b2ee3112db1", "fusion_lon": 0.0, "lon": -77.03536616666666, "name": "d4eb039fa8f85e1830402b2ee3112db1", "is_disabled": 0, "rental_uris": {"android": "https://dc.lft.to/lastmile_qr_scan", "ios": "https://dc.lft.to/lastmile_qr_scan"}, "type": "electric_scooter", "lat": 38.916868, "is_reserved": 0, "fusion_lat": 0.0}, {"bike_id": "7dc9eb2341bb1c861c6db8cbac9a8629", "fusion_lon": 0.0, "lon": -77.03061666666666, "name": "7dc9eb2341bb1c861c6db8cbac9a8629", "is_disabled": 0, "rental_uris": {"android": "https://dc.lft.to/lastmile_qr_scan", "ios": "https://dc.lft.to/lastmile_qr_scan"}, "type": "electric_bike", "lat": 38.959512333333336, "is_reserved": 0, "fusion_lat": 0.0}, {"bike_id": "729062171bf4d228c97f766b8e67113d", "fusion_lon": 0.0, "lon": -77.02204366666666, "name": "729062171bf4d228c97f766b8e67113d", "is_disabled": 0, "rental_uris": {"android": "https://dc.lft.to/lastmile_qr_scan", "ios": "https://dc.lft.to/lastmile_qr_scan"}, "type": "electric_scooter", "lat": 38.910964166666666, "is_reserved": 0, "fusion_lat": 0.0}, {"bike_id": "9297d329cf60aeed1a6561c6a3e85a29", "fusion_lon": 0.0, "lon": -77.0307865, "name": "9297d329cf60aeed1a6561c6a3e85a29", "is_disabled": 0, "rental_uris": {"android": "https://dc.lft.to/lastmile_qr_scan", "ios": "https://dc.lft.to/lastmile_qr_scan"}, "type": "electric_scooter", "lat": 38.90718733333333, "is_reserved": 0, "fusion_lat": 0.0}, {"bike_id": "2e5e52308513eb0efbc5b401a00e0398", "fusion_lon": 0.0, "lon": -77.03425216666666, "name": "2e5e52308513eb0efbc5b401a00e0398", "is_disabled": 0, "rental_uris": {"android": "https://dc.lft.to/lastmile_qr_scan", "ios": "https://dc.lft.to/lastmile_qr_scan"}, "type": "electric_bike", "lat": 38.966216833333334, "is_reserved": 0, "fusion_lat": 0.0}, {"bike_id": "1e0eb80990695a4a766beb9b672f0dbd", "fusion_lon": 0.0, "lon": -76.98363766666667, "name": "1e0eb80990695a4a766beb9b672f0dbd", "is_disabled": 0, "rental_uris": {"android": "https://dc.lft.to/lastmile_qr_scan", "ios": "https://dc.lft.to/lastmile_qr_scan"}, "type": "electric_scooter", "lat": 38.90628866666667, "is_reserved": 0, "fusion_lat": 0.0}, {"bike_id": "f9b729676ac6df39b6eeddd9a3695021", "fusion_lon": 0.0, "lon": -77.04115033333333, "name": "f9b729676ac6df39b6eeddd9a3695021", "is_disabled": 0, "rental_uris": {"android": "https://dc.lft.to/lastmile_qr_scan", "ios": "https://dc.lft.to/lastmile_qr_scan"}, "type": "electric_scooter", "lat": 38.92143266666667, "is_reserved": 0, "fusion_lat": 0.0}, {"bike_id": "3538a32d937497ebb6b00587b1cafd8e", "fusion_lon": 0.0, "lon": -76.937322, "name": "3538a32d937497ebb6b00587b1cafd8e", "is_disabled": 0, "rental_uris": {"android": "https://dc.lft.to/lastmile_qr_scan", "ios": "https://dc.lft.to/lastmile_qr_scan"}, "type": "electric_scooter", "lat": 38.89016733333333, "is_reserved": 0, "fusion_lat": 0.0}, {"bike_id": "cd5ae82941651dc643af0fbea2aeaa94", "fusion_lon": 0.0, "lon": -76.973471, "name": "cd5ae82941651dc643af0fbea2aeaa94", "is_disabled": 0, "rental_uris": {"android": "https://dc.lft.to/lastmile_qr_scan", "ios": "https://dc.lft.to/lastmile_qr_scan"}, "type": "electric_scooter", "lat": 38.865081333333336, "is_reserved": 0, "fusion_lat": 0.0}, {"bike_id": "02645bfc916bfc1da257b584cb87430b", "fusion_lon": 0.0, "lon": -77.028207, "name": "02645bfc916bfc1da257b584cb87430b", "is_disabled": 0, "rental_uris": {"android": "https://dc.lft.to/lastmile_qr_scan", "ios": "https://dc.lft.to/lastmile_qr_scan"}, "type": "electric_scooter", "lat": 38.92070566666666, "is_reserved": 0, "fusion_lat": 0.0}, {"bike_id": "f0707c3691f8b951ee61953ef550b621", "fusion_lon": 0.0, "lon": -77.11798883333333, "name": "f0707c3691f8b951ee61953ef550b621", "is_disabled": 0, "rental_uris": {"android": "https://dc.lft.to/lastmile_qr_scan", "ios": "https://dc.lft.to/lastmile_qr_scan"}, "type": "electric_bike", "lat": 38.87375016666667, "is_reserved": 0, "fusion_lat": 0.0}, {"bike_id": "94c7fbc2436c1c786f13c590bfc7472a", "fusion_lon": 0.0, "lon": -77.03418783333333, "name": "94c7fbc2436c1c786f13c590bfc7472a", "is_disabled": 0, "rental_uris": {"android": "https://dc.lft.to/lastmile_qr_scan", "ios": "https://dc.lft.to/lastmile_qr_scan"}, "type": "electric_scooter", "lat": 38.919261666666664, "is_reserved": 0, "fusion_lat": 0.0}, {"bike_id": "3504cc5befd44839cbd9f76249d8247b", "fusion_lon": 0.0, "lon": -76.96528533333333, "name": "3504cc5befd44839cbd9f76249d8247b", "is_disabled": 0, "rental_uris": {"android": "https://dc.lft.to/lastmile_qr_scan", "ios": "https://dc.lft.to/lastmile_qr_scan"}, "type": "electric_scooter", "lat": 38.876263333333334, "is_reserved": 0, "fusion_lat": 0.0}, {"bike_id": "d1d5d2bd7730f08bdbe79426203e4f13", "fusion_lon": 0.0, "lon": -77.0198905, "name": "d1d5d2bd7730f08bdbe79426203e4f13", "is_disabled": 0, "rental_uris": {"android": "https://dc.lft.to/lastmile_qr_scan", "ios": "https://dc.lft.to/lastmile_qr_scan"}, "type": "electric_scooter", "lat": 38.93124433333333, "is_reserved": 0, "fusion_lat": 0.0}, {"bike_id": "fb31463c73d661010536422c5d75cbdd", "fusion_lon": 0.0, "lon": -77.02618733333334, "name": "fb31463c73d661010536422c5d75cbdd", "is_disabled": 0, "rental_uris": {"android": "https://dc.lft.to/lastmile_qr_scan", "ios": "https://dc.lft.to/lastmile_qr_scan"}, "type": "electric_bike", "lat": 38.969284333333334, "is_reserved": 0, "fusion_lat": 0.0}, {"bike_id": "294d8fc13d6eda8e2e9300469b62801f", "fusion_lon": 0.0, "lon": -77.0237835, "name": "294d8fc13d6eda8e2e9300469b62801f", "is_disabled": 0, "rental_uris": {"android": "https://dc.lft.to/lastmile_qr_scan", "ios": "https://dc.lft.to/lastmile_qr_scan"}, "type": "electric_bike", "lat": 38.9291, "is_reserved": 0, "fusion_lat": 0.0}, {"bike_id": "423883a21adb265b488dea8b4dbad5d7", "fusion_lon": 0.0, "lon": -77.0428915, "name": "423883a21adb265b488dea8b4dbad5d7", "is_disabled": 0, "rental_uris": {"android": "https://dc.lft.to/lastmile_qr_scan", "ios": "https://dc.lft.to/lastmile_qr_scan"}, "type": "electric_scooter", "lat": 38.908411666666666, "is_reserved": 0, "fusion_lat": 0.0}, {"bike_id": "10ba162d7bc1ded52d8fe90381ee30ad", "fusion_lon": 0.0, "lon": -77.0433255, "name": "10ba162d7bc1ded52d8fe90381ee30ad", "is_disabled": 0, "rental_uris": {"android": "https://dc.lft.to/lastmile_qr_scan", "ios": "https://dc.lft.to/lastmile_qr_scan"}, "type": "electric_scooter", "lat": 38.907372, "is_reserved": 0, "fusion_lat": 0.0}, {"bike_id": "5f9c245664133dfe35dc8d4fadf1df81", "fusion_lon": 0.0, "lon": -77.058746, "name": "5f9c245664133dfe35dc8d4fadf1df81", "is_disabled": 0, "rental_uris": {"android": "https://dc.lft.to/lastmile_qr_scan", "ios": "https://dc.lft.to/lastmile_qr_scan"}, "type": "electric_bike", "lat": 38.95886816666667, "is_reserved": 0, "fusion_lat": 0.0}, {"bike_id": "1d55f0c66fe2b3e5d0324b8047c8a01d", "fusion_lon": 0.0, "lon": -77.21645633333333, "name": "1d55f0c66fe2b3e5d0324b8047c8a01d", "is_disabled": 0, "rental_uris": {"android": "https://dc.lft.to/lastmile_qr_scan", "ios": "https://dc.lft.to/lastmile_qr_scan"}, "type": "electric_bike", "lat": 38.930111, "is_reserved": 0, "fusion_lat": 0.0}, {"bike_id": "e68133b1b0daeea8d6ae595ac1a4f676", "fusion_lon": 0.0, "lon": -77.02885783333333, "name": "e68133b1b0daeea8d6ae595ac1a4f676", "is_disabled": 0, "rental_uris": {"android": "https://dc.lft.to/lastmile_qr_scan", "ios": "https://dc.lft.to/lastmile_qr_scan"}, "type": "electric_bike", "lat": 38.9987355, "is_reserved": 0, "fusion_lat": 0.0}, {"bike_id": "ea7772b2e73f674d2e41e29876c901b8", "fusion_lon": 0.0, "lon": -77.0336215, "name": "ea7772b2e73f674d2e41e29876c901b8", "is_disabled": 0, "rental_uris": {"android": "https://dc.lft.to/lastmile_qr_scan", "ios": "https://dc.lft.to/lastmile_qr_scan"}, "type": "electric_scooter", "lat": 38.92152016666667, "is_reserved": 0, "fusion_lat": 0.0}, {"bike_id": "bfbf9aaf2ac7e7d1fa12a131ab9e8e98", "fusion_lon": 0.0, "lon": -77.02389483333333, "name": "bfbf9aaf2ac7e7d1fa12a131ab9e8e98", "is_disabled": 0, "rental_uris": {"android": "https://dc.lft.to/lastmile_qr_scan", "ios": "https://dc.lft.to/lastmile_qr_scan"}, "type": "electric_scooter", "lat": 38.9020605, "is_reserved": 0, "fusion_lat": 0.0}, {"bike_id": "12d4fdbfd4c39f752fce37225e4aa1c9", "fusion_lon": 0.0, "lon": -77.0169705, "name": "12d4fdbfd4c39f752fce37225e4aa1c9", "is_disabled": 0, "rental_uris": {"android": "https://dc.lft.to/lastmile_qr_scan", "ios": "https://dc.lft.to/lastmile_qr_scan"}, "type": "electric_scooter", "lat": 38.9117915, "is_reserved": 0, "fusion_lat": 0.0}, {"bike_id": "59cf3a4f4d9afaf0f798c346066eb4d1", "fusion_lon": 0.0, "lon": -77.03425366666667, "name": "59cf3a4f4d9afaf0f798c346066eb4d1", "is_disabled": 0, "rental_uris": {"android": "https://dc.lft.to/lastmile_qr_scan", "ios": "https://dc.lft.to/lastmile_qr_scan"}, "type": "electric_scooter", "lat": 38.9070915, "is_reserved": 0, "fusion_lat": 0.0}, {"bike_id": "162a857e177bba07e05ff4939fdcd79a", "fusion_lon": 0.0, "lon": -77.04651216666667, "name": "162a857e177bba07e05ff4939fdcd79a", "is_disabled": 0, "rental_uris": {"android": "https://dc.lft.to/lastmile_qr_scan", "ios": "https://dc.lft.to/lastmile_qr_scan"}, "type": "electric_bike", "lat": 39.054976833333335, "is_reserved": 0, "fusion_lat": 0.0}, {"bike_id": "7a99562edc534a144654d57111fe8bda", "fusion_lon": 0.0, "lon": -76.97267083333334, "name": "7a99562edc534a144654d57111fe8bda", "is_disabled": 0, "rental_uris": {"android": "https://dc.lft.to/lastmile_qr_scan", "ios": "https://dc.lft.to/lastmile_qr_scan"}, "type": "electric_bike", "lat": 38.9196, "is_reserved": 0, "fusion_lat": 0.0}, {"bike_id": "f2a261e38e669363131c3fc3a3151604", "fusion_lon": 0.0, "lon": -77.0477315, "name": "f2a261e38e669363131c3fc3a3151604", "is_disabled": 0, "rental_uris": {"android": "https://dc.lft.to/lastmile_qr_scan", "ios": "https://dc.lft.to/lastmile_qr_scan"}, "type": "electric_scooter", "lat": 38.90717466666667, "is_reserved": 0, "fusion_lat": 0.0}, {"bike_id": "84b3de81de8bc8c8ec408210a8fd88c5", "fusion_lon": 0.0, "lon": -76.93733466666667, "name": "84b3de81de8bc8c8ec408210a8fd88c5", "is_disabled": 0, "rental_uris": {"android": "https://dc.lft.to/lastmile_qr_scan", "ios": "https://dc.lft.to/lastmile_qr_scan"}, "type": "electric_scooter", "lat": 38.890163, "is_reserved": 0, "fusion_lat": 0.0}, {"bike_id": "550d168fa1e8a1e5995e1866d0f78d3f", "fusion_lon": 0.0, "lon": -77.03691183333333, "name": "550d168fa1e8a1e5995e1866d0f78d3f", "is_disabled": 0, "rental_uris": {"android": "https://dc.lft.to/lastmile_qr_scan", "ios": "https://dc.lft.to/lastmile_qr_scan"}, "type": "electric_bike", "lat": 38.9397255, "is_reserved": 0, "fusion_lat": 0.0}, {"bike_id": "0a963da8b1e9adbf9c2cf5607243b7d9", "fusion_lon": 0.0, "lon": -77.04143533333334, "name": "0a963da8b1e9adbf9c2cf5607243b7d9", "is_disabled": 0, "rental_uris": {"android": "https://dc.lft.to/lastmile_qr_scan", "ios": "https://dc.lft.to/lastmile_qr_scan"}, "type": "electric_scooter", "lat": 38.92299283333333, "is_reserved": 0, "fusion_lat": 0.0}, {"bike_id": "14e7d7919be26344fe232d54ce4bf7ed", "fusion_lon": 0.0, "lon": -77.012826, "name": "14e7d7919be26344fe232d54ce4bf7ed", "is_disabled": 0, "rental_uris": {"android": "https://dc.lft.to/lastmile_qr_scan", "ios": "https://dc.lft.to/lastmile_qr_scan"}, "type": "electric_bike", "lat": 39.003809333333336, "is_reserved": 0, "fusion_lat": 0.0}, {"bike_id": "8fd60a3144480331437ff6953fd161f0", "fusion_lon": 0.0, "lon": -77.02160233333333, "name": "8fd60a3144480331437ff6953fd161f0", "is_disabled": 0, "rental_uris": {"android": "https://dc.lft.to/lastmile_qr_scan", "ios": "https://dc.lft.to/lastmile_qr_scan"}, "type": "electric_scooter", "lat": 38.92491616666667, "is_reserved": 0, "fusion_lat": 0.0}, {"bike_id": "90b76f0abab2630e086853029db0c837", "fusion_lon": 0.0, "lon": -76.97724366666667, "name": "90b76f0abab2630e086853029db0c837", "is_disabled": 0, "rental_uris": {"android": "https://dc.lft.to/lastmile_qr_scan", "ios": "https://dc.lft.to/lastmile_qr_scan"}, "type": "electric_scooter", "lat": 38.872460333333336, "is_reserved": 0, "fusion_lat": 0.0}, {"bike_id": "2c3c2b235633dc1e958f1e2da8f54213", "fusion_lon": 0.0, "lon": -77.04205566666667, "name": "2c3c2b235633dc1e958f1e2da8f54213", "is_disabled": 0, "rental_uris": {"android": "https://dc.lft.to/lastmile_qr_scan", "ios": "https://dc.lft.to/lastmile_qr_scan"}, "type": "electric_scooter", "lat": 38.920292833333335, "is_reserved": 0, "fusion_lat": 0.0}, {"bike_id": "19c89e12a9a6992c2ef554300fbf07e7", "fusion_lon": 0.0, "lon": -77.041507, "name": "19c89e12a9a6992c2ef554300fbf07e7", "is_disabled": 0, "rental_uris": {"android": "https://dc.lft.to/lastmile_qr_scan", "ios": "https://dc.lft.to/lastmile_qr_scan"}, "type": "electric_scooter", "lat": 38.92263783333333, "is_reserved": 0, "fusion_lat": 0.0}, {"bike_id": "ff10e26b88e193246d093fd3c90bf0d5", "fusion_lon": 0.0, "lon": -77.04322716666667, "name": "ff10e26b88e193246d093fd3c90bf0d5", "is_disabled": 0, "rental_uris": {"android": "https://dc.lft.to/lastmile_qr_scan", "ios": "https://dc.lft.to/lastmile_qr_scan"}, "type": "electric_scooter", "lat": 38.9026215, "is_reserved": 0, "fusion_lat": 0.0}, {"bike_id": "78fda35472912dc03e239c7c3d0b1b1b", "fusion_lon": 0.0, "lon": -77.00205683333333, "name": "78fda35472912dc03e239c7c3d0b1b1b", "is_disabled": 0, "rental_uris": {"android": "https://dc.lft.to/lastmile_qr_scan", "ios": "https://dc.lft.to/lastmile_qr_scan"}, "type": "electric_scooter", "lat": 38.90075933333333, "is_reserved": 0, "fusion_lat": 0.0}, {"bike_id": "663eeeec8310b053be1033f946ee332d", "fusion_lon": 0.0, "lon": -77.03899233333334, "name": "663eeeec8310b053be1033f946ee332d", "is_disabled": 0, "rental_uris": {"android": "https://dc.lft.to/lastmile_qr_scan", "ios": "https://dc.lft.to/lastmile_qr_scan"}, "type": "electric_scooter", "lat": 38.9220275, "is_reserved": 0, "fusion_lat": 0.0}, {"bike_id": "67065578e7e40d7e106c9f1d2cb816ba", "fusion_lon": 0.0, "lon": -76.97971033333333, "name": "67065578e7e40d7e106c9f1d2cb816ba", "is_disabled": 0, "rental_uris": {"android": "https://dc.lft.to/lastmile_qr_scan", "ios": "https://dc.lft.to/lastmile_qr_scan"}, "type": "electric_bike", "lat": 38.9537175, "is_reserved": 0, "fusion_lat": 0.0}, {"bike_id": "09708701fb39a47f0a9dc210da3d1a30", "fusion_lon": 0.0, "lon": -77.041766, "name": "09708701fb39a47f0a9dc210da3d1a30", "is_disabled": 0, "rental_uris": {"android": "https://dc.lft.to/lastmile_qr_scan", "ios": "https://dc.lft.to/lastmile_qr_scan"}, "type": "electric_scooter", "lat": 38.91235, "is_reserved": 0, "fusion_lat": 0.0}, {"bike_id": "c1b0e33f712abb0548564af064c8bc90", "fusion_lon": 0.0, "lon": -77.03871666666667, "name": "c1b0e33f712abb0548564af064c8bc90", "is_disabled": 0, "rental_uris": {"android": "https://dc.lft.to/lastmile_qr_scan", "ios": "https://dc.lft.to/lastmile_qr_scan"}, "type": "electric_scooter", "lat": 38.93243283333334, "is_reserved": 0, "fusion_lat": 0.0}, {"bike_id": "2bb4bb203bc8602a5595c78ceb6411f5", "fusion_lon": 0.0, "lon": -77.04039416666667, "name": "2bb4bb203bc8602a5595c78ceb6411f5", "is_disabled": 0, "rental_uris": {"android": "https://dc.lft.to/lastmile_qr_scan", "ios": "https://dc.lft.to/lastmile_qr_scan"}, "type": "electric_scooter", "lat": 38.890818833333334, "is_reserved": 0, "fusion_lat": 0.0}, {"bike_id": "8c4737127799da4c1b38bc0eefea9dea", "fusion_lon": 0.0, "lon": -77.008411, "name": "8c4737127799da4c1b38bc0eefea9dea", "is_disabled": 0, "rental_uris": {"android": "https://dc.lft.to/lastmile_qr_scan", "ios": "https://dc.lft.to/lastmile_qr_scan"}, "type": "electric_bike", "lat": 38.829077, "is_reserved": 0, "fusion_lat": 0.0}, {"bike_id": "8c0f539a6f2eca2d045ab1f7ffc7f0e6", "fusion_lon": 0.0, "lon": -77.0175865, "name": "8c0f539a6f2eca2d045ab1f7ffc7f0e6", "is_disabled": 0, "rental_uris": {"android": "https://dc.lft.to/lastmile_qr_scan", "ios": "https://dc.lft.to/lastmile_qr_scan"}, "type": "electric_scooter", "lat": 38.902497, "is_reserved": 0, "fusion_lat": 0.0}, {"bike_id": "2af3c22d3dbbe56d2029373e655f3275", "fusion_lon": 0.0, "lon": -76.99487733333333, "name": "2af3c22d3dbbe56d2029373e655f3275", "is_disabled": 0, "rental_uris": {"android": "https://dc.lft.to/lastmile_qr_scan", "ios": "https://dc.lft.to/lastmile_qr_scan"}, "type": "electric_scooter", "lat": 38.90984433333333, "is_reserved": 0, "fusion_lat": 0.0}, {"bike_id": "ee261c4e1db56a669af43bb4a7541f13", "fusion_lon": 0.0, "lon": -77.04143266666667, "name": "ee261c4e1db56a669af43bb4a7541f13", "is_disabled": 0, "rental_uris": {"android": "https://dc.lft.to/lastmile_qr_scan", "ios": "https://dc.lft.to/lastmile_qr_scan"}, "type": "electric_scooter", "lat": 38.9312835, "is_reserved": 0, "fusion_lat": 0.0}, {"bike_id": "27483e0b53961c5417a074fd15a54f51", "fusion_lon": 0.0, "lon": -77.01746866666667, "name": "27483e0b53961c5417a074fd15a54f51", "is_disabled": 0, "rental_uris": {"android": "https://dc.lft.to/lastmile_qr_scan", "ios": "https://dc.lft.to/lastmile_qr_scan"}, "type": "electric_scooter", "lat": 38.87728633333333, "is_reserved": 0, "fusion_lat": 0.0}, {"bike_id": "43c6ddf3d8f8d364ac2856a1bdae7b5f", "fusion_lon": 0.0, "lon": -77.042037, "name": "43c6ddf3d8f8d364ac2856a1bdae7b5f", "is_disabled": 0, "rental_uris": {"android": "https://dc.lft.to/lastmile_qr_scan", "ios": "https://dc.lft.to/lastmile_qr_scan"}, "type": "electric_scooter", "lat": 38.920417666666665, "is_reserved": 0, "fusion_lat": 0.0}, {"bike_id": "43e1909fd6e42fe4574ed360a3478a7a", "fusion_lon": 0.0, "lon": -77.0277495, "name": "43e1909fd6e42fe4574ed360a3478a7a", "is_disabled": 0, "rental_uris": {"android": "https://dc.lft.to/lastmile_qr_scan", "ios": "https://dc.lft.to/lastmile_qr_scan"}, "type": "electric_scooter", "lat": 38.92760533333333, "is_reserved": 0, "fusion_lat": 0.0}, {"bike_id": "a967ddbea9a534a19031fb8c09a848c4", "fusion_lon": 0.0, "lon": -76.94878533333333, "name": "a967ddbea9a534a19031fb8c09a848c4", "is_disabled": 0, "rental_uris": {"android": "https://dc.lft.to/lastmile_qr_scan", "ios": "https://dc.lft.to/lastmile_qr_scan"}, "type": "electric_scooter", "lat": 38.89499933333333, "is_reserved": 0, "fusion_lat": 0.0}, {"bike_id": "035e9ba5d8766aad6d7de903f61f9201", "fusion_lon": 0.0, "lon": -77.04391133333333, "name": "035e9ba5d8766aad6d7de903f61f9201", "is_disabled": 0, "rental_uris": {"android": "https://dc.lft.to/lastmile_qr_scan", "ios": "https://dc.lft.to/lastmile_qr_scan"}, "type": "electric_scooter", "lat": 38.920549666666666, "is_reserved": 0, "fusion_lat": 0.0}, {"bike_id": "841d278a897b4d5d459275b79f1b4064", "fusion_lon": 0.0, "lon": -76.9863585, "name": "841d278a897b4d5d459275b79f1b4064", "is_disabled": 0, "rental_uris": {"android": "https://dc.lft.to/lastmile_qr_scan", "ios": "https://dc.lft.to/lastmile_qr_scan"}, "type": "electric_bike", "lat": 38.88042633333333, "is_reserved": 0, "fusion_lat": 0.0}, {"bike_id": "979e038c46d7cc37824089223decd0b5", "fusion_lon": 0.0, "lon": -77.046025, "name": "979e038c46d7cc37824089223decd0b5", "is_disabled": 0, "rental_uris": {"android": "https://dc.lft.to/lastmile_qr_scan", "ios": "https://dc.lft.to/lastmile_qr_scan"}, "type": "electric_scooter", "lat": 38.91686816666667, "is_reserved": 0, "fusion_lat": 0.0}, {"bike_id": "35fddfa6f13c156dc06e95683eeabe38", "fusion_lon": 0.0, "lon": -77.02156683333334, "name": "35fddfa6f13c156dc06e95683eeabe38", "is_disabled": 0, "rental_uris": {"android": "https://dc.lft.to/lastmile_qr_scan", "ios": "https://dc.lft.to/lastmile_qr_scan"}, "type": "electric_scooter", "lat": 38.90956383333334, "is_reserved": 0, "fusion_lat": 0.0}, {"bike_id": "07315116e0065995ef8d00b2baec0a21", "fusion_lon": 0.0, "lon": -77.01615816666667, "name": "07315116e0065995ef8d00b2baec0a21", "is_disabled": 0, "rental_uris": {"android": "https://dc.lft.to/lastmile_qr_scan", "ios": "https://dc.lft.to/lastmile_qr_scan"}, "type": "electric_scooter", "lat": 38.912739, "is_reserved": 0, "fusion_lat": 0.0}, {"bike_id": "3a2eaf2fee279637a07d1310cbfded25", "fusion_lon": 0.0, "lon": -77.04870983333333, "name": "3a2eaf2fee279637a07d1310cbfded25", "is_disabled": 0, "rental_uris": {"android": "https://dc.lft.to/lastmile_qr_scan", "ios": "https://dc.lft.to/lastmile_qr_scan"}, "type": "electric_scooter", "lat": 38.900679, "is_reserved": 0, "fusion_lat": 0.0}, {"bike_id": "e94b8e6dc185ba565320b231a09c37fa", "fusion_lon": 0.0, "lon": -77.07634533333334, "name": "e94b8e6dc185ba565320b231a09c37fa", "is_disabled": 0, "rental_uris": {"android": "https://dc.lft.to/lastmile_qr_scan", "ios": "https://dc.lft.to/lastmile_qr_scan"}, "type": "electric_scooter", "lat": 38.932058166666664, "is_reserved": 0, "fusion_lat": 0.0}, {"bike_id": "b39f9d1254dd9db34a2963ae49a02900", "fusion_lon": 0.0, "lon": -77.04817966666667, "name": "b39f9d1254dd9db34a2963ae49a02900", "is_disabled": 0, "rental_uris": {"android": "https://dc.lft.to/lastmile_qr_scan", "ios": "https://dc.lft.to/lastmile_qr_scan"}, "type": "electric_scooter", "lat": 38.911100833333336, "is_reserved": 0, "fusion_lat": 0.0}, {"bike_id": "e04f3d685af28c8064c02844644f6878", "fusion_lon": 0.0, "lon": -77.03894883333334, "name": "e04f3d685af28c8064c02844644f6878", "is_disabled": 0, "rental_uris": {"android": "https://dc.lft.to/lastmile_qr_scan", "ios": "https://dc.lft.to/lastmile_qr_scan"}, "type": "electric_scooter", "lat": 38.92201033333333, "is_reserved": 0, "fusion_lat": 0.0}, {"bike_id": "5d1074068b1bf4632667b8cb0819b467", "fusion_lon": 0.0, "lon": -76.996927, "name": "5d1074068b1bf4632667b8cb0819b467", "is_disabled": 0, "rental_uris": {"android": "https://dc.lft.to/lastmile_qr_scan", "ios": "https://dc.lft.to/lastmile_qr_scan"}, "type": "electric_bike", "lat": 38.838613, "is_reserved": 0, "fusion_lat": 0.0}, {"bike_id": "146705561b8b8c0bac5d2542acc773a6", "fusion_lon": 0.0, "lon": -77.03655666666667, "name": "146705561b8b8c0bac5d2542acc773a6", "is_disabled": 0, "rental_uris": {"android": "https://dc.lft.to/lastmile_qr_scan", "ios": "https://dc.lft.to/lastmile_qr_scan"}, "type": "electric_scooter", "lat": 38.92330066666667, "is_reserved": 0, "fusion_lat": 0.0}, {"bike_id": "77b8e43ffca6b0994bcb1b569e8b0521", "fusion_lon": 0.0, "lon": -77.02718666666667, "name": "77b8e43ffca6b0994bcb1b569e8b0521", "is_disabled": 0, "rental_uris": {"android": "https://dc.lft.to/lastmile_qr_scan", "ios": "https://dc.lft.to/lastmile_qr_scan"}, "type": "electric_scooter", "lat": 38.90690033333333, "is_reserved": 0, "fusion_lat": 0.0}, {"bike_id": "9e92387712ce020813540e3acea25f60", "fusion_lon": 0.0, "lon": -77.0239045, "name": "9e92387712ce020813540e3acea25f60", "is_disabled": 0, "rental_uris": {"android": "https://dc.lft.to/lastmile_qr_scan", "ios": "https://dc.lft.to/lastmile_qr_scan"}, "type": "electric_scooter", "lat": 38.91123233333333, "is_reserved": 0, "fusion_lat": 0.0}, {"bike_id": "56eb77e9061ee94fa93357a34849f794", "fusion_lon": 0.0, "lon": -76.9817215, "name": "56eb77e9061ee94fa93357a34849f794", "is_disabled": 0, "rental_uris": {"android": "https://dc.lft.to/lastmile_qr_scan", "ios": "https://dc.lft.to/lastmile_qr_scan"}, "type": "electric_scooter", "lat": 38.856739, "is_reserved": 0, "fusion_lat": 0.0}, {"bike_id": "777531a263dc50f7c3b464bbc2a846dc", "fusion_lon": 0.0, "lon": -77.040071, "name": "777531a263dc50f7c3b464bbc2a846dc", "is_disabled": 0, "rental_uris": {"android": "https://dc.lft.to/lastmile_qr_scan", "ios": "https://dc.lft.to/lastmile_qr_scan"}, "type": "electric_scooter", "lat": 38.934272666666665, "is_reserved": 0, "fusion_lat": 0.0}, {"bike_id": "9a546ae5e55b06924791ad7743fe0969", "fusion_lon": 0.0, "lon": -77.03286916666667, "name": "9a546ae5e55b06924791ad7743fe0969", "is_disabled": 0, "rental_uris": {"android": "https://dc.lft.to/lastmile_qr_scan", "ios": "https://dc.lft.to/lastmile_qr_scan"}, "type": "electric_scooter", "lat": 38.9199385, "is_reserved": 0, "fusion_lat": 0.0}, {"bike_id": "9b994d64d5947c46efe57e1e7d433d5a", "fusion_lon": 0.0, "lon": -77.03116666666666, "name": "9b994d64d5947c46efe57e1e7d433d5a", "is_disabled": 0, "rental_uris": {"android": "https://dc.lft.to/lastmile_qr_scan", "ios": "https://dc.lft.to/lastmile_qr_scan"}, "type": "electric_bike", "lat": 38.95927433333333, "is_reserved": 0, "fusion_lat": 0.0}, {"bike_id": "e38b04dfa53bf9a03c2c64fb3bc83600", "fusion_lon": 0.0, "lon": -77.01654533333334, "name": "e38b04dfa53bf9a03c2c64fb3bc83600", "is_disabled": 0, "rental_uris": {"android": "https://dc.lft.to/lastmile_qr_scan", "ios": "https://dc.lft.to/lastmile_qr_scan"}, "type": "electric_scooter", "lat": 38.88119966666667, "is_reserved": 0, "fusion_lat": 0.0}, {"bike_id": "d8942a5f122baaf77585ec1928ba4ee8", "fusion_lon": 0.0, "lon": -77.03833133333333, "name": "d8942a5f122baaf77585ec1928ba4ee8", "is_disabled": 0, "rental_uris": {"android": "https://dc.lft.to/lastmile_qr_scan", "ios": "https://dc.lft.to/lastmile_qr_scan"}, "type": "electric_scooter", "lat": 38.90962316666667, "is_reserved": 0, "fusion_lat": 0.0}, {"bike_id": "04f6638452e4f55698166842646a6375", "fusion_lon": 0.0, "lon": -77.02810733333334, "name": "04f6638452e4f55698166842646a6375", "is_disabled": 0, "rental_uris": {"android": "https://dc.lft.to/lastmile_qr_scan", "ios": "https://dc.lft.to/lastmile_qr_scan"}, "type": "electric_scooter", "lat": 38.91432783333333, "is_reserved": 0, "fusion_lat": 0.0}, {"bike_id": "263ae7a232fd03eb5f12eeecc9480531", "fusion_lon": 0.0, "lon": -77.01755516666667, "name": "263ae7a232fd03eb5f12eeecc9480531", "is_disabled": 0, "rental_uris": {"android": "https://dc.lft.to/lastmile_qr_scan", "ios": "https://dc.lft.to/lastmile_qr_scan"}, "type": "electric_scooter", "lat": 38.90369666666667, "is_reserved": 0, "fusion_lat": 0.0}, {"bike_id": "267a061e192943119327520ea2509c0b", "fusion_lon": 0.0, "lon": -77.02414816666666, "name": "267a061e192943119327520ea2509c0b", "is_disabled": 0, "rental_uris": {"android": "https://dc.lft.to/lastmile_qr_scan", "ios": "https://dc.lft.to/lastmile_qr_scan"}, "type": "electric_bike", "lat": 38.934672666666664, "is_reserved": 0, "fusion_lat": 0.0}, {"bike_id": "8c5de884d53078c6219e8299b31bb87c", "fusion_lon": 0.0, "lon": -76.99813216666666, "name": "8c5de884d53078c6219e8299b31bb87c", "is_disabled": 0, "rental_uris": {"android": "https://dc.lft.to/lastmile_qr_scan", "ios": "https://dc.lft.to/lastmile_qr_scan"}, "type": "electric_scooter", "lat": 38.844329333333334, "is_reserved": 0, "fusion_lat": 0.0}, {"bike_id": "4836575bc17351d36446b19b091bb693", "fusion_lon": 0.0, "lon": -77.052367, "name": "4836575bc17351d36446b19b091bb693", "is_disabled": 0, "rental_uris": {"android": "https://dc.lft.to/lastmile_qr_scan", "ios": "https://dc.lft.to/lastmile_qr_scan"}, "type": "electric_scooter", "lat": 38.92695416666667, "is_reserved": 0, "fusion_lat": 0.0}, {"bike_id": "f0e9cd48467b14ae1881a4ab8f9b57d0", "fusion_lon": 0.0, "lon": -77.02599583333334, "name": "f0e9cd48467b14ae1881a4ab8f9b57d0", "is_disabled": 0, "rental_uris": {"android": "https://dc.lft.to/lastmile_qr_scan", "ios": "https://dc.lft.to/lastmile_qr_scan"}, "type": "electric_scooter", "lat": 38.91689066666667, "is_reserved": 0, "fusion_lat": 0.0}, {"bike_id": "f919583ba6ed0f847d85124d85222aee", "fusion_lon": 0.0, "lon": -77.03459383333333, "name": "f919583ba6ed0f847d85124d85222aee", "is_disabled": 0, "rental_uris": {"android": "https://dc.lft.to/lastmile_qr_scan", "ios": "https://dc.lft.to/lastmile_qr_scan"}, "type": "electric_scooter", "lat": 38.90801333333334, "is_reserved": 0, "fusion_lat": 0.0}, {"bike_id": "b5211320d393280a81d804a0b47d13ef", "fusion_lon": 0.0, "lon": -77.00972466666667, "name": "b5211320d393280a81d804a0b47d13ef", "is_disabled": 0, "rental_uris": {"android": "https://dc.lft.to/lastmile_qr_scan", "ios": "https://dc.lft.to/lastmile_qr_scan"}, "type": "electric_scooter", "lat": 38.90784933333333, "is_reserved": 0, "fusion_lat": 0.0}, {"bike_id": "b1b00341cc7a4d40c3d819345f5d1fe5", "fusion_lon": 0.0, "lon": -76.98923266666667, "name": "b1b00341cc7a4d40c3d819345f5d1fe5", "is_disabled": 0, "rental_uris": {"android": "https://dc.lft.to/lastmile_qr_scan", "ios": "https://dc.lft.to/lastmile_qr_scan"}, "type": "electric_scooter", "lat": 38.858100666666665, "is_reserved": 0, "fusion_lat": 0.0}, {"bike_id": "b4a4e8f86b8a9c9af72e9987b227ad0b", "fusion_lon": 0.0, "lon": -76.98652933333334, "name": "b4a4e8f86b8a9c9af72e9987b227ad0b", "is_disabled": 0, "rental_uris": {"android": "https://dc.lft.to/lastmile_qr_scan", "ios": "https://dc.lft.to/lastmile_qr_scan"}, "type": "electric_scooter", "lat": 38.858073833333336, "is_reserved": 0, "fusion_lat": 0.0}, {"bike_id": "0704d132ca1ef870da5fb6f28f8e4f48", "fusion_lon": 0.0, "lon": -77.029657, "name": "0704d132ca1ef870da5fb6f28f8e4f48", "is_disabled": 0, "rental_uris": {"android": "https://dc.lft.to/lastmile_qr_scan", "ios": "https://dc.lft.to/lastmile_qr_scan"}, "type": "electric_scooter", "lat": 38.93192283333333, "is_reserved": 0, "fusion_lat": 0.0}, {"bike_id": "3084caeb46d96be3d57b189a32517771", "fusion_lon": 0.0, "lon": -77.050666, "name": "3084caeb46d96be3d57b189a32517771", "is_disabled": 0, "rental_uris": {"android": "https://dc.lft.to/lastmile_qr_scan", "ios": "https://dc.lft.to/lastmile_qr_scan"}, "type": "electric_scooter", "lat": 38.9233715, "is_reserved": 0, "fusion_lat": 0.0}, {"bike_id": "06fa5252da0e76810eddfcb4d8177e5e", "fusion_lon": 0.0, "lon": -77.04341933333333, "name": "06fa5252da0e76810eddfcb4d8177e5e", "is_disabled": 0, "rental_uris": {"android": "https://dc.lft.to/lastmile_qr_scan", "ios": "https://dc.lft.to/lastmile_qr_scan"}, "type": "electric_scooter", "lat": 38.913030666666664, "is_reserved": 0, "fusion_lat": 0.0}, {"bike_id": "c5759378423274d520d7bb6577cdc46d", "fusion_lon": 0.0, "lon": -76.97188066666666, "name": "c5759378423274d520d7bb6577cdc46d", "is_disabled": 0, "rental_uris": {"android": "https://dc.lft.to/lastmile_qr_scan", "ios": "https://dc.lft.to/lastmile_qr_scan"}, "type": "electric_bike", "lat": 38.933169166666666, "is_reserved": 0, "fusion_lat": 0.0}, {"bike_id": "adb1e8f33b2a043619400f04a7f782f6", "fusion_lon": 0.0, "lon": -76.97593983333333, "name": "adb1e8f33b2a043619400f04a7f782f6", "is_disabled": 0, "rental_uris": {"android": "https://dc.lft.to/lastmile_qr_scan", "ios": "https://dc.lft.to/lastmile_qr_scan"}, "type": "electric_scooter", "lat": 38.903316333333336, "is_reserved": 0, "fusion_lat": 0.0}, {"bike_id": "b4aea52392f676224035219917bacd9a", "fusion_lon": 0.0, "lon": -77.00342216666667, "name": "b4aea52392f676224035219917bacd9a", "is_disabled": 0, "rental_uris": {"android": "https://dc.lft.to/lastmile_qr_scan", "ios": "https://dc.lft.to/lastmile_qr_scan"}, "type": "electric_scooter", "lat": 38.88995466666667, "is_reserved": 0, "fusion_lat": 0.0}, {"bike_id": "71a6d3752035c19b1080b4143df3b81d", "fusion_lon": 0.0, "lon": -77.07828866666667, "name": "71a6d3752035c19b1080b4143df3b81d", "is_disabled": 0, "rental_uris": {"android": "https://dc.lft.to/lastmile_qr_scan", "ios": "https://dc.lft.to/lastmile_qr_scan"}, "type": "electric_scooter", "lat": 38.91277383333333, "is_reserved": 0, "fusion_lat": 0.0}, {"bike_id": "ecf75ad95b8f2aaba36f727ca44fba85", "fusion_lon": 0.0, "lon": -77.03257566666667, "name": "ecf75ad95b8f2aaba36f727ca44fba85", "is_disabled": 0, "rental_uris": {"android": "https://dc.lft.to/lastmile_qr_scan", "ios": "https://dc.lft.to/lastmile_qr_scan"}, "type": "electric_scooter", "lat": 38.91404216666667, "is_reserved": 0, "fusion_lat": 0.0}, {"bike_id": "8b8fd06d9a8fc486534a5e576ff36def", "fusion_lon": 0.0, "lon": -77.02716333333333, "name": "8b8fd06d9a8fc486534a5e576ff36def", "is_disabled": 0, "rental_uris": {"android": "https://dc.lft.to/lastmile_qr_scan", "ios": "https://dc.lft.to/lastmile_qr_scan"}, "type": "electric_scooter", "lat": 38.920611666666666, "is_reserved": 0, "fusion_lat": 0.0}, {"bike_id": "df428222607a8f7f721f133e1c1edb8f", "fusion_lon": 0.0, "lon": -77.029657, "name": "df428222607a8f7f721f133e1c1edb8f", "is_disabled": 0, "rental_uris": {"android": "https://dc.lft.to/lastmile_qr_scan", "ios": "https://dc.lft.to/lastmile_qr_scan"}, "type": "electric_bike", "lat": 38.95049516666667, "is_reserved": 0, "fusion_lat": 0.0}, {"bike_id": "012cb1c106421ffbc2d46fc64209f59a", "fusion_lon": 0.0, "lon": -77.03360583333334, "name": "012cb1c106421ffbc2d46fc64209f59a", "is_disabled": 0, "rental_uris": {"android": "https://dc.lft.to/lastmile_qr_scan", "ios": "https://dc.lft.to/lastmile_qr_scan"}, "type": "electric_scooter", "lat": 38.931436, "is_reserved": 0, "fusion_lat": 0.0}, {"bike_id": "e49e02342511294a10f05da5136565e0", "fusion_lon": 0.0, "lon": -77.013548, "name": "e49e02342511294a10f05da5136565e0", "is_disabled": 0, "rental_uris": {"android": "https://dc.lft.to/lastmile_qr_scan", "ios": "https://dc.lft.to/lastmile_qr_scan"}, "type": "electric_scooter", "lat": 38.9196765, "is_reserved": 0, "fusion_lat": 0.0}, {"bike_id": "1e8a64544ccc25698344513c59f5408c", "fusion_lon": 0.0, "lon": -77.03590866666667, "name": "1e8a64544ccc25698344513c59f5408c", "is_disabled": 0, "rental_uris": {"android": "https://dc.lft.to/lastmile_qr_scan", "ios": "https://dc.lft.to/lastmile_qr_scan"}, "type": "electric_scooter", "lat": 38.936725833333334, "is_reserved": 0, "fusion_lat": 0.0}, {"bike_id": "c1447cfe5a6d2135be4a3f502d6677f4", "fusion_lon": 0.0, "lon": -77.04582833333333, "name": "c1447cfe5a6d2135be4a3f502d6677f4", "is_disabled": 0, "rental_uris": {"android": "https://dc.lft.to/lastmile_qr_scan", "ios": "https://dc.lft.to/lastmile_qr_scan"},