{"data": {"bikes": [{"bike_id": "f64a87b63d80983e466cfe7d96fbcd6c", "is_reserved": 0, "fusion_lon": 0.0, "lat": 38.906844166666666, "is_disabled": 0, "name": "f64a87b63d80983e466cfe7d96fbcd6c", "fusion_lat": 0.0, "rental_uris": {"ios": "https://dc.lft.to/lastmile_qr_scan", "android": "https://dc.lft.to/lastmile_qr_scan"}, "lon": -76.95191116666666, "type": "electric_bike"}, {"bike_id": "4f4ab2f47f561fa4f2a0ca2e068c6857", "is_reserved": 0, "fusion_lon": 0.0, "lat": 38.9248575, "is_disabled": 0, "name": "4f4ab2f47f561fa4f2a0ca2e068c6857", "fusion_lat": 0.0, "rental_uris": {"ios": "https://dc.lft.to/lastmile_qr_scan", "android": "https://dc.lft.to/lastmile_qr_scan"}, "lon": -77.02714866666666, "type": "electric_scooter"}, {"bike_id": "69eebbf42a192ad26d4a9a94b8608e8e", "is_reserved": 0, "fusion_lon": 0.0, "lat": 38.894856, "is_disabled": 0, "name": "69eebbf42a192ad26d4a9a94b8608e8e", "fusion_lat": 0.0, "rental_uris": {"ios": "https://dc.lft.to/lastmile_qr_scan", "android": "https://dc.lft.to/lastmile_qr_scan"}, "lon": -77.02278133333333, "type": "electric_scooter"}, {"bike_id": "50caeee2d6905b55a2849575ce08a9a9", "is_reserved": 0, "fusion_lon": 0.0, "lat": 38.9294915, "is_disabled": 0, "name": "50caeee2d6905b55a2849575ce08a9a9", "fusion_lat": 0.0, "rental_uris": {"ios": "https://dc.lft.to/lastmile_qr_scan", "android": "https://dc.lft.to/lastmile_qr_scan"}, "lon": -77.04405083333333, "type": "electric_scooter"}, {"bike_id": "ffbb8c7671a6d713c19c22c226d92f54", "is_reserved": 0, "fusion_lon": 0.0, "lat": 38.95878966666667, "is_disabled": 0, "name": "ffbb8c7671a6d713c19c22c226d92f54", "fusion_lat": 0.0, "rental_uris": {"ios": "https://dc.lft.to/lastmile_qr_scan", "android": "https://dc.lft.to/lastmile_qr_scan"}, "lon": -77.01033566666666, "type": "electric_bike"}, {"bike_id": "fb0d18d7077cdad2489fc46c41938b73", "is_reserved": 0, "fusion_lon": 0.0, "lat": 38.90144466666667, "is_disabled": 0, "name": "fb0d18d7077cdad2489fc46c41938b73", "fusion_lat": 0.0, "rental_uris": {"ios": "https://dc.lft.to/lastmile_qr_scan", "android": "https://dc.lft.to/lastmile_qr_scan"}, "lon": -77.03329316666667, "type": "electric_scooter"}, {"bike_id": "670fcbfb1e5e4972b530c4eaafe1d38f", "is_reserved": 0, "fusion_lon": 0.0, "lat": 38.86505833333333, "is_disabled": 0, "name": "670fcbfb1e5e4972b530c4eaafe1d38f", "fusion_lat": 0.0, "rental_uris": {"ios": "https://dc.lft.to/lastmile_qr_scan", "android": "https://dc.lft.to/lastmile_qr_scan"}, "lon": -76.98976533333334, "type": "electric_scooter"}, {"bike_id": "de3d391f6cfbc8e8752c211facca1b7e", "is_reserved": 0, "fusion_lon": 0.0, "lat": 38.902701666666665, "is_disabled": 0, "name": "de3d391f6cfbc8e8752c211facca1b7e", "fusion_lat": 0.0, "rental_uris": {"ios": "https://dc.lft.to/lastmile_qr_scan", "android": "https://dc.lft.to/lastmile_qr_scan"}, "lon": -77.05314383333334, "type": "electric_scooter"}, {"bike_id": "c8640c59c12def3bdd7e3542e26a3083", "is_reserved": 0, "fusion_lon": 0.0, "lat": 38.93201233333333, "is_disabled": 0, "name": "c8640c59c12def3bdd7e3542e26a3083", "fusion_lat": 0.0, "rental_uris": {"ios": "https://dc.lft.to/lastmile_qr_scan", "android": "https://dc.lft.to/lastmile_qr_scan"}, "lon": -77.03877783333333, "type": "electric_scooter"}, {"bike_id": "3771ce7ebe69f2008dfdd296f7a69fd6", "is_reserved": 0, "fusion_lon": 0.0, "lat": 38.94414583333333, "is_disabled": 0, "name": "3771ce7ebe69f2008dfdd296f7a69fd6", "fusion_lat": 0.0, "rental_uris": {"ios": "https://dc.lft.to/lastmile_qr_scan", "android": "https://dc.lft.to/lastmile_qr_scan"}, "lon": -77.05523483333333, "type": "electric_scooter"}, {"bike_id": "89c0fd136c3c58c46afcd362cf46ceee", "is_reserved": 0, "fusion_lon": 0.0, "lat": 38.802244333333334, "is_disabled": 0, "name": "89c0fd136c3c58c46afcd362cf46ceee", "fusion_lat": 0.0, "rental_uris": {"ios": "https://dc.lft.to/lastmile_qr_scan", "android": "https://dc.lft.to/lastmile_qr_scan"}, "lon": -77.0791785, "type": "electric_bike"}, {"bike_id": "99f687b6ef4263f1616d023c94da543b", "is_reserved": 0, "fusion_lon": 0.0, "lat": 38.904752333333334, "is_disabled": 0, "name": "99f687b6ef4263f1616d023c94da543b", "fusion_lat": 0.0, "rental_uris": {"ios": "https://dc.lft.to/lastmile_qr_scan", "android": "https://dc.lft.to/lastmile_qr_scan"}, "lon": -77.0323845, "type": "electric_scooter"}, {"bike_id": "edaa55afe1a28851b360086ae8feaca6", "is_reserved": 0, "fusion_lon": 0.0, "lat": 38.9128475, "is_disabled": 0, "name": "edaa55afe1a28851b360086ae8feaca6", "fusion_lat": 0.0, "rental_uris": {"ios": "https://dc.lft.to/lastmile_qr_scan", "android": "https://dc.lft.to/lastmile_qr_scan"}, "lon": -77.0384185, "type": "electric_scooter"}, {"bike_id": "5879b0cefdc7bc837158bbdd1ca0b9c3", "is_reserved": 0, "fusion_lon": 0.0, "lat": 38.92575883333333, "is_disabled": 0, "name": "5879b0cefdc7bc837158bbdd1ca0b9c3", "fusion_lat": 0.0, "rental_uris": {"ios": "https://dc.lft.to/lastmile_qr_scan", "android": "https://dc.lft.to/lastmile_qr_scan"}, "lon": -77.03923883333333, "type": "electric_scooter"}, {"bike_id": "452ec572f1a96a77e3d387c1f1a8d896", "is_reserved": 0, "fusion_lon": 0.0, "lat": 38.901405833333335, "is_disabled": 0, "name": "452ec572f1a96a77e3d387c1f1a8d896", "fusion_lat": 0.0, "rental_uris": {"ios": "https://dc.lft.to/lastmile_qr_scan", "android": "https://dc.lft.to/lastmile_qr_scan"}, "lon": -77.01611166666666, "type": "electric_scooter"}, {"bike_id": "db63e32a1c7c05663d7331294d98a724", "is_reserved": 0, "fusion_lon": 0.0, "lat": 38.934536, "is_disabled": 0, "name": "db63e32a1c7c05663d7331294d98a724", "fusion_lat": 0.0, "rental_uris": {"ios": "https://dc.lft.to/lastmile_qr_scan", "android": "https://dc.lft.to/lastmile_qr_scan"}, "lon": -77.072358, "type": "electric_scooter"}, {"bike_id": "6333ee59036ec8463a0ee63c580953e8", "is_reserved": 0, "fusion_lon": 0.0, "lat": 38.8980155, "is_disabled": 0, "name": "6333ee59036ec8463a0ee63c580953e8", "fusion_lat": 0.0, "rental_uris": {"ios": "https://dc.lft.to/lastmile_qr_scan", "android": "https://dc.lft.to/lastmile_qr_scan"}, "lon": -77.02936416666667, "type": "electric_scooter"}, {"bike_id": "934364ec534ba00d46d025fa118304c9", "is_reserved": 0, "fusion_lon": 0.0, "lat": 38.896689333333335, "is_disabled": 0, "name": "934364ec534ba00d46d025fa118304c9", "fusion_lat": 0.0, "rental_uris": {"ios": "https://dc.lft.to/lastmile_qr_scan", "android": "https://dc.lft.to/lastmile_qr_scan"}, "lon": -77.02922633333333, "type": "electric_scooter"}, {"bike_id": "1357627ccc141c389c0c85d1cd878336", "is_reserved": 0, "fusion_lon": 0.0, "lat": 38.9256995, "is_disabled": 0, "name": "1357627ccc141c389c0c85d1cd878336", "fusion_lat": 0.0, "rental_uris": {"ios": "https://dc.lft.to/lastmile_qr_scan", "android": "https://dc.lft.to/lastmile_qr_scan"}, "lon": -77.0390995, "type": "electric_scooter"}, {"bike_id": "32a8a5f7a79754cc74d773cf483d1921", "is_reserved": 0, "fusion_lon": 0.0, "lat": 38.8833695, "is_disabled": 0, "name": "32a8a5f7a79754cc74d773cf483d1921", "fusion_lat": 0.0, "rental_uris": {"ios": "https://dc.lft.to/lastmile_qr_scan", "android": "https://dc.lft.to/lastmile_qr_scan"}, "lon": -77.01746683333333, "type": "electric_scooter"}, {"bike_id": "c44d060d82ee0128d8dec3ab33fdf990", "is_reserved": 0, "fusion_lon": 0.0, "lat": 38.917058, "is_disabled": 0, "name": "c44d060d82ee0128d8dec3ab33fdf990", "fusion_lat": 0.0, "rental_uris": {"ios": "https://dc.lft.to/lastmile_qr_scan", "android": "https://dc.lft.to/lastmile_qr_scan"}, "lon": -77.0311575, "type": "electric_scooter"}, {"bike_id": "3b30fe6a8beca89ba9a31a0b6dd6d466", "is_reserved": 0, "fusion_lon": 0.0, "lat": 38.902721166666666, "is_disabled": 0, "name": "3b30fe6a8beca89ba9a31a0b6dd6d466", "fusion_lat": 0.0, "rental_uris": {"ios": "https://dc.lft.to/lastmile_qr_scan", "android": "https://dc.lft.to/lastmile_qr_scan"}, "lon": -77.039084, "type": "electric_scooter"}, {"bike_id": "5dfa2308a8698a822d0f6f40af41c785", "is_reserved": 0, "fusion_lon": 0.0, "lat": 38.915921166666664, "is_disabled": 0, "name": "5dfa2308a8698a822d0f6f40af41c785", "fusion_lat": 0.0, "rental_uris": {"ios": "https://dc.lft.to/lastmile_qr_scan", "android": "https://dc.lft.to/lastmile_qr_scan"}, "lon": -76.98369383333333, "type": "electric_scooter"}, {"bike_id": "b4de5de9a3fb46b16a0b00996ef97b9e", "is_reserved": 0, "fusion_lon": 0.0, "lat": 38.92005416666667, "is_disabled": 0, "name": "b4de5de9a3fb46b16a0b00996ef97b9e", "fusion_lat": 0.0, "rental_uris": {"ios": "https://dc.lft.to/lastmile_qr_scan", "android": "https://dc.lft.to/lastmile_qr_scan"}, "lon": -77.03782016666666, "type": "electric_scooter"}, {"bike_id": "bfff4df5f9903b760f29c16f054db720", "is_reserved": 0, "fusion_lon": 0.0, "lat": 38.9042975, "is_disabled": 0, "name": "bfff4df5f9903b760f29c16f054db720", "fusion_lat": 0.0, "rental_uris": {"ios": "https://dc.lft.to/lastmile_qr_scan", "android": "https://dc.lft.to/lastmile_qr_scan"}, "lon": -77.028624, "type": "electric_scooter"}, {"bike_id": "7e02dcd6f54d4285f243a86815c2eeb7", "is_reserved": 0, "fusion_lon": 0.0, "lat": 38.96820666666667, "is_disabled": 0, "name": "7e02dcd6f54d4285f243a86815c2eeb7", "fusion_lat": 0.0, "rental_uris": {"ios": "https://dc.lft.to/lastmile_qr_scan", "android": "https://dc.lft.to/lastmile_qr_scan"}, "lon": -77.01790983333333, "type": "electric_scooter"}, {"bike_id": "b3c75c5f44f44fd0f407a89d239b16d5", "is_reserved": 0, "fusion_lon": 0.0, "lat": 38.905255, "is_disabled": 0, "name": "b3c75c5f44f44fd0f407a89d239b16d5", "fusion_lat": 0.0, "rental_uris": {"ios": "https://dc.lft.to/lastmile_qr_scan", "android": "https://dc.lft.to/lastmile_qr_scan"}, "lon": -77.05033466666667, "type": "electric_scooter"}, {"bike_id": "6eb504b9b507979ae84f9ad2c04adfed", "is_reserved": 0, "fusion_lon": 0.0, "lat": 38.89629016666667, "is_disabled": 0, "name": "6eb504b9b507979ae84f9ad2c04adfed", "fusion_lat": 0.0, "rental_uris": {"ios": "https://dc.lft.to/lastmile_qr_scan", "android": "https://dc.lft.to/lastmile_qr_scan"}, "lon": -77.03228016666667, "type": "electric_scooter"}, {"bike_id": "865784d5a1499457fca524deefe2b694", "is_reserved": 0, "fusion_lon": 0.0, "lat": 38.90513033333333, "is_disabled": 0, "name": "865784d5a1499457fca524deefe2b694", "fusion_lat": 0.0, "rental_uris": {"ios": "https://dc.lft.to/lastmile_qr_scan", "android": "https://dc.lft.to/lastmile_qr_scan"}, "lon": -77.04855233333333, "type": "electric_scooter"}, {"bike_id": "cede5681922aaff399902bceb4051f0c", "is_reserved": 0, "fusion_lon": 0.0, "lat": 38.90457766666667, "is_disabled": 0, "name": "cede5681922aaff399902bceb4051f0c", "fusion_lat": 0.0, "rental_uris": {"ios": "https://dc.lft.to/lastmile_qr_scan", "android": "https://dc.lft.to/lastmile_qr_scan"}, "lon": -76.99509133333333, "type": "electric_scooter"}, {"bike_id": "03649738043d6299ef3eee3ec16e4fdf", "is_reserved": 0, "fusion_lon": 0.0, "lat": 38.8960805, "is_disabled": 0, "name": "03649738043d6299ef3eee3ec16e4fdf", "fusion_lat": 0.0, "rental_uris": {"ios": "https://dc.lft.to/lastmile_qr_scan", "android": "https://dc.lft.to/lastmile_qr_scan"}, "lon": -77.04502366666667, "type": "electric_scooter"}, {"bike_id": "66a7afe531668d6b4d742c2304d4def7", "is_reserved": 0, "fusion_lon": 0.0, "lat": 38.8695915, "is_disabled": 0, "name": "66a7afe531668d6b4d742c2304d4def7", "fusion_lat": 0.0, "rental_uris": {"ios": "https://dc.lft.to/lastmile_qr_scan", "android": "https://dc.lft.to/lastmile_qr_scan"}, "lon": -77.01376516666667, "type": "electric_scooter"}, {"bike_id": "944120b4df8d2ce08ec22c8b40573ed3", "is_reserved": 0, "fusion_lon": 0.0, "lat": 38.892956, "is_disabled": 0, "name": "944120b4df8d2ce08ec22c8b40573ed3", "fusion_lat": 0.0, "rental_uris": {"ios": "https://dc.lft.to/lastmile_qr_scan", "android": "https://dc.lft.to/lastmile_qr_scan"}, "lon": -77.012305, "type": "electric_scooter"}, {"bike_id": "dcda6483eace2d215d8137bd3e5f3d76", "is_reserved": 0, "fusion_lon": 0.0, "lat": 38.900053, "is_disabled": 0, "name": "dcda6483eace2d215d8137bd3e5f3d76", "fusion_lat": 0.0, "rental_uris": {"ios": "https://dc.lft.to/lastmile_qr_scan", "android": "https://dc.lft.to/lastmile_qr_scan"}, "lon": -76.99772683333333, "type": "electric_scooter"}, {"bike_id": "d5b1d704fd88ca14893c8470ea190e12", "is_reserved": 0, "fusion_lon": 0.0, "lat": 38.928770166666666, "is_disabled": 0, "name": "d5b1d704fd88ca14893c8470ea190e12", "fusion_lat": 0.0, "rental_uris": {"ios": "https://dc.lft.to/lastmile_qr_scan", "android": "https://dc.lft.to/lastmile_qr_scan"}, "lon": -77.04057516666667, "type": "electric_scooter"}, {"bike_id": "76885d8bee647bcfd8257a54b93f5878", "is_reserved": 0, "fusion_lon": 0.0, "lat": 38.865070833333334, "is_disabled": 0, "name": "76885d8bee647bcfd8257a54b93f5878", "fusion_lat": 0.0, "rental_uris": {"ios": "https://dc.lft.to/lastmile_qr_scan", "android": "https://dc.lft.to/lastmile_qr_scan"}, "lon": -76.98978183333334, "type": "electric_scooter"}, {"bike_id": "f64d8f49b0ee3e7930da13a1628a4253", "is_reserved": 0, "fusion_lon": 0.0, "lat": 38.911546666666666, "is_disabled": 0, "name": "f64d8f49b0ee3e7930da13a1628a4253", "fusion_lat": 0.0, "rental_uris": {"ios": "https://dc.lft.to/lastmile_qr_scan", "android": "https://dc.lft.to/lastmile_qr_scan"}, "lon": -77.04178483333334, "type": "electric_scooter"}, {"bike_id": "141b4ed4fc76f7c579516dc69ad37e6d", "is_reserved": 0, "fusion_lon": 0.0, "lat": 38.90662116666667, "is_disabled": 0, "name": "141b4ed4fc76f7c579516dc69ad37e6d", "fusion_lat": 0.0, "rental_uris": {"ios": "https://dc.lft.to/lastmile_qr_scan", "android": "https://dc.lft.to/lastmile_qr_scan"}, "lon": -77.03813716666667, "type": "electric_scooter"}, {"bike_id": "cebc520fadffb37eda58241eb9d77731", "is_reserved": 0, "fusion_lon": 0.0, "lat": 38.884003666666665, "is_disabled": 0, "name": "cebc520fadffb37eda58241eb9d77731", "fusion_lat": 0.0, "rental_uris": {"ios": "https://dc.lft.to/lastmile_qr_scan", "android": "https://dc.lft.to/lastmile_qr_scan"}, "lon": -76.96058466666666, "type": "electric_bike"}, {"bike_id": "4ed8477709d67b17d48039dcd42892ae", "is_reserved": 0, "fusion_lon": 0.0, "lat": 38.91951616666667, "is_disabled": 0, "name": "4ed8477709d67b17d48039dcd42892ae", "fusion_lat": 0.0, "rental_uris": {"ios": "https://dc.lft.to/lastmile_qr_scan", "android": "https://dc.lft.to/lastmile_qr_scan"}, "lon": -76.978905, "type": "electric_bike"}, {"bike_id": "3813cee03e646eb9569a2d064b1a2b37", "is_reserved": 0, "fusion_lon": 0.0, "lat": 38.90456833333333, "is_disabled": 0, "name": "3813cee03e646eb9569a2d064b1a2b37", "fusion_lat": 0.0, "rental_uris": {"ios": "https://dc.lft.to/lastmile_qr_scan", "android": "https://dc.lft.to/lastmile_qr_scan"}, "lon": -77.05323483333333, "type": "electric_scooter"}, {"bike_id": "7949b3cef06c78b8e8fc7fa049aa67a9", "is_reserved": 0, "fusion_lon": 0.0, "lat": 38.87192183333333, "is_disabled": 0, "name": "7949b3cef06c78b8e8fc7fa049aa67a9", "fusion_lat": 0.0, "rental_uris": {"ios": "https://dc.lft.to/lastmile_qr_scan", "android": "https://dc.lft.to/lastmile_qr_scan"}, "lon": -77.01374133333333, "type": "electric_scooter"}, {"bike_id": "91411531dbad42c9e199932e9e4a8138", "is_reserved": 0, "fusion_lon": 0.0, "lat": 38.90916983333334, "is_disabled": 0, "name": "91411531dbad42c9e199932e9e4a8138", "fusion_lat": 0.0, "rental_uris": {"ios": "https://dc.lft.to/lastmile_qr_scan", "android": "https://dc.lft.to/lastmile_qr_scan"}, "lon": -77.038428, "type": "electric_scooter"}, {"bike_id": "1964a161e93ab1da59c83fc3e8e2bf0d", "is_reserved": 0, "fusion_lon": 0.0, "lat": 38.936718166666665, "is_disabled": 0, "name": "1964a161e93ab1da59c83fc3e8e2bf0d", "fusion_lat": 0.0, "rental_uris": {"ios": "https://dc.lft.to/lastmile_qr_scan", "android": "https://dc.lft.to/lastmile_qr_scan"}, "lon": -76.95227333333334, "type": "electric_bike"}, {"bike_id": "502238ac393a9ef7e9b5c6251611d81d", "is_reserved": 0, "fusion_lon": 0.0, "lat": 38.8651845, "is_disabled": 0, "name": "502238ac393a9ef7e9b5c6251611d81d", "fusion_lat": 0.0, "rental_uris": {"ios": "https://dc.lft.to/lastmile_qr_scan", "android": "https://dc.lft.to/lastmile_qr_scan"}, "lon": -76.9903045, "type": "electric_scooter"}, {"bike_id": "208cc2574659db80e5400b2fcc79e5aa", "is_reserved": 0, "fusion_lon": 0.0, "lat": 38.9287195, "is_disabled": 0, "name": "208cc2574659db80e5400b2fcc79e5aa", "fusion_lat": 0.0, "rental_uris": {"ios": "https://dc.lft.to/lastmile_qr_scan", "android": "https://dc.lft.to/lastmile_qr_scan"}, "lon": -77.01364233333334, "type": "electric_scooter"}, {"bike_id": "cd2d28bda432fa3a3b53b838aa94c838", "is_reserved": 0, "fusion_lon": 0.0, "lat": 38.89606066666666, "is_disabled": 0, "name": "cd2d28bda432fa3a3b53b838aa94c838", "fusion_lat": 0.0, "rental_uris": {"ios": "https://dc.lft.to/lastmile_qr_scan", "android": "https://dc.lft.to/lastmile_qr_scan"}, "lon": -77.04457116666667, "type": "electric_scooter"}, {"bike_id": "e5431823c3f2e80bee7355ba0bd7c959", "is_reserved": 0, "fusion_lon": 0.0, "lat": 38.93335183333333, "is_disabled": 0, "name": "e5431823c3f2e80bee7355ba0bd7c959", "fusion_lat": 0.0, "rental_uris": {"ios": "https://dc.lft.to/lastmile_qr_scan", "android": "https://dc.lft.to/lastmile_qr_scan"}, "lon": -77.03284466666666, "type": "electric_scooter"}, {"bike_id": "10714c97b24078982e1ecf49e9066d53", "is_reserved": 0, "fusion_lon": 0.0, "lat": 38.83810733333333, "is_disabled": 0, "name": "10714c97b24078982e1ecf49e9066d53", "fusion_lat": 0.0, "rental_uris": {"ios": "https://dc.lft.to/lastmile_qr_scan", "android": "https://dc.lft.to/lastmile_qr_scan"}, "lon": -77.095237, "type": "electric_bike"}, {"bike_id": "9685055b74f716ab465826ea492f4f73", "is_reserved": 0, "fusion_lon": 0.0, "lat": 38.876288833333334, "is_disabled": 0, "name": "9685055b74f716ab465826ea492f4f73", "fusion_lat": 0.0, "rental_uris": {"ios": "https://dc.lft.to/lastmile_qr_scan", "android": "https://dc.lft.to/lastmile_qr_scan"}, "lon": -76.9652815, "type": "electric_scooter"}, {"bike_id": "d6b90a9996f6241c385ca20d35f4fa10", "is_reserved": 0, "fusion_lon": 0.0, "lat": 38.932856666666666, "is_disabled": 0, "name": "d6b90a9996f6241c385ca20d35f4fa10", "fusion_lat": 0.0, "rental_uris": {"ios": "https://dc.lft.to/lastmile_qr_scan", "android": "https://dc.lft.to/lastmile_qr_scan"}, "lon": -77.039846, "type": "electric_scooter"}, {"bike_id": "034ffdf64df2c4245ba543b755031c32", "is_reserved": 0, "fusion_lon": 0.0, "lat": 38.9033065, "is_disabled": 0, "name": "034ffdf64df2c4245ba543b755031c32", "fusion_lat": 0.0, "rental_uris": {"ios": "https://dc.lft.to/lastmile_qr_scan", "android": "https://dc.lft.to/lastmile_qr_scan"}, "lon": -76.97595416666667, "type": "electric_scooter"}, {"bike_id": "d194e1c8c3ad679da299b65c4c747737", "is_reserved": 0, "fusion_lon": 0.0, "lat": 38.9463235, "is_disabled": 0, "name": "d194e1c8c3ad679da299b65c4c747737", "fusion_lat": 0.0, "rental_uris": {"ios": "https://dc.lft.to/lastmile_qr_scan", "android": "https://dc.lft.to/lastmile_qr_scan"}, "lon": -77.01846483333334, "type": "electric_scooter"}, {"bike_id": "a06950f0327f06cddcb86f23112a4cf9", "is_reserved": 0, "fusion_lon": 0.0, "lat": 38.897393, "is_disabled": 0, "name": "a06950f0327f06cddcb86f23112a4cf9", "fusion_lat": 0.0, "rental_uris": {"ios": "https://dc.lft.to/lastmile_qr_scan", "android": "https://dc.lft.to/lastmile_qr_scan"}, "lon": -76.93845783333333, "type": "electric_scooter"}, {"bike_id": "bd057d7a693ef6741b379b5a6fe00d7a", "is_reserved": 0, "fusion_lon": 0.0, "lat": 38.8666195, "is_disabled": 0, "name": "bd057d7a693ef6741b379b5a6fe00d7a", "fusion_lat": 0.0, "rental_uris": {"ios": "https://dc.lft.to/lastmile_qr_scan", "android": "https://dc.lft.to/lastmile_qr_scan"}, "lon": -76.98904083333333, "type": "electric_scooter"}, {"bike_id": "8ac6ac8faa1bea968639fd1f26337eb0", "is_reserved": 0, "fusion_lon": 0.0, "lat": 38.838264833333334, "is_disabled": 0, "name": "8ac6ac8faa1bea968639fd1f26337eb0", "fusion_lat": 0.0, "rental_uris": {"ios": "https://dc.lft.to/lastmile_qr_scan", "android": "https://dc.lft.to/lastmile_qr_scan"}, "lon": -76.99683533333334, "type": "electric_bike"}, {"bike_id": "ef374948af22af231451f805a28a3451", "is_reserved": 0, "fusion_lon": 0.0, "lat": 38.904701333333335, "is_disabled": 0, "name": "ef374948af22af231451f805a28a3451", "fusion_lat": 0.0, "rental_uris": {"ios": "https://dc.lft.to/lastmile_qr_scan", "android": "https://dc.lft.to/lastmile_qr_scan"}, "lon": -77.029759, "type": "electric_scooter"}, {"bike_id": "5e90ad6e651fa7fdc62da56d8a69e71f", "is_reserved": 0, "fusion_lon": 0.0, "lat": 38.922684, "is_disabled": 0, "name": "5e90ad6e651fa7fdc62da56d8a69e71f", "fusion_lat": 0.0, "rental_uris": {"ios": "https://dc.lft.to/lastmile_qr_scan", "android": "https://dc.lft.to/lastmile_qr_scan"}, "lon": -77.01825116666667, "type": "electric_scooter"}, {"bike_id": "099f5707a0249f83c0e5a49feee268a0", "is_reserved": 0, "fusion_lon": 0.0, "lat": 38.911751833333334, "is_disabled": 0, "name": "099f5707a0249f83c0e5a49feee268a0", "fusion_lat": 0.0, "rental_uris": {"ios": "https://dc.lft.to/lastmile_qr_scan", "android": "https://dc.lft.to/lastmile_qr_scan"}, "lon": -76.986424, "type": "electric_scooter"}, {"bike_id": "fe297ccad8b1fe2fbc32178247bc2eb0", "is_reserved": 0, "fusion_lon": 0.0, "lat": 38.89952733333333, "is_disabled": 0, "name": "fe297ccad8b1fe2fbc32178247bc2eb0", "fusion_lat": 0.0, "rental_uris": {"ios": "https://dc.lft.to/lastmile_qr_scan", "android": "https://dc.lft.to/lastmile_qr_scan"}, "lon": -77.05271916666666, "type": "electric_scooter"}, {"bike_id": "f464685db3a5ce90694e715a1754fae4", "is_reserved": 0, "fusion_lon": 0.0, "lat": 38.901267, "is_disabled": 0, "name": "f464685db3a5ce90694e715a1754fae4", "fusion_lat": 0.0, "rental_uris": {"ios": "https://dc.lft.to/lastmile_qr_scan", "android": "https://dc.lft.to/lastmile_qr_scan"}, "lon": -76.99709016666667, "type": "electric_scooter"}, {"bike_id": "6f67f0c9dc011b2f3e86c28bc9f82e31", "is_reserved": 0, "fusion_lon": 0.0, "lat": 38.927107, "is_disabled": 0, "name": "6f67f0c9dc011b2f3e86c28bc9f82e31", "fusion_lat": 0.0, "rental_uris": {"ios": "https://dc.lft.to/lastmile_qr_scan", "android": "https://dc.lft.to/lastmile_qr_scan"}, "lon": -77.04054383333333, "type": "electric_scooter"}, {"bike_id": "216bc4f5ace5aa8d54b066bcc8959d4a", "is_reserved": 0, "fusion_lon": 0.0, "lat": 38.903256999999996, "is_disabled": 0, "name": "216bc4f5ace5aa8d54b066bcc8959d4a", "fusion_lat": 0.0, "rental_uris": {"ios": "https://dc.lft.to/lastmile_qr_scan", "android": "https://dc.lft.to/lastmile_qr_scan"}, "lon": -77.03298133333334, "type": "electric_scooter"}, {"bike_id": "6290c0212e6029cc03fb0d4255b5f66c", "is_reserved": 0, "fusion_lon": 0.0, "lat": 38.9117995, "is_disabled": 0, "name": "6290c0212e6029cc03fb0d4255b5f66c", "fusion_lat": 0.0, "rental_uris": {"ios": "https://dc.lft.to/lastmile_qr_scan", "android": "https://dc.lft.to/lastmile_qr_scan"}, "lon": -77.04543733333334, "type": "electric_scooter"}, {"bike_id": "e42ac06adffd4631f885f73b1d1166af", "is_reserved": 0, "fusion_lon": 0.0, "lat": 38.94603166666667, "is_disabled": 0, "name": "e42ac06adffd4631f885f73b1d1166af", "fusion_lat": 0.0, "rental_uris": {"ios": "https://dc.lft.to/lastmile_qr_scan", "android": "https://dc.lft.to/lastmile_qr_scan"}, "lon": -77.02979716666667, "type": "electric_scooter"}, {"bike_id": "cfccf30c8d679c074de9324ddb008e33", "is_reserved": 0, "fusion_lon": 0.0, "lat": 38.892230833333336, "is_disabled": 0, "name": "cfccf30c8d679c074de9324ddb008e33", "fusion_lat": 0.0, "rental_uris": {"ios": "https://dc.lft.to/lastmile_qr_scan", "android": "https://dc.lft.to/lastmile_qr_scan"}, "lon": -77.04860133333334, "type": "electric_scooter"}, {"bike_id": "4accd3aa136e98ff70a0b4e9098e385d", "is_reserved": 0, "fusion_lon": 0.0, "lat": 38.89222616666667, "is_disabled": 0, "name": "4accd3aa136e98ff70a0b4e9098e385d", "fusion_lat": 0.0, "rental_uris": {"ios": "https://dc.lft.to/lastmile_qr_scan", "android": "https://dc.lft.to/lastmile_qr_scan"}, "lon": -77.03984066666666, "type": "electric_scooter"}, {"bike_id": "eb317e31b7add61842dbc0ecfc4c76e1", "is_reserved": 0, "fusion_lon": 0.0, "lat": 38.91191583333333, "is_disabled": 0, "name": "eb317e31b7add61842dbc0ecfc4c76e1", "fusion_lat": 0.0, "rental_uris": {"ios": "https://dc.lft.to/lastmile_qr_scan", "android": "https://dc.lft.to/lastmile_qr_scan"}, "lon": -77.060988, "type": "electric_scooter"}, {"bike_id": "ddbc576bffae6b540139888da1fb3a1d", "is_reserved": 0, "fusion_lon": 0.0, "lat": 38.87742883333333, "is_disabled": 0, "name": "ddbc576bffae6b540139888da1fb3a1d", "fusion_lat": 0.0, "rental_uris": {"ios": "https://dc.lft.to/lastmile_qr_scan", "android": "https://dc.lft.to/lastmile_qr_scan"}, "lon": -76.98058633333333, "type": "electric_bike"}, {"bike_id": "9f0f7c7b5017d04208a8e6fc2b27dd34", "is_reserved": 0, "fusion_lon": 0.0, "lat": 38.88600866666667, "is_disabled": 0, "name": "9f0f7c7b5017d04208a8e6fc2b27dd34", "fusion_lat": 0.0, "rental_uris": {"ios": "https://dc.lft.to/lastmile_qr_scan", "android": "https://dc.lft.to/lastmile_qr_scan"}, "lon": -77.00567433333333, "type": "electric_scooter"}, {"bike_id": "7115ffb0070cbcf359251ae1a5fcdba0", "is_reserved": 0, "fusion_lon": 0.0, "lat": 38.8105115, "is_disabled": 0, "name": "7115ffb0070cbcf359251ae1a5fcdba0", "fusion_lat": 0.0, "rental_uris": {"ios": "https://dc.lft.to/lastmile_qr_scan", "android": "https://dc.lft.to/lastmile_qr_scan"}, "lon": -77.08516433333334, "type": "electric_bike"}, {"bike_id": "89206d133748509c83fc2d3d4b8a1bae", "is_reserved": 0, "fusion_lon": 0.0, "lat": 38.85444366666667, "is_disabled": 0, "name": "89206d133748509c83fc2d3d4b8a1bae", "fusion_lat": 0.0, "rental_uris": {"ios": "https://dc.lft.to/lastmile_qr_scan", "android": "https://dc.lft.to/lastmile_qr_scan"}, "lon": -76.909769, "type": "electric_bike"}, {"bike_id": "f651f8e99dbe49cb9a31ddaa4f6d8cc5", "is_reserved": 0, "fusion_lon": 0.0, "lat": 38.84423066666667, "is_disabled": 0, "name": "f651f8e99dbe49cb9a31ddaa4f6d8cc5", "fusion_lat": 0.0, "rental_uris": {"ios": "https://dc.lft.to/lastmile_qr_scan", "android": "https://dc.lft.to/lastmile_qr_scan"}, "lon": -76.99779233333334, "type": "electric_scooter"}, {"bike_id": "3351baec7e04820e0aec1ff60cd4bc6b", "is_reserved": 0, "fusion_lon": 0.0, "lat": 38.91443433333333, "is_disabled": 0, "name": "3351baec7e04820e0aec1ff60cd4bc6b", "fusion_lat": 0.0, "rental_uris": {"ios": "https://dc.lft.to/lastmile_qr_scan", "android": "https://dc.lft.to/lastmile_qr_scan"}, "lon": -77.03470733333333, "type": "electric_scooter"}, {"bike_id": "fb3cfec201763e69030344107b63ee40", "is_reserved": 0, "fusion_lon": 0.0, "lat": 38.93491916666667, "is_disabled": 0, "name": "fb3cfec201763e69030344107b63ee40", "fusion_lat": 0.0, "rental_uris": {"ios": "https://dc.lft.to/lastmile_qr_scan", "android": "https://dc.lft.to/lastmile_qr_scan"}, "lon": -77.02845216666667, "type": "electric_scooter"}, {"bike_id": "705804e11531045e838615433aa03095", "is_reserved": 0, "fusion_lon": 0.0, "lat": 38.91429466666666, "is_disabled": 0, "name": "705804e11531045e838615433aa03095", "fusion_lat": 0.0, "rental_uris": {"ios": "https://dc.lft.to/lastmile_qr_scan", "android": "https://dc.lft.to/lastmile_qr_scan"}, "lon": -77.04500366666667, "type": "electric_scooter"}, {"bike_id": "f69b8e864e3a82aa80288fb03ad37c16", "is_reserved": 0, "fusion_lon": 0.0, "lat": 38.892170166666666, "is_disabled": 0, "name": "f69b8e864e3a82aa80288fb03ad37c16", "fusion_lat": 0.0, "rental_uris": {"ios": "https://dc.lft.to/lastmile_qr_scan", "android": "https://dc.lft.to/lastmile_qr_scan"}, "lon": -77.02450483333334, "type": "electric_scooter"}, {"bike_id": "af62f79631183a873efb113fcc7f4f56", "is_reserved": 0, "fusion_lon": 0.0, "lat": 38.906144166666664, "is_disabled": 0, "name": "af62f79631183a873efb113fcc7f4f56", "fusion_lat": 0.0, "rental_uris": {"ios": "https://dc.lft.to/lastmile_qr_scan", "android": "https://dc.lft.to/lastmile_qr_scan"}, "lon": -77.0749135, "type": "electric_scooter"}, {"bike_id": "c8f57d04dff4391cff98e498ec5f8773", "is_reserved": 0, "fusion_lon": 0.0, "lat": 38.902790333333336, "is_disabled": 0, "name": "c8f57d04dff4391cff98e498ec5f8773", "fusion_lat": 0.0, "rental_uris": {"ios": "https://dc.lft.to/lastmile_qr_scan", "android": "https://dc.lft.to/lastmile_qr_scan"}, "lon": -77.0281495, "type": "electric_scooter"}, {"bike_id": "f5a6a7d1639569bce10d136020973174", "is_reserved": 0, "fusion_lon": 0.0, "lat": 39.03882266666667, "is_disabled": 0, "name": "f5a6a7d1639569bce10d136020973174", "fusion_lat": 0.0, "rental_uris": {"ios": "https://dc.lft.to/lastmile_qr_scan", "android": "https://dc.lft.to/lastmile_qr_scan"}, "lon": -76.9904305, "type": "electric_bike"}, {"bike_id": "c698105f24ad42e3b0a5f6da685c0f38", "is_reserved": 0, "fusion_lon": 0.0, "lat": 38.909572, "is_disabled": 0, "name": "c698105f24ad42e3b0a5f6da685c0f38", "fusion_lat": 0.0, "rental_uris": {"ios": "https://dc.lft.to/lastmile_qr_scan", "android": "https://dc.lft.to/lastmile_qr_scan"}, "lon": -77.0486615, "type": "electric_scooter"}, {"bike_id": "c1560ce1a3c4f96ebc1079b92f8c3f1f", "is_reserved": 0, "fusion_lon": 0.0, "lat": 38.90103466666667, "is_disabled": 0, "name": "c1560ce1a3c4f96ebc1079b92f8c3f1f", "fusion_lat": 0.0, "rental_uris": {"ios": "https://dc.lft.to/lastmile_qr_scan", "android": "https://dc.lft.to/lastmile_qr_scan"}, "lon": -77.04330283333333, "type": "electric_scooter"}, {"bike_id": "f9441b5ff157727111e7d46d36be86b6", "is_reserved": 0, "fusion_lon": 0.0, "lat": 38.89602333333333, "is_disabled": 0, "name": "f9441b5ff157727111e7d46d36be86b6", "fusion_lat": 0.0, "rental_uris": {"ios": "https://dc.lft.to/lastmile_qr_scan", "android": "https://dc.lft.to/lastmile_qr_scan"}, "lon": -76.9845505, "type": "electric_scooter"}, {"bike_id": "124eb90f001752df347bf55ca47a2a02", "is_reserved": 0, "fusion_lon": 0.0, "lat": 38.85805766666667, "is_disabled": 0, "name": "124eb90f001752df347bf55ca47a2a02", "fusion_lat": 0.0, "rental_uris": {"ios": "https://dc.lft.to/lastmile_qr_scan", "android": "https://dc.lft.to/lastmile_qr_scan"}, "lon": -76.9865145, "type": "electric_scooter"}, {"bike_id": "b7ede53b2205801897205b79275cd93d", "is_reserved": 0, "fusion_lon": 0.0, "lat": 38.92316183333333, "is_disabled": 0, "name": "b7ede53b2205801897205b79275cd93d", "fusion_lat": 0.0, "rental_uris": {"ios": "https://dc.lft.to/lastmile_qr_scan", "android": "https://dc.lft.to/lastmile_qr_scan"}, "lon": -77.0420675, "type": "electric_scooter"}, {"bike_id": "0873fadcb28c87a198d7608f0e913615", "is_reserved": 0, "fusion_lon": 0.0, "lat": 38.896728, "is_disabled": 0, "name": "0873fadcb28c87a198d7608f0e913615", "fusion_lat": 0.0, "rental_uris": {"ios": "https://dc.lft.to/lastmile_qr_scan", "android": "https://dc.lft.to/lastmile_qr_scan"}, "lon": -77.02926483333333, "type": "electric_scooter"}, {"bike_id": "fa3a85924fe79f2e84c4f6c46fac3b3d", "is_reserved": 0, "fusion_lon": 0.0, "lat": 38.92317233333333, "is_disabled": 0, "name": "fa3a85924fe79f2e84c4f6c46fac3b3d", "fusion_lat": 0.0, "rental_uris": {"ios": "https://dc.lft.to/lastmile_qr_scan", "android": "https://dc.lft.to/lastmile_qr_scan"}, "lon": -77.038671, "type": "electric_scooter"}, {"bike_id": "a9628fef20552d452400f68bd317861d", "is_reserved": 0, "fusion_lon": 0.0, "lat": 38.92335933333333, "is_disabled": 0, "name": "a9628fef20552d452400f68bd317861d", "fusion_lat": 0.0, "rental_uris": {"ios": "https://dc.lft.to/lastmile_qr_scan", "android": "https://dc.lft.to/lastmile_qr_scan"}, "lon": -77.0190665, "type": "electric_scooter"}, {"bike_id": "fcb191cce3837ba23da1ab3ae34ebea8", "is_reserved": 0, "fusion_lon": 0.0, "lat": 38.90508283333333, "is_disabled": 0, "name": "fcb191cce3837ba23da1ab3ae34ebea8", "fusion_lat": 0.0, "rental_uris": {"ios": "https://dc.lft.to/lastmile_qr_scan", "android": "https://dc.lft.to/lastmile_qr_scan"}, "lon": -77.06385766666666, "type": "electric_scooter"}, {"bike_id": "1edb804bfe5e3e7b33bbeccbfc7b1255", "is_reserved": 0, "fusion_lon": 0.0, "lat": 38.90211983333333, "is_disabled": 0, "name": "1edb804bfe5e3e7b33bbeccbfc7b1255", "fusion_lat": 0.0, "rental_uris": {"ios": "https://dc.lft.to/lastmile_qr_scan", "android": "https://dc.lft.to/lastmile_qr_scan"}, "lon": -77.02381433333333, "type": "electric_scooter"}, {"bike_id": "dd5448e47b7cf70c64e874fc8e64c877", "is_reserved": 0, "fusion_lon": 0.0, "lat": 38.87664816666667, "is_disabled": 0, "name": "dd5448e47b7cf70c64e874fc8e64c877", "fusion_lat": 0.0, "rental_uris": {"ios": "https://dc.lft.to/lastmile_qr_scan", "android": "https://dc.lft.to/lastmile_qr_scan"}, "lon": -77.000669, "type": "electric_scooter"}, {"bike_id": "3c244c73682c30cdcdb152f609f8e0fa", "is_reserved": 0, "fusion_lon": 0.0, "lat": 38.91013783333333, "is_disabled": 0, "name": "3c244c73682c30cdcdb152f609f8e0fa", "fusion_lat": 0.0, "rental_uris": {"ios": "https://dc.lft.to/lastmile_qr_scan", "android": "https://dc.lft.to/lastmile_qr_scan"}, "lon": -76.99389283333333, "type": "electric_scooter"}, {"bike_id": "15250e9451faffb397e27b6d29b214f5", "is_reserved": 0, "fusion_lon": 0.0, "lat": 38.923634666666665, "is_disabled": 0, "name": "15250e9451faffb397e27b6d29b214f5", "fusion_lat": 0.0, "rental_uris": {"ios": "https://dc.lft.to/lastmile_qr_scan", "android": "https://dc.lft.to/lastmile_qr_scan"}, "lon": -77.051283, "type": "electric_scooter"}, {"bike_id": "3f1031e2ac749f2a49253a3023bc456e", "is_reserved": 0, "fusion_lon": 0.0, "lat": 38.92051083333333, "is_disabled": 0, "name": "3f1031e2ac749f2a49253a3023bc456e", "fusion_lat": 0.0, "rental_uris": {"ios": "https://dc.lft.to/lastmile_qr_scan", "android": "https://dc.lft.to/lastmile_qr_scan"}, "lon": -77.03399533333334, "type": "electric_scooter"}, {"bike_id": "ed9916065e3e69b091277e755420e290", "is_reserved": 0, "fusion_lon": 0.0, "lat": 38.9058475, "is_disabled": 0, "name": "ed9916065e3e69b091277e755420e290", "fusion_lat": 0.0, "rental_uris": {"ios": "https://dc.lft.to/lastmile_qr_scan", "android": "https://dc.lft.to/lastmile_qr_scan"}, "lon": -77.0652095, "type": "electric_scooter"}, {"bike_id": "92c121559254e0cfd47a5f7cbabdd130", "is_reserved": 0, "fusion_lon": 0.0, "lat": 38.905721666666665, "is_disabled": 0, "name": "92c121559254e0cfd47a5f7cbabdd130", "fusion_lat": 0.0, "rental_uris": {"ios": "https://dc.lft.to/lastmile_qr_scan", "android": "https://dc.lft.to/lastmile_qr_scan"}, "lon": -77.0363275, "type": "electric_scooter"}, {"bike_id": "355273fcb56867d4f45518c4577de264", "is_reserved": 0, "fusion_lon": 0.0, "lat": 38.9059475, "is_disabled": 0, "name": "355273fcb56867d4f45518c4577de264", "fusion_lat": 0.0, "rental_uris": {"ios": "https://dc.lft.to/lastmile_qr_scan", "android": "https://dc.lft.to/lastmile_qr_scan"}, "lon": -77.04668833333334, "type": "electric_scooter"}, {"bike_id": "68bc2f013861a163c93b18d96c6783e5", "is_reserved": 0, "fusion_lon": 0.0, "lat": 38.90236633333333, "is_disabled": 0, "name": "68bc2f013861a163c93b18d96c6783e5", "fusion_lat": 0.0, "rental_uris": {"ios": "https://dc.lft.to/lastmile_qr_scan", "android": "https://dc.lft.to/lastmile_qr_scan"}, "lon": -77.039649, "type": "electric_scooter"}, {"bike_id": "d47c6a3063f5d5035c0e31dfd96060c6", "is_reserved": 0, "fusion_lon": 0.0, "lat": 38.90065883333333, "is_disabled": 0, "name": "d47c6a3063f5d5035c0e31dfd96060c6", "fusion_lat": 0.0, "rental_uris": {"ios": "https://dc.lft.to/lastmile_qr_scan", "android": "https://dc.lft.to/lastmile_qr_scan"}, "lon": -76.98713433333333, "type": "electric_scooter"}, {"bike_id": "0f84edeb0723411a90a1bdfb141c7088", "is_reserved": 0, "fusion_lon": 0.0, "lat": 38.893866333333335, "is_disabled": 0, "name": "0f84edeb0723411a90a1bdfb141c7088", "fusion_lat": 0.0, "rental_uris": {"ios": "https://dc.lft.to/lastmile_qr_scan", "android": "https://dc.lft.to/lastmile_qr_scan"}, "lon": -77.00599766666667, "type": "electric_scooter"}, {"bike_id": "a8cfec23328a320cb89b59e389c02d30", "is_reserved": 0, "fusion_lon": 0.0, "lat": 38.86983466666667, "is_disabled": 0, "name": "a8cfec23328a320cb89b59e389c02d30", "fusion_lat": 0.0, "rental_uris": {"ios": "https://dc.lft.to/lastmile_qr_scan", "android": "https://dc.lft.to/lastmile_qr_scan"}, "lon": -76.95983616666666, "type": "electric_bike"}, {"bike_id": "138bf7893cc48546ed7f645a847a142b", "is_reserved": 0, "fusion_lon": 0.0, "lat": 38.9079355, "is_disabled": 0, "name": "138bf7893cc48546ed7f645a847a142b", "fusion_lat": 0.0, "rental_uris": {"ios": "https://dc.lft.to/lastmile_qr_scan", "android": "https://dc.lft.to/lastmile_qr_scan"}, "lon": -77.0364285, "type": "electric_scooter"}, {"bike_id": "4ca59af2ad1fe7dedbd4ed8f015faf3f", "is_reserved": 0, "fusion_lon": 0.0, "lat": 38.862424, "is_disabled": 0, "name": "4ca59af2ad1fe7dedbd4ed8f015faf3f", "fusion_lat": 0.0, "rental_uris": {"ios": "https://dc.lft.to/lastmile_qr_scan", "android": "https://dc.lft.to/lastmile_qr_scan"}, "lon": -76.9949545, "type": "electric_scooter"}, {"bike_id": "81cd4b640dcffa23c17570cfc2002c99", "is_reserved": 0, "fusion_lon": 0.0, "lat": 38.9165795, "is_disabled": 0, "name": "81cd4b640dcffa23c17570cfc2002c99", "fusion_lat": 0.0, "rental_uris": {"ios": "https://dc.lft.to/lastmile_qr_scan", "android": "https://dc.lft.to/lastmile_qr_scan"}, "lon": -77.02715033333334, "type": "electric_scooter"}, {"bike_id": "526edb7193fc7e3189ac99970e974344", "is_reserved": 0, "fusion_lon": 0.0, "lat": 38.98505766666667, "is_disabled": 0, "name": "526edb7193fc7e3189ac99970e974344", "fusion_lat": 0.0, "rental_uris": {"ios": "https://dc.lft.to/lastmile_qr_scan", "android": "https://dc.lft.to/lastmile_qr_scan"}, "lon": -76.98212433333333, "type": "electric_bike"}, {"bike_id": "261bc00f42e8d9bd8d3d5f7806a0e758", "is_reserved": 0, "fusion_lon": 0.0, "lat": 38.822633833333335, "is_disabled": 0, "name": "261bc00f42e8d9bd8d3d5f7806a0e758", "fusion_lat": 0.0, "rental_uris": {"ios": "https://dc.lft.to/lastmile_qr_scan", "android": "https://dc.lft.to/lastmile_qr_scan"}, "lon": -77.0579665, "type": "electric_bike"}, {"bike_id": "25cfe1fb8f5cd8b9a9027041c7c2f8e8", "is_reserved": 0, "fusion_lon": 0.0, "lat": 38.9036515, "is_disabled": 0, "name": "25cfe1fb8f5cd8b9a9027041c7c2f8e8", "fusion_lat": 0.0, "rental_uris": {"ios": "https://dc.lft.to/lastmile_qr_scan", "android": "https://dc.lft.to/lastmile_qr_scan"}, "lon": -77.021949, "type": "electric_scooter"}, {"bike_id": "4aefacd6a09b7efcb3fd618056e28196", "is_reserved": 0, "fusion_lon": 0.0, "lat": 38.911085, "is_disabled": 0, "name": "4aefacd6a09b7efcb3fd618056e28196", "fusion_lat": 0.0, "rental_uris": {"ios": "https://dc.lft.to/lastmile_qr_scan", "android": "https://dc.lft.to/lastmile_qr_scan"}, "lon": -77.0372735, "type": "electric_scooter"}, {"bike_id": "e7e75a5a62fa2b62991274a65950cce3", "is_reserved": 0, "fusion_lon": 0.0, "lat": 38.93231733333333, "is_disabled": 0, "name": "e7e75a5a62fa2b62991274a65950cce3", "fusion_lat": 0.0, "rental_uris": {"ios": "https://dc.lft.to/lastmile_qr_scan", "android": "https://dc.lft.to/lastmile_qr_scan"}, "lon": -77.03824716666666, "type": "electric_scooter"}, {"bike_id": "4848e227bdd6c9c717b32e1eeee29e3c", "is_reserved": 0, "fusion_lon": 0.0, "lat": 38.899984333333336, "is_disabled": 0, "name": "4848e227bdd6c9c717b32e1eeee29e3c", "fusion_lat": 0.0, "rental_uris": {"ios": "https://dc.lft.to/lastmile_qr_scan", "android": "https://dc.lft.to/lastmile_qr_scan"}, "lon": -77.05237666666666, "type": "electric_scooter"}, {"bike_id": "bfc0df9edaeec21fb14c9bf6917a70a0", "is_reserved": 0, "fusion_lon": 0.0, "lat": 38.911000666666666, "is_disabled": 0, "name": "bfc0df9edaeec21fb14c9bf6917a70a0", "fusion_lat": 0.0, "rental_uris": {"ios": "https://dc.lft.to/lastmile_qr_scan", "android": "https://dc.lft.to/lastmile_qr_scan"}, "lon": -77.04838133333334, "type": "electric_scooter"}, {"bike_id": "9b6b6e0dd4101f848791189dbad6632c", "is_reserved": 0, "fusion_lon": 0.0, "lat": 38.9003, "is_disabled": 0, "name": "9b6b6e0dd4101f848791189dbad6632c", "fusion_lat": 0.0, "rental_uris": {"ios": "https://dc.lft.to/lastmile_qr_scan", "android": "https://dc.lft.to/lastmile_qr_scan"}, "lon": -76.99540283333333, "type": "electric_scooter"}, {"bike_id": "37da5fbbd89b32935cebe226c01208af", "is_reserved": 0, "fusion_lon": 0.0, "lat": 38.8922385, "is_disabled": 0, "name": "37da5fbbd89b32935cebe226c01208af", "fusion_lat": 0.0, "rental_uris": {"ios": "https://dc.lft.to/lastmile_qr_scan", "android": "https://dc.lft.to/lastmile_qr_scan"}, "lon": -77.04370816666666, "type": "electric_scooter"}, {"bike_id": "c02af44c77a4ec16217bdbc2dc6dcd85", "is_reserved": 0, "fusion_lon": 0.0, "lat": 38.89481416666667, "is_disabled": 0, "name": "c02af44c77a4ec16217bdbc2dc6dcd85", "fusion_lat": 0.0, "rental_uris": {"ios": "https://dc.lft.to/lastmile_qr_scan", "android": "https://dc.lft.to/lastmile_qr_scan"}, "lon": -76.948741, "type": "electric_scooter"}, {"bike_id": "6407c6ce22d58ebe38096ef20fe5731e", "is_reserved": 0, "fusion_lon": 0.0, "lat": 38.89829666666667, "is_disabled": 0, "name": "6407c6ce22d58ebe38096ef20fe5731e", "fusion_lat": 0.0, "rental_uris": {"ios": "https://dc.lft.to/lastmile_qr_scan", "android": "https://dc.lft.to/lastmile_qr_scan"}, "lon": -76.98046983333333, "type": "electric_scooter"}, {"bike_id": "ff8ce1a8eab34147d661c5b69a41cb3c", "is_reserved": 0, "fusion_lon": 0.0, "lat": 38.881319166666664, "is_disabled": 0, "name": "ff8ce1a8eab34147d661c5b69a41cb3c", "fusion_lat": 0.0, "rental_uris": {"ios": "https://dc.lft.to/lastmile_qr_scan", "android": "https://dc.lft.to/lastmile_qr_scan"}, "lon": -77.01672566666667, "type": "electric_bike"}, {"bike_id": "5b0834a41f8ee8fdaaba38a06f6c5dfc", "is_reserved": 0, "fusion_lon": 0.0, "lat": 38.90671783333333, "is_disabled": 0, "name": "5b0834a41f8ee8fdaaba38a06f6c5dfc", "fusion_lat": 0.0, "rental_uris": {"ios": "https://dc.lft.to/lastmile_qr_scan", "android": "https://dc.lft.to/lastmile_qr_scan"}, "lon": -76.98788616666667, "type": "electric_scooter"}, {"bike_id": "4d05535e9d25b9ebe9ebb11b1a74e519", "is_reserved": 0, "fusion_lon": 0.0, "lat": 38.90240566666667, "is_disabled": 0, "name": "4d05535e9d25b9ebe9ebb11b1a74e519", "fusion_lat": 0.0, "rental_uris": {"ios": "https://dc.lft.to/lastmile_qr_scan", "android": "https://dc.lft.to/lastmile_qr_scan"}, "lon": -77.0326465, "type": "electric_scooter"}, {"bike_id": "5187d64a305cf5aef3f56cb0dff70738", "is_reserved": 0, "fusion_lon": 0.0, "lat": 38.95889833333333, "is_disabled": 0, "name": "5187d64a305cf5aef3f56cb0dff70738", "fusion_lat": 0.0, "rental_uris": {"ios": "https://dc.lft.to/lastmile_qr_scan", "android": "https://dc.lft.to/lastmile_qr_scan"}, "lon": -76.92484483333334, "type": "electric_bike"}, {"bike_id": "d4ffbe8640c89b5f4f8404276f3e3c79", "is_reserved": 0, "fusion_lon": 0.0, "lat": 38.92567616666667, "is_disabled": 0, "name": "d4ffbe8640c89b5f4f8404276f3e3c79", "fusion_lat": 0.0, "rental_uris": {"ios": "https://dc.lft.to/lastmile_qr_scan", "android": "https://dc.lft.to/lastmile_qr_scan"}, "lon": -77.03101733333334, "type": "electric_scooter"}, {"bike_id": "36cfdfc160a24de2d129c200e332ec7b", "is_reserved": 0, "fusion_lon": 0.0, "lat": 38.91834333333333, "is_disabled": 0, "name": "36cfdfc160a24de2d129c200e332ec7b", "fusion_lat": 0.0, "rental_uris": {"ios": "https://dc.lft.to/lastmile_qr_scan", "android": "https://dc.lft.to/lastmile_qr_scan"}, "lon": -77.02346266666666, "type": "electric_scooter"}, {"bike_id": "2670e34d1131b1f3914e546c57f69606", "is_reserved": 0, "fusion_lon": 0.0, "lat": 38.918873833333336, "is_disabled": 0, "name": "2670e34d1131b1f3914e546c57f69606", "fusion_lat": 0.0, "rental_uris": {"ios": "https://dc.lft.to/lastmile_qr_scan", "android": "https://dc.lft.to/lastmile_qr_scan"}, "lon": -77.0318965, "type": "electric_scooter"}, {"bike_id": "1862008005d900ef0834d62af3ddc3a3", "is_reserved": 0, "fusion_lon": 0.0, "lat": 38.87547716666667, "is_disabled": 0, "name": "1862008005d900ef0834d62af3ddc3a3", "fusion_lat": 0.0, "rental_uris": {"ios": "https://dc.lft.to/lastmile_qr_scan", "android": "https://dc.lft.to/lastmile_qr_scan"}, "lon": -76.9649275, "type": "electric_scooter"}, {"bike_id": "22701644425cafb5540324b4a9dde28f", "is_reserved": 0, "fusion_lon": 0.0, "lat": 38.910350666666666, "is_disabled": 0, "name": "22701644425cafb5540324b4a9dde28f", "fusion_lat": 0.0, "rental_uris": {"ios": "https://dc.lft.to/lastmile_qr_scan", "android": "https://dc.lft.to/lastmile_qr_scan"}, "lon": -77.04388866666666, "type": "electric_scooter"}, {"bike_id": "7e10740dc364b7d827cefbf17deca7c4", "is_reserved": 0, "fusion_lon": 0.0, "lat": 38.895339166666666, "is_disabled": 0, "name": "7e10740dc364b7d827cefbf17deca7c4", "fusion_lat": 0.0, "rental_uris": {"ios": "https://dc.lft.to/lastmile_qr_scan", "android": "https://dc.lft.to/lastmile_qr_scan"}, "lon": -77.04853566666667, "type": "electric_scooter"}, {"bike_id": "c4235c8ef1d131d3ff8596013c5a556b", "is_reserved": 0, "fusion_lon": 0.0, "lat": 38.888622, "is_disabled": 0, "name": "c4235c8ef1d131d3ff8596013c5a556b", "fusion_lat": 0.0, "rental_uris": {"ios": "https://dc.lft.to/lastmile_qr_scan", "android": "https://dc.lft.to/lastmile_qr_scan"}, "lon": -76.99483283333333, "type": "electric_bike"}, {"bike_id": "39d5de4d95939c0487564885592659f5", "is_reserved": 0, "fusion_lon": 0.0, "lat": 38.86201066666667, "is_disabled": 0, "name": "39d5de4d95939c0487564885592659f5", "fusion_lat": 0.0, "rental_uris": {"ios": "https://dc.lft.to/lastmile_qr_scan", "android": "https://dc.lft.to/lastmile_qr_scan"}, "lon": -76.994629, "type": "electric_scooter"}, {"bike_id": "2bae663417deac810594cdd502da78d0", "is_reserved": 0, "fusion_lon": 0.0, "lat": 38.89955833333333, "is_disabled": 0, "name": "2bae663417deac810594cdd502da78d0", "fusion_lat": 0.0, "rental_uris": {"ios": "https://dc.lft.to/lastmile_qr_scan", "android": "https://dc.lft.to/lastmile_qr_scan"}, "lon": -76.9755335, "type": "electric_scooter"}, {"bike_id": "a1adc48d71bd0f93b563cfceebe74d38", "is_reserved": 0, "fusion_lon": 0.0, "lat": 38.9285515, "is_disabled": 0, "name": "a1adc48d71bd0f93b563cfceebe74d38", "fusion_lat": 0.0, "rental_uris": {"ios": "https://dc.lft.to/lastmile_qr_scan", "android": "https://dc.lft.to/lastmile_qr_scan"}, "lon": -77.22212833333333, "type": "electric_bike"}, {"bike_id": "59290972a75f80df8b67aa94a05b0b58", "is_reserved": 0, "fusion_lon": 0.0, "lat": 39.08862533333333, "is_disabled": 0, "name": "59290972a75f80df8b67aa94a05b0b58", "fusion_lat": 0.0, "rental_uris": {"ios": "https://dc.lft.to/lastmile_qr_scan", "android": "https://dc.lft.to/lastmile_qr_scan"}, "lon": -77.1784395, "type": "electric_bike"}, {"bike_id": "21fe23df6ad50e5a09dd60598c7f2a94", "is_reserved": 0, "fusion_lon": 0.0, "lat": 38.9574715, "is_disabled": 0, "name": "21fe23df6ad50e5a09dd60598c7f2a94", "fusion_lat": 0.0, "rental_uris": {"ios": "https://dc.lft.to/lastmile_qr_scan", "android": "https://dc.lft.to/lastmile_qr_scan"}, "lon": -77.02416616666666, "type": "electric_scooter"}, {"bike_id": "18136712fd923ef22120a074a95a1d47", "is_reserved": 0, "fusion_lon": 0.0, "lat": 38.90942183333333, "is_disabled": 0, "name": "18136712fd923ef22120a074a95a1d47", "fusion_lat": 0.0, "rental_uris": {"ios": "https://dc.lft.to/lastmile_qr_scan", "android": "https://dc.lft.to/lastmile_qr_scan"}, "lon": -77.0487045, "type": "electric_scooter"}, {"bike_id": "ce8a273be576a1a6ac61a04307ff8435", "is_reserved": 0, "fusion_lon": 0.0, "lat": 38.9242905, "is_disabled": 0, "name": "ce8a273be576a1a6ac61a04307ff8435", "fusion_lat": 0.0, "rental_uris": {"ios": "https://dc.lft.to/lastmile_qr_scan", "android": "https://dc.lft.to/lastmile_qr_scan"}, "lon": -76.9916045, "type": "electric_bike"}, {"bike_id": "d0823add0b1fa9b6b262cb6a4f11d3cf", "is_reserved": 0, "fusion_lon": 0.0, "lat": 38.953377833333334, "is_disabled": 0, "name": "d0823add0b1fa9b6b262cb6a4f11d3cf", "fusion_lat": 0.0, "rental_uris": {"ios": "https://dc.lft.to/lastmile_qr_scan", "android": "https://dc.lft.to/lastmile_qr_scan"}, "lon": -77.009588, "type": "electric_bike"}, {"bike_id": "af19601cc612db4349a8d64cfbc01d39", "is_reserved": 0, "fusion_lon": 0.0, "lat": 38.90658633333334, "is_disabled": 0, "name": "af19601cc612db4349a8d64cfbc01d39", "fusion_lat": 0.0, "rental_uris": {"ios": "https://dc.lft.to/lastmile_qr_scan", "android": "https://dc.lft.to/lastmile_qr_scan"}, "lon": -77.03819066666667, "type": "electric_scooter"}, {"bike_id": "4cf2c5d2a0795ba4b836d7895b2dbf47", "is_reserved": 0, "fusion_lon": 0.0, "lat": 38.92360266666667, "is_disabled": 0, "name": "4cf2c5d2a0795ba4b836d7895b2dbf47", "fusion_lat": 0.0, "rental_uris": {"ios": "https://dc.lft.to/lastmile_qr_scan", "android": "https://dc.lft.to/lastmile_qr_scan"}, "lon": -77.043889, "type": "electric_scooter"}, {"bike_id": "2911b6d64760fecec59bb45f4abfa0e3", "is_reserved": 0, "fusion_lon": 0.0, "lat": 38.90570783333333, "is_disabled": 0, "name": "2911b6d64760fecec59bb45f4abfa0e3", "fusion_lat": 0.0, "rental_uris": {"ios": "https://dc.lft.to/lastmile_qr_scan", "android": "https://dc.lft.to/lastmile_qr_scan"}, "lon": -77.02174883333333, "type": "electric_scooter"}, {"bike_id": "78119593b2371f6c028239fb86b65dea", "is_reserved": 0, "fusion_lon": 0.0, "lat": 38.917083833333336, "is_disabled": 0, "name": "78119593b2371f6c028239fb86b65dea", "fusion_lat": 0.0, "rental_uris": {"ios": "https://dc.lft.to/lastmile_qr_scan", "android": "https://dc.lft.to/lastmile_qr_scan"}, "lon": -77.02296516666667, "type": "electric_scooter"}, {"bike_id": "7b96f94f8da763343db0b1cf44fef8eb", "is_reserved": 0, "fusion_lon": 0.0, "lat": 38.956495, "is_disabled": 0, "name": "7b96f94f8da763343db0b1cf44fef8eb", "fusion_lat": 0.0, "rental_uris": {"ios": "https://dc.lft.to/lastmile_qr_scan", "android": "https://dc.lft.to/lastmile_qr_scan"}, "lon": -77.032897, "type": "electric_scooter"}, {"bike_id": "6945de6caab5b6c431c4d371743dc591", "is_reserved": 0, "fusion_lon": 0.0, "lat": 38.887417, "is_disabled": 0, "name": "6945de6caab5b6c431c4d371743dc591", "fusion_lat": 0.0, "rental_uris": {"ios": "https://dc.lft.to/lastmile_qr_scan", "android": "https://dc.lft.to/lastmile_qr_scan"}, "lon": -77.02265233333334, "type": "electric_bike"}, {"bike_id": "f6a813a3aef006211ad1f8f72e70e1bb", "is_reserved": 0, "fusion_lon": 0.0, "lat": 38.915506666666666, "is_disabled": 0, "name": "f6a813a3aef006211ad1f8f72e70e1bb", "fusion_lat": 0.0, "rental_uris": {"ios": "https://dc.lft.to/lastmile_qr_scan", "android": "https://dc.lft.to/lastmile_qr_scan"}, "lon": -77.03865766666667, "type": "electric_scooter"}, {"bike_id": "96d233255e17c257cfee68a779f8b6ee", "is_reserved": 0, "fusion_lon": 0.0, "lat": 38.894762, "is_disabled": 0, "name": "96d233255e17c257cfee68a779f8b6ee", "fusion_lat": 0.0, "rental_uris": {"ios": "https://dc.lft.to/lastmile_qr_scan", "android": "https://dc.lft.to/lastmile_qr_scan"}, "lon": -77.030511, "type": "electric_scooter"}, {"bike_id": "ee2feb9abc05f1950a6a0cf72be12907", "is_reserved": 0, "fusion_lon": 0.0, "lat": 38.9221685, "is_disabled": 0, "name": "ee2feb9abc05f1950a6a0cf72be12907", "fusion_lat": 0.0, "rental_uris": {"ios": "https://dc.lft.to/lastmile_qr_scan", "android": "https://dc.lft.to/lastmile_qr_scan"}, "lon": -77.04260933333333, "type": "electric_scooter"}, {"bike_id": "5de9174a82078448d6044c2c5b1d1c00", "is_reserved": 0, "fusion_lon": 0.0, "lat": 38.912161833333336, "is_disabled": 0, "name": "5de9174a82078448d6044c2c5b1d1c00", "fusion_lat": 0.0, "rental_uris": {"ios": "https://dc.lft.to/lastmile_qr_scan", "android": "https://dc.lft.to/lastmile_qr_scan"}, "lon": -77.07594333333333, "type": "electric_scooter"}, {"bike_id": "bd9afa906278ba62055b9bc2941b6dc4", "is_reserved": 0, "fusion_lon": 0.0, "lat": 38.8922385, "is_disabled": 0, "name": "bd9afa906278ba62055b9bc2941b6dc4", "fusion_lat": 0.0, "rental_uris": {"ios": "https://dc.lft.to/lastmile_qr_scan", "android": "https://dc.lft.to/lastmile_qr_scan"}, "lon": -77.03163916666666, "type": "electric_scooter"}, {"bike_id": "0b7bc10cf20c38cb007873e2fa4764ae", "is_reserved": 0, "fusion_lon": 0.0, "lat": 38.948324166666666, "is_disabled": 0, "name": "0b7bc10cf20c38cb007873e2fa4764ae", "fusion_lat": 0.0, "rental_uris": {"ios": "https://dc.lft.to/lastmile_qr_scan", "android": "https://dc.lft.to/lastmile_qr_scan"}, "lon": -77.03904533333333, "type": "electric_bike"}, {"bike_id": "649981b120bcfccca296dd918c0bc8bb", "is_reserved": 0, "fusion_lon": 0.0, "lat": 38.9073785, "is_disabled": 0, "name": "649981b120bcfccca296dd918c0bc8bb", "fusion_lat": 0.0, "rental_uris": {"ios": "https://dc.lft.to/lastmile_qr_scan", "android": "https://dc.lft.to/lastmile_qr_scan"}, "lon": -77.03461666666666, "type": "electric_scooter"}, {"bike_id": "8180dacc7d0d24ff58175034a358030b", "is_reserved": 0, "fusion_lon": 0.0, "lat": 38.926309333333336, "is_disabled": 0, "name": "8180dacc7d0d24ff58175034a358030b", "fusion_lat": 0.0, "rental_uris": {"ios": "https://dc.lft.to/lastmile_qr_scan", "android": "https://dc.lft.to/lastmile_qr_scan"}, "lon": -77.03505766666666, "type": "electric_scooter"}, {"bike_id": "153bb52cbf242db4264cc28b453f31e6", "is_reserved": 0, "fusion_lon": 0.0, "lat": 38.9050975, "is_disabled": 0, "name": "153bb52cbf242db4264cc28b453f31e6", "fusion_lat": 0.0, "rental_uris": {"ios": "https://dc.lft.to/lastmile_qr_scan", "android": "https://dc.lft.to/lastmile_qr_scan"}, "lon": -77.0414385, "type": "electric_scooter"}, {"bike_id": "31a92a7eb931f0b12278382376b13c36", "is_reserved": 0, "fusion_lon": 0.0, "lat": 38.89820916666667, "is_disabled": 0, "name": "31a92a7eb931f0b12278382376b13c36", "fusion_lat": 0.0, "rental_uris": {"ios": "https://dc.lft.to/lastmile_qr_scan", "android": "https://dc.lft.to/lastmile_qr_scan"}, "lon": -77.0334375, "type": "electric_scooter"}, {"bike_id": "2c0299f78c3b9072c278a9cd60fb241c", "is_reserved": 0, "fusion_lon": 0.0, "lat": 38.933472, "is_disabled": 0, "name": "2c0299f78c3b9072c278a9cd60fb241c", "fusion_lat": 0.0, "rental_uris": {"ios": "https://dc.lft.to/lastmile_qr_scan", "android": "https://dc.lft.to/lastmile_qr_scan"}, "lon": -77.05864683333333, "type": "electric_scooter"}, {"bike_id": "df94842c2f6fc9b206a21c3f5461582e", "is_reserved": 0, "fusion_lon": 0.0, "lat": 38.92091033333333, "is_disabled": 0, "name": "df94842c2f6fc9b206a21c3f5461582e", "fusion_lat": 0.0, "rental_uris": {"ios": "https://dc.lft.to/lastmile_qr_scan", "android": "https://dc.lft.to/lastmile_qr_scan"}, "lon": -77.07470233333333, "type": "electric_scooter"}, {"bike_id": "26bf0323778a1eb6cc12d5871d81b96a", "is_reserved": 0, "fusion_lon": 0.0, "lat": 38.9000545, "is_disabled": 0, "name": "26bf0323778a1eb6cc12d5871d81b96a", "fusion_lat": 0.0, "rental_uris": {"ios": "https://dc.lft.to/lastmile_qr_scan", "android": "https://dc.lft.to/lastmile_qr_scan"}, "lon": -77.01138866666666, "type": "electric_scooter"}, {"bike_id": "7fdee06eb923fae50af50d11181ec047", "is_reserved": 0, "fusion_lon": 0.0, "lat": 38.86247516666667, "is_disabled": 0, "name": "7fdee06eb923fae50af50d11181ec047", "fusion_lat": 0.0, "rental_uris": {"ios": "https://dc.lft.to/lastmile_qr_scan", "android": "https://dc.lft.to/lastmile_qr_scan"}, "lon": -76.99489883333334, "type": "electric_scooter"}, {"bike_id": "bfeb879ffd055a72ed40eacd7c9476cb", "is_reserved": 0, "fusion_lon": 0.0, "lat": 38.911111166666664, "is_disabled": 0, "name": "bfeb879ffd055a72ed40eacd7c9476cb", "fusion_lat": 0.0, "rental_uris": {"ios": "https://dc.lft.to/lastmile_qr_scan", "android": "https://dc.lft.to/lastmile_qr_scan"}, "lon": -77.00392483333333, "type": "electric_scooter"}, {"bike_id": "dd125c5225f3553dd1dc48f7d425e3e8", "is_reserved": 0, "fusion_lon": 0.0, "lat": 38.901336666666666, "is_disabled": 0, "name": "dd125c5225f3553dd1dc48f7d425e3e8", "fusion_lat": 0.0, "rental_uris": {"ios": "https://dc.lft.to/lastmile_qr_scan", "android": "https://dc.lft.to/lastmile_qr_scan"}, "lon": -77.04470333333333, "type": "electric_scooter"}, {"bike_id": "2c30e4d007f65012cad49cb68ba586df", "is_reserved": 0, "fusion_lon": 0.0, "lat": 38.89837416666667, "is_disabled": 0, "name": "2c30e4d007f65012cad49cb68ba586df", "fusion_lat": 0.0, "rental_uris": {"ios": "https://dc.lft.to/lastmile_qr_scan", "android": "https://dc.lft.to/lastmile_qr_scan"}, "lon": -77.00745816666667, "type": "electric_scooter"}, {"bike_id": "dbbc7db4c9c23822bdda2e3a25cb3622", "is_reserved": 0, "fusion_lon": 0.0, "lat": 38.91383116666667, "is_disabled": 0, "name": "dbbc7db4c9c23822bdda2e3a25cb3622", "fusion_lat": 0.0, "rental_uris": {"ios": "https://dc.lft.to/lastmile_qr_scan", "android": "https://dc.lft.to/lastmile_qr_scan"}, "lon": -77.01797016666667, "type": "electric_scooter"}, {"bike_id": "fb4a1bb999b69837bc366ca1a3ec726e", "is_reserved": 0, "fusion_lon": 0.0, "lat": 38.9140685, "is_disabled": 0, "name": "fb4a1bb999b69837bc366ca1a3ec726e", "fusion_lat": 0.0, "rental_uris": {"ios": "https://dc.lft.to/lastmile_qr_scan", "android": "https://dc.lft.to/lastmile_qr_scan"}, "lon": -77.04147883333333, "type": "electric_scooter"}, {"bike_id": "4465672462b59715da9e91fed1fd54ce", "is_reserved": 0, "fusion_lon": 0.0, "lat": 38.908694833333335, "is_disabled": 0, "name": "4465672462b59715da9e91fed1fd54ce", "fusion_lat": 0.0, "rental_uris": {"ios": "https://dc.lft.to/lastmile_qr_scan", "android": "https://dc.lft.to/lastmile_qr_scan"}, "lon": -77.00632783333333, "type": "electric_scooter"}, {"bike_id": "2b9d3c89e8b36f5f16d5166c9aa1d03d", "is_reserved": 0, "fusion_lon": 0.0, "lat": 38.918035833333334, "is_disabled": 0, "name": "2b9d3c89e8b36f5f16d5166c9aa1d03d", "fusion_lat": 0.0, "rental_uris": {"ios": "https://dc.lft.to/lastmile_qr_scan", "android": "https://dc.lft.to/lastmile_qr_scan"}, "lon": -77.03436333333333, "type": "electric_scooter"}, {"bike_id": "c3db58b120b468a222c2891df672c9b0", "is_reserved": 0, "fusion_lon": 0.0, "lat": 38.917724666666665, "is_disabled": 0, "name": "c3db58b120b468a222c2891df672c9b0", "fusion_lat": 0.0, "rental_uris": {"ios": "https://dc.lft.to/lastmile_qr_scan", "android": "https://dc.lft.to/lastmile_qr_scan"}, "lon": -77.040599, "type": "electric_scooter"}, {"bike_id": "0c9aea0c31a9c538daf61f969ff7b5b1", "is_reserved": 0, "fusion_lon": 0.0, "lat": 38.84291966666667, "is_disabled": 0, "name": "0c9aea0c31a9c538daf61f969ff7b5b1", "fusion_lat": 0.0, "rental_uris": {"ios": "https://dc.lft.to/lastmile_qr_scan", "android": "https://dc.lft.to/lastmile_qr_scan"}, "lon": -76.99950716666666, "type": "electric_scooter"}, {"bike_id": "23a23b6e4cfa9e0220b70c6e906287ea", "is_reserved": 0, "fusion_lon": 0.0, "lat": 38.93676033333333, "is_disabled": 0, "name": "23a23b6e4cfa9e0220b70c6e906287ea", "fusion_lat": 0.0, "rental_uris": {"ios": "https://dc.lft.to/lastmile_qr_scan", "android": "https://dc.lft.to/lastmile_qr_scan"}, "lon": -77.035972, "type": "electric_scooter"}, {"bike_id": "2454cc360026e05f84837d92c33bf368", "is_reserved": 0, "fusion_lon": 0.0, "lat": 38.924013333333335, "is_disabled": 0, "name": "2454cc360026e05f84837d92c33bf368", "fusion_lat": 0.0, "rental_uris": {"ios": "https://dc.lft.to/lastmile_qr_scan", "android": "https://dc.lft.to/lastmile_qr_scan"}, "lon": -76.99729866666667, "type": "electric_bike"}, {"bike_id": "bebf0769c65865868f786add20e54619", "is_reserved": 0, "fusion_lon": 0.0, "lat": 38.9034715, "is_disabled": 0, "name": "bebf0769c65865868f786add20e54619", "fusion_lat": 0.0, "rental_uris": {"ios": "https://dc.lft.to/lastmile_qr_scan", "android": "https://dc.lft.to/lastmile_qr_scan"}, "lon": -77.0658895, "type": "electric_scooter"}, {"bike_id": "bf7e0755c9bff7b86b952f36ade415c9", "is_reserved": 0, "fusion_lon": 0.0, "lat": 38.887472833333334, "is_disabled": 0, "name": "bf7e0755c9bff7b86b952f36ade415c9", "fusion_lat": 0.0, "rental_uris": {"ios": "https://dc.lft.to/lastmile_qr_scan", "android": "https://dc.lft.to/lastmile_qr_scan"}, "lon": -77.02866066666667, "type": "electric_scooter"}, {"bike_id": "edee648f147641e8700c76d7caa219ef", "is_reserved": 0, "fusion_lon": 0.0, "lat": 38.9056605, "is_disabled": 0, "name": "edee648f147641e8700c76d7caa219ef", "fusion_lat": 0.0, "rental_uris": {"ios": "https://dc.lft.to/lastmile_qr_scan", "android": "https://dc.lft.to/lastmile_qr_scan"}, "lon": -76.98147283333333, "type": "electric_scooter"}, {"bike_id": "14c2b988392d2e29d95da938fcd7dcff", "is_reserved": 0, "fusion_lon": 0.0, "lat": 38.90407, "is_disabled": 0, "name": "14c2b988392d2e29d95da938fcd7dcff", "fusion_lat": 0.0, "rental_uris": {"ios": "https://dc.lft.to/lastmile_qr_scan", "android": "https://dc.lft.to/lastmile_qr_scan"}, "lon": -76.97332366666667, "type": "electric_scooter"}, {"bike_id": "453ddb2c3ac621522f80cf2695489327", "is_reserved": 0, "fusion_lon": 0.0, "lat": 38.87172616666667, "is_disabled": 0, "name": "453ddb2c3ac621522f80cf2695489327", "fusion_lat": 0.0, "rental_uris": {"ios": "https://dc.lft.to/lastmile_qr_scan", "android": "https://dc.lft.to/lastmile_qr_scan"}, "lon": -77.00627183333333, "type": "electric_scooter"}, {"bike_id": "462ffb210d6909953a7a1534a679c959", "is_reserved": 0, "fusion_lon": 0.0, "lat": 38.92011866666667, "is_disabled": 0, "name": "462ffb210d6909953a7a1534a679c959", "fusion_lat": 0.0, "rental_uris": {"ios": "https://dc.lft.to/lastmile_qr_scan", "android": "https://dc.lft.to/lastmile_qr_scan"}, "lon": -77.03871133333334, "type": "electric_scooter"}, {"bike_id": "7547132f593e515ecb9987e9645d58a3", "is_reserved": 0, "fusion_lon": 0.0, "lat": 38.904092166666665, "is_disabled": 0, "name": "7547132f593e515ecb9987e9645d58a3", "fusion_lat": 0.0, "rental_uris": {"ios": "https://dc.lft.to/lastmile_qr_scan", "android": "https://dc.lft.to/lastmile_qr_scan"}, "lon": -77.02487816666667, "type": "electric_scooter"}, {"bike_id": "b539a3e8d3a760b48c6c545726a0a0c5", "is_reserved": 0, "fusion_lon": 0.0, "lat": 38.903901166666664, "is_disabled": 0, "name": "b539a3e8d3a760b48c6c545726a0a0c5", "fusion_lat": 0.0, "rental_uris": {"ios": "https://dc.lft.to/lastmile_qr_scan", "android": "https://dc.lft.to/lastmile_qr_scan"}, "lon": -77.01773033333333, "type": "electric_scooter"}, {"bike_id": "a3f6851a63fc6fc979986282bb127612", "is_reserved": 0, "fusion_lon": 0.0, "lat": 38.90389666666667, "is_disabled": 0, "name": "a3f6851a63fc6fc979986282bb127612", "fusion_lat": 0.0, "rental_uris": {"ios": "https://dc.lft.to/lastmile_qr_scan", "android": "https://dc.lft.to/lastmile_qr_scan"}, "lon": -77.04209683333333, "type": "electric_scooter"}, {"bike_id": "98ed3a51b8e5b45a2afa805182cda79f", "is_reserved": 0, "fusion_lon": 0.0, "lat": 38.89909866666667, "is_disabled": 0, "name": "98ed3a51b8e5b45a2afa805182cda79f", "fusion_lat": 0.0, "rental_uris": {"ios": "https://dc.lft.to/lastmile_qr_scan", "android": "https://dc.lft.to/lastmile_qr_scan"}, "lon": -76.933523, "type": "electric_scooter"}, {"bike_id": "eb146db5ac48c0d3d919ca0d8a3a6c29", "is_reserved": 0, "fusion_lon": 0.0, "lat": 38.9401295, "is_disabled": 0, "name": "eb146db5ac48c0d3d919ca0d8a3a6c29", "fusion_lat": 0.0, "rental_uris": {"ios": "https://dc.lft.to/lastmile_qr_scan", "android": "https://dc.lft.to/lastmile_qr_scan"}, "lon": -77.07171866666667, "type": "electric_scooter"}, {"bike_id": "aeadf70228fbd41f2f85b348a7acee55", "is_reserved": 0, "fusion_lon": 0.0, "lat": 38.927232000000004, "is_disabled": 0, "name": "aeadf70228fbd41f2f85b348a7acee55", "fusion_lat": 0.0, "rental_uris": {"ios": "https://dc.lft.to/lastmile_qr_scan", "android": "https://dc.lft.to/lastmile_qr_scan"}, "lon": -77.02279516666667, "type": "electric_scooter"}, {"bike_id": "c02e3156d55eb9854b3473323875d60d", "is_reserved": 0, "fusion_lon": 0.0, "lat": 38.903747833333334, "is_disabled": 0, "name": "c02e3156d55eb9854b3473323875d60d", "fusion_lat": 0.0, "rental_uris": {"ios": "https://dc.lft.to/lastmile_qr_scan", "android": "https://dc.lft.to/lastmile_qr_scan"}, "lon": -77.04351583333333, "type": "electric_scooter"}, {"bike_id": "e67b6f3435340a4238dcff1123c32f54", "is_reserved": 0, "fusion_lon": 0.0, "lat": 38.86627083333333, "is_disabled": 0, "name": "e67b6f3435340a4238dcff1123c32f54", "fusion_lat": 0.0, "rental_uris": {"ios": "https://dc.lft.to/lastmile_qr_scan", "android": "https://dc.lft.to/lastmile_qr_scan"}, "lon": -76.98717083333334, "type": "electric_scooter"}, {"bike_id": "ab46b9a6c3ecbbe14c90a66433303bb5", "is_reserved": 0, "fusion_lon": 0.0, "lat": 38.90217083333334, "is_disabled": 0, "name": "ab46b9a6c3ecbbe14c90a66433303bb5", "fusion_lat": 0.0, "rental_uris": {"ios": "https://dc.lft.to/lastmile_qr_scan", "android": "https://dc.lft.to/lastmile_qr_scan"}, "lon": -77.0606065, "type": "electric_scooter"}, {"bike_id": "468a0dc6a33f914e0d63e6f254535da1", "is_reserved": 0, "fusion_lon": 0.0, "lat": 38.87997516666667, "is_disabled": 0, "name": "468a0dc6a33f914e0d63e6f254535da1", "fusion_lat": 0.0, "rental_uris": {"ios": "https://dc.lft.to/lastmile_qr_scan", "android": "https://dc.lft.to/lastmile_qr_scan"}, "lon": -76.99502983333333, "type": "electric_scooter"}, {"bike_id": "77f3d856c543dcda11f50074d66e6523", "is_reserved": 0, "fusion_lon": 0.0, "lat": 38.90799916666667, "is_disabled": 0, "name": "77f3d856c543dcda11f50074d66e6523", "fusion_lat": 0.0, "rental_uris": {"ios": "https://dc.lft.to/lastmile_qr_scan", "android": "https://dc.lft.to/lastmile_qr_scan"}, "lon": -77.03464466666667, "type": "electric_scooter"}, {"bike_id": "e82aa135bed3d9dd8dc484926bfa634f", "is_reserved": 0, "fusion_lon": 0.0, "lat": 38.90507083333333, "is_disabled": 0, "name": "e82aa135bed3d9dd8dc484926bfa634f", "fusion_lat": 0.0, "rental_uris": {"ios": "https://dc.lft.to/lastmile_qr_scan", "android": "https://dc.lft.to/lastmile_qr_scan"}, "lon": -77.02957416666666, "type": "electric_scooter"}, {"bike_id": "cfafcdf0e93e53c68ad80d912fa894b6", "is_reserved": 0, "fusion_lon": 0.0, "lat": 38.90011283333333, "is_disabled": 0, "name": "cfafcdf0e93e53c68ad80d912fa894b6", "fusion_lat": 0.0, "rental_uris": {"ios": "https://dc.lft.to/lastmile_qr_scan", "android": "https://dc.lft.to/lastmile_qr_scan"}, "lon": -76.97310016666667, "type": "electric_scooter"}, {"bike_id": "a43301b232dadb4450c7a9b0031ce669", "is_reserved": 0, "fusion_lon": 0.0, "lat": 38.89500666666667, "is_disabled": 0, "name": "a43301b232dadb4450c7a9b0031ce669", "fusion_lat": 0.0, "rental_uris": {"ios": "https://dc.lft.to/lastmile_qr_scan", "android": "https://dc.lft.to/lastmile_qr_scan"}, "lon": -77.02229183333333, "type": "electric_scooter"}, {"bike_id": "9bc5fa03a179dc9613663a3316c36160", "is_reserved": 0, "fusion_lon": 0.0, "lat": 38.92085733333333, "is_disabled": 0, "name": "9bc5fa03a179dc9613663a3316c36160", "fusion_lat": 0.0, "rental_uris": {"ios": "https://dc.lft.to/lastmile_qr_scan", "android": "https://dc.lft.to/lastmile_qr_scan"}, "lon": -77.025288, "type": "electric_scooter"}, {"bike_id": "75f9cddec9ffbc98c76613d67c916a46", "is_reserved": 0, "fusion_lon": 0.0, "lat": 38.908438333333336, "is_disabled": 0, "name": "75f9cddec9ffbc98c76613d67c916a46", "fusion_lat": 0.0, "rental_uris": {"ios": "https://dc.lft.to/lastmile_qr_scan", "android": "https://dc.lft.to/lastmile_qr_scan"}, "lon": -77.08528716666666, "type": "electric_scooter"}, {"bike_id": "d58d7f94bf290693e88de3cdeaccbaee", "is_reserved": 0, "fusion_lon": 0.0, "lat": 38.912498166666666, "is_disabled": 0, "name": "d58d7f94bf290693e88de3cdeaccbaee", "fusion_lat": 0.0, "rental_uris": {"ios": "https://dc.lft.to/lastmile_qr_scan", "android": "https://dc.lft.to/lastmile_qr_scan"}, "lon": -77.02698016666666, "type": "electric_scooter"}, {"bike_id": "59a4519881f80349f8738affc464c8db", "is_reserved": 0, "fusion_lon": 0.0, "lat": 38.92885533333333, "is_disabled": 0, "name": "59a4519881f80349f8738affc464c8db", "fusion_lat": 0.0, "rental_uris": {"ios": "https://dc.lft.to/lastmile_qr_scan", "android": "https://dc.lft.to/lastmile_qr_scan"}, "lon": -77.05450683333333, "type": "electric_scooter"}, {"bike_id": "35a6324a40d03afbe090fbdd47f18aae", "is_reserved": 0, "fusion_lon": 0.0, "lat": 38.92972683333333, "is_disabled": 0, "name": "35a6324a40d03afbe090fbdd47f18aae", "fusion_lat": 0.0, "rental_uris": {"ios": "https://dc.lft.to/lastmile_qr_scan", "android": "https://dc.lft.to/lastmile_qr_scan"}, "lon": -77.22567816666667, "type": "electric_bike"}, {"bike_id": "5ec9a98990c8c97fcedeb2cd883f164f", "is_reserved": 0, "fusion_lon": 0.0, "lat": 38.93163416666667, "is_disabled": 0, "name": "5ec9a98990c8c97fcedeb2cd883f164f", "fusion_lat": 0.0, "rental_uris": {"ios": "https://dc.lft.to/lastmile_qr_scan", "android": "https://dc.lft.to/lastmile_qr_scan"}, "lon": -77.03641716666667, "type": "electric_scooter"}, {"bike_id": "38e36920277c28ee0767bc8d013257e0", "is_reserved": 0, "fusion_lon": 0.0, "lat": 38.919589, "is_disabled": 0, "name": "38e36920277c28ee0767bc8d013257e0", "fusion_lat": 0.0, "rental_uris": {"ios": "https://dc.lft.to/lastmile_qr_scan", "android": "https://dc.lft.to/lastmile_qr_scan"}, "lon": -76.97267383333333, "type": "electric_bike"}, {"bike_id": "786e0347560fcb2f58f29d2c06223100", "is_reserved": 0, "fusion_lon": 0.0, "lat": 38.90330466666666, "is_disabled": 0, "name": "786e0347560fcb2f58f29d2c06223100", "fusion_lat": 0.0, "rental_uris": {"ios": "https://dc.lft.to/lastmile_qr_scan", "android": "https://dc.lft.to/lastmile_qr_scan"}, "lon": -77.03826816666667, "type": "electric_scooter"}, {"bike_id": "fff55a8b0d2dd7420ece5d6e69d067c0", "is_reserved": 0, "fusion_lon": 0.0, "lat": 38.928952833333334, "is_disabled": 0, "name": "fff55a8b0d2dd7420ece5d6e69d067c0", "fusion_lat": 0.0, "rental_uris": {"ios": "https://dc.lft.to/lastmile_qr_scan", "android": "https://dc.lft.to/lastmile_qr_scan"}, "lon": -77.0323995, "type": "electric_bike"}, {"bike_id": "4c5f8c2819d85970add728d7b057cd70", "is_reserved": 0, "fusion_lon": 0.0, "lat": 38.90575466666667, "is_disabled": 0, "name": "4c5f8c2819d85970add728d7b057cd70", "fusion_lat": 0.0, "rental_uris": {"ios": "https://dc.lft.to/lastmile_qr_scan", "android": "https://dc.lft.to/lastmile_qr_scan"}, "lon": -77.00565116666667, "type": "electric_scooter"}, {"bike_id": "562728d1f354f960463562a7f7dcf97c", "is_reserved": 0, "fusion_lon": 0.0, "lat": 38.925541833333334, "is_disabled": 0, "name": "562728d1f354f960463562a7f7dcf97c", "fusion_lat": 0.0, "rental_uris": {"ios": "https://dc.lft.to/lastmile_qr_scan", "android": "https://dc.lft.to/lastmile_qr_scan"}, "lon": -77.00142, "type": "electric_bike"}, {"bike_id": "83efa66c0e57219f4f90869b87c1a756", "is_reserved": 0, "fusion_lon": 0.0, "lat": 38.955307833333336, "is_disabled": 0, "name": "83efa66c0e57219f4f90869b87c1a756", "fusion_lat": 0.0, "rental_uris": {"ios": "https://dc.lft.to/lastmile_qr_scan", "android": "https://dc.lft.to/lastmile_qr_scan"}, "lon": -77.02419116666667, "type": "electric_bike"}, {"bike_id": "efc168b839b1e17a3749dc5c19fc0e7c", "is_reserved": 0, "fusion_lon": 0.0, "lat": 38.949492166666666, "is_disabled": 0, "name": "efc168b839b1e17a3749dc5c19fc0e7c", "fusion_lat": 0.0, "rental_uris": {"ios": "https://dc.lft.to/lastmile_qr_scan", "android": "https://dc.lft.to/lastmile_qr_scan"}, "lon": -77.01619, "type": "electric_scooter"}, {"bike_id": "374c77f166ed8cf394bfe8bc6365c3cb", "is_reserved": 0, "fusion_lon": 0.0, "lat": 38.902111166666664, "is_disabled": 0, "name": "374c77f166ed8cf394bfe8bc6365c3cb", "fusion_lat": 0.0, "rental_uris": {"ios": "https://dc.lft.to/lastmile_qr_scan", "android": "https://dc.lft.to/lastmile_qr_scan"}, "lon": -76.945842, "type": "electric_scooter"}, {"bike_id": "eaf5e1d3d45a580d09e064d631336915", "is_reserved": 0, "fusion_lon": 0.0, "lat": 38.90593466666667, "is_disabled": 0, "name": "eaf5e1d3d45a580d09e064d631336915", "fusion_lat": 0.0, "rental_uris": {"ios": "https://dc.lft.to/lastmile_qr_scan", "android": "https://dc.lft.to/lastmile_qr_scan"}, "lon": -77.0467785, "type": "electric_scooter"}, {"bike_id": "80721809024153d1044eb7240f077e16", "is_reserved": 0, "fusion_lon": 0.0, "lat": 38.91580033333334, "is_disabled": 0, "name": "80721809024153d1044eb7240f077e16", "fusion_lat": 0.0, "rental_uris": {"ios": "https://dc.lft.to/lastmile_qr_scan", "android": "https://dc.lft.to/lastmile_qr_scan"}, "lon": -77.04689833333333, "type": "electric_scooter"}, {"bike_id": "006e4d99213b51de064d1fdbc8943d4c", "is_reserved": 0, "fusion_lon": 0.0, "lat": 38.86200383333333, "is_disabled": 0, "name": "006e4d99213b51de064d1fdbc8943d4c", "fusion_lat": 0.0, "rental_uris": {"ios": "https://dc.lft.to/lastmile_qr_scan", "android": "https://dc.lft.to/lastmile_qr_scan"}, "lon": -76.99465716666667, "type": "electric_scooter"}, {"bike_id": "acc74af87a8a696d08914e55594ec1eb", "is_reserved": 0, "fusion_lon": 0.0, "lat": 38.900979, "is_disabled": 0, "name": "acc74af87a8a696d08914e55594ec1eb", "fusion_lat": 0.0, "rental_uris": {"ios": "https://dc.lft.to/lastmile_qr_scan", "android": "https://dc.lft.to/lastmile_qr_scan"}, "lon": -77.04874716666667, "type": "electric_scooter"}, {"bike_id": "a88f0e665fb8a20642058b6f353eb4fb", "is_reserved": 0, "fusion_lon": 0.0, "lat": 38.918056666666665, "is_disabled": 0, "name": "a88f0e665fb8a20642058b6f353eb4fb", "fusion_lat": 0.0, "rental_uris": {"ios": "https://dc.lft.to/lastmile_qr_scan", "android": "https://dc.lft.to/lastmile_qr_scan"}, "lon": -77.03447983333334, "type": "electric_scooter"}, {"bike_id": "2593e4e615f8b590f08ad88de2869ce8", "is_reserved": 0, "fusion_lon": 0.0, "lat": 38.91677816666667, "is_disabled": 0, "name": "2593e4e615f8b590f08ad88de2869ce8", "fusion_lat": 0.0, "rental_uris": {"ios": "https://dc.lft.to/lastmile_qr_scan", "android": "https://dc.lft.to/lastmile_qr_scan"}, "lon": -77.0364795, "type": "electric_scooter"}, {"bike_id": "2b3460fa5a11cc96ba0d7293982f25dc", "is_reserved": 0, "fusion_lon": 0.0, "lat": 38.9079375, "is_disabled": 0, "name": "2b3460fa5a11cc96ba0d7293982f25dc", "fusion_lat": 0.0, "rental_uris": {"ios": "https://dc.lft.to/lastmile_qr_scan", "android": "https://dc.lft.to/lastmile_qr_scan"}, "lon": -76.99705416666667, "type": "electric_scooter"}, {"bike_id": "e58c53a91190a4243f315685a7f325b5", "is_reserved": 0, "fusion_lon": 0.0, "lat": 38.884105166666664, "is_disabled": 0, "name": "e58c53a91190a4243f315685a7f325b5", "fusion_lat": 0.0, "rental_uris": {"ios": "https://dc.lft.to/lastmile_qr_scan", "android": "https://dc.lft.to/lastmile_qr_scan"}, "lon": -77.01537566666667, "type": "electric_scooter"}, {"bike_id": "31b5c8f0fa0b9cfde438bdf791ca5461", "is_reserved": 0, "fusion_lon": 0.0, "lat": 38.9056925, "is_disabled": 0, "name": "31b5c8f0fa0b9cfde438bdf791ca5461", "fusion_lat": 0.0, "rental_uris": {"ios": "https://dc.lft.to/lastmile_qr_scan", "android": "https://dc.lft.to/lastmile_qr_scan"}, "lon": -77.0397235, "type": "electric_scooter"}, {"bike_id": "2bd7664f18dbf9082cf7e8d13b0d8848", "is_reserved": 0, "fusion_lon": 0.0, "lat": 38.91983166666667, "is_disabled": 0, "name": "2bd7664f18dbf9082cf7e8d13b0d8848", "fusion_lat": 0.0, "rental_uris": {"ios": "https://dc.lft.to/lastmile_qr_scan", "android": "https://dc.lft.to/lastmile_qr_scan"}, "lon": -77.02375916666666, "type": "electric_scooter"}, {"bike_id": "3734fe46ac9115b74afa0ef726893a7f", "is_reserved": 0, "fusion_lon": 0.0, "lat": 38.91991433333333, "is_disabled": 0, "name": "3734fe46ac9115b74afa0ef726893a7f", "fusion_lat": 0.0, "rental_uris": {"ios": "https://dc.lft.to/lastmile_qr_scan", "android": "https://dc.lft.to/lastmile_qr_scan"}, "lon": -77.03229466666667, "type": "electric_scooter"}, {"bike_id": "2dc93cf5e434486afad4fe725fcbb818", "is_reserved": 0, "fusion_lon": 0.0, "lat": 38.9908835, "is_disabled": 0, "name": "2dc93cf5e434486afad4fe725fcbb818", "fusion_lat": 0.0, "rental_uris": {"ios": "https://dc.lft.to/lastmile_qr_scan", "android": "https://dc.lft.to/lastmile_qr_scan"}, "lon": -76.87490683333333, "type": "electric_bike"}, {"bike_id": "932b59feb367e5c24b64b27c16ef1a61", "is_reserved": 0, "fusion_lon": 0.0, "lat": 38.82872033333334, "is_disabled": 0, "name": "932b59feb367e5c24b64b27c16ef1a61", "fusion_lat": 0.0, "rental_uris": {"ios": "https://dc.lft.to/lastmile_qr_scan", "android": "https://dc.lft.to/lastmile_qr_scan"}, "lon": -77.11221533333334, "type": "electric_bike"}, {"bike_id": "1687dbfabcb61fe5163aac8820342f20", "is_reserved": 0, "fusion_lon": 0.0, "lat": 38.936073, "is_disabled": 0, "name": "1687dbfabcb61fe5163aac8820342f20", "fusion_lat": 0.0, "rental_uris": {"ios": "https://dc.lft.to/lastmile_qr_scan", "android": "https://dc.lft.to/lastmile_qr_scan"}, "lon": -77.05863533333333, "type": "electric_scooter"}, {"bike_id": "51fefae9a5fc380a02e156264afabd4a", "is_reserved": 0, "fusion_lon": 0.0, "lat": 38.885176333333334, "is_disabled": 0, "name": "51fefae9a5fc380a02e156264afabd4a", "fusion_lat": 0.0, "rental_uris": {"ios": "https://dc.lft.to/lastmile_qr_scan", "android": "https://dc.lft.to/lastmile_qr_scan"}, "lon": -77.00568916666667, "type": "electric_scooter"}, {"bike_id": "da030fad3ccb8b9d989710d3fc3993a9", "is_reserved": 0, "fusion_lon": 0.0, "lat": 38.8860605, "is_disabled": 0, "name": "da030fad3ccb8b9d989710d3fc3993a9", "fusion_lat": 0.0, "rental_uris": {"ios": "https://dc.lft.to/lastmile_qr_scan", "android": "https://dc.lft.to/lastmile_qr_scan"}, "lon": -76.93608966666666, "type": "electric_scooter"}, {"bike_id": "281d4ed0690086144326c1c69294f72e", "is_reserved": 0, "fusion_lon": 0.0, "lat": 38.83727966666667, "is_disabled": 0, "name": "281d4ed0690086144326c1c69294f72e", "fusion_lat": 0.0, "rental_uris": {"ios": "https://dc.lft.to/lastmile_qr_scan", "android": "https://dc.lft.to/lastmile_qr_scan"}, "lon": -76.99754233333333, "type": "electric_bike"}, {"bike_id": "546e826d94e59da86e30c324e140ec1e", "is_reserved": 0, "fusion_lon": 0.0, "lat": 38.8551675, "is_disabled": 0, "name": "546e826d94e59da86e30c324e140ec1e", "fusion_lat": 0.0, "rental_uris": {"ios": "https://dc.lft.to/lastmile_qr_scan", "android": "https://dc.lft.to/lastmile_qr_scan"}, "lon": -76.98438616666667, "type": "electric_bike"}, {"bike_id": "3c4e7cfad8b7b81194ce6107e5b79f19", "is_reserved": 0, "fusion_lon": 0.0, "lat": 38.9138465, "is_disabled": 0, "name": "3c4e7cfad8b7b81194ce6107e5b79f19", "fusion_lat": 0.0, "rental_uris": {"ios": "https://dc.lft.to/lastmile_qr_scan", "android": "https://dc.lft.to/lastmile_qr_scan"}, "lon": -77.017045, "type": "electric_scooter"}, {"bike_id": "5d9a3f512debe36efa8613a9807e90e6", "is_reserved": 0, "fusion_lon": 0.0, "lat": 38.9247905, "is_disabled": 0, "name": "5d9a3f512debe36efa8613a9807e90e6", "fusion_lat": 0.0, "rental_uris": {"ios": "https://dc.lft.to/lastmile_qr_scan", "android": "https://dc.lft.to/lastmile_qr_scan"}, "lon": -77.02650716666666, "type": "electric_scooter"}, {"bike_id": "7bef4e9d1198e3de2ff4e4bda824f3c7", "is_reserved": 0, "fusion_lon": 0.0, "lat": 38.90474116666667, "is_disabled": 0, "name": "7bef4e9d1198e3de2ff4e4bda824f3c7", "fusion_lat": 0.0, "rental_uris": {"ios": "https://dc.lft.to/lastmile_qr_scan", "android": "https://dc.lft.to/lastmile_qr_scan"}, "lon": -77.0402695, "type": "electric_scooter"}, {"bike_id": "dd3c18aeaa3c421dab0e47384b82b408", "is_reserved": 0, "fusion_lon": 0.0, "lat": 38.90038166666667, "is_disabled": 0, "name": "dd3c18aeaa3c421dab0e47384b82b408", "fusion_lat": 0.0, "rental_uris": {"ios": "https://dc.lft.to/lastmile_qr_scan", "android": "https://dc.lft.to/lastmile_qr_scan"}, "lon": -77.00205466666667, "type": "electric_scooter"}, {"bike_id": "efadf52d183b04a302b2ddb188a3ef27", "is_reserved": 0, "fusion_lon": 0.0, "lat": 38.90132, "is_disabled": 0, "name": "efadf52d183b04a302b2ddb188a3ef27", "fusion_lat": 0.0, "rental_uris": {"ios": "https://dc.lft.to/lastmile_qr_scan", "android": "https://dc.lft.to/lastmile_qr_scan"}, "lon": -77.03360683333334, "type": "electric_scooter"}, {"bike_id": "22cf7716040be096635a6537c2bcda4b", "is_reserved": 0, "fusion_lon": 0.0, "lat": 38.95072916666667, "is_disabled": 0, "name": "22cf7716040be096635a6537c2bcda4b", "fusion_lat": 0.0, "rental_uris": {"ios": "https://dc.lft.to/lastmile_qr_scan", "android": "https://dc.lft.to/lastmile_qr_scan"}, "lon": -77.01205916666666, "type": "electric_bike"}, {"bike_id": "de3b26af487b59364c165859e0d0d49e", "is_reserved": 0, "fusion_lon": 0.0, "lat": 38.93706433333333, "is_disabled": 0, "name": "de3b26af487b59364c165859e0d0d49e", "fusion_lat": 0.0, "rental_uris": {"ios": "https://dc.lft.to/lastmile_qr_scan", "android": "https://dc.lft.to/lastmile_qr_scan"}, "lon": -77.029335, "type": "electric_scooter"}, {"bike_id": "4cf14adcba6a026231197601a6dac32e", "is_reserved": 0, "fusion_lon": 0.0, "lat": 38.92856533333333, "is_disabled": 0, "name": "4cf14adcba6a026231197601a6dac32e", "fusion_lat": 0.0, "rental_uris": {"ios": "https://dc.lft.to/lastmile_qr_scan", "android": "https://dc.lft.to/lastmile_qr_scan"}, "lon": -77.01403, "type": "electric_scooter"}, {"bike_id": "9fce63d42bd7c824e9d90b911b8a2314", "is_reserved": 0, "fusion_lon": 0.0, "lat": 38.9396685, "is_disabled": 0, "name": "9fce63d42bd7c824e9d90b911b8a2314", "fusion_lat": 0.0, "rental_uris": {"ios": "https://dc.lft.to/lastmile_qr_scan", "android": "https://dc.lft.to/lastmile_qr_scan"}, "lon": -77.032665, "type": "electric_scooter"}, {"bike_id": "d3d7e89bceb669c85bccde6554cd9fff", "is_reserved": 0, "fusion_lon": 0.0, "lat": 38.89835083333333, "is_disabled": 0, "name": "d3d7e89bceb669c85bccde6554cd9fff", "fusion_lat": 0.0, "rental_uris": {"ios": "https://dc.lft.to/lastmile_qr_scan", "android": "https://dc.lft.to/lastmile_qr_scan"}, "lon": -77.00729, "type": "electric_scooter"}, {"bike_id": "470f5f4ee9fd8ff4faca135ff94efda2", "is_reserved": 0, "fusion_lon": 0.0, "lat": 38.90595883333334, "is_disabled": 0, "name": "470f5f4ee9fd8ff4faca135ff94efda2", "fusion_lat": 0.0, "rental_uris": {"ios": "https://dc.lft.to/lastmile_qr_scan", "android": "https://dc.lft.to/lastmile_qr_scan"}, "lon": -77.05104066666667, "type": "electric_scooter"}, {"bike_id": "795852fb9dfbb16e14ddfe032670366c", "is_reserved": 0, "fusion_lon": 0.0, "lat": 38.93432983333334, "is_disabled": 0, "name": "795852fb9dfbb16e14ddfe032670366c", "fusion_lat": 0.0, "rental_uris": {"ios": "https://dc.lft.to/lastmile_qr_scan", "android": "https://dc.lft.to/lastmile_qr_scan"}, "lon": -77.03993333333334, "type": "electric_scooter"}, {"bike_id": "7985a9c38d83da6b45b950a31d92ec01", "is_reserved": 0, "fusion_lon": 0.0, "lat": 38.91197183333333, "is_disabled": 0, "name": "7985a9c38d83da6b45b950a31d92ec01", "fusion_lat": 0.0, "rental_uris": {"ios": "https://dc.lft.to/lastmile_qr_scan", "android": "https://dc.lft.to/lastmile_qr_scan"}, "lon": -77.07319266666667, "type": "electric_scooter"}, {"bike_id": "5c236f289b5bd933c0841fcf6595bc43", "is_reserved": 0, "fusion_lon": 0.0, "lat": 38.888861166666665, "is_disabled": 0, "name": "5c236f289b5bd933c0841fcf6595bc43", "fusion_lat": 0.0, "rental_uris": {"ios": "https://dc.lft.to/lastmile_qr_scan", "android": "https://dc.lft.to/lastmile_qr_scan"}, "lon": -77.03322183333333, "type": "electric_bike"}, {"bike_id": "e5cecbb55af87e7512257f03bb11d55f", "is_reserved": 0, "fusion_lon": 0.0, "lat": 38.9595555, "is_disabled": 0, "name": "e5cecbb55af87e7512257f03bb11d55f", "fusion_lat": 0.0, "rental_uris": {"ios": "https://dc.lft.to/lastmile_qr_scan", "android": "https://dc.lft.to/lastmile_qr_scan"}, "lon": -77.10091083333333, "type": "electric_bike"}, {"bike_id": "772a90a541270c6fc36435be95c2592c", "is_reserved": 0, "fusion_lon": 0.0, "lat": 38.91359716666667, "is_disabled": 0, "name": "772a90a541270c6fc36435be95c2592c", "fusion_lat": 0.0, "rental_uris": {"ios": "https://dc.lft.to/lastmile_qr_scan", "android": "https://dc.lft.to/lastmile_qr_scan"}, "lon": -77.04659416666667, "type": "electric_scooter"}, {"bike_id": "d24951ffdaadc996ad772ad78988abc4", "is_reserved": 0, "fusion_lon": 0.0, "lat": 38.903714666666666, "is_disabled": 0, "name": "d24951ffdaadc996ad772ad78988abc4", "fusion_lat": 0.0, "rental_uris": {"ios": "https://dc.lft.to/lastmile_qr_scan", "android": "https://dc.lft.to/lastmile_qr_scan"}, "lon": -77.04376766666667, "type": "electric_scooter"}, {"bike_id": "32fbea4fdc79caba86e74a39c55e6ad2", "is_reserved": 0, "fusion_lon": 0.0, "lat": 38.876618, "is_disabled": 0, "name": "32fbea4fdc79caba86e74a39c55e6ad2", "fusion_lat": 0.0, "rental_uris": {"ios": "https://dc.lft.to/lastmile_qr_scan", "android": "https://dc.lft.to/lastmile_qr_scan"}, "lon": -77.00069766666667, "type": "electric_scooter"}, {"bike_id": "6094c756fb7a85f5d24950fff94f2ed3", "is_reserved": 0, "fusion_lon": 0.0, "lat": 38.90378666666667, "is_disabled": 0, "name": "6094c756fb7a85f5d24950fff94f2ed3", "fusion_lat": 0.0, "rental_uris": {"ios": "https://dc.lft.to/lastmile_qr_scan", "android": "https://dc.lft.to/lastmile_qr_scan"}, "lon": -77.04204666666666, "type": "electric_scooter"}, {"bike_id": "77e4ca910296309b916c9443bc92414c", "is_reserved": 0, "fusion_lon": 0.0, "lat": 38.91836283333333, "is_disabled": 0, "name": "77e4ca910296309b916c9443bc92414c", "fusion_lat": 0.0, "rental_uris": {"ios": "https://dc.lft.to/lastmile_qr_scan", "android": "https://dc.lft.to/lastmile_qr_scan"}, "lon": -77.0230045, "type": "electric_scooter"}, {"bike_id": "1777dd6fef5150f5c256031b89f10be5", "is_reserved": 0, "fusion_lon": 0.0, "lat": 38.90172366666667, "is_disabled": 0, "name": "1777dd6fef5150f5c256031b89f10be5", "fusion_lat": 0.0, "rental_uris": {"ios": "https://dc.lft.to/lastmile_qr_scan", "android": "https://dc.lft.to/lastmile_qr_scan"}, "lon": -76.98061983333334, "type": "electric_scooter"}, {"bike_id": "8cc19d6861be731c89e702305641020f", "is_reserved": 0, "fusion_lon": 0.0, "lat": 38.92826383333333, "is_disabled": 0, "name": "8cc19d6861be731c89e702305641020f", "fusion_lat": 0.0, "rental_uris": {"ios": "https://dc.lft.to/lastmile_qr_scan", "android": "https://dc.lft.to/lastmile_qr_scan"}, "lon": -77.02262216666666, "type": "electric_scooter"}, {"bike_id": "2ca54ab3e2aa0b25be23183eaa95c735", "is_reserved": 0, "fusion_lon": 0.0, "lat": 38.902686833333334, "is_disabled": 0, "name": "2ca54ab3e2aa0b25be23183eaa95c735", "fusion_lat": 0.0, "rental_uris": {"ios": "https://dc.lft.to/lastmile_qr_scan", "android": "https://dc.lft.to/lastmile_qr_scan"}, "lon": -77.02993483333333, "type": "electric_scooter"}, {"bike_id": "2906a4e79f124a3233ca530f1f6d3b92", "is_reserved": 0, "fusion_lon": 0.0, "lat": 38.928659333333336, "is_disabled": 0, "name": "2906a4e79f124a3233ca530f1f6d3b92", "fusion_lat": 0.0, "rental_uris": {"ios": "https://dc.lft.to/lastmile_qr_scan", "android": "https://dc.lft.to/lastmile_qr_scan"}, "lon": -77.01394616666667, "type": "electric_scooter"}, {"bike_id": "c371c431b52bb5a091b7cd32ef036f81", "is_reserved": 0, "fusion_lon": 0.0, "lat": 38.962100166666666, "is_disabled": 0, "name": "c371c431b52bb5a091b7cd32ef036f81", "fusion_lat": 0.0, "rental_uris": {"ios": "https://dc.lft.to/lastmile_qr_scan", "android": "https://dc.lft.to/lastmile_qr_scan"}, "lon": -77.0223455, "type": "electric_bike"}, {"bike_id": "1b2a7b9b1051e3f8bdb7ed7aa6869268", "is_reserved": 0, "fusion_lon": 0.0, "lat": 38.897027, "is_disabled": 0, "name": "1b2a7b9b1051e3f8bdb7ed7aa6869268", "fusion_lat": 0.0, "rental_uris": {"ios": "https://dc.lft.to/lastmile_qr_scan", "android": "https://dc.lft.to/lastmile_qr_scan"}, "lon": -77.02714583333334, "type": "electric_scooter"}, {"bike_id": "f2d1893eb85d8eef34abb6941253d314", "is_reserved": 0, "fusion_lon": 0.0, "lat": 38.905719, "is_disabled": 0, "name": "f2d1893eb85d8eef34abb6941253d314", "fusion_lat": 0.0, "rental_uris": {"ios": "https://dc.lft.to/lastmile_qr_scan", "android": "https://dc.lft.to/lastmile_qr_scan"}, "lon": -77.03629716666667, "type": "electric_scooter"}, {"bike_id": "661ff9eccfd1a87c7d81b3e0b1e3c654", "is_reserved": 0, "fusion_lon": 0.0, "lat": 38.88493716666667, "is_disabled": 0, "name": "661ff9eccfd1a87c7d81b3e0b1e3c654", "fusion_lat": 0.0, "rental_uris": {"ios": "https://dc.lft.to/lastmile_qr_scan", "android": "https://dc.lft.to/lastmile_qr_scan"}, "lon": -77.00725916666667, "type": "electric_scooter"}, {"bike_id": "9ae4c4c8e5b1b0b932629baa83d87fb1", "is_reserved": 0, "fusion_lon": 0.0, "lat": 38.874805, "is_disabled": 0, "name": "9ae4c4c8e5b1b0b932629baa83d87fb1", "fusion_lat": 0.0, "rental_uris": {"ios": "https://dc.lft.to/lastmile_qr_scan", "android": "https://dc.lft.to/lastmile_qr_scan"}, "lon": -76.96524783333334, "type": "electric_bike"}, {"bike_id": "4f1d8fc4ba217f613c43a9133192577e", "is_reserved": 0, "fusion_lon": 0.0, "lat": 38.9162375, "is_disabled": 0, "name": "4f1d8fc4ba217f613c43a9133192577e", "fusion_lat": 0.0, "rental_uris": {"ios": "https://dc.lft.to/lastmile_qr_scan", "android": "https://dc.lft.to/lastmile_qr_scan"}, "lon": -77.03654783333333, "type": "electric_scooter"}, {"bike_id": "84583b92f614f18be659f2eb2b4e27c3", "is_reserved": 0, "fusion_lon": 0.0, "lat": 38.89515683333333, "is_disabled": 0, "name": "84583b92f614f18be659f2eb2b4e27c3", "fusion_lat": 0.0, "rental_uris": {"ios": "https://dc.lft.to/lastmile_qr_scan", "android": "https://dc.lft.to/lastmile_qr_scan"}, "lon": -77.02937716666666, "type": "electric_scooter"}, {"bike_id": "c0e79e076cd8cad6d456e3594d405bc6", "is_reserved": 0, "fusion_lon": 0.0, "lat": 38.91002016666667, "is_disabled": 0, "name": "c0e79e076cd8cad6d456e3594d405bc6", "fusion_lat": 0.0, "rental_uris": {"ios": "https://dc.lft.to/lastmile_qr_scan", "android": "https://dc.lft.to/lastmile_qr_scan"}, "lon": -77.02098066666667, "type": "electric_scooter"}, {"bike_id": "c3b1fbf60d3888531728053ce72e948e", "is_reserved": 0, "fusion_lon": 0.0, "lat": 38.91541483333334, "is_disabled": 0, "name": "c3b1fbf60d3888531728053ce72e948e", "fusion_lat": 0.0, "rental_uris": {"ios": "https://dc.lft.to/lastmile_qr_scan", "android": "https://dc.lft.to/lastmile_qr_scan"}, "lon": -77.02351683333333, "type": "electric_scooter"}, {"bike_id": "18a4263e2a31d514c37d9418ce153f37", "is_reserved": 0, "fusion_lon": 0.0, "lat": 38.90879783333333, "is_disabled": 0, "name": "18a4263e2a31d514c37d9418ce153f37", "fusion_lat": 0.0, "rental_uris": {"ios": "https://dc.lft.to/lastmile_qr_scan", "android": "https://dc.lft.to/lastmile_qr_scan"}, "lon": -77.04328816666667, "type": "electric_scooter"}, {"bike_id": "d4cd6874108d86a9068ec086db1ef8b8", "is_reserved": 0, "fusion_lon": 0.0, "lat": 38.916853333333336, "is_disabled": 0, "name": "d4cd6874108d86a9068ec086db1ef8b8", "fusion_lat": 0.0, "rental_uris": {"ios": "https://dc.lft.to/lastmile_qr_scan", "android": "https://dc.lft.to/lastmile_qr_scan"}, "lon": -77.02896416666667, "type": "electric_scooter"}, {"bike_id": "cd976929e7df7c88c2620629117c4d2c", "is_reserved": 0, "fusion_lon": 0.0, "lat": 38.902089833333335, "is_disabled": 0, "name": "cd976929e7df7c88c2620629117c4d2c", "fusion_lat": 0.0, "rental_uris": {"ios": "https://dc.lft.to/lastmile_qr_scan", "android": "https://dc.lft.to/lastmile_qr_scan"}, "lon": -77.0198255, "type": "electric_scooter"}, {"bike_id": "f5cfdb046a905a7226f7cc22e147bba6", "is_reserved": 0, "fusion_lon": 0.0, "lat": 38.9243695, "is_disabled": 0, "name": "f5cfdb046a905a7226f7cc22e147bba6", "fusion_lat": 0.0, "rental_uris": {"ios": "https://dc.lft.to/lastmile_qr_scan", "android": "https://dc.lft.to/lastmile_qr_scan"}, "lon": -77.0337955, "type": "electric_scooter"}, {"bike_id": "db75ccbc6ab738b737ae30b869eb6090", "is_reserved": 0, "fusion_lon": 0.0, "lat": 38.927966, "is_disabled": 0, "name": "db75ccbc6ab738b737ae30b869eb6090", "fusion_lat": 0.0, "rental_uris": {"ios": "https://dc.lft.to/lastmile_qr_scan", "android": "https://dc.lft.to/lastmile_qr_scan"}, "lon": -77.02606966666667, "type": "electric_scooter"}, {"bike_id": "1bc995281bf68b3c2e23d2260f4c28ea", "is_reserved": 0, "fusion_lon": 0.0, "lat": 38.897325333333335, "is_disabled": 0, "name": "1bc995281bf68b3c2e23d2260f4c28ea", "fusion_lat": 0.0, "rental_uris": {"ios": "https://dc.lft.to/lastmile_qr_scan", "android": "https://dc.lft.to/lastmile_qr_scan"}, "lon": -76.94716733333334, "type": "electric_scooter"}, {"bike_id": "2e3d4dddcd8e9b45bcd1a278ec011cb0", "is_reserved": 0, "fusion_lon": 0.0, "lat": 38.9284795, "is_disabled": 0, "name": "2e3d4dddcd8e9b45bcd1a278ec011cb0", "fusion_lat": 0.0, "rental_uris": {"ios": "https://dc.lft.to/lastmile_qr_scan", "android": "https://dc.lft.to/lastmile_qr_scan"}, "lon": -77.02058866666667, "type": "electric_bike"}, {"bike_id": "435061e96144e7e229994896bcfed308", "is_reserved": 0, "fusion_lon": 0.0, "lat": 38.966196, "is_disabled": 0, "name": "435061e96144e7e229994896bcfed308", "fusion_lat": 0.0, "rental_uris": {"ios": "https://dc.lft.to/lastmile_qr_scan", "android": "https://dc.lft.to/lastmile_qr_scan"}, "lon": -77.0342725, "type": "electric_bike"}, {"bike_id": "2ccc29eb8ee1cee5f5dcb05f628501ec", "is_reserved": 0, "fusion_lon": 0.0, "lat": 38.907047, "is_disabled": 0, "name": "2ccc29eb8ee1cee5f5dcb05f628501ec", "fusion_lat": 0.0, "rental_uris": {"ios": "https://dc.lft.to/lastmile_qr_scan", "android": "https://dc.lft.to/lastmile_qr_scan"}, "lon": -76.98703616666667, "type": "electric_scooter"}, {"bike_id": "de72c5281378e32f8c4a3e3e6bc0d0e0", "is_reserved": 0, "fusion_lon": 0.0, "lat": 38.892291166666666, "is_disabled": 0, "name": "de72c5281378e32f8c4a3e3e6bc0d0e0", "fusion_lat": 0.0, "rental_uris": {"ios": "https://dc.lft.to/lastmile_qr_scan", "android": "https://dc.lft.to/lastmile_qr_scan"}, "lon": -77.021754, "type": "electric_scooter"}, {"bike_id": "764b1166eaf52e51780ba08640450b80", "is_reserved": 0, "fusion_lon": 0.0, "lat": 38.91692, "is_disabled": 0, "name": "764b1166eaf52e51780ba08640450b80", "fusion_lat": 0.0, "rental_uris": {"ios": "https://dc.lft.to/lastmile_qr_scan", "android": "https://dc.lft.to/lastmile_qr_scan"}, "lon": -77.0260045, "type": "electric_scooter"}, {"bike_id": "37eed9066801b0ab742c840dfd891bf6", "is_reserved": 0, "fusion_lon": 0.0, "lat": 38.936974166666666, "is_disabled": 0, "name": "37eed9066801b0ab742c840dfd891bf6", "fusion_lat": 0.0, "rental_uris": {"ios": "https://dc.lft.to/lastmile_qr_scan", "android": "https://dc.lft.to/lastmile_qr_scan"}, "lon": -77.0241605, "type": "electric_scooter"}, {"bike_id": "94a6fc991c27064ff0962e376728c585", "is_reserved": 0, "fusion_lon": 0.0, "lat": 38.92482566666666, "is_disabled": 0, "name": "94a6fc991c27064ff0962e376728c585", "fusion_lat": 0.0, "rental_uris": {"ios": "https://dc.lft.to/lastmile_qr_scan", "android": "https://dc.lft.to/lastmile_qr_scan"}, "lon": -77.03500283333334, "type": "electric_scooter"}, {"bike_id": "0c4e29d83f475130d2b9885f6a4f2fae", "is_reserved": 0, "fusion_lon": 0.0, "lat": 39.056355333333336, "is_disabled": 0, "name": "0c4e29d83f475130d2b9885f6a4f2fae", "fusion_lat": 0.0, "rental_uris": {"ios": "https://dc.lft.to/lastmile_qr_scan", "android": "https://dc.lft.to/lastmile_qr_scan"}, "lon": -77.12529716666667, "type": "electric_bike"}, {"bike_id": "1c11c90ebc1ca7178da41aa15eefa3c9", "is_reserved": 0, "fusion_lon": 0.0, "lat": 38.927109, "is_disabled": 0, "name": "1c11c90ebc1ca7178da41aa15eefa3c9", "fusion_lat": 0.0, "rental_uris": {"ios": "https://dc.lft.to/lastmile_qr_scan", "android": "https://dc.lft.to/lastmile_qr_scan"}, "lon": -77.04104883333333, "type": "electric_scooter"}, {"bike_id": "443df24c530621e68caf2414b20b1c25", "is_reserved": 0, "fusion_lon": 0.0, "lat": 38.904689166666664, "is_disabled": 0, "name": "443df24c530621e68caf2414b20b1c25", "fusion_lat": 0.0, "rental_uris": {"ios": "https://dc.lft.to/lastmile_qr_scan", "android": "https://dc.lft.to/lastmile_qr_scan"}, "lon": -77.02941833333334, "type": "electric_scooter"}, {"bike_id": "5d1e194a67e1f833edd91c9543b00fd1", "is_reserved": 0, "fusion_lon": 0.0, "lat": 38.88531666666667, "is_disabled": 0, "name": "5d1e194a67e1f833edd91c9543b00fd1", "fusion_lat": 0.0, "rental_uris": {"ios": "https://dc.lft.to/lastmile_qr_scan", "android": "https://dc.lft.to/lastmile_qr_scan"}, "lon": -77.0057745, "type": "electric_scooter"}, {"bike_id": "64b05f617f0987cc421888152b978202", "is_reserved": 0, "fusion_lon": 0.0, "lat": 38.8682775, "is_disabled": 0, "name": "64b05f617f0987cc421888152b978202", "fusion_lat": 0.0, "rental_uris": {"ios": "https://dc.lft.to/lastmile_qr_scan", "android": "https://dc.lft.to/lastmile_qr_scan"}, "lon": -76.986185, "type": "electric_scooter"}, {"bike_id": "e98142946fb15722aff6b5a091225095", "is_reserved": 0, "fusion_lon": 0.0, "lat": 38.9555315, "is_disabled": 0, "name": "e98142946fb15722aff6b5a091225095", "fusion_lat": 0.0, "rental_uris": {"ios": "https://dc.lft.to/lastmile_qr_scan", "android": "https://dc.lft.to/lastmile_qr_scan"}, "lon": -76.940084, "type": "electric_bike"}, {"bike_id": "54f108e245ec7a6168a618deef90e1e3", "is_reserved": 0, "fusion_lon": 0.0, "lat": 38.90359933333333, "is_disabled": 0, "name": "54f108e245ec7a6168a618deef90e1e3", "fusion_lat": 0.0, "rental_uris": {"ios": "https://dc.lft.to/lastmile_qr_scan", "android": "https://dc.lft.to/lastmile_qr_scan"}, "lon": -77.03939633333333, "type": "electric_scooter"}, {"bike_id": "7835f8810307fdeb39457cbadbf80c5a", "is_reserved": 0, "fusion_lon": 0.0, "lat": 38.90567983333333, "is_disabled": 0, "name": "7835f8810307fdeb39457cbadbf80c5a", "fusion_lat": 0.0, "rental_uris": {"ios": "https://dc.lft.to/lastmile_qr_scan", "android": "https://dc.lft.to/lastmile_qr_scan"}, "lon": -77.034812, "type": "electric_scooter"}, {"bike_id": "2dcb70b190aa394f77f3c8eab66c1d96", "is_reserved": 0, "fusion_lon": 0.0, "lat": 38.935132, "is_disabled": 0, "name": "2dcb70b190aa394f77f3c8eab66c1d96", "fusion_lat": 0.0, "rental_uris": {"ios": "https://dc.lft.to/lastmile_qr_scan", "android": "https://dc.lft.to/lastmile_qr_scan"}, "lon": -77.03345683333333, "type": "electric_scooter"}, {"bike_id": "1490a1777caddbf32a076392ecad6c60", "is_reserved": 0, "fusion_lon": 0.0, "lat": 38.908999, "is_disabled": 0, "name": "1490a1777caddbf32a076392ecad6c60", "fusion_lat": 0.0, "rental_uris": {"ios": "https://dc.lft.to/lastmile_qr_scan", "android": "https://dc.lft.to/lastmile_qr_scan"}, "lon": -77.08623366666667, "type": "electric_scooter"}, {"bike_id": "d1d74a9d7e997d7f9956c4125cc7ab51", "is_reserved": 0, "fusion_lon": 0.0, "lat": 38.8838295, "is_disabled": 0, "name": "d1d74a9d7e997d7f9956c4125cc7ab51", "fusion_lat": 0.0, "rental_uris": {"ios": "https://dc.lft.to/lastmile_qr_scan", "android": "https://dc.lft.to/lastmile_qr_scan"}, "lon": -76.949267, "type": "electric_scooter"}, {"bike_id": "72f645d56165dcbe8a2b37a8e1b1660e", "is_reserved": 0, "fusion_lon": 0.0, "lat": 38.88002, "is_disabled": 0, "name": "72f645d56165dcbe8a2b37a8e1b1660e", "fusion_lat": 0.0, "rental_uris": {"ios": "https://dc.lft.to/lastmile_qr_scan", "android": "https://dc.lft.to/lastmile_qr_scan"}, "lon": -76.91592266666666, "type": "electric_bike"}, {"bike_id": "b97c1cb250629110549671e1a1d3e8dc", "is_reserved": 0, "fusion_lon": 0.0, "lat": 38.923419333333335, "is_disabled": 0, "name": "b97c1cb250629110549671e1a1d3e8dc", "fusion_lat": 0.0, "rental_uris": {"ios": "https://dc.lft.to/lastmile_qr_scan", "android": "https://dc.lft.to/lastmile_qr_scan"}, "lon": -77.03516566666667, "type": "electric_scooter"}, {"bike_id": "41ce27195ac61450118bd50717d766c7", "is_reserved": 0, "fusion_lon": 0.0, "lat": 38.892456333333335, "is_disabled": 0, "name": "41ce27195ac61450118bd50717d766c7", "fusion_lat": 0.0, "rental_uris": {"ios": "https://dc.lft.to/lastmile_qr_scan", "android": "https://dc.lft.to/lastmile_qr_scan"}, "lon": -77.03186166666667, "type": "electric_scooter"}, {"bike_id": "c83de364a0d94ae3aab927ff04abc91d", "is_reserved": 0, "fusion_lon": 0.0, "lat": 38.917221, "is_disabled": 0, "name": "c83de364a0d94ae3aab927ff04abc91d", "fusion_lat": 0.0, "rental_uris": {"ios": "https://dc.lft.to/lastmile_qr_scan", "android": "https://dc.lft.to/lastmile_qr_scan"}, "lon": -77.0384045, "type": "electric_scooter"}, {"bike_id": "8ddcae610cacd70e4f0f9bb6f5c97db9", "is_reserved": 0, "fusion_lon": 0.0, "lat": 38.90285866666667, "is_disabled": 0, "name": "8ddcae610cacd70e4f0f9bb6f5c97db9", "fusion_lat": 0.0, "rental_uris": {"ios": "https://dc.lft.to/lastmile_qr_scan", "android": "https://dc.lft.to/lastmile_qr_scan"}, "lon": -77.03669716666667, "type": "electric_scooter"}, {"bike_id": "91e858bc997f7adaa112ef8469cafa99", "is_reserved": 0, "fusion_lon": 0.0, "lat": 38.92086233333333, "is_disabled": 0, "name": "91e858bc997f7adaa112ef8469cafa99", "fusion_lat": 0.0, "rental_uris": {"ios": "https://dc.lft.to/lastmile_qr_scan", "android": "https://dc.lft.to/lastmile_qr_scan"}, "lon": -77.02411516666666, "type": "electric_scooter"}, {"bike_id": "1c5fc0367a579d346d2104113d6e023b", "is_reserved": 0, "fusion_lon": 0.0, "lat": 38.82445233333333, "is_disabled": 0, "name": "1c5fc0367a579d346d2104113d6e023b", "fusion_lat": 0.0, "rental_uris": {"ios": "https://dc.lft.to/lastmile_qr_scan", "android": "https://dc.lft.to/lastmile_qr_scan"}, "lon": -77.0704185, "type": "electric_bike"}, {"bike_id": "d84089ae3e307501983514b4b957752c", "is_reserved": 0, "fusion_lon": 0.0, "lat": 38.925765, "is_disabled": 0, "name": "d84089ae3e307501983514b4b957752c", "fusion_lat": 0.0, "rental_uris": {"ios": "https://dc.lft.to/lastmile_qr_scan", "android": "https://dc.lft.to/lastmile_qr_scan"}, "lon": -77.03785866666666, "type": "electric_scooter"},