{"data": {"bikes": [{"name": "3505db80e142c30966c576b10e130ce2", "lon": -77.05495566666667, "lat": 38.9366425, "type": "electric_scooter", "fusion_lon": 0.0, "is_reserved": 0, "bike_id": "3505db80e142c30966c576b10e130ce2", "fusion_lat": 0.0, "is_disabled": 0, "rental_uris": {"ios": "https://dc.lft.to/lastmile_qr_scan", "android": "https://dc.lft.to/lastmile_qr_scan"}}, {"name": "719184bb566acdb905ceb206f3f7c94e", "lon": -77.1314605, "lat": 38.861736, "type": "electric_bike", "fusion_lon": 0.0, "is_reserved": 0, "bike_id": "719184bb566acdb905ceb206f3f7c94e", "fusion_lat": 0.0, "is_disabled": 0, "rental_uris": {"ios": "https://dc.lft.to/lastmile_qr_scan", "android": "https://dc.lft.to/lastmile_qr_scan"}}, {"name": "6db589b914c6625be4336e8bd08fff6b", "lon": -77.01913383333333, "lat": 38.923763, "type": "electric_scooter", "fusion_lon": 0.0, "is_reserved": 0, "bike_id": "6db589b914c6625be4336e8bd08fff6b", "fusion_lat": 0.0, "is_disabled": 0, "rental_uris": {"ios": "https://dc.lft.to/lastmile_qr_scan", "android": "https://dc.lft.to/lastmile_qr_scan"}}, {"name": "cb5a79dfc917ea8afdb5fbf4a9d17484", "lon": -77.11753883333333, "lat": 39.049053, "type": "electric_bike", "fusion_lon": 0.0, "is_reserved": 0, "bike_id": "cb5a79dfc917ea8afdb5fbf4a9d17484", "fusion_lat": 0.0, "is_disabled": 0, "rental_uris": {"ios": "https://dc.lft.to/lastmile_qr_scan", "android": "https://dc.lft.to/lastmile_qr_scan"}}, {"name": "7db380eb841558283e1e652634df2477", "lon": -76.97308633333333, "lat": 38.9198835, "type": "electric_scooter", "fusion_lon": 0.0, "is_reserved": 0, "bike_id": "7db380eb841558283e1e652634df2477", "fusion_lat": 0.0, "is_disabled": 0, "rental_uris": {"ios": "https://dc.lft.to/lastmile_qr_scan", "android": "https://dc.lft.to/lastmile_qr_scan"}}, {"name": "0eb7cd0db25588ff87be3959f88e4cca", "lon": -77.0311895, "lat": 38.894779666666665, "type": "electric_scooter", "fusion_lon": 0.0, "is_reserved": 0, "bike_id": "0eb7cd0db25588ff87be3959f88e4cca", "fusion_lat": 0.0, "is_disabled": 0, "rental_uris": {"ios": "https://dc.lft.to/lastmile_qr_scan", "android": "https://dc.lft.to/lastmile_qr_scan"}}, {"name": "33ddd8f31c8f755ecd370d026eb3ae6d", "lon": -77.0431125, "lat": 38.881067333333334, "type": "electric_scooter", "fusion_lon": 0.0, "is_reserved": 0, "bike_id": "33ddd8f31c8f755ecd370d026eb3ae6d", "fusion_lat": 0.0, "is_disabled": 0, "rental_uris": {"ios": "https://dc.lft.to/lastmile_qr_scan", "android": "https://dc.lft.to/lastmile_qr_scan"}}, {"name": "a1dc9e2c1174e52991f5f5210670047c", "lon": -77.041097, "lat": 38.9169815, "type": "electric_scooter", "fusion_lon": 0.0, "is_reserved": 0, "bike_id": "a1dc9e2c1174e52991f5f5210670047c", "fusion_lat": 0.0, "is_disabled": 0, "rental_uris": {"ios": "https://dc.lft.to/lastmile_qr_scan", "android": "https://dc.lft.to/lastmile_qr_scan"}}, {"name": "9e6934ba5d4dad81590a9ed7767a433f", "lon": -77.04484233333334, "lat": 38.903856, "type": "electric_scooter", "fusion_lon": 0.0, "is_reserved": 0, "bike_id": "9e6934ba5d4dad81590a9ed7767a433f", "fusion_lat": 0.0, "is_disabled": 0, "rental_uris": {"ios": "https://dc.lft.to/lastmile_qr_scan", "android": "https://dc.lft.to/lastmile_qr_scan"}}, {"name": "1e8df7721e34e259571a14ea4baf52ff", "lon": -76.996233, "lat": 38.88486183333333, "type": "electric_scooter", "fusion_lon": 0.0, "is_reserved": 0, "bike_id": "1e8df7721e34e259571a14ea4baf52ff", "fusion_lat": 0.0, "is_disabled": 0, "rental_uris": {"ios": "https://dc.lft.to/lastmile_qr_scan", "android": "https://dc.lft.to/lastmile_qr_scan"}}, {"name": "cd08367efb94b0e3cedd99b5b121ff89", "lon": -76.97183566666666, "lat": 38.9178795, "type": "electric_bike", "fusion_lon": 0.0, "is_reserved": 0, "bike_id": "cd08367efb94b0e3cedd99b5b121ff89", "fusion_lat": 0.0, "is_disabled": 0, "rental_uris": {"ios": "https://dc.lft.to/lastmile_qr_scan", "android": "https://dc.lft.to/lastmile_qr_scan"}}, {"name": "797b575e275381b4e9fdb8fd165d18ac", "lon": -77.02613833333334, "lat": 38.917102, "type": "electric_scooter", "fusion_lon": 0.0, "is_reserved": 0, "bike_id": "797b575e275381b4e9fdb8fd165d18ac", "fusion_lat": 0.0, "is_disabled": 0, "rental_uris": {"ios": "https://dc.lft.to/lastmile_qr_scan", "android": "https://dc.lft.to/lastmile_qr_scan"}}, {"name": "18bf12789c23638804b595c9fd59808b", "lon": -77.05762383333334, "lat": 38.93389, "type": "electric_scooter", "fusion_lon": 0.0, "is_reserved": 0, "bike_id": "18bf12789c23638804b595c9fd59808b", "fusion_lat": 0.0, "is_disabled": 0, "rental_uris": {"ios": "https://dc.lft.to/lastmile_qr_scan", "android": "https://dc.lft.to/lastmile_qr_scan"}}, {"name": "de31af58a39d6767d1c0c1fb74e44afc", "lon": -77.011339, "lat": 38.885259, "type": "electric_scooter", "fusion_lon": 0.0, "is_reserved": 0, "bike_id": "de31af58a39d6767d1c0c1fb74e44afc", "fusion_lat": 0.0, "is_disabled": 0, "rental_uris": {"ios": "https://dc.lft.to/lastmile_qr_scan", "android": "https://dc.lft.to/lastmile_qr_scan"}}, {"name": "4748e1aa63d2a24efbbfc12b3816a49a", "lon": -77.05132916666666, "lat": 38.90389283333333, "type": "electric_scooter", "fusion_lon": 0.0, "is_reserved": 0, "bike_id": "4748e1aa63d2a24efbbfc12b3816a49a", "fusion_lat": 0.0, "is_disabled": 0, "rental_uris": {"ios": "https://dc.lft.to/lastmile_qr_scan", "android": "https://dc.lft.to/lastmile_qr_scan"}}, {"name": "0e0f6a10e2bbf4cedb7371694e3a4c6f", "lon": -77.0217215, "lat": 38.9429115, "type": "electric_scooter", "fusion_lon": 0.0, "is_reserved": 0, "bike_id": "0e0f6a10e2bbf4cedb7371694e3a4c6f", "fusion_lat": 0.0, "is_disabled": 0, "rental_uris": {"ios": "https://dc.lft.to/lastmile_qr_scan", "android": "https://dc.lft.to/lastmile_qr_scan"}}, {"name": "0f4df4bac7ca19a562915636efabc902", "lon": -77.0365595, "lat": 38.91804066666667, "type": "electric_scooter", "fusion_lon": 0.0, "is_reserved": 0, "bike_id": "0f4df4bac7ca19a562915636efabc902", "fusion_lat": 0.0, "is_disabled": 0, "rental_uris": {"ios": "https://dc.lft.to/lastmile_qr_scan", "android": "https://dc.lft.to/lastmile_qr_scan"}}, {"name": "4e82d82bf89f199b85950adf15581519", "lon": -76.98434566666667, "lat": 38.91454066666667, "type": "electric_scooter", "fusion_lon": 0.0, "is_reserved": 0, "bike_id": "4e82d82bf89f199b85950adf15581519", "fusion_lat": 0.0, "is_disabled": 0, "rental_uris": {"ios": "https://dc.lft.to/lastmile_qr_scan", "android": "https://dc.lft.to/lastmile_qr_scan"}}, {"name": "bd8fc3c663b5c53f8d7c2b549dc8d273", "lon": -77.02984783333333, "lat": 38.934642, "type": "electric_scooter", "fusion_lon": 0.0, "is_reserved": 0, "bike_id": "bd8fc3c663b5c53f8d7c2b549dc8d273", "fusion_lat": 0.0, "is_disabled": 0, "rental_uris": {"ios": "https://dc.lft.to/lastmile_qr_scan", "android": "https://dc.lft.to/lastmile_qr_scan"}}, {"name": "87d213aa29a22c6f2976d1ccfbd6e1fc", "lon": -77.05516983333334, "lat": 38.929720333333336, "type": "electric_scooter", "fusion_lon": 0.0, "is_reserved": 0, "bike_id": "87d213aa29a22c6f2976d1ccfbd6e1fc", "fusion_lat": 0.0, "is_disabled": 0, "rental_uris": {"ios": "https://dc.lft.to/lastmile_qr_scan", "android": "https://dc.lft.to/lastmile_qr_scan"}}, {"name": "c12f5fe00177c6df05fc1d6005da2f91", "lon": -76.97235483333333, "lat": 38.94906, "type": "electric_bike", "fusion_lon": 0.0, "is_reserved": 0, "bike_id": "c12f5fe00177c6df05fc1d6005da2f91", "fusion_lat": 0.0, "is_disabled": 0, "rental_uris": {"ios": "https://dc.lft.to/lastmile_qr_scan", "android": "https://dc.lft.to/lastmile_qr_scan"}}, {"name": "e2c52dd92fd69550c369894050c61268", "lon": -77.02204733333333, "lat": 38.88641166666667, "type": "electric_scooter", "fusion_lon": 0.0, "is_reserved": 0, "bike_id": "e2c52dd92fd69550c369894050c61268", "fusion_lat": 0.0, "is_disabled": 0, "rental_uris": {"ios": "https://dc.lft.to/lastmile_qr_scan", "android": "https://dc.lft.to/lastmile_qr_scan"}}, {"name": "abbc6a22b3bda27edfffa6bc4cee5745", "lon": -76.99327466666666, "lat": 38.924477333333336, "type": "electric_scooter", "fusion_lon": 0.0, "is_reserved": 0, "bike_id": "abbc6a22b3bda27edfffa6bc4cee5745", "fusion_lat": 0.0, "is_disabled": 0, "rental_uris": {"ios": "https://dc.lft.to/lastmile_qr_scan", "android": "https://dc.lft.to/lastmile_qr_scan"}}, {"name": "4551fd54955fb1e3ca71c399518cf278", "lon": -77.09835316666667, "lat": 38.991195833333336, "type": "electric_bike", "fusion_lon": 0.0, "is_reserved": 0, "bike_id": "4551fd54955fb1e3ca71c399518cf278", "fusion_lat": 0.0, "is_disabled": 0, "rental_uris": {"ios": "https://dc.lft.to/lastmile_qr_scan", "android": "https://dc.lft.to/lastmile_qr_scan"}}, {"name": "ca559e8ef60aa2c52857e96cc580b319", "lon": -77.08587933333334, "lat": 38.844400666666665, "type": "electric_bike", "fusion_lon": 0.0, "is_reserved": 0, "bike_id": "ca559e8ef60aa2c52857e96cc580b319", "fusion_lat": 0.0, "is_disabled": 0, "rental_uris": {"ios": "https://dc.lft.to/lastmile_qr_scan", "android": "https://dc.lft.to/lastmile_qr_scan"}}, {"name": "5b5095d67e4cd382202f60f60037fae7", "lon": -77.03470383333334, "lat": 38.925421666666665, "type": "electric_scooter", "fusion_lon": 0.0, "is_reserved": 0, "bike_id": "5b5095d67e4cd382202f60f60037fae7", "fusion_lat": 0.0, "is_disabled": 0, "rental_uris": {"ios": "https://dc.lft.to/lastmile_qr_scan", "android": "https://dc.lft.to/lastmile_qr_scan"}}, {"name": "95eeb3ac819a2bb4fb531142de7cf3db", "lon": -77.0369635, "lat": 38.935659, "type": "electric_bike", "fusion_lon": 0.0, "is_reserved": 0, "bike_id": "95eeb3ac819a2bb4fb531142de7cf3db", "fusion_lat": 0.0, "is_disabled": 0, "rental_uris": {"ios": "https://dc.lft.to/lastmile_qr_scan", "android": "https://dc.lft.to/lastmile_qr_scan"}}, {"name": "641e49e679862131b1251b4101950e58", "lon": -77.03503133333334, "lat": 38.91703233333333, "type": "electric_scooter", "fusion_lon": 0.0, "is_reserved": 0, "bike_id": "641e49e679862131b1251b4101950e58", "fusion_lat": 0.0, "is_disabled": 0, "rental_uris": {"ios": "https://dc.lft.to/lastmile_qr_scan", "android": "https://dc.lft.to/lastmile_qr_scan"}}, {"name": "0d74883ec6d52c42a5eda429f9ee5a62", "lon": -77.02184016666666, "lat": 38.90847933333333, "type": "electric_scooter", "fusion_lon": 0.0, "is_reserved": 0, "bike_id": "0d74883ec6d52c42a5eda429f9ee5a62", "fusion_lat": 0.0, "is_disabled": 0, "rental_uris": {"ios": "https://dc.lft.to/lastmile_qr_scan", "android": "https://dc.lft.to/lastmile_qr_scan"}}, {"name": "c287ab0d5236e6b8baf94fc97838ce17", "lon": -77.03869016666667, "lat": 38.92152816666667, "type": "electric_scooter", "fusion_lon": 0.0, "is_reserved": 0, "bike_id": "c287ab0d5236e6b8baf94fc97838ce17", "fusion_lat": 0.0, "is_disabled": 0, "rental_uris": {"ios": "https://dc.lft.to/lastmile_qr_scan", "android": "https://dc.lft.to/lastmile_qr_scan"}}, {"name": "486ce843c620cbc43d793caa8116b902", "lon": -77.05760516666666, "lat": 38.93393533333333, "type": "electric_scooter", "fusion_lon": 0.0, "is_reserved": 0, "bike_id": "486ce843c620cbc43d793caa8116b902", "fusion_lat": 0.0, "is_disabled": 0, "rental_uris": {"ios": "https://dc.lft.to/lastmile_qr_scan", "android": "https://dc.lft.to/lastmile_qr_scan"}}, {"name": "6e61b9a926dcae880e3b09ea188fbca8", "lon": -77.03769166666666, "lat": 38.915670666666664, "type": "electric_scooter", "fusion_lon": 0.0, "is_reserved": 0, "bike_id": "6e61b9a926dcae880e3b09ea188fbca8", "fusion_lat": 0.0, "is_disabled": 0, "rental_uris": {"ios": "https://dc.lft.to/lastmile_qr_scan", "android": "https://dc.lft.to/lastmile_qr_scan"}}, {"name": "e5547b7378f1f7c80d35bad4f2363dfa", "lon": -77.04276316666666, "lat": 38.91338733333333, "type": "electric_scooter", "fusion_lon": 0.0, "is_reserved": 0, "bike_id": "e5547b7378f1f7c80d35bad4f2363dfa", "fusion_lat": 0.0, "is_disabled": 0, "rental_uris": {"ios": "https://dc.lft.to/lastmile_qr_scan", "android": "https://dc.lft.to/lastmile_qr_scan"}}, {"name": "79c287e8cc74eb834be3a176ee9078a9", "lon": -77.03822783333334, "lat": 38.92474816666667, "type": "electric_scooter", "fusion_lon": 0.0, "is_reserved": 0, "bike_id": "79c287e8cc74eb834be3a176ee9078a9", "fusion_lat": 0.0, "is_disabled": 0, "rental_uris": {"ios": "https://dc.lft.to/lastmile_qr_scan", "android": "https://dc.lft.to/lastmile_qr_scan"}}, {"name": "8c3c8d05aa7cd1e5ea0418baf649578e", "lon": -76.99217133333333, "lat": 38.8899705, "type": "electric_bike", "fusion_lon": 0.0, "is_reserved": 0, "bike_id": "8c3c8d05aa7cd1e5ea0418baf649578e", "fusion_lat": 0.0, "is_disabled": 0, "rental_uris": {"ios": "https://dc.lft.to/lastmile_qr_scan", "android": "https://dc.lft.to/lastmile_qr_scan"}}, {"name": "d9555f2831df5ef093a9433a05b376c8", "lon": -77.00206133333333, "lat": 38.95253916666667, "type": "electric_bike", "fusion_lon": 0.0, "is_reserved": 0, "bike_id": "d9555f2831df5ef093a9433a05b376c8", "fusion_lat": 0.0, "is_disabled": 0, "rental_uris": {"ios": "https://dc.lft.to/lastmile_qr_scan", "android": "https://dc.lft.to/lastmile_qr_scan"}}, {"name": "f1551d123ddf8fa8253390a2cb2d2a5c", "lon": -77.04827416666667, "lat": 38.90058616666666, "type": "electric_scooter", "fusion_lon": 0.0, "is_reserved": 0, "bike_id": "f1551d123ddf8fa8253390a2cb2d2a5c", "fusion_lat": 0.0, "is_disabled": 0, "rental_uris": {"ios": "https://dc.lft.to/lastmile_qr_scan", "android": "https://dc.lft.to/lastmile_qr_scan"}}, {"name": "615e1cd6fd9cb1ca911053b4d12c3a1d", "lon": -77.02966083333334, "lat": 38.923253, "type": "electric_scooter", "fusion_lon": 0.0, "is_reserved": 0, "bike_id": "615e1cd6fd9cb1ca911053b4d12c3a1d", "fusion_lat": 0.0, "is_disabled": 0, "rental_uris": {"ios": "https://dc.lft.to/lastmile_qr_scan", "android": "https://dc.lft.to/lastmile_qr_scan"}}, {"name": "014663e5c9a2896e223f788fe5a530ba", "lon": -77.02966183333334, "lat": 38.92368583333333, "type": "electric_scooter", "fusion_lon": 0.0, "is_reserved": 0, "bike_id": "014663e5c9a2896e223f788fe5a530ba", "fusion_lat": 0.0, "is_disabled": 0, "rental_uris": {"ios": "https://dc.lft.to/lastmile_qr_scan", "android": "https://dc.lft.to/lastmile_qr_scan"}}, {"name": "754dc6cf1541a827c038d79b50b6356f", "lon": -77.0585535, "lat": 38.936107166666666, "type": "electric_scooter", "fusion_lon": 0.0, "is_reserved": 0, "bike_id": "754dc6cf1541a827c038d79b50b6356f", "fusion_lat": 0.0, "is_disabled": 0, "rental_uris": {"ios": "https://dc.lft.to/lastmile_qr_scan", "android": "https://dc.lft.to/lastmile_qr_scan"}}, {"name": "c7645dd64c62d1793b39c472d75b752b", "lon": -77.05000166666666, "lat": 38.90640116666667, "type": "electric_scooter", "fusion_lon": 0.0, "is_reserved": 0, "bike_id": "c7645dd64c62d1793b39c472d75b752b", "fusion_lat": 0.0, "is_disabled": 0, "rental_uris": {"ios": "https://dc.lft.to/lastmile_qr_scan", "android": "https://dc.lft.to/lastmile_qr_scan"}}, {"name": "5917e3f402ef5d71392e9991f091fb6d", "lon": -77.023832, "lat": 38.91962483333333, "type": "electric_scooter", "fusion_lon": 0.0, "is_reserved": 0, "bike_id": "5917e3f402ef5d71392e9991f091fb6d", "fusion_lat": 0.0, "is_disabled": 0, "rental_uris": {"ios": "https://dc.lft.to/lastmile_qr_scan", "android": "https://dc.lft.to/lastmile_qr_scan"}}, {"name": "4da19af314f44e14b38426a3b9f7c147", "lon": -77.0469005, "lat": 39.02392366666667, "type": "electric_bike", "fusion_lon": 0.0, "is_reserved": 0, "bike_id": "4da19af314f44e14b38426a3b9f7c147", "fusion_lat": 0.0, "is_disabled": 0, "rental_uris": {"ios": "https://dc.lft.to/lastmile_qr_scan", "android": "https://dc.lft.to/lastmile_qr_scan"}}, {"name": "7114807de603a8d8a14921199b5ae71e", "lon": -77.032491, "lat": 38.91189333333333, "type": "electric_scooter", "fusion_lon": 0.0, "is_reserved": 0, "bike_id": "7114807de603a8d8a14921199b5ae71e", "fusion_lat": 0.0, "is_disabled": 0, "rental_uris": {"ios": "https://dc.lft.to/lastmile_qr_scan", "android": "https://dc.lft.to/lastmile_qr_scan"}}, {"name": "efd8155cb33ef956353dcaa68ab0306a", "lon": -77.04427466666667, "lat": 38.90371, "type": "electric_scooter", "fusion_lon": 0.0, "is_reserved": 0, "bike_id": "efd8155cb33ef956353dcaa68ab0306a", "fusion_lat": 0.0, "is_disabled": 0, "rental_uris": {"ios": "https://dc.lft.to/lastmile_qr_scan", "android": "https://dc.lft.to/lastmile_qr_scan"}}, {"name": "bebb3f62692bccdd77208476a5eb24fb", "lon": -77.01204183333333, "lat": 38.87099883333333, "type": "electric_scooter", "fusion_lon": 0.0, "is_reserved": 0, "bike_id": "bebb3f62692bccdd77208476a5eb24fb", "fusion_lat": 0.0, "is_disabled": 0, "rental_uris": {"ios": "https://dc.lft.to/lastmile_qr_scan", "android": "https://dc.lft.to/lastmile_qr_scan"}}, {"name": "b09430b6dfb82dda19a26f581ba2ad9a", "lon": -77.1873945, "lat": 38.893534, "type": "electric_bike", "fusion_lon": 0.0, "is_reserved": 0, "bike_id": "b09430b6dfb82dda19a26f581ba2ad9a", "fusion_lat": 0.0, "is_disabled": 0, "rental_uris": {"ios": "https://dc.lft.to/lastmile_qr_scan", "android": "https://dc.lft.to/lastmile_qr_scan"}}, {"name": "763c525c26f5f6616dddcaf839773f03", "lon": -77.00549716666667, "lat": 38.91188016666667, "type": "electric_scooter", "fusion_lon": 0.0, "is_reserved": 0, "bike_id": "763c525c26f5f6616dddcaf839773f03", "fusion_lat": 0.0, "is_disabled": 0, "rental_uris": {"ios": "https://dc.lft.to/lastmile_qr_scan", "android": "https://dc.lft.to/lastmile_qr_scan"}}, {"name": "217bb7afaa627a0d7c6a474be874793a", "lon": -77.04227283333333, "lat": 38.905815, "type": "electric_scooter", "fusion_lon": 0.0, "is_reserved": 0, "bike_id": "217bb7afaa627a0d7c6a474be874793a", "fusion_lat": 0.0, "is_disabled": 0, "rental_uris": {"ios": "https://dc.lft.to/lastmile_qr_scan", "android": "https://dc.lft.to/lastmile_qr_scan"}}, {"name": "95956c438bd951851acd13d8d04f99d4", "lon": -77.043704, "lat": 38.89224983333333, "type": "electric_scooter", "fusion_lon": 0.0, "is_reserved": 0, "bike_id": "95956c438bd951851acd13d8d04f99d4", "fusion_lat": 0.0, "is_disabled": 0, "rental_uris": {"ios": "https://dc.lft.to/lastmile_qr_scan", "android": "https://dc.lft.to/lastmile_qr_scan"}}, {"name": "5e747c99208a9e6cb0d04c8da995674f", "lon": -77.016977, "lat": 38.97510833333333, "type": "electric_scooter", "fusion_lon": 0.0, "is_reserved": 0, "bike_id": "5e747c99208a9e6cb0d04c8da995674f", "fusion_lat": 0.0, "is_disabled": 0, "rental_uris": {"ios": "https://dc.lft.to/lastmile_qr_scan", "android": "https://dc.lft.to/lastmile_qr_scan"}}, {"name": "0b58603c7ce495e6567720a0e44f5aa0", "lon": -77.03263983333333, "lat": 38.935409666666665, "type": "electric_scooter", "fusion_lon": 0.0, "is_reserved": 0, "bike_id": "0b58603c7ce495e6567720a0e44f5aa0", "fusion_lat": 0.0, "is_disabled": 0, "rental_uris": {"ios": "https://dc.lft.to/lastmile_qr_scan", "android": "https://dc.lft.to/lastmile_qr_scan"}}, {"name": "543045aebfefa8024b3c6b367e7910bf", "lon": -76.94803066666667, "lat": 38.893921, "type": "electric_bike", "fusion_lon": 0.0, "is_reserved": 0, "bike_id": "543045aebfefa8024b3c6b367e7910bf", "fusion_lat": 0.0, "is_disabled": 0, "rental_uris": {"ios": "https://dc.lft.to/lastmile_qr_scan", "android": "https://dc.lft.to/lastmile_qr_scan"}}, {"name": "49a130dd9ee6db6e130e288fd7c7d76e", "lon": -76.929154, "lat": 38.89298266666667, "type": "electric_scooter", "fusion_lon": 0.0, "is_reserved": 0, "bike_id": "49a130dd9ee6db6e130e288fd7c7d76e", "fusion_lat": 0.0, "is_disabled": 0, "rental_uris": {"ios": "https://dc.lft.to/lastmile_qr_scan", "android": "https://dc.lft.to/lastmile_qr_scan"}}, {"name": "38af75066e30f87985e59ac097dc82de", "lon": -77.02185216666666, "lat": 38.910549833333334, "type": "electric_scooter", "fusion_lon": 0.0, "is_reserved": 0, "bike_id": "38af75066e30f87985e59ac097dc82de", "fusion_lat": 0.0, "is_disabled": 0, "rental_uris": {"ios": "https://dc.lft.to/lastmile_qr_scan", "android": "https://dc.lft.to/lastmile_qr_scan"}}, {"name": "7e1b12cf4a1495e53f95caf9cb5766d9", "lon": -77.03851966666667, "lat": 38.86749366666667, "type": "electric_scooter", "fusion_lon": 0.0, "is_reserved": 0, "bike_id": "7e1b12cf4a1495e53f95caf9cb5766d9", "fusion_lat": 0.0, "is_disabled": 0, "rental_uris": {"ios": "https://dc.lft.to/lastmile_qr_scan", "android": "https://dc.lft.to/lastmile_qr_scan"}}, {"name": "5173f0a57d25d49722d4bd7996125e84", "lon": -76.9606235, "lat": 38.884126333333334, "type": "electric_bike", "fusion_lon": 0.0, "is_reserved": 0, "bike_id": "5173f0a57d25d49722d4bd7996125e84", "fusion_lat": 0.0, "is_disabled": 0, "rental_uris": {"ios": "https://dc.lft.to/lastmile_qr_scan", "android": "https://dc.lft.to/lastmile_qr_scan"}}, {"name": "42c3465ba052cfedbf0127ba8950cfdf", "lon": -77.05522683333334, "lat": 38.92839133333333, "type": "electric_scooter", "fusion_lon": 0.0, "is_reserved": 0, "bike_id": "42c3465ba052cfedbf0127ba8950cfdf", "fusion_lat": 0.0, "is_disabled": 0, "rental_uris": {"ios": "https://dc.lft.to/lastmile_qr_scan", "android": "https://dc.lft.to/lastmile_qr_scan"}}, {"name": "2983eae9cc853700d1f8c81d1cde26e9", "lon": -76.98866066666666, "lat": 38.954867166666666, "type": "electric_bike", "fusion_lon": 0.0, "is_reserved": 0, "bike_id": "2983eae9cc853700d1f8c81d1cde26e9", "fusion_lat": 0.0, "is_disabled": 0, "rental_uris": {"ios": "https://dc.lft.to/lastmile_qr_scan", "android": "https://dc.lft.to/lastmile_qr_scan"}}, {"name": "70fae6bf491a5148869d65efb329eee3", "lon": -76.99333933333334, "lat": 38.8714265, "type": "electric_scooter", "fusion_lon": 0.0, "is_reserved": 0, "bike_id": "70fae6bf491a5148869d65efb329eee3", "fusion_lat": 0.0, "is_disabled": 0, "rental_uris": {"ios": "https://dc.lft.to/lastmile_qr_scan", "android": "https://dc.lft.to/lastmile_qr_scan"}}, {"name": "ffcf18555eaf58fb89093bcde1be9d6a", "lon": -77.03192866666667, "lat": 38.917155, "type": "electric_scooter", "fusion_lon": 0.0, "is_reserved": 0, "bike_id": "ffcf18555eaf58fb89093bcde1be9d6a", "fusion_lat": 0.0, "is_disabled": 0, "rental_uris": {"ios": "https://dc.lft.to/lastmile_qr_scan", "android": "https://dc.lft.to/lastmile_qr_scan"}}, {"name": "938e1031a1c0cd958572e78341a9cf21", "lon": -76.99028966666667, "lat": 38.90292266666667, "type": "electric_scooter", "fusion_lon": 0.0, "is_reserved": 0, "bike_id": "938e1031a1c0cd958572e78341a9cf21", "fusion_lat": 0.0, "is_disabled": 0, "rental_uris": {"ios": "https://dc.lft.to/lastmile_qr_scan", "android": "https://dc.lft.to/lastmile_qr_scan"}}, {"name": "3ab87734369091d43c1282425bb01958", "lon": -77.07096966666667, "lat": 38.91977133333333, "type": "electric_scooter", "fusion_lon": 0.0, "is_reserved": 0, "bike_id": "3ab87734369091d43c1282425bb01958", "fusion_lat": 0.0, "is_disabled": 0, "rental_uris": {"ios": "https://dc.lft.to/lastmile_qr_scan", "android": "https://dc.lft.to/lastmile_qr_scan"}}, {"name": "1f4a0a1e3c0bd908c3edcabe3a62ba59", "lon": -77.018638, "lat": 38.92268133333334, "type": "electric_scooter", "fusion_lon": 0.0, "is_reserved": 0, "bike_id": "1f4a0a1e3c0bd908c3edcabe3a62ba59", "fusion_lat": 0.0, "is_disabled": 0, "rental_uris": {"ios": "https://dc.lft.to/lastmile_qr_scan", "android": "https://dc.lft.to/lastmile_qr_scan"}}, {"name": "05003f1988cfcd37ebc8ea193cb31d18", "lon": -77.02673983333334, "lat": 38.896255833333335, "type": "electric_scooter", "fusion_lon": 0.0, "is_reserved": 0, "bike_id": "05003f1988cfcd37ebc8ea193cb31d18", "fusion_lat": 0.0, "is_disabled": 0, "rental_uris": {"ios": "https://dc.lft.to/lastmile_qr_scan", "android": "https://dc.lft.to/lastmile_qr_scan"}}, {"name": "98bc388249d63e8db02c09a454af53fe", "lon": -77.02432666666667, "lat": 38.900904, "type": "electric_scooter", "fusion_lon": 0.0, "is_reserved": 0, "bike_id": "98bc388249d63e8db02c09a454af53fe", "fusion_lat": 0.0, "is_disabled": 0, "rental_uris": {"ios": "https://dc.lft.to/lastmile_qr_scan", "android": "https://dc.lft.to/lastmile_qr_scan"}}, {"name": "12d179a43fdba476d73905db2d1846ac", "lon": -77.03266933333333, "lat": 38.90439166666667, "type": "electric_scooter", "fusion_lon": 0.0, "is_reserved": 0, "bike_id": "12d179a43fdba476d73905db2d1846ac", "fusion_lat": 0.0, "is_disabled": 0, "rental_uris": {"ios": "https://dc.lft.to/lastmile_qr_scan", "android": "https://dc.lft.to/lastmile_qr_scan"}}, {"name": "dffa3be8cfdd835ed4c74ebfa344e96e", "lon": -77.0333195, "lat": 38.898466666666664, "type": "electric_scooter", "fusion_lon": 0.0, "is_reserved": 0, "bike_id": "dffa3be8cfdd835ed4c74ebfa344e96e", "fusion_lat": 0.0, "is_disabled": 0, "rental_uris": {"ios": "https://dc.lft.to/lastmile_qr_scan", "android": "https://dc.lft.to/lastmile_qr_scan"}}, {"name": "82802a413ed53cce57d4a619de5f7003", "lon": -76.98250283333333, "lat": 38.90452416666667, "type": "electric_scooter", "fusion_lon": 0.0, "is_reserved": 0, "bike_id": "82802a413ed53cce57d4a619de5f7003", "fusion_lat": 0.0, "is_disabled": 0, "rental_uris": {"ios": "https://dc.lft.to/lastmile_qr_scan", "android": "https://dc.lft.to/lastmile_qr_scan"}}, {"name": "f9c187c1b3e2fa914999ce98c68c8ff4", "lon": -77.06328383333333, "lat": 38.94421, "type": "electric_scooter", "fusion_lon": 0.0, "is_reserved": 0, "bike_id": "f9c187c1b3e2fa914999ce98c68c8ff4", "fusion_lat": 0.0, "is_disabled": 0, "rental_uris": {"ios": "https://dc.lft.to/lastmile_qr_scan", "android": "https://dc.lft.to/lastmile_qr_scan"}}, {"name": "a2f076bcf0fe994119dec967f376a5da", "lon": -77.12071316666666, "lat": 38.854201333333336, "type": "electric_bike", "fusion_lon": 0.0, "is_reserved": 0, "bike_id": "a2f076bcf0fe994119dec967f376a5da", "fusion_lat": 0.0, "is_disabled": 0, "rental_uris": {"ios": "https://dc.lft.to/lastmile_qr_scan", "android": "https://dc.lft.to/lastmile_qr_scan"}}, {"name": "5102b8fe7450bf6efab8348ebfe20177", "lon": -77.02317783333334, "lat": 38.92067633333333, "type": "electric_scooter", "fusion_lon": 0.0, "is_reserved": 0, "bike_id": "5102b8fe7450bf6efab8348ebfe20177", "fusion_lat": 0.0, "is_disabled": 0, "rental_uris": {"ios": "https://dc.lft.to/lastmile_qr_scan", "android": "https://dc.lft.to/lastmile_qr_scan"}}, {"name": "fcf574cd3bedf34d093c280f06f3dd51", "lon": -77.026978, "lat": 38.899974666666665, "type": "electric_scooter", "fusion_lon": 0.0, "is_reserved": 0, "bike_id": "fcf574cd3bedf34d093c280f06f3dd51", "fusion_lat": 0.0, "is_disabled": 0, "rental_uris": {"ios": "https://dc.lft.to/lastmile_qr_scan", "android": "https://dc.lft.to/lastmile_qr_scan"}}, {"name": "22f6074e4563c4f8b6652556e101ad2d", "lon": -77.022491, "lat": 38.92474633333333, "type": "electric_scooter", "fusion_lon": 0.0, "is_reserved": 0, "bike_id": "22f6074e4563c4f8b6652556e101ad2d", "fusion_lat": 0.0, "is_disabled": 0, "rental_uris": {"ios": "https://dc.lft.to/lastmile_qr_scan", "android": "https://dc.lft.to/lastmile_qr_scan"}}, {"name": "17f670bfd7d176a384acd8a23533afff", "lon": -77.00209966666667, "lat": 38.92456516666667, "type": "electric_scooter", "fusion_lon": 0.0, "is_reserved": 0, "bike_id": "17f670bfd7d176a384acd8a23533afff", "fusion_lat": 0.0, "is_disabled": 0, "rental_uris": {"ios": "https://dc.lft.to/lastmile_qr_scan", "android": "https://dc.lft.to/lastmile_qr_scan"}}, {"name": "900029be30196f2b261c0593964c9d98", "lon": -76.9986825, "lat": 38.90029916666667, "type": "electric_scooter", "fusion_lon": 0.0, "is_reserved": 0, "bike_id": "900029be30196f2b261c0593964c9d98", "fusion_lat": 0.0, "is_disabled": 0, "rental_uris": {"ios": "https://dc.lft.to/lastmile_qr_scan", "android": "https://dc.lft.to/lastmile_qr_scan"}}, {"name": "afa7c521c00a7320b9314d7cfc3922b2", "lon": -77.11848766666667, "lat": 38.8773525, "type": "electric_bike", "fusion_lon": 0.0, "is_reserved": 0, "bike_id": "afa7c521c00a7320b9314d7cfc3922b2", "fusion_lat": 0.0, "is_disabled": 0, "rental_uris": {"ios": "https://dc.lft.to/lastmile_qr_scan", "android": "https://dc.lft.to/lastmile_qr_scan"}}, {"name": "e15eec47987f61d65e5257a0deba88a3", "lon": -76.9353985, "lat": 38.9518535, "type": "electric_bike", "fusion_lon": 0.0, "is_reserved": 0, "bike_id": "e15eec47987f61d65e5257a0deba88a3", "fusion_lat": 0.0, "is_disabled": 0, "rental_uris": {"ios": "https://dc.lft.to/lastmile_qr_scan", "android": "https://dc.lft.to/lastmile_qr_scan"}}, {"name": "a9d2fa1f0bc7ec3ab4859935249a90c7", "lon": -77.03969566666666, "lat": 38.906197, "type": "electric_scooter", "fusion_lon": 0.0, "is_reserved": 0, "bike_id": "a9d2fa1f0bc7ec3ab4859935249a90c7", "fusion_lat": 0.0, "is_disabled": 0, "rental_uris": {"ios": "https://dc.lft.to/lastmile_qr_scan", "android": "https://dc.lft.to/lastmile_qr_scan"}}, {"name": "7a95d24612c11e61733d32174f9742ac", "lon": -77.01367183333333, "lat": 38.869703666666666, "type": "electric_scooter", "fusion_lon": 0.0, "is_reserved": 0, "bike_id": "7a95d24612c11e61733d32174f9742ac", "fusion_lat": 0.0, "is_disabled": 0, "rental_uris": {"ios": "https://dc.lft.to/lastmile_qr_scan", "android": "https://dc.lft.to/lastmile_qr_scan"}}, {"name": "9462cb08fdd33798e2c03cebca12a9cf", "lon": -77.02769266666667, "lat": 38.907292, "type": "electric_scooter", "fusion_lon": 0.0, "is_reserved": 0, "bike_id": "9462cb08fdd33798e2c03cebca12a9cf", "fusion_lat": 0.0, "is_disabled": 0, "rental_uris": {"ios": "https://dc.lft.to/lastmile_qr_scan", "android": "https://dc.lft.to/lastmile_qr_scan"}}, {"name": "49be917017d99c275afdd938da74e107", "lon": -77.04687883333334, "lat": 38.892230833333336, "type": "electric_scooter", "fusion_lon": 0.0, "is_reserved": 0, "bike_id": "49be917017d99c275afdd938da74e107", "fusion_lat": 0.0, "is_disabled": 0, "rental_uris": {"ios": "https://dc.lft.to/lastmile_qr_scan", "android": "https://dc.lft.to/lastmile_qr_scan"}}, {"name": "0037ed1a948037cf3f4d5404f247e245", "lon": -77.012917, "lat": 39.00376833333333, "type": "electric_bike", "fusion_lon": 0.0, "is_reserved": 0, "bike_id": "0037ed1a948037cf3f4d5404f247e245", "fusion_lat": 0.0, "is_disabled": 0, "rental_uris": {"ios": "https://dc.lft.to/lastmile_qr_scan", "android": "https://dc.lft.to/lastmile_qr_scan"}}, {"name": "ff031a4f32243bfc6be2939f257c4a9d", "lon": -77.05192833333334, "lat": 38.90372633333333, "type": "electric_scooter", "fusion_lon": 0.0, "is_reserved": 0, "bike_id": "ff031a4f32243bfc6be2939f257c4a9d", "fusion_lat": 0.0, "is_disabled": 0, "rental_uris": {"ios": "https://dc.lft.to/lastmile_qr_scan", "android": "https://dc.lft.to/lastmile_qr_scan"}}, {"name": "a2613aa1f40e30682aca258291fa250d", "lon": -77.0324215, "lat": 38.9235715, "type": "electric_scooter", "fusion_lon": 0.0, "is_reserved": 0, "bike_id": "a2613aa1f40e30682aca258291fa250d", "fusion_lat": 0.0, "is_disabled": 0, "rental_uris": {"ios": "https://dc.lft.to/lastmile_qr_scan", "android": "https://dc.lft.to/lastmile_qr_scan"}}, {"name": "9f0adc1d485850061f7676fe250f9aa9", "lon": -77.02871266666666, "lat": 38.90449016666667, "type": "electric_scooter", "fusion_lon": 0.0, "is_reserved": 0, "bike_id": "9f0adc1d485850061f7676fe250f9aa9", "fusion_lat": 0.0, "is_disabled": 0, "rental_uris": {"ios": "https://dc.lft.to/lastmile_qr_scan", "android": "https://dc.lft.to/lastmile_qr_scan"}}, {"name": "abdf7790f7e089391a72f671f6039b94", "lon": -77.027962, "lat": 38.93303733333333, "type": "electric_scooter", "fusion_lon": 0.0, "is_reserved": 0, "bike_id": "abdf7790f7e089391a72f671f6039b94", "fusion_lat": 0.0, "is_disabled": 0, "rental_uris": {"ios": "https://dc.lft.to/lastmile_qr_scan", "android": "https://dc.lft.to/lastmile_qr_scan"}}, {"name": "afead114ee0da7d91bdfd398da7cae8e", "lon": -77.00269916666667, "lat": 38.88716983333333, "type": "electric_scooter", "fusion_lon": 0.0, "is_reserved": 0, "bike_id": "afead114ee0da7d91bdfd398da7cae8e", "fusion_lat": 0.0, "is_disabled": 0, "rental_uris": {"ios": "https://dc.lft.to/lastmile_qr_scan", "android": "https://dc.lft.to/lastmile_qr_scan"}}, {"name": "1dc6dd672660b14f61a7b707fd4c1c45", "lon": -77.04683283333334, "lat": 38.902375166666666, "type": "electric_scooter", "fusion_lon": 0.0, "is_reserved": 0, "bike_id": "1dc6dd672660b14f61a7b707fd4c1c45", "fusion_lat": 0.0, "is_disabled": 0, "rental_uris": {"ios": "https://dc.lft.to/lastmile_qr_scan", "android": "https://dc.lft.to/lastmile_qr_scan"}}, {"name": "379d608594ea79e64613e49b4485297e", "lon": -77.02369683333333, "lat": 38.9174875, "type": "electric_scooter", "fusion_lon": 0.0, "is_reserved": 0, "bike_id": "379d608594ea79e64613e49b4485297e", "fusion_lat": 0.0, "is_disabled": 0, "rental_uris": {"ios": "https://dc.lft.to/lastmile_qr_scan", "android": "https://dc.lft.to/lastmile_qr_scan"}}, {"name": "324bc4e22e43f01940f95fba7df5b12a", "lon": -76.9232775, "lat": 38.87110466666667, "type": "electric_bike", "fusion_lon": 0.0, "is_reserved": 0, "bike_id": "324bc4e22e43f01940f95fba7df5b12a", "fusion_lat": 0.0, "is_disabled": 0, "rental_uris": {"ios": "https://dc.lft.to/lastmile_qr_scan", "android": "https://dc.lft.to/lastmile_qr_scan"}}, {"name": "e3bc08fc59190934be614aa72b69b0d4", "lon": -77.02180666666666, "lat": 38.914302166666666, "type": "electric_scooter", "fusion_lon": 0.0, "is_reserved": 0, "bike_id": "e3bc08fc59190934be614aa72b69b0d4", "fusion_lat": 0.0, "is_disabled": 0, "rental_uris": {"ios": "https://dc.lft.to/lastmile_qr_scan", "android": "https://dc.lft.to/lastmile_qr_scan"}}, {"name": "41d739e50c5dcb14a5ca946823537177", "lon": -76.96710066666667, "lat": 38.847940666666666, "type": "electric_scooter", "fusion_lon": 0.0, "is_reserved": 0, "bike_id": "41d739e50c5dcb14a5ca946823537177", "fusion_lat": 0.0, "is_disabled": 0, "rental_uris": {"ios": "https://dc.lft.to/lastmile_qr_scan", "android": "https://dc.lft.to/lastmile_qr_scan"}}, {"name": "8e9630633f5a0868934462c0d87e47d8", "lon": -77.03428666666667, "lat": 38.90505066666667, "type": "electric_scooter", "fusion_lon": 0.0, "is_reserved": 0, "bike_id": "8e9630633f5a0868934462c0d87e47d8", "fusion_lat": 0.0, "is_disabled": 0, "rental_uris": {"ios": "https://dc.lft.to/lastmile_qr_scan", "android": "https://dc.lft.to/lastmile_qr_scan"}}, {"name": "a9d48ecc9f6ea1d2b7c33f058affaa5b", "lon": -77.03357316666667, "lat": 38.928762666666664, "type": "electric_scooter", "fusion_lon": 0.0, "is_reserved": 0, "bike_id": "a9d48ecc9f6ea1d2b7c33f058affaa5b", "fusion_lat": 0.0, "is_disabled": 0, "rental_uris": {"ios": "https://dc.lft.to/lastmile_qr_scan", "android": "https://dc.lft.to/lastmile_qr_scan"}}, {"name": "342babcd4177684205b205e29bb52a75", "lon": -77.02341733333333, "lat": 38.946144833333335, "type": "electric_scooter", "fusion_lon": 0.0, "is_reserved": 0, "bike_id": "342babcd4177684205b205e29bb52a75", "fusion_lat": 0.0, "is_disabled": 0, "rental_uris": {"ios": "https://dc.lft.to/lastmile_qr_scan", "android": "https://dc.lft.to/lastmile_qr_scan"}}, {"name": "6b1697f0d4d48f765d2457e8b6520d9b", "lon": -77.05133866666667, "lat": 38.907194, "type": "electric_scooter", "fusion_lon": 0.0, "is_reserved": 0, "bike_id": "6b1697f0d4d48f765d2457e8b6520d9b", "fusion_lat": 0.0, "is_disabled": 0, "rental_uris": {"ios": "https://dc.lft.to/lastmile_qr_scan", "android": "https://dc.lft.to/lastmile_qr_scan"}}, {"name": "306b591322cd81f150401d53613e8867", "lon": -76.944233, "lat": 38.9662145, "type": "electric_bike", "fusion_lon": 0.0, "is_reserved": 0, "bike_id": "306b591322cd81f150401d53613e8867", "fusion_lat": 0.0, "is_disabled": 0, "rental_uris": {"ios": "https://dc.lft.to/lastmile_qr_scan", "android": "https://dc.lft.to/lastmile_qr_scan"}}, {"name": "b8e013fd3afe109c16a068d7c2d265b8", "lon": -77.02481, "lat": 38.9207585, "type": "electric_scooter", "fusion_lon": 0.0, "is_reserved": 0, "bike_id": "b8e013fd3afe109c16a068d7c2d265b8", "fusion_lat": 0.0, "is_disabled": 0, "rental_uris": {"ios": "https://dc.lft.to/lastmile_qr_scan", "android": "https://dc.lft.to/lastmile_qr_scan"}}, {"name": "437cb037491157a231a17db24cd72efc", "lon": -76.99503716666666, "lat": 38.882528666666666, "type": "electric_scooter", "fusion_lon": 0.0, "is_reserved": 0, "bike_id": "437cb037491157a231a17db24cd72efc", "fusion_lat": 0.0, "is_disabled": 0, "rental_uris": {"ios": "https://dc.lft.to/lastmile_qr_scan", "android": "https://dc.lft.to/lastmile_qr_scan"}}, {"name": "b3eb19e593ca2a919ffbcd05e70ffcae", "lon": -77.05341416666667, "lat": 38.92357966666667, "type": "electric_scooter", "fusion_lon": 0.0, "is_reserved": 0, "bike_id": "b3eb19e593ca2a919ffbcd05e70ffcae", "fusion_lat": 0.0, "is_disabled": 0, "rental_uris": {"ios": "https://dc.lft.to/lastmile_qr_scan", "android": "https://dc.lft.to/lastmile_qr_scan"}}, {"name": "08656af535a3ca8eda834f575a53f5db", "lon": -77.02960166666666, "lat": 38.9163945, "type": "electric_scooter", "fusion_lon": 0.0, "is_reserved": 0, "bike_id": "08656af535a3ca8eda834f575a53f5db", "fusion_lat": 0.0, "is_disabled": 0, "rental_uris": {"ios": "https://dc.lft.to/lastmile_qr_scan", "android": "https://dc.lft.to/lastmile_qr_scan"}}, {"name": "0df381d34ad180927339afe38712c13a", "lon": -76.99731383333334, "lat": 38.90131866666667, "type": "electric_scooter", "fusion_lon": 0.0, "is_reserved": 0, "bike_id": "0df381d34ad180927339afe38712c13a", "fusion_lat": 0.0, "is_disabled": 0, "rental_uris": {"ios": "https://dc.lft.to/lastmile_qr_scan", "android": "https://dc.lft.to/lastmile_qr_scan"}}, {"name": "4a84c988072fe54eff925b641efa3d3d", "lon": -77.03131083333334, "lat": 38.9237645, "type": "electric_scooter", "fusion_lon": 0.0, "is_reserved": 0, "bike_id": "4a84c988072fe54eff925b641efa3d3d", "fusion_lat": 0.0, "is_disabled": 0, "rental_uris": {"ios": "https://dc.lft.to/lastmile_qr_scan", "android": "https://dc.lft.to/lastmile_qr_scan"}}, {"name": "d9d7a15312a1cfb97ce614cc2688cab8", "lon": -77.04027233333333, "lat": 38.92419783333333, "type": "electric_scooter", "fusion_lon": 0.0, "is_reserved": 0, "bike_id": "d9d7a15312a1cfb97ce614cc2688cab8", "fusion_lat": 0.0, "is_disabled": 0, "rental_uris": {"ios": "https://dc.lft.to/lastmile_qr_scan", "android": "https://dc.lft.to/lastmile_qr_scan"}}, {"name": "94ae7a9fcc3627ef9a9563bcc4b9439d", "lon": -77.00628283333333, "lat": 38.90101216666667, "type": "electric_scooter", "fusion_lon": 0.0, "is_reserved": 0, "bike_id": "94ae7a9fcc3627ef9a9563bcc4b9439d", "fusion_lat": 0.0, "is_disabled": 0, "rental_uris": {"ios": "https://dc.lft.to/lastmile_qr_scan", "android": "https://dc.lft.to/lastmile_qr_scan"}}, {"name": "dedd00dd9bbde652b0b78c49efb68800", "lon": -77.05028283333333, "lat": 38.90378666666667, "type": "electric_scooter", "fusion_lon": 0.0, "is_reserved": 0, "bike_id": "dedd00dd9bbde652b0b78c49efb68800", "fusion_lat": 0.0, "is_disabled": 0, "rental_uris": {"ios": "https://dc.lft.to/lastmile_qr_scan", "android": "https://dc.lft.to/lastmile_qr_scan"}}, {"name": "5cb2b41b16e959d59be5d5c1bd9cc9b2", "lon": -77.02406716666667, "lat": 38.95685916666667, "type": "electric_scooter", "fusion_lon": 0.0, "is_reserved": 0, "bike_id": "5cb2b41b16e959d59be5d5c1bd9cc9b2", "fusion_lat": 0.0, "is_disabled": 0, "rental_uris": {"ios": "https://dc.lft.to/lastmile_qr_scan", "android": "https://dc.lft.to/lastmile_qr_scan"}}, {"name": "1a24842138fbd265bd7ebe320b213dca", "lon": -77.016131, "lat": 38.918111833333334, "type": "electric_scooter", "fusion_lon": 0.0, "is_reserved": 0, "bike_id": "1a24842138fbd265bd7ebe320b213dca", "fusion_lat": 0.0, "is_disabled": 0, "rental_uris": {"ios": "https://dc.lft.to/lastmile_qr_scan", "android": "https://dc.lft.to/lastmile_qr_scan"}}, {"name": "b626e5db1c7da714ef7e2e65b7deb57e", "lon": -76.98696833333334, "lat": 38.862593, "type": "electric_scooter", "fusion_lon": 0.0, "is_reserved": 0, "bike_id": "b626e5db1c7da714ef7e2e65b7deb57e", "fusion_lat": 0.0, "is_disabled": 0, "rental_uris": {"ios": "https://dc.lft.to/lastmile_qr_scan", "android": "https://dc.lft.to/lastmile_qr_scan"}}, {"name": "950b4792dc0afd5f74aaf092e7e43e40", "lon": -77.01876933333334, "lat": 38.9007015, "type": "electric_scooter", "fusion_lon": 0.0, "is_reserved": 0, "bike_id": "950b4792dc0afd5f74aaf092e7e43e40", "fusion_lat": 0.0, "is_disabled": 0, "rental_uris": {"ios": "https://dc.lft.to/lastmile_qr_scan", "android": "https://dc.lft.to/lastmile_qr_scan"}}, {"name": "807ea333b4a660e21b811643ab380b34", "lon": -77.02639616666667, "lat": 38.892021, "type": "electric_scooter", "fusion_lon": 0.0, "is_reserved": 0, "bike_id": "807ea333b4a660e21b811643ab380b34", "fusion_lat": 0.0, "is_disabled": 0, "rental_uris": {"ios": "https://dc.lft.to/lastmile_qr_scan", "android": "https://dc.lft.to/lastmile_qr_scan"}}, {"name": "60853f5b88e15b3f51f603d8882297fc", "lon": -77.01441633333333, "lat": 38.919670333333336, "type": "electric_scooter", "fusion_lon": 0.0, "is_reserved": 0, "bike_id": "60853f5b88e15b3f51f603d8882297fc", "fusion_lat": 0.0, "is_disabled": 0, "rental_uris": {"ios": "https://dc.lft.to/lastmile_qr_scan", "android": "https://dc.lft.to/lastmile_qr_scan"}}, {"name": "8c41b52cdf43aaba3216e39d7b54d3c7", "lon": -77.06328383333333, "lat": 38.90773466666667, "type": "electric_scooter", "fusion_lon": 0.0, "is_reserved": 0, "bike_id": "8c41b52cdf43aaba3216e39d7b54d3c7", "fusion_lat": 0.0, "is_disabled": 0, "rental_uris": {"ios": "https://dc.lft.to/lastmile_qr_scan", "android": "https://dc.lft.to/lastmile_qr_scan"}}, {"name": "01982ad52ae13eabfc882d08d4cc5555", "lon": -77.02768266666666, "lat": 38.95426616666666, "type": "electric_scooter", "fusion_lon": 0.0, "is_reserved": 0, "bike_id": "01982ad52ae13eabfc882d08d4cc5555", "fusion_lat": 0.0, "is_disabled": 0, "rental_uris": {"ios": "https://dc.lft.to/lastmile_qr_scan", "android": "https://dc.lft.to/lastmile_qr_scan"}}, {"name": "6b9a58cc403e7db308989f32e1650684", "lon": -77.03287, "lat": 38.93669216666667, "type": "electric_scooter", "fusion_lon": 0.0, "is_reserved": 0, "bike_id": "6b9a58cc403e7db308989f32e1650684", "fusion_lat": 0.0, "is_disabled": 0, "rental_uris": {"ios": "https://dc.lft.to/lastmile_qr_scan", "android": "https://dc.lft.to/lastmile_qr_scan"}}, {"name": "a6f2f261df777dc7ca5b47e8c81028a8", "lon": -77.03129483333333, "lat": 38.923758, "type": "electric_scooter", "fusion_lon": 0.0, "is_reserved": 0, "bike_id": "a6f2f261df777dc7ca5b47e8c81028a8", "fusion_lat": 0.0, "is_disabled": 0, "rental_uris": {"ios": "https://dc.lft.to/lastmile_qr_scan", "android": "https://dc.lft.to/lastmile_qr_scan"}}, {"name": "1bcfc16219391e27e25880f74b867483", "lon": -77.03209716666667, "lat": 38.895296333333334, "type": "electric_scooter", "fusion_lon": 0.0, "is_reserved": 0, "bike_id": "1bcfc16219391e27e25880f74b867483", "fusion_lat": 0.0, "is_disabled": 0, "rental_uris": {"ios": "https://dc.lft.to/lastmile_qr_scan", "android": "https://dc.lft.to/lastmile_qr_scan"}}, {"name": "3bf592421dd8c4c689a2fb938998faf7", "lon": -77.03210766666666, "lat": 38.9180535, "type": "electric_scooter", "fusion_lon": 0.0, "is_reserved": 0, "bike_id": "3bf592421dd8c4c689a2fb938998faf7", "fusion_lat": 0.0, "is_disabled": 0, "rental_uris": {"ios": "https://dc.lft.to/lastmile_qr_scan", "android": "https://dc.lft.to/lastmile_qr_scan"}}, {"name": "fb0921ea4fd9226d6dfff6770d52c1bd", "lon": -77.032905, "lat": 38.956330666666666, "type": "electric_scooter", "fusion_lon": 0.0, "is_reserved": 0, "bike_id": "fb0921ea4fd9226d6dfff6770d52c1bd", "fusion_lat": 0.0, "is_disabled": 0, "rental_uris": {"ios": "https://dc.lft.to/lastmile_qr_scan", "android": "https://dc.lft.to/lastmile_qr_scan"}}, {"name": "eae936a1462e03038ac40793a3f326e8", "lon": -76.94546683333333, "lat": 38.864599, "type": "electric_bike", "fusion_lon": 0.0, "is_reserved": 0, "bike_id": "eae936a1462e03038ac40793a3f326e8", "fusion_lat": 0.0, "is_disabled": 0, "rental_uris": {"ios": "https://dc.lft.to/lastmile_qr_scan", "android": "https://dc.lft.to/lastmile_qr_scan"}}, {"name": "5695fb3b308b586aac84239f0b3949d3", "lon": -77.04328083333333, "lat": 38.892245833333334, "type": "electric_scooter", "fusion_lon": 0.0, "is_reserved": 0, "bike_id": "5695fb3b308b586aac84239f0b3949d3", "fusion_lat": 0.0, "is_disabled": 0, "rental_uris": {"ios": "https://dc.lft.to/lastmile_qr_scan", "android": "https://dc.lft.to/lastmile_qr_scan"}}, {"name": "40ed33684d1da86278df1dc0c4d89341", "lon": -77.049749, "lat": 39.06294833333333, "type": "electric_bike", "fusion_lon": 0.0, "is_reserved": 0, "bike_id": "40ed33684d1da86278df1dc0c4d89341", "fusion_lat": 0.0, "is_disabled": 0, "rental_uris": {"ios": "https://dc.lft.to/lastmile_qr_scan", "android": "https://dc.lft.to/lastmile_qr_scan"}}, {"name": "2017d3ae92546a01ef08a3cdc2be5eff", "lon": -77.032039, "lat": 38.9106725, "type": "electric_scooter", "fusion_lon": 0.0, "is_reserved": 0, "bike_id": "2017d3ae92546a01ef08a3cdc2be5eff", "fusion_lat": 0.0, "is_disabled": 0, "rental_uris": {"ios": "https://dc.lft.to/lastmile_qr_scan", "android": "https://dc.lft.to/lastmile_qr_scan"}}, {"name": "fe583fa091b5ae49e85d4d1d00b39d38", "lon": -77.01424583333333, "lat": 38.90576016666667, "type": "electric_bike", "fusion_lon": 0.0, "is_reserved": 0, "bike_id": "fe583fa091b5ae49e85d4d1d00b39d38", "fusion_lat": 0.0, "is_disabled": 0, "rental_uris": {"ios": "https://dc.lft.to/lastmile_qr_scan", "android": "https://dc.lft.to/lastmile_qr_scan"}}, {"name": "bdecbf6394c075689d9e3a6524646ed5", "lon": -77.00748516666667, "lat": 38.89844183333334, "type": "electric_scooter", "fusion_lon": 0.0, "is_reserved": 0, "bike_id": "bdecbf6394c075689d9e3a6524646ed5", "fusion_lat": 0.0, "is_disabled": 0, "rental_uris": {"ios": "https://dc.lft.to/lastmile_qr_scan", "android": "https://dc.lft.to/lastmile_qr_scan"}}, {"name": "dc8fc45095f6dbe1f1f5d0bfbab6a270", "lon": -77.05760083333334, "lat": 38.924935, "type": "electric_scooter", "fusion_lon": 0.0, "is_reserved": 0, "bike_id": "dc8fc45095f6dbe1f1f5d0bfbab6a270", "fusion_lat": 0.0, "is_disabled": 0, "rental_uris": {"ios": "https://dc.lft.to/lastmile_qr_scan", "android": "https://dc.lft.to/lastmile_qr_scan"}}, {"name": "711f72a6b6a7909b1615a50e6f54d9f8", "lon": -77.000959, "lat": 38.90847433333333, "type": "electric_scooter", "fusion_lon": 0.0, "is_reserved": 0, "bike_id": "711f72a6b6a7909b1615a50e6f54d9f8", "fusion_lat": 0.0, "is_disabled": 0, "rental_uris": {"ios": "https://dc.lft.to/lastmile_qr_scan", "android": "https://dc.lft.to/lastmile_qr_scan"}}, {"name": "308e886c08abb9b560acad01f5d35c11", "lon": -77.00896983333334, "lat": 38.924847666666665, "type": "electric_scooter", "fusion_lon": 0.0, "is_reserved": 0, "bike_id": "308e886c08abb9b560acad01f5d35c11", "fusion_lat": 0.0, "is_disabled": 0, "rental_uris": {"ios": "https://dc.lft.to/lastmile_qr_scan", "android": "https://dc.lft.to/lastmile_qr_scan"}}, {"name": "ebd949d85a3d0f6a2f0161a0fdf45142", "lon": -76.96621233333333, "lat": 38.8711335, "type": "electric_scooter", "fusion_lon": 0.0, "is_reserved": 0, "bike_id": "ebd949d85a3d0f6a2f0161a0fdf45142", "fusion_lat": 0.0, "is_disabled": 0, "rental_uris": {"ios": "https://dc.lft.to/lastmile_qr_scan", "android": "https://dc.lft.to/lastmile_qr_scan"}}, {"name": "6e19506b8cc0e4b4adc6b8bcd12a29bd", "lon": -77.03005466666667, "lat": 38.898487333333335, "type": "electric_scooter", "fusion_lon": 0.0, "is_reserved": 0, "bike_id": "6e19506b8cc0e4b4adc6b8bcd12a29bd", "fusion_lat": 0.0, "is_disabled": 0, "rental_uris": {"ios": "https://dc.lft.to/lastmile_qr_scan", "android": "https://dc.lft.to/lastmile_qr_scan"}}, {"name": "a60de6ae63f4ed29a6b60bcd67c27f20", "lon": -77.02806133333333, "lat": 38.917612, "type": "electric_scooter", "fusion_lon": 0.0, "is_reserved": 0, "bike_id": "a60de6ae63f4ed29a6b60bcd67c27f20", "fusion_lat": 0.0, "is_disabled": 0, "rental_uris": {"ios": "https://dc.lft.to/lastmile_qr_scan", "android": "https://dc.lft.to/lastmile_qr_scan"}}, {"name": "2b6d1532ff867c82dbdd6d0f6cb67fb3", "lon": -76.98828616666667, "lat": 38.90029966666667, "type": "electric_scooter", "fusion_lon": 0.0, "is_reserved": 0, "bike_id": "2b6d1532ff867c82dbdd6d0f6cb67fb3", "fusion_lat": 0.0, "is_disabled": 0, "rental_uris": {"ios": "https://dc.lft.to/lastmile_qr_scan", "android": "https://dc.lft.to/lastmile_qr_scan"}}, {"name": "004595e80dae2f1185d0770cdc4ca55b", "lon": -77.03780966666666, "lat": 38.91689566666667, "type": "electric_scooter", "fusion_lon": 0.0, "is_reserved": 0, "bike_id": "004595e80dae2f1185d0770cdc4ca55b", "fusion_lat": 0.0, "is_disabled": 0, "rental_uris": {"ios": "https://dc.lft.to/lastmile_qr_scan", "android": "https://dc.lft.to/lastmile_qr_scan"}}, {"name": "c97da34f6d09e37a681ac8b221739cb7", "lon": -77.025365, "lat": 38.90625566666667, "type": "electric_scooter", "fusion_lon": 0.0, "is_reserved": 0, "bike_id": "c97da34f6d09e37a681ac8b221739cb7", "fusion_lat": 0.0, "is_disabled": 0, "rental_uris": {"ios": "https://dc.lft.to/lastmile_qr_scan", "android": "https://dc.lft.to/lastmile_qr_scan"}}, {"name": "c78948afad711585655a3f9cef4ad2ad", "lon": -77.02976283333334, "lat": 38.915502333333336, "type": "electric_scooter", "fusion_lon": 0.0, "is_reserved": 0, "bike_id": "c78948afad711585655a3f9cef4ad2ad", "fusion_lat": 0.0, "is_disabled": 0, "rental_uris": {"ios": "https://dc.lft.to/lastmile_qr_scan", "android": "https://dc.lft.to/lastmile_qr_scan"}}, {"name": "933469afe7b5516475c513171b70dcd0", "lon": -77.03409883333333, "lat": 38.92040016666667, "type": "electric_scooter", "fusion_lon": 0.0, "is_reserved": 0, "bike_id": "933469afe7b5516475c513171b70dcd0", "fusion_lat": 0.0, "is_disabled": 0, "rental_uris": {"ios": "https://dc.lft.to/lastmile_qr_scan", "android": "https://dc.lft.to/lastmile_qr_scan"}}, {"name": "84bcbdb61102f831c895e9dde2a397b3", "lon": -77.02575366666666, "lat": 38.914121, "type": "electric_scooter", "fusion_lon": 0.0, "is_reserved": 0, "bike_id": "84bcbdb61102f831c895e9dde2a397b3", "fusion_lat": 0.0, "is_disabled": 0, "rental_uris": {"ios": "https://dc.lft.to/lastmile_qr_scan", "android": "https://dc.lft.to/lastmile_qr_scan"}}, {"name": "056744145b63441ebfad93f374ca7988", "lon": -77.02485316666667, "lat": 38.92752766666667, "type": "electric_scooter", "fusion_lon": 0.0, "is_reserved": 0, "bike_id": "056744145b63441ebfad93f374ca7988", "fusion_lat": 0.0, "is_disabled": 0, "rental_uris": {"ios": "https://dc.lft.to/lastmile_qr_scan", "android": "https://dc.lft.to/lastmile_qr_scan"}}, {"name": "6b93e00ccb40b148059d440ccfbfd479", "lon": -77.0328585, "lat": 38.916131666666665, "type": "electric_scooter", "fusion_lon": 0.0, "is_reserved": 0, "bike_id": "6b93e00ccb40b148059d440ccfbfd479", "fusion_lat": 0.0, "is_disabled": 0, "rental_uris": {"ios": "https://dc.lft.to/lastmile_qr_scan", "android": "https://dc.lft.to/lastmile_qr_scan"}}, {"name": "87153140cd725f51c8a193f0e6dc22da", "lon": -77.02720583333333, "lat": 38.940910333333335, "type": "electric_scooter", "fusion_lon": 0.0, "is_reserved": 0, "bike_id": "87153140cd725f51c8a193f0e6dc22da", "fusion_lat": 0.0, "is_disabled": 0, "rental_uris": {"ios": "https://dc.lft.to/lastmile_qr_scan", "android": "https://dc.lft.to/lastmile_qr_scan"}}, {"name": "ba321415d6dbca91771926c46a58240d", "lon": -77.1008955, "lat": 38.95956283333334, "type": "electric_bike", "fusion_lon": 0.0, "is_reserved": 0, "bike_id": "ba321415d6dbca91771926c46a58240d", "fusion_lat": 0.0, "is_disabled": 0, "rental_uris": {"ios": "https://dc.lft.to/lastmile_qr_scan", "android": "https://dc.lft.to/lastmile_qr_scan"}}, {"name": "a10e35c5dd647eccc5918a5a9832aa1b", "lon": -77.0575575, "lat": 38.924877, "type": "electric_bike", "fusion_lon": 0.0, "is_reserved": 0, "bike_id": "a10e35c5dd647eccc5918a5a9832aa1b", "fusion_lat": 0.0, "is_disabled": 0, "rental_uris": {"ios": "https://dc.lft.to/lastmile_qr_scan", "android": "https://dc.lft.to/lastmile_qr_scan"}}, {"name": "24df0b101d08cdf7ccdad4fb273bdc2c", "lon": -77.03158633333334, "lat": 38.912002333333334, "type": "electric_scooter", "fusion_lon": 0.0, "is_reserved": 0, "bike_id": "24df0b101d08cdf7ccdad4fb273bdc2c", "fusion_lat": 0.0, "is_disabled": 0, "rental_uris": {"ios": "https://dc.lft.to/lastmile_qr_scan", "android": "https://dc.lft.to/lastmile_qr_scan"}}, {"name": "f1d134a50f6a761e2221375af79d5391", "lon": -77.03505, "lat": 38.92151533333333, "type": "electric_scooter", "fusion_lon": 0.0, "is_reserved": 0, "bike_id": "f1d134a50f6a761e2221375af79d5391", "fusion_lat": 0.0, "is_disabled": 0, "rental_uris": {"ios": "https://dc.lft.to/lastmile_qr_scan", "android": "https://dc.lft.to/lastmile_qr_scan"}}, {"name": "360b7a1a7f0ddc0aa1a60c18c9d3174c", "lon": -77.03365483333333, "lat": 38.928671, "type": "electric_scooter", "fusion_lon": 0.0, "is_reserved": 0, "bike_id": "360b7a1a7f0ddc0aa1a60c18c9d3174c", "fusion_lat": 0.0, "is_disabled": 0, "rental_uris": {"ios": "https://dc.lft.to/lastmile_qr_scan", "android": "https://dc.lft.to/lastmile_qr_scan"}}, {"name": "3a0a4e5b86e0e445a73d72dac08281f3", "lon": -76.999987, "lat": 38.900274333333336, "type": "electric_scooter", "fusion_lon": 0.0, "is_reserved": 0, "bike_id": "3a0a4e5b86e0e445a73d72dac08281f3", "fusion_lat": 0.0, "is_disabled": 0, "rental_uris": {"ios": "https://dc.lft.to/lastmile_qr_scan", "android": "https://dc.lft.to/lastmile_qr_scan"}}, {"name": "9673f15a4b3ab9e362fe600b20430548", "lon": -77.036002, "lat": 38.92800616666667, "type": "electric_scooter", "fusion_lon": 0.0, "is_reserved": 0, "bike_id": "9673f15a4b3ab9e362fe600b20430548", "fusion_lat": 0.0, "is_disabled": 0, "rental_uris": {"ios": "https://dc.lft.to/lastmile_qr_scan", "android": "https://dc.lft.to/lastmile_qr_scan"}}, {"name": "f41572d28447fdf06c29497c82c5dfb9", "lon": -77.037774, "lat": 38.924811, "type": "electric_scooter", "fusion_lon": 0.0, "is_reserved": 0, "bike_id": "f41572d28447fdf06c29497c82c5dfb9", "fusion_lat": 0.0, "is_disabled": 0, "rental_uris": {"ios": "https://dc.lft.to/lastmile_qr_scan", "android": "https://dc.lft.to/lastmile_qr_scan"}}, {"name": "33bc3eaf751ebc24f30e01847ff1c11d", "lon": -77.038027, "lat": 38.9250895, "type": "electric_scooter", "fusion_lon": 0.0, "is_reserved": 0, "bike_id": "33bc3eaf751ebc24f30e01847ff1c11d", "fusion_lat": 0.0, "is_disabled": 0, "rental_uris": {"ios": "https://dc.lft.to/lastmile_qr_scan", "android": "https://dc.lft.to/lastmile_qr_scan"}}, {"name": "acb843a3d500e72a1eaee7608ea7aff1", "lon": -76.95018416666667, "lat": 38.89387833333333, "type": "electric_scooter", "fusion_lon": 0.0, "is_reserved": 0, "bike_id": "acb843a3d500e72a1eaee7608ea7aff1", "fusion_lat": 0.0, "is_disabled": 0, "rental_uris": {"ios": "https://dc.lft.to/lastmile_qr_scan", "android": "https://dc.lft.to/lastmile_qr_scan"}}, {"name": "86e63fbb9c86391d962462de58be2878", "lon": -76.97205233333334, "lat": 38.92352283333334, "type": "electric_bike", "fusion_lon": 0.0, "is_reserved": 0, "bike_id": "86e63fbb9c86391d962462de58be2878", "fusion_lat": 0.0, "is_disabled": 0, "rental_uris": {"ios": "https://dc.lft.to/lastmile_qr_scan", "android": "https://dc.lft.to/lastmile_qr_scan"}}, {"name": "7bbbdc0a4c5516c5a3ce13033b262f1c", "lon": -77.043307, "lat": 38.89224633333333, "type": "electric_scooter", "fusion_lon": 0.0, "is_reserved": 0, "bike_id": "7bbbdc0a4c5516c5a3ce13033b262f1c", "fusion_lat": 0.0, "is_disabled": 0, "rental_uris": {"ios": "https://dc.lft.to/lastmile_qr_scan", "android": "https://dc.lft.to/lastmile_qr_scan"}}, {"name": "4092597742c31ea84b64a50264582d0e", "lon": -76.99364249999999, "lat": 38.928357, "type": "electric_scooter", "fusion_lon": 0.0, "is_reserved": 0, "bike_id": "4092597742c31ea84b64a50264582d0e", "fusion_lat": 0.0, "is_disabled": 0, "rental_uris": {"ios": "https://dc.lft.to/lastmile_qr_scan", "android": "https://dc.lft.to/lastmile_qr_scan"}}, {"name": "fdd2ed4444bfa84e74be473cfc61b733", "lon": -76.98692283333334, "lat": 38.86251516666667, "type": "electric_scooter", "fusion_lon": 0.0, "is_reserved": 0, "bike_id": "fdd2ed4444bfa84e74be473cfc61b733", "fusion_lat": 0.0, "is_disabled": 0, "rental_uris": {"ios": "https://dc.lft.to/lastmile_qr_scan", "android": "https://dc.lft.to/lastmile_qr_scan"}}, {"name": "ac6c1a574488712b42044e7f0e3d273e", "lon": -77.00284766666667, "lat": 38.91183083333333, "type": "electric_bike", "fusion_lon": 0.0, "is_reserved": 0, "bike_id": "ac6c1a574488712b42044e7f0e3d273e", "fusion_lat": 0.0, "is_disabled": 0, "rental_uris": {"ios": "https://dc.lft.to/lastmile_qr_scan", "android": "https://dc.lft.to/lastmile_qr_scan"}}, {"name": "11701baff60d40e39758c10c14c9175b", "lon": -76.98777166666666, "lat": 38.88293483333333, "type": "electric_scooter", "fusion_lon": 0.0, "is_reserved": 0, "bike_id": "11701baff60d40e39758c10c14c9175b", "fusion_lat": 0.0, "is_disabled": 0, "rental_uris": {"ios": "https://dc.lft.to/lastmile_qr_scan", "android": "https://dc.lft.to/lastmile_qr_scan"}}, {"name": "17fe2b89f7934e5e9f2847cbff0265ea", "lon": -77.03324866666667, "lat": 38.921533833333335, "type": "electric_scooter", "fusion_lon": 0.0, "is_reserved": 0, "bike_id": "17fe2b89f7934e5e9f2847cbff0265ea", "fusion_lat": 0.0, "is_disabled": 0, "rental_uris": {"ios": "https://dc.lft.to/lastmile_qr_scan", "android": "https://dc.lft.to/lastmile_qr_scan"}}, {"name": "e9b38728cfba78d1002e8b9a6ad66047", "lon": -77.0408975, "lat": 38.923981833333336, "type": "electric_scooter", "fusion_lon": 0.0, "is_reserved": 0, "bike_id": "e9b38728cfba78d1002e8b9a6ad66047", "fusion_lat": 0.0, "is_disabled": 0, "rental_uris": {"ios": "https://dc.lft.to/lastmile_qr_scan", "android": "https://dc.lft.to/lastmile_qr_scan"}}, {"name": "6e4108c1dbf37ffd536c90e42937001c", "lon": -77.04381533333333, "lat": 38.9111895, "type": "electric_scooter", "fusion_lon": 0.0, "is_reserved": 0, "bike_id": "6e4108c1dbf37ffd536c90e42937001c", "fusion_lat": 0.0, "is_disabled": 0, "rental_uris": {"ios": "https://dc.lft.to/lastmile_qr_scan", "android": "https://dc.lft.to/lastmile_qr_scan"}}, {"name": "50c4f7d49f89cbdf0a484fc0584ec703", "lon": -77.02978733333333, "lat": 38.921982, "type": "electric_scooter", "fusion_lon": 0.0, "is_reserved": 0, "bike_id": "50c4f7d49f89cbdf0a484fc0584ec703", "fusion_lat": 0.0, "is_disabled": 0, "rental_uris": {"ios": "https://dc.lft.to/lastmile_qr_scan", "android": "https://dc.lft.to/lastmile_qr_scan"}}, {"name": "0788b0779ef0bfd7aa2e7732a586ab42", "lon": -77.0585895, "lat": 38.936099666666664, "type": "electric_scooter", "fusion_lon": 0.0, "is_reserved": 0, "bike_id": "0788b0779ef0bfd7aa2e7732a586ab42", "fusion_lat": 0.0, "is_disabled": 0, "rental_uris": {"ios": "https://dc.lft.to/lastmile_qr_scan", "android": "https://dc.lft.to/lastmile_qr_scan"}}, {"name": "819423d96953791fc984065fa92091bb", "lon": -77.04380516666667, "lat": 38.90808366666667, "type": "electric_scooter", "fusion_lon": 0.0, "is_reserved": 0, "bike_id": "819423d96953791fc984065fa92091bb", "fusion_lat": 0.0, "is_disabled": 0, "rental_uris": {"ios": "https://dc.lft.to/lastmile_qr_scan", "android": "https://dc.lft.to/lastmile_qr_scan"}}, {"name": "57f3c12fcba858ac75103760b1229316", "lon": -77.00200466666666, "lat": 38.895489166666664, "type": "electric_scooter", "fusion_lon": 0.0, "is_reserved": 0, "bike_id": "57f3c12fcba858ac75103760b1229316", "fusion_lat": 0.0, "is_disabled": 0, "rental_uris": {"ios": "https://dc.lft.to/lastmile_qr_scan", "android": "https://dc.lft.to/lastmile_qr_scan"}}, {"name": "5af062163cb9a9dec5bc317812a0bbf5", "lon": -77.04142816666666, "lat": 38.901262333333335, "type": "electric_scooter", "fusion_lon": 0.0, "is_reserved": 0, "bike_id": "5af062163cb9a9dec5bc317812a0bbf5", "fusion_lat": 0.0, "is_disabled": 0, "rental_uris": {"ios": "https://dc.lft.to/lastmile_qr_scan", "android": "https://dc.lft.to/lastmile_qr_scan"}}, {"name": "c2842cbf96adc7cfb87ecd64e527fa57", "lon": -77.0264345, "lat": 38.9845005, "type": "electric_scooter", "fusion_lon": 0.0, "is_reserved": 0, "bike_id": "c2842cbf96adc7cfb87ecd64e527fa57", "fusion_lat": 0.0, "is_disabled": 0, "rental_uris": {"ios": "https://dc.lft.to/lastmile_qr_scan", "android": "https://dc.lft.to/lastmile_qr_scan"}}, {"name": "12fa86dd8da02186bd4bd30b13f2da74", "lon": -77.0281225, "lat": 38.91041833333333, "type": "electric_scooter", "fusion_lon": 0.0, "is_reserved": 0, "bike_id": "12fa86dd8da02186bd4bd30b13f2da74", "fusion_lat": 0.0, "is_disabled": 0, "rental_uris": {"ios": "https://dc.lft.to/lastmile_qr_scan", "android": "https://dc.lft.to/lastmile_qr_scan"}}, {"name": "05ff08f337b18a275e762a4eeef3b169", "lon": -76.90968616666666, "lat": 38.85438416666667, "type": "electric_bike", "fusion_lon": 0.0, "is_reserved": 0, "bike_id": "05ff08f337b18a275e762a4eeef3b169", "fusion_lat": 0.0, "is_disabled": 0, "rental_uris": {"ios": "https://dc.lft.to/lastmile_qr_scan", "android": "https://dc.lft.to/lastmile_qr_scan"}}, {"name": "acb7d9a9e04b1dec3ef0c300992a86cd", "lon": -77.004879, "lat": 38.874742166666664, "type": "electric_scooter", "fusion_lon": 0.0, "is_reserved": 0, "bike_id": "acb7d9a9e04b1dec3ef0c300992a86cd", "fusion_lat": 0.0, "is_disabled": 0, "rental_uris": {"ios": "https://dc.lft.to/lastmile_qr_scan", "android": "https://dc.lft.to/lastmile_qr_scan"}}, {"name": "5006f9ef8e273cb78f8c93943426ed67", "lon": -77.02810933333333, "lat": 38.91694233333333, "type": "electric_scooter", "fusion_lon": 0.0, "is_reserved": 0, "bike_id": "5006f9ef8e273cb78f8c93943426ed67", "fusion_lat": 0.0, "is_disabled": 0, "rental_uris": {"ios": "https://dc.lft.to/lastmile_qr_scan", "android": "https://dc.lft.to/lastmile_qr_scan"}}, {"name": "469af17f32f686182d1814724e2856aa", "lon": -77.02305083333333, "lat": 38.917798, "type": "electric_scooter", "fusion_lon": 0.0, "is_reserved": 0, "bike_id": "469af17f32f686182d1814724e2856aa", "fusion_lat": 0.0, "is_disabled": 0, "rental_uris": {"ios": "https://dc.lft.to/lastmile_qr_scan", "android": "https://dc.lft.to/lastmile_qr_scan"}}, {"name": "4014b96c8b48656f297b5c60a008f674", "lon": -77.04093283333333, "lat": 38.917744666666664, "type": "electric_scooter", "fusion_lon": 0.0, "is_reserved": 0, "bike_id": "4014b96c8b48656f297b5c60a008f674", "fusion_lat": 0.0, "is_disabled": 0, "rental_uris": {"ios": "https://dc.lft.to/lastmile_qr_scan", "android": "https://dc.lft.to/lastmile_qr_scan"}}, {"name": "38d1b61359ffed700d7da412a2287c3f", "lon": -77.04330533333334, "lat": 38.89221516666667, "type": "electric_scooter", "fusion_lon": 0.0, "is_reserved": 0, "bike_id": "38d1b61359ffed700d7da412a2287c3f", "fusion_lat": 0.0, "is_disabled": 0, "rental_uris": {"ios": "https://dc.lft.to/lastmile_qr_scan", "android": "https://dc.lft.to/lastmile_qr_scan"}}, {"name": "f8a1b04a9ae0250a12c1423e1871f3db", "lon": -76.98095933333333, "lat": 38.921051166666665, "type": "electric_bike", "fusion_lon": 0.0, "is_reserved": 0, "bike_id": "f8a1b04a9ae0250a12c1423e1871f3db", "fusion_lat": 0.0, "is_disabled": 0, "rental_uris": {"ios": "https://dc.lft.to/lastmile_qr_scan", "android": "https://dc.lft.to/lastmile_qr_scan"}}, {"name": "9185fe66edcb752bc847133db98f578a", "lon": -77.03261116666667, "lat": 38.946272666666665, "type": "electric_scooter", "fusion_lon": 0.0, "is_reserved": 0, "bike_id": "9185fe66edcb752bc847133db98f578a", "fusion_lat": 0.0, "is_disabled": 0, "rental_uris": {"ios": "https://dc.lft.to/lastmile_qr_scan", "android": "https://dc.lft.to/lastmile_qr_scan"}}, {"name": "e906ef3d4e42c82e0afdba4dbfb3c0b0", "lon": -77.02691933333334, "lat": 38.88130366666667, "type": "electric_scooter", "fusion_lon": 0.0, "is_reserved": 0, "bike_id": "e906ef3d4e42c82e0afdba4dbfb3c0b0", "fusion_lat": 0.0, "is_disabled": 0, "rental_uris": {"ios": "https://dc.lft.to/lastmile_qr_scan", "android": "https://dc.lft.to/lastmile_qr_scan"}}, {"name": "ae21f83ff472929421e04676285ccf99", "lon": -77.03998116666666, "lat": 38.904079833333334, "type": "electric_scooter", "fusion_lon": 0.0, "is_reserved": 0, "bike_id": "ae21f83ff472929421e04676285ccf99", "fusion_lat": 0.0, "is_disabled": 0, "rental_uris": {"ios": "https://dc.lft.to/lastmile_qr_scan", "android": "https://dc.lft.to/lastmile_qr_scan"}}, {"name": "89fdf0744e7b6ac7c03694d328fcd4d8", "lon": -77.0333325, "lat": 38.92880783333333, "type": "electric_scooter", "fusion_lon": 0.0, "is_reserved": 0, "bike_id": "89fdf0744e7b6ac7c03694d328fcd4d8", "fusion_lat": 0.0, "is_disabled": 0, "rental_uris": {"ios": "https://dc.lft.to/lastmile_qr_scan", "android": "https://dc.lft.to/lastmile_qr_scan"}}, {"name": "481608290043a7b7d42179a7666ebcf0", "lon": -77.01750583333333, "lat": 38.8782625, "type": "electric_scooter", "fusion_lon": 0.0, "is_reserved": 0, "bike_id": "481608290043a7b7d42179a7666ebcf0", "fusion_lat": 0.0, "is_disabled": 0, "rental_uris": {"ios": "https://dc.lft.to/lastmile_qr_scan", "android": "https://dc.lft.to/lastmile_qr_scan"}}, {"name": "2a086337f7671a6d5137dcb53879c165", "lon": -77.06347516666666, "lat": 38.944565, "type": "electric_scooter", "fusion_lon": 0.0, "is_reserved": 0, "bike_id": "2a086337f7671a6d5137dcb53879c165", "fusion_lat": 0.0, "is_disabled": 0, "rental_uris": {"ios": "https://dc.lft.to/lastmile_qr_scan", "android": "https://dc.lft.to/lastmile_qr_scan"}}, {"name": "e47eb3363351cae0860c517f3e4544af", "lon": -77.04312333333333, "lat": 38.92887733333333, "type": "electric_bike", "fusion_lon": 0.0, "is_reserved": 0, "bike_id": "e47eb3363351cae0860c517f3e4544af", "fusion_lat": 0.0, "is_disabled": 0, "rental_uris": {"ios": "https://dc.lft.to/lastmile_qr_scan", "android": "https://dc.lft.to/lastmile_qr_scan"}}, {"name": "dd87570d3140d0d8552d4ef29d4bad1c", "lon": -77.0325575, "lat": 38.9397425, "type": "electric_scooter", "fusion_lon": 0.0, "is_reserved": 0, "bike_id": "dd87570d3140d0d8552d4ef29d4bad1c", "fusion_lat": 0.0, "is_disabled": 0, "rental_uris": {"ios": "https://dc.lft.to/lastmile_qr_scan", "android": "https://dc.lft.to/lastmile_qr_scan"}}, {"name": "c887577e954fa86491816f4e0e20bdaa", "lon": -76.9824565, "lat": 38.864581, "type": "electric_scooter", "fusion_lon": 0.0, "is_reserved": 0, "bike_id": "c887577e954fa86491816f4e0e20bdaa", "fusion_lat": 0.0, "is_disabled": 0, "rental_uris": {"ios": "https://dc.lft.to/lastmile_qr_scan", "android": "https://dc.lft.to/lastmile_qr_scan"}}, {"name": "45817de9228cb79f4628e3b25e21a543", "lon": -77.04141933333334, "lat": 38.893553833333335, "type": "electric_scooter", "fusion_lon": 0.0, "is_reserved": 0, "bike_id": "45817de9228cb79f4628e3b25e21a543", "fusion_lat": 0.0, "is_disabled": 0, "rental_uris": {"ios": "https://dc.lft.to/lastmile_qr_scan", "android": "https://dc.lft.to/lastmile_qr_scan"}}, {"name": "513e5e683cc65d596d2b2c3c6155fa4d", "lon": -77.033932, "lat": 38.899971, "type": "electric_scooter", "fusion_lon": 0.0, "is_reserved": 0, "bike_id": "513e5e683cc65d596d2b2c3c6155fa4d", "fusion_lat": 0.0, "is_disabled": 0, "rental_uris": {"ios": "https://dc.lft.to/lastmile_qr_scan", "android": "https://dc.lft.to/lastmile_qr_scan"}}, {"name": "29366c26b681a6c222b80e2f10eb9d17", "lon": -76.895373, "lat": 38.945554333333334, "type": "electric_bike", "fusion_lon": 0.0, "is_reserved": 0, "bike_id": "29366c26b681a6c222b80e2f10eb9d17", "fusion_lat": 0.0, "is_disabled": 0, "rental_uris": {"ios": "https://dc.lft.to/lastmile_qr_scan", "android": "https://dc.lft.to/lastmile_qr_scan"}}, {"name": "d82b9db2288503a86e52649bdbea76a7", "lon": -77.02806416666667, "lat": 38.923638, "type": "electric_scooter", "fusion_lon": 0.0, "is_reserved": 0, "bike_id": "d82b9db2288503a86e52649bdbea76a7", "fusion_lat": 0.0, "is_disabled": 0, "rental_uris": {"ios": "https://dc.lft.to/lastmile_qr_scan", "android": "https://dc.lft.to/lastmile_qr_scan"}}, {"name": "be868a9d76d81266f59fb453bac5bab2", "lon": -77.04643183333333, "lat": 38.919427166666665, "type": "electric_scooter", "fusion_lon": 0.0, "is_reserved": 0, "bike_id": "be868a9d76d81266f59fb453bac5bab2", "fusion_lat": 0.0, "is_disabled": 0, "rental_uris": {"ios": "https://dc.lft.to/lastmile_qr_scan", "android": "https://dc.lft.to/lastmile_qr_scan"}}, {"name": "ac04a68567b53f81cddd37b559763a9f", "lon": -76.99261833333334, "lat": 38.862499666666665, "type": "electric_scooter", "fusion_lon": 0.0, "is_reserved": 0, "bike_id": "ac04a68567b53f81cddd37b559763a9f", "fusion_lat": 0.0, "is_disabled": 0, "rental_uris": {"ios": "https://dc.lft.to/lastmile_qr_scan", "android": "https://dc.lft.to/lastmile_qr_scan"}}, {"name": "e98df5dc6a3bf654ef820990a8355e7e", "lon": -77.04476666666666, "lat": 38.924264666666666, "type": "electric_scooter", "fusion_lon": 0.0, "is_reserved": 0, "bike_id": "e98df5dc6a3bf654ef820990a8355e7e", "fusion_lat": 0.0, "is_disabled": 0, "rental_uris": {"ios": "https://dc.lft.to/lastmile_qr_scan", "android": "https://dc.lft.to/lastmile_qr_scan"}}, {"name": "c3afdf3c3515bd63755e34224ab05c03", "lon": -77.1175625, "lat": 38.81253233333333, "type": "electric_bike", "fusion_lon": 0.0, "is_reserved": 0, "bike_id": "c3afdf3c3515bd63755e34224ab05c03", "fusion_lat": 0.0, "is_disabled": 0, "rental_uris": {"ios": "https://dc.lft.to/lastmile_qr_scan", "android": "https://dc.lft.to/lastmile_qr_scan"}}, {"name": "ff3e508c3231ebdc0d0fb105d580464a", "lon": -77.06330216666667, "lat": 38.9442465, "type": "electric_scooter", "fusion_lon": 0.0, "is_reserved": 0, "bike_id": "ff3e508c3231ebdc0d0fb105d580464a", "fusion_lat": 0.0, "is_disabled": 0, "rental_uris": {"ios": "https://dc.lft.to/lastmile_qr_scan", "android": "https://dc.lft.to/lastmile_qr_scan"}}, {"name": "a817eff2a0e8bcf671b424b2c5bf0d24", "lon": -77.023962, "lat": 38.916293, "type": "electric_scooter", "fusion_lon": 0.0, "is_reserved": 0, "bike_id": "a817eff2a0e8bcf671b424b2c5bf0d24", "fusion_lat": 0.0, "is_disabled": 0, "rental_uris": {"ios": "https://dc.lft.to/lastmile_qr_scan", "android": "https://dc.lft.to/lastmile_qr_scan"}}, {"name": "1d1ece287c9fd67a972b6bcd27c6321c", "lon": -77.0317435, "lat": 38.91419116666667, "type": "electric_scooter", "fusion_lon": 0.0, "is_reserved": 0, "bike_id": "1d1ece287c9fd67a972b6bcd27c6321c", "fusion_lat": 0.0, "is_disabled": 0, "rental_uris": {"ios": "https://dc.lft.to/lastmile_qr_scan", "android": "https://dc.lft.to/lastmile_qr_scan"}}, {"name": "ebcd53fd73ffb974c40adbb403ee5150", "lon": -77.0156295, "lat": 38.89178716666667, "type": "electric_scooter", "fusion_lon": 0.0, "is_reserved": 0, "bike_id": "ebcd53fd73ffb974c40adbb403ee5150", "fusion_lat": 0.0, "is_disabled": 0, "rental_uris": {"ios": "https://dc.lft.to/lastmile_qr_scan", "android": "https://dc.lft.to/lastmile_qr_scan"}}, {"name": "5c654c46d801ac32b75e14c97bf45b35", "lon": -77.04518266666666, "lat": 38.90243133333333, "type": "electric_scooter", "fusion_lon": 0.0, "is_reserved": 0, "bike_id": "5c654c46d801ac32b75e14c97bf45b35", "fusion_lat": 0.0, "is_disabled": 0, "rental_uris": {"ios": "https://dc.lft.to/lastmile_qr_scan", "android": "https://dc.lft.to/lastmile_qr_scan"}}, {"name": "3b8daf107f5d0ad67fdb470f3c30c601", "lon": -77.02729883333333, "lat": 38.940863666666665, "type": "electric_scooter", "fusion_lon": 0.0, "is_reserved": 0, "bike_id": "3b8daf107f5d0ad67fdb470f3c30c601", "fusion_lat": 0.0, "is_disabled": 0, "rental_uris": {"ios": "https://dc.lft.to/lastmile_qr_scan", "android": "https://dc.lft.to/lastmile_qr_scan"}}, {"name": "a3e7890a508baa47107e91642664157e", "lon": -77.0166855, "lat": 38.881109333333335, "type": "electric_scooter", "fusion_lon": 0.0, "is_reserved": 0, "bike_id": "a3e7890a508baa47107e91642664157e", "fusion_lat": 0.0, "is_disabled": 0, "rental_uris": {"ios": "https://dc.lft.to/lastmile_qr_scan", "android": "https://dc.lft.to/lastmile_qr_scan"}}, {"name": "777a85ae552875dda03db0ada8af4568", "lon": -77.03852416666666, "lat": 38.911766666666665, "type": "electric_scooter", "fusion_lon": 0.0, "is_reserved": 0, "bike_id": "777a85ae552875dda03db0ada8af4568", "fusion_lat": 0.0, "is_disabled": 0, "rental_uris": {"ios": "https://dc.lft.to/lastmile_qr_scan", "android": "https://dc.lft.to/lastmile_qr_scan"}}, {"name": "2a50779b8b5ae7fa8f0f7b22db3eee8a", "lon": -77.0390935, "lat": 38.918330833333336, "type": "electric_scooter", "fusion_lon": 0.0, "is_reserved": 0, "bike_id": "2a50779b8b5ae7fa8f0f7b22db3eee8a", "fusion_lat": 0.0, "is_disabled": 0, "rental_uris": {"ios": "https://dc.lft.to/lastmile_qr_scan", "android": "https://dc.lft.to/lastmile_qr_scan"}}, {"name": "7ff9f8053a6ff48fcaf8735f2c4aad9b", "lon": -77.04696366666667, "lat": 38.921592, "type": "electric_scooter", "fusion_lon": 0.0, "is_reserved": 0, "bike_id": "7ff9f8053a6ff48fcaf8735f2c4aad9b", "fusion_lat": 0.0, "is_disabled": 0, "rental_uris": {"ios": "https://dc.lft.to/lastmile_qr_scan", "android": "https://dc.lft.to/lastmile_qr_scan"}}, {"name": "d2e4f2e53f12dbeac83e024e312dfb2a", "lon": -77.022537, "lat": 38.923080666666664, "type": "electric_scooter", "fusion_lon": 0.0, "is_reserved": 0, "bike_id": "d2e4f2e53f12dbeac83e024e312dfb2a", "fusion_lat": 0.0, "is_disabled": 0, "rental_uris": {"ios": "https://dc.lft.to/lastmile_qr_scan", "android": "https://dc.lft.to/lastmile_qr_scan"}}, {"name": "8eff91e8af8c7253134a5e7b052f889a", "lon": -76.99778483333333, "lat": 38.84428533333333, "type": "electric_scooter", "fusion_lon": 0.0, "is_reserved": 0, "bike_id": "8eff91e8af8c7253134a5e7b052f889a", "fusion_lat": 0.0, "is_disabled": 0, "rental_uris": {"ios": "https://dc.lft.to/lastmile_qr_scan", "android": "https://dc.lft.to/lastmile_qr_scan"}}, {"name": "4bbcfe946ae3b80525c2570d4e4e280e", "lon": -76.98310866666667, "lat": 38.86887133333333, "type": "electric_scooter", "fusion_lon": 0.0, "is_reserved": 0, "bike_id": "4bbcfe946ae3b80525c2570d4e4e280e", "fusion_lat": 0.0, "is_disabled": 0, "rental_uris": {"ios": "https://dc.lft.to/lastmile_qr_scan", "android": "https://dc.lft.to/lastmile_qr_scan"}}, {"name": "b6e94887decc2d4b53c736a9a017798b", "lon": -77.02792183333334, "lat": 38.960841, "type": "electric_scooter", "fusion_lon": 0.0, "is_reserved": 0, "bike_id": "b6e94887decc2d4b53c736a9a017798b", "fusion_lat": 0.0, "is_disabled": 0, "rental_uris": {"ios": "https://dc.lft.to/lastmile_qr_scan", "android": "https://dc.lft.to/lastmile_qr_scan"}}, {"name": "58766f08f5e52d0fbc434ea6c2af4361", "lon": -77.01169266666666, "lat": 38.9170125, "type": "electric_scooter", "fusion_lon": 0.0, "is_reserved": 0, "bike_id": "58766f08f5e52d0fbc434ea6c2af4361", "fusion_lat": 0.0, "is_disabled": 0, "rental_uris": {"ios": "https://dc.lft.to/lastmile_qr_scan", "android": "https://dc.lft.to/lastmile_qr_scan"}}, {"name": "a443c2ef15f7f2f2cd6d7592d3e83105", "lon": -77.028953, "lat": 38.91708066666666, "type": "electric_scooter", "fusion_lon": 0.0, "is_reserved": 0, "bike_id": "a443c2ef15f7f2f2cd6d7592d3e83105", "fusion_lat": 0.0, "is_disabled": 0, "rental_uris": {"ios": "https://dc.lft.to/lastmile_qr_scan", "android": "https://dc.lft.to/lastmile_qr_scan"}}, {"name": "a685c5a46a0af36c8472292887cacc2b", "lon": -77.0304885, "lat": 38.8841, "type": "electric_scooter", "fusion_lon": 0.0, "is_reserved": 0, "bike_id": "a685c5a46a0af36c8472292887cacc2b", "fusion_lat": 0.0, "is_disabled": 0, "rental_uris": {"ios": "https://dc.lft.to/lastmile_qr_scan", "android": "https://dc.lft.to/lastmile_qr_scan"}}, {"name": "1b40f8116f9773a1b74a1d37d8488ba2", "lon": -77.023966, "lat": 38.89650433333333, "type": "electric_scooter", "fusion_lon": 0.0, "is_reserved": 0, "bike_id": "1b40f8116f9773a1b74a1d37d8488ba2", "fusion_lat": 0.0, "is_disabled": 0, "rental_uris": {"ios": "https://dc.lft.to/lastmile_qr_scan", "android": "https://dc.lft.to/lastmile_qr_scan"}}, {"name": "1190716d04822e9473d0cdfa1781082f", "lon": -77.04110983333334, "lat": 38.906084, "type": "electric_scooter", "fusion_lon": 0.0, "is_reserved": 0, "bike_id": "1190716d04822e9473d0cdfa1781082f", "fusion_lat": 0.0, "is_disabled": 0, "rental_uris": {"ios": "https://dc.lft.to/lastmile_qr_scan", "android": "https://dc.lft.to/lastmile_qr_scan"}}, {"name": "bc65e7656f60ae04d78cca71d2346ef7", "lon": -76.99559883333333, "lat": 38.86259966666667, "type": "electric_scooter", "fusion_lon": 0.0, "is_reserved": 0, "bike_id": "bc65e7656f60ae04d78cca71d2346ef7", "fusion_lat": 0.0, "is_disabled": 0, "rental_uris": {"ios": "https://dc.lft.to/lastmile_qr_scan", "android": "https://dc.lft.to/lastmile_qr_scan"}}, {"name": "d2d90e8e2b9ec40c6d765a0426dbc7d2", "lon": -77.03127116666667, "lat": 38.923846833333336, "type": "electric_scooter", "fusion_lon": 0.0, "is_reserved": 0, "bike_id": "d2d90e8e2b9ec40c6d765a0426dbc7d2", "fusion_lat": 0.0, "is_disabled": 0, "rental_uris": {"ios": "https://dc.lft.to/lastmile_qr_scan", "android": "https://dc.lft.to/lastmile_qr_scan"}}, {"name": "85e6591eb794b33a38a2bd630b411787", "lon": -77.04092666666666, "lat": 38.91083583333333, "type": "electric_scooter", "fusion_lon": 0.0, "is_reserved": 0, "bike_id": "85e6591eb794b33a38a2bd630b411787", "fusion_lat": 0.0, "is_disabled": 0, "rental_uris": {"ios": "https://dc.lft.to/lastmile_qr_scan", "android": "https://dc.lft.to/lastmile_qr_scan"}}, {"name": "2b5cda52d3e8b3b79bfcca1a7dc7b93c", "lon": -77.02296483333333, "lat": 38.920847333333334, "type": "electric_scooter", "fusion_lon": 0.0, "is_reserved": 0, "bike_id": "2b5cda52d3e8b3b79bfcca1a7dc7b93c", "fusion_lat": 0.0, "is_disabled": 0, "rental_uris": {"ios": "https://dc.lft.to/lastmile_qr_scan", "android": "https://dc.lft.to/lastmile_qr_scan"}}, {"name": "b76aaab5de3a96e432ee29dd446f95d2", "lon": -77.022105, "lat": 38.916276, "type": "electric_scooter", "fusion_lon": 0.0, "is_reserved": 0, "bike_id": "b76aaab5de3a96e432ee29dd446f95d2", "fusion_lat": 0.0, "is_disabled": 0, "rental_uris": {"ios": "https://dc.lft.to/lastmile_qr_scan", "android": "https://dc.lft.to/lastmile_qr_scan"}}, {"name": "201c0e62ac200f9692cbc8118f672293", "lon": -77.03192666666666, "lat": 38.904613166666664, "type": "electric_scooter", "fusion_lon": 0.0, "is_reserved": 0, "bike_id": "201c0e62ac200f9692cbc8118f672293", "fusion_lat": 0.0, "is_disabled": 0, "rental_uris": {"ios": "https://dc.lft.to/lastmile_qr_scan", "android": "https://dc.lft.to/lastmile_qr_scan"}}, {"name": "a1dfa4f0ac144c1cdbd38380134afa21", "lon": -77.07829216666667, "lat": 38.93142483333333, "type": "electric_bike", "fusion_lon": 0.0, "is_reserved": 0, "bike_id": "a1dfa4f0ac144c1cdbd38380134afa21", "fusion_lat": 0.0, "is_disabled": 0, "rental_uris": {"ios": "https://dc.lft.to/lastmile_qr_scan", "android": "https://dc.lft.to/lastmile_qr_scan"}}, {"name": "1e3ced15978d41eaf9c65ca0c221283c", "lon": -77.05311216666666, "lat": 38.90269216666667, "type": "electric_scooter", "fusion_lon": 0.0, "is_reserved": 0, "bike_id": "1e3ced15978d41eaf9c65ca0c221283c", "fusion_lat": 0.0, "is_disabled": 0, "rental_uris": {"ios": "https://dc.lft.to/lastmile_qr_scan", "android": "https://dc.lft.to/lastmile_qr_scan"}}, {"name": "5be568e39781c584c86f45a5eb677c98", "lon": -76.9985525, "lat": 38.903687, "type": "electric_scooter", "fusion_lon": 0.0, "is_reserved": 0, "bike_id": "5be568e39781c584c86f45a5eb677c98", "fusion_lat": 0.0, "is_disabled": 0, "rental_uris": {"ios": "https://dc.lft.to/lastmile_qr_scan", "android": "https://dc.lft.to/lastmile_qr_scan"}}, {"name": "256f7e7437666bd9604f8fabd68a271a", "lon": -77.22804216666667, "lat": 38.91017383333333, "type": "electric_bike", "fusion_lon": 0.0, "is_reserved": 0, "bike_id": "256f7e7437666bd9604f8fabd68a271a", "fusion_lat": 0.0, "is_disabled": 0, "rental_uris": {"ios": "https://dc.lft.to/lastmile_qr_scan", "android": "https://dc.lft.to/lastmile_qr_scan"}}, {"name": "26c3afbbfc36413e09ddee82d75ae60b", "lon": -77.09521716666667, "lat": 38.83813166666667, "type": "electric_bike", "fusion_lon": 0.0, "is_reserved": 0, "bike_id": "26c3afbbfc36413e09ddee82d75ae60b", "fusion_lat": 0.0, "is_disabled": 0, "rental_uris": {"ios": "https://dc.lft.to/lastmile_qr_scan", "android": "https://dc.lft.to/lastmile_qr_scan"}}, {"name": "ddc12f5de5eeb857e2292600f4a782f7", "lon": -77.01757233333333, "lat": 38.903635666666666, "type": "electric_scooter", "fusion_lon": 0.0, "is_reserved": 0, "bike_id": "ddc12f5de5eeb857e2292600f4a782f7", "fusion_lat": 0.0, "is_disabled": 0, "rental_uris": {"ios": "https://dc.lft.to/lastmile_qr_scan", "android": "https://dc.lft.to/lastmile_qr_scan"}}, {"name": "84c4ab9b3b465b63a68419b3937ab826", "lon": -76.99623883333334, "lat": 38.900345333333334, "type": "electric_scooter", "fusion_lon": 0.0, "is_reserved": 0, "bike_id": "84c4ab9b3b465b63a68419b3937ab826", "fusion_lat": 0.0, "is_disabled": 0, "rental_uris": {"ios": "https://dc.lft.to/lastmile_qr_scan", "android": "https://dc.lft.to/lastmile_qr_scan"}}, {"name": "7c36a361e2a9ab5422140df2f41e269b", "lon": -77.0137865, "lat": 38.893186, "type": "electric_scooter", "fusion_lon": 0.0, "is_reserved": 0, "bike_id": "7c36a361e2a9ab5422140df2f41e269b", "fusion_lat": 0.0, "is_disabled": 0, "rental_uris": {"ios": "https://dc.lft.to/lastmile_qr_scan", "android": "https://dc.lft.to/lastmile_qr_scan"}}, {"name": "0020ae156ba7536488f96585d3da7eab", "lon": -77.02501333333333, "lat": 38.9063605, "type": "electric_scooter", "fusion_lon": 0.0, "is_reserved": 0, "bike_id": "0020ae156ba7536488f96585d3da7eab", "fusion_lat": 0.0, "is_disabled": 0, "rental_uris": {"ios": "https://dc.lft.to/lastmile_qr_scan", "android": "https://dc.lft.to/lastmile_qr_scan"}}, {"name": "b6c83ae9c34b1837528185a12b97aa6c", "lon": -77.048288, "lat": 38.91114183333333, "type": "electric_scooter", "fusion_lon": 0.0, "is_reserved": 0, "bike_id": "b6c83ae9c34b1837528185a12b97aa6c", "fusion_lat": 0.0, "is_disabled": 0, "rental_uris": {"ios": "https://dc.lft.to/lastmile_qr_scan", "android": "https://dc.lft.to/lastmile_qr_scan"}}, {"name": "ed38459b546ebc00935fccef78163d71", "lon": -77.03389066666666, "lat": 38.928463, "type": "electric_scooter", "fusion_lon": 0.0, "is_reserved": 0, "bike_id": "ed38459b546ebc00935fccef78163d71", "fusion_lat": 0.0, "is_disabled": 0, "rental_uris": {"ios": "https://dc.lft.to/lastmile_qr_scan", "android": "https://dc.lft.to/lastmile_qr_scan"}}, {"name": "3452bd8b3753d1d9e35e340a0e38e20f", "lon": -77.025297, "lat": 38.942613, "type": "electric_scooter", "fusion_lon": 0.0, "is_reserved": 0, "bike_id": "3452bd8b3753d1d9e35e340a0e38e20f", "fusion_lat": 0.0, "is_disabled": 0, "rental_uris": {"ios": "https://dc.lft.to/lastmile_qr_scan", "android": "https://dc.lft.to/lastmile_qr_scan"}}, {"name": "aef945db5f020c659f7cae059afbc711", "lon": -77.033744, "lat": 38.91037883333333, "type": "electric_scooter", "fusion_lon": 0.0, "is_reserved": 0, "bike_id": "aef945db5f020c659f7cae059afbc711", "fusion_lat": 0.0, "is_disabled": 0, "rental_uris": {"ios": "https://dc.lft.to/lastmile_qr_scan", "android": "https://dc.lft.to/lastmile_qr_scan"}}, {"name": "5aac1e575c657dead01650d8133c23b9", "lon": -77.02351083333333, "lat": 38.879297, "type": "electric_scooter", "fusion_lon": 0.0, "is_reserved": 0, "bike_id": "5aac1e575c657dead01650d8133c23b9", "fusion_lat": 0.0, "is_disabled": 0, "rental_uris": {"ios": "https://dc.lft.to/lastmile_qr_scan", "android": "https://dc.lft.to/lastmile_qr_scan"}}, {"name": "33c7ba9bd37d4b73d0945681539d70ec", "lon": -77.00937966666666, "lat": 38.91337433333333, "type": "electric_scooter", "fusion_lon": 0.0, "is_reserved": 0, "bike_id": "33c7ba9bd37d4b73d0945681539d70ec", "fusion_lat": 0.0, "is_disabled": 0, "rental_uris": {"ios": "https://dc.lft.to/lastmile_qr_scan", "android": "https://dc.lft.to/lastmile_qr_scan"}}, {"name": "7222463195df5f46abea6263e8ef1216", "lon": -77.07311233333333, "lat": 38.935711833333336, "type": "electric_scooter", "fusion_lon": 0.0, "is_reserved": 0, "bike_id": "7222463195df5f46abea6263e8ef1216", "fusion_lat": 0.0, "is_disabled": 0, "rental_uris": {"ios": "https://dc.lft.to/lastmile_qr_scan", "android": "https://dc.lft.to/lastmile_qr_scan"}}, {"name": "dca2bbbeaeae7e381e1d37e035eb8efc", "lon": -77.02424683333334, "lat": 38.956301333333336, "type": "electric_scooter", "fusion_lon": 0.0, "is_reserved": 0, "bike_id": "dca2bbbeaeae7e381e1d37e035eb8efc", "fusion_lat": 0.0, "is_disabled": 0, "rental_uris": {"ios": "https://dc.lft.to/lastmile_qr_scan", "android": "https://dc.lft.to/lastmile_qr_scan"}}, {"name": "15812dedf7ca4541712c0e25eb68176d", "lon": -76.98537166666667, "lat": 38.90954683333333, "type": "electric_scooter", "fusion_lon": 0.0, "is_reserved": 0, "bike_id": "15812dedf7ca4541712c0e25eb68176d", "fusion_lat": 0.0, "is_disabled": 0, "rental_uris": {"ios": "https://dc.lft.to/lastmile_qr_scan", "android": "https://dc.lft.to/lastmile_qr_scan"}}, {"name": "614ca1db8081208f44a2de83fedbfa04", "lon": -77.0433755, "lat": 38.895358333333334, "type": "electric_scooter", "fusion_lon": 0.0, "is_reserved": 0, "bike_id": "614ca1db8081208f44a2de83fedbfa04", "fusion_lat": 0.0, "is_disabled": 0, "rental_uris": {"ios": "https://dc.lft.to/lastmile_qr_scan", "android": "https://dc.lft.to/lastmile_qr_scan"}}, {"name": "12fd3bd83c1768c1d22a018acab484e7", "lon": -77.08592533333334, "lat": 38.90870116666667, "type": "electric_scooter", "fusion_lon": 0.0, "is_reserved": 0, "bike_id": "12fd3bd83c1768c1d22a018acab484e7", "fusion_lat": 0.0, "is_disabled": 0, "rental_uris": {"ios": "https://dc.lft.to/lastmile_qr_scan", "android": "https://dc.lft.to/lastmile_qr_scan"}}, {"name": "4ad161e082c9cf29cd47fc244c85a78d", "lon": -77.04390466666666, "lat": 38.91087616666667, "type": "electric_scooter", "fusion_lon": 0.0, "is_reserved": 0, "bike_id": "4ad161e082c9cf29cd47fc244c85a78d", "fusion_lat": 0.0, "is_disabled": 0, "rental_uris": {"ios": "https://dc.lft.to/lastmile_qr_scan", "android": "https://dc.lft.to/lastmile_qr_scan"}}, {"name": "773be85f356cdba78d73ae5978d646e5", "lon": -76.9995085, "lat": 38.842952833333335, "type": "electric_scooter", "fusion_lon": 0.0, "is_reserved": 0, "bike_id": "773be85f356cdba78d73ae5978d646e5", "fusion_lat": 0.0, "is_disabled": 0, "rental_uris": {"ios": "https://dc.lft.to/lastmile_qr_scan", "android": "https://dc.lft.to/lastmile_qr_scan"}}, {"name": "b4e816835a66c30ddee3c0d9ea894e71", "lon": -76.95018533333334, "lat": 38.893893166666665, "type": "electric_scooter", "fusion_lon": 0.0, "is_reserved": 0, "bike_id": "b4e816835a66c30ddee3c0d9ea894e71", "fusion_lat": 0.0, "is_disabled": 0, "rental_uris": {"ios": "https://dc.lft.to/lastmile_qr_scan", "android": "https://dc.lft.to/lastmile_qr_scan"}}, {"name": "ce594893622ce58c44a0f8dfddfa802c", "lon": -77.0335, "lat": 38.8862655, "type": "electric_scooter", "fusion_lon": 0.0, "is_reserved": 0, "bike_id": "ce594893622ce58c44a0f8dfddfa802c", "fusion_lat": 0.0, "is_disabled": 0, "rental_uris": {"ios": "https://dc.lft.to/lastmile_qr_scan", "android": "https://dc.lft.to/lastmile_qr_scan"}}, {"name": "270ab6b7a973af389ff5d9bc535d006c", "lon": -76.9646715, "lat": 38.9344955, "type": "electric_scooter", "fusion_lon": 0.0, "is_reserved": 0, "bike_id": "270ab6b7a973af389ff5d9bc535d006c", "fusion_lat": 0.0, "is_disabled": 0, "rental_uris": {"ios": "https://dc.lft.to/lastmile_qr_scan", "android": "https://dc.lft.to/lastmile_qr_scan"}}, {"name": "13b978aec86450cc06eb77affbbfea57", "lon": -77.03646716666667, "lat": 38.91011366666667, "type": "electric_scooter", "fusion_lon": 0.0, "is_reserved": 0, "bike_id": "13b978aec86450cc06eb77affbbfea57", "fusion_lat": 0.0, "is_disabled": 0, "rental_uris": {"ios": "https://dc.lft.to/lastmile_qr_scan", "android": "https://dc.lft.to/lastmile_qr_scan"}}, {"name": "fd522d48d6df7a4de1d7edc1b90f11f0", "lon": -77.023345, "lat": 38.924778333333336, "type": "electric_scooter", "fusion_lon": 0.0, "is_reserved": 0, "bike_id": "fd522d48d6df7a4de1d7edc1b90f11f0", "fusion_lat": 0.0, "is_disabled": 0, "rental_uris": {"ios": "https://dc.lft.to/lastmile_qr_scan", "android": "https://dc.lft.to/lastmile_qr_scan"}}, {"name": "340eb75e20460d7f92ccf6b1ea38b6d6", "lon": -77.01983133333333, "lat": 38.899739333333336, "type": "electric_scooter", "fusion_lon": 0.0, "is_reserved": 0, "bike_id": "340eb75e20460d7f92ccf6b1ea38b6d6", "fusion_lat": 0.0, "is_disabled": 0, "rental_uris": {"ios": "https://dc.lft.to/lastmile_qr_scan", "android": "https://dc.lft.to/lastmile_qr_scan"}}, {"name": "4b5470b91ae005ffda4ffbdfce6772fb", "lon": -77.03211683333333, "lat": 38.914894333333336, "type": "electric_scooter", "fusion_lon": 0.0, "is_reserved": 0, "bike_id": "4b5470b91ae005ffda4ffbdfce6772fb", "fusion_lat": 0.0, "is_disabled": 0, "rental_uris": {"ios": "https://dc.lft.to/lastmile_qr_scan", "android": "https://dc.lft.to/lastmile_qr_scan"}}, {"name": "f73788b1771765e23c23c6e0951480ce", "lon": -76.974771, "lat": 38.90348916666667, "type": "electric_scooter", "fusion_lon": 0.0, "is_reserved": 0, "bike_id": "f73788b1771765e23c23c6e0951480ce", "fusion_lat": 0.0, "is_disabled": 0, "rental_uris": {"ios": "https://dc.lft.to/lastmile_qr_scan", "android": "https://dc.lft.to/lastmile_qr_scan"}}, {"name": "8b3703fab08b5f6e30647cb14d9acae0", "lon": -77.0948315, "lat": 39.030476166666666, "type": "electric_bike", "fusion_lon": 0.0, "is_reserved": 0, "bike_id": "8b3703fab08b5f6e30647cb14d9acae0", "fusion_lat": 0.0, "is_disabled": 0, "rental_uris": {"ios": "https://dc.lft.to/lastmile_qr_scan", "android": "https://dc.lft.to/lastmile_qr_scan"}}, {"name": "abb24e089b6f23864a672f0c9230ccb3", "lon": -77.02699, "lat": 38.90869216666667, "type": "electric_scooter", "fusion_lon": 0.0, "is_reserved": 0, "bike_id": "abb24e089b6f23864a672f0c9230ccb3", "fusion_lat": 0.0, "is_disabled": 0, "rental_uris": {"ios": "https://dc.lft.to/lastmile_qr_scan", "android": "https://dc.lft.to/lastmile_qr_scan"}}, {"name": "4f1c2121491afdb507f3f72c1b382c5c", "lon": -77.03727783333333, "lat": 38.911229, "type": "electric_scooter", "fusion_lon": 0.0, "is_reserved": 0, "bike_id": "4f1c2121491afdb507f3f72c1b382c5c", "fusion_lat": 0.0, "is_disabled": 0, "rental_uris": {"ios": "https://dc.lft.to/lastmile_qr_scan", "android": "https://dc.lft.to/lastmile_qr_scan"}}, {"name": "4c0ed37e335178a3a7d907697c7b7746", "lon": -77.04656216666666, "lat": 38.902243666666664, "type": "electric_scooter", "fusion_lon": 0.0, "is_reserved": 0, "bike_id": "4c0ed37e335178a3a7d907697c7b7746", "fusion_lat": 0.0, "is_disabled": 0, "rental_uris": {"ios": "https://dc.lft.to/lastmile_qr_scan", "android": "https://dc.lft.to/lastmile_qr_scan"}}, {"name": "a7b97b9006977fd30b09b21fb146b6e5", "lon": -76.97427433333333, "lat": 38.904501333333336, "type": "electric_scooter", "fusion_lon": 0.0, "is_reserved": 0, "bike_id": "a7b97b9006977fd30b09b21fb146b6e5", "fusion_lat": 0.0, "is_disabled": 0, "rental_uris": {"ios": "https://dc.lft.to/lastmile_qr_scan", "android": "https://dc.lft.to/lastmile_qr_scan"}}, {"name": "6726030021791e2c926428f08d7d3138", "lon": -77.0183325, "lat": 38.87727966666667, "type": "electric_scooter", "fusion_lon": 0.0, "is_reserved": 0, "bike_id": "6726030021791e2c926428f08d7d3138", "fusion_lat": 0.0, "is_disabled": 0, "rental_uris": {"ios": "https://dc.lft.to/lastmile_qr_scan", "android": "https://dc.lft.to/lastmile_qr_scan"}}, {"name": "ca4d3f0a2d940c71861864b36f68a6c7", "lon": -77.020741, "lat": 38.875635833333334, "type": "electric_scooter", "fusion_lon": 0.0, "is_reserved": 0, "bike_id": "ca4d3f0a2d940c71861864b36f68a6c7", "fusion_lat": 0.0, "is_disabled": 0, "rental_uris": {"ios": "https://dc.lft.to/lastmile_qr_scan", "android": "https://dc.lft.to/lastmile_qr_scan"}}, {"name": "1293dfc91b4dcf551bf2c59741726e81", "lon": -77.02513733333333, "lat": 38.92062416666667, "type": "electric_scooter", "fusion_lon": 0.0, "is_reserved": 0, "bike_id": "1293dfc91b4dcf551bf2c59741726e81", "fusion_lat": 0.0, "is_disabled": 0, "rental_uris": {"ios": "https://dc.lft.to/lastmile_qr_scan", "android": "https://dc.lft.to/lastmile_qr_scan"}}, {"name": "394620b5c9881c1538d00839eadec27a", "lon": -77.02823416666666, "lat": 38.887365, "type": "electric_scooter", "fusion_lon": 0.0, "is_reserved": 0, "bike_id": "394620b5c9881c1538d00839eadec27a", "fusion_lat": 0.0, "is_disabled": 0, "rental_uris": {"ios": "https://dc.lft.to/lastmile_qr_scan", "android": "https://dc.lft.to/lastmile_qr_scan"}}, {"name": "7983b78cb42dc7f2db0c751c94ca2cd6", "lon": -77.052282, "lat": 38.924657333333336, "type": "electric_scooter", "fusion_lon": 0.0, "is_reserved": 0, "bike_id": "7983b78cb42dc7f2db0c751c94ca2cd6", "fusion_lat": 0.0, "is_disabled": 0, "rental_uris": {"ios": "https://dc.lft.to/lastmile_qr_scan", "android": "https://dc.lft.to/lastmile_qr_scan"}}, {"name": "7ec6903b9ef0e4f68b56f045a7e65fcd", "lon": -77.02777466666667, "lat": 38.95424216666667, "type": "electric_scooter", "fusion_lon": 0.0, "is_reserved": 0, "bike_id": "7ec6903b9ef0e4f68b56f045a7e65fcd", "fusion_lat": 0.0, "is_disabled": 0, "rental_uris": {"ios": "https://dc.lft.to/lastmile_qr_scan", "android": "https://dc.lft.to/lastmile_qr_scan"}}, {"name": "f53b36e45a42631aa1ceef94de35a4ab", "lon": -77.0502825, "lat": 38.90619383333333, "type": "electric_scooter", "fusion_lon": 0.0, "is_reserved": 0, "bike_id": "f53b36e45a42631aa1ceef94de35a4ab", "fusion_lat": 0.0, "is_disabled": 0, "rental_uris": {"ios": "https://dc.lft.to/lastmile_qr_scan", "android": "https://dc.lft.to/lastmile_qr_scan"}}, {"name": "9509d834a049d68303204e1e2a222219", "lon": -76.98992433333333, "lat": 38.863895166666666, "type": "electric_bike", "fusion_lon": 0.0, "is_reserved": 0, "bike_id": "9509d834a049d68303204e1e2a222219", "fusion_lat": 0.0, "is_disabled": 0, "rental_uris": {"ios": "https://dc.lft.to/lastmile_qr_scan", "android": "https://dc.lft.to/lastmile_qr_scan"}}, {"name": "0beba5ea70958c836b92640c8d18e70f", "lon": -77.03302166666667, "lat": 38.95639366666666, "type": "electric_scooter", "fusion_lon": 0.0, "is_reserved": 0, "bike_id": "0beba5ea70958c836b92640c8d18e70f", "fusion_lat": 0.0, "is_disabled": 0, "rental_uris": {"ios": "https://dc.lft.to/lastmile_qr_scan", "android": "https://dc.lft.to/lastmile_qr_scan"}}, {"name": "4141f38f08ad72b7c963460c80408ce1", "lon": -77.04180533333333, "lat": 38.920395166666665, "type": "electric_scooter", "fusion_lon": 0.0, "is_reserved": 0, "bike_id": "4141f38f08ad72b7c963460c80408ce1", "fusion_lat": 0.0, "is_disabled": 0, "rental_uris": {"ios": "https://dc.lft.to/lastmile_qr_scan", "android": "https://dc.lft.to/lastmile_qr_scan"}}, {"name": "6252b5bd9fec72c89abab5fccff4f28c", "lon": -77.05862216666667, "lat": 38.9360855, "type": "electric_scooter", "fusion_lon": 0.0, "is_reserved": 0, "bike_id": "6252b5bd9fec72c89abab5fccff4f28c", "fusion_lat": 0.0, "is_disabled": 0, "rental_uris": {"ios": "https://dc.lft.to/lastmile_qr_scan", "android": "https://dc.lft.to/lastmile_qr_scan"}}, {"name": "1bd940a90d04ae60c342447b07c54443", "lon": -77.04606016666666, "lat": 38.9024745, "type": "electric_scooter", "fusion_lon": 0.0, "is_reserved": 0, "bike_id": "1bd940a90d04ae60c342447b07c54443", "fusion_lat": 0.0, "is_disabled": 0, "rental_uris": {"ios": "https://dc.lft.to/lastmile_qr_scan", "android": "https://dc.lft.to/lastmile_qr_scan"}}, {"name": "3c1ad0d0627f42d9001ff8da50e81715", "lon": -77.0317075, "lat": 38.91774433333333, "type": "electric_scooter", "fusion_lon": 0.0, "is_reserved": 0, "bike_id": "3c1ad0d0627f42d9001ff8da50e81715", "fusion_lat": 0.0, "is_disabled": 0, "rental_uris": {"ios": "https://dc.lft.to/lastmile_qr_scan", "android": "https://dc.lft.to/lastmile_qr_scan"}}, {"name": "198e9613f7442ddc9a7cc627f66ecc95", "lon": -77.10600383333333, "lat": 38.9289475, "type": "electric_bike", "fusion_lon": 0.0, "is_reserved": 0, "bike_id": "198e9613f7442ddc9a7cc627f66ecc95", "fusion_lat": 0.0, "is_disabled": 0, "rental_uris": {"ios": "https://dc.lft.to/lastmile_qr_scan", "android": "https://dc.lft.to/lastmile_qr_scan"}}, {"name": "631cb770f0b4f1ce2ae9e89046cf159a", "lon": -77.01183633333333, "lat": 38.903166, "type": "electric_scooter", "fusion_lon": 0.0, "is_reserved": 0, "bike_id": "631cb770f0b4f1ce2ae9e89046cf159a", "fusion_lat": 0.0, "is_disabled": 0, "rental_uris": {"ios": "https://dc.lft.to/lastmile_qr_scan", "android": "https://dc.lft.to/lastmile_qr_scan"}}, {"name": "e3bf388778695ae17cb6034636a48418", "lon": -76.94960916666666, "lat": 38.89366116666667, "type": "electric_scooter", "fusion_lon": 0.0, "is_reserved": 0, "bike_id": "e3bf388778695ae17cb6034636a48418", "fusion_lat": 0.0, "is_disabled": 0, "rental_uris": {"ios": "https://dc.lft.to/lastmile_qr_scan", "android": "https://dc.lft.to/lastmile_qr_scan"}}, {"name": "bb5b31a8c8d880ba55fc82d47e83d592", "lon": -77.02305983333333, "lat": 38.928368166666665, "type": "electric_scooter", "fusion_lon": 0.0, "is_reserved": 0, "bike_id": "bb5b31a8c8d880ba55fc82d47e83d592", "fusion_lat": 0.0, "is_disabled": 0, "rental_uris": {"ios": "https://dc.lft.to/lastmile_qr_scan", "android": "https://dc.lft.to/lastmile_qr_scan"}}, {"name": "578733943dfac216525ab0f92733aa82", "lon": -77.0443555, "lat": 38.9057485, "type": "electric_scooter", "fusion_lon": 0.0, "is_reserved": 0, "bike_id": "578733943dfac216525ab0f92733aa82", "fusion_lat": 0.0, "is_disabled": 0, "rental_uris": {"ios": "https://dc.lft.to/lastmile_qr_scan", "android": "https://dc.lft.to/lastmile_qr_scan"}}, {"name": "4f6f0368253649f106dcdf3086c3dfb7", "lon": -77.032161, "lat": 38.91789383333333, "type": "electric_scooter", "fusion_lon": 0.0, "is_reserved": 0, "bike_id": "4f6f0368253649f106dcdf3086c3dfb7", "fusion_lat": 0.0, "is_disabled": 0, "rental_uris": {"ios": "https://dc.lft.to/lastmile_qr_scan", "android": "https://dc.lft.to/lastmile_qr_scan"}}, {"name": "54637c6541d7fbf6a06476d3288521b5", "lon": -76.9962825, "lat": 38.9218645, "type": "electric_scooter", "fusion_lon": 0.0, "is_reserved": 0, "bike_id": "54637c6541d7fbf6a06476d3288521b5", "fusion_lat": 0.0, "is_disabled": 0, "rental_uris": {"ios": "https://dc.lft.to/lastmile_qr_scan", "android": "https://dc.lft.to/lastmile_qr_scan"}}, {"name": "1e0d4e9301b7ccb794f10e99f2235358", "lon": -77.03120983333334, "lat": 38.915637, "type": "electric_scooter", "fusion_lon": 0.0, "is_reserved": 0, "bike_id": "1e0d4e9301b7ccb794f10e99f2235358", "fusion_lat": 0.0, "is_disabled": 0, "rental_uris": {"ios": "https://dc.lft.to/lastmile_qr_scan", "android": "https://dc.lft.to/lastmile_qr_scan"}}, {"name": "a6a1b8cc4cc9eeeb9b5e2b233182d027", "lon": -77.04149966666667, "lat": 38.91919983333333, "type": "electric_scooter", "fusion_lon": 0.0, "is_reserved": 0, "bike_id": "a6a1b8cc4cc9eeeb9b5e2b233182d027", "fusion_lat": 0.0, "is_disabled": 0, "rental_uris": {"ios": "https://dc.lft.to/lastmile_qr_scan", "android": "https://dc.lft.to/lastmile_qr_scan"}}, {"name": "01637228e77d1912717088dac451f509", "lon": -76.99775666666666, "lat": 38.844274, "type": "electric_scooter", "fusion_lon": 0.0, "is_reserved": 0, "bike_id": "01637228e77d1912717088dac451f509", "fusion_lat": 0.0, "is_disabled": 0, "rental_uris": {"ios": "https://dc.lft.to/lastmile_qr_scan", "android": "https://dc.lft.to/lastmile_qr_scan"}}, {"name": "81a1452bb885ad20a59ca2cb9203b792", "lon": -77.04861266666667, "lat": 38.915286, "type": "electric_scooter", "fusion_lon": 0.0, "is_reserved": 0, "bike_id": "81a1452bb885ad20a59ca2cb9203b792", "fusion_lat": 0.0, "is_disabled": 0, "rental_uris": {"ios": "https://dc.lft.to/lastmile_qr_scan", "android": "https://dc.lft.to/lastmile_qr_scan"}}, {"name": "c43584314c720a0cd668588f7024430b", "lon": -76.95753, "lat": 38.884345833333334, "type": "electric_scooter", "fusion_lon": 0.0, "is_reserved": 0, "bike_id": "c43584314c720a0cd668588f7024430b", "fusion_lat": 0.0, "is_disabled": 0, "rental_uris": {"ios": "https://dc.lft.to/lastmile_qr_scan", "android": "https://dc.lft.to/lastmile_qr_scan"}}, {"name": "1f14cea802dfce71c087bac6d85b176e", "lon": -77.04171183333334, "lat": 38.91831766666667, "type": "electric_scooter", "fusion_lon": 0.0, "is_reserved": 0, "bike_id": "1f14cea802dfce71c087bac6d85b176e", "fusion_lat": 0.0, "is_disabled": 0, "rental_uris": {"ios": "https://dc.lft.to/lastmile_qr_scan", "android": "https://dc.lft.to/lastmile_qr_scan"}}, {"name": "5b5f22c76bf7059f34d1a20bce27a4bd", "lon": -77.03270933333333, "lat": 38.93254983333333, "type": "electric_scooter", "fusion_lon": 0.0, "is_reserved": 0, "bike_id": "5b5f22c76bf7059f34d1a20bce27a4bd", "fusion_lat": 0.0, "is_disabled": 0, "rental_uris": {"ios": "https://dc.lft.to/lastmile_qr_scan", "android": "https://dc.lft.to/lastmile_qr_scan"}}, {"name": "b7626e166435dcff29a8c74a515b6909", "lon": -77.02476433333334, "lat": 38.92067633333333, "type": "electric_scooter", "fusion_lon": 0.0, "is_reserved": 0, "bike_id": "b7626e166435dcff29a8c74a515b6909", "fusion_lat": 0.0, "is_disabled": 0, "rental_uris": {"ios": "https://dc.lft.to/lastmile_qr_scan", "android": "https://dc.lft.to/lastmile_qr_scan"}}, {"name": "01e685f940f73e58940c08f039860650", "lon": -77.02897566666667, "lat": 38.887543, "type": "electric_scooter", "fusion_lon": 0.0, "is_reserved": 0, "bike_id": "01e685f940f73e58940c08f039860650", "fusion_lat": 0.0, "is_disabled": 0, "rental_uris": {"ios": "https://dc.lft.to/lastmile_qr_scan", "android": "https://dc.lft.to/lastmile_qr_scan"}}, {"name": "a73da5ee9a73763460aeec4b5e2e1872", "lon": -77.00337366666666, "lat": 38.889894166666664, "type": "electric_scooter", "fusion_lon": 0.0, "is_reserved": 0, "bike_id": "a73da5ee9a73763460aeec4b5e2e1872", "fusion_lat": 0.0, "is_disabled": 0, "rental_uris": {"ios": "https://dc.lft.to/lastmile_qr_scan", "android": "https://dc.lft.to/lastmile_qr_scan"}}, {"name": "f5ffc9b8cff9f4b878300eb37f42b2fd", "lon": -77.0499655, "lat": 38.892323166666664, "type": "electric_scooter", "fusion_lon": 0.0, "is_reserved": 0, "bike_id": "f5ffc9b8cff9f4b878300eb37f42b2fd", "fusion_lat": 0.0, "is_disabled": 0, "rental_uris": {"ios": "https://dc.lft.to/lastmile_qr_scan", "android": "https://dc.lft.to/lastmile_qr_scan"}},