{"data": {"bikes": [{"rental_uris": {"ios": "https://dc.lft.to/lastmile_qr_scan", "android": "https://dc.lft.to/lastmile_qr_scan"}, "is_disabled": 0, "bike_id": "ebdd7d625f0c40def967acd0f0e45ccf", "fusion_lon": 0.0, "fusion_lat": 0.0, "is_reserved": 0, "type": "electric_scooter", "lon": -76.9831055, "name": "ebdd7d625f0c40def967acd0f0e45ccf", "lat": 38.8689555}, {"rental_uris": {"ios": "https://dc.lft.to/lastmile_qr_scan", "android": "https://dc.lft.to/lastmile_qr_scan"}, "is_disabled": 0, "bike_id": "044e27d476273c7bd3854c267bc86222", "fusion_lon": 0.0, "fusion_lat": 0.0, "is_reserved": 0, "type": "electric_scooter", "lon": -77.04483066666667, "name": "044e27d476273c7bd3854c267bc86222", "lat": 38.91272933333333}, {"rental_uris": {"ios": "https://dc.lft.to/lastmile_qr_scan", "android": "https://dc.lft.to/lastmile_qr_scan"}, "is_disabled": 0, "bike_id": "56879c85ae992a98b445ab0d0a91bf1f", "fusion_lon": 0.0, "fusion_lat": 0.0, "is_reserved": 0, "type": "electric_scooter", "lon": -76.99269666666666, "name": "56879c85ae992a98b445ab0d0a91bf1f", "lat": 38.90214433333333}, {"rental_uris": {"ios": "https://dc.lft.to/lastmile_qr_scan", "android": "https://dc.lft.to/lastmile_qr_scan"}, "is_disabled": 0, "bike_id": "582b8adaa2f6339bf0c447d119737833", "fusion_lon": 0.0, "fusion_lat": 0.0, "is_reserved": 0, "type": "electric_scooter", "lon": -77.07981716666667, "name": "582b8adaa2f6339bf0c447d119737833", "lat": 38.919497}, {"rental_uris": {"ios": "https://dc.lft.to/lastmile_qr_scan", "android": "https://dc.lft.to/lastmile_qr_scan"}, "is_disabled": 0, "bike_id": "a8eb1e9028ce75c92fe159f4d63a7dd4", "fusion_lon": 0.0, "fusion_lat": 0.0, "is_reserved": 0, "type": "electric_scooter", "lon": -76.99727416666667, "name": "a8eb1e9028ce75c92fe159f4d63a7dd4", "lat": 38.8989885}, {"rental_uris": {"ios": "https://dc.lft.to/lastmile_qr_scan", "android": "https://dc.lft.to/lastmile_qr_scan"}, "is_disabled": 0, "bike_id": "19cd69f137b4da4c6fec223e3b68b3c6", "fusion_lon": 0.0, "fusion_lat": 0.0, "is_reserved": 0, "type": "electric_scooter", "lon": -77.021841, "name": "19cd69f137b4da4c6fec223e3b68b3c6", "lat": 38.90985283333333}, {"rental_uris": {"ios": "https://dc.lft.to/lastmile_qr_scan", "android": "https://dc.lft.to/lastmile_qr_scan"}, "is_disabled": 0, "bike_id": "37c5ebd217cd307ccdece6fe2b543059", "fusion_lon": 0.0, "fusion_lat": 0.0, "is_reserved": 0, "type": "electric_scooter", "lon": -76.93171433333333, "name": "37c5ebd217cd307ccdece6fe2b543059", "lat": 38.8988635}, {"rental_uris": {"ios": "https://dc.lft.to/lastmile_qr_scan", "android": "https://dc.lft.to/lastmile_qr_scan"}, "is_disabled": 0, "bike_id": "861bac9d0e82b18b6d5e95d766ab15fc", "fusion_lon": 0.0, "fusion_lat": 0.0, "is_reserved": 0, "type": "electric_scooter", "lon": -77.00330483333333, "name": "861bac9d0e82b18b6d5e95d766ab15fc", "lat": 38.893658333333335}, {"rental_uris": {"ios": "https://dc.lft.to/lastmile_qr_scan", "android": "https://dc.lft.to/lastmile_qr_scan"}, "is_disabled": 0, "bike_id": "5faefe4c4a37bed14c9943dd2f4585b4", "fusion_lon": 0.0, "fusion_lat": 0.0, "is_reserved": 0, "type": "electric_scooter", "lon": -77.008848, "name": "5faefe4c4a37bed14c9943dd2f4585b4", "lat": 38.9058485}, {"rental_uris": {"ios": "https://dc.lft.to/lastmile_qr_scan", "android": "https://dc.lft.to/lastmile_qr_scan"}, "is_disabled": 0, "bike_id": "9ecb6f6357288fd843e6cf75c2f01b5c", "fusion_lon": 0.0, "fusion_lat": 0.0, "is_reserved": 0, "type": "electric_scooter", "lon": -77.029891, "name": "9ecb6f6357288fd843e6cf75c2f01b5c", "lat": 38.920480166666664}, {"rental_uris": {"ios": "https://dc.lft.to/lastmile_qr_scan", "android": "https://dc.lft.to/lastmile_qr_scan"}, "is_disabled": 0, "bike_id": "446decb3bacb48d2021bd53fe625210a", "fusion_lon": 0.0, "fusion_lat": 0.0, "is_reserved": 0, "type": "electric_bike", "lon": -77.010739, "name": "446decb3bacb48d2021bd53fe625210a", "lat": 38.9177165}, {"rental_uris": {"ios": "https://dc.lft.to/lastmile_qr_scan", "android": "https://dc.lft.to/lastmile_qr_scan"}, "is_disabled": 0, "bike_id": "b984def51de4052391fc5c7e0577061d", "fusion_lon": 0.0, "fusion_lat": 0.0, "is_reserved": 0, "type": "electric_scooter", "lon": -77.02789883333334, "name": "b984def51de4052391fc5c7e0577061d", "lat": 38.899348833333335}, {"rental_uris": {"ios": "https://dc.lft.to/lastmile_qr_scan", "android": "https://dc.lft.to/lastmile_qr_scan"}, "is_disabled": 0, "bike_id": "1befa18dad97581dc5d95d1fdf8c3ae9", "fusion_lon": 0.0, "fusion_lat": 0.0, "is_reserved": 0, "type": "electric_scooter", "lon": -76.995112, "name": "1befa18dad97581dc5d95d1fdf8c3ae9", "lat": 38.881392}, {"rental_uris": {"ios": "https://dc.lft.to/lastmile_qr_scan", "android": "https://dc.lft.to/lastmile_qr_scan"}, "is_disabled": 0, "bike_id": "287cec92a6fd2bbec7694f63df952701", "fusion_lon": 0.0, "fusion_lat": 0.0, "is_reserved": 0, "type": "electric_scooter", "lon": -77.005718, "name": "287cec92a6fd2bbec7694f63df952701", "lat": 38.905748}, {"rental_uris": {"ios": "https://dc.lft.to/lastmile_qr_scan", "android": "https://dc.lft.to/lastmile_qr_scan"}, "is_disabled": 0, "bike_id": "0748a84a2d24ea6cd1caff88f22f27b7", "fusion_lon": 0.0, "fusion_lat": 0.0, "is_reserved": 0, "type": "electric_scooter", "lon": -76.99148783333334, "name": "0748a84a2d24ea6cd1caff88f22f27b7", "lat": 38.8590855}, {"rental_uris": {"ios": "https://dc.lft.to/lastmile_qr_scan", "android": "https://dc.lft.to/lastmile_qr_scan"}, "is_disabled": 0, "bike_id": "f05f51906f0812e9db7cd115f631324f", "fusion_lon": 0.0, "fusion_lat": 0.0, "is_reserved": 0, "type": "electric_scooter", "lon": -76.93350283333334, "name": "f05f51906f0812e9db7cd115f631324f", "lat": 38.899101333333334}, {"rental_uris": {"ios": "https://dc.lft.to/lastmile_qr_scan", "android": "https://dc.lft.to/lastmile_qr_scan"}, "is_disabled": 0, "bike_id": "25ce7aba764e9b1f16aeba9d89953d8c", "fusion_lon": 0.0, "fusion_lat": 0.0, "is_reserved": 0, "type": "electric_scooter", "lon": -77.03640516666667, "name": "25ce7aba764e9b1f16aeba9d89953d8c", "lat": 38.91731883333333}, {"rental_uris": {"ios": "https://dc.lft.to/lastmile_qr_scan", "android": "https://dc.lft.to/lastmile_qr_scan"}, "is_disabled": 0, "bike_id": "cba590c93a21db903499714b34679cba", "fusion_lon": 0.0, "fusion_lat": 0.0, "is_reserved": 0, "type": "electric_scooter", "lon": -77.02379016666667, "name": "cba590c93a21db903499714b34679cba", "lat": 38.90225616666667}, {"rental_uris": {"ios": "https://dc.lft.to/lastmile_qr_scan", "android": "https://dc.lft.to/lastmile_qr_scan"}, "is_disabled": 0, "bike_id": "5155ddf3cb44990e0d4ed3391a8e7e28", "fusion_lon": 0.0, "fusion_lat": 0.0, "is_reserved": 0, "type": "electric_scooter", "lon": -77.0532025, "name": "5155ddf3cb44990e0d4ed3391a8e7e28", "lat": 38.91553866666667}, {"rental_uris": {"ios": "https://dc.lft.to/lastmile_qr_scan", "android": "https://dc.lft.to/lastmile_qr_scan"}, "is_disabled": 0, "bike_id": "0bbdc083e98cf1f36aa713ef9f13800d", "fusion_lon": 0.0, "fusion_lat": 0.0, "is_reserved": 0, "type": "electric_scooter", "lon": -77.02513983333333, "name": "0bbdc083e98cf1f36aa713ef9f13800d", "lat": 38.90726266666667}, {"rental_uris": {"ios": "https://dc.lft.to/lastmile_qr_scan", "android": "https://dc.lft.to/lastmile_qr_scan"}, "is_disabled": 0, "bike_id": "e9594cd20ebdc3f37693cc4794d2407a", "fusion_lon": 0.0, "fusion_lat": 0.0, "is_reserved": 0, "type": "electric_scooter", "lon": -77.05056883333333, "name": "e9594cd20ebdc3f37693cc4794d2407a", "lat": 38.923614}, {"rental_uris": {"ios": "https://dc.lft.to/lastmile_qr_scan", "android": "https://dc.lft.to/lastmile_qr_scan"}, "is_disabled": 0, "bike_id": "2299a5652794913009d433ac48cdf3a5", "fusion_lon": 0.0, "fusion_lat": 0.0, "is_reserved": 0, "type": "electric_bike", "lon": -77.10911983333334, "name": "2299a5652794913009d433ac48cdf3a5", "lat": 39.052026166666664}, {"rental_uris": {"ios": "https://dc.lft.to/lastmile_qr_scan", "android": "https://dc.lft.to/lastmile_qr_scan"}, "is_disabled": 0, "bike_id": "0a0fb2227d119c587bed622c8851b499", "fusion_lon": 0.0, "fusion_lat": 0.0, "is_reserved": 0, "type": "electric_scooter", "lon": -77.041298, "name": "0a0fb2227d119c587bed622c8851b499", "lat": 38.94261183333333}, {"rental_uris": {"ios": "https://dc.lft.to/lastmile_qr_scan", "android": "https://dc.lft.to/lastmile_qr_scan"}, "is_disabled": 0, "bike_id": "c6e16ab98ab64b4ebd6724e400caf5d3", "fusion_lon": 0.0, "fusion_lat": 0.0, "is_reserved": 0, "type": "electric_scooter", "lon": -76.9888355, "name": "c6e16ab98ab64b4ebd6724e400caf5d3", "lat": 38.86660833333333}, {"rental_uris": {"ios": "https://dc.lft.to/lastmile_qr_scan", "android": "https://dc.lft.to/lastmile_qr_scan"}, "is_disabled": 0, "bike_id": "980ae6ef2c35e4c2f453461b413026e1", "fusion_lon": 0.0, "fusion_lat": 0.0, "is_reserved": 0, "type": "electric_scooter", "lon": -77.02690683333333, "name": "980ae6ef2c35e4c2f453461b413026e1", "lat": 38.923217333333334}, {"rental_uris": {"ios": "https://dc.lft.to/lastmile_qr_scan", "android": "https://dc.lft.to/lastmile_qr_scan"}, "is_disabled": 0, "bike_id": "61ebea7f0f914d3ae208054a17e570d3", "fusion_lon": 0.0, "fusion_lat": 0.0, "is_reserved": 0, "type": "electric_scooter", "lon": -77.03438733333333, "name": "61ebea7f0f914d3ae208054a17e570d3", "lat": 38.908319666666664}, {"rental_uris": {"ios": "https://dc.lft.to/lastmile_qr_scan", "android": "https://dc.lft.to/lastmile_qr_scan"}, "is_disabled": 0, "bike_id": "62d73f37d48b220fd713ee44a418581d", "fusion_lon": 0.0, "fusion_lat": 0.0, "is_reserved": 0, "type": "electric_scooter", "lon": -77.03416466666667, "name": "62d73f37d48b220fd713ee44a418581d", "lat": 38.905692333333334}, {"rental_uris": {"ios": "https://dc.lft.to/lastmile_qr_scan", "android": "https://dc.lft.to/lastmile_qr_scan"}, "is_disabled": 0, "bike_id": "1134658f302d824d61987acdaf5bb15a", "fusion_lon": 0.0, "fusion_lat": 0.0, "is_reserved": 0, "type": "electric_scooter", "lon": -77.06873866666666, "name": "1134658f302d824d61987acdaf5bb15a", "lat": 38.95278666666667}, {"rental_uris": {"ios": "https://dc.lft.to/lastmile_qr_scan", "android": "https://dc.lft.to/lastmile_qr_scan"}, "is_disabled": 0, "bike_id": "c634b1ec24ccfb8fa4add706cddfe8cb", "fusion_lon": 0.0, "fusion_lat": 0.0, "is_reserved": 0, "type": "electric_scooter", "lon": -77.018351, "name": "c634b1ec24ccfb8fa4add706cddfe8cb", "lat": 38.912689666666665}, {"rental_uris": {"ios": "https://dc.lft.to/lastmile_qr_scan", "android": "https://dc.lft.to/lastmile_qr_scan"}, "is_disabled": 0, "bike_id": "8ad127f2e55443ebcd5c54c48c54bc18", "fusion_lon": 0.0, "fusion_lat": 0.0, "is_reserved": 0, "type": "electric_scooter", "lon": -77.03183266666667, "name": "8ad127f2e55443ebcd5c54c48c54bc18", "lat": 38.912011166666666}, {"rental_uris": {"ios": "https://dc.lft.to/lastmile_qr_scan", "android": "https://dc.lft.to/lastmile_qr_scan"}, "is_disabled": 0, "bike_id": "31340fcf4d7fe58500dc0ab2a6c66234", "fusion_lon": 0.0, "fusion_lat": 0.0, "is_reserved": 0, "type": "electric_bike", "lon": -77.07109233333334, "name": "31340fcf4d7fe58500dc0ab2a6c66234", "lat": 38.800622833333335}, {"rental_uris": {"ios": "https://dc.lft.to/lastmile_qr_scan", "android": "https://dc.lft.to/lastmile_qr_scan"}, "is_disabled": 0, "bike_id": "d73256dba78d97026fb1ce530b13f049", "fusion_lon": 0.0, "fusion_lat": 0.0, "is_reserved": 0, "type": "electric_bike", "lon": -77.22566416666666, "name": "d73256dba78d97026fb1ce530b13f049", "lat": 38.92966166666667}, {"rental_uris": {"ios": "https://dc.lft.to/lastmile_qr_scan", "android": "https://dc.lft.to/lastmile_qr_scan"}, "is_disabled": 0, "bike_id": "e57a1cb37a8a1a6480815e47a87a2f1f", "fusion_lon": 0.0, "fusion_lat": 0.0, "is_reserved": 0, "type": "electric_scooter", "lon": -77.02057983333333, "name": "e57a1cb37a8a1a6480815e47a87a2f1f", "lat": 38.908475}, {"rental_uris": {"ios": "https://dc.lft.to/lastmile_qr_scan", "android": "https://dc.lft.to/lastmile_qr_scan"}, "is_disabled": 0, "bike_id": "7bb26b9d23b7a747909e94dc88af3d08", "fusion_lon": 0.0, "fusion_lat": 0.0, "is_reserved": 0, "type": "electric_scooter", "lon": -77.01997516666667, "name": "7bb26b9d23b7a747909e94dc88af3d08", "lat": 38.914002833333335}, {"rental_uris": {"ios": "https://dc.lft.to/lastmile_qr_scan", "android": "https://dc.lft.to/lastmile_qr_scan"}, "is_disabled": 0, "bike_id": "417b742d1b0f1a54280a48bcde6b21a4", "fusion_lon": 0.0, "fusion_lat": 0.0, "is_reserved": 0, "type": "electric_scooter", "lon": -76.98946366666667, "name": "417b742d1b0f1a54280a48bcde6b21a4", "lat": 38.903953}, {"rental_uris": {"ios": "https://dc.lft.to/lastmile_qr_scan", "android": "https://dc.lft.to/lastmile_qr_scan"}, "is_disabled": 0, "bike_id": "2f33643084daa06e8c4648b668fb5f71", "fusion_lon": 0.0, "fusion_lat": 0.0, "is_reserved": 0, "type": "electric_scooter", "lon": -77.0070565, "name": "2f33643084daa06e8c4648b668fb5f71", "lat": 38.8849295}, {"rental_uris": {"ios": "https://dc.lft.to/lastmile_qr_scan", "android": "https://dc.lft.to/lastmile_qr_scan"}, "is_disabled": 0, "bike_id": "341f9d7386fdfdf98e41a02f38bac9b1", "fusion_lon": 0.0, "fusion_lat": 0.0, "is_reserved": 0, "type": "electric_bike", "lon": -77.01555566666667, "name": "341f9d7386fdfdf98e41a02f38bac9b1", "lat": 38.88514833333333}, {"rental_uris": {"ios": "https://dc.lft.to/lastmile_qr_scan", "android": "https://dc.lft.to/lastmile_qr_scan"}, "is_disabled": 0, "bike_id": "7a54cd643052efab24e19bccd9566c98", "fusion_lon": 0.0, "fusion_lat": 0.0, "is_reserved": 0, "type": "electric_bike", "lon": -77.0632775, "name": "7a54cd643052efab24e19bccd9566c98", "lat": 38.92112266666667}, {"rental_uris": {"ios": "https://dc.lft.to/lastmile_qr_scan", "android": "https://dc.lft.to/lastmile_qr_scan"}, "is_disabled": 0, "bike_id": "a81c67f9aeb3e17509d13e43546ebd85", "fusion_lon": 0.0, "fusion_lat": 0.0, "is_reserved": 0, "type": "electric_scooter", "lon": -76.988855, "name": "a81c67f9aeb3e17509d13e43546ebd85", "lat": 38.8665765}, {"rental_uris": {"ios": "https://dc.lft.to/lastmile_qr_scan", "android": "https://dc.lft.to/lastmile_qr_scan"}, "is_disabled": 0, "bike_id": "fa20b75264ff065ec397d2cfc83f4a28", "fusion_lon": 0.0, "fusion_lat": 0.0, "is_reserved": 0, "type": "electric_scooter", "lon": -77.04206116666667, "name": "fa20b75264ff065ec397d2cfc83f4a28", "lat": 38.92068}, {"rental_uris": {"ios": "https://dc.lft.to/lastmile_qr_scan", "android": "https://dc.lft.to/lastmile_qr_scan"}, "is_disabled": 0, "bike_id": "a897a55264b0bcfe0291daf14e779f2f", "fusion_lon": 0.0, "fusion_lat": 0.0, "is_reserved": 0, "type": "electric_scooter", "lon": -76.99956116666667, "name": "a897a55264b0bcfe0291daf14e779f2f", "lat": 38.8999795}, {"rental_uris": {"ios": "https://dc.lft.to/lastmile_qr_scan", "android": "https://dc.lft.to/lastmile_qr_scan"}, "is_disabled": 0, "bike_id": "0f4f652ddf55d3bbbcde0d3d4a8e44ba", "fusion_lon": 0.0, "fusion_lat": 0.0, "is_reserved": 0, "type": "electric_scooter", "lon": -77.032198, "name": "0f4f652ddf55d3bbbcde0d3d4a8e44ba", "lat": 38.91998483333333}, {"rental_uris": {"ios": "https://dc.lft.to/lastmile_qr_scan", "android": "https://dc.lft.to/lastmile_qr_scan"}, "is_disabled": 0, "bike_id": "d53808859a4236a9ea57de5aa63d7139", "fusion_lon": 0.0, "fusion_lat": 0.0, "is_reserved": 0, "type": "electric_scooter", "lon": -76.9961425, "name": "d53808859a4236a9ea57de5aa63d7139", "lat": 38.88721533333333}, {"rental_uris": {"ios": "https://dc.lft.to/lastmile_qr_scan", "android": "https://dc.lft.to/lastmile_qr_scan"}, "is_disabled": 0, "bike_id": "e577a11b588fc899a1083f9e80ed0506", "fusion_lon": 0.0, "fusion_lat": 0.0, "is_reserved": 0, "type": "electric_scooter", "lon": -77.04428283333333, "name": "e577a11b588fc899a1083f9e80ed0506", "lat": 38.91105066666667}, {"rental_uris": {"ios": "https://dc.lft.to/lastmile_qr_scan", "android": "https://dc.lft.to/lastmile_qr_scan"}, "is_disabled": 0, "bike_id": "4c2b78eb7d1dc0d472e9386b3c41d892", "fusion_lon": 0.0, "fusion_lat": 0.0, "is_reserved": 0, "type": "electric_scooter", "lon": -76.95850416666667, "name": "4c2b78eb7d1dc0d472e9386b3c41d892", "lat": 38.892911833333336}, {"rental_uris": {"ios": "https://dc.lft.to/lastmile_qr_scan", "android": "https://dc.lft.to/lastmile_qr_scan"}, "is_disabled": 0, "bike_id": "ba2c3eee395acc07c54e52dee9199f25", "fusion_lon": 0.0, "fusion_lat": 0.0, "is_reserved": 0, "type": "electric_scooter", "lon": -76.99603783333333, "name": "ba2c3eee395acc07c54e52dee9199f25", "lat": 38.9096935}, {"rental_uris": {"ios": "https://dc.lft.to/lastmile_qr_scan", "android": "https://dc.lft.to/lastmile_qr_scan"}, "is_disabled": 0, "bike_id": "bf47597362e636627da7bea66e8488bd", "fusion_lon": 0.0, "fusion_lat": 0.0, "is_reserved": 0, "type": "electric_scooter", "lon": -76.99087333333334, "name": "bf47597362e636627da7bea66e8488bd", "lat": 38.92954566666667}, {"rental_uris": {"ios": "https://dc.lft.to/lastmile_qr_scan", "android": "https://dc.lft.to/lastmile_qr_scan"}, "is_disabled": 0, "bike_id": "220fa575e3cfe1985e459d09580e36a5", "fusion_lon": 0.0, "fusion_lat": 0.0, "is_reserved": 0, "type": "electric_scooter", "lon": -77.07415383333333, "name": "220fa575e3cfe1985e459d09580e36a5", "lat": 38.9155055}, {"rental_uris": {"ios": "https://dc.lft.to/lastmile_qr_scan", "android": "https://dc.lft.to/lastmile_qr_scan"}, "is_disabled": 0, "bike_id": "3a56d823ad28057cc72ea5b341796956", "fusion_lon": 0.0, "fusion_lat": 0.0, "is_reserved": 0, "type": "electric_scooter", "lon": -77.032048, "name": "3a56d823ad28057cc72ea5b341796956", "lat": 38.911018}, {"rental_uris": {"ios": "https://dc.lft.to/lastmile_qr_scan", "android": "https://dc.lft.to/lastmile_qr_scan"}, "is_disabled": 0, "bike_id": "342306583376922dc6a02f0ff2448bb2", "fusion_lon": 0.0, "fusion_lat": 0.0, "is_reserved": 0, "type": "electric_scooter", "lon": -76.94633216666666, "name": "342306583376922dc6a02f0ff2448bb2", "lat": 38.898464}, {"rental_uris": {"ios": "https://dc.lft.to/lastmile_qr_scan", "android": "https://dc.lft.to/lastmile_qr_scan"}, "is_disabled": 0, "bike_id": "e01893e4cb806446d5e76e96cb2f191e", "fusion_lon": 0.0, "fusion_lat": 0.0, "is_reserved": 0, "type": "electric_scooter", "lon": -77.06452033333333, "name": "e01893e4cb806446d5e76e96cb2f191e", "lat": 38.905195166666665}, {"rental_uris": {"ios": "https://dc.lft.to/lastmile_qr_scan", "android": "https://dc.lft.to/lastmile_qr_scan"}, "is_disabled": 0, "bike_id": "b6342cf0b667e9a69dae4321a1f1707e", "fusion_lon": 0.0, "fusion_lat": 0.0, "is_reserved": 0, "type": "electric_scooter", "lon": -77.0234955, "name": "b6342cf0b667e9a69dae4321a1f1707e", "lat": 38.929599333333336}, {"rental_uris": {"ios": "https://dc.lft.to/lastmile_qr_scan", "android": "https://dc.lft.to/lastmile_qr_scan"}, "is_disabled": 0, "bike_id": "57bd730fa4a13c8f3fc3b40844ee1ee3", "fusion_lon": 0.0, "fusion_lat": 0.0, "is_reserved": 0, "type": "electric_scooter", "lon": -77.0363205, "name": "57bd730fa4a13c8f3fc3b40844ee1ee3", "lat": 38.93719133333333}, {"rental_uris": {"ios": "https://dc.lft.to/lastmile_qr_scan", "android": "https://dc.lft.to/lastmile_qr_scan"}, "is_disabled": 0, "bike_id": "df39545ee9dc589335b6c7b796ceda78", "fusion_lon": 0.0, "fusion_lat": 0.0, "is_reserved": 0, "type": "electric_scooter", "lon": -77.03343616666666, "name": "df39545ee9dc589335b6c7b796ceda78", "lat": 38.928855166666665}, {"rental_uris": {"ios": "https://dc.lft.to/lastmile_qr_scan", "android": "https://dc.lft.to/lastmile_qr_scan"}, "is_disabled": 0, "bike_id": "179b92eed7f49ef3a144767f782e81c9", "fusion_lon": 0.0, "fusion_lat": 0.0, "is_reserved": 0, "type": "electric_scooter", "lon": -76.9499725, "name": "179b92eed7f49ef3a144767f782e81c9", "lat": 38.893925833333334}, {"rental_uris": {"ios": "https://dc.lft.to/lastmile_qr_scan", "android": "https://dc.lft.to/lastmile_qr_scan"}, "is_disabled": 0, "bike_id": "7ed9bb7aa00647ad763275c3cf9660d5", "fusion_lon": 0.0, "fusion_lat": 0.0, "is_reserved": 0, "type": "electric_scooter", "lon": -77.0032845, "name": "7ed9bb7aa00647ad763275c3cf9660d5", "lat": 38.89735566666667}, {"rental_uris": {"ios": "https://dc.lft.to/lastmile_qr_scan", "android": "https://dc.lft.to/lastmile_qr_scan"}, "is_disabled": 0, "bike_id": "75d15bd8cfe038818fcfc73c7074a514", "fusion_lon": 0.0, "fusion_lat": 0.0, "is_reserved": 0, "type": "electric_scooter", "lon": -76.994612, "name": "75d15bd8cfe038818fcfc73c7074a514", "lat": 38.922872166666664}, {"rental_uris": {"ios": "https://dc.lft.to/lastmile_qr_scan", "android": "https://dc.lft.to/lastmile_qr_scan"}, "is_disabled": 0, "bike_id": "8fecbf250d67b1c7e96ceda1c0d2110e", "fusion_lon": 0.0, "fusion_lat": 0.0, "is_reserved": 0, "type": "electric_scooter", "lon": -77.01883216666667, "name": "8fecbf250d67b1c7e96ceda1c0d2110e", "lat": 38.89971716666667}, {"rental_uris": {"ios": "https://dc.lft.to/lastmile_qr_scan", "android": "https://dc.lft.to/lastmile_qr_scan"}, "is_disabled": 0, "bike_id": "3f83bb094ab5ad3528cd96cfa20d4474", "fusion_lon": 0.0, "fusion_lat": 0.0, "is_reserved": 0, "type": "electric_scooter", "lon": -77.0417385, "name": "3f83bb094ab5ad3528cd96cfa20d4474", "lat": 38.91731766666667}, {"rental_uris": {"ios": "https://dc.lft.to/lastmile_qr_scan", "android": "https://dc.lft.to/lastmile_qr_scan"}, "is_disabled": 0, "bike_id": "4b432bbe6c2799642d57414db68c83a9", "fusion_lon": 0.0, "fusion_lat": 0.0, "is_reserved": 0, "type": "electric_scooter", "lon": -77.02185483333334, "name": "4b432bbe6c2799642d57414db68c83a9", "lat": 38.89874666666667}, {"rental_uris": {"ios": "https://dc.lft.to/lastmile_qr_scan", "android": "https://dc.lft.to/lastmile_qr_scan"}, "is_disabled": 0, "bike_id": "809ae5c9fd76424d60ab081450adc187", "fusion_lon": 0.0, "fusion_lat": 0.0, "is_reserved": 0, "type": "electric_scooter", "lon": -77.00048633333333, "name": "809ae5c9fd76424d60ab081450adc187", "lat": 38.884487166666666}, {"rental_uris": {"ios": "https://dc.lft.to/lastmile_qr_scan", "android": "https://dc.lft.to/lastmile_qr_scan"}, "is_disabled": 0, "bike_id": "d8e86f9e56889bca7bae96c768da1747", "fusion_lon": 0.0, "fusion_lat": 0.0, "is_reserved": 0, "type": "electric_scooter", "lon": -77.02096466666667, "name": "d8e86f9e56889bca7bae96c768da1747", "lat": 38.910812166666666}, {"rental_uris": {"ios": "https://dc.lft.to/lastmile_qr_scan", "android": "https://dc.lft.to/lastmile_qr_scan"}, "is_disabled": 0, "bike_id": "3b630a86d228c849a0342b3b7eb575fd", "fusion_lon": 0.0, "fusion_lat": 0.0, "is_reserved": 0, "type": "electric_scooter", "lon": -77.043671, "name": "3b630a86d228c849a0342b3b7eb575fd", "lat": 38.90265383333333}, {"rental_uris": {"ios": "https://dc.lft.to/lastmile_qr_scan", "android": "https://dc.lft.to/lastmile_qr_scan"}, "is_disabled": 0, "bike_id": "8db0e50cfdf5e28a46a540305cbe843d", "fusion_lon": 0.0, "fusion_lat": 0.0, "is_reserved": 0, "type": "electric_scooter", "lon": -77.03497416666667, "name": "8db0e50cfdf5e28a46a540305cbe843d", "lat": 38.91556416666667}, {"rental_uris": {"ios": "https://dc.lft.to/lastmile_qr_scan", "android": "https://dc.lft.to/lastmile_qr_scan"}, "is_disabled": 0, "bike_id": "d5d9ed91295e5af8c7e98f4d284150a8", "fusion_lon": 0.0, "fusion_lat": 0.0, "is_reserved": 0, "type": "electric_scooter", "lon": -76.9854515, "name": "d5d9ed91295e5af8c7e98f4d284150a8", "lat": 38.866903666666666}, {"rental_uris": {"ios": "https://dc.lft.to/lastmile_qr_scan", "android": "https://dc.lft.to/lastmile_qr_scan"}, "is_disabled": 0, "bike_id": "c65270172290d33ecc610df61c5474b2", "fusion_lon": 0.0, "fusion_lat": 0.0, "is_reserved": 0, "type": "electric_scooter", "lon": -77.0468145, "name": "c65270172290d33ecc610df61c5474b2", "lat": 38.9159115}, {"rental_uris": {"ios": "https://dc.lft.to/lastmile_qr_scan", "android": "https://dc.lft.to/lastmile_qr_scan"}, "is_disabled": 0, "bike_id": "21a463067340fd5e848647eea130354d", "fusion_lon": 0.0, "fusion_lat": 0.0, "is_reserved": 0, "type": "electric_scooter", "lon": -77.04679216666666, "name": "21a463067340fd5e848647eea130354d", "lat": 38.917129333333335}, {"rental_uris": {"ios": "https://dc.lft.to/lastmile_qr_scan", "android": "https://dc.lft.to/lastmile_qr_scan"}, "is_disabled": 0, "bike_id": "b30319271ba6574537b22ee0689df776", "fusion_lon": 0.0, "fusion_lat": 0.0, "is_reserved": 0, "type": "electric_scooter", "lon": -77.03456033333333, "name": "b30319271ba6574537b22ee0689df776", "lat": 38.918169166666665}, {"rental_uris": {"ios": "https://dc.lft.to/lastmile_qr_scan", "android": "https://dc.lft.to/lastmile_qr_scan"}, "is_disabled": 0, "bike_id": "e5f1ac8c9f2c727b26d33c394bb1f4f7", "fusion_lon": 0.0, "fusion_lat": 0.0, "is_reserved": 0, "type": "electric_scooter", "lon": -77.02964516666667, "name": "e5f1ac8c9f2c727b26d33c394bb1f4f7", "lat": 38.92327916666667}, {"rental_uris": {"ios": "https://dc.lft.to/lastmile_qr_scan", "android": "https://dc.lft.to/lastmile_qr_scan"}, "is_disabled": 0, "bike_id": "98e8619d58495ff0b64f2775066ff7da", "fusion_lon": 0.0, "fusion_lat": 0.0, "is_reserved": 0, "type": "electric_scooter", "lon": -77.03200583333333, "name": "98e8619d58495ff0b64f2775066ff7da", "lat": 38.914507}, {"rental_uris": {"ios": "https://dc.lft.to/lastmile_qr_scan", "android": "https://dc.lft.to/lastmile_qr_scan"}, "is_disabled": 0, "bike_id": "dd8218b8d2226f7b0aad5a15c3431e47", "fusion_lon": 0.0, "fusion_lat": 0.0, "is_reserved": 0, "type": "electric_scooter", "lon": -77.03162716666667, "name": "dd8218b8d2226f7b0aad5a15c3431e47", "lat": 38.92104283333333}, {"rental_uris": {"ios": "https://dc.lft.to/lastmile_qr_scan", "android": "https://dc.lft.to/lastmile_qr_scan"}, "is_disabled": 0, "bike_id": "0da7ddf3f050fba5adeb4df6e4a7ae71", "fusion_lon": 0.0, "fusion_lat": 0.0, "is_reserved": 0, "type": "electric_scooter", "lon": -76.9336875, "name": "0da7ddf3f050fba5adeb4df6e4a7ae71", "lat": 38.8955325}, {"rental_uris": {"ios": "https://dc.lft.to/lastmile_qr_scan", "android": "https://dc.lft.to/lastmile_qr_scan"}, "is_disabled": 0, "bike_id": "e189a577c0c65b2d50d537dce76ffe8f", "fusion_lon": 0.0, "fusion_lat": 0.0, "is_reserved": 0, "type": "electric_scooter", "lon": -77.06091533333333, "name": "e189a577c0c65b2d50d537dce76ffe8f", "lat": 38.9052135}, {"rental_uris": {"ios": "https://dc.lft.to/lastmile_qr_scan", "android": "https://dc.lft.to/lastmile_qr_scan"}, "is_disabled": 0, "bike_id": "ba05858a568a453fe56d0c8ad9f2ad9b", "fusion_lon": 0.0, "fusion_lat": 0.0, "is_reserved": 0, "type": "electric_scooter", "lon": -77.032881, "name": "ba05858a568a453fe56d0c8ad9f2ad9b", "lat": 38.92889816666667}, {"rental_uris": {"ios": "https://dc.lft.to/lastmile_qr_scan", "android": "https://dc.lft.to/lastmile_qr_scan"}, "is_disabled": 0, "bike_id": "deddb1c576025b05d7a7feaa8a4f308c", "fusion_lon": 0.0, "fusion_lat": 0.0, "is_reserved": 0, "type": "electric_scooter", "lon": -77.02694716666667, "name": "deddb1c576025b05d7a7feaa8a4f308c", "lat": 38.91831116666667}, {"rental_uris": {"ios": "https://dc.lft.to/lastmile_qr_scan", "android": "https://dc.lft.to/lastmile_qr_scan"}, "is_disabled": 0, "bike_id": "9bb0e2fbc191e627903ef981ec5fedf0", "fusion_lon": 0.0, "fusion_lat": 0.0, "is_reserved": 0, "type": "electric_scooter", "lon": -77.0177125, "name": "9bb0e2fbc191e627903ef981ec5fedf0", "lat": 38.90562233333333}, {"rental_uris": {"ios": "https://dc.lft.to/lastmile_qr_scan", "android": "https://dc.lft.to/lastmile_qr_scan"}, "is_disabled": 0, "bike_id": "cc9d6c94d11b414945450c0407869607", "fusion_lon": 0.0, "fusion_lat": 0.0, "is_reserved": 0, "type": "electric_scooter", "lon": -76.98702683333333, "name": "cc9d6c94d11b414945450c0407869607", "lat": 38.86541016666666}, {"rental_uris": {"ios": "https://dc.lft.to/lastmile_qr_scan", "android": "https://dc.lft.to/lastmile_qr_scan"}, "is_disabled": 0, "bike_id": "fccc63d1d02e1a36a17d4b4d0a8de875", "fusion_lon": 0.0, "fusion_lat": 0.0, "is_reserved": 0, "type": "electric_scooter", "lon": -77.03140016666667, "name": "fccc63d1d02e1a36a17d4b4d0a8de875", "lat": 38.91267633333333}, {"rental_uris": {"ios": "https://dc.lft.to/lastmile_qr_scan", "android": "https://dc.lft.to/lastmile_qr_scan"}, "is_disabled": 0, "bike_id": "f86882bb80af2acb8de5eedce27b93f2", "fusion_lon": 0.0, "fusion_lat": 0.0, "is_reserved": 0, "type": "electric_scooter", "lon": -77.0113455, "name": "f86882bb80af2acb8de5eedce27b93f2", "lat": 38.885266}, {"rental_uris": {"ios": "https://dc.lft.to/lastmile_qr_scan", "android": "https://dc.lft.to/lastmile_qr_scan"}, "is_disabled": 0, "bike_id": "349e12998c0e113105916107a4848b8f", "fusion_lon": 0.0, "fusion_lat": 0.0, "is_reserved": 0, "type": "electric_bike", "lon": -77.04171716666667, "name": "349e12998c0e113105916107a4848b8f", "lat": 38.9170565}, {"rental_uris": {"ios": "https://dc.lft.to/lastmile_qr_scan", "android": "https://dc.lft.to/lastmile_qr_scan"}, "is_disabled": 0, "bike_id": "9b400e89c4792943fd63d2dcfb631669", "fusion_lon": 0.0, "fusion_lat": 0.0, "is_reserved": 0, "type": "electric_bike", "lon": -77.1314455, "name": "9b400e89c4792943fd63d2dcfb631669", "lat": 38.861721}, {"rental_uris": {"ios": "https://dc.lft.to/lastmile_qr_scan", "android": "https://dc.lft.to/lastmile_qr_scan"}, "is_disabled": 0, "bike_id": "07458cbe45e146603d0576870cd79776", "fusion_lon": 0.0, "fusion_lat": 0.0, "is_reserved": 0, "type": "electric_scooter", "lon": -77.02694633333333, "name": "07458cbe45e146603d0576870cd79776", "lat": 38.90684516666666}, {"rental_uris": {"ios": "https://dc.lft.to/lastmile_qr_scan", "android": "https://dc.lft.to/lastmile_qr_scan"}, "is_disabled": 0, "bike_id": "6b20d27dc12b8934a2f04ecdcd98c6bf", "fusion_lon": 0.0, "fusion_lat": 0.0, "is_reserved": 0, "type": "electric_scooter", "lon": -77.04032266666667, "name": "6b20d27dc12b8934a2f04ecdcd98c6bf", "lat": 38.9244505}, {"rental_uris": {"ios": "https://dc.lft.to/lastmile_qr_scan", "android": "https://dc.lft.to/lastmile_qr_scan"}, "is_disabled": 0, "bike_id": "861f06352bffb2b5de8845875d0cc9c6", "fusion_lon": 0.0, "fusion_lat": 0.0, "is_reserved": 0, "type": "electric_bike", "lon": -76.97186233333333, "name": "861f06352bffb2b5de8845875d0cc9c6", "lat": 38.917961166666664}, {"rental_uris": {"ios": "https://dc.lft.to/lastmile_qr_scan", "android": "https://dc.lft.to/lastmile_qr_scan"}, "is_disabled": 0, "bike_id": "1c490c4efb558c0b547fe3652719760a", "fusion_lon": 0.0, "fusion_lat": 0.0, "is_reserved": 0, "type": "electric_scooter", "lon": -77.04498816666667, "name": "1c490c4efb558c0b547fe3652719760a", "lat": 38.90379433333333}, {"rental_uris": {"ios": "https://dc.lft.to/lastmile_qr_scan", "android": "https://dc.lft.to/lastmile_qr_scan"}, "is_disabled": 0, "bike_id": "e69c9d15d3423bb0da71af1314035a65", "fusion_lon": 0.0, "fusion_lat": 0.0, "is_reserved": 0, "type": "electric_scooter", "lon": -77.02781333333333, "name": "e69c9d15d3423bb0da71af1314035a65", "lat": 38.8922345}, {"rental_uris": {"ios": "https://dc.lft.to/lastmile_qr_scan", "android": "https://dc.lft.to/lastmile_qr_scan"}, "is_disabled": 0, "bike_id": "c39d063b52c6a897ed81f843106e7fa2", "fusion_lon": 0.0, "fusion_lat": 0.0, "is_reserved": 0, "type": "electric_bike", "lon": -76.9108105, "name": "c39d063b52c6a897ed81f843106e7fa2", "lat": 39.00016133333333}, {"rental_uris": {"ios": "https://dc.lft.to/lastmile_qr_scan", "android": "https://dc.lft.to/lastmile_qr_scan"}, "is_disabled": 0, "bike_id": "c44f86e60e4d5b3d63d1c003dc5fbb85", "fusion_lon": 0.0, "fusion_lat": 0.0, "is_reserved": 0, "type": "electric_scooter", "lon": -77.033007, "name": "c44f86e60e4d5b3d63d1c003dc5fbb85", "lat": 38.911223}, {"rental_uris": {"ios": "https://dc.lft.to/lastmile_qr_scan", "android": "https://dc.lft.to/lastmile_qr_scan"}, "is_disabled": 0, "bike_id": "5a126f0d24d009cae775fafc4cb399fd", "fusion_lon": 0.0, "fusion_lat": 0.0, "is_reserved": 0, "type": "electric_scooter", "lon": -77.04132066666666, "name": "5a126f0d24d009cae775fafc4cb399fd", "lat": 38.941762833333335}, {"rental_uris": {"ios": "https://dc.lft.to/lastmile_qr_scan", "android": "https://dc.lft.to/lastmile_qr_scan"}, "is_disabled": 0, "bike_id": "e67f41367bcd2672bd93be1c885731e3", "fusion_lon": 0.0, "fusion_lat": 0.0, "is_reserved": 0, "type": "electric_bike", "lon": -76.98990316666666, "name": "e67f41367bcd2672bd93be1c885731e3", "lat": 38.863904}, {"rental_uris": {"ios": "https://dc.lft.to/lastmile_qr_scan", "android": "https://dc.lft.to/lastmile_qr_scan"}, "is_disabled": 0, "bike_id": "cacf0019fea38e8956235f5d258cdd4f", "fusion_lon": 0.0, "fusion_lat": 0.0, "is_reserved": 0, "type": "electric_scooter", "lon": -77.04119316666667, "name": "cacf0019fea38e8956235f5d258cdd4f", "lat": 38.930627}, {"rental_uris": {"ios": "https://dc.lft.to/lastmile_qr_scan", "android": "https://dc.lft.to/lastmile_qr_scan"}, "is_disabled": 0, "bike_id": "d02c056ee9c7448310ad0652596c123f", "fusion_lon": 0.0, "fusion_lat": 0.0, "is_reserved": 0, "type": "electric_scooter", "lon": -77.02675733333334, "name": "d02c056ee9c7448310ad0652596c123f", "lat": 38.89762366666667}, {"rental_uris": {"ios": "https://dc.lft.to/lastmile_qr_scan", "android": "https://dc.lft.to/lastmile_qr_scan"}, "is_disabled": 0, "bike_id": "11ad2c99a7f8ceffc0d1b4b4c32ab036", "fusion_lon": 0.0, "fusion_lat": 0.0, "is_reserved": 0, "type": "electric_scooter", "lon": -76.97405316666666, "name": "11ad2c99a7f8ceffc0d1b4b4c32ab036", "lat": 38.865681}, {"rental_uris": {"ios": "https://dc.lft.to/lastmile_qr_scan", "android": "https://dc.lft.to/lastmile_qr_scan"}, "is_disabled": 0, "bike_id": "8088761feaf8c0a5a1346fa0d9b25ebd", "fusion_lon": 0.0, "fusion_lat": 0.0, "is_reserved": 0, "type": "electric_bike", "lon": -76.98296333333333, "name": "8088761feaf8c0a5a1346fa0d9b25ebd", "lat": 38.962904}, {"rental_uris": {"ios": "https://dc.lft.to/lastmile_qr_scan", "android": "https://dc.lft.to/lastmile_qr_scan"}, "is_disabled": 0, "bike_id": "c94369e0784f6d7577b56cc9bf65a177", "fusion_lon": 0.0, "fusion_lat": 0.0, "is_reserved": 0, "type": "electric_scooter", "lon": -77.00766233333333, "name": "c94369e0784f6d7577b56cc9bf65a177", "lat": 38.900595}, {"rental_uris": {"ios": "https://dc.lft.to/lastmile_qr_scan", "android": "https://dc.lft.to/lastmile_qr_scan"}, "is_disabled": 0, "bike_id": "690480ab7f8a8e453c5ab200a9e40c2b", "fusion_lon": 0.0, "fusion_lat": 0.0, "is_reserved": 0, "type": "electric_scooter", "lon": -77.043411, "name": "690480ab7f8a8e453c5ab200a9e40c2b", "lat": 38.9079735}, {"rental_uris": {"ios": "https://dc.lft.to/lastmile_qr_scan", "android": "https://dc.lft.to/lastmile_qr_scan"}, "is_disabled": 0, "bike_id": "b063254fe8c19235209b6140b7b8609d", "fusion_lon": 0.0, "fusion_lat": 0.0, "is_reserved": 0, "type": "electric_scooter", "lon": -77.00605933333334, "name": "b063254fe8c19235209b6140b7b8609d", "lat": 38.90642966666667}, {"rental_uris": {"ios": "https://dc.lft.to/lastmile_qr_scan", "android": "https://dc.lft.to/lastmile_qr_scan"}, "is_disabled": 0, "bike_id": "a978427daf5f7877aff1b51badd62181", "fusion_lon": 0.0, "fusion_lat": 0.0, "is_reserved": 0, "type": "electric_scooter", "lon": -77.0382475, "name": "a978427daf5f7877aff1b51badd62181", "lat": 38.9315955}, {"rental_uris": {"ios": "https://dc.lft.to/lastmile_qr_scan", "android": "https://dc.lft.to/lastmile_qr_scan"}, "is_disabled": 0, "bike_id": "d27bfd1d1064d31c3d09c987cf3a4c5f", "fusion_lon": 0.0, "fusion_lat": 0.0, "is_reserved": 0, "type": "electric_scooter", "lon": -77.01162566666666, "name": "d27bfd1d1064d31c3d09c987cf3a4c5f", "lat": 38.90320283333333}, {"rental_uris": {"ios": "https://dc.lft.to/lastmile_qr_scan", "android": "https://dc.lft.to/lastmile_qr_scan"}, "is_disabled": 0, "bike_id": "37da78a88c5ac581f641f04e20d1eb69", "fusion_lon": 0.0, "fusion_lat": 0.0, "is_reserved": 0, "type": "electric_scooter", "lon": -77.04251233333333, "name": "37da78a88c5ac581f641f04e20d1eb69", "lat": 38.9220275}, {"rental_uris": {"ios": "https://dc.lft.to/lastmile_qr_scan", "android": "https://dc.lft.to/lastmile_qr_scan"}, "is_disabled": 0, "bike_id": "4fcb5c55b9e5db64961e51dfdd8fc66a", "fusion_lon": 0.0, "fusion_lat": 0.0, "is_reserved": 0, "type": "electric_scooter", "lon": -77.0314675, "name": "4fcb5c55b9e5db64961e51dfdd8fc66a", "lat": 38.915666}, {"rental_uris": {"ios": "https://dc.lft.to/lastmile_qr_scan", "android": "https://dc.lft.to/lastmile_qr_scan"}, "is_disabled": 0, "bike_id": "99a721edfe25785073c2ca8b890c50af", "fusion_lon": 0.0, "fusion_lat": 0.0, "is_reserved": 0, "type": "electric_scooter", "lon": -77.02154916666667, "name": "99a721edfe25785073c2ca8b890c50af", "lat": 38.92606283333333}, {"rental_uris": {"ios": "https://dc.lft.to/lastmile_qr_scan", "android": "https://dc.lft.to/lastmile_qr_scan"}, "is_disabled": 0, "bike_id": "3b98724bfad6031b4abb48d0ab362c04", "fusion_lon": 0.0, "fusion_lat": 0.0, "is_reserved": 0, "type": "electric_scooter", "lon": -77.02210416666667, "name": "3b98724bfad6031b4abb48d0ab362c04", "lat": 38.89354766666666}, {"rental_uris": {"ios": "https://dc.lft.to/lastmile_qr_scan", "android": "https://dc.lft.to/lastmile_qr_scan"}, "is_disabled": 0, "bike_id": "eb5cf32defb8fd61afc32d5d6821e31d", "fusion_lon": 0.0, "fusion_lat": 0.0, "is_reserved": 0, "type": "electric_scooter", "lon": -77.03191833333334, "name": "eb5cf32defb8fd61afc32d5d6821e31d", "lat": 38.93066683333333}, {"rental_uris": {"ios": "https://dc.lft.to/lastmile_qr_scan", "android": "https://dc.lft.to/lastmile_qr_scan"}, "is_disabled": 0, "bike_id": "7225fe07a021f79749694855372402ac", "fusion_lon": 0.0, "fusion_lat": 0.0, "is_reserved": 0, "type": "electric_scooter", "lon": -77.03165316666667, "name": "7225fe07a021f79749694855372402ac", "lat": 38.89623183333333}, {"rental_uris": {"ios": "https://dc.lft.to/lastmile_qr_scan", "android": "https://dc.lft.to/lastmile_qr_scan"}, "is_disabled": 0, "bike_id": "fb8afb62e4604cd894a03a5f69d8d017", "fusion_lon": 0.0, "fusion_lat": 0.0, "is_reserved": 0, "type": "electric_scooter", "lon": -77.03342566666667, "name": "fb8afb62e4604cd894a03a5f69d8d017", "lat": 38.92883483333333}, {"rental_uris": {"ios": "https://dc.lft.to/lastmile_qr_scan", "android": "https://dc.lft.to/lastmile_qr_scan"}, "is_disabled": 0, "bike_id": "f0559eeaba392f451b4f68bf234f6b07", "fusion_lon": 0.0, "fusion_lat": 0.0, "is_reserved": 0, "type": "electric_scooter", "lon": -76.94156166666667, "name": "f0559eeaba392f451b4f68bf234f6b07", "lat": 38.88364933333333}, {"rental_uris": {"ios": "https://dc.lft.to/lastmile_qr_scan", "android": "https://dc.lft.to/lastmile_qr_scan"}, "is_disabled": 0, "bike_id": "288039b37c2c3e4740633df599378ad9", "fusion_lon": 0.0, "fusion_lat": 0.0, "is_reserved": 0, "type": "electric_scooter", "lon": -77.07888716666666, "name": "288039b37c2c3e4740633df599378ad9", "lat": 38.9206725}, {"rental_uris": {"ios": "https://dc.lft.to/lastmile_qr_scan", "android": "https://dc.lft.to/lastmile_qr_scan"}, "is_disabled": 0, "bike_id": "19ff8934cc4cbfbb8c3b6142a99c02a9", "fusion_lon": 0.0, "fusion_lat": 0.0, "is_reserved": 0, "type": "electric_scooter", "lon": -76.96528533333333, "name": "19ff8934cc4cbfbb8c3b6142a99c02a9", "lat": 38.87630566666667}, {"rental_uris": {"ios": "https://dc.lft.to/lastmile_qr_scan", "android": "https://dc.lft.to/lastmile_qr_scan"}, "is_disabled": 0, "bike_id": "509bdb571d7d2cd2f48b0f5a933faea4", "fusion_lon": 0.0, "fusion_lat": 0.0, "is_reserved": 0, "type": "electric_scooter", "lon": -77.02634333333333, "name": "509bdb571d7d2cd2f48b0f5a933faea4", "lat": 38.925385166666665}, {"rental_uris": {"ios": "https://dc.lft.to/lastmile_qr_scan", "android": "https://dc.lft.to/lastmile_qr_scan"}, "is_disabled": 0, "bike_id": "da07dc6b0badd5f713a1bad6a8bef275", "fusion_lon": 0.0, "fusion_lat": 0.0, "is_reserved": 0, "type": "electric_scooter", "lon": -77.05853633333334, "name": "da07dc6b0badd5f713a1bad6a8bef275", "lat": 38.93608833333333}, {"rental_uris": {"ios": "https://dc.lft.to/lastmile_qr_scan", "android": "https://dc.lft.to/lastmile_qr_scan"}, "is_disabled": 0, "bike_id": "bd940b1fa8058adc247737466f6520bd", "fusion_lon": 0.0, "fusion_lat": 0.0, "is_reserved": 0, "type": "electric_bike", "lon": -76.924886, "name": "bd940b1fa8058adc247737466f6520bd", "lat": 38.95885916666667}, {"rental_uris": {"ios": "https://dc.lft.to/lastmile_qr_scan", "android": "https://dc.lft.to/lastmile_qr_scan"}, "is_disabled": 0, "bike_id": "5afcdccc0a243875d078652628faa6ce", "fusion_lon": 0.0, "fusion_lat": 0.0, "is_reserved": 0, "type": "electric_scooter", "lon": -77.03294033333333, "name": "5afcdccc0a243875d078652628faa6ce", "lat": 38.93414283333333}, {"rental_uris": {"ios": "https://dc.lft.to/lastmile_qr_scan", "android": "https://dc.lft.to/lastmile_qr_scan"}, "is_disabled": 0, "bike_id": "3f7ecfcaeaed14752a121b01044ac180", "fusion_lon": 0.0, "fusion_lat": 0.0, "is_reserved": 0, "type": "electric_scooter", "lon": -76.99506466666666, "name": "3f7ecfcaeaed14752a121b01044ac180", "lat": 38.88368966666667}, {"rental_uris": {"ios": "https://dc.lft.to/lastmile_qr_scan", "android": "https://dc.lft.to/lastmile_qr_scan"}, "is_disabled": 0, "bike_id": "9aaf458f8c73f5156d3cd182b71647f3", "fusion_lon": 0.0, "fusion_lat": 0.0, "is_reserved": 0, "type": "electric_scooter", "lon": -77.04092083333333, "name": "9aaf458f8c73f5156d3cd182b71647f3", "lat": 38.908909333333334}, {"rental_uris": {"ios": "https://dc.lft.to/lastmile_qr_scan", "android": "https://dc.lft.to/lastmile_qr_scan"}, "is_disabled": 0, "bike_id": "1e82cc2b38904b1e5ddc61ba0170bae5", "fusion_lon": 0.0, "fusion_lat": 0.0, "is_reserved": 0, "type": "electric_scooter", "lon": -77.03658233333333, "name": "1e82cc2b38904b1e5ddc61ba0170bae5", "lat": 38.92285066666667}, {"rental_uris": {"ios": "https://dc.lft.to/lastmile_qr_scan", "android": "https://dc.lft.to/lastmile_qr_scan"}, "is_disabled": 0, "bike_id": "da9458ec563c439340312a5991aeb666", "fusion_lon": 0.0, "fusion_lat": 0.0, "is_reserved": 0, "type": "electric_scooter", "lon": -77.05235616666667, "name": "da9458ec563c439340312a5991aeb666", "lat": 38.9246945}, {"rental_uris": {"ios": "https://dc.lft.to/lastmile_qr_scan", "android": "https://dc.lft.to/lastmile_qr_scan"}, "is_disabled": 0, "bike_id": "f143a4f9fbd3aeaeb013fc6ce5ed84ed", "fusion_lon": 0.0, "fusion_lat": 0.0, "is_reserved": 0, "type": "electric_scooter", "lon": -77.027585, "name": "f143a4f9fbd3aeaeb013fc6ce5ed84ed", "lat": 38.95779066666667}, {"rental_uris": {"ios": "https://dc.lft.to/lastmile_qr_scan", "android": "https://dc.lft.to/lastmile_qr_scan"}, "is_disabled": 0, "bike_id": "4acb3fbb255f343c65771f5636c6fdc8", "fusion_lon": 0.0, "fusion_lat": 0.0, "is_reserved": 0, "type": "electric_bike", "lon": -76.98688833333334, "name": "4acb3fbb255f343c65771f5636c6fdc8", "lat": 38.944753166666665}, {"rental_uris": {"ios": "https://dc.lft.to/lastmile_qr_scan", "android": "https://dc.lft.to/lastmile_qr_scan"}, "is_disabled": 0, "bike_id": "e5af36155dd2424ed44403b0d9b77dba", "fusion_lon": 0.0, "fusion_lat": 0.0, "is_reserved": 0, "type": "electric_scooter", "lon": -77.023524, "name": "e5af36155dd2424ed44403b0d9b77dba", "lat": 38.93534833333333}, {"rental_uris": {"ios": "https://dc.lft.to/lastmile_qr_scan", "android": "https://dc.lft.to/lastmile_qr_scan"}, "is_disabled": 0, "bike_id": "2ee796b897eeb1275f7e81e49d73e00b", "fusion_lon": 0.0, "fusion_lat": 0.0, "is_reserved": 0, "type": "electric_scooter", "lon": -77.03261866666666, "name": "2ee796b897eeb1275f7e81e49d73e00b", "lat": 38.919855166666665}, {"rental_uris": {"ios": "https://dc.lft.to/lastmile_qr_scan", "android": "https://dc.lft.to/lastmile_qr_scan"}, "is_disabled": 0, "bike_id": "1b3a8244ce264948b4b9094c283ffdab", "fusion_lon": 0.0, "fusion_lat": 0.0, "is_reserved": 0, "type": "electric_scooter", "lon": -77.032232, "name": "1b3a8244ce264948b4b9094c283ffdab", "lat": 38.89221933333334}, {"rental_uris": {"ios": "https://dc.lft.to/lastmile_qr_scan", "android": "https://dc.lft.to/lastmile_qr_scan"}, "is_disabled": 0, "bike_id": "4c473e5c86aff6e6e28dd37cc06b9ac7", "fusion_lon": 0.0, "fusion_lat": 0.0, "is_reserved": 0, "type": "electric_scooter", "lon": -76.95752316666666, "name": "4c473e5c86aff6e6e28dd37cc06b9ac7", "lat": 38.884290166666666}, {"rental_uris": {"ios": "https://dc.lft.to/lastmile_qr_scan", "android": "https://dc.lft.to/lastmile_qr_scan"}, "is_disabled": 0, "bike_id": "aaf57ede865b3d37d83e505191f9fa25", "fusion_lon": 0.0, "fusion_lat": 0.0, "is_reserved": 0, "type": "electric_scooter", "lon": -77.03458383333333, "name": "aaf57ede865b3d37d83e505191f9fa25", "lat": 38.90735516666667}, {"rental_uris": {"ios": "https://dc.lft.to/lastmile_qr_scan", "android": "https://dc.lft.to/lastmile_qr_scan"}, "is_disabled": 0, "bike_id": "5d67d0892993f77636eb7746efb378f6", "fusion_lon": 0.0, "fusion_lat": 0.0, "is_reserved": 0, "type": "electric_scooter", "lon": -77.04916966666667, "name": "5d67d0892993f77636eb7746efb378f6", "lat": 38.90076883333333}, {"rental_uris": {"ios": "https://dc.lft.to/lastmile_qr_scan", "android": "https://dc.lft.to/lastmile_qr_scan"}, "is_disabled": 0, "bike_id": "27372ab0da242f694622010723c03632", "fusion_lon": 0.0, "fusion_lat": 0.0, "is_reserved": 0, "type": "electric_scooter", "lon": -77.02434016666666, "name": "27372ab0da242f694622010723c03632", "lat": 38.9275145}, {"rental_uris": {"ios": "https://dc.lft.to/lastmile_qr_scan", "android": "https://dc.lft.to/lastmile_qr_scan"}, "is_disabled": 0, "bike_id": "05958355e381439dcb503fda7e6917ff", "fusion_lon": 0.0, "fusion_lat": 0.0, "is_reserved": 0, "type": "electric_scooter", "lon": -77.0369435, "name": "05958355e381439dcb503fda7e6917ff", "lat": 38.930666}, {"rental_uris": {"ios": "https://dc.lft.to/lastmile_qr_scan", "android": "https://dc.lft.to/lastmile_qr_scan"}, "is_disabled": 0, "bike_id": "f85cc65992e62e8fd5f13c01f811d869", "fusion_lon": 0.0, "fusion_lat": 0.0, "is_reserved": 0, "type": "electric_scooter", "lon": -77.02842433333333, "name": "f85cc65992e62e8fd5f13c01f811d869", "lat": 38.922434}, {"rental_uris": {"ios": "https://dc.lft.to/lastmile_qr_scan", "android": "https://dc.lft.to/lastmile_qr_scan"}, "is_disabled": 0, "bike_id": "b322571fb4026786f8aa13ca8d7293d4", "fusion_lon": 0.0, "fusion_lat": 0.0, "is_reserved": 0, "type": "electric_scooter", "lon": -77.04356116666666, "name": "b322571fb4026786f8aa13ca8d7293d4", "lat": 38.90085966666667}, {"rental_uris": {"ios": "https://dc.lft.to/lastmile_qr_scan", "android": "https://dc.lft.to/lastmile_qr_scan"}, "is_disabled": 0, "bike_id": "84901e1fb6a2c996534a331c187e0bc5", "fusion_lon": 0.0, "fusion_lat": 0.0, "is_reserved": 0, "type": "electric_scooter", "lon": -77.04448616666667, "name": "84901e1fb6a2c996534a331c187e0bc5", "lat": 38.93021783333333}, {"rental_uris": {"ios": "https://dc.lft.to/lastmile_qr_scan", "android": "https://dc.lft.to/lastmile_qr_scan"}, "is_disabled": 0, "bike_id": "f83dd200646527f737d3f838534b179c", "fusion_lon": 0.0, "fusion_lat": 0.0, "is_reserved": 0, "type": "electric_scooter", "lon": -76.99739016666666, "name": "f83dd200646527f737d3f838534b179c", "lat": 38.9099135}, {"rental_uris": {"ios": "https://dc.lft.to/lastmile_qr_scan", "android": "https://dc.lft.to/lastmile_qr_scan"}, "is_disabled": 0, "bike_id": "a1a8377158fd2077e63fb2b30f9e1a47", "fusion_lon": 0.0, "fusion_lat": 0.0, "is_reserved": 0, "type": "electric_scooter", "lon": -77.03162783333333, "name": "a1a8377158fd2077e63fb2b30f9e1a47", "lat": 38.8922185}, {"rental_uris": {"ios": "https://dc.lft.to/lastmile_qr_scan", "android": "https://dc.lft.to/lastmile_qr_scan"}, "is_disabled": 0, "bike_id": "d1e116be49878ee94c9e60ffc3c302bd", "fusion_lon": 0.0, "fusion_lat": 0.0, "is_reserved": 0, "type": "electric_scooter", "lon": -77.0639775, "name": "d1e116be49878ee94c9e60ffc3c302bd", "lat": 38.9444865}, {"rental_uris": {"ios": "https://dc.lft.to/lastmile_qr_scan", "android": "https://dc.lft.to/lastmile_qr_scan"}, "is_disabled": 0, "bike_id": "21eb550fe3f2a9df9d07f90e3286dbc7", "fusion_lon": 0.0, "fusion_lat": 0.0, "is_reserved": 0, "type": "electric_scooter", "lon": -76.99623033333333, "name": "21eb550fe3f2a9df9d07f90e3286dbc7", "lat": 38.8844435}, {"rental_uris": {"ios": "https://dc.lft.to/lastmile_qr_scan", "android": "https://dc.lft.to/lastmile_qr_scan"}, "is_disabled": 0, "bike_id": "8e754090b59be2cea3c8f736a23a141d", "fusion_lon": 0.0, "fusion_lat": 0.0, "is_reserved": 0, "type": "electric_bike", "lon": -76.901355, "name": "8e754090b59be2cea3c8f736a23a141d", "lat": 39.00479433333334}, {"rental_uris": {"ios": "https://dc.lft.to/lastmile_qr_scan", "android": "https://dc.lft.to/lastmile_qr_scan"}, "is_disabled": 0, "bike_id": "5086d3eb4b898cdb4db04c71506ecf74", "fusion_lon": 0.0, "fusion_lat": 0.0, "is_reserved": 0, "type": "electric_scooter", "lon": -76.93172666666666, "name": "5086d3eb4b898cdb4db04c71506ecf74", "lat": 38.898861833333335}, {"rental_uris": {"ios": "https://dc.lft.to/lastmile_qr_scan", "android": "https://dc.lft.to/lastmile_qr_scan"}, "is_disabled": 0, "bike_id": "a86909f0813a39b2ad3d07ef24813a1e", "fusion_lon": 0.0, "fusion_lat": 0.0, "is_reserved": 0, "type": "electric_bike", "lon": -77.11219583333333, "name": "a86909f0813a39b2ad3d07ef24813a1e", "lat": 38.828784166666665}, {"rental_uris": {"ios": "https://dc.lft.to/lastmile_qr_scan", "android": "https://dc.lft.to/lastmile_qr_scan"}, "is_disabled": 0, "bike_id": "246676b47305d0b0bf8f4a508096e753", "fusion_lon": 0.0, "fusion_lat": 0.0, "is_reserved": 0, "type": "electric_scooter", "lon": -77.03839966666666, "name": "246676b47305d0b0bf8f4a508096e753", "lat": 38.9311485}, {"rental_uris": {"ios": "https://dc.lft.to/lastmile_qr_scan", "android": "https://dc.lft.to/lastmile_qr_scan"}, "is_disabled": 0, "bike_id": "9b9d499537c0657814d7e14aa03873d0", "fusion_lon": 0.0, "fusion_lat": 0.0, "is_reserved": 0, "type": "electric_scooter", "lon": -77.0484375, "name": "9b9d499537c0657814d7e14aa03873d0", "lat": 38.91179966666667}, {"rental_uris": {"ios": "https://dc.lft.to/lastmile_qr_scan", "android": "https://dc.lft.to/lastmile_qr_scan"}, "is_disabled": 0, "bike_id": "9786c7700681dde96e4a77b127315cbe", "fusion_lon": 0.0, "fusion_lat": 0.0, "is_reserved": 0, "type": "electric_scooter", "lon": -77.0071315, "name": "9786c7700681dde96e4a77b127315cbe", "lat": 38.884934666666666}, {"rental_uris": {"ios": "https://dc.lft.to/lastmile_qr_scan", "android": "https://dc.lft.to/lastmile_qr_scan"}, "is_disabled": 0, "bike_id": "c384504906d2d302001f6a0653fa4ef8", "fusion_lon": 0.0, "fusion_lat": 0.0, "is_reserved": 0, "type": "electric_scooter", "lon": -77.04633016666666, "name": "c384504906d2d302001f6a0653fa4ef8", "lat": 38.902815833333335}, {"rental_uris": {"ios": "https://dc.lft.to/lastmile_qr_scan", "android": "https://dc.lft.to/lastmile_qr_scan"}, "is_disabled": 0, "bike_id": "50cafb1ad411a137e90ecfbbe40c5ac8", "fusion_lon": 0.0, "fusion_lat": 0.0, "is_reserved": 0, "type": "electric_bike", "lon": -77.04928366666667, "name": "50cafb1ad411a137e90ecfbbe40c5ac8", "lat": 39.0293725}, {"rental_uris": {"ios": "https://dc.lft.to/lastmile_qr_scan", "android": "https://dc.lft.to/lastmile_qr_scan"}, "is_disabled": 0, "bike_id": "792b0feb38adfa881c09af5a99bdb443", "fusion_lon": 0.0, "fusion_lat": 0.0, "is_reserved": 0, "type": "electric_scooter", "lon": -77.04354233333333, "name": "792b0feb38adfa881c09af5a99bdb443", "lat": 38.9134785}, {"rental_uris": {"ios": "https://dc.lft.to/lastmile_qr_scan", "android": "https://dc.lft.to/lastmile_qr_scan"}, "is_disabled": 0, "bike_id": "ce7a1edd0ca6bcab64fe6f67421ca325", "fusion_lon": 0.0, "fusion_lat": 0.0, "is_reserved": 0, "type": "electric_scooter", "lon": -77.04186316666667, "name": "ce7a1edd0ca6bcab64fe6f67421ca325", "lat": 38.9155685}, {"rental_uris": {"ios": "https://dc.lft.to/lastmile_qr_scan", "android": "https://dc.lft.to/lastmile_qr_scan"}, "is_disabled": 0, "bike_id": "f12d7895b13249fabed7fefc90ec3d5a", "fusion_lon": 0.0, "fusion_lat": 0.0, "is_reserved": 0, "type": "electric_bike", "lon": -77.162624, "name": "f12d7895b13249fabed7fefc90ec3d5a", "lat": 38.88673633333333}, {"rental_uris": {"ios": "https://dc.lft.to/lastmile_qr_scan", "android": "https://dc.lft.to/lastmile_qr_scan"}, "is_disabled": 0, "bike_id": "75257e5e3f15048da7a22b4001a943c8", "fusion_lon": 0.0, "fusion_lat": 0.0, "is_reserved": 0, "type": "electric_scooter", "lon": -77.038528, "name": "75257e5e3f15048da7a22b4001a943c8", "lat": 38.91686166666667}, {"rental_uris": {"ios": "https://dc.lft.to/lastmile_qr_scan", "android": "https://dc.lft.to/lastmile_qr_scan"}, "is_disabled": 0, "bike_id": "0e199548f82f21c4bbae15d760ebd897", "fusion_lon": 0.0, "fusion_lat": 0.0, "is_reserved": 0, "type": "electric_scooter", "lon": -77.00210083333333, "name": "0e199548f82f21c4bbae15d760ebd897", "lat": 38.907832166666665}, {"rental_uris": {"ios": "https://dc.lft.to/lastmile_qr_scan", "android": "https://dc.lft.to/lastmile_qr_scan"}, "is_disabled": 0, "bike_id": "ebe8be3fd583c7d2dee9666978ee5d72", "fusion_lon": 0.0, "fusion_lat": 0.0, "is_reserved": 0, "type": "electric_scooter", "lon": -76.9954685, "name": "ebe8be3fd583c7d2dee9666978ee5d72", "lat": 38.901113333333335}, {"rental_uris": {"ios": "https://dc.lft.to/lastmile_qr_scan", "android": "https://dc.lft.to/lastmile_qr_scan"}, "is_disabled": 0, "bike_id": "ee731ec43a0a56b6db409be43227b284", "fusion_lon": 0.0, "fusion_lat": 0.0, "is_reserved": 0, "type": "electric_scooter", "lon": -77.0324255, "name": "ee731ec43a0a56b6db409be43227b284", "lat": 38.8989965}, {"rental_uris": {"ios": "https://dc.lft.to/lastmile_qr_scan", "android": "https://dc.lft.to/lastmile_qr_scan"}, "is_disabled": 0, "bike_id": "d198e170cdf1c6f98793744df0e30436", "fusion_lon": 0.0, "fusion_lat": 0.0, "is_reserved": 0, "type": "electric_scooter", "lon": -77.0689055, "name": "d198e170cdf1c6f98793744df0e30436", "lat": 38.90419116666666}, {"rental_uris": {"ios": "https://dc.lft.to/lastmile_qr_scan", "android": "https://dc.lft.to/lastmile_qr_scan"}, "is_disabled": 0, "bike_id": "24c9120b697e5bc9d4135eea8970be7e", "fusion_lon": 0.0, "fusion_lat": 0.0, "is_reserved": 0, "type": "electric_scooter", "lon": -76.99392366666666, "name": "24c9120b697e5bc9d4135eea8970be7e", "lat": 38.91014366666667}, {"rental_uris": {"ios": "https://dc.lft.to/lastmile_qr_scan", "android": "https://dc.lft.to/lastmile_qr_scan"}, "is_disabled": 0, "bike_id": "fde85a1d7afe4ee443a2ddeca2027c00", "fusion_lon": 0.0, "fusion_lat": 0.0, "is_reserved": 0, "type": "electric_scooter", "lon": -77.03638216666667, "name": "fde85a1d7afe4ee443a2ddeca2027c00", "lat": 38.92994233333334}, {"rental_uris": {"ios": "https://dc.lft.to/lastmile_qr_scan", "android": "https://dc.lft.to/lastmile_qr_scan"}, "is_disabled": 0, "bike_id": "f9f7bf19ce1e427518ecc5ead0b1cb9b", "fusion_lon": 0.0, "fusion_lat": 0.0, "is_reserved": 0, "type": "electric_scooter", "lon": -77.01718366666667, "name": "f9f7bf19ce1e427518ecc5ead0b1cb9b", "lat": 38.92077716666667}, {"rental_uris": {"ios": "https://dc.lft.to/lastmile_qr_scan", "android": "https://dc.lft.to/lastmile_qr_scan"}, "is_disabled": 0, "bike_id": "7ec7b391a7cebc95ffa5f31f66eac2a7", "fusion_lon": 0.0, "fusion_lat": 0.0, "is_reserved": 0, "type": "electric_scooter", "lon": -77.04196333333333, "name": "7ec7b391a7cebc95ffa5f31f66eac2a7", "lat": 38.892270333333336}, {"rental_uris": {"ios": "https://dc.lft.to/lastmile_qr_scan", "android": "https://dc.lft.to/lastmile_qr_scan"}, "is_disabled": 0, "bike_id": "ea0fd8528e15c0e8330d250be09bd6ee", "fusion_lon": 0.0, "fusion_lat": 0.0, "is_reserved": 0, "type": "electric_scooter", "lon": -77.03641366666666, "name": "ea0fd8528e15c0e8330d250be09bd6ee", "lat": 38.92091766666667}, {"rental_uris": {"ios": "https://dc.lft.to/lastmile_qr_scan", "android": "https://dc.lft.to/lastmile_qr_scan"}, "is_disabled": 0, "bike_id": "116fff90e47cf6e253ccc1db849dbaf4", "fusion_lon": 0.0, "fusion_lat": 0.0, "is_reserved": 0, "type": "electric_scooter", "lon": -77.010576, "name": "116fff90e47cf6e253ccc1db849dbaf4", "lat": 38.8960175}, {"rental_uris": {"ios": "https://dc.lft.to/lastmile_qr_scan", "android": "https://dc.lft.to/lastmile_qr_scan"}, "is_disabled": 0, "bike_id": "4bd8c003c10c3b41bf813b24556b1a43", "fusion_lon": 0.0, "fusion_lat": 0.0, "is_reserved": 0, "type": "electric_scooter", "lon": -76.937446, "name": "4bd8c003c10c3b41bf813b24556b1a43", "lat": 38.89013116666667}, {"rental_uris": {"ios": "https://dc.lft.to/lastmile_qr_scan", "android": "https://dc.lft.to/lastmile_qr_scan"}, "is_disabled": 0, "bike_id": "283f80d76443ac5c49c9b66c6fdfee61", "fusion_lon": 0.0, "fusion_lat": 0.0, "is_reserved": 0, "type": "electric_scooter", "lon": -77.003849, "name": "283f80d76443ac5c49c9b66c6fdfee61", "lat": 38.90581183333333}, {"rental_uris": {"ios": "https://dc.lft.to/lastmile_qr_scan", "android": "https://dc.lft.to/lastmile_qr_scan"}, "is_disabled": 0, "bike_id": "1741c0c3d5f83e29ca34387e212b625d", "fusion_lon": 0.0, "fusion_lat": 0.0, "is_reserved": 0, "type": "electric_scooter", "lon": -77.02608266666667, "name": "1741c0c3d5f83e29ca34387e212b625d", "lat": 38.9007265}, {"rental_uris": {"ios": "https://dc.lft.to/lastmile_qr_scan", "android": "https://dc.lft.to/lastmile_qr_scan"}, "is_disabled": 0, "bike_id": "fb37b7d1f675fbe6182df8c6f815ed39", "fusion_lon": 0.0, "fusion_lat": 0.0, "is_reserved": 0, "type": "electric_scooter", "lon": -77.005879, "name": "fb37b7d1f675fbe6182df8c6f815ed39", "lat": 38.90574616666667}, {"rental_uris": {"ios": "https://dc.lft.to/lastmile_qr_scan", "android": "https://dc.lft.to/lastmile_qr_scan"}, "is_disabled": 0, "bike_id": "eafed1f5aa9f48c99f4eee982c189512", "fusion_lon": 0.0, "fusion_lat": 0.0, "is_reserved": 0, "type": "electric_bike", "lon": -77.0583475, "name": "eafed1f5aa9f48c99f4eee982c189512", "lat": 38.842537166666666}, {"rental_uris": {"ios": "https://dc.lft.to/lastmile_qr_scan", "android": "https://dc.lft.to/lastmile_qr_scan"}, "is_disabled": 0, "bike_id": "d52b0129b234873267af3393b03f6916", "fusion_lon": 0.0, "fusion_lat": 0.0, "is_reserved": 0, "type": "electric_scooter", "lon": -77.03832433333334, "name": "d52b0129b234873267af3393b03f6916", "lat": 38.914827833333334}, {"rental_uris": {"ios": "https://dc.lft.to/lastmile_qr_scan", "android": "https://dc.lft.to/lastmile_qr_scan"}, "is_disabled": 0, "bike_id": "e3e636a3a600228a48351a9afd34d20b", "fusion_lon": 0.0, "fusion_lat": 0.0, "is_reserved": 0, "type": "electric_scooter", "lon": -77.06447783333333, "name": "e3e636a3a600228a48351a9afd34d20b", "lat": 38.90527083333333}, {"rental_uris": {"ios": "https://dc.lft.to/lastmile_qr_scan", "android": "https://dc.lft.to/lastmile_qr_scan"}, "is_disabled": 0, "bike_id": "d455f64156997953ea456144ecb05de3", "fusion_lon": 0.0, "fusion_lat": 0.0, "is_reserved": 0, "type": "electric_scooter", "lon": -77.04176483333333, "name": "d455f64156997953ea456144ecb05de3", "lat": 38.90530116666667}, {"rental_uris": {"ios": "https://dc.lft.to/lastmile_qr_scan", "android": "https://dc.lft.to/lastmile_qr_scan"}, "is_disabled": 0, "bike_id": "52ede5171ab9389c8761344ce9cdc996", "fusion_lon": 0.0, "fusion_lat": 0.0, "is_reserved": 0, "type": "electric_scooter", "lon": -77.03246683333333, "name": "52ede5171ab9389c8761344ce9cdc996", "lat": 38.91717516666667}, {"rental_uris": {"ios": "https://dc.lft.to/lastmile_qr_scan", "android": "https://dc.lft.to/lastmile_qr_scan"}, "is_disabled": 0, "bike_id": "a499aef42872b05183820740d90080f3", "fusion_lon": 0.0, "fusion_lat": 0.0, "is_reserved": 0, "type": "electric_scooter", "lon": -77.0323505, "name": "a499aef42872b05183820740d90080f3", "lat": 38.921771166666666}, {"rental_uris": {"ios": "https://dc.lft.to/lastmile_qr_scan", "android": "https://dc.lft.to/lastmile_qr_scan"}, "is_disabled": 0, "bike_id": "1ff75a25375ddc603d17262eb05c73a9", "fusion_lon": 0.0, "fusion_lat": 0.0, "is_reserved": 0, "type": "electric_scooter", "lon": -77.04634416666667, "name": "1ff75a25375ddc603d17262eb05c73a9", "lat": 38.89222133333333}, {"rental_uris": {"ios": "https://dc.lft.to/lastmile_qr_scan", "android": "https://dc.lft.to/lastmile_qr_scan"}, "is_disabled": 0, "bike_id": "0b68eec72c109aeff31a9fa01c292d7b", "fusion_lon": 0.0, "fusion_lat": 0.0, "is_reserved": 0, "type": "electric_scooter", "lon": -77.04275216666667, "name": "0b68eec72c109aeff31a9fa01c292d7b", "lat": 38.917047}, {"rental_uris": {"ios": "https://dc.lft.to/lastmile_qr_scan", "android": "https://dc.lft.to/lastmile_qr_scan"}, "is_disabled": 0, "bike_id": "18f99769d7a8e36c2ca69cf4e2c899e4", "fusion_lon": 0.0, "fusion_lat": 0.0, "is_reserved": 0, "type": "electric_scooter", "lon": -77.04454983333333, "name": "18f99769d7a8e36c2ca69cf4e2c899e4", "lat": 38.90581483333333}, {"rental_uris": {"ios": "https://dc.lft.to/lastmile_qr_scan", "android": "https://dc.lft.to/lastmile_qr_scan"}, "is_disabled": 0, "bike_id": "b432ea2ac52f17b6be434e5a7ab33b70", "fusion_lon": 0.0, "fusion_lat": 0.0, "is_reserved": 0, "type": "electric_scooter", "lon": -76.997052, "name": "b432ea2ac52f17b6be434e5a7ab33b70", "lat": 38.908297}, {"rental_uris": {"ios": "https://dc.lft.to/lastmile_qr_scan", "android": "https://dc.lft.to/lastmile_qr_scan"}, "is_disabled": 0, "bike_id": "780447621c6093d48d9611e2355c7c1d", "fusion_lon": 0.0, "fusion_lat": 0.0, "is_reserved": 0, "type": "electric_scooter", "lon": -77.0389775, "name": "780447621c6093d48d9611e2355c7c1d", "lat": 38.917085166666666}, {"rental_uris": {"ios": "https://dc.lft.to/lastmile_qr_scan", "android": "https://dc.lft.to/lastmile_qr_scan"}, "is_disabled": 0, "bike_id": "7b018ca845b59d5cfdde609d27242eb4", "fusion_lon": 0.0, "fusion_lat": 0.0, "is_reserved": 0, "type": "electric_bike", "lon": -77.20836566666667, "name": "7b018ca845b59d5cfdde609d27242eb4", "lat": 38.924707}, {"rental_uris": {"ios": "https://dc.lft.to/lastmile_qr_scan", "android": "https://dc.lft.to/lastmile_qr_scan"}, "is_disabled": 0, "bike_id": "7256f2bd7c772bcc5511124b0b1b1131", "fusion_lon": 0.0, "fusion_lat": 0.0, "is_reserved": 0, "type": "electric_scooter", "lon": -77.03440166666667, "name": "7256f2bd7c772bcc5511124b0b1b1131", "lat": 38.91001266666667}, {"rental_uris": {"ios": "https://dc.lft.to/lastmile_qr_scan", "android": "https://dc.lft.to/lastmile_qr_scan"}, "is_disabled": 0, "bike_id": "6328069ffbf264c0552639ed1838e9e0", "fusion_lon": 0.0, "fusion_lat": 0.0, "is_reserved": 0, "type": "electric_scooter", "lon": -77.0314565, "name": "6328069ffbf264c0552639ed1838e9e0", "lat": 38.906339}, {"rental_uris": {"ios": "https://dc.lft.to/lastmile_qr_scan", "android": "https://dc.lft.to/lastmile_qr_scan"}, "is_disabled": 0, "bike_id": "433c6d3cbe53d9da238415a2f94379f4", "fusion_lon": 0.0, "fusion_lat": 0.0, "is_reserved": 0, "type": "electric_scooter", "lon": -77.02945783333334, "name": "433c6d3cbe53d9da238415a2f94379f4", "lat": 38.9142045}, {"rental_uris": {"ios": "https://dc.lft.to/lastmile_qr_scan", "android": "https://dc.lft.to/lastmile_qr_scan"}, "is_disabled": 0, "bike_id": "ee47abb219fda239cdd708a634b4ab54", "fusion_lon": 0.0, "fusion_lat": 0.0, "is_reserved": 0, "type": "electric_scooter", "lon": -76.9334115, "name": "ee47abb219fda239cdd708a634b4ab54", "lat": 38.8991075}, {"rental_uris": {"ios": "https://dc.lft.to/lastmile_qr_scan", "android": "https://dc.lft.to/lastmile_qr_scan"}, "is_disabled": 0, "bike_id": "c1cf93cd97ed1342e32d6e3eb6fbd093", "fusion_lon": 0.0, "fusion_lat": 0.0, "is_reserved": 0, "type": "electric_scooter", "lon": -77.03194466666666, "name": "c1cf93cd97ed1342e32d6e3eb6fbd093", "lat": 38.917693166666666}, {"rental_uris": {"ios": "https://dc.lft.to/lastmile_qr_scan", "android": "https://dc.lft.to/lastmile_qr_scan"}, "is_disabled": 0, "bike_id": "d70e975c6921624f8389c62e928d4e8a", "fusion_lon": 0.0, "fusion_lat": 0.0, "is_reserved": 0, "type": "electric_scooter", "lon": -77.05735783333333, "name": "d70e975c6921624f8389c62e928d4e8a", "lat": 38.93363883333333}, {"rental_uris": {"ios": "https://dc.lft.to/lastmile_qr_scan", "android": "https://dc.lft.to/lastmile_qr_scan"}, "is_disabled": 0, "bike_id": "af13273faa2f9c2ea8fc853d846cb88e", "fusion_lon": 0.0, "fusion_lat": 0.0, "is_reserved": 0, "type": "electric_scooter", "lon": -77.03196316666667, "name": "af13273faa2f9c2ea8fc853d846cb88e", "lat": 38.918200166666665}, {"rental_uris": {"ios": "https://dc.lft.to/lastmile_qr_scan", "android": "https://dc.lft.to/lastmile_qr_scan"}, "is_disabled": 0, "bike_id": "e53877937c65c7c9d5e267dfd5e9be85", "fusion_lon": 0.0, "fusion_lat": 0.0, "is_reserved": 0, "type": "electric_bike", "lon": -77.00546533333333, "name": "e53877937c65c7c9d5e267dfd5e9be85", "lat": 38.98390083333334}, {"rental_uris": {"ios": "https://dc.lft.to/lastmile_qr_scan", "android": "https://dc.lft.to/lastmile_qr_scan"}, "is_disabled": 0, "bike_id": "7fe5917d98ff43dc597ce63261c4066c", "fusion_lon": 0.0, "fusion_lat": 0.0, "is_reserved": 0, "type": "electric_bike", "lon": -77.36090683333333, "name": "7fe5917d98ff43dc597ce63261c4066c", "lat": 38.93955866666667}, {"rental_uris": {"ios": "https://dc.lft.to/lastmile_qr_scan", "android": "https://dc.lft.to/lastmile_qr_scan"}, "is_disabled": 0, "bike_id": "e15bd9e3f217f7ef56f36f803715bb0c", "fusion_lon": 0.0, "fusion_lat": 0.0, "is_reserved": 0, "type": "electric_scooter", "lon": -77.0260555, "name": "e15bd9e3f217f7ef56f36f803715bb0c", "lat": 38.900444666666665}, {"rental_uris": {"ios": "https://dc.lft.to/lastmile_qr_scan", "android": "https://dc.lft.to/lastmile_qr_scan"}, "is_disabled": 0, "bike_id": "1b2773353ccc55c0aad759538eb6199a", "fusion_lon": 0.0, "fusion_lat": 0.0, "is_reserved": 0, "type": "electric_scooter", "lon": -76.930348, "name": "1b2773353ccc55c0aad759538eb6199a", "lat": 38.89568416666667}, {"rental_uris": {"ios": "https://dc.lft.to/lastmile_qr_scan", "android": "https://dc.lft.to/lastmile_qr_scan"}, "is_disabled": 0, "bike_id": "2bf36d1f1475e315065cec05f7d6dc3c", "fusion_lon": 0.0, "fusion_lat": 0.0, "is_reserved": 0, "type": "electric_bike", "lon": -76.94599116666667, "name": "2bf36d1f1475e315065cec05f7d6dc3c", "lat": 38.952893}, {"rental_uris": {"ios": "https://dc.lft.to/lastmile_qr_scan", "android": "https://dc.lft.to/lastmile_qr_scan"}, "is_disabled": 0, "bike_id": "37ec5e42ff0edf97715d0daa377dc2de", "fusion_lon": 0.0, "fusion_lat": 0.0, "is_reserved": 0, "type": "electric_scooter", "lon": -76.94998083333333, "name": "37ec5e42ff0edf97715d0daa377dc2de", "lat": 38.893942333333335}, {"rental_uris": {"ios": "https://dc.lft.to/lastmile_qr_scan", "android": "https://dc.lft.to/lastmile_qr_scan"}, "is_disabled": 0, "bike_id": "42f15c2a63f170757b0d3b35b20343a7", "fusion_lon": 0.0, "fusion_lat": 0.0, "is_reserved": 0, "type": "electric_scooter", "lon": -77.04891066666667, "name": "42f15c2a63f170757b0d3b35b20343a7", "lat": 38.89005816666667}, {"rental_uris": {"ios": "https://dc.lft.to/lastmile_qr_scan", "android": "https://dc.lft.to/lastmile_qr_scan"}, "is_disabled": 0, "bike_id": "34ce54862d4c8b5a3b95c9eaea631da7", "fusion_lon": 0.0, "fusion_lat": 0.0, "is_reserved": 0, "type": "electric_scooter", "lon": -77.0448225, "name": "34ce54862d4c8b5a3b95c9eaea631da7", "lat": 38.903405}, {"rental_uris": {"ios": "https://dc.lft.to/lastmile_qr_scan", "android": "https://dc.lft.to/lastmile_qr_scan"}, "is_disabled": 0, "bike_id": "0d24ab3dc3483782ee62b2c2450b0848", "fusion_lon": 0.0, "fusion_lat": 0.0, "is_reserved": 0, "type": "electric_scooter", "lon": -76.94992983333333, "name": "0d24ab3dc3483782ee62b2c2450b0848", "lat": 38.893922333333336}, {"rental_uris": {"ios": "https://dc.lft.to/lastmile_qr_scan", "android": "https://dc.lft.to/lastmile_qr_scan"}, "is_disabled": 0, "bike_id": "a04947dee64199b437f6fe7166c4b8d1", "fusion_lon": 0.0, "fusion_lat": 0.0, "is_reserved": 0, "type": "electric_scooter", "lon": -77.02182783333333, "name": "a04947dee64199b437f6fe7166c4b8d1", "lat": 38.9062475}, {"rental_uris": {"ios": "https://dc.lft.to/lastmile_qr_scan", "android": "https://dc.lft.to/lastmile_qr_scan"}, "is_disabled": 0, "bike_id": "c06d947bd87c2e3cc22a7382d509cf55", "fusion_lon": 0.0, "fusion_lat": 0.0, "is_reserved": 0, "type": "electric_scooter", "lon": -77.05129533333333, "name": "c06d947bd87c2e3cc22a7382d509cf55", "lat": 38.9236575}, {"rental_uris": {"ios": "https://dc.lft.to/lastmile_qr_scan", "android": "https://dc.lft.to/lastmile_qr_scan"}, "is_disabled": 0, "bike_id": "8c868c3a18a75c852547db22b04b5748", "fusion_lon": 0.0, "fusion_lat": 0.0, "is_reserved": 0, "type": "electric_scooter", "lon": -77.04030633333333, "name": "8c868c3a18a75c852547db22b04b5748", "lat": 38.9180865}, {"rental_uris": {"ios": "https://dc.lft.to/lastmile_qr_scan", "android": "https://dc.lft.to/lastmile_qr_scan"}, "is_disabled": 0, "bike_id": "949bfbff66a53d502a6a3597e04bb0a4", "fusion_lon": 0.0, "fusion_lat": 0.0, "is_reserved": 0, "type": "electric_scooter", "lon": -77.03147333333334, "name": "949bfbff66a53d502a6a3597e04bb0a4", "lat": 38.9111345}, {"rental_uris": {"ios": "https://dc.lft.to/lastmile_qr_scan", "android": "https://dc.lft.to/lastmile_qr_scan"}, "is_disabled": 0, "bike_id": "09bdb644a0dc6b90ab6b657a3348a3d4", "fusion_lon": 0.0, "fusion_lat": 0.0, "is_reserved": 0, "type": "electric_scooter", "lon": -77.03143033333333, "name": "09bdb644a0dc6b90ab6b657a3348a3d4", "lat": 38.91126283333333}, {"rental_uris": {"ios": "https://dc.lft.to/lastmile_qr_scan", "android": "https://dc.lft.to/lastmile_qr_scan"}, "is_disabled": 0, "bike_id": "390567ae51d18654a0752faecb296c1c", "fusion_lon": 0.0, "fusion_lat": 0.0, "is_reserved": 0, "type": "electric_scooter", "lon": -77.04251583333334, "name": "390567ae51d18654a0752faecb296c1c", "lat": 38.92203}, {"rental_uris": {"ios": "https://dc.lft.to/lastmile_qr_scan", "android": "https://dc.lft.to/lastmile_qr_scan"}, "is_disabled": 0, "bike_id": "cb5d0dfb194824a57a89b7c72323a204", "fusion_lon": 0.0, "fusion_lat": 0.0, "is_reserved": 0, "type": "electric_scooter", "lon": -77.0551375, "name": "cb5d0dfb194824a57a89b7c72323a204", "lat": 38.944173666666664}, {"rental_uris": {"ios": "https://dc.lft.to/lastmile_qr_scan", "android": "https://dc.lft.to/lastmile_qr_scan"}, "is_disabled": 0, "bike_id": "293b2ad2deb1479f8eeaf0f8ae83b3fa", "fusion_lon": 0.0, "fusion_lat": 0.0, "is_reserved": 0, "type": "electric_scooter", "lon": -76.99681883333334, "name": "293b2ad2deb1479f8eeaf0f8ae83b3fa", "lat": 38.90734166666667}, {"rental_uris": {"ios": "https://dc.lft.to/lastmile_qr_scan", "android": "https://dc.lft.to/lastmile_qr_scan"}, "is_disabled": 0, "bike_id": "56ef1b928b3456c24d5f798333d5710e", "fusion_lon": 0.0, "fusion_lat": 0.0, "is_reserved": 0, "type": "electric_scooter", "lon": -77.02005733333333, "name": "56ef1b928b3456c24d5f798333d5710e", "lat": 38.915698166666665}, {"rental_uris": {"ios": "https://dc.lft.to/lastmile_qr_scan", "android": "https://dc.lft.to/lastmile_qr_scan"}, "is_disabled": 0, "bike_id": "e0deeed1d67e52772ff338105d1ee8e5", "fusion_lon": 0.0, "fusion_lat": 0.0, "is_reserved": 0, "type": "electric_scooter", "lon": -77.038273, "name": "e0deeed1d67e52772ff338105d1ee8e5", "lat": 38.906791}, {"rental_uris": {"ios": "https://dc.lft.to/lastmile_qr_scan", "android": "https://dc.lft.to/lastmile_qr_scan"}, "is_disabled": 0, "bike_id": "df1a85c26cf9a37ccbb5284ce03d1939", "fusion_lon": 0.0, "fusion_lat": 0.0, "is_reserved": 0, "type": "electric_scooter", "lon": -77.038426, "name": "df1a85c26cf9a37ccbb5284ce03d1939", "lat": 38.9176035}, {"rental_uris": {"ios": "https://dc.lft.to/lastmile_qr_scan", "android": "https://dc.lft.to/lastmile_qr_scan"}, "is_disabled": 0, "bike_id": "3842dce530b9b3a00c62ff3b6a0f99ab", "fusion_lon": 0.0, "fusion_lat": 0.0, "is_reserved": 0, "type": "electric_scooter", "lon": -76.94633633333333, "name": "3842dce530b9b3a00c62ff3b6a0f99ab", "lat": 38.89847533333333}, {"rental_uris": {"ios": "https://dc.lft.to/lastmile_qr_scan", "android": "https://dc.lft.to/lastmile_qr_scan"}, "is_disabled": 0, "bike_id": "7d8f51e348aca862a6c14ce5b4bdcd0f", "fusion_lon": 0.0, "fusion_lat": 0.0, "is_reserved": 0, "type": "electric_scooter", "lon": -77.01555016666667, "name": "7d8f51e348aca862a6c14ce5b4bdcd0f", "lat": 38.87989916666667}, {"rental_uris": {"ios": "https://dc.lft.to/lastmile_qr_scan", "android": "https://dc.lft.to/lastmile_qr_scan"}, "is_disabled": 0, "bike_id": "636d595a9a9d8bd18cb6cf12342d8d01", "fusion_lon": 0.0, "fusion_lat": 0.0, "is_reserved": 0, "type": "electric_scooter", "lon": -77.02682233333333, "name": "636d595a9a9d8bd18cb6cf12342d8d01", "lat": 38.901082}, {"rental_uris": {"ios": "https://dc.lft.to/lastmile_qr_scan", "android": "https://dc.lft.to/lastmile_qr_scan"}, "is_disabled": 0, "bike_id": "4efed3cdad35330807a617db451be126", "fusion_lon": 0.0, "fusion_lat": 0.0, "is_reserved": 0, "type": "electric_bike", "lon": -77.04414033333333, "name": "4efed3cdad35330807a617db451be126", "lat": 39.015676166666665}, {"rental_uris": {"ios": "https://dc.lft.to/lastmile_qr_scan", "android": "https://dc.lft.to/lastmile_qr_scan"}, "is_disabled": 0, "bike_id": "9d68014c43365e3228586016bf891978", "fusion_lon": 0.0, "fusion_lat": 0.0, "is_reserved": 0, "type": "electric_scooter", "lon": -77.02153216666666, "name": "9d68014c43365e3228586016bf891978", "lat": 38.897034166666664}, {"rental_uris": {"ios": "https://dc.lft.to/lastmile_qr_scan", "android": "https://dc.lft.to/lastmile_qr_scan"}, "is_disabled": 0, "bike_id": "81f1e326f893f60038e2ba8d5c21ffb6", "fusion_lon": 0.0, "fusion_lat": 0.0, "is_reserved": 0, "type": "electric_scooter", "lon": -77.02603683333334, "name": "81f1e326f893f60038e2ba8d5c21ffb6", "lat": 38.914141}, {"rental_uris": {"ios": "https://dc.lft.to/lastmile_qr_scan", "android": "https://dc.lft.to/lastmile_qr_scan"}, "is_disabled": 0, "bike_id": "8495965dd252e92f975b2bd388a9d0f3", "fusion_lon": 0.0, "fusion_lat": 0.0, "is_reserved": 0, "type": "electric_scooter", "lon": -77.064087, "name": "8495965dd252e92f975b2bd388a9d0f3", "lat": 38.94483983333333}, {"rental_uris": {"ios": "https://dc.lft.to/lastmile_qr_scan", "android": "https://dc.lft.to/lastmile_qr_scan"}, "is_disabled": 0, "bike_id": "9eddfcfa4d98c5a334b0e4fb08686cc5", "fusion_lon": 0.0, "fusion_lat": 0.0, "is_reserved": 0, "type": "electric_scooter", "lon": -77.036261, "name": "9eddfcfa4d98c5a334b0e4fb08686cc5", "lat": 38.954045666666666}, {"rental_uris": {"ios": "https://dc.lft.to/lastmile_qr_scan", "android": "https://dc.lft.to/lastmile_qr_scan"}, "is_disabled": 0, "bike_id": "5b5fd279dc21c17190b223971b80e51f", "fusion_lon": 0.0, "fusion_lat": 0.0, "is_reserved": 0, "type": "electric_scooter", "lon": -77.040259, "name": "5b5fd279dc21c17190b223971b80e51f", "lat": 38.91809816666667}, {"rental_uris": {"ios": "https://dc.lft.to/lastmile_qr_scan", "android": "https://dc.lft.to/lastmile_qr_scan"}, "is_disabled": 0, "bike_id": "0bc4e1b2052b68dc25ffe41c8af29d5d", "fusion_lon": 0.0, "fusion_lat": 0.0, "is_reserved": 0, "type": "electric_scooter", "lon": -77.04222933333334, "name": "0bc4e1b2052b68dc25ffe41c8af29d5d", "lat": 38.90787533333334}, {"rental_uris": {"ios": "https://dc.lft.to/lastmile_qr_scan", "android": "https://dc.lft.to/lastmile_qr_scan"}, "is_disabled": 0, "bike_id": "46b4abba29e540c0cbd638174668fc7c", "fusion_lon": 0.0, "fusion_lat": 0.0, "is_reserved": 0, "type": "electric_scooter", "lon": -77.04010683333334, "name": "46b4abba29e540c0cbd638174668fc7c", "lat": 38.922084166666664}, {"rental_uris": {"ios": "https://dc.lft.to/lastmile_qr_scan", "android": "https://dc.lft.to/lastmile_qr_scan"}, "is_disabled": 0, "bike_id": "0f12fe497438c6fdd28e3ddae8ec3f75", "fusion_lon": 0.0, "fusion_lat": 0.0, "is_reserved": 0, "type": "electric_scooter", "lon": -77.03278016666667, "name": "0f12fe497438c6fdd28e3ddae8ec3f75", "lat": 38.89913266666667}, {"rental_uris": {"ios": "https://dc.lft.to/lastmile_qr_scan", "android": "https://dc.lft.to/lastmile_qr_scan"}, "is_disabled": 0, "bike_id": "ccb141d94e4c0213f2ed979f0e8d763f", "fusion_lon": 0.0, "fusion_lat": 0.0, "is_reserved": 0, "type": "electric_scooter", "lon": -77.0212805, "name": "ccb141d94e4c0213f2ed979f0e8d763f", "lat": 38.91612416666667}, {"rental_uris": {"ios": "https://dc.lft.to/lastmile_qr_scan", "android": "https://dc.lft.to/lastmile_qr_scan"}, "is_disabled": 0, "bike_id": "032126feebc63ac9f698d8653e81d5b3", "fusion_lon": 0.0, "fusion_lat": 0.0, "is_reserved": 0, "type": "electric_bike", "lon": -77.13175633333333, "name": "032126feebc63ac9f698d8653e81d5b3", "lat": 38.86912266666667}, {"rental_uris": {"ios": "https://dc.lft.to/lastmile_qr_scan", "android": "https://dc.lft.to/lastmile_qr_scan"}, "is_disabled": 0, "bike_id": "b047bc87db9261f3bf3d7e8027660ed2", "fusion_lon": 0.0, "fusion_lat": 0.0, "is_reserved": 0, "type": "electric_scooter", "lon": -77.0570975, "name": "b047bc87db9261f3bf3d7e8027660ed2", "lat": 38.90555366666667}, {"rental_uris": {"ios": "https://dc.lft.to/lastmile_qr_scan", "android": "https://dc.lft.to/lastmile_qr_scan"}, "is_disabled": 0, "bike_id": "f854cc499253fb2359f23849445a06bf", "fusion_lon": 0.0, "fusion_lat": 0.0, "is_reserved": 0, "type": "electric_scooter", "lon": -77.02587183333333, "name": "f854cc499253fb2359f23849445a06bf", "lat": 38.907411833333335}, {"rental_uris": {"ios": "https://dc.lft.to/lastmile_qr_scan", "android": "https://dc.lft.to/lastmile_qr_scan"}, "is_disabled": 0, "bike_id": "eff7b6f345416372f32c0a6258be6363", "fusion_lon": 0.0, "fusion_lat": 0.0, "is_reserved": 0, "type": "electric_scooter", "lon": -77.0151125, "name": "eff7b6f345416372f32c0a6258be6363", "lat": 38.91050466666667}, {"rental_uris": {"ios": "https://dc.lft.to/lastmile_qr_scan", "android": "https://dc.lft.to/lastmile_qr_scan"}, "is_disabled": 0, "bike_id": "10c5056da06b9aae9cdfce18597e7a11", "fusion_lon": 0.0, "fusion_lat": 0.0, "is_reserved": 0, "type": "electric_scooter", "lon": -77.044915, "name": "10c5056da06b9aae9cdfce18597e7a11", "lat": 38.912024833333334}, {"rental_uris": {"ios": "https://dc.lft.to/lastmile_qr_scan", "android": "https://dc.lft.to/lastmile_qr_scan"}, "is_disabled": 0, "bike_id": "3ce0ca137b34aaca1caf70dd3586c55f", "fusion_lon": 0.0, "fusion_lat": 0.0, "is_reserved": 0, "type": "electric_scooter", "lon": -77.02675083333334, "name": "3ce0ca137b34aaca1caf70dd3586c55f", "lat": 38.89931266666667}, {"rental_uris": {"ios": "https://dc.lft.to/lastmile_qr_scan", "android": "https://dc.lft.to/lastmile_qr_scan"}, "is_disabled": 0, "bike_id": "978c3dfff99b70dca2229eb3cbb0dc28", "fusion_lon": 0.0, "fusion_lat": 0.0, "is_reserved": 0, "type": "electric_bike", "lon": -77.01034783333333, "name": "978c3dfff99b70dca2229eb3cbb0dc28", "lat": 38.9588125}, {"rental_uris": {"ios": "https://dc.lft.to/lastmile_qr_scan", "android": "https://dc.lft.to/lastmile_qr_scan"}, "is_disabled": 0, "bike_id": "5d7567ebf5a252abad0c9fc452df069d", "fusion_lon": 0.0, "fusion_lat": 0.0, "is_reserved": 0, "type": "electric_scooter", "lon": -76.98077233333333, "name": "5d7567ebf5a252abad0c9fc452df069d", "lat": 38.91954883333333}, {"rental_uris": {"ios": "https://dc.lft.to/lastmile_qr_scan", "android": "https://dc.lft.to/lastmile_qr_scan"}, "is_disabled": 0, "bike_id": "570136ee49978920a71c32e8c4083c45", "fusion_lon": 0.0, "fusion_lat": 0.0, "is_reserved": 0, "type": "electric_scooter", "lon": -77.04143333333333, "name": "570136ee49978920a71c32e8c4083c45", "lat": 38.92301633333334}, {"rental_uris": {"ios": "https://dc.lft.to/lastmile_qr_scan", "android": "https://dc.lft.to/lastmile_qr_scan"}, "is_disabled": 0, "bike_id": "1b5a79375fe2dd6826f19861c987cdc1", "fusion_lon": 0.0, "fusion_lat": 0.0, "is_reserved": 0, "type": "electric_scooter", "lon": -77.04865383333333, "name": "1b5a79375fe2dd6826f19861c987cdc1", "lat": 38.89223483333333}, {"rental_uris": {"ios": "https://dc.lft.to/lastmile_qr_scan", "android": "https://dc.lft.to/lastmile_qr_scan"}, "is_disabled": 0, "bike_id": "9816588ab92cd202731b821ceb43966d", "fusion_lon": 0.0, "fusion_lat": 0.0, "is_reserved": 0, "type": "electric_scooter", "lon": -77.01134433333333, "name": "9816588ab92cd202731b821ceb43966d", "lat": 38.885250166666665}, {"rental_uris": {"ios": "https://dc.lft.to/lastmile_qr_scan", "android": "https://dc.lft.to/lastmile_qr_scan"}, "is_disabled": 0, "bike_id": "e092a49ed1f9946016d78b5eeb9e6923", "fusion_lon": 0.0, "fusion_lat": 0.0, "is_reserved": 0, "type": "electric_bike", "lon": -77.08614183333333, "name": "e092a49ed1f9946016d78b5eeb9e6923", "lat": 38.85945383333333}, {"rental_uris": {"ios": "https://dc.lft.to/lastmile_qr_scan", "android": "https://dc.lft.to/lastmile_qr_scan"}, "is_disabled": 0, "bike_id": "d49f3e1290473ad9fac139b2523c6aab", "fusion_lon": 0.0, "fusion_lat": 0.0, "is_reserved": 0, "type": "electric_scooter", "lon": -77.0273135, "name": "d49f3e1290473ad9fac139b2523c6aab", "lat": 38.932561166666666}, {"rental_uris": {"ios": "https://dc.lft.to/lastmile_qr_scan", "android": "https://dc.lft.to/lastmile_qr_scan"}, "is_disabled": 0, "bike_id": "5c43abb97355d1574cb481bca42e18d4", "fusion_lon": 0.0, "fusion_lat": 0.0, "is_reserved": 0, "type": "electric_scooter", "lon": -77.00391066666667, "name": "5c43abb97355d1574cb481bca42e18d4", "lat": 38.90761883333333}, {"rental_uris": {"ios": "https://dc.lft.to/lastmile_qr_scan", "android": "https://dc.lft.to/lastmile_qr_scan"}, "is_disabled": 0, "bike_id": "02a674aa984f877b2538b7ab96fc4382", "fusion_lon": 0.0, "fusion_lat": 0.0, "is_reserved": 0, "type": "electric_scooter", "lon": -77.03422983333333, "name": "02a674aa984f877b2538b7ab96fc4382", "lat": 38.9308205}, {"rental_uris": {"ios": "https://dc.lft.to/lastmile_qr_scan", "android": "https://dc.lft.to/lastmile_qr_scan"}, "is_disabled": 0, "bike_id": "ae3b9e71d3a13f07eefd6e07759f97c1", "fusion_lon": 0.0, "fusion_lat": 0.0, "is_reserved": 0, "type": "electric_scooter", "lon": -77.043692, "name": "ae3b9e71d3a13f07eefd6e07759f97c1", "lat": 38.933318}, {"rental_uris": {"ios": "https://dc.lft.to/lastmile_qr_scan", "android": "https://dc.lft.to/lastmile_qr_scan"}, "is_disabled": 0, "bike_id": "ca3faec23a47a5eee71c1ea206c8d611", "fusion_lon": 0.0, "fusion_lat": 0.0, "is_reserved": 0, "type": "electric_scooter", "lon": -77.06060716666667, "name": "ca3faec23a47a5eee71c1ea206c8d611", "lat": 38.9024825}, {"rental_uris": {"ios": "https://dc.lft.to/lastmile_qr_scan", "android": "https://dc.lft.to/lastmile_qr_scan"}, "is_disabled": 0, "bike_id": "1fa05d78b6aa530b9f0810ef3f524b6e", "fusion_lon": 0.0, "fusion_lat": 0.0, "is_reserved": 0, "type": "electric_scooter", "lon": -77.03967383333334, "name": "1fa05d78b6aa530b9f0810ef3f524b6e", "lat": 38.899030333333336}, {"rental_uris": {"ios": "https://dc.lft.to/lastmile_qr_scan", "android": "https://dc.lft.to/lastmile_qr_scan"}, "is_disabled": 0, "bike_id": "5dfae05317466453aae8607e14e2671c", "fusion_lon": 0.0, "fusion_lat": 0.0, "is_reserved": 0, "type": "electric_scooter", "lon": -77.02960016666667, "name": "5dfae05317466453aae8607e14e2671c", "lat": 38.9026485}, {"rental_uris": {"ios": "https://dc.lft.to/lastmile_qr_scan", "android": "https://dc.lft.to/lastmile_qr_scan"}, "is_disabled": 0, "bike_id": "960ef1541768f50a7908df93180f816d", "fusion_lon": 0.0, "fusion_lat": 0.0, "is_reserved": 0, "type": "electric_bike", "lon": -77.05644133333334, "name": "960ef1541768f50a7908df93180f816d", "lat": 38.93692383333333}, {"rental_uris": {"ios": "https://dc.lft.to/lastmile_qr_scan", "android": "https://dc.lft.to/lastmile_qr_scan"}, "is_disabled": 0, "bike_id": "f2b7441ba809f8495f8eb7e9795982a0", "fusion_lon": 0.0, "fusion_lat": 0.0, "is_reserved": 0, "type": "electric_scooter", "lon": -77.03745816666667, "name": "f2b7441ba809f8495f8eb7e9795982a0", "lat": 38.929368}, {"rental_uris": {"ios": "https://dc.lft.to/lastmile_qr_scan", "android": "https://dc.lft.to/lastmile_qr_scan"}, "is_disabled": 0, "bike_id": "5e51e3015e2e7bb2c58621034bb660da", "fusion_lon": 0.0, "fusion_lat": 0.0, "is_reserved": 0, "type": "electric_scooter", "lon": -76.99571933333333, "name": "5e51e3015e2e7bb2c58621034bb660da", "lat": 38.89217}, {"rental_uris": {"ios": "https://dc.lft.to/lastmile_qr_scan", "android": "https://dc.lft.to/lastmile_qr_scan"}, "is_disabled": 0, "bike_id": "9da51875f27bd2d10862dcb17faf11ac", "fusion_lon": 0.0, "fusion_lat": 0.0, "is_reserved": 0, "type": "electric_scooter", "lon": -77.00602516666666, "name": "9da51875f27bd2d10862dcb17faf11ac", "lat": 38.9064255}, {"rental_uris": {"ios": "https://dc.lft.to/lastmile_qr_scan", "android": "https://dc.lft.to/lastmile_qr_scan"}, "is_disabled": 0, "bike_id": "6651e826ad65c51466a3f84bb51f1c00", "fusion_lon": 0.0, "fusion_lat": 0.0, "is_reserved": 0, "type": "electric_bike", "lon": -76.98842933333333, "name": "6651e826ad65c51466a3f84bb51f1c00", "lat": 38.8427135}, {"rental_uris": {"ios": "https://dc.lft.to/lastmile_qr_scan", "android": "https://dc.lft.to/lastmile_qr_scan"}, "is_disabled": 0, "bike_id": "1e8d4e06b91bedb339ea6cb583788180", "fusion_lon": 0.0, "fusion_lat": 0.0, "is_reserved": 0, "type": "electric_bike", "lon": -76.99770133333334, "name": "1e8d4e06b91bedb339ea6cb583788180", "lat": 38.837390166666665}, {"rental_uris": {"ios": "https://dc.lft.to/lastmile_qr_scan", "android": "https://dc.lft.to/lastmile_qr_scan"}, "is_disabled": 0, "bike_id": "fac9018d04f2a53a7dac5731c3b832af", "fusion_lon": 0.0, "fusion_lat": 0.0, "is_reserved": 0, "type": "electric_scooter", "lon": -76.98177383333334, "name": "fac9018d04f2a53a7dac5731c3b832af", "lat": 38.856836333333334}, {"rental_uris": {"ios": "https://dc.lft.to/lastmile_qr_scan", "android": "https://dc.lft.to/lastmile_qr_scan"}, "is_disabled": 0, "bike_id": "b573f006a8ea1a31e5109e19711c660d", "fusion_lon": 0.0, "fusion_lat": 0.0, "is_reserved": 0, "type": "electric_scooter", "lon": -77.01150733333333, "name": "b573f006a8ea1a31e5109e19711c660d", "lat": 38.94072833333333}, {"rental_uris": {"ios": "https://dc.lft.to/lastmile_qr_scan", "android": "https://dc.lft.to/lastmile_qr_scan"}, "is_disabled": 0, "bike_id": "2dde6fa787a1f068a51cc6dc7d3fc3f0", "fusion_lon": 0.0, "fusion_lat": 0.0, "is_reserved": 0, "type": "electric_scooter", "lon": -77.05050466666667, "name": "2dde6fa787a1f068a51cc6dc7d3fc3f0", "lat": 38.90384233333333}, {"rental_uris": {"ios": "https://dc.lft.to/lastmile_qr_scan", "android": "https://dc.lft.to/lastmile_qr_scan"}, "is_disabled": 0, "bike_id": "7675a7fbe1fdefc59eb8150cd82e921e", "fusion_lon": 0.0, "fusion_lat": 0.0, "is_reserved": 0, "type": "electric_scooter", "lon": -77.03661366666667, "name": "7675a7fbe1fdefc59eb8150cd82e921e", "lat": 38.91737}, {"rental_uris": {"ios": "https://dc.lft.to/lastmile_qr_scan", "android": "https://dc.lft.to/lastmile_qr_scan"}, "is_disabled": 0, "bike_id": "2df2c65af75114bc94e8b93c0419da56", "fusion_lon": 0.0, "fusion_lat": 0.0, "is_reserved": 0, "type": "electric_scooter", "lon": -77.02692866666666, "name": "2df2c65af75114bc94e8b93c0419da56", "lat": 38.924058}, {"rental_uris": {"ios": "https://dc.lft.to/lastmile_qr_scan", "android": "https://dc.lft.to/lastmile_qr_scan"}, "is_disabled": 0, "bike_id": "f19ad73b4b49c6a16aafd5c5293a2dff", "fusion_lon": 0.0, "fusion_lat": 0.0, "is_reserved": 0, "type": "electric_scooter", "lon": -76.99005233333334, "name": "f19ad73b4b49c6a16aafd5c5293a2dff", "lat": 38.86510333333333}, {"rental_uris": {"ios": "https://dc.lft.to/lastmile_qr_scan", "android": "https://dc.lft.to/lastmile_qr_scan"}, "is_disabled": 0, "bike_id": "d4ca48252d9627cec4a947ffece2a1d0", "fusion_lon": 0.0, "fusion_lat": 0.0, "is_reserved": 0, "type": "electric_scooter", "lon": -77.0433025, "name": "d4ca48252d9627cec4a947ffece2a1d0", "lat": 38.901397333333335}, {"rental_uris": {"ios": "https://dc.lft.to/lastmile_qr_scan", "android": "https://dc.lft.to/lastmile_qr_scan"}, "is_disabled": 0, "bike_id": "350196f5434726b0b14b85e40d430a76", "fusion_lon": 0.0, "fusion_lat": 0.0, "is_reserved": 0, "type": "electric_scooter", "lon": -77.04164916666667, "name": "350196f5434726b0b14b85e40d430a76", "lat": 38.9180665}, {"rental_uris": {"ios": "https://dc.lft.to/lastmile_qr_scan", "android": "https://dc.lft.to/lastmile_qr_scan"}, "is_disabled": 0, "bike_id": "a4b7e83831a9ffd436d94cba1e1baad4", "fusion_lon": 0.0, "fusion_lat": 0.0, "is_reserved": 0, "type": "electric_scooter", "lon": -77.07274183333334, "name": "a4b7e83831a9ffd436d94cba1e1baad4", "lat": 38.934913}, {"rental_uris": {"ios": "https://dc.lft.to/lastmile_qr_scan", "android": "https://dc.lft.to/lastmile_qr_scan"}, "is_disabled": 0, "bike_id": "f9820c3aded25b4298b97cd334e39ccd", "fusion_lon": 0.0, "fusion_lat": 0.0, "is_reserved": 0, "type": "electric_scooter", "lon": -77.026248, "name": "f9820c3aded25b4298b97cd334e39ccd", "lat": 38.927715166666665}, {"rental_uris": {"ios": "https://dc.lft.to/lastmile_qr_scan", "android": "https://dc.lft.to/lastmile_qr_scan"}, "is_disabled": 0, "bike_id": "9327dc9141b25f535c9a784f76a1a2ee", "fusion_lon": 0.0, "fusion_lat": 0.0, "is_reserved": 0, "type": "electric_scooter", "lon": -77.03470216666666, "name": "9327dc9141b25f535c9a784f76a1a2ee", "lat": 38.922519}, {"rental_uris": {"ios": "https://dc.lft.to/lastmile_qr_scan", "android": "https://dc.lft.to/lastmile_qr_scan"}, "is_disabled": 0, "bike_id": "920fba97b1cfecd545cee3c060541834", "fusion_lon": 0.0, "fusion_lat": 0.0, "is_reserved": 0, "type": "electric_scooter", "lon": -77.00596833333333, "name": "920fba97b1cfecd545cee3c060541834", "lat": 38.905769166666666}, {"rental_uris": {"ios": "https://dc.lft.to/lastmile_qr_scan", "android": "https://dc.lft.to/lastmile_qr_scan"}, "is_disabled": 0, "bike_id": "638cea1a4484fb4b6488de85aa813750", "fusion_lon": 0.0, "fusion_lat": 0.0, "is_reserved": 0, "type": "electric_scooter", "lon": -77.04264183333333, "name": "638cea1a4484fb4b6488de85aa813750", "lat": 38.916304}, {"rental_uris": {"ios": "https://dc.lft.to/lastmile_qr_scan", "android": "https://dc.lft.to/lastmile_qr_scan"}, "is_disabled": 0, "bike_id": "d470900758f83510095363dd3f52be18", "fusion_lon": 0.0, "fusion_lat": 0.0, "is_reserved": 0, "type": "electric_scooter", "lon": -77.04174933333333, "name": "d470900758f83510095363dd3f52be18", "lat": 38.903046}, {"rental_uris": {"ios": "https://dc.lft.to/lastmile_qr_scan", "android": "https://dc.lft.to/lastmile_qr_scan"}, "is_disabled": 0, "bike_id": "cfdfe3ec0c9f602401e173bdb65ebf9b", "fusion_lon": 0.0, "fusion_lat": 0.0, "is_reserved": 0, "type": "electric_scooter", "lon": -77.03241633333333, "name": "cfdfe3ec0c9f602401e173bdb65ebf9b", "lat": 38.95722633333333}, {"rental_uris": {"ios": "https://dc.lft.to/lastmile_qr_scan", "android": "https://dc.lft.to/lastmile_qr_scan"}, "is_disabled": 0, "bike_id": "3b0cdf44fdf2deae925b4fbbd0988092", "fusion_lon": 0.0, "fusion_lat": 0.0, "is_reserved": 0, "type": "electric_scooter", "lon": -77.07046833333334, "name": "3b0cdf44fdf2deae925b4fbbd0988092", "lat": 38.919242833333335}, {"rental_uris": {"ios": "https://dc.lft.to/lastmile_qr_scan", "android": "https://dc.lft.to/lastmile_qr_scan"}, "is_disabled": 0, "bike_id": "c341000a21fe3689d9779ad33fbae6cb", "fusion_lon": 0.0, "fusion_lat": 0.0, "is_reserved": 0, "type": "electric_scooter", "lon": -77.04508816666667, "name": "c341000a21fe3689d9779ad33fbae6cb", "lat": 38.912819666666664}, {"rental_uris": {"ios": "https://dc.lft.to/lastmile_qr_scan", "android": "https://dc.lft.to/lastmile_qr_scan"}, "is_disabled": 0, "bike_id": "1c40413586b1e9c5979154adaf11c1a5", "fusion_lon": 0.0, "fusion_lat": 0.0, "is_reserved": 0, "type": "electric_scooter", "lon": -77.0190225, "name": "1c40413586b1e9c5979154adaf11c1a5", "lat": 38.92345566666667}, {"rental_uris": {"ios": "https://dc.lft.to/lastmile_qr_scan", "android": "https://dc.lft.to/lastmile_qr_scan"}, "is_disabled": 0, "bike_id": "55887d23d1cbef14f18f862516acc4a0", "fusion_lon": 0.0, "fusion_lat": 0.0, "is_reserved": 0, "type": "electric_scooter", "lon": -76.991406, "name": "55887d23d1cbef14f18f862516acc4a0", "lat": 38.859518333333334}, {"rental_uris": {"ios": "https://dc.lft.to/lastmile_qr_scan", "android": "https://dc.lft.to/lastmile_qr_scan"}, "is_disabled": 0, "bike_id": "66eb503b085d0392ee5be07c2c851500", "fusion_lon": 0.0, "fusion_lat": 0.0, "is_reserved": 0, "type": "electric_scooter", "lon": -77.01980583333334, "name": "66eb503b085d0392ee5be07c2c851500", "lat": 38.902464}, {"rental_uris": {"ios": "https://dc.lft.to/lastmile_qr_scan", "android": "https://dc.lft.to/lastmile_qr_scan"}, "is_disabled": 0, "bike_id": "c6feeae7109b8c41c05df0e27287d230", "fusion_lon": 0.0, "fusion_lat": 0.0, "is_reserved": 0, "type": "electric_scooter", "lon": -77.0324815, "name": "c6feeae7109b8c41c05df0e27287d230", "lat": 38.90976333333333}, {"rental_uris": {"ios": "https://dc.lft.to/lastmile_qr_scan", "android": "https://dc.lft.to/lastmile_qr_scan"}, "is_disabled": 0, "bike_id": "b22b460c493b777fec947692146457fa", "fusion_lon": 0.0, "fusion_lat": 0.0, "is_reserved": 0, "type": "electric_scooter", "lon": -76.99847166666666, "name": "b22b460c493b777fec947692146457fa", "lat": 38.90166933333333}, {"rental_uris": {"ios": "https://dc.lft.to/lastmile_qr_scan", "android": "https://dc.lft.to/lastmile_qr_scan"}, "is_disabled": 0, "bike_id": "8f26e33786a5ebced9982501e6cf1cc3", "fusion_lon": 0.0, "fusion_lat": 0.0, "is_reserved": 0, "type": "electric_scooter", "lon": -77.02181633333333, "name": "8f26e33786a5ebced9982501e6cf1cc3", "lat": 38.917440166666665}, {"rental_uris": {"ios": "https://dc.lft.to/lastmile_qr_scan", "android": "https://dc.lft.to/lastmile_qr_scan"}, "is_disabled": 0, "bike_id": "a39012f81b8b85e5f425a9aed7c8141d", "fusion_lon": 0.0, "fusion_lat": 0.0, "is_reserved": 0, "type": "electric_scooter", "lon": -77.0523445, "name": "a39012f81b8b85e5f425a9aed7c8141d", "lat": 38.92467966666667}, {"rental_uris": {"ios": "https://dc.lft.to/lastmile_qr_scan", "android": "https://dc.lft.to/lastmile_qr_scan"}, "is_disabled": 0, "bike_id": "1751856c84c64efef6fa4f90e71d642b", "fusion_lon": 0.0, "fusion_lat": 0.0, "is_reserved": 0, "type": "electric_scooter", "lon": -77.02953016666666, "name": "1751856c84c64efef6fa4f90e71d642b", "lat": 38.918209166666664}, {"rental_uris": {"ios": "https://dc.lft.to/lastmile_qr_scan", "android": "https://dc.lft.to/lastmile_qr_scan"}, "is_disabled": 0, "bike_id": "a61ffa909c54c9a7fbb91e853b7f5f59", "fusion_lon": 0.0, "fusion_lat": 0.0, "is_reserved": 0, "type": "electric_scooter", "lon": -77.00492083333333, "name": "a61ffa909c54c9a7fbb91e853b7f5f59", "lat": 38.896906666666666}, {"rental_uris": {"ios": "https://dc.lft.to/lastmile_qr_scan", "android": "https://dc.lft.to/lastmile_qr_scan"}, "is_disabled": 0, "bike_id": "b2dad0c11ac212dab1720365c5694bbe", "fusion_lon": 0.0, "fusion_lat": 0.0, "is_reserved": 0, "type": "electric_bike", "lon": -76.9096895, "name": "b2dad0c11ac212dab1720365c5694bbe", "lat": 38.85434016666667}, {"rental_uris": {"ios": "https://dc.lft.to/lastmile_qr_scan", "android": "https://dc.lft.to/lastmile_qr_scan"}, "is_disabled": 0, "bike_id": "cb597884df4e8720903af1bb4f6d07e9", "fusion_lon": 0.0, "fusion_lat": 0.0, "is_reserved": 0, "type": "electric_scooter", "lon": -77.00920166666667, "name": "cb597884df4e8720903af1bb4f6d07e9", "lat": 38.8763565}, {"rental_uris": {"ios": "https://dc.lft.to/lastmile_qr_scan", "android": "https://dc.lft.to/lastmile_qr_scan"}, "is_disabled": 0, "bike_id": "7eb5cec6d6b1f13607d021bf64bed2e4", "fusion_lon": 0.0, "fusion_lat": 0.0, "is_reserved": 0, "type": "electric_scooter", "lon": -76.96525233333334, "name": "7eb5cec6d6b1f13607d021bf64bed2e4", "lat": 38.87629166666667}, {"rental_uris": {"ios": "https://dc.lft.to/lastmile_qr_scan", "android": "https://dc.lft.to/lastmile_qr_scan"}, "is_disabled": 0, "bike_id": "b2f1b3d38e4defdb9977c93df64a5fd5", "fusion_lon": 0.0, "fusion_lat": 0.0, "is_reserved": 0, "type": "electric_scooter", "lon": -77.038888, "name": "b2f1b3d38e4defdb9977c93df64a5fd5", "lat": 38.932349}, {"rental_uris": {"ios": "https://dc.lft.to/lastmile_qr_scan", "android": "https://dc.lft.to/lastmile_qr_scan"}, "is_disabled": 0, "bike_id": "a9eb5cd4fc715250747262eeadf997af", "fusion_lon": 0.0, "fusion_lat": 0.0, "is_reserved": 0, "type": "electric_bike", "lon": -77.0321035, "name": "a9eb5cd4fc715250747262eeadf997af", "lat": 38.9349865}, {"rental_uris": {"ios": "https://dc.lft.to/lastmile_qr_scan", "android": "https://dc.lft.to/lastmile_qr_scan"}, "is_disabled": 0, "bike_id": "c74a8c8b23632a9bb046dd83bcfbbbcb", "fusion_lon": 0.0, "fusion_lat": 0.0, "is_reserved": 0, "type": "electric_scooter", "lon": -77.0512875, "name": "c74a8c8b23632a9bb046dd83bcfbbbcb", "lat": 38.923651}, {"rental_uris": {"ios": "https://dc.lft.to/lastmile_qr_scan", "android": "https://dc.lft.to/lastmile_qr_scan"}, "is_disabled": 0, "bike_id": "fc5526c4489585608479f6eba3c3661b", "fusion_lon": 0.0, "fusion_lat": 0.0, "is_reserved": 0, "type": "electric_scooter", "lon": -76.99856583333333, "name": "fc5526c4489585608479f6eba3c3661b", "lat": 38.899994166666666}, {"rental_uris": {"ios": "https://dc.lft.to/lastmile_qr_scan", "android": "https://dc.lft.to/lastmile_qr_scan"}, "is_disabled": 0, "bike_id": "2ae60d80fd624ed83a7cddc910dda189", "fusion_lon": 0.0, "fusion_lat": 0.0, "is_reserved": 0, "type": "electric_scooter", "lon": -77.04363166666667, "name": "2ae60d80fd624ed83a7cddc910dda189", "lat": 38.902513}, {"rental_uris": {"ios": "https://dc.lft.to/lastmile_qr_scan", "android": "https://dc.lft.to/lastmile_qr_scan"}, "is_disabled": 0, "bike_id": "95e1f0c40c32b689c7b8433b49d0ed12", "fusion_lon": 0.0, "fusion_lat": 0.0, "is_reserved": 0, "type": "electric_scooter", "lon": -77.02121233333334, "name": "95e1f0c40c32b689c7b8433b49d0ed12", "lat": 38.935785333333335}, {"rental_uris": {"ios": "https://dc.lft.to/lastmile_qr_scan", "android": "https://dc.lft.to/lastmile_qr_scan"}, "is_disabled": 0, "bike_id": "d56147976696d109b631099d242cf528", "fusion_lon": 0.0, "fusion_lat": 0.0, "is_reserved": 0, "type": "electric_bike", "lon": -76.98057116666666, "name": "d56147976696d109b631099d242cf528", "lat": 38.90032133333333}, {"rental_uris": {"ios": "https://dc.lft.to/lastmile_qr_scan", "android": "https://dc.lft.to/lastmile_qr_scan"}, "is_disabled": 0, "bike_id": "68be9515a1873b35efc4de46627a666c", "fusion_lon": 0.0, "fusion_lat": 0.0, "is_reserved": 0, "type": "electric_bike", "lon": -77.222249, "name": "68be9515a1873b35efc4de46627a666c", "lat": 38.928600333333335}, {"rental_uris": {"ios": "https://dc.lft.to/lastmile_qr_scan", "android": "https://dc.lft.to/lastmile_qr_scan"}, "is_disabled": 0, "bike_id": "f9352cc23204737de08db2d8f72987b2", "fusion_lon": 0.0, "fusion_lat": 0.0, "is_reserved": 0, "type": "electric_scooter", "lon": -77.05043266666667, "name": "f9352cc23204737de08db2d8f72987b2", "lat": 38.89281916666667}, {"rental_uris": {"ios": "https://dc.lft.to/lastmile_qr_scan", "android": "https://dc.lft.to/lastmile_qr_scan"}, "is_disabled": 0, "bike_id": "c1f0a39ca95cb4f35ec9781b7ac91e33", "fusion_lon": 0.0, "fusion_lat": 0.0, "is_reserved": 0, "type": "electric_bike", "lon": -77.17840033333333, "name": "c1f0a39ca95cb4f35ec9781b7ac91e33", "lat": 39.08863066666667}, {"rental_uris": {"ios": "https://dc.lft.to/lastmile_qr_scan", "android": "https://dc.lft.to/lastmile_qr_scan"}, "is_disabled": 0, "bike_id": "932df89ab3780d2c5b451f15444281e6", "fusion_lon": 0.0, "fusion_lat": 0.0, "is_reserved": 0, "type": "electric_scooter", "lon": -77.02691183333333, "name": "932df89ab3780d2c5b451f15444281e6", "lat": 38.906820833333335}, {"rental_uris": {"ios": "https://dc.lft.to/lastmile_qr_scan", "android": "https://dc.lft.to/lastmile_qr_scan"}, "is_disabled": 0, "bike_id": "cc9ac628f58faf576fc4bf192964f11c", "fusion_lon": 0.0, "fusion_lat": 0.0, "is_reserved": 0, "type": "electric_scooter", "lon": -77.0442315, "name": "cc9ac628f58faf576fc4bf192964f11c", "lat": 38.910075166666665}, {"rental_uris": {"ios": "https://dc.lft.to/lastmile_qr_scan", "android": "https://dc.lft.to/lastmile_qr_scan"}, "is_disabled": 0, "bike_id": "8cfc1d71b9f204b64eebf46e64d51b1a", "fusion_lon": 0.0, "fusion_lat": 0.0, "is_reserved": 0, "type": "electric_scooter", "lon": -76.931761, "name": "8cfc1d71b9f204b64eebf46e64d51b1a", "lat": 38.898898333333335}, {"rental_uris": {"ios": "https://dc.lft.to/lastmile_qr_scan", "android": "https://dc.lft.to/lastmile_qr_scan"}, "is_disabled": 0, "bike_id": "0b3e1267a592572286ef738ae3d385ab", "fusion_lon": 0.0, "fusion_lat": 0.0, "is_reserved": 0, "type": "electric_bike", "lon": -77.01244733333333, "name": "0b3e1267a592572286ef738ae3d385ab", "lat": 38.92878733333333}, {"rental_uris": {"ios": "https://dc.lft.to/lastmile_qr_scan", "android": "https://dc.lft.to/lastmile_qr_scan"}, "is_disabled": 0, "bike_id": "8bf3354d14ac4ce229366b8835cabff2", "fusion_lon": 0.0, "fusion_lat": 0.0, "is_reserved": 0, "type": "electric_scooter", "lon": -77.0066065, "name": "8bf3354d14ac4ce229366b8835cabff2", "lat": 38.91297983333333}, {"rental_uris": {"ios": "https://dc.lft.to/lastmile_qr_scan", "android": "https://dc.lft.to/lastmile_qr_scan"}, "is_disabled": 0, "bike_id": "714cd54ab12414a4acf2d3e569fa7d65", "fusion_lon": 0.0, "fusion_lat": 0.0, "is_reserved": 0, "type": "electric_scooter", "lon": -76.99902066666667, "name": "714cd54ab12414a4acf2d3e569fa7d65", "lat": 38.90752833333333}, {"rental_uris": {"ios": "https://dc.lft.to/lastmile_qr_scan", "android": "https://dc.lft.to/lastmile_qr_scan"},