{"data": {"bikes": [{"lon": -77.0392035, "lat": 38.921627, "name": "690aec5c7dbd3ebcb25963574e2c7946", "fusion_lat": 0.0, "fusion_lon": 0.0, "rental_uris": {"android": "https://dc.lft.to/lastmile_qr_scan", "ios": "https://dc.lft.to/lastmile_qr_scan"}, "is_reserved": 0, "is_disabled": 0, "type": "electric_scooter", "bike_id": "690aec5c7dbd3ebcb25963574e2c7946"}, {"lon": -77.08445433333333, "lat": 38.9117255, "name": "77cb7daed3f98f495c5065af7e1f1d70", "fusion_lat": 0.0, "fusion_lon": 0.0, "rental_uris": {"android": "https://dc.lft.to/lastmile_qr_scan", "ios": "https://dc.lft.to/lastmile_qr_scan"}, "is_reserved": 0, "is_disabled": 0, "type": "electric_scooter", "bike_id": "77cb7daed3f98f495c5065af7e1f1d70"}, {"lon": -77.01293783333334, "lat": 38.93028133333333, "name": "4f09c651aee9704855729659ce7378ab", "fusion_lat": 0.0, "fusion_lon": 0.0, "rental_uris": {"android": "https://dc.lft.to/lastmile_qr_scan", "ios": "https://dc.lft.to/lastmile_qr_scan"}, "is_reserved": 0, "is_disabled": 0, "type": "electric_scooter", "bike_id": "4f09c651aee9704855729659ce7378ab"}, {"lon": -77.02694533333333, "lat": 38.91272283333333, "name": "81dadb539d51914f41f5f6671cfabdb1", "fusion_lat": 0.0, "fusion_lon": 0.0, "rental_uris": {"android": "https://dc.lft.to/lastmile_qr_scan", "ios": "https://dc.lft.to/lastmile_qr_scan"}, "is_reserved": 0, "is_disabled": 0, "type": "electric_scooter", "bike_id": "81dadb539d51914f41f5f6671cfabdb1"}, {"lon": -77.036436, "lat": 38.91790316666667, "name": "2fdd6e9c2301e022d181be41bbbd6733", "fusion_lat": 0.0, "fusion_lon": 0.0, "rental_uris": {"android": "https://dc.lft.to/lastmile_qr_scan", "ios": "https://dc.lft.to/lastmile_qr_scan"}, "is_reserved": 0, "is_disabled": 0, "type": "electric_scooter", "bike_id": "2fdd6e9c2301e022d181be41bbbd6733"}, {"lon": -77.01380566666667, "lat": 38.928542, "name": "635425546d299adc24bfa91702320b56", "fusion_lat": 0.0, "fusion_lon": 0.0, "rental_uris": {"android": "https://dc.lft.to/lastmile_qr_scan", "ios": "https://dc.lft.to/lastmile_qr_scan"}, "is_reserved": 0, "is_disabled": 0, "type": "electric_scooter", "bike_id": "635425546d299adc24bfa91702320b56"}, {"lon": -77.02411483333333, "lat": 38.91104766666667, "name": "0064d8fe94eba7f5db0d580a68e46d78", "fusion_lat": 0.0, "fusion_lon": 0.0, "rental_uris": {"android": "https://dc.lft.to/lastmile_qr_scan", "ios": "https://dc.lft.to/lastmile_qr_scan"}, "is_reserved": 0, "is_disabled": 0, "type": "electric_scooter", "bike_id": "0064d8fe94eba7f5db0d580a68e46d78"}, {"lon": -77.0170335, "lat": 38.9203265, "name": "0795bb21f44eca208d2eb23bb65a4e2b", "fusion_lat": 0.0, "fusion_lon": 0.0, "rental_uris": {"android": "https://dc.lft.to/lastmile_qr_scan", "ios": "https://dc.lft.to/lastmile_qr_scan"}, "is_reserved": 0, "is_disabled": 0, "type": "electric_scooter", "bike_id": "0795bb21f44eca208d2eb23bb65a4e2b"}, {"lon": -77.05002416666666, "lat": 38.892289166666664, "name": "d6f5c1e00160d4da13ca06b9eabc0377", "fusion_lat": 0.0, "fusion_lon": 0.0, "rental_uris": {"android": "https://dc.lft.to/lastmile_qr_scan", "ios": "https://dc.lft.to/lastmile_qr_scan"}, "is_reserved": 0, "is_disabled": 0, "type": "electric_scooter", "bike_id": "d6f5c1e00160d4da13ca06b9eabc0377"}, {"lon": -77.00138433333333, "lat": 38.900234833333336, "name": "0d3e7aee6341e32c018e6d449af3755b", "fusion_lat": 0.0, "fusion_lon": 0.0, "rental_uris": {"android": "https://dc.lft.to/lastmile_qr_scan", "ios": "https://dc.lft.to/lastmile_qr_scan"}, "is_reserved": 0, "is_disabled": 0, "type": "electric_scooter", "bike_id": "0d3e7aee6341e32c018e6d449af3755b"}, {"lon": -77.0366365, "lat": 38.917252833333336, "name": "4efeaa4c5146e3090ebd67b83192026f", "fusion_lat": 0.0, "fusion_lon": 0.0, "rental_uris": {"android": "https://dc.lft.to/lastmile_qr_scan", "ios": "https://dc.lft.to/lastmile_qr_scan"}, "is_reserved": 0, "is_disabled": 0, "type": "electric_scooter", "bike_id": "4efeaa4c5146e3090ebd67b83192026f"}, {"lon": -77.07367966666666, "lat": 38.943192, "name": "d6c1234425bb1721f7fae961d6fc289a", "fusion_lat": 0.0, "fusion_lon": 0.0, "rental_uris": {"android": "https://dc.lft.to/lastmile_qr_scan", "ios": "https://dc.lft.to/lastmile_qr_scan"}, "is_reserved": 0, "is_disabled": 0, "type": "electric_scooter", "bike_id": "d6c1234425bb1721f7fae961d6fc289a"}, {"lon": -76.98562966666667, "lat": 38.85583116666667, "name": "9d8875b1f182da1f0333442673dfc92b", "fusion_lat": 0.0, "fusion_lon": 0.0, "rental_uris": {"android": "https://dc.lft.to/lastmile_qr_scan", "ios": "https://dc.lft.to/lastmile_qr_scan"}, "is_reserved": 0, "is_disabled": 0, "type": "electric_scooter", "bike_id": "9d8875b1f182da1f0333442673dfc92b"}, {"lon": -77.072747, "lat": 38.934823333333334, "name": "333da2423e96c50e6f2bf8dedfb3d7a8", "fusion_lat": 0.0, "fusion_lon": 0.0, "rental_uris": {"android": "https://dc.lft.to/lastmile_qr_scan", "ios": "https://dc.lft.to/lastmile_qr_scan"}, "is_reserved": 0, "is_disabled": 0, "type": "electric_scooter", "bike_id": "333da2423e96c50e6f2bf8dedfb3d7a8"}, {"lon": -77.03474516666667, "lat": 38.908876, "name": "4cc25d122847a3e3db2eb434e11e021a", "fusion_lat": 0.0, "fusion_lon": 0.0, "rental_uris": {"android": "https://dc.lft.to/lastmile_qr_scan", "ios": "https://dc.lft.to/lastmile_qr_scan"}, "is_reserved": 0, "is_disabled": 0, "type": "electric_scooter", "bike_id": "4cc25d122847a3e3db2eb434e11e021a"}, {"lon": -77.02618083333333, "lat": 38.90024716666667, "name": "a69db8a634fbd5591f3937e555f41003", "fusion_lat": 0.0, "fusion_lon": 0.0, "rental_uris": {"android": "https://dc.lft.to/lastmile_qr_scan", "ios": "https://dc.lft.to/lastmile_qr_scan"}, "is_reserved": 0, "is_disabled": 0, "type": "electric_scooter", "bike_id": "a69db8a634fbd5591f3937e555f41003"}, {"lon": -77.03683633333333, "lat": 38.90825433333333, "name": "44edc7f78aaa096d66e156129aa1d18f", "fusion_lat": 0.0, "fusion_lon": 0.0, "rental_uris": {"android": "https://dc.lft.to/lastmile_qr_scan", "ios": "https://dc.lft.to/lastmile_qr_scan"}, "is_reserved": 0, "is_disabled": 0, "type": "electric_scooter", "bike_id": "44edc7f78aaa096d66e156129aa1d18f"}, {"lon": -77.03360383333333, "lat": 38.899609833333336, "name": "6fd1526e5a9a018bdfc85d6932c09695", "fusion_lat": 0.0, "fusion_lon": 0.0, "rental_uris": {"android": "https://dc.lft.to/lastmile_qr_scan", "ios": "https://dc.lft.to/lastmile_qr_scan"}, "is_reserved": 0, "is_disabled": 0, "type": "electric_scooter", "bike_id": "6fd1526e5a9a018bdfc85d6932c09695"}, {"lon": -77.03214216666667, "lat": 38.91709683333333, "name": "ee20d09b4f743c1dcd4c0e954ef2205f", "fusion_lat": 0.0, "fusion_lon": 0.0, "rental_uris": {"android": "https://dc.lft.to/lastmile_qr_scan", "ios": "https://dc.lft.to/lastmile_qr_scan"}, "is_reserved": 0, "is_disabled": 0, "type": "electric_scooter", "bike_id": "ee20d09b4f743c1dcd4c0e954ef2205f"}, {"lon": -77.0168795, "lat": 38.9132915, "name": "b9f302c6b4643ffe6203be68fbea78d5", "fusion_lat": 0.0, "fusion_lon": 0.0, "rental_uris": {"android": "https://dc.lft.to/lastmile_qr_scan", "ios": "https://dc.lft.to/lastmile_qr_scan"}, "is_reserved": 0, "is_disabled": 0, "type": "electric_scooter", "bike_id": "b9f302c6b4643ffe6203be68fbea78d5"}, {"lon": -77.04070766666666, "lat": 38.92355233333333, "name": "ece3fe1246840a91bdae9aba7a713162", "fusion_lat": 0.0, "fusion_lon": 0.0, "rental_uris": {"android": "https://dc.lft.to/lastmile_qr_scan", "ios": "https://dc.lft.to/lastmile_qr_scan"}, "is_reserved": 0, "is_disabled": 0, "type": "electric_scooter", "bike_id": "ece3fe1246840a91bdae9aba7a713162"}, {"lon": -76.9649425, "lat": 38.87549816666667, "name": "93af717108f80485e66b8933fa9e8983", "fusion_lat": 0.0, "fusion_lon": 0.0, "rental_uris": {"android": "https://dc.lft.to/lastmile_qr_scan", "ios": "https://dc.lft.to/lastmile_qr_scan"}, "is_reserved": 0, "is_disabled": 0, "type": "electric_scooter", "bike_id": "93af717108f80485e66b8933fa9e8983"}, {"lon": -77.00862466666666, "lat": 38.82731833333333, "name": "8b0a8de977d00e93cffa8f000fa7c643", "fusion_lat": 0.0, "fusion_lon": 0.0, "rental_uris": {"android": "https://dc.lft.to/lastmile_qr_scan", "ios": "https://dc.lft.to/lastmile_qr_scan"}, "is_reserved": 0, "is_disabled": 0, "type": "electric_bike", "bike_id": "8b0a8de977d00e93cffa8f000fa7c643"}, {"lon": -77.0372965, "lat": 38.93191816666667, "name": "54aed644ccb7b3c360f2ac30233c0ca3", "fusion_lat": 0.0, "fusion_lon": 0.0, "rental_uris": {"android": "https://dc.lft.to/lastmile_qr_scan", "ios": "https://dc.lft.to/lastmile_qr_scan"}, "is_reserved": 0, "is_disabled": 0, "type": "electric_bike", "bike_id": "54aed644ccb7b3c360f2ac30233c0ca3"}, {"lon": -77.00322833333334, "lat": 38.901435, "name": "08e702ef09716a58e484e320bf7fbf5f", "fusion_lat": 0.0, "fusion_lon": 0.0, "rental_uris": {"android": "https://dc.lft.to/lastmile_qr_scan", "ios": "https://dc.lft.to/lastmile_qr_scan"}, "is_reserved": 0, "is_disabled": 0, "type": "electric_scooter", "bike_id": "08e702ef09716a58e484e320bf7fbf5f"}, {"lon": -77.03668816666666, "lat": 38.90274183333333, "name": "452b1d9172a8b9da506d1b5a086b6002", "fusion_lat": 0.0, "fusion_lon": 0.0, "rental_uris": {"android": "https://dc.lft.to/lastmile_qr_scan", "ios": "https://dc.lft.to/lastmile_qr_scan"}, "is_reserved": 0, "is_disabled": 0, "type": "electric_scooter", "bike_id": "452b1d9172a8b9da506d1b5a086b6002"}, {"lon": -77.0040585, "lat": 38.879337166666666, "name": "ed6bcb50b83a79fb8d972e5bbeb0dab9", "fusion_lat": 0.0, "fusion_lon": 0.0, "rental_uris": {"android": "https://dc.lft.to/lastmile_qr_scan", "ios": "https://dc.lft.to/lastmile_qr_scan"}, "is_reserved": 0, "is_disabled": 0, "type": "electric_scooter", "bike_id": "ed6bcb50b83a79fb8d972e5bbeb0dab9"}, {"lon": -76.99950533333333, "lat": 38.880454666666665, "name": "820d0976fc119728a46c7fe51a1d9a81", "fusion_lat": 0.0, "fusion_lon": 0.0, "rental_uris": {"android": "https://dc.lft.to/lastmile_qr_scan", "ios": "https://dc.lft.to/lastmile_qr_scan"}, "is_reserved": 0, "is_disabled": 0, "type": "electric_scooter", "bike_id": "820d0976fc119728a46c7fe51a1d9a81"}, {"lon": -77.03205766666666, "lat": 38.9386345, "name": "20d16be999756aeff8760b76a15c60c9", "fusion_lat": 0.0, "fusion_lon": 0.0, "rental_uris": {"android": "https://dc.lft.to/lastmile_qr_scan", "ios": "https://dc.lft.to/lastmile_qr_scan"}, "is_reserved": 0, "is_disabled": 0, "type": "electric_scooter", "bike_id": "20d16be999756aeff8760b76a15c60c9"}, {"lon": -77.02354483333333, "lat": 38.920659666666666, "name": "904fb6e7496d1f6e0e362d71182b1cce", "fusion_lat": 0.0, "fusion_lon": 0.0, "rental_uris": {"android": "https://dc.lft.to/lastmile_qr_scan", "ios": "https://dc.lft.to/lastmile_qr_scan"}, "is_reserved": 0, "is_disabled": 0, "type": "electric_scooter", "bike_id": "904fb6e7496d1f6e0e362d71182b1cce"}, {"lon": -77.0021515, "lat": 38.907371833333336, "name": "b4d36d83d5bc351caabcebc640788f77", "fusion_lat": 0.0, "fusion_lon": 0.0, "rental_uris": {"android": "https://dc.lft.to/lastmile_qr_scan", "ios": "https://dc.lft.to/lastmile_qr_scan"}, "is_reserved": 0, "is_disabled": 0, "type": "electric_scooter", "bike_id": "b4d36d83d5bc351caabcebc640788f77"}, {"lon": -77.04209483333334, "lat": 38.91409733333333, "name": "fff1181053da0f749b7d27c76796dd0d", "fusion_lat": 0.0, "fusion_lon": 0.0, "rental_uris": {"android": "https://dc.lft.to/lastmile_qr_scan", "ios": "https://dc.lft.to/lastmile_qr_scan"}, "is_reserved": 0, "is_disabled": 0, "type": "electric_scooter", "bike_id": "fff1181053da0f749b7d27c76796dd0d"}, {"lon": -77.02708016666666, "lat": 38.94999766666667, "name": "212bbc9e8c653e93b19d039a692bb122", "fusion_lat": 0.0, "fusion_lon": 0.0, "rental_uris": {"android": "https://dc.lft.to/lastmile_qr_scan", "ios": "https://dc.lft.to/lastmile_qr_scan"}, "is_reserved": 0, "is_disabled": 0, "type": "electric_scooter", "bike_id": "212bbc9e8c653e93b19d039a692bb122"}, {"lon": -77.08207266666666, "lat": 38.93550316666666, "name": "3609781dfe24e448d2ca2fac7da491f7", "fusion_lat": 0.0, "fusion_lon": 0.0, "rental_uris": {"android": "https://dc.lft.to/lastmile_qr_scan", "ios": "https://dc.lft.to/lastmile_qr_scan"}, "is_reserved": 0, "is_disabled": 0, "type": "electric_scooter", "bike_id": "3609781dfe24e448d2ca2fac7da491f7"}, {"lon": -77.00353216666667, "lat": 38.894591166666665, "name": "75a219f57583f698d8ca7c1d061993e9", "fusion_lat": 0.0, "fusion_lon": 0.0, "rental_uris": {"android": "https://dc.lft.to/lastmile_qr_scan", "ios": "https://dc.lft.to/lastmile_qr_scan"}, "is_reserved": 0, "is_disabled": 0, "type": "electric_scooter", "bike_id": "75a219f57583f698d8ca7c1d061993e9"}, {"lon": -77.04304866666666, "lat": 39.0544695, "name": "0463c48ccfaafe5a1797d3cb38843119", "fusion_lat": 0.0, "fusion_lon": 0.0, "rental_uris": {"android": "https://dc.lft.to/lastmile_qr_scan", "ios": "https://dc.lft.to/lastmile_qr_scan"}, "is_reserved": 0, "is_disabled": 0, "type": "electric_bike", "bike_id": "0463c48ccfaafe5a1797d3cb38843119"}, {"lon": -77.17842416666667, "lat": 39.08856683333333, "name": "81a7ba830c59879a422369e756331a46", "fusion_lat": 0.0, "fusion_lon": 0.0, "rental_uris": {"android": "https://dc.lft.to/lastmile_qr_scan", "ios": "https://dc.lft.to/lastmile_qr_scan"}, "is_reserved": 0, "is_disabled": 0, "type": "electric_bike", "bike_id": "81a7ba830c59879a422369e756331a46"}, {"lon": -77.0356775, "lat": 38.957238833333335, "name": "ca8bc99f4979d4b4b813fd885ae846dc", "fusion_lat": 0.0, "fusion_lon": 0.0, "rental_uris": {"android": "https://dc.lft.to/lastmile_qr_scan", "ios": "https://dc.lft.to/lastmile_qr_scan"}, "is_reserved": 0, "is_disabled": 0, "type": "electric_scooter", "bike_id": "ca8bc99f4979d4b4b813fd885ae846dc"}, {"lon": -77.01576383333334, "lat": 38.87656166666667, "name": "9446c0cc2a71dc755b3943073f5483dc", "fusion_lat": 0.0, "fusion_lon": 0.0, "rental_uris": {"android": "https://dc.lft.to/lastmile_qr_scan", "ios": "https://dc.lft.to/lastmile_qr_scan"}, "is_reserved": 0, "is_disabled": 0, "type": "electric_scooter", "bike_id": "9446c0cc2a71dc755b3943073f5483dc"}, {"lon": -77.073644, "lat": 38.93363816666667, "name": "8b8c5599b137e5c93f408e2224340d40", "fusion_lat": 0.0, "fusion_lon": 0.0, "rental_uris": {"android": "https://dc.lft.to/lastmile_qr_scan", "ios": "https://dc.lft.to/lastmile_qr_scan"}, "is_reserved": 0, "is_disabled": 0, "type": "electric_scooter", "bike_id": "8b8c5599b137e5c93f408e2224340d40"}, {"lon": -77.02813416666666, "lat": 38.95616366666667, "name": "ec26876892a65109ac25132ba6f06fa7", "fusion_lat": 0.0, "fusion_lon": 0.0, "rental_uris": {"android": "https://dc.lft.to/lastmile_qr_scan", "ios": "https://dc.lft.to/lastmile_qr_scan"}, "is_reserved": 0, "is_disabled": 0, "type": "electric_scooter", "bike_id": "ec26876892a65109ac25132ba6f06fa7"}, {"lon": -77.01093816666666, "lat": 38.905545333333336, "name": "3c66c82dac9c91dae207774592468d4d", "fusion_lat": 0.0, "fusion_lon": 0.0, "rental_uris": {"android": "https://dc.lft.to/lastmile_qr_scan", "ios": "https://dc.lft.to/lastmile_qr_scan"}, "is_reserved": 0, "is_disabled": 0, "type": "electric_scooter", "bike_id": "3c66c82dac9c91dae207774592468d4d"}, {"lon": -77.03477, "lat": 38.902939, "name": "6ee6341c61d99fb688448e5abf7a8095", "fusion_lat": 0.0, "fusion_lon": 0.0, "rental_uris": {"android": "https://dc.lft.to/lastmile_qr_scan", "ios": "https://dc.lft.to/lastmile_qr_scan"}, "is_reserved": 0, "is_disabled": 0, "type": "electric_scooter", "bike_id": "6ee6341c61d99fb688448e5abf7a8095"}, {"lon": -77.02468266666666, "lat": 38.9015445, "name": "3e650f17298939f375434e641b7d71e8", "fusion_lat": 0.0, "fusion_lon": 0.0, "rental_uris": {"android": "https://dc.lft.to/lastmile_qr_scan", "ios": "https://dc.lft.to/lastmile_qr_scan"}, "is_reserved": 0, "is_disabled": 0, "type": "electric_scooter", "bike_id": "3e650f17298939f375434e641b7d71e8"}, {"lon": -77.122628, "lat": 38.891899333333335, "name": "2af4c78f1aeec6943fa8ad2667dd4a9a", "fusion_lat": 0.0, "fusion_lon": 0.0, "rental_uris": {"android": "https://dc.lft.to/lastmile_qr_scan", "ios": "https://dc.lft.to/lastmile_qr_scan"}, "is_reserved": 0, "is_disabled": 0, "type": "electric_bike", "bike_id": "2af4c78f1aeec6943fa8ad2667dd4a9a"}, {"lon": -77.07687483333333, "lat": 38.83192316666667, "name": "a8a5194f291656896745597ff4fc7143", "fusion_lat": 0.0, "fusion_lon": 0.0, "rental_uris": {"android": "https://dc.lft.to/lastmile_qr_scan", "ios": "https://dc.lft.to/lastmile_qr_scan"}, "is_reserved": 0, "is_disabled": 0, "type": "electric_bike", "bike_id": "a8a5194f291656896745597ff4fc7143"}, {"lon": -77.0475675, "lat": 38.902386, "name": "a3349c3a53b5d54e0eacc8e288d358db", "fusion_lat": 0.0, "fusion_lon": 0.0, "rental_uris": {"android": "https://dc.lft.to/lastmile_qr_scan", "ios": "https://dc.lft.to/lastmile_qr_scan"}, "is_reserved": 0, "is_disabled": 0, "type": "electric_scooter", "bike_id": "a3349c3a53b5d54e0eacc8e288d358db"}, {"lon": -77.04889483333334, "lat": 38.901132, "name": "d3d39a0ace20e8f0d7c854b112b3882d", "fusion_lat": 0.0, "fusion_lon": 0.0, "rental_uris": {"android": "https://dc.lft.to/lastmile_qr_scan", "ios": "https://dc.lft.to/lastmile_qr_scan"}, "is_reserved": 0, "is_disabled": 0, "type": "electric_scooter", "bike_id": "d3d39a0ace20e8f0d7c854b112b3882d"}, {"lon": -77.11229683333333, "lat": 38.82872716666667, "name": "dcedd62d4449bdc0052a00751fd220e0", "fusion_lat": 0.0, "fusion_lon": 0.0, "rental_uris": {"android": "https://dc.lft.to/lastmile_qr_scan", "ios": "https://dc.lft.to/lastmile_qr_scan"}, "is_reserved": 0, "is_disabled": 0, "type": "electric_bike", "bike_id": "dcedd62d4449bdc0052a00751fd220e0"}, {"lon": -77.050136, "lat": 38.90082866666667, "name": "789cdeff9f479af691a5333280ff0251", "fusion_lat": 0.0, "fusion_lon": 0.0, "rental_uris": {"android": "https://dc.lft.to/lastmile_qr_scan", "ios": "https://dc.lft.to/lastmile_qr_scan"}, "is_reserved": 0, "is_disabled": 0, "type": "electric_scooter", "bike_id": "789cdeff9f479af691a5333280ff0251"}, {"lon": -77.04725216666667, "lat": 38.9024295, "name": "7beba65a01e1d85bf7d36edc57fc0b7d", "fusion_lat": 0.0, "fusion_lon": 0.0, "rental_uris": {"android": "https://dc.lft.to/lastmile_qr_scan", "ios": "https://dc.lft.to/lastmile_qr_scan"}, "is_reserved": 0, "is_disabled": 0, "type": "electric_scooter", "bike_id": "7beba65a01e1d85bf7d36edc57fc0b7d"}, {"lon": -76.93545166666667, "lat": 38.955503, "name": "3e14051219d3f202959a22c4552153de", "fusion_lat": 0.0, "fusion_lon": 0.0, "rental_uris": {"android": "https://dc.lft.to/lastmile_qr_scan", "ios": "https://dc.lft.to/lastmile_qr_scan"}, "is_reserved": 0, "is_disabled": 0, "type": "electric_bike", "bike_id": "3e14051219d3f202959a22c4552153de"}, {"lon": -77.0756235, "lat": 38.92087183333334, "name": "ab09bfb9a3ad5046dbe90b8fc392291b", "fusion_lat": 0.0, "fusion_lon": 0.0, "rental_uris": {"android": "https://dc.lft.to/lastmile_qr_scan", "ios": "https://dc.lft.to/lastmile_qr_scan"}, "is_reserved": 0, "is_disabled": 0, "type": "electric_scooter", "bike_id": "ab09bfb9a3ad5046dbe90b8fc392291b"}, {"lon": -77.0120445, "lat": 38.91965616666667, "name": "bc5ee765225d920b770fc174c7cb99fc", "fusion_lat": 0.0, "fusion_lon": 0.0, "rental_uris": {"android": "https://dc.lft.to/lastmile_qr_scan", "ios": "https://dc.lft.to/lastmile_qr_scan"}, "is_reserved": 0, "is_disabled": 0, "type": "electric_scooter", "bike_id": "bc5ee765225d920b770fc174c7cb99fc"}, {"lon": -77.0562255, "lat": 38.9241225, "name": "efa9f48cfa244c69af322638824d9344", "fusion_lat": 0.0, "fusion_lon": 0.0, "rental_uris": {"android": "https://dc.lft.to/lastmile_qr_scan", "ios": "https://dc.lft.to/lastmile_qr_scan"}, "is_reserved": 0, "is_disabled": 0, "type": "electric_scooter", "bike_id": "efa9f48cfa244c69af322638824d9344"}, {"lon": -77.00142533333333, "lat": 38.90012133333333, "name": "18baa657cab716876165727bda907956", "fusion_lat": 0.0, "fusion_lon": 0.0, "rental_uris": {"android": "https://dc.lft.to/lastmile_qr_scan", "ios": "https://dc.lft.to/lastmile_qr_scan"}, "is_reserved": 0, "is_disabled": 0, "type": "electric_scooter", "bike_id": "18baa657cab716876165727bda907956"}, {"lon": -76.987422, "lat": 38.944315333333336, "name": "19ac9c120d3237d13a90901d613e1d85", "fusion_lat": 0.0, "fusion_lon": 0.0, "rental_uris": {"android": "https://dc.lft.to/lastmile_qr_scan", "ios": "https://dc.lft.to/lastmile_qr_scan"}, "is_reserved": 0, "is_disabled": 0, "type": "electric_bike", "bike_id": "19ac9c120d3237d13a90901d613e1d85"}, {"lon": -77.078349, "lat": 38.926638833333335, "name": "77d359c54b8cd6c50c1cc965d880cff6", "fusion_lat": 0.0, "fusion_lon": 0.0, "rental_uris": {"android": "https://dc.lft.to/lastmile_qr_scan", "ios": "https://dc.lft.to/lastmile_qr_scan"}, "is_reserved": 0, "is_disabled": 0, "type": "electric_scooter", "bike_id": "77d359c54b8cd6c50c1cc965d880cff6"}, {"lon": -77.0227445, "lat": 38.8873025, "name": "e31829c5e71289922801cc3276547847", "fusion_lat": 0.0, "fusion_lon": 0.0, "rental_uris": {"android": "https://dc.lft.to/lastmile_qr_scan", "ios": "https://dc.lft.to/lastmile_qr_scan"}, "is_reserved": 0, "is_disabled": 0, "type": "electric_scooter", "bike_id": "e31829c5e71289922801cc3276547847"}, {"lon": -77.0220455, "lat": 38.885801666666666, "name": "2ea25921755df9b04fe68d7d29562163", "fusion_lat": 0.0, "fusion_lon": 0.0, "rental_uris": {"android": "https://dc.lft.to/lastmile_qr_scan", "ios": "https://dc.lft.to/lastmile_qr_scan"}, "is_reserved": 0, "is_disabled": 0, "type": "electric_scooter", "bike_id": "2ea25921755df9b04fe68d7d29562163"}, {"lon": -76.9869685, "lat": 38.900134, "name": "e6f793ec744697c376f326f61e3762a5", "fusion_lat": 0.0, "fusion_lon": 0.0, "rental_uris": {"android": "https://dc.lft.to/lastmile_qr_scan", "ios": "https://dc.lft.to/lastmile_qr_scan"}, "is_reserved": 0, "is_disabled": 0, "type": "electric_scooter", "bike_id": "e6f793ec744697c376f326f61e3762a5"}, {"lon": -76.96625483333334, "lat": 38.942008666666666, "name": "22a98495bae871a55a8dab64f530a7c5", "fusion_lat": 0.0, "fusion_lon": 0.0, "rental_uris": {"android": "https://dc.lft.to/lastmile_qr_scan", "ios": "https://dc.lft.to/lastmile_qr_scan"}, "is_reserved": 0, "is_disabled": 0, "type": "electric_bike", "bike_id": "22a98495bae871a55a8dab64f530a7c5"}, {"lon": -77.02650366666667, "lat": 38.938656333333334, "name": "93b532c7648be422fbdd54990b5fc4a6", "fusion_lat": 0.0, "fusion_lon": 0.0, "rental_uris": {"android": "https://dc.lft.to/lastmile_qr_scan", "ios": "https://dc.lft.to/lastmile_qr_scan"}, "is_reserved": 0, "is_disabled": 0, "type": "electric_scooter", "bike_id": "93b532c7648be422fbdd54990b5fc4a6"}, {"lon": -77.09964733333334, "lat": 38.922398666666666, "name": "8fa025fa738b2624ced7ce64c40ba4ae", "fusion_lat": 0.0, "fusion_lon": 0.0, "rental_uris": {"android": "https://dc.lft.to/lastmile_qr_scan", "ios": "https://dc.lft.to/lastmile_qr_scan"}, "is_reserved": 0, "is_disabled": 0, "type": "electric_scooter", "bike_id": "8fa025fa738b2624ced7ce64c40ba4ae"}, {"lon": -77.03678266666667, "lat": 38.9211855, "name": "54c9e64ef1752f315de605be43d1dd40", "fusion_lat": 0.0, "fusion_lon": 0.0, "rental_uris": {"android": "https://dc.lft.to/lastmile_qr_scan", "ios": "https://dc.lft.to/lastmile_qr_scan"}, "is_reserved": 0, "is_disabled": 0, "type": "electric_scooter", "bike_id": "54c9e64ef1752f315de605be43d1dd40"}, {"lon": -77.04643716666666, "lat": 38.922306, "name": "7eefac68de67f6d098e4e79537af6571", "fusion_lat": 0.0, "fusion_lon": 0.0, "rental_uris": {"android": "https://dc.lft.to/lastmile_qr_scan", "ios": "https://dc.lft.to/lastmile_qr_scan"}, "is_reserved": 0, "is_disabled": 0, "type": "electric_scooter", "bike_id": "7eefac68de67f6d098e4e79537af6571"}, {"lon": -77.01599683333333, "lat": 38.8874555, "name": "56d1489d3c27d193a458dcd24c63ec6c", "fusion_lat": 0.0, "fusion_lon": 0.0, "rental_uris": {"android": "https://dc.lft.to/lastmile_qr_scan", "ios": "https://dc.lft.to/lastmile_qr_scan"}, "is_reserved": 0, "is_disabled": 0, "type": "electric_scooter", "bike_id": "56d1489d3c27d193a458dcd24c63ec6c"}, {"lon": -77.02230666666667, "lat": 38.9127245, "name": "1792e0f0f4f8fcbfcb676f06c0f99fcb", "fusion_lat": 0.0, "fusion_lon": 0.0, "rental_uris": {"android": "https://dc.lft.to/lastmile_qr_scan", "ios": "https://dc.lft.to/lastmile_qr_scan"}, "is_reserved": 0, "is_disabled": 0, "type": "electric_scooter", "bike_id": "1792e0f0f4f8fcbfcb676f06c0f99fcb"}, {"lon": -77.02151783333333, "lat": 38.8940455, "name": "1ba6f88088adc5db68833e208ed164a2", "fusion_lat": 0.0, "fusion_lon": 0.0, "rental_uris": {"android": "https://dc.lft.to/lastmile_qr_scan", "ios": "https://dc.lft.to/lastmile_qr_scan"}, "is_reserved": 0, "is_disabled": 0, "type": "electric_scooter", "bike_id": "1ba6f88088adc5db68833e208ed164a2"}, {"lon": -77.031854, "lat": 38.91925366666667, "name": "3df3c2cfcb47e662af8b71a09a2c592a", "fusion_lat": 0.0, "fusion_lon": 0.0, "rental_uris": {"android": "https://dc.lft.to/lastmile_qr_scan", "ios": "https://dc.lft.to/lastmile_qr_scan"}, "is_reserved": 0, "is_disabled": 0, "type": "electric_scooter", "bike_id": "3df3c2cfcb47e662af8b71a09a2c592a"}, {"lon": -77.0153975, "lat": 38.94311233333333, "name": "aacf1dbaf4a95ebe3340d1c1c6b2a65d", "fusion_lat": 0.0, "fusion_lon": 0.0, "rental_uris": {"android": "https://dc.lft.to/lastmile_qr_scan", "ios": "https://dc.lft.to/lastmile_qr_scan"}, "is_reserved": 0, "is_disabled": 0, "type": "electric_scooter", "bike_id": "aacf1dbaf4a95ebe3340d1c1c6b2a65d"}, {"lon": -77.01601266666667, "lat": 38.909553, "name": "ae173a8da9bfc9f26480efc0d018bc61", "fusion_lat": 0.0, "fusion_lon": 0.0, "rental_uris": {"android": "https://dc.lft.to/lastmile_qr_scan", "ios": "https://dc.lft.to/lastmile_qr_scan"}, "is_reserved": 0, "is_disabled": 0, "type": "electric_scooter", "bike_id": "ae173a8da9bfc9f26480efc0d018bc61"}, {"lon": -76.99869533333333, "lat": 38.900291833333334, "name": "c52ffb27e184ffd83166e6e7af5a86f3", "fusion_lat": 0.0, "fusion_lon": 0.0, "rental_uris": {"android": "https://dc.lft.to/lastmile_qr_scan", "ios": "https://dc.lft.to/lastmile_qr_scan"}, "is_reserved": 0, "is_disabled": 0, "type": "electric_scooter", "bike_id": "c52ffb27e184ffd83166e6e7af5a86f3"}, {"lon": -76.94892716666666, "lat": 38.89523483333333, "name": "af0431eafe57361d7421c65ad77362f3", "fusion_lat": 0.0, "fusion_lon": 0.0, "rental_uris": {"android": "https://dc.lft.to/lastmile_qr_scan", "ios": "https://dc.lft.to/lastmile_qr_scan"}, "is_reserved": 0, "is_disabled": 0, "type": "electric_scooter", "bike_id": "af0431eafe57361d7421c65ad77362f3"}, {"lon": -77.03643216666667, "lat": 38.9240755, "name": "892a9f9ad3b15ab216f7d39e50db44bc", "fusion_lat": 0.0, "fusion_lon": 0.0, "rental_uris": {"android": "https://dc.lft.to/lastmile_qr_scan", "ios": "https://dc.lft.to/lastmile_qr_scan"}, "is_reserved": 0, "is_disabled": 0, "type": "electric_scooter", "bike_id": "892a9f9ad3b15ab216f7d39e50db44bc"}, {"lon": -77.00050233333333, "lat": 38.903635666666666, "name": "756994b86029702ef8595cd4a6fa8459", "fusion_lat": 0.0, "fusion_lon": 0.0, "rental_uris": {"android": "https://dc.lft.to/lastmile_qr_scan", "ios": "https://dc.lft.to/lastmile_qr_scan"}, "is_reserved": 0, "is_disabled": 0, "type": "electric_scooter", "bike_id": "756994b86029702ef8595cd4a6fa8459"}, {"lon": -77.04175883333333, "lat": 38.9191285, "name": "cb6bc8df9b2f3f0e574b49d42bde7598", "fusion_lat": 0.0, "fusion_lon": 0.0, "rental_uris": {"android": "https://dc.lft.to/lastmile_qr_scan", "ios": "https://dc.lft.to/lastmile_qr_scan"}, "is_reserved": 0, "is_disabled": 0, "type": "electric_scooter", "bike_id": "cb6bc8df9b2f3f0e574b49d42bde7598"}, {"lon": -77.02562016666667, "lat": 38.9385175, "name": "b2d2e7c47a3c0509fa90265f27bfa3ce", "fusion_lat": 0.0, "fusion_lon": 0.0, "rental_uris": {"android": "https://dc.lft.to/lastmile_qr_scan", "ios": "https://dc.lft.to/lastmile_qr_scan"}, "is_reserved": 0, "is_disabled": 0, "type": "electric_scooter", "bike_id": "b2d2e7c47a3c0509fa90265f27bfa3ce"}, {"lon": -76.99628916666667, "lat": 38.846207166666666, "name": "dc7afa5feba941b5d54d8727e7c540dd", "fusion_lat": 0.0, "fusion_lon": 0.0, "rental_uris": {"android": "https://dc.lft.to/lastmile_qr_scan", "ios": "https://dc.lft.to/lastmile_qr_scan"}, "is_reserved": 0, "is_disabled": 0, "type": "electric_scooter", "bike_id": "dc7afa5feba941b5d54d8727e7c540dd"}, {"lon": -77.024828, "lat": 38.938774333333335, "name": "a31ca2c784d03518c1931c48aeafd0a0", "fusion_lat": 0.0, "fusion_lon": 0.0, "rental_uris": {"android": "https://dc.lft.to/lastmile_qr_scan", "ios": "https://dc.lft.to/lastmile_qr_scan"}, "is_reserved": 0, "is_disabled": 0, "type": "electric_scooter", "bike_id": "a31ca2c784d03518c1931c48aeafd0a0"}, {"lon": -76.99014516666666, "lat": 38.8610775, "name": "b383575e132ab8c4e016377f06333e8a", "fusion_lat": 0.0, "fusion_lon": 0.0, "rental_uris": {"android": "https://dc.lft.to/lastmile_qr_scan", "ios": "https://dc.lft.to/lastmile_qr_scan"}, "is_reserved": 0, "is_disabled": 0, "type": "electric_scooter", "bike_id": "b383575e132ab8c4e016377f06333e8a"}, {"lon": -77.03225766666667, "lat": 38.90896166666667, "name": "6ba57ae20c69d684606331eeaa127c59", "fusion_lat": 0.0, "fusion_lon": 0.0, "rental_uris": {"android": "https://dc.lft.to/lastmile_qr_scan", "ios": "https://dc.lft.to/lastmile_qr_scan"}, "is_reserved": 0, "is_disabled": 0, "type": "electric_bike", "bike_id": "6ba57ae20c69d684606331eeaa127c59"}, {"lon": -77.0575865, "lat": 38.924961333333336, "name": "332f96dbf1427b13543235bf68622fc4", "fusion_lat": 0.0, "fusion_lon": 0.0, "rental_uris": {"android": "https://dc.lft.to/lastmile_qr_scan", "ios": "https://dc.lft.to/lastmile_qr_scan"}, "is_reserved": 0, "is_disabled": 0, "type": "electric_bike", "bike_id": "332f96dbf1427b13543235bf68622fc4"}, {"lon": -77.0021265, "lat": 38.902227, "name": "75f578a5ccc34a091e3eb1d51b9c8a38", "fusion_lat": 0.0, "fusion_lon": 0.0, "rental_uris": {"android": "https://dc.lft.to/lastmile_qr_scan", "ios": "https://dc.lft.to/lastmile_qr_scan"}, "is_reserved": 0, "is_disabled": 0, "type": "electric_scooter", "bike_id": "75f578a5ccc34a091e3eb1d51b9c8a38"}, {"lon": -76.91656183333333, "lat": 38.868572666666665, "name": "0063536ce6b8afafa644074c58cec969", "fusion_lat": 0.0, "fusion_lon": 0.0, "rental_uris": {"android": "https://dc.lft.to/lastmile_qr_scan", "ios": "https://dc.lft.to/lastmile_qr_scan"}, "is_reserved": 0, "is_disabled": 0, "type": "electric_bike", "bike_id": "0063536ce6b8afafa644074c58cec969"}, {"lon": -77.10767466666667, "lat": 38.892280666666665, "name": "89a54dd7d48b53e0652b77203dfdea7e", "fusion_lat": 0.0, "fusion_lon": 0.0, "rental_uris": {"android": "https://dc.lft.to/lastmile_qr_scan", "ios": "https://dc.lft.to/lastmile_qr_scan"}, "is_reserved": 0, "is_disabled": 0, "type": "electric_bike", "bike_id": "89a54dd7d48b53e0652b77203dfdea7e"}, {"lon": -77.01754816666667, "lat": 38.902643166666664, "name": "f5ed9673a73c5000c6d14c6ee52475b7", "fusion_lat": 0.0, "fusion_lon": 0.0, "rental_uris": {"android": "https://dc.lft.to/lastmile_qr_scan", "ios": "https://dc.lft.to/lastmile_qr_scan"}, "is_reserved": 0, "is_disabled": 0, "type": "electric_scooter", "bike_id": "f5ed9673a73c5000c6d14c6ee52475b7"}, {"lon": -77.02698366666667, "lat": 38.9151365, "name": "f37436c6c7608a98888adbc908c751a6", "fusion_lat": 0.0, "fusion_lon": 0.0, "rental_uris": {"android": "https://dc.lft.to/lastmile_qr_scan", "ios": "https://dc.lft.to/lastmile_qr_scan"}, "is_reserved": 0, "is_disabled": 0, "type": "electric_scooter", "bike_id": "f37436c6c7608a98888adbc908c751a6"}, {"lon": -76.954171, "lat": 38.89159866666667, "name": "5bc15a6851ca48ecfd5b9a6323fbb44a", "fusion_lat": 0.0, "fusion_lon": 0.0, "rental_uris": {"android": "https://dc.lft.to/lastmile_qr_scan", "ios": "https://dc.lft.to/lastmile_qr_scan"}, "is_reserved": 0, "is_disabled": 0, "type": "electric_scooter", "bike_id": "5bc15a6851ca48ecfd5b9a6323fbb44a"}, {"lon": -77.04391816666667, "lat": 38.903922, "name": "889eb827c78873c01600cfea9aa12a30", "fusion_lat": 0.0, "fusion_lon": 0.0, "rental_uris": {"android": "https://dc.lft.to/lastmile_qr_scan", "ios": "https://dc.lft.to/lastmile_qr_scan"}, "is_reserved": 0, "is_disabled": 0, "type": "electric_scooter", "bike_id": "889eb827c78873c01600cfea9aa12a30"}, {"lon": -77.0317875, "lat": 38.91915516666667, "name": "198b0eac7ef5a25931453b054baa21d4", "fusion_lat": 0.0, "fusion_lon": 0.0, "rental_uris": {"android": "https://dc.lft.to/lastmile_qr_scan", "ios": "https://dc.lft.to/lastmile_qr_scan"}, "is_reserved": 0, "is_disabled": 0, "type": "electric_scooter", "bike_id": "198b0eac7ef5a25931453b054baa21d4"}, {"lon": -77.07278283333333, "lat": 38.909185, "name": "8ac8cb651731045e7789c885a5c860ef", "fusion_lat": 0.0, "fusion_lon": 0.0, "rental_uris": {"android": "https://dc.lft.to/lastmile_qr_scan", "ios": "https://dc.lft.to/lastmile_qr_scan"}, "is_reserved": 0, "is_disabled": 0, "type": "electric_scooter", "bike_id": "8ac8cb651731045e7789c885a5c860ef"}, {"lon": -76.9847065, "lat": 38.911485, "name": "74a67399138bbe614a50c5872af68bf9", "fusion_lat": 0.0, "fusion_lon": 0.0, "rental_uris": {"android": "https://dc.lft.to/lastmile_qr_scan", "ios": "https://dc.lft.to/lastmile_qr_scan"}, "is_reserved": 0, "is_disabled": 0, "type": "electric_scooter", "bike_id": "74a67399138bbe614a50c5872af68bf9"}, {"lon": -77.04059133333334, "lat": 38.91769166666667, "name": "486fb96d717f8ac7e55380872eb4ff38", "fusion_lat": 0.0, "fusion_lon": 0.0, "rental_uris": {"android": "https://dc.lft.to/lastmile_qr_scan", "ios": "https://dc.lft.to/lastmile_qr_scan"}, "is_reserved": 0, "is_disabled": 0, "type": "electric_scooter", "bike_id": "486fb96d717f8ac7e55380872eb4ff38"}, {"lon": -77.03841933333334, "lat": 38.91552216666667, "name": "bdc53dbef88f609e0a5187e61145078c", "fusion_lat": 0.0, "fusion_lon": 0.0, "rental_uris": {"android": "https://dc.lft.to/lastmile_qr_scan", "ios": "https://dc.lft.to/lastmile_qr_scan"}, "is_reserved": 0, "is_disabled": 0, "type": "electric_scooter", "bike_id": "bdc53dbef88f609e0a5187e61145078c"}, {"lon": -77.04992566666667, "lat": 38.905332333333334, "name": "207dd033ddb8218e61db67b3b80938d0", "fusion_lat": 0.0, "fusion_lon": 0.0, "rental_uris": {"android": "https://dc.lft.to/lastmile_qr_scan", "ios": "https://dc.lft.to/lastmile_qr_scan"}, "is_reserved": 0, "is_disabled": 0, "type": "electric_scooter", "bike_id": "207dd033ddb8218e61db67b3b80938d0"}, {"lon": -76.98726983333333, "lat": 38.86713116666667, "name": "92072ac6879021e72b067766a1aa4f3c", "fusion_lat": 0.0, "fusion_lon": 0.0, "rental_uris": {"android": "https://dc.lft.to/lastmile_qr_scan", "ios": "https://dc.lft.to/lastmile_qr_scan"}, "is_reserved": 0, "is_disabled": 0, "type": "electric_scooter", "bike_id": "92072ac6879021e72b067766a1aa4f3c"}, {"lon": -77.0348005, "lat": 38.924783166666664, "name": "bf742a0ac4a614acc26c09c5f612603a", "fusion_lat": 0.0, "fusion_lon": 0.0, "rental_uris": {"android": "https://dc.lft.to/lastmile_qr_scan", "ios": "https://dc.lft.to/lastmile_qr_scan"}, "is_reserved": 0, "is_disabled": 0, "type": "electric_scooter", "bike_id": "bf742a0ac4a614acc26c09c5f612603a"}, {"lon": -76.9809685, "lat": 38.8571895, "name": "c96859d9f7de7334f073e2eb5d690c4b", "fusion_lat": 0.0, "fusion_lon": 0.0, "rental_uris": {"android": "https://dc.lft.to/lastmile_qr_scan", "ios": "https://dc.lft.to/lastmile_qr_scan"}, "is_reserved": 0, "is_disabled": 0, "type": "electric_scooter", "bike_id": "c96859d9f7de7334f073e2eb5d690c4b"}, {"lon": -77.11613766666666, "lat": 38.854878166666666, "name": "659d8d03ba3ab4bc25842273b9713219", "fusion_lat": 0.0, "fusion_lon": 0.0, "rental_uris": {"android": "https://dc.lft.to/lastmile_qr_scan", "ios": "https://dc.lft.to/lastmile_qr_scan"}, "is_reserved": 0, "is_disabled": 0, "type": "electric_bike", "bike_id": "659d8d03ba3ab4bc25842273b9713219"}, {"lon": -77.057307, "lat": 38.933676166666665, "name": "ca8c9e6c253794bd52c85542a491fec3", "fusion_lat": 0.0, "fusion_lon": 0.0, "rental_uris": {"android": "https://dc.lft.to/lastmile_qr_scan", "ios": "https://dc.lft.to/lastmile_qr_scan"}, "is_reserved": 0, "is_disabled": 0, "type": "electric_scooter", "bike_id": "ca8c9e6c253794bd52c85542a491fec3"}, {"lon": -77.0229455, "lat": 38.90971, "name": "aedba16667f24683b9a15b77289294b1", "fusion_lat": 0.0, "fusion_lon": 0.0, "rental_uris": {"android": "https://dc.lft.to/lastmile_qr_scan", "ios": "https://dc.lft.to/lastmile_qr_scan"}, "is_reserved": 0, "is_disabled": 0, "type": "electric_scooter", "bike_id": "aedba16667f24683b9a15b77289294b1"}, {"lon": -76.99446816666666, "lat": 38.90020033333333, "name": "77a2b03a82f0ae9c174af73fad80d384", "fusion_lat": 0.0, "fusion_lon": 0.0, "rental_uris": {"android": "https://dc.lft.to/lastmile_qr_scan", "ios": "https://dc.lft.to/lastmile_qr_scan"}, "is_reserved": 0, "is_disabled": 0, "type": "electric_scooter", "bike_id": "77a2b03a82f0ae9c174af73fad80d384"}, {"lon": -77.02796866666667, "lat": 38.93079066666667, "name": "2bdc676da7b3dde3d5168033962ab7ee", "fusion_lat": 0.0, "fusion_lon": 0.0, "rental_uris": {"android": "https://dc.lft.to/lastmile_qr_scan", "ios": "https://dc.lft.to/lastmile_qr_scan"}, "is_reserved": 0, "is_disabled": 0, "type": "electric_scooter", "bike_id": "2bdc676da7b3dde3d5168033962ab7ee"}, {"lon": -77.01026233333333, "lat": 38.918127, "name": "86e531edff221b1247cca31777ab3861", "fusion_lat": 0.0, "fusion_lon": 0.0, "rental_uris": {"android": "https://dc.lft.to/lastmile_qr_scan", "ios": "https://dc.lft.to/lastmile_qr_scan"}, "is_reserved": 0, "is_disabled": 0, "type": "electric_scooter", "bike_id": "86e531edff221b1247cca31777ab3861"}, {"lon": -76.9844505, "lat": 38.899626833333336, "name": "9d3660d8a2409ed9d1b260ba997cb0f5", "fusion_lat": 0.0, "fusion_lon": 0.0, "rental_uris": {"android": "https://dc.lft.to/lastmile_qr_scan", "ios": "https://dc.lft.to/lastmile_qr_scan"}, "is_reserved": 0, "is_disabled": 0, "type": "electric_scooter", "bike_id": "9d3660d8a2409ed9d1b260ba997cb0f5"}, {"lon": -77.02891016666666, "lat": 38.900618333333334, "name": "6564ae87d7e8f2fc40a8729a6bee8422", "fusion_lat": 0.0, "fusion_lon": 0.0, "rental_uris": {"android": "https://dc.lft.to/lastmile_qr_scan", "ios": "https://dc.lft.to/lastmile_qr_scan"}, "is_reserved": 0, "is_disabled": 0, "type": "electric_scooter", "bike_id": "6564ae87d7e8f2fc40a8729a6bee8422"}, {"lon": -77.04167683333333, "lat": 38.919033666666664, "name": "70f50c5537385a698ec18334cbe095a0", "fusion_lat": 0.0, "fusion_lon": 0.0, "rental_uris": {"android": "https://dc.lft.to/lastmile_qr_scan", "ios": "https://dc.lft.to/lastmile_qr_scan"}, "is_reserved": 0, "is_disabled": 0, "type": "electric_scooter", "bike_id": "70f50c5537385a698ec18334cbe095a0"}, {"lon": -77.03563066666666, "lat": 38.923337, "name": "a4a4113d6bfa461d503bee1de037958e", "fusion_lat": 0.0, "fusion_lon": 0.0, "rental_uris": {"android": "https://dc.lft.to/lastmile_qr_scan", "ios": "https://dc.lft.to/lastmile_qr_scan"}, "is_reserved": 0, "is_disabled": 0, "type": "electric_scooter", "bike_id": "a4a4113d6bfa461d503bee1de037958e"}, {"lon": -76.9899875, "lat": 38.90387616666667, "name": "a837698b957fa242dc73cfa39fefec8f", "fusion_lat": 0.0, "fusion_lon": 0.0, "rental_uris": {"android": "https://dc.lft.to/lastmile_qr_scan", "ios": "https://dc.lft.to/lastmile_qr_scan"}, "is_reserved": 0, "is_disabled": 0, "type": "electric_scooter", "bike_id": "a837698b957fa242dc73cfa39fefec8f"}, {"lon": -77.03354933333334, "lat": 38.8995425, "name": "f3fdfbe87ec0e45ac44499f325aed264", "fusion_lat": 0.0, "fusion_lon": 0.0, "rental_uris": {"android": "https://dc.lft.to/lastmile_qr_scan", "ios": "https://dc.lft.to/lastmile_qr_scan"}, "is_reserved": 0, "is_disabled": 0, "type": "electric_scooter", "bike_id": "f3fdfbe87ec0e45ac44499f325aed264"}, {"lon": -77.04720783333333, "lat": 38.918778333333336, "name": "e790d90c899d949f5589e4ee9a94655e", "fusion_lat": 0.0, "fusion_lon": 0.0, "rental_uris": {"android": "https://dc.lft.to/lastmile_qr_scan", "ios": "https://dc.lft.to/lastmile_qr_scan"}, "is_reserved": 0, "is_disabled": 0, "type": "electric_scooter", "bike_id": "e790d90c899d949f5589e4ee9a94655e"}, {"lon": -77.028159, "lat": 38.92873616666667, "name": "299547b5b788edad354c5f6ce99c5131", "fusion_lat": 0.0, "fusion_lon": 0.0, "rental_uris": {"android": "https://dc.lft.to/lastmile_qr_scan", "ios": "https://dc.lft.to/lastmile_qr_scan"}, "is_reserved": 0, "is_disabled": 0, "type": "electric_scooter", "bike_id": "299547b5b788edad354c5f6ce99c5131"}, {"lon": -77.00739233333333, "lat": 38.9552035, "name": "d3190ecd942ef3532a0da34496c8b862", "fusion_lat": 0.0, "fusion_lon": 0.0, "rental_uris": {"android": "https://dc.lft.to/lastmile_qr_scan", "ios": "https://dc.lft.to/lastmile_qr_scan"}, "is_reserved": 0, "is_disabled": 0, "type": "electric_scooter", "bike_id": "d3190ecd942ef3532a0da34496c8b862"}, {"lon": -77.04425683333334, "lat": 38.92127166666667, "name": "62da1cad8eef11b0dae4065d8109e2e7", "fusion_lat": 0.0, "fusion_lon": 0.0, "rental_uris": {"android": "https://dc.lft.to/lastmile_qr_scan", "ios": "https://dc.lft.to/lastmile_qr_scan"}, "is_reserved": 0, "is_disabled": 0, "type": "electric_scooter", "bike_id": "62da1cad8eef11b0dae4065d8109e2e7"}, {"lon": -77.021788, "lat": 38.9054335, "name": "7d1e0235d5ed63392533c18d6b52e863", "fusion_lat": 0.0, "fusion_lon": 0.0, "rental_uris": {"android": "https://dc.lft.to/lastmile_qr_scan", "ios": "https://dc.lft.to/lastmile_qr_scan"}, "is_reserved": 0, "is_disabled": 0, "type": "electric_scooter", "bike_id": "7d1e0235d5ed63392533c18d6b52e863"}, {"lon": -77.02010283333334, "lat": 38.92413533333333, "name": "0f039b41b47e56c890be7e316004e5be", "fusion_lat": 0.0, "fusion_lon": 0.0, "rental_uris": {"android": "https://dc.lft.to/lastmile_qr_scan", "ios": "https://dc.lft.to/lastmile_qr_scan"}, "is_reserved": 0, "is_disabled": 0, "type": "electric_scooter", "bike_id": "0f039b41b47e56c890be7e316004e5be"}, {"lon": -77.00210366666667, "lat": 38.90217833333333, "name": "ec02af7c58c9d488ec5239757d8f4c64", "fusion_lat": 0.0, "fusion_lon": 0.0, "rental_uris": {"android": "https://dc.lft.to/lastmile_qr_scan", "ios": "https://dc.lft.to/lastmile_qr_scan"}, "is_reserved": 0, "is_disabled": 0, "type": "electric_scooter", "bike_id": "ec02af7c58c9d488ec5239757d8f4c64"}, {"lon": -77.067815, "lat": 38.9520825, "name": "5b4120dfa0631c138e95492430ae07e5", "fusion_lat": 0.0, "fusion_lon": 0.0, "rental_uris": {"android": "https://dc.lft.to/lastmile_qr_scan", "ios": "https://dc.lft.to/lastmile_qr_scan"}, "is_reserved": 0, "is_disabled": 0, "type": "electric_scooter", "bike_id": "5b4120dfa0631c138e95492430ae07e5"}, {"lon": -77.01846083333334, "lat": 38.9499225, "name": "6a657991cc3dc2303be78716cceb9972", "fusion_lat": 0.0, "fusion_lon": 0.0, "rental_uris": {"android": "https://dc.lft.to/lastmile_qr_scan", "ios": "https://dc.lft.to/lastmile_qr_scan"}, "is_reserved": 0, "is_disabled": 0, "type": "electric_scooter", "bike_id": "6a657991cc3dc2303be78716cceb9972"}, {"lon": -77.03306216666667, "lat": 38.930306333333334, "name": "8980c7b6b3b1e1cff606503f723fb0c7", "fusion_lat": 0.0, "fusion_lon": 0.0, "rental_uris": {"android": "https://dc.lft.to/lastmile_qr_scan", "ios": "https://dc.lft.to/lastmile_qr_scan"}, "is_reserved": 0, "is_disabled": 0, "type": "electric_scooter", "bike_id": "8980c7b6b3b1e1cff606503f723fb0c7"}, {"lon": -77.03177266666667, "lat": 38.9193515, "name": "6b34a49daffb715d408e3518fe417a8c", "fusion_lat": 0.0, "fusion_lon": 0.0, "rental_uris": {"android": "https://dc.lft.to/lastmile_qr_scan", "ios": "https://dc.lft.to/lastmile_qr_scan"}, "is_reserved": 0, "is_disabled": 0, "type": "electric_scooter", "bike_id": "6b34a49daffb715d408e3518fe417a8c"}, {"lon": -77.02499583333334, "lat": 38.93960916666666, "name": "6e9ccb4d16e2364002efa38edee49684", "fusion_lat": 0.0, "fusion_lon": 0.0, "rental_uris": {"android": "https://dc.lft.to/lastmile_qr_scan", "ios": "https://dc.lft.to/lastmile_qr_scan"}, "is_reserved": 0, "is_disabled": 0, "type": "electric_scooter", "bike_id": "6e9ccb4d16e2364002efa38edee49684"}, {"lon": -77.03099383333333, "lat": 38.9098915, "name": "45f794aff98713e3862e2fc859f0512e", "fusion_lat": 0.0, "fusion_lon": 0.0, "rental_uris": {"android": "https://dc.lft.to/lastmile_qr_scan", "ios": "https://dc.lft.to/lastmile_qr_scan"}, "is_reserved": 0, "is_disabled": 0, "type": "electric_scooter", "bike_id": "45f794aff98713e3862e2fc859f0512e"}, {"lon": -77.0199995, "lat": 38.90466133333334, "name": "a0dc201c2a38891ab9de896c03d041fa", "fusion_lat": 0.0, "fusion_lon": 0.0, "rental_uris": {"android": "https://dc.lft.to/lastmile_qr_scan", "ios": "https://dc.lft.to/lastmile_qr_scan"}, "is_reserved": 0, "is_disabled": 0, "type": "electric_scooter", "bike_id": "a0dc201c2a38891ab9de896c03d041fa"}, {"lon": -77.022745, "lat": 38.91630333333333, "name": "a86880f21a2c13166ac79b51482ee8f0", "fusion_lat": 0.0, "fusion_lon": 0.0, "rental_uris": {"android": "https://dc.lft.to/lastmile_qr_scan", "ios": "https://dc.lft.to/lastmile_qr_scan"}, "is_reserved": 0, "is_disabled": 0, "type": "electric_scooter", "bike_id": "a86880f21a2c13166ac79b51482ee8f0"}, {"lon": -77.03530916666666, "lat": 38.927286333333335, "name": "59b1cff6bf60b77efe35e0ffec9959ce", "fusion_lat": 0.0, "fusion_lon": 0.0, "rental_uris": {"android": "https://dc.lft.to/lastmile_qr_scan", "ios": "https://dc.lft.to/lastmile_qr_scan"}, "is_reserved": 0, "is_disabled": 0, "type": "electric_scooter", "bike_id": "59b1cff6bf60b77efe35e0ffec9959ce"}, {"lon": -77.0262525, "lat": 38.892814, "name": "367a9ff33dff5fa9d5c4f53b359ea2f7", "fusion_lat": 0.0, "fusion_lon": 0.0, "rental_uris": {"android": "https://dc.lft.to/lastmile_qr_scan", "ios": "https://dc.lft.to/lastmile_qr_scan"}, "is_reserved": 0, "is_disabled": 0, "type": "electric_scooter", "bike_id": "367a9ff33dff5fa9d5c4f53b359ea2f7"}, {"lon": -77.0212355, "lat": 38.9369995, "name": "3f9ee74deb9f764aafc317f475967383", "fusion_lat": 0.0, "fusion_lon": 0.0, "rental_uris": {"android": "https://dc.lft.to/lastmile_qr_scan", "ios": "https://dc.lft.to/lastmile_qr_scan"}, "is_reserved": 0, "is_disabled": 0, "type": "electric_scooter", "bike_id": "3f9ee74deb9f764aafc317f475967383"}, {"lon": -76.905344, "lat": 38.897326166666666, "name": "294e33155903cc25d153b15cccb08f07", "fusion_lat": 0.0, "fusion_lon": 0.0, "rental_uris": {"android": "https://dc.lft.to/lastmile_qr_scan", "ios": "https://dc.lft.to/lastmile_qr_scan"}, "is_reserved": 0, "is_disabled": 0, "type": "electric_bike", "bike_id": "294e33155903cc25d153b15cccb08f07"}, {"lon": -77.03705316666667, "lat": 38.926438833333336, "name": "d8daaf070169b522ebf093011b9cf26f", "fusion_lat": 0.0, "fusion_lon": 0.0, "rental_uris": {"android": "https://dc.lft.to/lastmile_qr_scan", "ios": "https://dc.lft.to/lastmile_qr_scan"}, "is_reserved": 0, "is_disabled": 0, "type": "electric_scooter", "bike_id": "d8daaf070169b522ebf093011b9cf26f"}, {"lon": -77.04040266666667, "lat": 38.923199333333336, "name": "c24e6abdc57cd7553022d81c0a450156", "fusion_lat": 0.0, "fusion_lon": 0.0, "rental_uris": {"android": "https://dc.lft.to/lastmile_qr_scan", "ios": "https://dc.lft.to/lastmile_qr_scan"}, "is_reserved": 0, "is_disabled": 0, "type": "electric_scooter", "bike_id": "c24e6abdc57cd7553022d81c0a450156"}, {"lon": -76.96099883333333, "lat": 38.94959566666667, "name": "72d895037d457ac7661539a7c4c92670", "fusion_lat": 0.0, "fusion_lon": 0.0, "rental_uris": {"android": "https://dc.lft.to/lastmile_qr_scan", "ios": "https://dc.lft.to/lastmile_qr_scan"}, "is_reserved": 0, "is_disabled": 0, "type": "electric_bike", "bike_id": "72d895037d457ac7661539a7c4c92670"}, {"lon": -77.00833083333333, "lat": 38.915632, "name": "2902a09536e82eeeb4cda0bf728d1f28", "fusion_lat": 0.0, "fusion_lon": 0.0, "rental_uris": {"android": "https://dc.lft.to/lastmile_qr_scan", "ios": "https://dc.lft.to/lastmile_qr_scan"}, "is_reserved": 0, "is_disabled": 0, "type": "electric_scooter", "bike_id": "2902a09536e82eeeb4cda0bf728d1f28"}, {"lon": -77.04692216666666, "lat": 38.92102466666667, "name": "e5e96c36f9bdcb9ac1c83adcada79b6a", "fusion_lat": 0.0, "fusion_lon": 0.0, "rental_uris": {"android": "https://dc.lft.to/lastmile_qr_scan", "ios": "https://dc.lft.to/lastmile_qr_scan"}, "is_reserved": 0, "is_disabled": 0, "type": "electric_scooter", "bike_id": "e5e96c36f9bdcb9ac1c83adcada79b6a"}, {"lon": -77.09522316666667, "lat": 38.83810183333333, "name": "aacb87fcf8d7b21f8fc2a01ac0fe4084", "fusion_lat": 0.0, "fusion_lon": 0.0, "rental_uris": {"android": "https://dc.lft.to/lastmile_qr_scan", "ios": "https://dc.lft.to/lastmile_qr_scan"}, "is_reserved": 0, "is_disabled": 0, "type": "electric_bike", "bike_id": "aacb87fcf8d7b21f8fc2a01ac0fe4084"}, {"lon": -77.03652666666666, "lat": 38.935998833333336, "name": "a70e5fa5839ff3bf6e8b390a5aca03ff", "fusion_lat": 0.0, "fusion_lon": 0.0, "rental_uris": {"android": "https://dc.lft.to/lastmile_qr_scan", "ios": "https://dc.lft.to/lastmile_qr_scan"}, "is_reserved": 0, "is_disabled": 0, "type": "electric_scooter", "bike_id": "a70e5fa5839ff3bf6e8b390a5aca03ff"}, {"lon": -77.02811583333333, "lat": 38.923725166666664, "name": "697a64a5e0da97b2d8420c578c176ab5", "fusion_lat": 0.0, "fusion_lon": 0.0, "rental_uris": {"android": "https://dc.lft.to/lastmile_qr_scan", "ios": "https://dc.lft.to/lastmile_qr_scan"}, "is_reserved": 0, "is_disabled": 0, "type": "electric_scooter", "bike_id": "697a64a5e0da97b2d8420c578c176ab5"}, {"lon": -77.055883, "lat": 38.927799666666665, "name": "6f0060e030a3f261029a7c744436feac", "fusion_lat": 0.0, "fusion_lon": 0.0, "rental_uris": {"android": "https://dc.lft.to/lastmile_qr_scan", "ios": "https://dc.lft.to/lastmile_qr_scan"}, "is_reserved": 0, "is_disabled": 0, "type": "electric_scooter", "bike_id": "6f0060e030a3f261029a7c744436feac"}, {"lon": -77.04683833333333, "lat": 38.921046, "name": "6185bc144c48eb85a1e30086733a2d2e", "fusion_lat": 0.0, "fusion_lon": 0.0, "rental_uris": {"android": "https://dc.lft.to/lastmile_qr_scan", "ios": "https://dc.lft.to/lastmile_qr_scan"}, "is_reserved": 0, "is_disabled": 0, "type": "electric_scooter", "bike_id": "6185bc144c48eb85a1e30086733a2d2e"}, {"lon": -76.949674, "lat": 38.89365166666666, "name": "8359461b3692fd532ad3972e5fc14be6", "fusion_lat": 0.0, "fusion_lon": 0.0, "rental_uris": {"android": "https://dc.lft.to/lastmile_qr_scan", "ios": "https://dc.lft.to/lastmile_qr_scan"}, "is_reserved": 0, "is_disabled": 0, "type": "electric_scooter", "bike_id": "8359461b3692fd532ad3972e5fc14be6"}, {"lon": -77.0435175, "lat": 38.904086666666664, "name": "02b37b71899c4a1d7330ee3f92f53de7", "fusion_lat": 0.0, "fusion_lon": 0.0, "rental_uris": {"android": "https://dc.lft.to/lastmile_qr_scan", "ios": "https://dc.lft.to/lastmile_qr_scan"}, "is_reserved": 0, "is_disabled": 0, "type": "electric_scooter", "bike_id": "02b37b71899c4a1d7330ee3f92f53de7"}, {"lon": -77.02842866666667, "lat": 38.892219, "name": "358a9cf869ea0a4b39e09584ab62daa6", "fusion_lat": 0.0, "fusion_lon": 0.0, "rental_uris": {"android": "https://dc.lft.to/lastmile_qr_scan", "ios": "https://dc.lft.to/lastmile_qr_scan"}, "is_reserved": 0, "is_disabled": 0, "type": "electric_scooter", "bike_id": "358a9cf869ea0a4b39e09584ab62daa6"}, {"lon": -77.03859033333333, "lat": 38.91544916666667, "name": "ecd74832894da8a8844f217923b94bb1", "fusion_lat": 0.0, "fusion_lon": 0.0, "rental_uris": {"android": "https://dc.lft.to/lastmile_qr_scan", "ios": "https://dc.lft.to/lastmile_qr_scan"}, "is_reserved": 0, "is_disabled": 0, "type": "electric_scooter", "bike_id": "ecd74832894da8a8844f217923b94bb1"}, {"lon": -77.03354533333334, "lat": 38.885026, "name": "d243862a170bb097e7ea7716dbcecb8f", "fusion_lat": 0.0, "fusion_lon": 0.0, "rental_uris": {"android": "https://dc.lft.to/lastmile_qr_scan", "ios": "https://dc.lft.to/lastmile_qr_scan"}, "is_reserved": 0, "is_disabled": 0, "type": "electric_scooter", "bike_id": "d243862a170bb097e7ea7716dbcecb8f"}, {"lon": -76.97441383333333, "lat": 38.86414583333333, "name": "286447d483fefd53c473d94e9332f104", "fusion_lat": 0.0, "fusion_lon": 0.0, "rental_uris": {"android": "https://dc.lft.to/lastmile_qr_scan", "ios": "https://dc.lft.to/lastmile_qr_scan"}, "is_reserved": 0, "is_disabled": 0, "type": "electric_bike", "bike_id": "286447d483fefd53c473d94e9332f104"}, {"lon": -76.98850633333333, "lat": 38.90342066666667, "name": "e08f69821deb3809c80a9e9f2467c289", "fusion_lat": 0.0, "fusion_lon": 0.0, "rental_uris": {"android": "https://dc.lft.to/lastmile_qr_scan", "ios": "https://dc.lft.to/lastmile_qr_scan"}, "is_reserved": 0, "is_disabled": 0, "type": "electric_scooter", "bike_id": "e08f69821deb3809c80a9e9f2467c289"}, {"lon": -77.02371533333333, "lat": 38.90724183333333, "name": "e309a741270cfb45814762667dde17fb", "fusion_lat": 0.0, "fusion_lon": 0.0, "rental_uris": {"android": "https://dc.lft.to/lastmile_qr_scan", "ios": "https://dc.lft.to/lastmile_qr_scan"}, "is_reserved": 0, "is_disabled": 0, "type": "electric_scooter", "bike_id": "e309a741270cfb45814762667dde17fb"}, {"lon": -77.0418575, "lat": 38.9140525, "name": "cbaa45de47273549f10824addb6fd58f", "fusion_lat": 0.0, "fusion_lon": 0.0, "rental_uris": {"android": "https://dc.lft.to/lastmile_qr_scan", "ios": "https://dc.lft.to/lastmile_qr_scan"}, "is_reserved": 0, "is_disabled": 0, "type": "electric_scooter", "bike_id": "cbaa45de47273549f10824addb6fd58f"}, {"lon": -77.02682083333333, "lat": 38.90350083333333, "name": "d7bd1249e89db31e7e96baacf8899dff", "fusion_lat": 0.0, "fusion_lon": 0.0, "rental_uris": {"android": "https://dc.lft.to/lastmile_qr_scan", "ios": "https://dc.lft.to/lastmile_qr_scan"}, "is_reserved": 0, "is_disabled": 0, "type": "electric_scooter", "bike_id": "d7bd1249e89db31e7e96baacf8899dff"}, {"lon": -77.027732, "lat": 38.892184666666665, "name": "7643aa0d6be546a42d9c7f1474cd1a8c", "fusion_lat": 0.0, "fusion_lon": 0.0, "rental_uris": {"android": "https://dc.lft.to/lastmile_qr_scan", "ios": "https://dc.lft.to/lastmile_qr_scan"}, "is_reserved": 0, "is_disabled": 0, "type": "electric_scooter", "bike_id": "7643aa0d6be546a42d9c7f1474cd1a8c"}, {"lon": -77.03858616666666, "lat": 38.9105765, "name": "9a921e3031fbaace0c86b58be453dbf1", "fusion_lat": 0.0, "fusion_lon": 0.0, "rental_uris": {"android": "https://dc.lft.to/lastmile_qr_scan", "ios": "https://dc.lft.to/lastmile_qr_scan"}, "is_reserved": 0, "is_disabled": 0, "type": "electric_scooter", "bike_id": "9a921e3031fbaace0c86b58be453dbf1"}, {"lon": -77.02898916666666, "lat": 38.92478283333333, "name": "b1c331b4b4ba83e6fef11ab5e31900b9", "fusion_lat": 0.0, "fusion_lon": 0.0, "rental_uris": {"android": "https://dc.lft.to/lastmile_qr_scan", "ios": "https://dc.lft.to/lastmile_qr_scan"}, "is_reserved": 0, "is_disabled": 0, "type": "electric_scooter", "bike_id": "b1c331b4b4ba83e6fef11ab5e31900b9"}, {"lon": -77.03516833333333, "lat": 38.935958, "name": "61a35d3d544e014c272daff31958815b", "fusion_lat": 0.0, "fusion_lon": 0.0, "rental_uris": {"android": "https://dc.lft.to/lastmile_qr_scan", "ios": "https://dc.lft.to/lastmile_qr_scan"}, "is_reserved": 0, "is_disabled": 0, "type": "electric_scooter", "bike_id": "61a35d3d544e014c272daff31958815b"}, {"lon": -76.99369566666667, "lat": 38.9003185, "name": "ef09efc5ca6291061b27e90505380fe4", "fusion_lat": 0.0, "fusion_lon": 0.0, "rental_uris": {"android": "https://dc.lft.to/lastmile_qr_scan", "ios": "https://dc.lft.to/lastmile_qr_scan"}, "is_reserved": 0, "is_disabled": 0, "type": "electric_scooter", "bike_id": "ef09efc5ca6291061b27e90505380fe4"}, {"lon": -76.98006016666666, "lat": 38.8531755, "name": "b25d10657c5f65654c055148fa784b8e", "fusion_lat": 0.0, "fusion_lon": 0.0, "rental_uris": {"android": "https://dc.lft.to/lastmile_qr_scan", "ios": "https://dc.lft.to/lastmile_qr_scan"}, "is_reserved": 0, "is_disabled": 0, "type": "electric_scooter", "bike_id": "b25d10657c5f65654c055148fa784b8e"}, {"lon": -77.032544, "lat": 38.92962416666667, "name": "620129ad38ade00e227b2740f1479f32", "fusion_lat": 0.0, "fusion_lon": 0.0, "rental_uris": {"android": "https://dc.lft.to/lastmile_qr_scan", "ios": "https://dc.lft.to/lastmile_qr_scan"}, "is_reserved": 0, "is_disabled": 0, "type": "electric_scooter", "bike_id": "620129ad38ade00e227b2740f1479f32"}, {"lon": -77.02404166666666, "lat": 38.957023, "name": "2367f2ada0fb6854f7b1d1879474a350", "fusion_lat": 0.0, "fusion_lon": 0.0, "rental_uris": {"android": "https://dc.lft.to/lastmile_qr_scan", "ios": "https://dc.lft.to/lastmile_qr_scan"}, "is_reserved": 0, "is_disabled": 0, "type": "electric_scooter", "bike_id": "2367f2ada0fb6854f7b1d1879474a350"}, {"lon": -76.990935, "lat": 38.8635335, "name": "5a6a22dda7d0edcfee186567e7096be5", "fusion_lat": 0.0, "fusion_lon": 0.0, "rental_uris": {"android": "https://dc.lft.to/lastmile_qr_scan", "ios": "https://dc.lft.to/lastmile_qr_scan"}, "is_reserved": 0, "is_disabled": 0, "type": "electric_scooter", "bike_id": "5a6a22dda7d0edcfee186567e7096be5"}, {"lon": -77.02832166666667, "lat": 38.88742633333333, "name": "ed76e11543be55dfe9fed0fe7d8f0298", "fusion_lat": 0.0, "fusion_lon": 0.0, "rental_uris": {"android": "https://dc.lft.to/lastmile_qr_scan", "ios": "https://dc.lft.to/lastmile_qr_scan"}, "is_reserved": 0, "is_disabled": 0, "type": "electric_scooter", "bike_id": "ed76e11543be55dfe9fed0fe7d8f0298"}, {"lon": -77.05215933333334, "lat": 38.935351833333335, "name": "2527423501286d48d8af1bc66fcfb884", "fusion_lat": 0.0, "fusion_lon": 0.0, "rental_uris": {"android": "https://dc.lft.to/lastmile_qr_scan", "ios": "https://dc.lft.to/lastmile_qr_scan"}, "is_reserved": 0, "is_disabled": 0, "type": "electric_bike", "bike_id": "2527423501286d48d8af1bc66fcfb884"}, {"lon": -77.0719305, "lat": 38.9199, "name": "4db35236aed546dceb50136745e2a210", "fusion_lat": 0.0, "fusion_lon": 0.0, "rental_uris": {"android": "https://dc.lft.to/lastmile_qr_scan", "ios": "https://dc.lft.to/lastmile_qr_scan"}, "is_reserved": 0, "is_disabled": 0, "type": "electric_scooter", "bike_id": "4db35236aed546dceb50136745e2a210"}, {"lon": -77.02047016666667, "lat": 38.902278833333334, "name": "5add52f44b42c8520038607690b0ee8a", "fusion_lat": 0.0, "fusion_lon": 0.0, "rental_uris": {"android": "https://dc.lft.to/lastmile_qr_scan", "ios": "https://dc.lft.to/lastmile_qr_scan"}, "is_reserved": 0, "is_disabled": 0, "type": "electric_scooter", "bike_id": "5add52f44b42c8520038607690b0ee8a"}, {"lon": -77.02309983333333, "lat": 38.926784166666664, "name": "08104c0fbca587593ed0fb6e68dde4fb", "fusion_lat": 0.0, "fusion_lon": 0.0, "rental_uris": {"android": "https://dc.lft.to/lastmile_qr_scan", "ios": "https://dc.lft.to/lastmile_qr_scan"}, "is_reserved": 0, "is_disabled": 0, "type": "electric_scooter", "bike_id": "08104c0fbca587593ed0fb6e68dde4fb"}, {"lon": -77.02717383333334, "lat": 38.9067445, "name": "27acdcc5c03caecb331b060bc3d0b055", "fusion_lat": 0.0, "fusion_lon": 0.0, "rental_uris": {"android": "https://dc.lft.to/lastmile_qr_scan", "ios": "https://dc.lft.to/lastmile_qr_scan"}, "is_reserved": 0, "is_disabled": 0, "type": "electric_scooter", "bike_id": "27acdcc5c03caecb331b060bc3d0b055"}, {"lon": -77.02164066666667, "lat": 38.92834333333333, "name": "b3aa6e89797ea102c4399f106d1ada9d", "fusion_lat": 0.0, "fusion_lon": 0.0, "rental_uris": {"android": "https://dc.lft.to/lastmile_qr_scan", "ios": "https://dc.lft.to/lastmile_qr_scan"}, "is_reserved": 0, "is_disabled": 0, "type": "electric_scooter", "bike_id": "b3aa6e89797ea102c4399f106d1ada9d"}, {"lon": -77.0281925, "lat": 38.909314333333334, "name": "c6399e2b13553133cfc97d3d2aafb666", "fusion_lat": 0.0, "fusion_lon": 0.0, "rental_uris": {"android": "https://dc.lft.to/lastmile_qr_scan", "ios": "https://dc.lft.to/lastmile_qr_scan"}, "is_reserved": 0, "is_disabled": 0, "type": "electric_scooter", "bike_id": "c6399e2b13553133cfc97d3d2aafb666"}, {"lon": -76.995129, "lat": 38.84469716666667, "name": "8aa5475c2f696976905ef527a165a7fa", "fusion_lat": 0.0, "fusion_lon": 0.0, "rental_uris": {"android": "https://dc.lft.to/lastmile_qr_scan", "ios": "https://dc.lft.to/lastmile_qr_scan"}, "is_reserved": 0, "is_disabled": 0, "type": "electric_scooter", "bike_id": "8aa5475c2f696976905ef527a165a7fa"}, {"lon": -77.03989916666667, "lat": 38.802936333333335, "name": "d9f20314a04f7beb1479261cd8468e95", "fusion_lat": 0.0, "fusion_lon": 0.0, "rental_uris": {"android": "https://dc.lft.to/lastmile_qr_scan", "ios": "https://dc.lft.to/lastmile_qr_scan"}, "is_reserved": 0, "is_disabled": 0, "type": "electric_bike", "bike_id": "d9f20314a04f7beb1479261cd8468e95"}, {"lon": -77.03275566666667, "lat": 38.9293045, "name": "c516fb527bed09c16fb197c979ef5f19", "fusion_lat": 0.0, "fusion_lon": 0.0, "rental_uris": {"android": "https://dc.lft.to/lastmile_qr_scan", "ios": "https://dc.lft.to/lastmile_qr_scan"}, "is_reserved": 0, "is_disabled": 0, "type": "electric_scooter", "bike_id": "c516fb527bed09c16fb197c979ef5f19"}, {"lon": -77.04042183333334, "lat": 38.903889666666664, "name": "421ac9fb771016933d2456c239f89242", "fusion_lat": 0.0, "fusion_lon": 0.0, "rental_uris": {"android": "https://dc.lft.to/lastmile_qr_scan", "ios": "https://dc.lft.to/lastmile_qr_scan"}, "is_reserved": 0, "is_disabled": 0, "type": "electric_scooter", "bike_id": "421ac9fb771016933d2456c239f89242"}, {"lon": -76.999298, "lat": 38.909408166666665, "name": "483855637b55d1b110ad30869b2337e4", "fusion_lat": 0.0, "fusion_lon": 0.0, "rental_uris": {"android": "https://dc.lft.to/lastmile_qr_scan", "ios": "https://dc.lft.to/lastmile_qr_scan"}, "is_reserved": 0, "is_disabled": 0, "type": "electric_scooter", "bike_id": "483855637b55d1b110ad30869b2337e4"}, {"lon": -76.98237966666667, "lat": 38.866812833333334, "name": "59954ba6b44ae4ce69edabb92a6a9941", "fusion_lat": 0.0, "fusion_lon": 0.0, "rental_uris": {"android": "https://dc.lft.to/lastmile_qr_scan", "ios": "https://dc.lft.to/lastmile_qr_scan"}, "is_reserved": 0, "is_disabled": 0, "type": "electric_bike", "bike_id": "59954ba6b44ae4ce69edabb92a6a9941"}, {"lon": -76.97037816666666, "lat": 38.90313866666666, "name": "9161344ab45557cc9a23760d1529d52a", "fusion_lat": 0.0, "fusion_lon": 0.0, "rental_uris": {"android": "https://dc.lft.to/lastmile_qr_scan", "ios": "https://dc.lft.to/lastmile_qr_scan"}, "is_reserved": 0, "is_disabled": 0, "type": "electric_scooter", "bike_id": "9161344ab45557cc9a23760d1529d52a"}, {"lon": -77.02744483333333, "lat": 38.9662815, "name": "47a66f1ec9d1b651668fa01537f362c5", "fusion_lat": 0.0, "fusion_lon": 0.0, "rental_uris": {"android": "https://dc.lft.to/lastmile_qr_scan", "ios": "https://dc.lft.to/lastmile_qr_scan"}, "is_reserved": 0, "is_disabled": 0, "type": "electric_scooter", "bike_id": "47a66f1ec9d1b651668fa01537f362c5"}, {"lon": -77.0257515, "lat": 38.88742833333333, "name": "7b501690df09d267830dcbd0de3eef6b", "fusion_lat": 0.0, "fusion_lon": 0.0, "rental_uris": {"android": "https://dc.lft.to/lastmile_qr_scan", "ios": "https://dc.lft.to/lastmile_qr_scan"}, "is_reserved": 0, "is_disabled": 0, "type": "electric_scooter", "bike_id": "7b501690df09d267830dcbd0de3eef6b"}, {"lon": -77.02490116666667, "lat": 38.938657, "name": "6868c08a36370c6203e40f2172029db0", "fusion_lat": 0.0, "fusion_lon": 0.0, "rental_uris": {"android": "https://dc.lft.to/lastmile_qr_scan", "ios": "https://dc.lft.to/lastmile_qr_scan"}, "is_reserved": 0, "is_disabled": 0, "type": "electric_scooter", "bike_id": "6868c08a36370c6203e40f2172029db0"}, {"lon": -77.015517, "lat": 38.891954, "name": "9dc559cbc3a205ead29687e2d90813f9", "fusion_lat": 0.0, "fusion_lon": 0.0, "rental_uris": {"android": "https://dc.lft.to/lastmile_qr_scan", "ios": "https://dc.lft.to/lastmile_qr_scan"}, "is_reserved": 0, "is_disabled": 0, "type": "electric_scooter", "bike_id": "9dc559cbc3a205ead29687e2d90813f9"}, {"lon": -76.94570666666667, "lat": 38.866215, "name": "d53ac06163cbd75a4b0ad7ec52ac99cb", "fusion_lat": 0.0, "fusion_lon": 0.0, "rental_uris": {"android": "https://dc.lft.to/lastmile_qr_scan", "ios": "https://dc.lft.to/lastmile_qr_scan"}, "is_reserved": 0, "is_disabled": 0, "type": "electric_bike", "bike_id": "d53ac06163cbd75a4b0ad7ec52ac99cb"}, {"lon": -77.03222333333333, "lat": 38.892211, "name": "566cc0b0e65488bee7057e151b417ecc", "fusion_lat": 0.0, "fusion_lon": 0.0, "rental_uris": {"android": "https://dc.lft.to/lastmile_qr_scan", "ios": "https://dc.lft.to/lastmile_qr_scan"}, "is_reserved": 0, "is_disabled": 0, "type": "electric_scooter", "bike_id": "566cc0b0e65488bee7057e151b417ecc"}, {"lon": -77.023026, "lat": 38.896950333333336, "name": "ee1ccd01ded059cd173eaf43de2affb7", "fusion_lat": 0.0, "fusion_lon": 0.0, "rental_uris": {"android": "https://dc.lft.to/lastmile_qr_scan", "ios": "https://dc.lft.to/lastmile_qr_scan"}, "is_reserved": 0, "is_disabled": 0, "type": "electric_scooter", "bike_id": "ee1ccd01ded059cd173eaf43de2affb7"}, {"lon": -77.03035233333334, "lat": 38.94646316666667, "name": "121fc06ac3ac03f393529701934a16bc", "fusion_lat": 0.0, "fusion_lon": 0.0, "rental_uris": {"android": "https://dc.lft.to/lastmile_qr_scan", "ios": "https://dc.lft.to/lastmile_qr_scan"}, "is_reserved": 0, "is_disabled": 0, "type": "electric_scooter", "bike_id": "121fc06ac3ac03f393529701934a16bc"}, {"lon": -77.061936, "lat": 38.94161316666667, "name": "7c936e42ab1a124f3b0c4cf532737e28", "fusion_lat": 0.0, "fusion_lon": 0.0, "rental_uris": {"android": "https://dc.lft.to/lastmile_qr_scan", "ios": "https://dc.lft.to/lastmile_qr_scan"}, "is_reserved": 0, "is_disabled": 0, "type": "electric_scooter", "bike_id": "7c936e42ab1a124f3b0c4cf532737e28"}, {"lon": -76.933453, "lat": 38.8990015, "name": "bd358d00aac4e35a8fa27056da8aaf43", "fusion_lat": 0.0, "fusion_lon": 0.0, "rental_uris": {"android": "https://dc.lft.to/lastmile_qr_scan", "ios": "https://dc.lft.to/lastmile_qr_scan"}, "is_reserved": 0, "is_disabled": 0, "type": "electric_scooter", "bike_id": "bd358d00aac4e35a8fa27056da8aaf43"}, {"lon": -76.97304466666667, "lat": 38.919847833333336, "name": "d6e868e1828a9a631ac805a3c2fc1b7a", "fusion_lat": 0.0, "fusion_lon": 0.0, "rental_uris": {"android": "https://dc.lft.to/lastmile_qr_scan", "ios": "https://dc.lft.to/lastmile_qr_scan"}, "is_reserved": 0, "is_disabled": 0, "type": "electric_scooter", "bike_id": "d6e868e1828a9a631ac805a3c2fc1b7a"}, {"lon": -77.03518366666667, "lat": 38.93584933333333, "name": "64abc6050ba0f4a1bb7cd85ad8f487f4", "fusion_lat": 0.0, "fusion_lon": 0.0, "rental_uris": {"android": "https://dc.lft.to/lastmile_qr_scan", "ios": "https://dc.lft.to/lastmile_qr_scan"}, "is_reserved": 0, "is_disabled": 0, "type": "electric_scooter", "bike_id": "64abc6050ba0f4a1bb7cd85ad8f487f4"}, {"lon": -76.99532083333334, "lat": 38.9001485, "name": "b80cdc728f2fca262a4bddca8b42d7e5", "fusion_lat": 0.0, "fusion_lon": 0.0, "rental_uris": {"android": "https://dc.lft.to/lastmile_qr_scan", "ios": "https://dc.lft.to/lastmile_qr_scan"}, "is_reserved": 0, "is_disabled": 0, "type": "electric_scooter", "bike_id": "b80cdc728f2fca262a4bddca8b42d7e5"}, {"lon": -76.93347833333333, "lat": 38.89902633333333, "name": "d7319129dae7aa5936f0f42ff975d058", "fusion_lat": 0.0, "fusion_lon": 0.0, "rental_uris": {"android": "https://dc.lft.to/lastmile_qr_scan", "ios": "https://dc.lft.to/lastmile_qr_scan"}, "is_reserved": 0, "is_disabled": 0, "type": "electric_scooter", "bike_id": "d7319129dae7aa5936f0f42ff975d058"}, {"lon": -77.18294833333333, "lat": 38.8834295, "name": "cc76c2ce9fb275f74b9fa1ffd3ca5322", "fusion_lat": 0.0, "fusion_lon": 0.0, "rental_uris": {"android": "https://dc.lft.to/lastmile_qr_scan", "ios": "https://dc.lft.to/lastmile_qr_scan"}, "is_reserved": 0, "is_disabled": 0, "type": "electric_bike", "bike_id": "cc76c2ce9fb275f74b9fa1ffd3ca5322"}, {"lon": -77.03217116666667, "lat": 38.9078625, "name": "03aa539e929f2c6e3bc245fd2df22726", "fusion_lat": 0.0, "fusion_lon": 0.0, "rental_uris": {"android": "https://dc.lft.to/lastmile_qr_scan", "ios": "https://dc.lft.to/lastmile_qr_scan"}, "is_reserved": 0, "is_disabled": 0, "type": "electric_scooter", "bike_id": "03aa539e929f2c6e3bc245fd2df22726"}, {"lon": -76.99181983333334, "lat": 38.90507783333334, "name": "79ca5a5e3fb0877b40154ff812c2e994", "fusion_lat": 0.0, "fusion_lon": 0.0, "rental_uris": {"android": "https://dc.lft.to/lastmile_qr_scan", "ios": "https://dc.lft.to/lastmile_qr_scan"}, "is_reserved": 0, "is_disabled": 0, "type": "electric_scooter", "bike_id": "79ca5a5e3fb0877b40154ff812c2e994"}, {"lon": -76.99019816666667, "lat": 38.858669666666664, "name": "24897c4a1eb6a8a1626e2cb64e8e0451", "fusion_lat": 0.0, "fusion_lon": 0.0, "rental_uris": {"android": "https://dc.lft.to/lastmile_qr_scan", "ios": "https://dc.lft.to/lastmile_qr_scan"}, "is_reserved": 0, "is_disabled": 0, "type": "electric_scooter", "bike_id": "24897c4a1eb6a8a1626e2cb64e8e0451"}, {"lon": -77.027818, "lat": 38.8947555, "name": "b883fe00137c071b63d448dd0f0388fc", "fusion_lat": 0.0, "fusion_lon": 0.0, "rental_uris": {"android": "https://dc.lft.to/lastmile_qr_scan", "ios": "https://dc.lft.to/lastmile_qr_scan"}, "is_reserved": 0, "is_disabled": 0, "type": "electric_scooter", "bike_id": "b883fe00137c071b63d448dd0f0388fc"}, {"lon": -77.04347716666666, "lat": 38.903280333333335, "name": "58c55daca679d830b7216c41aa42a59b", "fusion_lat": 0.0, "fusion_lon": 0.0, "rental_uris": {"android": "https://dc.lft.to/lastmile_qr_scan", "ios": "https://dc.lft.to/lastmile_qr_scan"}, "is_reserved": 0, "is_disabled": 0, "type": "electric_scooter", "bike_id": "58c55daca679d830b7216c41aa42a59b"}, {"lon": -77.03162516666667, "lat": 38.9052965, "name": "b2219b45fd6bd4910d960af6f8f03039", "fusion_lat": 0.0, "fusion_lon": 0.0, "rental_uris": {"android": "https://dc.lft.to/lastmile_qr_scan", "ios": "https://dc.lft.to/lastmile_qr_scan"}, "is_reserved": 0, "is_disabled": 0, "type": "electric_scooter", "bike_id": "b2219b45fd6bd4910d960af6f8f03039"}, {"lon": -77.04851783333334, "lat": 38.919618, "name": "39fe37136169b8e00e088afce79bf484", "fusion_lat": 0.0, "fusion_lon": 0.0, "rental_uris": {"android": "https://dc.lft.to/lastmile_qr_scan", "ios": "https://dc.lft.to/lastmile_qr_scan"}, "is_reserved": 0, "is_disabled": 0, "type": "electric_scooter", "bike_id": "39fe37136169b8e00e088afce79bf484"}, {"lon": -77.00285333333333, "lat": 38.91476383333333, "name": "87df7403321aa5ec52fc6533a36aefad", "fusion_lat": 0.0, "fusion_lon": 0.0, "rental_uris": {"android": "https://dc.lft.to/lastmile_qr_scan", "ios": "https://dc.lft.to/lastmile_qr_scan"}, "is_reserved": 0, "is_disabled": 0, "type": "electric_scooter", "bike_id": "87df7403321aa5ec52fc6533a36aefad"}, {"lon": -77.0256025, "lat": 38.892247166666664, "name": "90aeda9cc3ea8db48ba2f80736e09d44", "fusion_lat": 0.0, "fusion_lon": 0.0, "rental_uris": {"android": "https://dc.lft.to/lastmile_qr_scan", "ios": "https://dc.lft.to/lastmile_qr_scan"}, "is_reserved": 0, "is_disabled": 0, "type": "electric_scooter", "bike_id": "90aeda9cc3ea8db48ba2f80736e09d44"}, {"lon": -77.00533166666666, "lat": 38.874677166666665, "name": "22a3c185f20291f44cc57e43ab6d2698", "fusion_lat": 0.0, "fusion_lon": 0.0, "rental_uris": {"android": "https://dc.lft.to/lastmile_qr_scan", "ios": "https://dc.lft.to/lastmile_qr_scan"}, "is_reserved": 0, "is_disabled": 0, "type": "electric_scooter", "bike_id": "22a3c185f20291f44cc57e43ab6d2698"}, {"lon": -76.9746005, "lat": 38.903629333333335, "name": "01eef8b865c87db33c75dba1840bbc19", "fusion_lat": 0.0, "fusion_lon": 0.0, "rental_uris": {"android": "https://dc.lft.to/lastmile_qr_scan", "ios": "https://dc.lft.to/lastmile_qr_scan"}, "is_reserved": 0, "is_disabled": 0, "type": "electric_scooter", "bike_id": "01eef8b865c87db33c75dba1840bbc19"}, {"lon": -77.025176, "lat": 38.926429, "name": "6f13365ae7e6ce6c27d9af479bfee41f", "fusion_lat": 0.0, "fusion_lon": 0.0, "rental_uris": {"android": "https://dc.lft.to/lastmile_qr_scan", "ios": "https://dc.lft.to/lastmile_qr_scan"}, "is_reserved": 0, "is_disabled": 0, "type": "electric_scooter", "bike_id": "6f13365ae7e6ce6c27d9af479bfee41f"}, {"lon": -77.03297183333333, "lat": 38.91817266666666, "name": "8a17234887ce0de0cfb4261332ac27f3", "fusion_lat": 0.0, "fusion_lon": 0.0, "rental_uris": {"android": "https://dc.lft.to/lastmile_qr_scan", "ios": "https://dc.lft.to/lastmile_qr_scan"}, "is_reserved": 0, "is_disabled": 0, "type": "electric_scooter", "bike_id": "8a17234887ce0de0cfb4261332ac27f3"}, {"lon": -76.99021216666667, "lat": 38.9021415, "name": "897e64d13c86be61ea45ca89e266cbdc", "fusion_lat": 0.0, "fusion_lon": 0.0, "rental_uris": {"android": "https://dc.lft.to/lastmile_qr_scan", "ios": "https://dc.lft.to/lastmile_qr_scan"}, "is_reserved": 0, "is_disabled": 0, "type": "electric_scooter", "bike_id": "897e64d13c86be61ea45ca89e266cbdc"}, {"lon": -76.9376225, "lat": 38.8997065, "name": "84b5a41d8fc5cca75bfde28d11f3c97d", "fusion_lat": 0.0, "fusion_lon": 0.0, "rental_uris": {"android": "https://dc.lft.to/lastmile_qr_scan", "ios": "https://dc.lft.to/lastmile_qr_scan"}, "is_reserved": 0, "is_disabled": 0, "type": "electric_scooter", "bike_id": "84b5a41d8fc5cca75bfde28d11f3c97d"}, {"lon": -77.04730683333334, "lat": 38.911228, "name": "104459279268bda42be61dec5a2dfe32", "fusion_lat": 0.0, "fusion_lon": 0.0, "rental_uris": {"android": "https://dc.lft.to/lastmile_qr_scan", "ios": "https://dc.lft.to/lastmile_qr_scan"}, "is_reserved": 0, "is_disabled": 0, "type": "electric_scooter", "bike_id": "104459279268bda42be61dec5a2dfe32"}, {"lon": -77.030385, "lat": 38.90779416666667, "name": "51f387d61f40bb55f3397747e9c4bf74", "fusion_lat": 0.0, "fusion_lon": 0.0, "rental_uris": {"android": "https://dc.lft.to/lastmile_qr_scan", "ios": "https://dc.lft.to/lastmile_qr_scan"}, "is_reserved": 0, "is_disabled": 0, "type": "electric_scooter", "bike_id": "51f387d61f40bb55f3397747e9c4bf74"}, {"lon": -77.02951816666666, "lat": 38.90505666666667, "name": "0ad30d0d5fa831a89cd835479243a11f", "fusion_lat": 0.0, "fusion_lon": 0.0, "rental_uris": {"android": "https://dc.lft.to/lastmile_qr_scan", "ios": "https://dc.lft.to/lastmile_qr_scan"}, "is_reserved": 0, "is_disabled": 0, "type": "electric_scooter", "bike_id": "0ad30d0d5fa831a89cd835479243a11f"}, {"lon": -77.0694735, "lat": 38.99039416666667, "name": "f01c5a3013a17a7013c1878728032051", "fusion_lat": 0.0, "fusion_lon": 0.0, "rental_uris": {"android": "https://dc.lft.to/lastmile_qr_scan", "ios": "https://dc.lft.to/lastmile_qr_scan"}, "is_reserved": 0, "is_disabled": 0, "type": "electric_bike", "bike_id": "f01c5a3013a17a7013c1878728032051"}, {"lon": -77.03829416666666, "lat": 38.91263633333333, "name": "cd1eac386120ae954aa25d0013aa198f", "fusion_lat": 0.0, "fusion_lon": 0.0, "rental_uris": {"android": "https://dc.lft.to/lastmile_qr_scan", "ios": "https://dc.lft.to/lastmile_qr_scan"}, "is_reserved": 0, "is_disabled": 0, "type": "electric_scooter", "bike_id": "cd1eac386120ae954aa25d0013aa198f"}, {"lon": -76.98609333333333, "lat": 38.906226333333336, "name": "141616b1ed4c7748a892bf83dfa5b102", "fusion_lat": 0.0, "fusion_lon": 0.0, "rental_uris": {"android": "https://dc.lft.to/lastmile_qr_scan", "ios": "https://dc.lft.to/lastmile_qr_scan"}, "is_reserved": 0, "is_disabled": 0, "type": "electric_bike", "bike_id": "141616b1ed4c7748a892bf83dfa5b102"}, {"lon": -76.98561283333333, "lat": 38.894053, "name": "8ad952e3df08ed1df25dbf298d57b6cd", "fusion_lat": 0.0, "fusion_lon": 0.0, "rental_uris": {"android": "https://dc.lft.to/lastmile_qr_scan", "ios": "https://dc.lft.to/lastmile_qr_scan"}, "is_reserved": 0, "is_disabled": 0, "type": "electric_scooter", "bike_id": "8ad952e3df08ed1df25dbf298d57b6cd"}, {"lon": -77.02588383333334, "lat": 38.92509166666667, "name": "77bbbe26237ce52430d3ed39671a5e64", "fusion_lat": 0.0, "fusion_lon": 0.0, "rental_uris": {"android": "https://dc.lft.to/lastmile_qr_scan", "ios": "https://dc.lft.to/lastmile_qr_scan"}, "is_reserved": 0, "is_disabled": 0, "type": "electric_scooter", "bike_id": "77bbbe26237ce52430d3ed39671a5e64"}, {"lon": -77.05935183333334, "lat": 38.9366375, "name": "4d1899232b2c8ad3c954632d20d3ed6a", "fusion_lat": 0.0, "fusion_lon": 0.0, "rental_uris": {"android": "https://dc.lft.to/lastmile_qr_scan", "ios": "https://dc.lft.to/lastmile_qr_scan"}, "is_reserved": 0, "is_disabled": 0, "type": "electric_scooter", "bike_id": "4d1899232b2c8ad3c954632d20d3ed6a"}, {"lon": -77.02781233333333, "lat": 38.927653166666666, "name": "6dcb5e4793eafecc26b63ab02cfb8d0d", "fusion_lat": 0.0, "fusion_lon": 0.0, "rental_uris": {"android": "https://dc.lft.to/lastmile_qr_scan", "ios": "https://dc.lft.to/lastmile_qr_scan"}, "is_reserved": 0, "is_disabled": 0, "type": "electric_scooter", "bike_id": "6dcb5e4793eafecc26b63ab02cfb8d0d"}, {"lon": -77.02897066666667, "lat": 38.90433616666667, "name": "5442ae9d939148a17087813f8cd78123", "fusion_lat": 0.0, "fusion_lon": 0.0, "rental_uris": {"android": "https://dc.lft.to/lastmile_qr_scan", "ios": "https://dc.lft.to/lastmile_qr_scan"}, "is_reserved": 0, "is_disabled": 0, "type": "electric_scooter", "bike_id": "5442ae9d939148a17087813f8cd78123"}, {"lon": -77.00788533333333, "lat": 38.949163666666664, "name": "1ae91b6d38feec0058984d3263649724", "fusion_lat": 0.0, "fusion_lon": 0.0, "rental_uris": {"android": "https://dc.lft.to/lastmile_qr_scan", "ios": "https://dc.lft.to/lastmile_qr_scan"}, "is_reserved": 0, "is_disabled": 0, "type": "electric_bike", "bike_id": "1ae91b6d38feec0058984d3263649724"}, {"lon": -77.027259, "lat": 38.95127333333333, "name": "bd51f41a4a2506212f64c9be11aa3498", "fusion_lat": 0.0, "fusion_lon": 0.0, "rental_uris": {"android": "https://dc.lft.to/lastmile_qr_scan", "ios": "https://dc.lft.to/lastmile_qr_scan"}, "is_reserved": 0, "is_disabled": 0, "type": "electric_scooter", "bike_id": "bd51f41a4a2506212f64c9be11aa3498"}, {"lon": -77.02108916666667, "lat": 38.93008183333333, "name": "74f6cba5a890871b4dc7dff6fc001bf9", "fusion_lat": 0.0, "fusion_lon": 0.0, "rental_uris": {"android": "https://dc.lft.to/lastmile_qr_scan", "ios": "https://dc.lft.to/lastmile_qr_scan"}, "is_reserved": 0, "is_disabled": 0, "type": "electric_scooter", "bike_id": "74f6cba5a890871b4dc7dff6fc001bf9"}, {"lon": -77.03371433333334, "lat": 38.93585366666667, "name": "528f9b8751f6a496de0e50f0b2ea965a", "fusion_lat": 0.0, "fusion_lon": 0.0, "rental_uris": {"android": "https://dc.lft.to/lastmile_qr_scan", "ios": "https://dc.lft.to/lastmile_qr_scan"}, "is_reserved": 0, "is_disabled": 0, "type": "electric_scooter", "bike_id": "528f9b8751f6a496de0e50f0b2ea965a"}, {"lon": -77.02432583333334, "lat": 38.91556816666667, "name": "29f54360e06b91182cd59e5bb56f3250", "fusion_lat": 0.0, "fusion_lon": 0.0, "rental_uris": {"android": "https://dc.lft.to/lastmile_qr_scan", "ios": "https://dc.lft.to/lastmile_qr_scan"}, "is_reserved": 0, "is_disabled": 0, "type": "electric_scooter", "bike_id": "29f54360e06b91182cd59e5bb56f3250"}, {"lon": -76.9978845, "lat": 38.89086283333334, "name": "92aea25244f7b1664aa2aba04f0a9323", "fusion_lat": 0.0, "fusion_lon": 0.0, "rental_uris": {"android": "https://dc.lft.to/lastmile_qr_scan", "ios": "https://dc.lft.to/lastmile_qr_scan"}, "is_reserved": 0, "is_disabled": 0, "type": "electric_scooter", "bike_id": "92aea25244f7b1664aa2aba04f0a9323"}, {"lon": -77.03346783333333, "lat": 38.89529483333333, "name": "2dd23b4c53a269f777e2c3c1d7c39562", "fusion_lat": 0.0, "fusion_lon": 0.0, "rental_uris": {"android": "https://dc.lft.to/lastmile_qr_scan", "ios": "https://dc.lft.to/lastmile_qr_scan"}, "is_reserved": 0, "is_disabled": 0, "type": "electric_scooter", "bike_id": "2dd23b4c53a269f777e2c3c1d7c39562"}, {"lon": -77.0187065, "lat": 38.88744916666667, "name": "3f12eb253107dc37f6ebb555d643d3b3", "fusion_lat": 0.0, "fusion_lon": 0.0, "rental_uris": {"android": "https://dc.lft.to/lastmile_qr_scan", "ios": "https://dc.lft.to/lastmile_qr_scan"}, "is_reserved": 0, "is_disabled": 0, "type": "electric_scooter", "bike_id": "3f12eb253107dc37f6ebb555d643d3b3"}, {"lon": -77.02693516666666, "lat": 38.90939683333333, "name": "3e5484e2147300fe09e492ebaf34647c", "fusion_lat": 0.0, "fusion_lon": 0.0, "rental_uris": {"android": "https://dc.lft.to/lastmile_qr_scan", "ios": "https://dc.lft.to/lastmile_qr_scan"}, "is_reserved": 0, "is_disabled": 0, "type": "electric_scooter", "bike_id": "3e5484e2147300fe09e492ebaf34647c"}, {"lon": -77.023798, "lat": 38.90955616666667, "name": "e47cacb3b462b3f881ffe3764630765d", "fusion_lat": 0.0, "fusion_lon": 0.0, "rental_uris": {"android": "https://dc.lft.to/lastmile_qr_scan", "ios": "https://dc.lft.to/lastmile_qr_scan"}, "is_reserved": 0, "is_disabled": 0, "type": "electric_scooter", "bike_id": "e47cacb3b462b3f881ffe3764630765d"}, {"lon": -77.04176683333333, "lat": 38.930611999999996, "name": "f59d9e5082814a070fb07d293088a769", "fusion_lat": 0.0, "fusion_lon": 0.0, "rental_uris": {"android": "https://dc.lft.to/lastmile_qr_scan", "ios": "https://dc.lft.to/lastmile_qr_scan"}, "is_reserved": 0, "is_disabled": 0, "type": "electric_scooter", "bike_id": "f59d9e5082814a070fb07d293088a769"}, {"lon": -77.009193, "lat": 38.902699166666665, "name": "d6b21d1a7fefbf4bf9a94f55c2cf8cb2", "fusion_lat": 0.0, "fusion_lon": 0.0, "rental_uris": {"android": "https://dc.lft.to/lastmile_qr_scan", "ios": "https://dc.lft.to/lastmile_qr_scan"}, "is_reserved": 0, "is_disabled": 0, "type": "electric_scooter", "bike_id": "d6b21d1a7fefbf4bf9a94f55c2cf8cb2"}, {"lon": -77.02662866666667, "lat": 38.938633833333334, "name": "c0998f721d100b59fd06ccd0cd3819c9", "fusion_lat": 0.0, "fusion_lon": 0.0, "rental_uris": {"android": "https://dc.lft.to/lastmile_qr_scan", "ios": "https://dc.lft.to/lastmile_qr_scan"}, "is_reserved": 0, "is_disabled": 0, "type": "electric_scooter", "bike_id": "c0998f721d100b59fd06ccd0cd3819c9"}, {"lon": -76.909746, "lat": 38.85422766666667, "name": "ddec0be4b3933709b074a5687e3fc39b", "fusion_lat": 0.0, "fusion_lon": 0.0, "rental_uris": {"android": "https://dc.lft.to/lastmile_qr_scan", "ios": "https://dc.lft.to/lastmile_qr_scan"}, "is_reserved": 0, "is_disabled": 0, "type": "electric_bike", "bike_id": "ddec0be4b3933709b074a5687e3fc39b"}, {"lon": -77.00555, "lat": 38.87532816666667, "name": "492925e93a607b2a161608a6a613924e", "fusion_lat": 0.0, "fusion_lon": 0.0, "rental_uris": {"android": "https://dc.lft.to/lastmile_qr_scan", "ios": "https://dc.lft.to/lastmile_qr_scan"}, "is_reserved": 0, "is_disabled": 0, "type": "electric_scooter", "bike_id": "492925e93a607b2a161608a6a613924e"}, {"lon": -77.0239455, "lat": 38.930983499999996, "name": "0c9f47df26125e86c6705633eb88c267", "fusion_lat": 0.0, "fusion_lon": 0.0, "rental_uris": {"android": "https://dc.lft.to/lastmile_qr_scan", "ios": "https://dc.lft.to/lastmile_qr_scan"}, "is_reserved": 0, "is_disabled": 0, "type": "electric_scooter", "bike_id": "0c9f47df26125e86c6705633eb88c267"}, {"lon": -77.033849, "lat": 38.88658216666666, "name": "dc59a46b44bf55b4a28e4b223ca4f048", "fusion_lat": 0.0, "fusion_lon": 0.0, "rental_uris": {"android": "https://dc.lft.to/lastmile_qr_scan", "ios": "https://dc.lft.to/lastmile_qr_scan"}, "is_reserved": 0, "is_disabled": 0, "type": "electric_scooter", "bike_id": "dc59a46b44bf55b4a28e4b223ca4f048"}, {"lon": -77.04488083333334, "lat": 38.900491, "name": "59c97c59e556248263f65e92e5cacf83", "fusion_lat": 0.0, "fusion_lon": 0.0, "rental_uris": {"android": "https://dc.lft.to/lastmile_qr_scan", "ios": "https://dc.lft.to/lastmile_qr_scan"}, "is_reserved": 0, "is_disabled": 0, "type": "electric_scooter", "bike_id": "59c97c59e556248263f65e92e5cacf83"}, {"lon": -77.04652216666666, "lat": 38.914798166666664, "name": "6367a871d7d618c642ce666a69501bac", "fusion_lat": 0.0, "fusion_lon": 0.0, "rental_uris": {"android": "https://dc.lft.to/lastmile_qr_scan", "ios": "https://dc.lft.to/lastmile_qr_scan"}, "is_reserved": 0, "is_disabled": 0, "type": "electric_scooter", "bike_id": "6367a871d7d618c642ce666a69501bac"}, {"lon": -77.03501983333334, "lat": 38.918810666666666, "name": "93871c4229dea60b2b6c71321d9620fa", "fusion_lat": 0.0, "fusion_lon": 0.0, "rental_uris": {"android": "https://dc.lft.to/lastmile_qr_scan", "ios": "https://dc.lft.to/lastmile_qr_scan"}, "is_reserved": 0, "is_disabled": 0, "type": "electric_scooter", "bike_id": "93871c4229dea60b2b6c71321d9620fa"}, {"lon": -77.06044616666667, "lat": 38.939232, "name": "e2cf86b40fa690479f910d989f16a6de", "fusion_lat": 0.0, "fusion_lon": 0.0, "rental_uris": {"android": "https://dc.lft.to/lastmile_qr_scan", "ios": "https://dc.lft.to/lastmile_qr_scan"}, "is_reserved": 0, "is_disabled": 0, "type": "electric_scooter", "bike_id": "e2cf86b40fa690479f910d989f16a6de"}, {"lon": -77.02195583333334, "lat": 38.8969035, "name": "039d3291f970bdc045e043537f1235d4", "fusion_lat": 0.0, "fusion_lon": 0.0, "rental_uris": {"android": "https://dc.lft.to/lastmile_qr_scan", "ios": "https://dc.lft.to/lastmile_qr_scan"}, "is_reserved": 0, "is_disabled": 0, "type": "electric_scooter", "bike_id": "039d3291f970bdc045e043537f1235d4"}, {"lon": -77.029326, "lat": 38.9427765, "name": "26ccede407ef05271d0d868cf8155df9", "fusion_lat": 0.0, "fusion_lon": 0.0, "rental_uris": {"android": "https://dc.lft.to/lastmile_qr_scan", "ios": "https://dc.lft.to/lastmile_qr_scan"}, "is_reserved": 0, "is_disabled": 0, "type": "electric_scooter", "bike_id": "26ccede407ef05271d0d868cf8155df9"}, {"lon": -77.12900683333334, "lat": 38.863771, "name": "818d556a2123ab5b9aa23d3120b66b1a", "fusion_lat": 0.0, "fusion_lon": 0.0, "rental_uris": {"android": "https://dc.lft.to/lastmile_qr_scan", "ios": "https://dc.lft.to/lastmile_qr_scan"}, "is_reserved": 0, "is_disabled": 0, "type": "electric_bike", "bike_id": "818d556a2123ab5b9aa23d3120b66b1a"}, {"lon": -77.0120325, "lat": 38.91491716666667, "name": "66898e884780bf75ae10d382a80cd9a5", "fusion_lat": 0.0, "fusion_lon": 0.0, "rental_uris": {"android": "https://dc.lft.to/lastmile_qr_scan", "ios": "https://dc.lft.to/lastmile_qr_scan"}, "is_reserved": 0, "is_disabled": 0, "type": "electric_scooter", "bike_id": "66898e884780bf75ae10d382a80cd9a5"}, {"lon": -77.02337333333334, "lat": 38.88488133333333, "name": "bd45453afb59d1a5258f68ceab7db398", "fusion_lat": 0.0, "fusion_lon": 0.0, "rental_uris": {"android": "https://dc.lft.to/lastmile_qr_scan", "ios": "https://dc.lft.to/lastmile_qr_scan"}, "is_reserved": 0, "is_disabled": 0, "type": "electric_scooter", "bike_id": "bd45453afb59d1a5258f68ceab7db398"}, {"lon": -77.032598, "lat": 38.908699166666665, "name": "953a9589b30dcbcacbce2834aefb1b5d", "fusion_lat": 0.0, "fusion_lon": 0.0, "rental_uris": {"android": "https://dc.lft.to/lastmile_qr_scan", "ios": "https://dc.lft.to/lastmile_qr_scan"}, "is_reserved": 0, "is_disabled": 0, "type": "electric_scooter", "bike_id": "953a9589b30dcbcacbce2834aefb1b5d"}, {"lon": -76.987337, "lat": 38.867129, "name": "537e846fe9f1bd06169014e6039a9ac5", "fusion_lat": 0.0, "fusion_lon": 0.0, "rental_uris": {"android": "https://dc.lft.to/lastmile_qr_scan", "ios": "https://dc.lft.to/lastmile_qr_scan"}, "is_reserved": 0, "is_disabled": 0, "type": "electric_scooter", "bike_id": "537e846fe9f1bd06169014e6039a9ac5"}, {"lon": -77.03248333333333, "lat": 38.9024045, "name": "59760626c278556445f063830777377e", "fusion_lat": 0.0, "fusion_lon": 0.0, "rental_uris": {"android": "https://dc.lft.to/lastmile_qr_scan", "ios": "https://dc.lft.to/lastmile_qr_scan"}, "is_reserved": 0, "is_disabled": 0, "type": "electric_scooter", "bike_id": "59760626c278556445f063830777377e"}, {"lon": -77.04093466666667, "lat": 38.92394133333333, "name": "32f49ecfd9867c7631d5708cc98e1ba4", "fusion_lat": 0.0, "fusion_lon": 0.0, "rental_uris": {"android": "https://dc.lft.to/lastmile_qr_scan", "ios": "https://dc.lft.to/lastmile_qr_scan"}, "is_reserved": 0, "is_disabled": 0, "type": "electric_scooter", "bike_id": "32f49ecfd9867c7631d5708cc98e1ba4"}, {"lon": -77.01845766666666, "lat": 38.9463525, "name": "3caeca705c07aa4dc9dbd55a49df38ce", "fusion_lat": 0.0, "fusion_lon": 0.0, "rental_uris": {"android": "https://dc.lft.to/lastmile_qr_scan", "ios": "https://dc.lft.to/lastmile_qr_scan"}, "is_reserved": 0, "is_disabled": 0, "type": "electric_scooter", "bike_id": "3caeca705c07aa4dc9dbd55a49df38ce"}, {"lon": -77.02906283333333, "lat": 38.958458, "name": "a347d11f95bee1c5a816a99c0b184e0b", "fusion_lat": 0.0, "fusion_lon": 0.0, "rental_uris": {"android": "https://dc.lft.to/lastmile_qr_scan", "ios": "https://dc.lft.to/lastmile_qr_scan"}, "is_reserved": 0, "is_disabled": 0, "type": "electric_scooter", "bike_id": "a347d11f95bee1c5a816a99c0b184e0b"}, {"lon": -76.99937533333333, "lat": 38.89614316666667, "name": "aff1c28a18a3f3a9ed5046ba29ece082", "fusion_lat": 0.0, "fusion_lon": 0.0, "rental_uris": {"android": "https://dc.lft.to/lastmile_qr_scan", "ios": "https://dc.lft.to/lastmile_qr_scan"}, "is_reserved": 0, "is_disabled": 0, "type": "electric_scooter", "bike_id": "aff1c28a18a3f3a9ed5046ba29ece082"}, {"lon": -77.08820733333333, "lat": 38.909690166666664, "name": "cd48d72fca9c8ee250c55ad79171d9be", "fusion_lat": 0.0, "fusion_lon": 0.0, "rental_uris": {"android": "https://dc.lft.to/lastmile_qr_scan", "ios": "https://dc.lft.to/lastmile_qr_scan"}, "is_reserved": 0, "is_disabled": 0, "type": "electric_bike", "bike_id": "cd48d72fca9c8ee250c55ad79171d9be"}, {"lon": -77.03521066666667, "lat": 38.922395, "name": "5b7c2d326abf2f0cd98fac854540905f", "fusion_lat": 0.0, "fusion_lon": 0.0, "rental_uris": {"android": "https://dc.lft.to/lastmile_qr_scan", "ios": "https://dc.lft.to/lastmile_qr_scan"}, "is_reserved": 0, "is_disabled": 0, "type": "electric_scooter", "bike_id": "5b7c2d326abf2f0cd98fac854540905f"}, {"lon": -77.034431, "lat": 38.918209833333336, "name": "9cbb9d6e0b324465a69ec363ec176983", "fusion_lat": 0.0, "fusion_lon": 0.0, "rental_uris": {"android": "https://dc.lft.to/lastmile_qr_scan", "ios": "https://dc.lft.to/lastmile_qr_scan"}, "is_reserved": 0, "is_disabled": 0, "type": "electric_scooter", "bike_id": "9cbb9d6e0b324465a69ec363ec176983"}, {"lon": -76.99913966666666, "lat": 38.90937183333333, "name": "5c05dd7f2ad81b429ab969e980c8897c", "fusion_lat": 0.0, "fusion_lon": 0.0, "rental_uris": {"android": "https://dc.lft.to/lastmile_qr_scan", "ios": "https://dc.lft.to/lastmile_qr_scan"}, "is_reserved": 0, "is_disabled": 0, "type": "electric_scooter", "bike_id": "5c05dd7f2ad81b429ab969e980c8897c"}, {"lon": -77.0628425, "lat": 38.90589116666666, "name": "fd3e6af0bd773012790ad5d326ae9b91", "fusion_lat": 0.0, "fusion_lon": 0.0, "rental_uris": {"android": "https://dc.lft.to/lastmile_qr_scan", "ios": "https://dc.lft.to/lastmile_qr_scan"}, "is_reserved": 0, "is_disabled": 0, "type": "electric_scooter", "bike_id": "fd3e6af0bd773012790ad5d326ae9b91"}, {"lon": -77.038584, "lat": 38.932518, "name": "00892942d2d08749e49a7744a5ef9f05", "fusion_lat": 0.0, "fusion_lon": 0.0, "rental_uris": {"android": "https://dc.lft.to/lastmile_qr_scan", "ios": "https://dc.lft.to/lastmile_qr_scan"}, "is_reserved": 0, "is_disabled": 0, "type": "electric_scooter", "bike_id": "00892942d2d08749e49a7744a5ef9f05"}, {"lon": -77.13094533333333, "lat": 38.86160616666667, "name": "3e623231b6430f159b7bc16009f7c4d6", "fusion_lat": 0.0, "fusion_lon": 0.0, "rental_uris": {"android": "https://dc.lft.to/lastmile_qr_scan", "ios": "https://dc.lft.to/lastmile_qr_scan"}, "is_reserved": 0, "is_disabled": 0, "type": "electric_bike", "bike_id": "3e623231b6430f159b7bc16009f7c4d6"}, {"lon": -77.02459516666667, "lat": 38.9385295, "name": "5a89dccb97bee21043a796bbb6fdc7d3", "fusion_lat": 0.0, "fusion_lon": 0.0, "rental_uris": {"android": "https://dc.lft.to/lastmile_qr_scan", "ios": "https://dc.lft.to/lastmile_qr_scan"}, "is_reserved": 0, "is_disabled": 0, "type": "electric_scooter", "bike_id": "5a89dccb97bee21043a796bbb6fdc7d3"}, {"lon": -76.9830885, "lat": 38.86889766666667, "name": "b6ad65f81207edb31891a9e978a8c5c1", "fusion_lat": 0.0, "fusion_lon": 0.0, "rental_uris": {"android": "https://dc.lft.to/lastmile_qr_scan", "ios": "https://dc.lft.to/lastmile_qr_scan"}, "is_reserved": 0, "is_disabled": 0, "type": "electric_scooter", "bike_id": "b6ad65f81207edb31891a9e978a8c5c1"}, {"lon": -77.03133166666667, "lat": 38.89720616666666, "name": "0e44cc3db9ccb2b1c5543fed15337bda", "fusion_lat": 0.0, "fusion_lon": 0.0, "rental_uris": {"android": "https://dc.lft.to/lastmile_qr_scan", "ios": "https://dc.lft.to/lastmile_qr_scan"}, "is_reserved": 0, "is_disabled": 0, "type": "electric_scooter", "bike_id": "0e44cc3db9ccb2b1c5543fed15337bda"}, {"lon": -77.00731883333333, "lat": 38.876793666666664, "name": "2d3b35a87f41707d23391d3869fdb7e7", "fusion_lat": 0.0, "fusion_lon": 0.0, "rental_uris": {"android": "https://dc.lft.to/lastmile_qr_scan", "ios": "https://dc.lft.to/lastmile_qr_scan"}, "is_reserved": 0, "is_disabled": 0, "type": "electric_scooter", "bike_id": "2d3b35a87f41707d23391d3869fdb7e7"}, {"lon": -77.038205, "lat": 38.931329166666664, "name": "58062a0090fab2af679db7c2a59e4d62", "fusion_lat": 0.0, "fusion_lon": 0.0, "rental_uris": {"android": "https://dc.lft.to/lastmile_qr_scan", "ios": "https://dc.lft.to/lastmile_qr_scan"}, "is_reserved": 0, "is_disabled": 0, "type": "electric_scooter", "bike_id": "58062a0090fab2af679db7c2a59e4d62"}, {"lon": -77.03403666666667, "lat": 38.919241666666665, "name": "203aa6025c5d40568849773845b8ac9f", "fusion_lat": 0.0, "fusion_lon": 0.0, "rental_uris": {"android": "https://dc.lft.to/lastmile_qr_scan", "ios": "https://dc.lft.to/lastmile_qr_scan"}, "is_reserved": 0, "is_disabled": 0, "type": "electric_scooter", "bike_id": "203aa6025c5d40568849773845b8ac9f"}, {"lon": -76.99840083333333, "lat": 38.888059166666665, "name": "773d74420d8a721495dc30fab59bc9e2", "fusion_lat": 0.0, "fusion_lon": 0.0, "rental_uris": {"android": "https://dc.lft.to/lastmile_qr_scan", "ios": "https://dc.lft.to/lastmile_qr_scan"}, "is_reserved": 0, "is_disabled": 0, "type": "electric_scooter", "bike_id": "773d74420d8a721495dc30fab59bc9e2"}, {"lon": -77.03301066666667, "lat": 38.9084675, "name": "54484b298a483d24e4faebdf9876fb0c", "fusion_lat": 0.0, "fusion_lon": 0.0, "rental_uris": {"android": "https://dc.lft.to/lastmile_qr_scan", "ios": "https://dc.lft.to/lastmile_qr_scan"}, "is_reserved": 0, "is_disabled": 0, "type": "electric_scooter", "bike_id": "54484b298a483d24e4faebdf9876fb0c"}, {"lon": -76.9856765, "lat": 38.8995425, "name": "9ccf4a59dfa1d519461bc50ebdae5e89", "fusion_lat": 0.0, "fusion_lon": 0.0, "rental_uris": {"android": "https://dc.lft.to/lastmile_qr_scan", "ios": "https://dc.lft.to/lastmile_qr_scan"}, "is_reserved": 0, "is_disabled": 0, "type": "electric_scooter", "bike_id": "9ccf4a59dfa1d519461bc50ebdae5e89"}, {"lon": -77.04147683333333, "lat": 38.92296833333333, "name": "068aa364e6cf4fcddfb83ec39d70e850", "fusion_lat": 0.0, "fusion_lon": 0.0, "rental_uris": {"android": "https://dc.lft.to/lastmile_qr_scan", "ios": "https://dc.lft.to/lastmile_qr_scan"}, "is_reserved": 0, "is_disabled": 0, "type": "electric_scooter", "bike_id": "068aa364e6cf4fcddfb83ec39d70e850"}, {"lon": -77.037316, "lat": 38.912727333333336, "name": "fe612fab0f31ae77eb757d481f1bc671", "fusion_lat": 0.0, "fusion_lon": 0.0, "rental_uris": {"android": "https://dc.lft.to/lastmile_qr_scan", "ios": "https://dc.lft.to/lastmile_qr_scan"}, "is_reserved": 0, "is_disabled": 0, "type": "electric_scooter", "bike_id": "fe612fab0f31ae77eb757d481f1bc671"}, {"lon": -77.02789966666667, "lat": 38.93071033333333, "name": "05bb135fa155448c0b62ad459b89244f", "fusion_lat": 0.0, "fusion_lon": 0.0, "rental_uris": {"android": "https://dc.lft.to/lastmile_qr_scan", "ios": "https://dc.lft.to/lastmile_qr_scan"}, "is_reserved": 0, "is_disabled": 0, "type": "electric_scooter", "bike_id": "05bb135fa155448c0b62ad459b89244f"}, {"lon": -77.0011375, "lat": 38.90005083333333, "name": "d68f0aa400c490dc5b92880fc44faa38", "fusion_lat": 0.0, "fusion_lon": 0.0, "rental_uris": {"android": "https://dc.lft.to/lastmile_qr_scan", "ios": "https://dc.lft.to/lastmile_qr_scan"}, "is_reserved": 0, "is_disabled": 0, "type": "electric_scooter", "bike_id": "d68f0aa400c490dc5b92880fc44faa38"}, {"lon": -76.98831933333334, "lat": 38.90033116666667, "name": "c221a6e098028c4f2ff18608e285f3ed", "fusion_lat": 0.0, "fusion_lon": 0.0, "rental_uris": {"android": "https://dc.lft.to/lastmile_qr_scan", "ios": "https://dc.lft.to/lastmile_qr_scan"}, "is_reserved": 0, "is_disabled": 0, "type": "electric_scooter", "bike_id": "c221a6e098028c4f2ff18608e285f3ed"}, {"lon": -77.052036, "lat": 38.92436283333333, "name": "9ac1bf3ff9ae46900097bd0f2ab98b7d", "fusion_lat": 0.0, "fusion_lon": 0.0, "rental_uris": {"android": "https://dc.lft.to/lastmile_qr_scan", "ios": "https://dc.lft.to/lastmile_qr_scan"}, "is_reserved": 0, "is_disabled": 0, "type": "electric_scooter", "bike_id": "9ac1bf3ff9ae46900097bd0f2ab98b7d"}, {"lon": -77.01592183333334, "lat": 38.9186165, "name": "ae6761b82b50a22c61badecb471371b3", "fusion_lat": 0.0, "fusion_lon": 0.0, "rental_uris": {"android": "https://dc.lft.to/lastmile_qr_scan", "ios": "https://dc.lft.to/lastmile_qr_scan"}, "is_reserved": 0, "is_disabled": 0, "type": "electric_scooter", "bike_id": "ae6761b82b50a22c61badecb471371b3"}, {"lon": -77.03350883333333, "lat": 38.89529616666667, "name": "c9170c1a1172a3c42713bcfd44f32b60", "fusion_lat": 0.0, "fusion_lon": 0.0, "rental_uris": {"android": "https://dc.lft.to/lastmile_qr_scan", "ios": "https://dc.lft.to/lastmile_qr_scan"}, "is_reserved": 0, "is_disabled": 0, "type": "electric_scooter", "bike_id": "c9170c1a1172a3c42713bcfd44f32b60"}, {"lon": -77.0372695, "lat": 38.920256333333334, "name": "377e4d7b733b1d185411871dcf2cfb65", "fusion_lat": 0.0, "fusion_lon": 0.0, "rental_uris": {"android": "https://dc.lft.to/lastmile_qr_scan", "ios": "https://dc.lft.to/lastmile_qr_scan"}, "is_reserved": 0, "is_disabled": 0, "type": "electric_scooter", "bike_id": "377e4d7b733b1d185411871dcf2cfb65"}, {"lon": -76.974367, "lat": 38.864377833333336, "name": "bd826912596ad498f76ecf4b4c009254", "fusion_lat": 0.0, "fusion_lon": 0.0, "rental_uris": {"android": "https://dc.lft.to/lastmile_qr_scan", "ios": "https://dc.lft.to/lastmile_qr_scan"}, "is_reserved": 0, "is_disabled": 0, "type": "electric_scooter", "bike_id": "bd826912596ad498f76ecf4b4c009254"}, {"lon": -77.04181583333333, "lat": 38.9187545, "name": "4c538d97f697d2c6d82c2852c77c48dc", "fusion_lat": 0.0, "fusion_lon": 0.0, "rental_uris": {"android": "https://dc.lft.to/lastmile_qr_scan", "ios": "https://dc.lft.to/lastmile_qr_scan"}, "is_reserved": 0, "is_disabled": 0, "type": "electric_scooter", "bike_id": "4c538d97f697d2c6d82c2852c77c48dc"}, {"lon": -76.96556983333333, "lat": 38.918470666666664, "name": "7306ad53d97262b7c7f985572de28ac0", "fusion_lat": 0.0, "fusion_lon": 0.0, "rental_uris": {"android": "https://dc.lft.to/lastmile_qr_scan", "ios": "https://dc.lft.to/lastmile_qr_scan"}, "is_reserved": 0, "is_disabled": 0, "type": "electric_scooter", "bike_id": "7306ad53d97262b7c7f985572de28ac0"}, {"lon": -76.98683433333333, "lat": 38.882145333333334, "name": "ef737f26ebb075a7fec0673283537d7e", "fusion_lat": 0.0, "fusion_lon": 0.0, "rental_uris": {"android": "https://dc.lft.to/lastmile_qr_scan", "ios": "https://dc.lft.to/lastmile_qr_scan"}, "is_reserved": 0, "is_disabled": 0, "type": "electric_scooter", "bike_id": "ef737f26ebb075a7fec0673283537d7e"}, {"lon": -77.03276516666666, "lat": 38.910352, "name": "ed02bcea7ef582c169a851feccc71658", "fusion_lat": 0.0, "fusion_lon": 0.0, "rental_uris": {"android": "https://dc.lft.to/lastmile_qr_scan", "ios": "https://dc.lft.to/lastmile_qr_scan"}, "is_reserved": 0, "is_disabled": 0, "type": "electric_scooter", "bike_id": "ed02bcea7ef582c169a851feccc71658"}, {"lon": -77.02854366666666, "lat": 38.96502, "name": "cdfbbab826b7b9e2a8547a72ce834077", "fusion_lat": 0.0, "fusion_lon": 0.0, "rental_uris": {"android": "https://dc.lft.to/lastmile_qr_scan", "ios": "https://dc.lft.to/lastmile_qr_scan"}, "is_reserved": 0, "is_disabled": 0, "type": "electric_scooter", "bike_id": "cdfbbab826b7b9e2a8547a72ce834077"}, {"lon": -77.032804, "lat": 38.939837, "name": "9deb1f87f2217a4d21a426c731d149fd", "fusion_lat": 0.0, "fusion_lon": 0.0, "rental_uris": {"android": "https://dc.lft.to/lastmile_qr_scan", "ios": "https://dc.lft.to/lastmile_qr_scan"}, "is_reserved": 0, "is_disabled": 0, "type": "electric_scooter", "bike_id": "9deb1f87f2217a4d21a426c731d149fd"}, {"lon": -77.01092816666667, "lat": 38.89516883333334, "name": "89d34d0bda3a1f6431a27b14580fde0d", "fusion_lat": 0.0, "fusion_lon": 0.0, "rental_uris": {"android": "https://dc.lft.to/lastmile_qr_scan", "ios": "https://dc.lft.to/lastmile_qr_scan"}, "is_reserved": 0, "is_disabled": 0, "type": "electric_scooter", "bike_id": "89d34d0bda3a1f6431a27b14580fde0d"}, {"lon": -76.97633166666667, "lat": 38.905676, "name": "e77b97b217870b14954dbb4fb3016753", "fusion_lat": 0.0, "fusion_lon": 0.0, "rental_uris": {"android": "https://dc.lft.to/lastmile_qr_scan", "ios": "https://dc.lft.to/lastmile_qr_scan"}, "is_reserved": 0, "is_disabled": 0, "type": "electric_scooter", "bike_id": "e77b97b217870b14954dbb4fb3016753"},