{"data": {"bikes": [{"rental_uris": {"android": "https://dc.lft.to/lastmile_qr_scan", "ios": "https://dc.lft.to/lastmile_qr_scan"}, "lon": -77.021657, "name": "6d9042a799feb144b659d6c40f9ba95d", "lat": 38.9251015, "is_reserved": 0, "fusion_lat": 0.0, "bike_id": "6d9042a799feb144b659d6c40f9ba95d", "type": "electric_scooter", "is_disabled": 0, "fusion_lon": 0.0}, {"rental_uris": {"android": "https://dc.lft.to/lastmile_qr_scan", "ios": "https://dc.lft.to/lastmile_qr_scan"}, "lon": -77.005863, "name": "957e158fda7ac68d06ba103c04151054", "lat": 38.905598833333336, "is_reserved": 0, "fusion_lat": 0.0, "bike_id": "957e158fda7ac68d06ba103c04151054", "type": "electric_scooter", "is_disabled": 0, "fusion_lon": 0.0}, {"rental_uris": {"android": "https://dc.lft.to/lastmile_qr_scan", "ios": "https://dc.lft.to/lastmile_qr_scan"}, "lon": -77.008679, "name": "fe7a74c357dee27633a995211d5f4ad8", "lat": 38.9674225, "is_reserved": 0, "fusion_lat": 0.0, "bike_id": "fe7a74c357dee27633a995211d5f4ad8", "type": "electric_scooter", "is_disabled": 0, "fusion_lon": 0.0}, {"rental_uris": {"android": "https://dc.lft.to/lastmile_qr_scan", "ios": "https://dc.lft.to/lastmile_qr_scan"}, "lon": -76.95695533333334, "name": "8d9a9ba885d5e82ec9b4e670f45fc673", "lat": 38.89205183333333, "is_reserved": 0, "fusion_lat": 0.0, "bike_id": "8d9a9ba885d5e82ec9b4e670f45fc673", "type": "electric_scooter", "is_disabled": 0, "fusion_lon": 0.0}, {"rental_uris": {"android": "https://dc.lft.to/lastmile_qr_scan", "ios": "https://dc.lft.to/lastmile_qr_scan"}, "lon": -77.01417916666666, "name": "ff08820e70bf23467419b379d41b2c58", "lat": 38.90500816666667, "is_reserved": 0, "fusion_lat": 0.0, "bike_id": "ff08820e70bf23467419b379d41b2c58", "type": "electric_scooter", "is_disabled": 0, "fusion_lon": 0.0}, {"rental_uris": {"android": "https://dc.lft.to/lastmile_qr_scan", "ios": "https://dc.lft.to/lastmile_qr_scan"}, "lon": -76.9441535, "name": "9614f546f6cc1aac29b4f3117351e259", "lat": 38.9922285, "is_reserved": 0, "fusion_lat": 0.0, "bike_id": "9614f546f6cc1aac29b4f3117351e259", "type": "electric_bike", "is_disabled": 0, "fusion_lon": 0.0}, {"rental_uris": {"android": "https://dc.lft.to/lastmile_qr_scan", "ios": "https://dc.lft.to/lastmile_qr_scan"}, "lon": -77.0440975, "name": "0c5f64983e138c7cb9eec71daef81ffe", "lat": 38.9134995, "is_reserved": 0, "fusion_lat": 0.0, "bike_id": "0c5f64983e138c7cb9eec71daef81ffe", "type": "electric_scooter", "is_disabled": 0, "fusion_lon": 0.0}, {"rental_uris": {"android": "https://dc.lft.to/lastmile_qr_scan", "ios": "https://dc.lft.to/lastmile_qr_scan"}, "lon": -77.02578466666667, "name": "454a96a23704f795d954b31b868d5711", "lat": 38.920487666666666, "is_reserved": 0, "fusion_lat": 0.0, "bike_id": "454a96a23704f795d954b31b868d5711", "type": "electric_scooter", "is_disabled": 0, "fusion_lon": 0.0}, {"rental_uris": {"android": "https://dc.lft.to/lastmile_qr_scan", "ios": "https://dc.lft.to/lastmile_qr_scan"}, "lon": -77.02567216666667, "name": "f0eab3e9534583f1d6ab0c946c640878", "lat": 38.8956275, "is_reserved": 0, "fusion_lat": 0.0, "bike_id": "f0eab3e9534583f1d6ab0c946c640878", "type": "electric_scooter", "is_disabled": 0, "fusion_lon": 0.0}, {"rental_uris": {"android": "https://dc.lft.to/lastmile_qr_scan", "ios": "https://dc.lft.to/lastmile_qr_scan"}, "lon": -77.12073633333333, "name": "34880c9d51a8df3ca31e03d84b7002bd", "lat": 38.855020333333336, "is_reserved": 0, "fusion_lat": 0.0, "bike_id": "34880c9d51a8df3ca31e03d84b7002bd", "type": "electric_bike", "is_disabled": 0, "fusion_lon": 0.0}, {"rental_uris": {"android": "https://dc.lft.to/lastmile_qr_scan", "ios": "https://dc.lft.to/lastmile_qr_scan"}, "lon": -77.01169483333334, "name": "af1616474d7a5bdcb5e3a1c3091c1c4b", "lat": 38.921373333333335, "is_reserved": 0, "fusion_lat": 0.0, "bike_id": "af1616474d7a5bdcb5e3a1c3091c1c4b", "type": "electric_scooter", "is_disabled": 0, "fusion_lon": 0.0}, {"rental_uris": {"android": "https://dc.lft.to/lastmile_qr_scan", "ios": "https://dc.lft.to/lastmile_qr_scan"}, "lon": -77.00566866666666, "name": "b4607a61d877b444daa9a4263ff1563e", "lat": 38.90576816666667, "is_reserved": 0, "fusion_lat": 0.0, "bike_id": "b4607a61d877b444daa9a4263ff1563e", "type": "electric_scooter", "is_disabled": 0, "fusion_lon": 0.0}, {"rental_uris": {"android": "https://dc.lft.to/lastmile_qr_scan", "ios": "https://dc.lft.to/lastmile_qr_scan"}, "lon": -76.99941833333334, "name": "ef01ea659582343609cf1dc57addcd25", "lat": 38.94068566666667, "is_reserved": 0, "fusion_lat": 0.0, "bike_id": "ef01ea659582343609cf1dc57addcd25", "type": "electric_scooter", "is_disabled": 0, "fusion_lon": 0.0}, {"rental_uris": {"android": "https://dc.lft.to/lastmile_qr_scan", "ios": "https://dc.lft.to/lastmile_qr_scan"}, "lon": -77.1202385, "name": "d4e2e0de52cf1126f266483d110a3900", "lat": 38.85787466666667, "is_reserved": 0, "fusion_lat": 0.0, "bike_id": "d4e2e0de52cf1126f266483d110a3900", "type": "electric_bike", "is_disabled": 0, "fusion_lon": 0.0}, {"rental_uris": {"android": "https://dc.lft.to/lastmile_qr_scan", "ios": "https://dc.lft.to/lastmile_qr_scan"}, "lon": -77.04540683333333, "name": "1aa42fd7f83e3e940708a89ea8f09be0", "lat": 38.919449166666666, "is_reserved": 0, "fusion_lat": 0.0, "bike_id": "1aa42fd7f83e3e940708a89ea8f09be0", "type": "electric_scooter", "is_disabled": 0, "fusion_lon": 0.0}, {"rental_uris": {"android": "https://dc.lft.to/lastmile_qr_scan", "ios": "https://dc.lft.to/lastmile_qr_scan"}, "lon": -77.0401655, "name": "5ab85282bdf9064ded9c616c9321c800", "lat": 38.90279183333333, "is_reserved": 0, "fusion_lat": 0.0, "bike_id": "5ab85282bdf9064ded9c616c9321c800", "type": "electric_scooter", "is_disabled": 0, "fusion_lon": 0.0}, {"rental_uris": {"android": "https://dc.lft.to/lastmile_qr_scan", "ios": "https://dc.lft.to/lastmile_qr_scan"}, "lon": -77.03318716666666, "name": "9ddb488c77147877e9aa4392b0595393", "lat": 38.898196666666664, "is_reserved": 0, "fusion_lat": 0.0, "bike_id": "9ddb488c77147877e9aa4392b0595393", "type": "electric_scooter", "is_disabled": 0, "fusion_lon": 0.0}, {"rental_uris": {"android": "https://dc.lft.to/lastmile_qr_scan", "ios": "https://dc.lft.to/lastmile_qr_scan"}, "lon": -77.0326355, "name": "cb2c491c226284d90ce81aaaaa41eba1", "lat": 38.93981083333333, "is_reserved": 0, "fusion_lat": 0.0, "bike_id": "cb2c491c226284d90ce81aaaaa41eba1", "type": "electric_scooter", "is_disabled": 0, "fusion_lon": 0.0}, {"rental_uris": {"android": "https://dc.lft.to/lastmile_qr_scan", "ios": "https://dc.lft.to/lastmile_qr_scan"}, "lon": -76.98337616666667, "name": "49a2f0b8805fec6c4e518d71a8288d55", "lat": 38.86565016666667, "is_reserved": 0, "fusion_lat": 0.0, "bike_id": "49a2f0b8805fec6c4e518d71a8288d55", "type": "electric_scooter", "is_disabled": 0, "fusion_lon": 0.0}, {"rental_uris": {"android": "https://dc.lft.to/lastmile_qr_scan", "ios": "https://dc.lft.to/lastmile_qr_scan"}, "lon": -76.99979033333334, "name": "e186d8426a29e5dfe254811fa2b36620", "lat": 38.8748265, "is_reserved": 0, "fusion_lat": 0.0, "bike_id": "e186d8426a29e5dfe254811fa2b36620", "type": "electric_scooter", "is_disabled": 0, "fusion_lon": 0.0}, {"rental_uris": {"android": "https://dc.lft.to/lastmile_qr_scan", "ios": "https://dc.lft.to/lastmile_qr_scan"}, "lon": -77.02716333333333, "name": "35c1ec3686ec560c57f4cf38fd92a733", "lat": 38.928748666666664, "is_reserved": 0, "fusion_lat": 0.0, "bike_id": "35c1ec3686ec560c57f4cf38fd92a733", "type": "electric_scooter", "is_disabled": 0, "fusion_lon": 0.0}, {"rental_uris": {"android": "https://dc.lft.to/lastmile_qr_scan", "ios": "https://dc.lft.to/lastmile_qr_scan"}, "lon": -77.0056985, "name": "0c46d20627a3af5e72c31ca72d43fce9", "lat": 38.9055445, "is_reserved": 0, "fusion_lat": 0.0, "bike_id": "0c46d20627a3af5e72c31ca72d43fce9", "type": "electric_scooter", "is_disabled": 0, "fusion_lon": 0.0}, {"rental_uris": {"android": "https://dc.lft.to/lastmile_qr_scan", "ios": "https://dc.lft.to/lastmile_qr_scan"}, "lon": -77.16607033333334, "name": "576a2fcea37bda4197075051771db1ff", "lat": 39.119775833333335, "is_reserved": 0, "fusion_lat": 0.0, "bike_id": "576a2fcea37bda4197075051771db1ff", "type": "electric_bike", "is_disabled": 0, "fusion_lon": 0.0}, {"rental_uris": {"android": "https://dc.lft.to/lastmile_qr_scan", "ios": "https://dc.lft.to/lastmile_qr_scan"}, "lon": -77.026139, "name": "f203c4d8781ae4079cdca18bfaeb76ee", "lat": 38.9284905, "is_reserved": 0, "fusion_lat": 0.0, "bike_id": "f203c4d8781ae4079cdca18bfaeb76ee", "type": "electric_bike", "is_disabled": 0, "fusion_lon": 0.0}, {"rental_uris": {"android": "https://dc.lft.to/lastmile_qr_scan", "ios": "https://dc.lft.to/lastmile_qr_scan"}, "lon": -77.02085566666666, "name": "38c9c7c048aff735fa54aa251a9b8ba9", "lat": 38.921588666666665, "is_reserved": 0, "fusion_lat": 0.0, "bike_id": "38c9c7c048aff735fa54aa251a9b8ba9", "type": "electric_scooter", "is_disabled": 0, "fusion_lon": 0.0}, {"rental_uris": {"android": "https://dc.lft.to/lastmile_qr_scan", "ios": "https://dc.lft.to/lastmile_qr_scan"}, "lon": -76.997328, "name": "6944d170ba30c5bd2d2f19c441d74af9", "lat": 38.899425, "is_reserved": 0, "fusion_lat": 0.0, "bike_id": "6944d170ba30c5bd2d2f19c441d74af9", "type": "electric_scooter", "is_disabled": 0, "fusion_lon": 0.0}, {"rental_uris": {"android": "https://dc.lft.to/lastmile_qr_scan", "ios": "https://dc.lft.to/lastmile_qr_scan"}, "lon": -77.02522566666667, "name": "c39d344047402b45917d4424e325f31e", "lat": 38.924867166666665, "is_reserved": 0, "fusion_lat": 0.0, "bike_id": "c39d344047402b45917d4424e325f31e", "type": "electric_scooter", "is_disabled": 0, "fusion_lon": 0.0}, {"rental_uris": {"android": "https://dc.lft.to/lastmile_qr_scan", "ios": "https://dc.lft.to/lastmile_qr_scan"}, "lon": -77.08161066666666, "name": "eaa16eba5e3f42c6bedc4f810fcbda64", "lat": 38.934789333333335, "is_reserved": 0, "fusion_lat": 0.0, "bike_id": "eaa16eba5e3f42c6bedc4f810fcbda64", "type": "electric_scooter", "is_disabled": 0, "fusion_lon": 0.0}, {"rental_uris": {"android": "https://dc.lft.to/lastmile_qr_scan", "ios": "https://dc.lft.to/lastmile_qr_scan"}, "lon": -76.98548, "name": "e4af1e4b53b36f5524f917a4bfb80700", "lat": 38.866893166666664, "is_reserved": 0, "fusion_lat": 0.0, "bike_id": "e4af1e4b53b36f5524f917a4bfb80700", "type": "electric_scooter", "is_disabled": 0, "fusion_lon": 0.0}, {"rental_uris": {"android": "https://dc.lft.to/lastmile_qr_scan", "ios": "https://dc.lft.to/lastmile_qr_scan"}, "lon": -77.023762, "name": "1f8b9196938d719bed90cff97c08d950", "lat": 38.9197815, "is_reserved": 0, "fusion_lat": 0.0, "bike_id": "1f8b9196938d719bed90cff97c08d950", "type": "electric_scooter", "is_disabled": 0, "fusion_lon": 0.0}, {"rental_uris": {"android": "https://dc.lft.to/lastmile_qr_scan", "ios": "https://dc.lft.to/lastmile_qr_scan"}, "lon": -76.94637666666667, "name": "1be0489c1699481a508ff5faac9c100d", "lat": 38.8983045, "is_reserved": 0, "fusion_lat": 0.0, "bike_id": "1be0489c1699481a508ff5faac9c100d", "type": "electric_scooter", "is_disabled": 0, "fusion_lon": 0.0}, {"rental_uris": {"android": "https://dc.lft.to/lastmile_qr_scan", "ios": "https://dc.lft.to/lastmile_qr_scan"}, "lon": -77.02558133333334, "name": "2f493d7634aae0648a8db97fb7105ea4", "lat": 38.94168583333333, "is_reserved": 0, "fusion_lat": 0.0, "bike_id": "2f493d7634aae0648a8db97fb7105ea4", "type": "electric_scooter", "is_disabled": 0, "fusion_lon": 0.0}, {"rental_uris": {"android": "https://dc.lft.to/lastmile_qr_scan", "ios": "https://dc.lft.to/lastmile_qr_scan"}, "lon": -77.02635433333333, "name": "10c6515fd9f9628ac698e2efc2b60ebb", "lat": 38.8811335, "is_reserved": 0, "fusion_lat": 0.0, "bike_id": "10c6515fd9f9628ac698e2efc2b60ebb", "type": "electric_scooter", "is_disabled": 0, "fusion_lon": 0.0}, {"rental_uris": {"android": "https://dc.lft.to/lastmile_qr_scan", "ios": "https://dc.lft.to/lastmile_qr_scan"}, "lon": -77.024909, "name": "97ff37017a5bc0c1b0596a679468d5bd", "lat": 38.9072405, "is_reserved": 0, "fusion_lat": 0.0, "bike_id": "97ff37017a5bc0c1b0596a679468d5bd", "type": "electric_scooter", "is_disabled": 0, "fusion_lon": 0.0}, {"rental_uris": {"android": "https://dc.lft.to/lastmile_qr_scan", "ios": "https://dc.lft.to/lastmile_qr_scan"}, "lon": -77.01640066666667, "name": "8fcf42ebf008c86c7fe9077a1b2cb996", "lat": 38.881186, "is_reserved": 0, "fusion_lat": 0.0, "bike_id": "8fcf42ebf008c86c7fe9077a1b2cb996", "type": "electric_scooter", "is_disabled": 0, "fusion_lon": 0.0}, {"rental_uris": {"android": "https://dc.lft.to/lastmile_qr_scan", "ios": "https://dc.lft.to/lastmile_qr_scan"}, "lon": -77.02695583333333, "name": "265256d33cb38633407b7e415671cc0b", "lat": 38.90946016666667, "is_reserved": 0, "fusion_lat": 0.0, "bike_id": "265256d33cb38633407b7e415671cc0b", "type": "electric_scooter", "is_disabled": 0, "fusion_lon": 0.0}, {"rental_uris": {"android": "https://dc.lft.to/lastmile_qr_scan", "ios": "https://dc.lft.to/lastmile_qr_scan"}, "lon": -77.0313065, "name": "a3734f9e0fedeb58cf0285072107a68a", "lat": 38.9295745, "is_reserved": 0, "fusion_lat": 0.0, "bike_id": "a3734f9e0fedeb58cf0285072107a68a", "type": "electric_scooter", "is_disabled": 0, "fusion_lon": 0.0}, {"rental_uris": {"android": "https://dc.lft.to/lastmile_qr_scan", "ios": "https://dc.lft.to/lastmile_qr_scan"}, "lon": -77.03096533333333, "name": "4603f1f70f9ba26ca92c94478ae1f6fb", "lat": 38.935411333333334, "is_reserved": 0, "fusion_lat": 0.0, "bike_id": "4603f1f70f9ba26ca92c94478ae1f6fb", "type": "electric_scooter", "is_disabled": 0, "fusion_lon": 0.0}, {"rental_uris": {"android": "https://dc.lft.to/lastmile_qr_scan", "ios": "https://dc.lft.to/lastmile_qr_scan"}, "lon": -76.99766183333334, "name": "5538e6a0ac82fc5d2c509dd422d7461b", "lat": 38.90912616666667, "is_reserved": 0, "fusion_lat": 0.0, "bike_id": "5538e6a0ac82fc5d2c509dd422d7461b", "type": "electric_scooter", "is_disabled": 0, "fusion_lon": 0.0}, {"rental_uris": {"android": "https://dc.lft.to/lastmile_qr_scan", "ios": "https://dc.lft.to/lastmile_qr_scan"}, "lon": -77.0191535, "name": "b585473fb9ab796ec38a8fa78b1b0e4e", "lat": 38.937690833333335, "is_reserved": 0, "fusion_lat": 0.0, "bike_id": "b585473fb9ab796ec38a8fa78b1b0e4e", "type": "electric_bike", "is_disabled": 0, "fusion_lon": 0.0}, {"rental_uris": {"android": "https://dc.lft.to/lastmile_qr_scan", "ios": "https://dc.lft.to/lastmile_qr_scan"}, "lon": -77.0445585, "name": "920488e7ad25f005229193fa99552f25", "lat": 38.90259066666667, "is_reserved": 0, "fusion_lat": 0.0, "bike_id": "920488e7ad25f005229193fa99552f25", "type": "electric_scooter", "is_disabled": 0, "fusion_lon": 0.0}, {"rental_uris": {"android": "https://dc.lft.to/lastmile_qr_scan", "ios": "https://dc.lft.to/lastmile_qr_scan"}, "lon": -77.03213616666666, "name": "79a77c4f93ae3eb6f39c48d4ecc5d7eb", "lat": 38.92124533333333, "is_reserved": 0, "fusion_lat": 0.0, "bike_id": "79a77c4f93ae3eb6f39c48d4ecc5d7eb", "type": "electric_scooter", "is_disabled": 0, "fusion_lon": 0.0}, {"rental_uris": {"android": "https://dc.lft.to/lastmile_qr_scan", "ios": "https://dc.lft.to/lastmile_qr_scan"}, "lon": -76.9951235, "name": "752982b5fa7ad7acdb893052a141a739", "lat": 38.82175433333333, "is_reserved": 0, "fusion_lat": 0.0, "bike_id": "752982b5fa7ad7acdb893052a141a739", "type": "electric_bike", "is_disabled": 0, "fusion_lon": 0.0}, {"rental_uris": {"android": "https://dc.lft.to/lastmile_qr_scan", "ios": "https://dc.lft.to/lastmile_qr_scan"}, "lon": -76.99130883333333, "name": "11d7fac4e832b2344f916fae267e9a48", "lat": 38.846428333333336, "is_reserved": 0, "fusion_lat": 0.0, "bike_id": "11d7fac4e832b2344f916fae267e9a48", "type": "electric_scooter", "is_disabled": 0, "fusion_lon": 0.0}, {"rental_uris": {"android": "https://dc.lft.to/lastmile_qr_scan", "ios": "https://dc.lft.to/lastmile_qr_scan"}, "lon": -77.10788733333334, "name": "b74611f1652bd3d14c3ba582b8cdf161", "lat": 38.85247283333333, "is_reserved": 0, "fusion_lat": 0.0, "bike_id": "b74611f1652bd3d14c3ba582b8cdf161", "type": "electric_bike", "is_disabled": 0, "fusion_lon": 0.0}, {"rental_uris": {"android": "https://dc.lft.to/lastmile_qr_scan", "ios": "https://dc.lft.to/lastmile_qr_scan"}, "lon": -77.009278, "name": "d86ac06c8fe93752643c11d6482201d6", "lat": 38.9074345, "is_reserved": 0, "fusion_lat": 0.0, "bike_id": "d86ac06c8fe93752643c11d6482201d6", "type": "electric_scooter", "is_disabled": 0, "fusion_lon": 0.0}, {"rental_uris": {"android": "https://dc.lft.to/lastmile_qr_scan", "ios": "https://dc.lft.to/lastmile_qr_scan"}, "lon": -77.0369775, "name": "0c37d0b6ace34c6262c52d8c94b94194", "lat": 38.918068, "is_reserved": 0, "fusion_lat": 0.0, "bike_id": "0c37d0b6ace34c6262c52d8c94b94194", "type": "electric_scooter", "is_disabled": 0, "fusion_lon": 0.0}, {"rental_uris": {"android": "https://dc.lft.to/lastmile_qr_scan", "ios": "https://dc.lft.to/lastmile_qr_scan"}, "lon": -77.02666933333333, "name": "010271b5c8a061bdf9818c12c4aacdcc", "lat": 38.92476116666667, "is_reserved": 0, "fusion_lat": 0.0, "bike_id": "010271b5c8a061bdf9818c12c4aacdcc", "type": "electric_scooter", "is_disabled": 0, "fusion_lon": 0.0}, {"rental_uris": {"android": "https://dc.lft.to/lastmile_qr_scan", "ios": "https://dc.lft.to/lastmile_qr_scan"}, "lon": -77.04042233333334, "name": "50559dd554facf01d6625c935d001f6b", "lat": 38.91794383333333, "is_reserved": 0, "fusion_lat": 0.0, "bike_id": "50559dd554facf01d6625c935d001f6b", "type": "electric_scooter", "is_disabled": 0, "fusion_lon": 0.0}, {"rental_uris": {"android": "https://dc.lft.to/lastmile_qr_scan", "ios": "https://dc.lft.to/lastmile_qr_scan"}, "lon": -77.02203633333333, "name": "48b77023eeaa1fae9f43e7739c8eab55", "lat": 38.89527666666667, "is_reserved": 0, "fusion_lat": 0.0, "bike_id": "48b77023eeaa1fae9f43e7739c8eab55", "type": "electric_scooter", "is_disabled": 0, "fusion_lon": 0.0}, {"rental_uris": {"android": "https://dc.lft.to/lastmile_qr_scan", "ios": "https://dc.lft.to/lastmile_qr_scan"}, "lon": -76.946411, "name": "d37ff388e8a426737e5e1356be2d5aea", "lat": 38.8985935, "is_reserved": 0, "fusion_lat": 0.0, "bike_id": "d37ff388e8a426737e5e1356be2d5aea", "type": "electric_scooter", "is_disabled": 0, "fusion_lon": 0.0}, {"rental_uris": {"android": "https://dc.lft.to/lastmile_qr_scan", "ios": "https://dc.lft.to/lastmile_qr_scan"}, "lon": -76.97548783333333, "name": "a2edfb57a7679fdbad783c4a343260b8", "lat": 38.90322966666667, "is_reserved": 0, "fusion_lat": 0.0, "bike_id": "a2edfb57a7679fdbad783c4a343260b8", "type": "electric_scooter", "is_disabled": 0, "fusion_lon": 0.0}, {"rental_uris": {"android": "https://dc.lft.to/lastmile_qr_scan", "ios": "https://dc.lft.to/lastmile_qr_scan"}, "lon": -77.02179683333334, "name": "61d041ba8edc06db9dc921ff56ab8ac2", "lat": 38.901863166666665, "is_reserved": 0, "fusion_lat": 0.0, "bike_id": "61d041ba8edc06db9dc921ff56ab8ac2", "type": "electric_scooter", "is_disabled": 0, "fusion_lon": 0.0}, {"rental_uris": {"android": "https://dc.lft.to/lastmile_qr_scan", "ios": "https://dc.lft.to/lastmile_qr_scan"}, "lon": -77.01302666666666, "name": "aae911a94f7f50eb5e0d6ff1c59b308c", "lat": 38.900723166666666, "is_reserved": 0, "fusion_lat": 0.0, "bike_id": "aae911a94f7f50eb5e0d6ff1c59b308c", "type": "electric_bike", "is_disabled": 0, "fusion_lon": 0.0}, {"rental_uris": {"android": "https://dc.lft.to/lastmile_qr_scan", "ios": "https://dc.lft.to/lastmile_qr_scan"}, "lon": -77.0365815, "name": "2b37641d82e8be07ce38aa57ec34870e", "lat": 38.92974266666667, "is_reserved": 0, "fusion_lat": 0.0, "bike_id": "2b37641d82e8be07ce38aa57ec34870e", "type": "electric_scooter", "is_disabled": 0, "fusion_lon": 0.0}, {"rental_uris": {"android": "https://dc.lft.to/lastmile_qr_scan", "ios": "https://dc.lft.to/lastmile_qr_scan"}, "lon": -77.003415, "name": "945b90fd673a43886b55d6e1043b33a1", "lat": 38.8992285, "is_reserved": 0, "fusion_lat": 0.0, "bike_id": "945b90fd673a43886b55d6e1043b33a1", "type": "electric_scooter", "is_disabled": 0, "fusion_lon": 0.0}, {"rental_uris": {"android": "https://dc.lft.to/lastmile_qr_scan", "ios": "https://dc.lft.to/lastmile_qr_scan"}, "lon": -76.98562933333334, "name": "4cdf17371e91ec365a959fae13f6d931", "lat": 38.866804333333334, "is_reserved": 0, "fusion_lat": 0.0, "bike_id": "4cdf17371e91ec365a959fae13f6d931", "type": "electric_scooter", "is_disabled": 0, "fusion_lon": 0.0}, {"rental_uris": {"android": "https://dc.lft.to/lastmile_qr_scan", "ios": "https://dc.lft.to/lastmile_qr_scan"}, "lon": -77.04390233333334, "name": "a96102fc3cf191677992d31e42c263dc", "lat": 38.9235555, "is_reserved": 0, "fusion_lat": 0.0, "bike_id": "a96102fc3cf191677992d31e42c263dc", "type": "electric_scooter", "is_disabled": 0, "fusion_lon": 0.0}, {"rental_uris": {"android": "https://dc.lft.to/lastmile_qr_scan", "ios": "https://dc.lft.to/lastmile_qr_scan"}, "lon": -77.0364035, "name": "b5bc3f67bf3d561c9bc393991c9d19e5", "lat": 38.9146025, "is_reserved": 0, "fusion_lat": 0.0, "bike_id": "b5bc3f67bf3d561c9bc393991c9d19e5", "type": "electric_scooter", "is_disabled": 0, "fusion_lon": 0.0}, {"rental_uris": {"android": "https://dc.lft.to/lastmile_qr_scan", "ios": "https://dc.lft.to/lastmile_qr_scan"}, "lon": -77.02525316666667, "name": "1a383a218fdec236de7a47c9a8d798da", "lat": 38.9374915, "is_reserved": 0, "fusion_lat": 0.0, "bike_id": "1a383a218fdec236de7a47c9a8d798da", "type": "electric_scooter", "is_disabled": 0, "fusion_lon": 0.0}, {"rental_uris": {"android": "https://dc.lft.to/lastmile_qr_scan", "ios": "https://dc.lft.to/lastmile_qr_scan"}, "lon": -76.9888145, "name": "549d44f5e56c45f28bcc3b776ed2b3aa", "lat": 38.8666495, "is_reserved": 0, "fusion_lat": 0.0, "bike_id": "549d44f5e56c45f28bcc3b776ed2b3aa", "type": "electric_scooter", "is_disabled": 0, "fusion_lon": 0.0}, {"rental_uris": {"android": "https://dc.lft.to/lastmile_qr_scan", "ios": "https://dc.lft.to/lastmile_qr_scan"}, "lon": -77.01027216666667, "name": "001ff026d68ccf3ca96d9753964c73b3", "lat": 38.920276666666666, "is_reserved": 0, "fusion_lat": 0.0, "bike_id": "001ff026d68ccf3ca96d9753964c73b3", "type": "electric_scooter", "is_disabled": 0, "fusion_lon": 0.0}, {"rental_uris": {"android": "https://dc.lft.to/lastmile_qr_scan", "ios": "https://dc.lft.to/lastmile_qr_scan"}, "lon": -77.02694166666667, "name": "f26331a833be2f21d859bc90231360d4", "lat": 38.90945, "is_reserved": 0, "fusion_lat": 0.0, "bike_id": "f26331a833be2f21d859bc90231360d4", "type": "electric_scooter", "is_disabled": 0, "fusion_lon": 0.0}, {"rental_uris": {"android": "https://dc.lft.to/lastmile_qr_scan", "ios": "https://dc.lft.to/lastmile_qr_scan"}, "lon": -77.02139466666667, "name": "55350b98dfa0c99a026aafe324b336d9", "lat": 38.924884166666665, "is_reserved": 0, "fusion_lat": 0.0, "bike_id": "55350b98dfa0c99a026aafe324b336d9", "type": "electric_scooter", "is_disabled": 0, "fusion_lon": 0.0}, {"rental_uris": {"android": "https://dc.lft.to/lastmile_qr_scan", "ios": "https://dc.lft.to/lastmile_qr_scan"}, "lon": -76.98155866666667, "name": "55ea6710c394e901a2c78043d591fd2c", "lat": 38.89940983333334, "is_reserved": 0, "fusion_lat": 0.0, "bike_id": "55ea6710c394e901a2c78043d591fd2c", "type": "electric_scooter", "is_disabled": 0, "fusion_lon": 0.0}, {"rental_uris": {"android": "https://dc.lft.to/lastmile_qr_scan", "ios": "https://dc.lft.to/lastmile_qr_scan"}, "lon": -77.03644433333334, "name": "d782c01e8014f5a4ec2a063a1bee9c79", "lat": 38.923007, "is_reserved": 0, "fusion_lat": 0.0, "bike_id": "d782c01e8014f5a4ec2a063a1bee9c79", "type": "electric_scooter", "is_disabled": 0, "fusion_lon": 0.0}, {"rental_uris": {"android": "https://dc.lft.to/lastmile_qr_scan", "ios": "https://dc.lft.to/lastmile_qr_scan"}, "lon": -77.0270055, "name": "b9f82fc6946b3c42a6e9f7f94be5a088", "lat": 38.90784933333333, "is_reserved": 0, "fusion_lat": 0.0, "bike_id": "b9f82fc6946b3c42a6e9f7f94be5a088", "type": "electric_scooter", "is_disabled": 0, "fusion_lon": 0.0}, {"rental_uris": {"android": "https://dc.lft.to/lastmile_qr_scan", "ios": "https://dc.lft.to/lastmile_qr_scan"}, "lon": -76.926622, "name": "68fe0a51ad70cec7246f05b4a8c7d286", "lat": 38.901713, "is_reserved": 0, "fusion_lat": 0.0, "bike_id": "68fe0a51ad70cec7246f05b4a8c7d286", "type": "electric_scooter", "is_disabled": 0, "fusion_lon": 0.0}, {"rental_uris": {"android": "https://dc.lft.to/lastmile_qr_scan", "ios": "https://dc.lft.to/lastmile_qr_scan"}, "lon": -77.02215833333334, "name": "7102bf34fed8e8f48d2b5a4fc7502b83", "lat": 38.90306916666667, "is_reserved": 0, "fusion_lat": 0.0, "bike_id": "7102bf34fed8e8f48d2b5a4fc7502b83", "type": "electric_scooter", "is_disabled": 0, "fusion_lon": 0.0}, {"rental_uris": {"android": "https://dc.lft.to/lastmile_qr_scan", "ios": "https://dc.lft.to/lastmile_qr_scan"}, "lon": -76.95246266666666, "name": "d1e24c95f3005bf480764700b1f9b910", "lat": 38.89043, "is_reserved": 0, "fusion_lat": 0.0, "bike_id": "d1e24c95f3005bf480764700b1f9b910", "type": "electric_scooter", "is_disabled": 0, "fusion_lon": 0.0}, {"rental_uris": {"android": "https://dc.lft.to/lastmile_qr_scan", "ios": "https://dc.lft.to/lastmile_qr_scan"}, "lon": -77.03525283333333, "name": "e1a14540ef0ace21822cfc258a26e8d6", "lat": 38.92243366666667, "is_reserved": 0, "fusion_lat": 0.0, "bike_id": "e1a14540ef0ace21822cfc258a26e8d6", "type": "electric_scooter", "is_disabled": 0, "fusion_lon": 0.0}, {"rental_uris": {"android": "https://dc.lft.to/lastmile_qr_scan", "ios": "https://dc.lft.to/lastmile_qr_scan"}, "lon": -77.0236915, "name": "e71e04e07de46d9a458d653fc9c422ec", "lat": 38.91962083333333, "is_reserved": 0, "fusion_lat": 0.0, "bike_id": "e71e04e07de46d9a458d653fc9c422ec", "type": "electric_scooter", "is_disabled": 0, "fusion_lon": 0.0}, {"rental_uris": {"android": "https://dc.lft.to/lastmile_qr_scan", "ios": "https://dc.lft.to/lastmile_qr_scan"}, "lon": -77.013612, "name": "a2d5b0178edd029db07397e5ffbc6acb", "lat": 38.89781583333333, "is_reserved": 0, "fusion_lat": 0.0, "bike_id": "a2d5b0178edd029db07397e5ffbc6acb", "type": "electric_scooter", "is_disabled": 0, "fusion_lon": 0.0}, {"rental_uris": {"android": "https://dc.lft.to/lastmile_qr_scan", "ios": "https://dc.lft.to/lastmile_qr_scan"}, "lon": -77.0317585, "name": "268ea64437575fdc970f8979d4cfa7f7", "lat": 38.9073005, "is_reserved": 0, "fusion_lat": 0.0, "bike_id": "268ea64437575fdc970f8979d4cfa7f7", "type": "electric_scooter", "is_disabled": 0, "fusion_lon": 0.0}, {"rental_uris": {"android": "https://dc.lft.to/lastmile_qr_scan", "ios": "https://dc.lft.to/lastmile_qr_scan"}, "lon": -77.02640383333333, "name": "3499412b5e1ed3244bb78ac330cb03a6", "lat": 38.90424333333333, "is_reserved": 0, "fusion_lat": 0.0, "bike_id": "3499412b5e1ed3244bb78ac330cb03a6", "type": "electric_scooter", "is_disabled": 0, "fusion_lon": 0.0}, {"rental_uris": {"android": "https://dc.lft.to/lastmile_qr_scan", "ios": "https://dc.lft.to/lastmile_qr_scan"}, "lon": -77.0273975, "name": "54d1499ab72cfff233d41f7a9c432344", "lat": 38.9287395, "is_reserved": 0, "fusion_lat": 0.0, "bike_id": "54d1499ab72cfff233d41f7a9c432344", "type": "electric_scooter", "is_disabled": 0, "fusion_lon": 0.0}, {"rental_uris": {"android": "https://dc.lft.to/lastmile_qr_scan", "ios": "https://dc.lft.to/lastmile_qr_scan"}, "lon": -77.03407833333333, "name": "3b7cbf041e5af8eaeba0d3e023923d6a", "lat": 38.9243735, "is_reserved": 0, "fusion_lat": 0.0, "bike_id": "3b7cbf041e5af8eaeba0d3e023923d6a", "type": "electric_scooter", "is_disabled": 0, "fusion_lon": 0.0}, {"rental_uris": {"android": "https://dc.lft.to/lastmile_qr_scan", "ios": "https://dc.lft.to/lastmile_qr_scan"}, "lon": -77.03846383333334, "name": "89d89bf6ae4ddfadf263ba5626faa987", "lat": 38.902668166666665, "is_reserved": 0, "fusion_lat": 0.0, "bike_id": "89d89bf6ae4ddfadf263ba5626faa987", "type": "electric_scooter", "is_disabled": 0, "fusion_lon": 0.0}, {"rental_uris": {"android": "https://dc.lft.to/lastmile_qr_scan", "ios": "https://dc.lft.to/lastmile_qr_scan"}, "lon": -77.03241016666666, "name": "eed8a5f981e5f5908eff55a29535dc2b", "lat": 38.92679016666666, "is_reserved": 0, "fusion_lat": 0.0, "bike_id": "eed8a5f981e5f5908eff55a29535dc2b", "type": "electric_scooter", "is_disabled": 0, "fusion_lon": 0.0}, {"rental_uris": {"android": "https://dc.lft.to/lastmile_qr_scan", "ios": "https://dc.lft.to/lastmile_qr_scan"}, "lon": -77.0222815, "name": "ff79619e71caaf7842c02f2611fe9861", "lat": 38.91257216666666, "is_reserved": 0, "fusion_lat": 0.0, "bike_id": "ff79619e71caaf7842c02f2611fe9861", "type": "electric_scooter", "is_disabled": 0, "fusion_lon": 0.0}, {"rental_uris": {"android": "https://dc.lft.to/lastmile_qr_scan", "ios": "https://dc.lft.to/lastmile_qr_scan"}, "lon": -77.04002616666666, "name": "334fd13a246aecef58972e5936467ed4", "lat": 38.903194666666664, "is_reserved": 0, "fusion_lat": 0.0, "bike_id": "334fd13a246aecef58972e5936467ed4", "type": "electric_scooter", "is_disabled": 0, "fusion_lon": 0.0}, {"rental_uris": {"android": "https://dc.lft.to/lastmile_qr_scan", "ios": "https://dc.lft.to/lastmile_qr_scan"}, "lon": -76.9705685, "name": "0d2ff7c9c8ce004468cf1d3de5cc816d", "lat": 38.9587395, "is_reserved": 0, "fusion_lat": 0.0, "bike_id": "0d2ff7c9c8ce004468cf1d3de5cc816d", "type": "electric_bike", "is_disabled": 0, "fusion_lon": 0.0}, {"rental_uris": {"android": "https://dc.lft.to/lastmile_qr_scan", "ios": "https://dc.lft.to/lastmile_qr_scan"}, "lon": -77.04385466666666, "name": "e9136ddeded7ab313d5cb4dcc398a36e", "lat": 38.900131, "is_reserved": 0, "fusion_lat": 0.0, "bike_id": "e9136ddeded7ab313d5cb4dcc398a36e", "type": "electric_scooter", "is_disabled": 0, "fusion_lon": 0.0}, {"rental_uris": {"android": "https://dc.lft.to/lastmile_qr_scan", "ios": "https://dc.lft.to/lastmile_qr_scan"}, "lon": -77.031602, "name": "8ece8f3c94529f8258021ff9f6cd3ad8", "lat": 38.92087033333333, "is_reserved": 0, "fusion_lat": 0.0, "bike_id": "8ece8f3c94529f8258021ff9f6cd3ad8", "type": "electric_scooter", "is_disabled": 0, "fusion_lon": 0.0}, {"rental_uris": {"android": "https://dc.lft.to/lastmile_qr_scan", "ios": "https://dc.lft.to/lastmile_qr_scan"}, "lon": -77.02954983333333, "name": "a1055ae551d95e76b12724b7512c25ac", "lat": 38.904979, "is_reserved": 0, "fusion_lat": 0.0, "bike_id": "a1055ae551d95e76b12724b7512c25ac", "type": "electric_scooter", "is_disabled": 0, "fusion_lon": 0.0}, {"rental_uris": {"android": "https://dc.lft.to/lastmile_qr_scan", "ios": "https://dc.lft.to/lastmile_qr_scan"}, "lon": -77.02698883333333, "name": "a086aca5858715d16068662ab602e156", "lat": 38.9731, "is_reserved": 0, "fusion_lat": 0.0, "bike_id": "a086aca5858715d16068662ab602e156", "type": "electric_scooter", "is_disabled": 0, "fusion_lon": 0.0}, {"rental_uris": {"android": "https://dc.lft.to/lastmile_qr_scan", "ios": "https://dc.lft.to/lastmile_qr_scan"}, "lon": -77.01377083333334, "name": "4fdf9737ec7ecf921e4369bcb45abd7a", "lat": 38.878996666666666, "is_reserved": 0, "fusion_lat": 0.0, "bike_id": "4fdf9737ec7ecf921e4369bcb45abd7a", "type": "electric_scooter", "is_disabled": 0, "fusion_lon": 0.0}, {"rental_uris": {"android": "https://dc.lft.to/lastmile_qr_scan", "ios": "https://dc.lft.to/lastmile_qr_scan"}, "lon": -77.040014, "name": "0443b34b9d23f74e08f00c09ec122463", "lat": 38.93427466666667, "is_reserved": 0, "fusion_lat": 0.0, "bike_id": "0443b34b9d23f74e08f00c09ec122463", "type": "electric_scooter", "is_disabled": 0, "fusion_lon": 0.0}, {"rental_uris": {"android": "https://dc.lft.to/lastmile_qr_scan", "ios": "https://dc.lft.to/lastmile_qr_scan"}, "lon": -77.03672633333333, "name": "37ce452116662d89a6cd496b400930bf", "lat": 38.921533833333335, "is_reserved": 0, "fusion_lat": 0.0, "bike_id": "37ce452116662d89a6cd496b400930bf", "type": "electric_scooter", "is_disabled": 0, "fusion_lon": 0.0}, {"rental_uris": {"android": "https://dc.lft.to/lastmile_qr_scan", "ios": "https://dc.lft.to/lastmile_qr_scan"}, "lon": -77.04516733333334, "name": "62ca8d2b921aa99930c0d0d92206e75d", "lat": 38.89608166666667, "is_reserved": 0, "fusion_lat": 0.0, "bike_id": "62ca8d2b921aa99930c0d0d92206e75d", "type": "electric_scooter", "is_disabled": 0, "fusion_lon": 0.0}, {"rental_uris": {"android": "https://dc.lft.to/lastmile_qr_scan", "ios": "https://dc.lft.to/lastmile_qr_scan"}, "lon": -77.03847833333333, "name": "742af7bb1cd3ac9339b24ab7c2a9faca", "lat": 38.9154815, "is_reserved": 0, "fusion_lat": 0.0, "bike_id": "742af7bb1cd3ac9339b24ab7c2a9faca", "type": "electric_scooter", "is_disabled": 0, "fusion_lon": 0.0}, {"rental_uris": {"android": "https://dc.lft.to/lastmile_qr_scan", "ios": "https://dc.lft.to/lastmile_qr_scan"}, "lon": -77.02819583333333, "name": "16488635dc8f8710c69277b60910140f", "lat": 38.89908483333333, "is_reserved": 0, "fusion_lat": 0.0, "bike_id": "16488635dc8f8710c69277b60910140f", "type": "electric_scooter", "is_disabled": 0, "fusion_lon": 0.0}, {"rental_uris": {"android": "https://dc.lft.to/lastmile_qr_scan", "ios": "https://dc.lft.to/lastmile_qr_scan"}, "lon": -77.00730416666667, "name": "3cf921ec4ccfdd35ca1d12d70ffd2b24", "lat": 38.89769, "is_reserved": 0, "fusion_lat": 0.0, "bike_id": "3cf921ec4ccfdd35ca1d12d70ffd2b24", "type": "electric_scooter", "is_disabled": 0, "fusion_lon": 0.0}, {"rental_uris": {"android": "https://dc.lft.to/lastmile_qr_scan", "ios": "https://dc.lft.to/lastmile_qr_scan"}, "lon": -77.03448666666667, "name": "e1b7a78805a2e55201d0cfd38308ccd1", "lat": 38.920421, "is_reserved": 0, "fusion_lat": 0.0, "bike_id": "e1b7a78805a2e55201d0cfd38308ccd1", "type": "electric_scooter", "is_disabled": 0, "fusion_lon": 0.0}, {"rental_uris": {"android": "https://dc.lft.to/lastmile_qr_scan", "ios": "https://dc.lft.to/lastmile_qr_scan"}, "lon": -77.0344605, "name": "cedb9d199b8b3f594ea5a8abdcfd97bc", "lat": 38.90713233333334, "is_reserved": 0, "fusion_lat": 0.0, "bike_id": "cedb9d199b8b3f594ea5a8abdcfd97bc", "type": "electric_scooter", "is_disabled": 0, "fusion_lon": 0.0}, {"rental_uris": {"android": "https://dc.lft.to/lastmile_qr_scan", "ios": "https://dc.lft.to/lastmile_qr_scan"}, "lon": -77.0602515, "name": "2b2a6365cc665ab0cd413816d55387bc", "lat": 38.978853666666666, "is_reserved": 0, "fusion_lat": 0.0, "bike_id": "2b2a6365cc665ab0cd413816d55387bc", "type": "electric_bike", "is_disabled": 0, "fusion_lon": 0.0}, {"rental_uris": {"android": "https://dc.lft.to/lastmile_qr_scan", "ios": "https://dc.lft.to/lastmile_qr_scan"}, "lon": -77.0503605, "name": "4af52c530743372dfc036cd0185c3712", "lat": 38.8966385, "is_reserved": 0, "fusion_lat": 0.0, "bike_id": "4af52c530743372dfc036cd0185c3712", "type": "electric_scooter", "is_disabled": 0, "fusion_lon": 0.0}, {"rental_uris": {"android": "https://dc.lft.to/lastmile_qr_scan", "ios": "https://dc.lft.to/lastmile_qr_scan"}, "lon": -77.035165, "name": "5d46585e5dbabf5ab4a16d555acb83e5", "lat": 38.918349666666664, "is_reserved": 0, "fusion_lat": 0.0, "bike_id": "5d46585e5dbabf5ab4a16d555acb83e5", "type": "electric_scooter", "is_disabled": 0, "fusion_lon": 0.0}, {"rental_uris": {"android": "https://dc.lft.to/lastmile_qr_scan", "ios": "https://dc.lft.to/lastmile_qr_scan"}, "lon": -76.99406716666667, "name": "4d65db7b614db00fd753989bed7ffc97", "lat": 38.87778216666667, "is_reserved": 0, "fusion_lat": 0.0, "bike_id": "4d65db7b614db00fd753989bed7ffc97", "type": "electric_scooter", "is_disabled": 0, "fusion_lon": 0.0}, {"rental_uris": {"android": "https://dc.lft.to/lastmile_qr_scan", "ios": "https://dc.lft.to/lastmile_qr_scan"}, "lon": -77.00121266666666, "name": "2707c79f9297a9e8c642a41c479dde77", "lat": 38.90696233333333, "is_reserved": 0, "fusion_lat": 0.0, "bike_id": "2707c79f9297a9e8c642a41c479dde77", "type": "electric_scooter", "is_disabled": 0, "fusion_lon": 0.0}, {"rental_uris": {"android": "https://dc.lft.to/lastmile_qr_scan", "ios": "https://dc.lft.to/lastmile_qr_scan"}, "lon": -77.02904583333333, "name": "aa59822fd47e2722b05ba0802f499183", "lat": 38.9231755, "is_reserved": 0, "fusion_lat": 0.0, "bike_id": "aa59822fd47e2722b05ba0802f499183", "type": "electric_scooter", "is_disabled": 0, "fusion_lon": 0.0}, {"rental_uris": {"android": "https://dc.lft.to/lastmile_qr_scan", "ios": "https://dc.lft.to/lastmile_qr_scan"}, "lon": -76.973318, "name": "babe9f5b2b4329365d9e0031b516db88", "lat": 38.90411366666667, "is_reserved": 0, "fusion_lat": 0.0, "bike_id": "babe9f5b2b4329365d9e0031b516db88", "type": "electric_scooter", "is_disabled": 0, "fusion_lon": 0.0}, {"rental_uris": {"android": "https://dc.lft.to/lastmile_qr_scan", "ios": "https://dc.lft.to/lastmile_qr_scan"}, "lon": -77.03355266666667, "name": "8e6e27ba33da8db562c646ee4c042fb6", "lat": 38.925349, "is_reserved": 0, "fusion_lat": 0.0, "bike_id": "8e6e27ba33da8db562c646ee4c042fb6", "type": "electric_scooter", "is_disabled": 0, "fusion_lon": 0.0}, {"rental_uris": {"android": "https://dc.lft.to/lastmile_qr_scan", "ios": "https://dc.lft.to/lastmile_qr_scan"}, "lon": -77.03869283333333, "name": "55151f40b29d8aa75af38cd22da34dc2", "lat": 38.906583833333336, "is_reserved": 0, "fusion_lat": 0.0, "bike_id": "55151f40b29d8aa75af38cd22da34dc2", "type": "electric_scooter", "is_disabled": 0, "fusion_lon": 0.0}, {"rental_uris": {"android": "https://dc.lft.to/lastmile_qr_scan", "ios": "https://dc.lft.to/lastmile_qr_scan"}, "lon": -77.03212716666667, "name": "0b5682794fb60077e240ea33ccdd45a1", "lat": 38.8923385, "is_reserved": 0, "fusion_lat": 0.0, "bike_id": "0b5682794fb60077e240ea33ccdd45a1", "type": "electric_scooter", "is_disabled": 0, "fusion_lon": 0.0}, {"rental_uris": {"android": "https://dc.lft.to/lastmile_qr_scan", "ios": "https://dc.lft.to/lastmile_qr_scan"}, "lon": -77.02595816666667, "name": "d45d3372349dcca7440c3f61f78d2936", "lat": 38.90163716666667, "is_reserved": 0, "fusion_lat": 0.0, "bike_id": "d45d3372349dcca7440c3f61f78d2936", "type": "electric_scooter", "is_disabled": 0, "fusion_lon": 0.0}, {"rental_uris": {"android": "https://dc.lft.to/lastmile_qr_scan", "ios": "https://dc.lft.to/lastmile_qr_scan"}, "lon": -77.04229, "name": "c55f9c42b1eb64f2d31463eab311af35", "lat": 38.921846, "is_reserved": 0, "fusion_lat": 0.0, "bike_id": "c55f9c42b1eb64f2d31463eab311af35", "type": "electric_scooter", "is_disabled": 0, "fusion_lon": 0.0}, {"rental_uris": {"android": "https://dc.lft.to/lastmile_qr_scan", "ios": "https://dc.lft.to/lastmile_qr_scan"}, "lon": -76.9849965, "name": "7b72c51d1636eb2b6b2e7ddf909ab43d", "lat": 38.9068685, "is_reserved": 0, "fusion_lat": 0.0, "bike_id": "7b72c51d1636eb2b6b2e7ddf909ab43d", "type": "electric_scooter", "is_disabled": 0, "fusion_lon": 0.0}, {"rental_uris": {"android": "https://dc.lft.to/lastmile_qr_scan", "ios": "https://dc.lft.to/lastmile_qr_scan"}, "lon": -77.000636, "name": "a411446f61257910835cc631582c7f60", "lat": 38.876862, "is_reserved": 0, "fusion_lat": 0.0, "bike_id": "a411446f61257910835cc631582c7f60", "type": "electric_scooter", "is_disabled": 0, "fusion_lon": 0.0}, {"rental_uris": {"android": "https://dc.lft.to/lastmile_qr_scan", "ios": "https://dc.lft.to/lastmile_qr_scan"}, "lon": -77.03083666666667, "name": "648c8163caa9997dff46373c99ce4961", "lat": 38.933009, "is_reserved": 0, "fusion_lat": 0.0, "bike_id": "648c8163caa9997dff46373c99ce4961", "type": "electric_scooter", "is_disabled": 0, "fusion_lon": 0.0}, {"rental_uris": {"android": "https://dc.lft.to/lastmile_qr_scan", "ios": "https://dc.lft.to/lastmile_qr_scan"}, "lon": -77.02880916666666, "name": "e2665f8730dc33d643413ee093175b53", "lat": 38.957261833333334, "is_reserved": 0, "fusion_lat": 0.0, "bike_id": "e2665f8730dc33d643413ee093175b53", "type": "electric_scooter", "is_disabled": 0, "fusion_lon": 0.0}, {"rental_uris": {"android": "https://dc.lft.to/lastmile_qr_scan", "ios": "https://dc.lft.to/lastmile_qr_scan"}, "lon": -77.0252675, "name": "bf0ed84b62942ae8b66cb8d0a15a81bb", "lat": 38.90648366666667, "is_reserved": 0, "fusion_lat": 0.0, "bike_id": "bf0ed84b62942ae8b66cb8d0a15a81bb", "type": "electric_scooter", "is_disabled": 0, "fusion_lon": 0.0}, {"rental_uris": {"android": "https://dc.lft.to/lastmile_qr_scan", "ios": "https://dc.lft.to/lastmile_qr_scan"}, "lon": -77.0553, "name": "79c71c047200a92dcb080dfdcff286ba", "lat": 38.9279645, "is_reserved": 0, "fusion_lat": 0.0, "bike_id": "79c71c047200a92dcb080dfdcff286ba", "type": "electric_scooter", "is_disabled": 0, "fusion_lon": 0.0}, {"rental_uris": {"android": "https://dc.lft.to/lastmile_qr_scan", "ios": "https://dc.lft.to/lastmile_qr_scan"}, "lon": -77.027168, "name": "48b05feef3add5e2789a2745beced9aa", "lat": 38.927795, "is_reserved": 0, "fusion_lat": 0.0, "bike_id": "48b05feef3add5e2789a2745beced9aa", "type": "electric_scooter", "is_disabled": 0, "fusion_lon": 0.0}, {"rental_uris": {"android": "https://dc.lft.to/lastmile_qr_scan", "ios": "https://dc.lft.to/lastmile_qr_scan"}, "lon": -76.95663866666666, "name": "53d90f5e81cb1be364bdd7aea958ad8f", "lat": 38.884699166666664, "is_reserved": 0, "fusion_lat": 0.0, "bike_id": "53d90f5e81cb1be364bdd7aea958ad8f", "type": "electric_bike", "is_disabled": 0, "fusion_lon": 0.0}, {"rental_uris": {"android": "https://dc.lft.to/lastmile_qr_scan", "ios": "https://dc.lft.to/lastmile_qr_scan"}, "lon": -77.032799, "name": "b222896d289bd4d54fd7afc91ec2f335", "lat": 38.936850166666666, "is_reserved": 0, "fusion_lat": 0.0, "bike_id": "b222896d289bd4d54fd7afc91ec2f335", "type": "electric_scooter", "is_disabled": 0, "fusion_lon": 0.0}, {"rental_uris": {"android": "https://dc.lft.to/lastmile_qr_scan", "ios": "https://dc.lft.to/lastmile_qr_scan"}, "lon": -77.047121, "name": "500bf242c6c6292086ae1cfb52882280", "lat": 38.89737983333333, "is_reserved": 0, "fusion_lat": 0.0, "bike_id": "500bf242c6c6292086ae1cfb52882280", "type": "electric_scooter", "is_disabled": 0, "fusion_lon": 0.0}, {"rental_uris": {"android": "https://dc.lft.to/lastmile_qr_scan", "ios": "https://dc.lft.to/lastmile_qr_scan"}, "lon": -77.02158683333333, "name": "a1fa1cd375d9503795bb5500e4b2a41d", "lat": 38.87946216666667, "is_reserved": 0, "fusion_lat": 0.0, "bike_id": "a1fa1cd375d9503795bb5500e4b2a41d", "type": "electric_scooter", "is_disabled": 0, "fusion_lon": 0.0}, {"rental_uris": {"android": "https://dc.lft.to/lastmile_qr_scan", "ios": "https://dc.lft.to/lastmile_qr_scan"}, "lon": -77.04320633333333, "name": "d794eba7e74d109410b5431a4534144b", "lat": 39.03422466666667, "is_reserved": 0, "fusion_lat": 0.0, "bike_id": "d794eba7e74d109410b5431a4534144b", "type": "electric_bike", "is_disabled": 0, "fusion_lon": 0.0}, {"rental_uris": {"android": "https://dc.lft.to/lastmile_qr_scan", "ios": "https://dc.lft.to/lastmile_qr_scan"}, "lon": -77.0317075, "name": "8efc4f723b42c7d40fc05b043bf1da96", "lat": 38.918069333333335, "is_reserved": 0, "fusion_lat": 0.0, "bike_id": "8efc4f723b42c7d40fc05b043bf1da96", "type": "electric_scooter", "is_disabled": 0, "fusion_lon": 0.0}, {"rental_uris": {"android": "https://dc.lft.to/lastmile_qr_scan", "ios": "https://dc.lft.to/lastmile_qr_scan"}, "lon": -77.01714183333333, "name": "264c9c8abb65f9ccd7b93820aa856273", "lat": 38.9024165, "is_reserved": 0, "fusion_lat": 0.0, "bike_id": "264c9c8abb65f9ccd7b93820aa856273", "type": "electric_scooter", "is_disabled": 0, "fusion_lon": 0.0}, {"rental_uris": {"android": "https://dc.lft.to/lastmile_qr_scan", "ios": "https://dc.lft.to/lastmile_qr_scan"}, "lon": -77.04468783333333, "name": "1413bf865bbbf3e4bc3d96d5b94ae536", "lat": 38.903644, "is_reserved": 0, "fusion_lat": 0.0, "bike_id": "1413bf865bbbf3e4bc3d96d5b94ae536", "type": "electric_scooter", "is_disabled": 0, "fusion_lon": 0.0}, {"rental_uris": {"android": "https://dc.lft.to/lastmile_qr_scan", "ios": "https://dc.lft.to/lastmile_qr_scan"}, "lon": -77.0217835, "name": "a611597d82ab5395aaeba0deb3220d4a", "lat": 38.91603216666667, "is_reserved": 0, "fusion_lat": 0.0, "bike_id": "a611597d82ab5395aaeba0deb3220d4a", "type": "electric_scooter", "is_disabled": 0, "fusion_lon": 0.0}, {"rental_uris": {"android": "https://dc.lft.to/lastmile_qr_scan", "ios": "https://dc.lft.to/lastmile_qr_scan"}, "lon": -77.007119, "name": "15d6d39f0a62ed9cd32be0ef0f373b59", "lat": 38.876568666666664, "is_reserved": 0, "fusion_lat": 0.0, "bike_id": "15d6d39f0a62ed9cd32be0ef0f373b59", "type": "electric_scooter", "is_disabled": 0, "fusion_lon": 0.0}, {"rental_uris": {"android": "https://dc.lft.to/lastmile_qr_scan", "ios": "https://dc.lft.to/lastmile_qr_scan"}, "lon": -76.97919083333333, "name": "dec06ca36c30347b20052aaafcdd136a", "lat": 38.9245575, "is_reserved": 0, "fusion_lat": 0.0, "bike_id": "dec06ca36c30347b20052aaafcdd136a", "type": "electric_scooter", "is_disabled": 0, "fusion_lon": 0.0}, {"rental_uris": {"android": "https://dc.lft.to/lastmile_qr_scan", "ios": "https://dc.lft.to/lastmile_qr_scan"}, "lon": -77.02790266666666, "name": "406a69db1279f70b63b0d1ffea6fbf2d", "lat": 38.930584833333334, "is_reserved": 0, "fusion_lat": 0.0, "bike_id": "406a69db1279f70b63b0d1ffea6fbf2d", "type": "electric_scooter", "is_disabled": 0, "fusion_lon": 0.0}, {"rental_uris": {"android": "https://dc.lft.to/lastmile_qr_scan", "ios": "https://dc.lft.to/lastmile_qr_scan"}, "lon": -76.98565033333334, "name": "031bb2edf4234897f3eaea0fb9d3f33e", "lat": 38.8668235, "is_reserved": 0, "fusion_lat": 0.0, "bike_id": "031bb2edf4234897f3eaea0fb9d3f33e", "type": "electric_scooter", "is_disabled": 0, "fusion_lon": 0.0}, {"rental_uris": {"android": "https://dc.lft.to/lastmile_qr_scan", "ios": "https://dc.lft.to/lastmile_qr_scan"}, "lon": -76.97442916666667, "name": "608bd889bc45499968be8c9f4db09956", "lat": 38.902401833333336, "is_reserved": 0, "fusion_lat": 0.0, "bike_id": "608bd889bc45499968be8c9f4db09956", "type": "electric_scooter", "is_disabled": 0, "fusion_lon": 0.0}, {"rental_uris": {"android": "https://dc.lft.to/lastmile_qr_scan", "ios": "https://dc.lft.to/lastmile_qr_scan"}, "lon": -77.02854383333333, "name": "858506e3473ec293b95c59e4b4eec08d", "lat": 38.9276595, "is_reserved": 0, "fusion_lat": 0.0, "bike_id": "858506e3473ec293b95c59e4b4eec08d", "type": "electric_scooter", "is_disabled": 0, "fusion_lon": 0.0}, {"rental_uris": {"android": "https://dc.lft.to/lastmile_qr_scan", "ios": "https://dc.lft.to/lastmile_qr_scan"}, "lon": -77.0733355, "name": "dad7ad7757c483f601ed73b9a6d2e8ed", "lat": 38.927290166666666, "is_reserved": 0, "fusion_lat": 0.0, "bike_id": "dad7ad7757c483f601ed73b9a6d2e8ed", "type": "electric_bike", "is_disabled": 0, "fusion_lon": 0.0}, {"rental_uris": {"android": "https://dc.lft.to/lastmile_qr_scan", "ios": "https://dc.lft.to/lastmile_qr_scan"}, "lon": -77.0176445, "name": "1a6eda1453eb84772bb02c074811352b", "lat": 38.90260583333333, "is_reserved": 0, "fusion_lat": 0.0, "bike_id": "1a6eda1453eb84772bb02c074811352b", "type": "electric_scooter", "is_disabled": 0, "fusion_lon": 0.0}, {"rental_uris": {"android": "https://dc.lft.to/lastmile_qr_scan", "ios": "https://dc.lft.to/lastmile_qr_scan"}, "lon": -77.02679833333333, "name": "03801e7c7aeab66c0e31f25270071e30", "lat": 38.897242166666665, "is_reserved": 0, "fusion_lat": 0.0, "bike_id": "03801e7c7aeab66c0e31f25270071e30", "type": "electric_scooter", "is_disabled": 0, "fusion_lon": 0.0}, {"rental_uris": {"android": "https://dc.lft.to/lastmile_qr_scan", "ios": "https://dc.lft.to/lastmile_qr_scan"}, "lon": -77.0137585, "name": "6444421c73f66a82b1445df81c7b5256", "lat": 38.88705, "is_reserved": 0, "fusion_lat": 0.0, "bike_id": "6444421c73f66a82b1445df81c7b5256", "type": "electric_scooter", "is_disabled": 0, "fusion_lon": 0.0}, {"rental_uris": {"android": "https://dc.lft.to/lastmile_qr_scan", "ios": "https://dc.lft.to/lastmile_qr_scan"}, "lon": -77.03781416666666, "name": "81f0c3de563cbf1fe3b6989f767f87b0", "lat": 38.936107, "is_reserved": 0, "fusion_lat": 0.0, "bike_id": "81f0c3de563cbf1fe3b6989f767f87b0", "type": "electric_scooter", "is_disabled": 0, "fusion_lon": 0.0}, {"rental_uris": {"android": "https://dc.lft.to/lastmile_qr_scan", "ios": "https://dc.lft.to/lastmile_qr_scan"}, "lon": -77.017631, "name": "389fbce43a610c7628d8983ed36a9402", "lat": 38.90261133333333, "is_reserved": 0, "fusion_lat": 0.0, "bike_id": "389fbce43a610c7628d8983ed36a9402", "type": "electric_scooter", "is_disabled": 0, "fusion_lon": 0.0}, {"rental_uris": {"android": "https://dc.lft.to/lastmile_qr_scan", "ios": "https://dc.lft.to/lastmile_qr_scan"}, "lon": -77.02581383333333, "name": "2c04055dc8f016a7a8e03df7457eb42e", "lat": 38.92051883333333, "is_reserved": 0, "fusion_lat": 0.0, "bike_id": "2c04055dc8f016a7a8e03df7457eb42e", "type": "electric_scooter", "is_disabled": 0, "fusion_lon": 0.0}, {"rental_uris": {"android": "https://dc.lft.to/lastmile_qr_scan", "ios": "https://dc.lft.to/lastmile_qr_scan"}, "lon": -76.98721683333333, "name": "ec01b3bb7a03f99c8fd4d54c6f52320c", "lat": 38.855905, "is_reserved": 0, "fusion_lat": 0.0, "bike_id": "ec01b3bb7a03f99c8fd4d54c6f52320c", "type": "electric_scooter", "is_disabled": 0, "fusion_lon": 0.0}, {"rental_uris": {"android": "https://dc.lft.to/lastmile_qr_scan", "ios": "https://dc.lft.to/lastmile_qr_scan"}, "lon": -77.03499066666667, "name": "44b0f08411e3666802ca2507e0e4667e", "lat": 38.921410333333334, "is_reserved": 0, "fusion_lat": 0.0, "bike_id": "44b0f08411e3666802ca2507e0e4667e", "type": "electric_scooter", "is_disabled": 0, "fusion_lon": 0.0}, {"rental_uris": {"android": "https://dc.lft.to/lastmile_qr_scan", "ios": "https://dc.lft.to/lastmile_qr_scan"}, "lon": -77.0060975, "name": "a1d68e93a4a4ca3cdeba9c7ea66c9714", "lat": 38.8756305, "is_reserved": 0, "fusion_lat": 0.0, "bike_id": "a1d68e93a4a4ca3cdeba9c7ea66c9714", "type": "electric_scooter", "is_disabled": 0, "fusion_lon": 0.0}, {"rental_uris": {"android": "https://dc.lft.to/lastmile_qr_scan", "ios": "https://dc.lft.to/lastmile_qr_scan"}, "lon": -77.03280083333334, "name": "1f5f6e93f0f1af8a0fecc99bb53da8f4", "lat": 38.920454166666666, "is_reserved": 0, "fusion_lat": 0.0, "bike_id": "1f5f6e93f0f1af8a0fecc99bb53da8f4", "type": "electric_scooter", "is_disabled": 0, "fusion_lon": 0.0}, {"rental_uris": {"android": "https://dc.lft.to/lastmile_qr_scan", "ios": "https://dc.lft.to/lastmile_qr_scan"}, "lon": -77.0295715, "name": "ff3616f5fc5852f6847df646a28d4cc5", "lat": 38.908691833333336, "is_reserved": 0, "fusion_lat": 0.0, "bike_id": "ff3616f5fc5852f6847df646a28d4cc5", "type": "electric_scooter", "is_disabled": 0, "fusion_lon": 0.0}, {"rental_uris": {"android": "https://dc.lft.to/lastmile_qr_scan", "ios": "https://dc.lft.to/lastmile_qr_scan"}, "lon": -77.025616, "name": "8784a6c136c6363a679577472419581a", "lat": 38.923805, "is_reserved": 0, "fusion_lat": 0.0, "bike_id": "8784a6c136c6363a679577472419581a", "type": "electric_scooter", "is_disabled": 0, "fusion_lon": 0.0}, {"rental_uris": {"android": "https://dc.lft.to/lastmile_qr_scan", "ios": "https://dc.lft.to/lastmile_qr_scan"}, "lon": -77.01983466666667, "name": "1ecb384d335d63b936d39bb2e7ef7483", "lat": 38.88366233333333, "is_reserved": 0, "fusion_lat": 0.0, "bike_id": "1ecb384d335d63b936d39bb2e7ef7483", "type": "electric_scooter", "is_disabled": 0, "fusion_lon": 0.0}, {"rental_uris": {"android": "https://dc.lft.to/lastmile_qr_scan", "ios": "https://dc.lft.to/lastmile_qr_scan"}, "lon": -77.01195833333334, "name": "306bc3c96e088e3195309a92a43eb2d5", "lat": 38.92760466666667, "is_reserved": 0, "fusion_lat": 0.0, "bike_id": "306bc3c96e088e3195309a92a43eb2d5", "type": "electric_scooter", "is_disabled": 0, "fusion_lon": 0.0}, {"rental_uris": {"android": "https://dc.lft.to/lastmile_qr_scan", "ios": "https://dc.lft.to/lastmile_qr_scan"}, "lon": -77.06103266666666, "name": "f5ae6e8ab37823bf42534df5351827e5", "lat": 38.9052975, "is_reserved": 0, "fusion_lat": 0.0, "bike_id": "f5ae6e8ab37823bf42534df5351827e5", "type": "electric_scooter", "is_disabled": 0, "fusion_lon": 0.0}, {"rental_uris": {"android": "https://dc.lft.to/lastmile_qr_scan", "ios": "https://dc.lft.to/lastmile_qr_scan"}, "lon": -77.044668, "name": "7dfa973f83c722f66a1f8c57a7f35d85", "lat": 38.90367366666667, "is_reserved": 0, "fusion_lat": 0.0, "bike_id": "7dfa973f83c722f66a1f8c57a7f35d85", "type": "electric_scooter", "is_disabled": 0, "fusion_lon": 0.0}, {"rental_uris": {"android": "https://dc.lft.to/lastmile_qr_scan", "ios": "https://dc.lft.to/lastmile_qr_scan"}, "lon": -77.229229, "name": "85c2c8470105ba6c71372b4c8f8a0dd9", "lat": 38.9319225, "is_reserved": 0, "fusion_lat": 0.0, "bike_id": "85c2c8470105ba6c71372b4c8f8a0dd9", "type": "electric_bike", "is_disabled": 0, "fusion_lon": 0.0}, {"rental_uris": {"android": "https://dc.lft.to/lastmile_qr_scan", "ios": "https://dc.lft.to/lastmile_qr_scan"}, "lon": -77.02479333333333, "name": "ef742e4d248c306eaf1d8709353c9def", "lat": 38.882984, "is_reserved": 0, "fusion_lat": 0.0, "bike_id": "ef742e4d248c306eaf1d8709353c9def", "type": "electric_scooter", "is_disabled": 0, "fusion_lon": 0.0}, {"rental_uris": {"android": "https://dc.lft.to/lastmile_qr_scan", "ios": "https://dc.lft.to/lastmile_qr_scan"}, "lon": -77.01595366666666, "name": "a121b22effd0ca05a30bb336c29ae27b", "lat": 38.92715966666667, "is_reserved": 0, "fusion_lat": 0.0, "bike_id": "a121b22effd0ca05a30bb336c29ae27b", "type": "electric_scooter", "is_disabled": 0, "fusion_lon": 0.0}, {"rental_uris": {"android": "https://dc.lft.to/lastmile_qr_scan", "ios": "https://dc.lft.to/lastmile_qr_scan"}, "lon": -77.05120883333333, "name": "e3b48bc96d5c9403bc6f16e5c7c75305", "lat": 38.89683466666666, "is_reserved": 0, "fusion_lat": 0.0, "bike_id": "e3b48bc96d5c9403bc6f16e5c7c75305", "type": "electric_scooter", "is_disabled": 0, "fusion_lon": 0.0}, {"rental_uris": {"android": "https://dc.lft.to/lastmile_qr_scan", "ios": "https://dc.lft.to/lastmile_qr_scan"}, "lon": -77.03189416666666, "name": "91bfd934f24a1d528e133020dcdf11e0", "lat": 38.916258166666665, "is_reserved": 0, "fusion_lat": 0.0, "bike_id": "91bfd934f24a1d528e133020dcdf11e0", "type": "electric_scooter", "is_disabled": 0, "fusion_lon": 0.0}, {"rental_uris": {"android": "https://dc.lft.to/lastmile_qr_scan", "ios": "https://dc.lft.to/lastmile_qr_scan"}, "lon": -77.05084916666667, "name": "f27abbeea98ea9edbeb88b58c4502736", "lat": 38.81337583333333, "is_reserved": 0, "fusion_lat": 0.0, "bike_id": "f27abbeea98ea9edbeb88b58c4502736", "type": "electric_bike", "is_disabled": 0, "fusion_lon": 0.0}, {"rental_uris": {"android": "https://dc.lft.to/lastmile_qr_scan", "ios": "https://dc.lft.to/lastmile_qr_scan"}, "lon": -76.9463255, "name": "2aec2d36f14dcf3257ff3b9e21155876", "lat": 38.898613833333336, "is_reserved": 0, "fusion_lat": 0.0, "bike_id": "2aec2d36f14dcf3257ff3b9e21155876", "type": "electric_scooter", "is_disabled": 0, "fusion_lon": 0.0}, {"rental_uris": {"android": "https://dc.lft.to/lastmile_qr_scan", "ios": "https://dc.lft.to/lastmile_qr_scan"}, "lon": -77.02230066666667, "name": "bd308f0a1d43fd941674c2aa2e09ace9", "lat": 38.91247633333333, "is_reserved": 0, "fusion_lat": 0.0, "bike_id": "bd308f0a1d43fd941674c2aa2e09ace9", "type": "electric_scooter", "is_disabled": 0, "fusion_lon": 0.0}, {"rental_uris": {"android": "https://dc.lft.to/lastmile_qr_scan", "ios": "https://dc.lft.to/lastmile_qr_scan"}, "lon": -77.03427166666667, "name": "b5e21154d743797b64b9f0f3f11f4324", "lat": 38.965318333333336, "is_reserved": 0, "fusion_lat": 0.0, "bike_id": "b5e21154d743797b64b9f0f3f11f4324", "type": "electric_bike", "is_disabled": 0, "fusion_lon": 0.0}, {"rental_uris": {"android": "https://dc.lft.to/lastmile_qr_scan", "ios": "https://dc.lft.to/lastmile_qr_scan"}, "lon": -77.026976, "name": "642fc39db6d69f363b01ab25184b4580", "lat": 38.916304833333335, "is_reserved": 0, "fusion_lat": 0.0, "bike_id": "642fc39db6d69f363b01ab25184b4580", "type": "electric_scooter", "is_disabled": 0, "fusion_lon": 0.0}, {"rental_uris": {"android": "https://dc.lft.to/lastmile_qr_scan", "ios": "https://dc.lft.to/lastmile_qr_scan"}, "lon": -77.04874, "name": "87993f99ac225f81295a861f20b8a9df", "lat": 38.916254333333335, "is_reserved": 0, "fusion_lat": 0.0, "bike_id": "87993f99ac225f81295a861f20b8a9df", "type": "electric_scooter", "is_disabled": 0, "fusion_lon": 0.0}, {"rental_uris": {"android": "https://dc.lft.to/lastmile_qr_scan", "ios": "https://dc.lft.to/lastmile_qr_scan"}, "lon": -76.977743, "name": "397066c52cf8b92779fbefb4ccdc923d", "lat": 38.891861666666664, "is_reserved": 0, "fusion_lat": 0.0, "bike_id": "397066c52cf8b92779fbefb4ccdc923d", "type": "electric_bike", "is_disabled": 0, "fusion_lon": 0.0}, {"rental_uris": {"android": "https://dc.lft.to/lastmile_qr_scan", "ios": "https://dc.lft.to/lastmile_qr_scan"}, "lon": -77.0402775, "name": "b58d35668c8323e262607aa453444ca1", "lat": 38.902236333333335, "is_reserved": 0, "fusion_lat": 0.0, "bike_id": "b58d35668c8323e262607aa453444ca1", "type": "electric_scooter", "is_disabled": 0, "fusion_lon": 0.0}, {"rental_uris": {"android": "https://dc.lft.to/lastmile_qr_scan", "ios": "https://dc.lft.to/lastmile_qr_scan"}, "lon": -77.04544566666667, "name": "22a697e412ca3998117efa562b226b09", "lat": 38.8988265, "is_reserved": 0, "fusion_lat": 0.0, "bike_id": "22a697e412ca3998117efa562b226b09", "type": "electric_scooter", "is_disabled": 0, "fusion_lon": 0.0}, {"rental_uris": {"android": "https://dc.lft.to/lastmile_qr_scan", "ios": "https://dc.lft.to/lastmile_qr_scan"}, "lon": -77.03679683333333, "name": "4e9b7e3799a2fd54db0f420f9fe9ea18", "lat": 38.91871716666667, "is_reserved": 0, "fusion_lat": 0.0, "bike_id": "4e9b7e3799a2fd54db0f420f9fe9ea18", "type": "electric_scooter", "is_disabled": 0, "fusion_lon": 0.0}, {"rental_uris": {"android": "https://dc.lft.to/lastmile_qr_scan", "ios": "https://dc.lft.to/lastmile_qr_scan"}, "lon": -77.043449, "name": "67709911bf646b2e9371efb94c5902bb", "lat": 38.92350883333334, "is_reserved": 0, "fusion_lat": 0.0, "bike_id": "67709911bf646b2e9371efb94c5902bb", "type": "electric_scooter", "is_disabled": 0, "fusion_lon": 0.0}, {"rental_uris": {"android": "https://dc.lft.to/lastmile_qr_scan", "ios": "https://dc.lft.to/lastmile_qr_scan"}, "lon": -77.03124166666667, "name": "16f2f73f308d05dcb1b6a34c03f62c29", "lat": 38.919210666666665, "is_reserved": 0, "fusion_lat": 0.0, "bike_id": "16f2f73f308d05dcb1b6a34c03f62c29", "type": "electric_scooter", "is_disabled": 0, "fusion_lon": 0.0}, {"rental_uris": {"android": "https://dc.lft.to/lastmile_qr_scan", "ios": "https://dc.lft.to/lastmile_qr_scan"}, "lon": -77.055217, "name": "908de7b89a70eb12db861419a9b6e758", "lat": 38.897256, "is_reserved": 0, "fusion_lat": 0.0, "bike_id": "908de7b89a70eb12db861419a9b6e758", "type": "electric_scooter", "is_disabled": 0, "fusion_lon": 0.0}, {"rental_uris": {"android": "https://dc.lft.to/lastmile_qr_scan", "ios": "https://dc.lft.to/lastmile_qr_scan"}, "lon": -76.985726, "name": "5679488128f6bdd9ea16cff2e5472c06", "lat": 38.8837545, "is_reserved": 0, "fusion_lat": 0.0, "bike_id": "5679488128f6bdd9ea16cff2e5472c06", "type": "electric_scooter", "is_disabled": 0, "fusion_lon": 0.0}, {"rental_uris": {"android": "https://dc.lft.to/lastmile_qr_scan", "ios": "https://dc.lft.to/lastmile_qr_scan"}, "lon": -77.03197783333333, "name": "ecd508d5a42c1638d5152ee1722c7ff9", "lat": 38.916372833333334, "is_reserved": 0, "fusion_lat": 0.0, "bike_id": "ecd508d5a42c1638d5152ee1722c7ff9", "type": "electric_scooter", "is_disabled": 0, "fusion_lon": 0.0}, {"rental_uris": {"android": "https://dc.lft.to/lastmile_qr_scan", "ios": "https://dc.lft.to/lastmile_qr_scan"}, "lon": -77.0647285, "name": "ca41344558fde8eb63082aad6d8649a4", "lat": 38.973799666666665, "is_reserved": 0, "fusion_lat": 0.0, "bike_id": "ca41344558fde8eb63082aad6d8649a4", "type": "electric_bike", "is_disabled": 0, "fusion_lon": 0.0}, {"rental_uris": {"android": "https://dc.lft.to/lastmile_qr_scan", "ios": "https://dc.lft.to/lastmile_qr_scan"}, "lon": -77.03838283333333, "name": "d68edc2ac3418bb82fc8e4cc6d09ddc4", "lat": 38.90272183333333, "is_reserved": 0, "fusion_lat": 0.0, "bike_id": "d68edc2ac3418bb82fc8e4cc6d09ddc4", "type": "electric_scooter", "is_disabled": 0, "fusion_lon": 0.0}, {"rental_uris": {"android": "https://dc.lft.to/lastmile_qr_scan", "ios": "https://dc.lft.to/lastmile_qr_scan"}, "lon": -77.03187083333333, "name": "043b349a2293f82e63c897311f7c2e87", "lat": 38.921049333333336, "is_reserved": 0, "fusion_lat": 0.0, "bike_id": "043b349a2293f82e63c897311f7c2e87", "type": "electric_scooter", "is_disabled": 0, "fusion_lon": 0.0}, {"rental_uris": {"android": "https://dc.lft.to/lastmile_qr_scan", "ios": "https://dc.lft.to/lastmile_qr_scan"}, "lon": -77.03179233333333, "name": "2cff3dc8c61fe615e9df7b152991d2e0", "lat": 38.903772833333335, "is_reserved": 0, "fusion_lat": 0.0, "bike_id": "2cff3dc8c61fe615e9df7b152991d2e0", "type": "electric_scooter", "is_disabled": 0, "fusion_lon": 0.0}, {"rental_uris": {"android": "https://dc.lft.to/lastmile_qr_scan", "ios": "https://dc.lft.to/lastmile_qr_scan"}, "lon": -77.02973416666667, "name": "bf221520f2899907df3454f10d1f320d", "lat": 38.91683666666667, "is_reserved": 0, "fusion_lat": 0.0, "bike_id": "bf221520f2899907df3454f10d1f320d", "type": "electric_scooter", "is_disabled": 0, "fusion_lon": 0.0}, {"rental_uris": {"android": "https://dc.lft.to/lastmile_qr_scan", "ios": "https://dc.lft.to/lastmile_qr_scan"}, "lon": -77.02190616666667, "name": "a701161c1f21d3f31760769fd5b66128", "lat": 38.8960825, "is_reserved": 0, "fusion_lat": 0.0, "bike_id": "a701161c1f21d3f31760769fd5b66128", "type": "electric_scooter", "is_disabled": 0, "fusion_lon": 0.0}, {"rental_uris": {"android": "https://dc.lft.to/lastmile_qr_scan", "ios": "https://dc.lft.to/lastmile_qr_scan"}, "lon": -76.98191283333334, "name": "77c0e296c37f4900408e1c2001c189a2", "lat": 38.9849005, "is_reserved": 0, "fusion_lat": 0.0, "bike_id": "77c0e296c37f4900408e1c2001c189a2", "type": "electric_bike", "is_disabled": 0, "fusion_lon": 0.0}, {"rental_uris": {"android": "https://dc.lft.to/lastmile_qr_scan", "ios": "https://dc.lft.to/lastmile_qr_scan"}, "lon": -77.03419033333333, "name": "0858addfee24df5f489f77fbcf681aee", "lat": 38.90973833333334, "is_reserved": 0, "fusion_lat": 0.0, "bike_id": "0858addfee24df5f489f77fbcf681aee", "type": "electric_scooter", "is_disabled": 0, "fusion_lon": 0.0}, {"rental_uris": {"android": "https://dc.lft.to/lastmile_qr_scan", "ios": "https://dc.lft.to/lastmile_qr_scan"}, "lon": -77.00712583333333, "name": "3798a71930753a694d71ca4a9455c09f", "lat": 38.88487766666667, "is_reserved": 0, "fusion_lat": 0.0, "bike_id": "3798a71930753a694d71ca4a9455c09f", "type": "electric_scooter", "is_disabled": 0, "fusion_lon": 0.0}, {"rental_uris": {"android": "https://dc.lft.to/lastmile_qr_scan", "ios": "https://dc.lft.to/lastmile_qr_scan"}, "lon": -77.04355016666666, "name": "0710146785d9ca8894f1c6de10062d20", "lat": 38.907268, "is_reserved": 0, "fusion_lat": 0.0, "bike_id": "0710146785d9ca8894f1c6de10062d20", "type": "electric_scooter", "is_disabled": 0, "fusion_lon": 0.0}, {"rental_uris": {"android": "https://dc.lft.to/lastmile_qr_scan", "ios": "https://dc.lft.to/lastmile_qr_scan"}, "lon": -76.96720116666667, "name": "b2c3ff0ed785ad0a6f8dbaf76cf4eb58", "lat": 38.860283833333334, "is_reserved": 0, "fusion_lat": 0.0, "bike_id": "b2c3ff0ed785ad0a6f8dbaf76cf4eb58", "type": "electric_scooter", "is_disabled": 0, "fusion_lon": 0.0}, {"rental_uris": {"android": "https://dc.lft.to/lastmile_qr_scan", "ios": "https://dc.lft.to/lastmile_qr_scan"}, "lon": -77.0037765, "name": "3824d6bfccc0f4e0ceadf7782d18ebfc", "lat": 38.87635616666667, "is_reserved": 0, "fusion_lat": 0.0, "bike_id": "3824d6bfccc0f4e0ceadf7782d18ebfc", "type": "electric_scooter", "is_disabled": 0, "fusion_lon": 0.0}, {"rental_uris": {"android": "https://dc.lft.to/lastmile_qr_scan", "ios": "https://dc.lft.to/lastmile_qr_scan"}, "lon": -77.02291816666667, "name": "030193338aa9b7e15d725ef419e0c09d", "lat": 38.918373833333334, "is_reserved": 0, "fusion_lat": 0.0, "bike_id": "030193338aa9b7e15d725ef419e0c09d", "type": "electric_scooter", "is_disabled": 0, "fusion_lon": 0.0}, {"rental_uris": {"android": "https://dc.lft.to/lastmile_qr_scan", "ios": "https://dc.lft.to/lastmile_qr_scan"}, "lon": -77.09714066666666, "name": "0d1f974388f10bf09009d9d949c437fd", "lat": 38.950996833333335, "is_reserved": 0, "fusion_lat": 0.0, "bike_id": "0d1f974388f10bf09009d9d949c437fd", "type": "electric_scooter", "is_disabled": 0, "fusion_lon": 0.0}, {"rental_uris": {"android": "https://dc.lft.to/lastmile_qr_scan", "ios": "https://dc.lft.to/lastmile_qr_scan"}, "lon": -77.031832, "name": "b7abc7c7490a0ada7bde018126b4a997", "lat": 38.909803833333335, "is_reserved": 0, "fusion_lat": 0.0, "bike_id": "b7abc7c7490a0ada7bde018126b4a997", "type": "electric_scooter", "is_disabled": 0, "fusion_lon": 0.0}, {"rental_uris": {"android": "https://dc.lft.to/lastmile_qr_scan", "ios": "https://dc.lft.to/lastmile_qr_scan"}, "lon": -77.04956366666667, "name": "a2e5d694e1f5c36bf1c254009c3d04e9", "lat": 38.90541283333334, "is_reserved": 0, "fusion_lat": 0.0, "bike_id": "a2e5d694e1f5c36bf1c254009c3d04e9", "type": "electric_scooter", "is_disabled": 0, "fusion_lon": 0.0}, {"rental_uris": {"android": "https://dc.lft.to/lastmile_qr_scan", "ios": "https://dc.lft.to/lastmile_qr_scan"}, "lon": -77.023793, "name": "c67fb17ec9aa2b3baba2329ab4b2bbb3", "lat": 38.906853, "is_reserved": 0, "fusion_lat": 0.0, "bike_id": "c67fb17ec9aa2b3baba2329ab4b2bbb3", "type": "electric_scooter", "is_disabled": 0, "fusion_lon": 0.0}, {"rental_uris": {"android": "https://dc.lft.to/lastmile_qr_scan", "ios": "https://dc.lft.to/lastmile_qr_scan"}, "lon": -77.05600566666666, "name": "8901ec3df9d3451e6dbc25259b160649", "lat": 38.9369965, "is_reserved": 0, "fusion_lat": 0.0, "bike_id": "8901ec3df9d3451e6dbc25259b160649", "type": "electric_scooter", "is_disabled": 0, "fusion_lon": 0.0}, {"rental_uris": {"android": "https://dc.lft.to/lastmile_qr_scan", "ios": "https://dc.lft.to/lastmile_qr_scan"}, "lon": -77.03268266666667, "name": "a2722e8b804430f32873bafd0a27fe7a", "lat": 38.932113, "is_reserved": 0, "fusion_lat": 0.0, "bike_id": "a2722e8b804430f32873bafd0a27fe7a", "type": "electric_scooter", "is_disabled": 0, "fusion_lon": 0.0}, {"rental_uris": {"android": "https://dc.lft.to/lastmile_qr_scan", "ios": "https://dc.lft.to/lastmile_qr_scan"}, "lon": -77.01581283333333, "name": "fa5083d948cb00f7a09a5933e4dead30", "lat": 38.9004445, "is_reserved": 0, "fusion_lat": 0.0, "bike_id": "fa5083d948cb00f7a09a5933e4dead30", "type": "electric_scooter", "is_disabled": 0, "fusion_lon": 0.0}, {"rental_uris": {"android": "https://dc.lft.to/lastmile_qr_scan", "ios": "https://dc.lft.to/lastmile_qr_scan"}, "lon": -77.02804633333334, "name": "c38ae5c7ba645fb72ee69e85f947b01b", "lat": 38.90908533333333, "is_reserved": 0, "fusion_lat": 0.0, "bike_id": "c38ae5c7ba645fb72ee69e85f947b01b", "type": "electric_scooter", "is_disabled": 0, "fusion_lon": 0.0}, {"rental_uris": {"android": "https://dc.lft.to/lastmile_qr_scan", "ios": "https://dc.lft.to/lastmile_qr_scan"}, "lon": -77.00401133333334, "name": "a742a33631e24e52f46d9aea471687b7", "lat": 38.87703666666667, "is_reserved": 0, "fusion_lat": 0.0, "bike_id": "a742a33631e24e52f46d9aea471687b7", "type": "electric_scooter", "is_disabled": 0, "fusion_lon": 0.0}, {"rental_uris": {"android": "https://dc.lft.to/lastmile_qr_scan", "ios": "https://dc.lft.to/lastmile_qr_scan"}, "lon": -77.02355683333333, "name": "9b857d4a897b5b3374e1d7f132a18555", "lat": 38.90216216666666, "is_reserved": 0, "fusion_lat": 0.0, "bike_id": "9b857d4a897b5b3374e1d7f132a18555", "type": "electric_scooter", "is_disabled": 0, "fusion_lon": 0.0}, {"rental_uris": {"android": "https://dc.lft.to/lastmile_qr_scan", "ios": "https://dc.lft.to/lastmile_qr_scan"}, "lon": -77.01802466666666, "name": "bc770000a9325c204ef71ccd1fd68acd", "lat": 38.92037116666667, "is_reserved": 0, "fusion_lat": 0.0, "bike_id": "bc770000a9325c204ef71ccd1fd68acd", "type": "electric_scooter", "is_disabled": 0, "fusion_lon": 0.0}, {"rental_uris": {"android": "https://dc.lft.to/lastmile_qr_scan", "ios": "https://dc.lft.to/lastmile_qr_scan"}, "lon": -77.00709483333333, "name": "254d05bf37fefe15cc94eae614383f99", "lat": 38.90627766666667, "is_reserved": 0, "fusion_lat": 0.0, "bike_id": "254d05bf37fefe15cc94eae614383f99", "type": "electric_scooter", "is_disabled": 0, "fusion_lon": 0.0}, {"rental_uris": {"android": "https://dc.lft.to/lastmile_qr_scan", "ios": "https://dc.lft.to/lastmile_qr_scan"}, "lon": -77.0394015, "name": "ddf846f2f59c414f589647b76d07bac8", "lat": 38.9025575, "is_reserved": 0, "fusion_lat": 0.0, "bike_id": "ddf846f2f59c414f589647b76d07bac8", "type": "electric_scooter", "is_disabled": 0, "fusion_lon": 0.0}, {"rental_uris": {"android": "https://dc.lft.to/lastmile_qr_scan", "ios": "https://dc.lft.to/lastmile_qr_scan"}, "lon": -77.03407066666666, "name": "1c66a86a003c9b132488b6283032a92b", "lat": 38.92267583333334, "is_reserved": 0, "fusion_lat": 0.0, "bike_id": "1c66a86a003c9b132488b6283032a92b", "type": "electric_scooter", "is_disabled": 0, "fusion_lon": 0.0}, {"rental_uris": {"android": "https://dc.lft.to/lastmile_qr_scan", "ios": "https://dc.lft.to/lastmile_qr_scan"}, "lon": -77.02374983333333, "name": "5d9bb6c3fd0d1d561642afa80a91d491", "lat": 38.90736116666667, "is_reserved": 0, "fusion_lat": 0.0, "bike_id": "5d9bb6c3fd0d1d561642afa80a91d491", "type": "electric_scooter", "is_disabled": 0, "fusion_lon": 0.0}, {"rental_uris": {"android": "https://dc.lft.to/lastmile_qr_scan", "ios": "https://dc.lft.to/lastmile_qr_scan"}, "lon": -77.03947, "name": "84684b16cf358cc31710f5b78d12dd1c", "lat": 38.90256316666667, "is_reserved": 0, "fusion_lat": 0.0, "bike_id": "84684b16cf358cc31710f5b78d12dd1c", "type": "electric_scooter", "is_disabled": 0, "fusion_lon": 0.0}, {"rental_uris": {"android": "https://dc.lft.to/lastmile_qr_scan", "ios": "https://dc.lft.to/lastmile_qr_scan"}, "lon": -77.02507616666666, "name": "1fafa94bf6b3b4c3ba4e8745a8d11b1c", "lat": 38.905615166666664, "is_reserved": 0, "fusion_lat": 0.0, "bike_id": "1fafa94bf6b3b4c3ba4e8745a8d11b1c", "type": "electric_scooter", "is_disabled": 0, "fusion_lon": 0.0}, {"rental_uris": {"android": "https://dc.lft.to/lastmile_qr_scan", "ios": "https://dc.lft.to/lastmile_qr_scan"}, "lon": -76.93973016666666, "name": "cde739eb0f22b64659c0970a5c4ba247", "lat": 38.89344333333333, "is_reserved": 0, "fusion_lat": 0.0, "bike_id": "cde739eb0f22b64659c0970a5c4ba247", "type": "electric_scooter", "is_disabled": 0, "fusion_lon": 0.0}, {"rental_uris": {"android": "https://dc.lft.to/lastmile_qr_scan", "ios": "https://dc.lft.to/lastmile_qr_scan"}, "lon": -77.038799, "name": "f14917123cd7d26bf7fe899282e3e131", "lat": 38.932713666666665, "is_reserved": 0, "fusion_lat": 0.0, "bike_id": "f14917123cd7d26bf7fe899282e3e131", "type": "electric_scooter", "is_disabled": 0, "fusion_lon": 0.0}, {"rental_uris": {"android": "https://dc.lft.to/lastmile_qr_scan", "ios": "https://dc.lft.to/lastmile_qr_scan"}, "lon": -77.0204915, "name": "0607301043e1ae4aec26d85ad7a981bc", "lat": 38.9155485, "is_reserved": 0, "fusion_lat": 0.0, "bike_id": "0607301043e1ae4aec26d85ad7a981bc", "type": "electric_scooter", "is_disabled": 0, "fusion_lon": 0.0}, {"rental_uris": {"android": "https://dc.lft.to/lastmile_qr_scan", "ios": "https://dc.lft.to/lastmile_qr_scan"}, "lon": -77.06406866666667, "name": "890ccc9849b8e157e9ed7350e8670393", "lat": 38.9443865, "is_reserved": 0, "fusion_lat": 0.0, "bike_id": "890ccc9849b8e157e9ed7350e8670393", "type": "electric_scooter", "is_disabled": 0, "fusion_lon": 0.0}, {"rental_uris": {"android": "https://dc.lft.to/lastmile_qr_scan", "ios": "https://dc.lft.to/lastmile_qr_scan"}, "lon": -77.02219016666666, "name": "710edfbedf6cab866038e5867de159d3", "lat": 38.9552795, "is_reserved": 0, "fusion_lat": 0.0, "bike_id": "710edfbedf6cab866038e5867de159d3", "type": "electric_bike", "is_disabled": 0, "fusion_lon": 0.0}, {"rental_uris": {"android": "https://dc.lft.to/lastmile_qr_scan", "ios": "https://dc.lft.to/lastmile_qr_scan"}, "lon": -77.01510716666667, "name": "138de858a26c86737d594dca3602eae8", "lat": 38.91327966666667, "is_reserved": 0, "fusion_lat": 0.0, "bike_id": "138de858a26c86737d594dca3602eae8", "type": "electric_scooter", "is_disabled": 0, "fusion_lon": 0.0}, {"rental_uris": {"android": "https://dc.lft.to/lastmile_qr_scan", "ios": "https://dc.lft.to/lastmile_qr_scan"}, "lon": -77.02077116666666, "name": "c6ba3662b3352b84e8bb6d3b0d6a9eba", "lat": 38.89488766666667, "is_reserved": 0, "fusion_lat": 0.0, "bike_id": "c6ba3662b3352b84e8bb6d3b0d6a9eba", "type": "electric_scooter", "is_disabled": 0, "fusion_lon": 0.0}, {"rental_uris": {"android": "https://dc.lft.to/lastmile_qr_scan", "ios": "https://dc.lft.to/lastmile_qr_scan"}, "lon": -77.00701333333333, "name": "18185fa9b8542835afc85fdb888bb355", "lat": 38.91737, "is_reserved": 0, "fusion_lat": 0.0, "bike_id": "18185fa9b8542835afc85fdb888bb355", "type": "electric_scooter", "is_disabled": 0, "fusion_lon": 0.0}, {"rental_uris": {"android": "https://dc.lft.to/lastmile_qr_scan", "ios": "https://dc.lft.to/lastmile_qr_scan"}, "lon": -76.91802783333333, "name": "3f300ea683c2240a7cd42c9f75558acf", "lat": 39.000027, "is_reserved": 0, "fusion_lat": 0.0, "bike_id": "3f300ea683c2240a7cd42c9f75558acf", "type": "electric_bike", "is_disabled": 0, "fusion_lon": 0.0}, {"rental_uris": {"android": "https://dc.lft.to/lastmile_qr_scan", "ios": "https://dc.lft.to/lastmile_qr_scan"}, "lon": -76.99840033333334, "name": "9f1885e4c764a592100285b3ee2e600f", "lat": 38.899989, "is_reserved": 0, "fusion_lat": 0.0, "bike_id": "9f1885e4c764a592100285b3ee2e600f", "type": "electric_bike", "is_disabled": 0, "fusion_lon": 0.0}, {"rental_uris": {"android": "https://dc.lft.to/lastmile_qr_scan", "ios": "https://dc.lft.to/lastmile_qr_scan"}, "lon": -77.02188883333334, "name": "954cf5559445ccde596bb2d7d571b38c", "lat": 38.910365666666664, "is_reserved": 0, "fusion_lat": 0.0, "bike_id": "954cf5559445ccde596bb2d7d571b38c", "type": "electric_scooter", "is_disabled": 0, "fusion_lon": 0.0}, {"rental_uris": {"android": "https://dc.lft.to/lastmile_qr_scan", "ios": "https://dc.lft.to/lastmile_qr_scan"}, "lon": -77.0068725, "name": "9ad0d095d2ab9fcaad8e709f90624fd3", "lat": 38.871739833333336, "is_reserved": 0, "fusion_lat": 0.0, "bike_id": "9ad0d095d2ab9fcaad8e709f90624fd3", "type": "electric_scooter", "is_disabled": 0, "fusion_lon": 0.0}, {"rental_uris": {"android": "https://dc.lft.to/lastmile_qr_scan", "ios": "https://dc.lft.to/lastmile_qr_scan"}, "lon": -77.01198416666666, "name": "0dbb9672de087a5f6618a75896553e77", "lat": 38.87087183333333, "is_reserved": 0, "fusion_lat": 0.0, "bike_id": "0dbb9672de087a5f6618a75896553e77", "type": "electric_bike", "is_disabled": 0, "fusion_lon": 0.0}, {"rental_uris": {"android": "https://dc.lft.to/lastmile_qr_scan", "ios": "https://dc.lft.to/lastmile_qr_scan"}, "lon": -76.9871615, "name": "c59f9a93e27b2a3a162e8ef1a4774393", "lat": 38.866989833333335, "is_reserved": 0, "fusion_lat": 0.0, "bike_id": "c59f9a93e27b2a3a162e8ef1a4774393", "type": "electric_scooter", "is_disabled": 0, "fusion_lon": 0.0}, {"rental_uris": {"android": "https://dc.lft.to/lastmile_qr_scan", "ios": "https://dc.lft.to/lastmile_qr_scan"}, "lon": -77.0316765, "name": "967ddaec9e75bf8f22c1edbf978d220f", "lat": 38.908854, "is_reserved": 0, "fusion_lat": 0.0, "bike_id": "967ddaec9e75bf8f22c1edbf978d220f", "type": "electric_scooter", "is_disabled": 0, "fusion_lon": 0.0}, {"rental_uris": {"android": "https://dc.lft.to/lastmile_qr_scan", "ios": "https://dc.lft.to/lastmile_qr_scan"}, "lon": -77.02357816666667, "name": "0e9e7d2b24620d7d74052970d5dcefd0", "lat": 38.920486, "is_reserved": 0, "fusion_lat": 0.0, "bike_id": "0e9e7d2b24620d7d74052970d5dcefd0", "type": "electric_scooter", "is_disabled": 0, "fusion_lon": 0.0}, {"rental_uris": {"android": "https://dc.lft.to/lastmile_qr_scan", "ios": "https://dc.lft.to/lastmile_qr_scan"}, "lon": -77.0389955, "name": "a1589cfb9d6d38e00047207db19c6d4e", "lat": 38.92246433333333, "is_reserved": 0, "fusion_lat": 0.0, "bike_id": "a1589cfb9d6d38e00047207db19c6d4e", "type": "electric_scooter", "is_disabled": 0, "fusion_lon": 0.0}, {"rental_uris": {"android": "https://dc.lft.to/lastmile_qr_scan", "ios": "https://dc.lft.to/lastmile_qr_scan"}, "lon": -77.023361, "name": "857fc5007b392c972cce64a6321d5b84", "lat": 38.914095333333336, "is_reserved": 0, "fusion_lat": 0.0, "bike_id": "857fc5007b392c972cce64a6321d5b84", "type": "electric_scooter", "is_disabled": 0, "fusion_lon": 0.0}, {"rental_uris": {"android": "https://dc.lft.to/lastmile_qr_scan", "ios": "https://dc.lft.to/lastmile_qr_scan"}, "lon": -77.00988483333333, "name": "834fa5af9e7152a32c70a68e62a8a73d", "lat": 38.897202666666665, "is_reserved": 0, "fusion_lat": 0.0, "bike_id": "834fa5af9e7152a32c70a68e62a8a73d", "type": "electric_scooter", "is_disabled": 0, "fusion_lon": 0.0}, {"rental_uris": {"android": "https://dc.lft.to/lastmile_qr_scan", "ios": "https://dc.lft.to/lastmile_qr_scan"}, "lon": -77.09454966666667, "name": "7d3b2a7720e7a99294e1f9bf91dfa83a", "lat": 38.80753583333333, "is_reserved": 0, "fusion_lat": 0.0, "bike_id": "7d3b2a7720e7a99294e1f9bf91dfa83a", "type": "electric_bike", "is_disabled": 0, "fusion_lon": 0.0}, {"rental_uris": {"android": "https://dc.lft.to/lastmile_qr_scan", "ios": "https://dc.lft.to/lastmile_qr_scan"}, "lon": -77.02341566666666, "name": "e79493cffe039f20a9cffe3564e9db23", "lat": 38.93022333333333, "is_reserved": 0, "fusion_lat": 0.0, "bike_id": "e79493cffe039f20a9cffe3564e9db23", "type": "electric_scooter", "is_disabled": 0, "fusion_lon": 0.0}, {"rental_uris": {"android": "https://dc.lft.to/lastmile_qr_scan", "ios": "https://dc.lft.to/lastmile_qr_scan"}, "lon": -77.03858816666667, "name": "b80f884dd608ba156af46e84fe60651e", "lat": 38.90769916666667, "is_reserved": 0, "fusion_lat": 0.0, "bike_id": "b80f884dd608ba156af46e84fe60651e", "type": "electric_scooter", "is_disabled": 0, "fusion_lon": 0.0}, {"rental_uris": {"android": "https://dc.lft.to/lastmile_qr_scan", "ios": "https://dc.lft.to/lastmile_qr_scan"}, "lon": -77.0393525, "name": "e137b44443eef1b9e52093ec1ef258a0", "lat": 38.921834833333335, "is_reserved": 0, "fusion_lat": 0.0, "bike_id": "e137b44443eef1b9e52093ec1ef258a0", "type": "electric_scooter", "is_disabled": 0, "fusion_lon": 0.0}, {"rental_uris": {"android": "https://dc.lft.to/lastmile_qr_scan", "ios": "https://dc.lft.to/lastmile_qr_scan"}, "lon": -77.02153883333334, "name": "845e82822669dc53a667c8d23a3d4c30", "lat": 38.87932283333333, "is_reserved": 0, "fusion_lat": 0.0, "bike_id": "845e82822669dc53a667c8d23a3d4c30", "type": "electric_scooter", "is_disabled": 0, "fusion_lon": 0.0}, {"rental_uris": {"android": "https://dc.lft.to/lastmile_qr_scan", "ios": "https://dc.lft.to/lastmile_qr_scan"}, "lon": -77.033786, "name": "9795cfbce3f5ad7b4f03421121e0abd6", "lat": 38.9216795, "is_reserved": 0, "fusion_lat": 0.0, "bike_id": "9795cfbce3f5ad7b4f03421121e0abd6", "type": "electric_scooter", "is_disabled": 0, "fusion_lon": 0.0}, {"rental_uris": {"android": "https://dc.lft.to/lastmile_qr_scan", "ios": "https://dc.lft.to/lastmile_qr_scan"}, "lon": -77.02392183333333, "name": "73523f6986eec2a6a602d174d4b0a3af", "lat": 38.9208365, "is_reserved": 0, "fusion_lat": 0.0, "bike_id": "73523f6986eec2a6a602d174d4b0a3af", "type": "electric_scooter", "is_disabled": 0, "fusion_lon": 0.0}, {"rental_uris": {"android": "https://dc.lft.to/lastmile_qr_scan", "ios": "https://dc.lft.to/lastmile_qr_scan"}, "lon": -76.9361835, "name": "5cd8c43e3efc88d39f283bea668776be", "lat": 38.97043166666667, "is_reserved": 0, "fusion_lat": 0.0, "bike_id": "5cd8c43e3efc88d39f283bea668776be", "type": "electric_bike", "is_disabled": 0, "fusion_lon": 0.0}, {"rental_uris": {"android": "https://dc.lft.to/lastmile_qr_scan", "ios": "https://dc.lft.to/lastmile_qr_scan"}, "lon": -77.00405566666667, "name": "2cd2723ca0e96f7726f71ac35a3ba041", "lat": 38.92915566666667, "is_reserved": 0, "fusion_lat": 0.0, "bike_id": "2cd2723ca0e96f7726f71ac35a3ba041", "type": "electric_scooter", "is_disabled": 0, "fusion_lon": 0.0}, {"rental_uris": {"android": "https://dc.lft.to/lastmile_qr_scan", "ios": "https://dc.lft.to/lastmile_qr_scan"}, "lon": -76.99624433333334, "name": "d5f8de6cecafb0ab061ae867c84fdc22", "lat": 38.927807666666666, "is_reserved": 0, "fusion_lat": 0.0, "bike_id": "d5f8de6cecafb0ab061ae867c84fdc22", "type": "electric_scooter", "is_disabled": 0, "fusion_lon": 0.0}, {"rental_uris": {"android": "https://dc.lft.to/lastmile_qr_scan", "ios": "https://dc.lft.to/lastmile_qr_scan"}, "lon": -77.02003766666667, "name": "fa917c51a6f898654b2d3696017972c3", "lat": 38.9662625, "is_reserved": 0, "fusion_lat": 0.0, "bike_id": "fa917c51a6f898654b2d3696017972c3", "type": "electric_scooter", "is_disabled": 0, "fusion_lon": 0.0}, {"rental_uris": {"android": "https://dc.lft.to/lastmile_qr_scan", "ios": "https://dc.lft.to/lastmile_qr_scan"}, "lon": -77.02350566666667, "name": "0f372b6ce462b2e20c2735e8be93108f", "lat": 38.935365166666664, "is_reserved": 0, "fusion_lat": 0.0, "bike_id": "0f372b6ce462b2e20c2735e8be93108f", "type": "electric_scooter", "is_disabled": 0, "fusion_lon": 0.0}, {"rental_uris": {"android": "https://dc.lft.to/lastmile_qr_scan", "ios": "https://dc.lft.to/lastmile_qr_scan"}, "lon": -77.0408935, "name": "5433132dec4817e66c0265e76b70f3ea", "lat": 38.932844833333334, "is_reserved": 0, "fusion_lat": 0.0, "bike_id": "5433132dec4817e66c0265e76b70f3ea", "type": "electric_scooter", "is_disabled": 0, "fusion_lon": 0.0}, {"rental_uris": {"android": "https://dc.lft.to/lastmile_qr_scan", "ios": "https://dc.lft.to/lastmile_qr_scan"}, "lon": -77.0256335, "name": "7b628a74e9ea171c19c93fabb1149f9a", "lat": 38.951220666666664, "is_reserved": 0, "fusion_lat": 0.0, "bike_id": "7b628a74e9ea171c19c93fabb1149f9a", "type": "electric_scooter", "is_disabled": 0, "fusion_lon": 0.0}, {"rental_uris": {"android": "https://dc.lft.to/lastmile_qr_scan", "ios": "https://dc.lft.to/lastmile_qr_scan"}, "lon": -77.02073933333334, "name": "9578896da526cac2ee77e131fa28273a", "lat": 38.89465666666667, "is_reserved": 0, "fusion_lat": 0.0, "bike_id": "9578896da526cac2ee77e131fa28273a", "type": "electric_scooter", "is_disabled": 0, "fusion_lon": 0.0}, {"rental_uris": {"android": "https://dc.lft.to/lastmile_qr_scan", "ios": "https://dc.lft.to/lastmile_qr_scan"}, "lon": -77.01221616666666, "name": "f0d2f82910df2519d41750b885dcd04f", "lat": 38.914037, "is_reserved": 0, "fusion_lat": 0.0, "bike_id": "f0d2f82910df2519d41750b885dcd04f", "type": "electric_scooter", "is_disabled": 0, "fusion_lon": 0.0}, {"rental_uris": {"android": "https://dc.lft.to/lastmile_qr_scan", "ios": "https://dc.lft.to/lastmile_qr_scan"}, "lon": -76.92045883333333, "name": "396513cbcb227211df4604de041c948f", "lat": 38.89734266666667, "is_reserved": 0, "fusion_lat": 0.0, "bike_id": "396513cbcb227211df4604de041c948f", "type": "electric_bike", "is_disabled": 0, "fusion_lon": 0.0}, {"rental_uris": {"android": "https://dc.lft.to/lastmile_qr_scan", "ios": "https://dc.lft.to/lastmile_qr_scan"}, "lon": -77.01213533333333, "name": "4fd100d50e6cac29f7c63dae38ba8d15", "lat": 38.91818516666667, "is_reserved": 0, "fusion_lat": 0.0, "bike_id": "4fd100d50e6cac29f7c63dae38ba8d15", "type": "electric_scooter", "is_disabled": 0, "fusion_lon": 0.0}, {"rental_uris": {"android": "https://dc.lft.to/lastmile_qr_scan", "ios": "https://dc.lft.to/lastmile_qr_scan"}, "lon": -77.03210433333334, "name": "98740a31d4fd4a54a50c0c1140e6ba36", "lat": 38.916889833333336, "is_reserved": 0, "fusion_lat": 0.0, "bike_id": "98740a31d4fd4a54a50c0c1140e6ba36", "type": "electric_scooter", "is_disabled": 0, "fusion_lon": 0.0}, {"rental_uris": {"android": "https://dc.lft.to/lastmile_qr_scan", "ios": "https://dc.lft.to/lastmile_qr_scan"}, "lon": -77.039307, "name": "35f9a9c8be28ee46e7730a499f7967db", "lat": 38.916255, "is_reserved": 0, "fusion_lat": 0.0, "bike_id": "35f9a9c8be28ee46e7730a499f7967db", "type": "electric_scooter", "is_disabled": 0, "fusion_lon": 0.0}, {"rental_uris": {"android": "https://dc.lft.to/lastmile_qr_scan", "ios": "https://dc.lft.to/lastmile_qr_scan"}, "lon": -77.041963, "name": "43fa70390ad130823f9a9eabb1d58e32", "lat": 38.92100116666667, "is_reserved": 0, "fusion_lat": 0.0, "bike_id": "43fa70390ad130823f9a9eabb1d58e32", "type": "electric_scooter", "is_disabled": 0, "fusion_lon": 0.0}, {"rental_uris": {"android": "https://dc.lft.to/lastmile_qr_scan", "ios": "https://dc.lft.to/lastmile_qr_scan"}, "lon": -77.00571133333334, "name": "31e902b8bd09ace80a8a546636a941f8", "lat": 38.8747315, "is_reserved": 0, "fusion_lat": 0.0, "bike_id": "31e902b8bd09ace80a8a546636a941f8", "type": "electric_scooter", "is_disabled": 0, "fusion_lon": 0.0}, {"rental_uris": {"android": "https://dc.lft.to/lastmile_qr_scan", "ios": "https://dc.lft.to/lastmile_qr_scan"}, "lon": -76.93022866666666, "name": "bc15bcca7bf96db49f9e46c7e2abc21b", "lat": 38.901628333333335, "is_reserved": 0, "fusion_lat": 0.0, "bike_id": "bc15bcca7bf96db49f9e46c7e2abc21b", "type": "electric_scooter", "is_disabled": 0, "fusion_lon": 0.0}, {"rental_uris": {"android": "https://dc.lft.to/lastmile_qr_scan", "ios": "https://dc.lft.to/lastmile_qr_scan"}, "lon": -76.999534, "name": "5696c2116f121cb2592a8c77a4400961", "lat": 38.878629, "is_reserved": 0, "fusion_lat": 0.0, "bike_id": "5696c2116f121cb2592a8c77a4400961", "type": "electric_scooter", "is_disabled": 0, "fusion_lon": 0.0}, {"rental_uris": {"android": "https://dc.lft.to/lastmile_qr_scan", "ios": "https://dc.lft.to/lastmile_qr_scan"}, "lon": -77.03865183333333, "name": "ab4339c7a4e18ea2602ba23c795fe3c1", "lat": 38.91549883333333, "is_reserved": 0, "fusion_lat": 0.0, "bike_id": "ab4339c7a4e18ea2602ba23c795fe3c1", "type": "electric_scooter", "is_disabled": 0, "fusion_lon": 0.0}, {"rental_uris": {"android": "https://dc.lft.to/lastmile_qr_scan", "ios": "https://dc.lft.to/lastmile_qr_scan"}, "lon": -76.98091716666667, "name": "878f1fb3760ecbe1fefa427b2dd8e692", "lat": 38.957574, "is_reserved": 0, "fusion_lat": 0.0, "bike_id": "878f1fb3760ecbe1fefa427b2dd8e692", "type": "electric_bike", "is_disabled": 0, "fusion_lon": 0.0}, {"rental_uris": {"android": "https://dc.lft.to/lastmile_qr_scan", "ios": "https://dc.lft.to/lastmile_qr_scan"}, "lon": -76.96938533333334, "name": "11e507284422b7e2ee61aadd9f6dc8ad", "lat": 38.959837666666665, "is_reserved": 0, "fusion_lat": 0.0, "bike_id": "11e507284422b7e2ee61aadd9f6dc8ad", "type": "electric_bike", "is_disabled": 0, "fusion_lon": 0.0}, {"rental_uris": {"android": "https://dc.lft.to/lastmile_qr_scan", "ios": "https://dc.lft.to/lastmile_qr_scan"}, "lon": -77.01512766666667, "name": "e2efacc2c657bbce277f7de63f7cdfa8", "lat": 38.91006733333333, "is_reserved": 0, "fusion_lat": 0.0, "bike_id": "e2efacc2c657bbce277f7de63f7cdfa8", "type": "electric_scooter", "is_disabled": 0, "fusion_lon": 0.0}, {"rental_uris": {"android": "https://dc.lft.to/lastmile_qr_scan", "ios": "https://dc.lft.to/lastmile_qr_scan"}, "lon": -77.03911333333333, "name": "5fce1e953625cf654ebabb4e73f98446", "lat": 38.913989, "is_reserved": 0, "fusion_lat": 0.0, "bike_id": "5fce1e953625cf654ebabb4e73f98446", "type": "electric_scooter", "is_disabled": 0, "fusion_lon": 0.0}, {"rental_uris": {"android": "https://dc.lft.to/lastmile_qr_scan", "ios": "https://dc.lft.to/lastmile_qr_scan"}, "lon": -77.03103533333334, "name": "f4d2ae06fd11fddfdc8504edf471b8d3", "lat": 38.9318415, "is_reserved": 0, "fusion_lat": 0.0, "bike_id": "f4d2ae06fd11fddfdc8504edf471b8d3", "type": "electric_scooter", "is_disabled": 0, "fusion_lon": 0.0}, {"rental_uris": {"android": "https://dc.lft.to/lastmile_qr_scan", "ios": "https://dc.lft.to/lastmile_qr_scan"}, "lon": -77.04244066666666, "name": "5333451c22f402cd30c22985fb888bc3", "lat": 38.922245, "is_reserved": 0, "fusion_lat": 0.0, "bike_id": "5333451c22f402cd30c22985fb888bc3", "type": "electric_scooter", "is_disabled": 0, "fusion_lon": 0.0}, {"rental_uris": {"android": "https://dc.lft.to/lastmile_qr_scan", "ios": "https://dc.lft.to/lastmile_qr_scan"}, "lon": -77.04251833333333, "name": "c8f3832165472027a4549d5dbdc6ac80", "lat": 38.922013, "is_reserved": 0, "fusion_lat": 0.0, "bike_id": "c8f3832165472027a4549d5dbdc6ac80", "type": "electric_scooter", "is_disabled": 0, "fusion_lon": 0.0}, {"rental_uris": {"android": "https://dc.lft.to/lastmile_qr_scan", "ios": "https://dc.lft.to/lastmile_qr_scan"}, "lon": -77.00208683333334, "name": "cb52e2d5fdd015450909543fa9f7eb75", "lat": 38.920003, "is_reserved": 0, "fusion_lat": 0.0, "bike_id": "cb52e2d5fdd015450909543fa9f7eb75", "type": "electric_scooter", "is_disabled": 0, "fusion_lon": 0.0}, {"rental_uris": {"android": "https://dc.lft.to/lastmile_qr_scan", "ios": "https://dc.lft.to/lastmile_qr_scan"}, "lon": -77.0019975, "name": "608ae2417278ec796e037c7d83a8a5ce", "lat": 38.912287666666664, "is_reserved": 0, "fusion_lat": 0.0, "bike_id": "608ae2417278ec796e037c7d83a8a5ce", "type": "electric_scooter", "is_disabled": 0, "fusion_lon": 0.0}, {"rental_uris": {"android": "https://dc.lft.to/lastmile_qr_scan", "ios": "https://dc.lft.to/lastmile_qr_scan"}, "lon": -77.02182083333334, "name": "a86b3581beec8f596f6abcf4629d63a2", "lat": 38.894838666666665, "is_reserved": 0, "fusion_lat": 0.0, "bike_id": "a86b3581beec8f596f6abcf4629d63a2", "type": "electric_scooter", "is_disabled": 0, "fusion_lon": 0.0}, {"rental_uris": {"android": "https://dc.lft.to/lastmile_qr_scan", "ios": "https://dc.lft.to/lastmile_qr_scan"}, "lon": -77.02831516666667, "name": "549c7141995512889f17dd70aebf0ada", "lat": 38.9170715, "is_reserved": 0, "fusion_lat": 0.0, "bike_id": "549c7141995512889f17dd70aebf0ada", "type": "electric_scooter", "is_disabled": 0, "fusion_lon": 0.0}, {"rental_uris": {"android": "https://dc.lft.to/lastmile_qr_scan", "ios": "https://dc.lft.to/lastmile_qr_scan"}, "lon": -77.045174, "name": "7e9134dee6a021a24b575a6b5fd5858e", "lat": 38.8961025, "is_reserved": 0, "fusion_lat": 0.0, "bike_id": "7e9134dee6a021a24b575a6b5fd5858e", "type": "electric_scooter", "is_disabled": 0, "fusion_lon": 0.0}, {"rental_uris": {"android": "https://dc.lft.to/lastmile_qr_scan", "ios": "https://dc.lft.to/lastmile_qr_scan"}, "lon": -77.02401166666667, "name": "cb723bb60e3a646471ad1cf369daa485", "lat": 38.919078, "is_reserved": 0, "fusion_lat": 0.0, "bike_id": "cb723bb60e3a646471ad1cf369daa485", "type": "electric_scooter", "is_disabled": 0, "fusion_lon": 0.0}, {"rental_uris": {"android": "https://dc.lft.to/lastmile_qr_scan", "ios": "https://dc.lft.to/lastmile_qr_scan"}, "lon": -77.03865033333334, "name": "467a8c355aa8d6447c9aca40b20aad2e", "lat": 38.917077666666664, "is_reserved": 0, "fusion_lat": 0.0, "bike_id": "467a8c355aa8d6447c9aca40b20aad2e", "type": "electric_scooter", "is_disabled": 0, "fusion_lon": 0.0}, {"rental_uris": {"android": "https://dc.lft.to/lastmile_qr_scan", "ios": "https://dc.lft.to/lastmile_qr_scan"}, "lon": -77.01365516666667, "name": "3700a9262c6a2fa68e0e93e95ecc95b2", "lat": 38.9111665, "is_reserved": 0, "fusion_lat": 0.0, "bike_id": "3700a9262c6a2fa68e0e93e95ecc95b2", "type": "electric_scooter", "is_disabled": 0, "fusion_lon": 0.0}, {"rental_uris": {"android": "https://dc.lft.to/lastmile_qr_scan", "ios": "https://dc.lft.to/lastmile_qr_scan"}, "lon": -77.0365845, "name": "b96a3a6b3478ca8075a54b323027765d", "lat": 38.910046, "is_reserved": 0, "fusion_lat": 0.0, "bike_id": "b96a3a6b3478ca8075a54b323027765d", "type": "electric_scooter", "is_disabled": 0, "fusion_lon": 0.0}, {"rental_uris": {"android": "https://dc.lft.to/lastmile_qr_scan", "ios": "https://dc.lft.to/lastmile_qr_scan"}, "lon": -76.949813, "name": "b290cb3cd77fa36283b0922333423b80", "lat": 38.88464466666667, "is_reserved": 0, "fusion_lat": 0.0, "bike_id": "b290cb3cd77fa36283b0922333423b80", "type": "electric_scooter", "is_disabled": 0, "fusion_lon": 0.0}, {"rental_uris": {"android": "https://dc.lft.to/lastmile_qr_scan", "ios": "https://dc.lft.to/lastmile_qr_scan"}, "lon": -77.028001, "name": "a076b5889bd11d224b4f288fd8e15428", "lat": 38.899044833333335, "is_reserved": 0, "fusion_lat": 0.0, "bike_id": "a076b5889bd11d224b4f288fd8e15428", "type": "electric_scooter", "is_disabled": 0, "fusion_lon": 0.0}, {"rental_uris": {"android": "https://dc.lft.to/lastmile_qr_scan", "ios": "https://dc.lft.to/lastmile_qr_scan"}, "lon": -77.0232925, "name": "dbe1d47ce31212f24b934d6f1f22d739", "lat": 38.92870683333334, "is_reserved": 0, "fusion_lat": 0.0, "bike_id": "dbe1d47ce31212f24b934d6f1f22d739", "type": "electric_scooter", "is_disabled": 0, "fusion_lon": 0.0}, {"rental_uris": {"android": "https://dc.lft.to/lastmile_qr_scan", "ios": "https://dc.lft.to/lastmile_qr_scan"}, "lon": -77.07469216666667, "name": "38d56b011582955a964a1fcede9487ba", "lat": 38.9070465, "is_reserved": 0, "fusion_lat": 0.0, "bike_id": "38d56b011582955a964a1fcede9487ba", "type": "electric_scooter", "is_disabled": 0, "fusion_lon": 0.0}, {"rental_uris": {"android": "https://dc.lft.to/lastmile_qr_scan", "ios": "https://dc.lft.to/lastmile_qr_scan"}, "lon": -77.02349683333334, "name": "6fa5125dff03d19b9afb5f0b6b919b88", "lat": 38.9204205, "is_reserved": 0, "fusion_lat": 0.0, "bike_id": "6fa5125dff03d19b9afb5f0b6b919b88", "type": "electric_scooter", "is_disabled": 0, "fusion_lon": 0.0}, {"rental_uris": {"android": "https://dc.lft.to/lastmile_qr_scan", "ios": "https://dc.lft.to/lastmile_qr_scan"}, "lon": -77.00999666666667, "name": "b921e3fbbf5878952e24c3d42bc47c1f", "lat": 38.915752499999996, "is_reserved": 0, "fusion_lat": 0.0, "bike_id": "b921e3fbbf5878952e24c3d42bc47c1f", "type": "electric_scooter", "is_disabled": 0, "fusion_lon": 0.0}, {"rental_uris": {"android": "https://dc.lft.to/lastmile_qr_scan", "ios": "https://dc.lft.to/lastmile_qr_scan"}, "lon": -76.9981055, "name": "dd6193a0bd35adce8a9490c2bfe9ab4d", "lat": 38.9323015, "is_reserved": 0, "fusion_lat": 0.0, "bike_id": "dd6193a0bd35adce8a9490c2bfe9ab4d", "type": "electric_scooter", "is_disabled": 0, "fusion_lon": 0.0}, {"rental_uris": {"android": "https://dc.lft.to/lastmile_qr_scan", "ios": "https://dc.lft.to/lastmile_qr_scan"}, "lon": -77.04073516666666, "name": "c4f1bc10c006c71a921f98a6d2c127cd", "lat": 38.917054666666665, "is_reserved": 0, "fusion_lat": 0.0, "bike_id": "c4f1bc10c006c71a921f98a6d2c127cd", "type": "electric_scooter", "is_disabled": 0, "fusion_lon": 0.0}, {"rental_uris": {"android": "https://dc.lft.to/lastmile_qr_scan", "ios": "https://dc.lft.to/lastmile_qr_scan"}, "lon": -77.05698766666667, "name": "8bf83e638f0d4e06fb48699d2a77d7c6", "lat": 38.933236666666666, "is_reserved": 0, "fusion_lat": 0.0, "bike_id": "8bf83e638f0d4e06fb48699d2a77d7c6", "type": "electric_scooter", "is_disabled": 0, "fusion_lon": 0.0}, {"rental_uris": {"android": "https://dc.lft.to/lastmile_qr_scan", "ios": "https://dc.lft.to/lastmile_qr_scan"}, "lon": -77.07696766666666, "name": "e8d0d4f0b027c4f3e6efaaa09b90a614", "lat": 38.994204, "is_reserved": 0, "fusion_lat": 0.0, "bike_id": "e8d0d4f0b027c4f3e6efaaa09b90a614", "type": "electric_bike", "is_disabled": 0, "fusion_lon": 0.0}, {"rental_uris": {"android": "https://dc.lft.to/lastmile_qr_scan", "ios": "https://dc.lft.to/lastmile_qr_scan"}, "lon": -77.0297245, "name": "ed870850ba324d9e8730919d406d8567", "lat": 38.9172595, "is_reserved": 0, "fusion_lat": 0.0, "bike_id": "ed870850ba324d9e8730919d406d8567", "type": "electric_scooter", "is_disabled": 0, "fusion_lon": 0.0}, {"rental_uris": {"android": "https://dc.lft.to/lastmile_qr_scan", "ios": "https://dc.lft.to/lastmile_qr_scan"}, "lon": -77.0241055, "name": "d6d3af40fd5ba441a7215ee451a2659e", "lat": 38.930995333333335, "is_reserved": 0, "fusion_lat": 0.0, "bike_id": "d6d3af40fd5ba441a7215ee451a2659e", "type": "electric_scooter", "is_disabled": 0, "fusion_lon": 0.0}, {"rental_uris": {"android": "https://dc.lft.to/lastmile_qr_scan", "ios": "https://dc.lft.to/lastmile_qr_scan"}, "lon": -77.03466416666667, "name": "347f585d9d9cc04b7b7099732cc972db", "lat": 38.90563066666667, "is_reserved": 0, "fusion_lat": 0.0, "bike_id": "347f585d9d9cc04b7b7099732cc972db", "type": "electric_scooter", "is_disabled": 0, "fusion_lon": 0.0}, {"rental_uris": {"android": "https://dc.lft.to/lastmile_qr_scan", "ios": "https://dc.lft.to/lastmile_qr_scan"}, "lon": -76.93401466666667, "name": "651bcac16d6d89789e0dfb1a407c42dd", "lat": 38.89895516666667, "is_reserved": 0, "fusion_lat": 0.0, "bike_id": "651bcac16d6d89789e0dfb1a407c42dd", "type": "electric_scooter", "is_disabled": 0, "fusion_lon": 0.0}, {"rental_uris": {"android": "https://dc.lft.to/lastmile_qr_scan", "ios": "https://dc.lft.to/lastmile_qr_scan"}, "lon": -77.02244733333333, "name": "9baea36b2aa67d25a9e933d0979b21f4", "lat": 38.92269016666667, "is_reserved": 0, "fusion_lat": 0.0, "bike_id": "9baea36b2aa67d25a9e933d0979b21f4", "type": "electric_scooter", "is_disabled": 0, "fusion_lon": 0.0}, {"rental_uris": {"android": "https://dc.lft.to/lastmile_qr_scan", "ios": "https://dc.lft.to/lastmile_qr_scan"}, "lon": -77.0337975, "name": "76d47d4c3525ea326ae0dc6b43873d47", "lat": 38.9244235, "is_reserved": 0, "fusion_lat": 0.0, "bike_id": "76d47d4c3525ea326ae0dc6b43873d47", "type": "electric_scooter", "is_disabled": 0, "fusion_lon": 0.0}, {"rental_uris": {"android": "https://dc.lft.to/lastmile_qr_scan", "ios": "https://dc.lft.to/lastmile_qr_scan"}, "lon": -76.98699416666666, "name": "b3ee447ad6170bb4e3fd546a6bff3514", "lat": 38.900147833333335, "is_reserved": 0, "fusion_lat": 0.0, "bike_id": "b3ee447ad6170bb4e3fd546a6bff3514", "type": "electric_scooter", "is_disabled": 0, "fusion_lon": 0.0}, {"rental_uris": {"android": "https://dc.lft.to/lastmile_qr_scan", "ios": "https://dc.lft.to/lastmile_qr_scan"}, "lon": -77.0018505, "name": "2e2498398e0c116c380746fd59f4b1bd", "lat": 38.822196166666664, "is_reserved": 0, "fusion_lat": 0.0, "bike_id": "2e2498398e0c116c380746fd59f4b1bd", "type": "electric_scooter", "is_disabled": 0, "fusion_lon": 0.0}, {"rental_uris": {"android": "https://dc.lft.to/lastmile_qr_scan", "ios": "https://dc.lft.to/lastmile_qr_scan"}, "lon": -77.02409166666666, "name": "dbba57113851b6747c977389580fd853", "lat": 38.936982666666665, "is_reserved": 0, "fusion_lat": 0.0, "bike_id": "dbba57113851b6747c977389580fd853", "type": "electric_scooter", "is_disabled": 0, "fusion_lon": 0.0}, {"rental_uris": {"android": "https://dc.lft.to/lastmile_qr_scan", "ios": "https://dc.lft.to/lastmile_qr_scan"}, "lon": -77.02048966666666, "name": "65cdf7990feb6be218a4b177b85dc8f1", "lat": 38.885323166666666, "is_reserved": 0, "fusion_lat": 0.0, "bike_id": "65cdf7990feb6be218a4b177b85dc8f1", "type": "electric_scooter", "is_disabled": 0, "fusion_lon": 0.0}, {"rental_uris": {"android": "https://dc.lft.to/lastmile_qr_scan", "ios": "https://dc.lft.to/lastmile_qr_scan"}, "lon": -77.031553, "name": "596e2bfb5479d0c53fdafdad90e8b7e0", "lat": 38.91710233333333, "is_reserved": 0, "fusion_lat": 0.0, "bike_id": "596e2bfb5479d0c53fdafdad90e8b7e0", "type": "electric_scooter", "is_disabled": 0, "fusion_lon": 0.0}, {"rental_uris": {"android": "https://dc.lft.to/lastmile_qr_scan", "ios": "https://dc.lft.to/lastmile_qr_scan"}, "lon": -77.03177933333333, "name": "791e698c9fcfb6c73f832dbee1041432", "lat": 38.916296, "is_reserved": 0, "fusion_lat": 0.0, "bike_id": "791e698c9fcfb6c73f832dbee1041432", "type": "electric_scooter", "is_disabled": 0, "fusion_lon": 0.0}, {"rental_uris": {"android": "https://dc.lft.to/lastmile_qr_scan", "ios": "https://dc.lft.to/lastmile_qr_scan"}, "lon": -77.03472716666667, "name": "b2fd6dfa162d973e5fb86e280aaa42e7", "lat": 38.92640266666667, "is_reserved": 0, "fusion_lat": 0.0, "bike_id": "b2fd6dfa162d973e5fb86e280aaa42e7", "type": "electric_scooter", "is_disabled": 0, "fusion_lon": 0.0}, {"rental_uris": {"android": "https://dc.lft.to/lastmile_qr_scan", "ios": "https://dc.lft.to/lastmile_qr_scan"}, "lon": -77.05532083333334, "name": "fa7bf1480ce23f6b3bd7acfaf1583f7e", "lat": 38.92961233333333, "is_reserved": 0, "fusion_lat": 0.0, "bike_id": "fa7bf1480ce23f6b3bd7acfaf1583f7e", "type": "electric_scooter", "is_disabled": 0, "fusion_lon": 0.0}, {"rental_uris": {"android": "https://dc.lft.to/lastmile_qr_scan", "ios": "https://dc.lft.to/lastmile_qr_scan"}, "lon": -77.02960583333333, "name": "cb05b68009e295bcfb285bfafbe42c92", "lat": 38.92244783333334, "is_reserved": 0, "fusion_lat": 0.0, "bike_id": "cb05b68009e295bcfb285bfafbe42c92", "type": "electric_scooter", "is_disabled": 0, "fusion_lon": 0.0}, {"rental_uris": {"android": "https://dc.lft.to/lastmile_qr_scan", "ios": "https://dc.lft.to/lastmile_qr_scan"}, "lon": -77.03322483333334, "name": "db58fb530e1895bdf608d48b7e94023a", "lat": 38.913177166666664, "is_reserved": 0, "fusion_lat": 0.0, "bike_id": "db58fb530e1895bdf608d48b7e94023a", "type": "electric_scooter", "is_disabled": 0, "fusion_lon": 0.0}, {"rental_uris": {"android": "https://dc.lft.to/lastmile_qr_scan", "ios": "https://dc.lft.to/lastmile_qr_scan"},