{"data": {"bikes": [{"lat": 38.96274783333333, "is_disabled": 0, "type": "electric_bike", "lon": -77.03251433333334, "bike_id": "fc86fb103a3a70b3eac25b3777bde4f8", "fusion_lat": 0.0, "name": "fc86fb103a3a70b3eac25b3777bde4f8", "is_reserved": 0, "rental_uris": {"android": "https://dc.lft.to/lastmile_qr_scan", "ios": "https://dc.lft.to/lastmile_qr_scan"}, "fusion_lon": 0.0}, {"lat": 38.91961333333333, "is_disabled": 0, "type": "electric_bike", "lon": -76.972683, "bike_id": "b8535a2a7a30a851787212d146bf0d94", "fusion_lat": 0.0, "name": "b8535a2a7a30a851787212d146bf0d94", "is_reserved": 0, "rental_uris": {"android": "https://dc.lft.to/lastmile_qr_scan", "ios": "https://dc.lft.to/lastmile_qr_scan"}, "fusion_lon": 0.0}, {"lat": 38.956171, "is_disabled": 0, "type": "electric_scooter", "lon": -77.02781816666666, "bike_id": "ad0d4513db307b71d8fb860304067570", "fusion_lat": 0.0, "name": "ad0d4513db307b71d8fb860304067570", "is_reserved": 0, "rental_uris": {"android": "https://dc.lft.to/lastmile_qr_scan", "ios": "https://dc.lft.to/lastmile_qr_scan"}, "fusion_lon": 0.0}, {"lat": 38.89783333333333, "is_disabled": 0, "type": "electric_scooter", "lon": -77.04364966666667, "bike_id": "4a808404e8db96c02b5fdc2352537bf2", "fusion_lat": 0.0, "name": "4a808404e8db96c02b5fdc2352537bf2", "is_reserved": 0, "rental_uris": {"android": "https://dc.lft.to/lastmile_qr_scan", "ios": "https://dc.lft.to/lastmile_qr_scan"}, "fusion_lon": 0.0}, {"lat": 38.9301335, "is_disabled": 0, "type": "electric_bike", "lon": -77.21647933333334, "bike_id": "ea99b1998a7d797c7f2dff5c53d77e1c", "fusion_lat": 0.0, "name": "ea99b1998a7d797c7f2dff5c53d77e1c", "is_reserved": 0, "rental_uris": {"android": "https://dc.lft.to/lastmile_qr_scan", "ios": "https://dc.lft.to/lastmile_qr_scan"}, "fusion_lon": 0.0}, {"lat": 38.90216483333333, "is_disabled": 0, "type": "electric_scooter", "lon": -76.94590966666667, "bike_id": "02cffca378ae46e928354e78b186a7a6", "fusion_lat": 0.0, "name": "02cffca378ae46e928354e78b186a7a6", "is_reserved": 0, "rental_uris": {"android": "https://dc.lft.to/lastmile_qr_scan", "ios": "https://dc.lft.to/lastmile_qr_scan"}, "fusion_lon": 0.0}, {"lat": 38.933790333333334, "is_disabled": 0, "type": "electric_scooter", "lon": -77.03794233333333, "bike_id": "2b9afdb033dc4b1b1edca8736f9f6861", "fusion_lat": 0.0, "name": "2b9afdb033dc4b1b1edca8736f9f6861", "is_reserved": 0, "rental_uris": {"android": "https://dc.lft.to/lastmile_qr_scan", "ios": "https://dc.lft.to/lastmile_qr_scan"}, "fusion_lon": 0.0}, {"lat": 38.957709666666666, "is_disabled": 0, "type": "electric_bike", "lon": -77.01156116666667, "bike_id": "ac43cdc6b85712701702ab1a53bf02b1", "fusion_lat": 0.0, "name": "ac43cdc6b85712701702ab1a53bf02b1", "is_reserved": 0, "rental_uris": {"android": "https://dc.lft.to/lastmile_qr_scan", "ios": "https://dc.lft.to/lastmile_qr_scan"}, "fusion_lon": 0.0}, {"lat": 38.913593166666665, "is_disabled": 0, "type": "electric_scooter", "lon": -77.069228, "bike_id": "9a49b2a5a4499d6cc24dceac2cf07347", "fusion_lat": 0.0, "name": "9a49b2a5a4499d6cc24dceac2cf07347", "is_reserved": 0, "rental_uris": {"android": "https://dc.lft.to/lastmile_qr_scan", "ios": "https://dc.lft.to/lastmile_qr_scan"}, "fusion_lon": 0.0}, {"lat": 38.8665375, "is_disabled": 0, "type": "electric_scooter", "lon": -76.9888825, "bike_id": "9b23058c778997a5d986918e9b65df20", "fusion_lat": 0.0, "name": "9b23058c778997a5d986918e9b65df20", "is_reserved": 0, "rental_uris": {"android": "https://dc.lft.to/lastmile_qr_scan", "ios": "https://dc.lft.to/lastmile_qr_scan"}, "fusion_lon": 0.0}, {"lat": 38.905241833333335, "is_disabled": 0, "type": "electric_scooter", "lon": -77.0386855, "bike_id": "dae514bee66f5ca525cab3a1f48dd078", "fusion_lat": 0.0, "name": "dae514bee66f5ca525cab3a1f48dd078", "is_reserved": 0, "rental_uris": {"android": "https://dc.lft.to/lastmile_qr_scan", "ios": "https://dc.lft.to/lastmile_qr_scan"}, "fusion_lon": 0.0}, {"lat": 38.92307266666667, "is_disabled": 0, "type": "electric_scooter", "lon": -77.039606, "bike_id": "30559bafaba264d40f1d2c4eb306f46d", "fusion_lat": 0.0, "name": "30559bafaba264d40f1d2c4eb306f46d", "is_reserved": 0, "rental_uris": {"android": "https://dc.lft.to/lastmile_qr_scan", "ios": "https://dc.lft.to/lastmile_qr_scan"}, "fusion_lon": 0.0}, {"lat": 38.924853, "is_disabled": 0, "type": "electric_scooter", "lon": -77.05217566666667, "bike_id": "5a6b354ec845398c1533286423425621", "fusion_lat": 0.0, "name": "5a6b354ec845398c1533286423425621", "is_reserved": 0, "rental_uris": {"android": "https://dc.lft.to/lastmile_qr_scan", "ios": "https://dc.lft.to/lastmile_qr_scan"}, "fusion_lon": 0.0}, {"lat": 38.919554166666664, "is_disabled": 0, "type": "electric_scooter", "lon": -77.02490533333334, "bike_id": "88fad0214946cbae603993f38fd1b270", "fusion_lat": 0.0, "name": "88fad0214946cbae603993f38fd1b270", "is_reserved": 0, "rental_uris": {"android": "https://dc.lft.to/lastmile_qr_scan", "ios": "https://dc.lft.to/lastmile_qr_scan"}, "fusion_lon": 0.0}, {"lat": 38.91496716666666, "is_disabled": 0, "type": "electric_scooter", "lon": -77.01222266666667, "bike_id": "41ee5bbb32ad400651d07c15e6e8a02d", "fusion_lat": 0.0, "name": "41ee5bbb32ad400651d07c15e6e8a02d", "is_reserved": 0, "rental_uris": {"android": "https://dc.lft.to/lastmile_qr_scan", "ios": "https://dc.lft.to/lastmile_qr_scan"}, "fusion_lon": 0.0}, {"lat": 38.906808, "is_disabled": 0, "type": "electric_scooter", "lon": -77.06269983333334, "bike_id": "a427a48ee9df658e52243905fdf7344e", "fusion_lat": 0.0, "name": "a427a48ee9df658e52243905fdf7344e", "is_reserved": 0, "rental_uris": {"android": "https://dc.lft.to/lastmile_qr_scan", "ios": "https://dc.lft.to/lastmile_qr_scan"}, "fusion_lon": 0.0}, {"lat": 38.90596733333334, "is_disabled": 0, "type": "electric_scooter", "lon": -77.06274983333333, "bike_id": "93e4e2cbe9933ab182604d325f0728a6", "fusion_lat": 0.0, "name": "93e4e2cbe9933ab182604d325f0728a6", "is_reserved": 0, "rental_uris": {"android": "https://dc.lft.to/lastmile_qr_scan", "ios": "https://dc.lft.to/lastmile_qr_scan"}, "fusion_lon": 0.0}, {"lat": 38.869195833333336, "is_disabled": 0, "type": "electric_scooter", "lon": -76.983085, "bike_id": "b696db383bca4efdd48622ea0775142e", "fusion_lat": 0.0, "name": "b696db383bca4efdd48622ea0775142e", "is_reserved": 0, "rental_uris": {"android": "https://dc.lft.to/lastmile_qr_scan", "ios": "https://dc.lft.to/lastmile_qr_scan"}, "fusion_lon": 0.0}, {"lat": 38.92071383333333, "is_disabled": 0, "type": "electric_scooter", "lon": -77.0437655, "bike_id": "84fc809b8ac6f6aaa4386034ac1f2ebd", "fusion_lat": 0.0, "name": "84fc809b8ac6f6aaa4386034ac1f2ebd", "is_reserved": 0, "rental_uris": {"android": "https://dc.lft.to/lastmile_qr_scan", "ios": "https://dc.lft.to/lastmile_qr_scan"}, "fusion_lon": 0.0}, {"lat": 38.9145235, "is_disabled": 0, "type": "electric_scooter", "lon": -77.03217466666666, "bike_id": "590d937e33ca25b0e3dee2b4888d948d", "fusion_lat": 0.0, "name": "590d937e33ca25b0e3dee2b4888d948d", "is_reserved": 0, "rental_uris": {"android": "https://dc.lft.to/lastmile_qr_scan", "ios": "https://dc.lft.to/lastmile_qr_scan"}, "fusion_lon": 0.0}, {"lat": 38.90733216666667, "is_disabled": 0, "type": "electric_scooter", "lon": -77.04175016666667, "bike_id": "fd3f89422948de4acf6b175e7c429ead", "fusion_lat": 0.0, "name": "fd3f89422948de4acf6b175e7c429ead", "is_reserved": 0, "rental_uris": {"android": "https://dc.lft.to/lastmile_qr_scan", "ios": "https://dc.lft.to/lastmile_qr_scan"}, "fusion_lon": 0.0}, {"lat": 38.986553666666666, "is_disabled": 0, "type": "electric_bike", "lon": -77.0563685, "bike_id": "03f2b3a6f453212547ee0962a307a175", "fusion_lat": 0.0, "name": "03f2b3a6f453212547ee0962a307a175", "is_reserved": 0, "rental_uris": {"android": "https://dc.lft.to/lastmile_qr_scan", "ios": "https://dc.lft.to/lastmile_qr_scan"}, "fusion_lon": 0.0}, {"lat": 38.903028666666664, "is_disabled": 0, "type": "electric_scooter", "lon": -77.0004645, "bike_id": "c1cf81fb9da94ad861f6796392081bfa", "fusion_lat": 0.0, "name": "c1cf81fb9da94ad861f6796392081bfa", "is_reserved": 0, "rental_uris": {"android": "https://dc.lft.to/lastmile_qr_scan", "ios": "https://dc.lft.to/lastmile_qr_scan"}, "fusion_lon": 0.0}, {"lat": 38.913702, "is_disabled": 0, "type": "electric_scooter", "lon": -77.03445383333333, "bike_id": "2a62e61dbb9c490f25eca3b8cd4ff971", "fusion_lat": 0.0, "name": "2a62e61dbb9c490f25eca3b8cd4ff971", "is_reserved": 0, "rental_uris": {"android": "https://dc.lft.to/lastmile_qr_scan", "ios": "https://dc.lft.to/lastmile_qr_scan"}, "fusion_lon": 0.0}, {"lat": 38.84427083333333, "is_disabled": 0, "type": "electric_scooter", "lon": -76.9977625, "bike_id": "a837a30d809379a30e075aab7151011a", "fusion_lat": 0.0, "name": "a837a30d809379a30e075aab7151011a", "is_reserved": 0, "rental_uris": {"android": "https://dc.lft.to/lastmile_qr_scan", "ios": "https://dc.lft.to/lastmile_qr_scan"}, "fusion_lon": 0.0}, {"lat": 38.9240145, "is_disabled": 0, "type": "electric_scooter", "lon": -77.02547316666667, "bike_id": "e52c443ab52753f25b3b3b7e74570a0d", "fusion_lat": 0.0, "name": "e52c443ab52753f25b3b3b7e74570a0d", "is_reserved": 0, "rental_uris": {"android": "https://dc.lft.to/lastmile_qr_scan", "ios": "https://dc.lft.to/lastmile_qr_scan"}, "fusion_lon": 0.0}, {"lat": 38.92015516666667, "is_disabled": 0, "type": "electric_scooter", "lon": -77.04094966666666, "bike_id": "b2f9db2cbc66c0c80842c407f79313ca", "fusion_lat": 0.0, "name": "b2f9db2cbc66c0c80842c407f79313ca", "is_reserved": 0, "rental_uris": {"android": "https://dc.lft.to/lastmile_qr_scan", "ios": "https://dc.lft.to/lastmile_qr_scan"}, "fusion_lon": 0.0}, {"lat": 38.908275, "is_disabled": 0, "type": "electric_scooter", "lon": -76.94148, "bike_id": "5c2312066f83ded693fd45ea0cef007a", "fusion_lat": 0.0, "name": "5c2312066f83ded693fd45ea0cef007a", "is_reserved": 0, "rental_uris": {"android": "https://dc.lft.to/lastmile_qr_scan", "ios": "https://dc.lft.to/lastmile_qr_scan"}, "fusion_lon": 0.0}, {"lat": 38.904149833333335, "is_disabled": 0, "type": "electric_scooter", "lon": -77.02502783333334, "bike_id": "74ff4014cde038c6c4ed349e4c272272", "fusion_lat": 0.0, "name": "74ff4014cde038c6c4ed349e4c272272", "is_reserved": 0, "rental_uris": {"android": "https://dc.lft.to/lastmile_qr_scan", "ios": "https://dc.lft.to/lastmile_qr_scan"}, "fusion_lon": 0.0}, {"lat": 38.928022166666665, "is_disabled": 0, "type": "electric_scooter", "lon": -77.036433, "bike_id": "4dfa065ba4efa8269c4b0f8533d20f47", "fusion_lat": 0.0, "name": "4dfa065ba4efa8269c4b0f8533d20f47", "is_reserved": 0, "rental_uris": {"android": "https://dc.lft.to/lastmile_qr_scan", "ios": "https://dc.lft.to/lastmile_qr_scan"}, "fusion_lon": 0.0}, {"lat": 38.88407733333333, "is_disabled": 0, "type": "electric_bike", "lon": -76.96058216666667, "bike_id": "9e1f05cae67059572be0deae36d256be", "fusion_lat": 0.0, "name": "9e1f05cae67059572be0deae36d256be", "is_reserved": 0, "rental_uris": {"android": "https://dc.lft.to/lastmile_qr_scan", "ios": "https://dc.lft.to/lastmile_qr_scan"}, "fusion_lon": 0.0}, {"lat": 38.88748416666667, "is_disabled": 0, "type": "electric_scooter", "lon": -76.99368733333333, "bike_id": "292fc0445255e192f3cce697a9aedf0c", "fusion_lat": 0.0, "name": "292fc0445255e192f3cce697a9aedf0c", "is_reserved": 0, "rental_uris": {"android": "https://dc.lft.to/lastmile_qr_scan", "ios": "https://dc.lft.to/lastmile_qr_scan"}, "fusion_lon": 0.0}, {"lat": 38.90044983333333, "is_disabled": 0, "type": "electric_scooter", "lon": -76.99503683333333, "bike_id": "da5e33e263b52fcb3e2e7dc775f79ac4", "fusion_lat": 0.0, "name": "da5e33e263b52fcb3e2e7dc775f79ac4", "is_reserved": 0, "rental_uris": {"android": "https://dc.lft.to/lastmile_qr_scan", "ios": "https://dc.lft.to/lastmile_qr_scan"}, "fusion_lon": 0.0}, {"lat": 38.83986, "is_disabled": 0, "type": "electric_bike", "lon": -77.0056455, "bike_id": "f61e67af3c4faf8bb3f27d9c5974ea15", "fusion_lat": 0.0, "name": "f61e67af3c4faf8bb3f27d9c5974ea15", "is_reserved": 0, "rental_uris": {"android": "https://dc.lft.to/lastmile_qr_scan", "ios": "https://dc.lft.to/lastmile_qr_scan"}, "fusion_lon": 0.0}, {"lat": 38.92335816666667, "is_disabled": 0, "type": "electric_bike", "lon": -77.02291816666667, "bike_id": "747d43dd415e61dbe1352a665b1fbef3", "fusion_lat": 0.0, "name": "747d43dd415e61dbe1352a665b1fbef3", "is_reserved": 0, "rental_uris": {"android": "https://dc.lft.to/lastmile_qr_scan", "ios": "https://dc.lft.to/lastmile_qr_scan"}, "fusion_lon": 0.0}, {"lat": 38.907288, "is_disabled": 0, "type": "electric_scooter", "lon": -76.998172, "bike_id": "4687866e400689f76e6f583444f40fec", "fusion_lat": 0.0, "name": "4687866e400689f76e6f583444f40fec", "is_reserved": 0, "rental_uris": {"android": "https://dc.lft.to/lastmile_qr_scan", "ios": "https://dc.lft.to/lastmile_qr_scan"}, "fusion_lon": 0.0}, {"lat": 38.861685, "is_disabled": 0, "type": "electric_bike", "lon": -77.13145616666667, "bike_id": "8b34d737af60f9252fc28f4b03370918", "fusion_lat": 0.0, "name": "8b34d737af60f9252fc28f4b03370918", "is_reserved": 0, "rental_uris": {"android": "https://dc.lft.to/lastmile_qr_scan", "ios": "https://dc.lft.to/lastmile_qr_scan"}, "fusion_lon": 0.0}, {"lat": 38.8723415, "is_disabled": 0, "type": "electric_bike", "lon": -77.01183283333333, "bike_id": "528734e71e0a5f6ef178e502e78bbd97", "fusion_lat": 0.0, "name": "528734e71e0a5f6ef178e502e78bbd97", "is_reserved": 0, "rental_uris": {"android": "https://dc.lft.to/lastmile_qr_scan", "ios": "https://dc.lft.to/lastmile_qr_scan"}, "fusion_lon": 0.0}, {"lat": 38.895646166666666, "is_disabled": 0, "type": "electric_scooter", "lon": -77.02577733333334, "bike_id": "8b46661d59b7560223a24b02e4a56d71", "fusion_lat": 0.0, "name": "8b46661d59b7560223a24b02e4a56d71", "is_reserved": 0, "rental_uris": {"android": "https://dc.lft.to/lastmile_qr_scan", "ios": "https://dc.lft.to/lastmile_qr_scan"}, "fusion_lon": 0.0}, {"lat": 38.910144333333335, "is_disabled": 0, "type": "electric_scooter", "lon": -77.08894916666667, "bike_id": "e582f155b76f3139513a63aa0c05da07", "fusion_lat": 0.0, "name": "e582f155b76f3139513a63aa0c05da07", "is_reserved": 0, "rental_uris": {"android": "https://dc.lft.to/lastmile_qr_scan", "ios": "https://dc.lft.to/lastmile_qr_scan"}, "fusion_lon": 0.0}, {"lat": 38.95098083333333, "is_disabled": 0, "type": "electric_scooter", "lon": -77.02338183333333, "bike_id": "af9d6fa7bd48a8dce45204fb2f5785fd", "fusion_lat": 0.0, "name": "af9d6fa7bd48a8dce45204fb2f5785fd", "is_reserved": 0, "rental_uris": {"android": "https://dc.lft.to/lastmile_qr_scan", "ios": "https://dc.lft.to/lastmile_qr_scan"}, "fusion_lon": 0.0}, {"lat": 38.921611, "is_disabled": 0, "type": "electric_scooter", "lon": -77.033863, "bike_id": "302e25a72795cfc81d4b278099ab5e43", "fusion_lat": 0.0, "name": "302e25a72795cfc81d4b278099ab5e43", "is_reserved": 0, "rental_uris": {"android": "https://dc.lft.to/lastmile_qr_scan", "ios": "https://dc.lft.to/lastmile_qr_scan"}, "fusion_lon": 0.0}, {"lat": 38.9008785, "is_disabled": 0, "type": "electric_scooter", "lon": -77.003474, "bike_id": "574d5413abea6f4585431ab7ab350c93", "fusion_lat": 0.0, "name": "574d5413abea6f4585431ab7ab350c93", "is_reserved": 0, "rental_uris": {"android": "https://dc.lft.to/lastmile_qr_scan", "ios": "https://dc.lft.to/lastmile_qr_scan"}, "fusion_lon": 0.0}, {"lat": 38.91787166666667, "is_disabled": 0, "type": "electric_bike", "lon": -76.9718665, "bike_id": "f5973205bf97060c497ca3eab96b7aac", "fusion_lat": 0.0, "name": "f5973205bf97060c497ca3eab96b7aac", "is_reserved": 0, "rental_uris": {"android": "https://dc.lft.to/lastmile_qr_scan", "ios": "https://dc.lft.to/lastmile_qr_scan"}, "fusion_lon": 0.0}, {"lat": 38.92491533333333, "is_disabled": 0, "type": "electric_scooter", "lon": -77.03935583333333, "bike_id": "ad756edb202ecf76fce6c7872115ea76", "fusion_lat": 0.0, "name": "ad756edb202ecf76fce6c7872115ea76", "is_reserved": 0, "rental_uris": {"android": "https://dc.lft.to/lastmile_qr_scan", "ios": "https://dc.lft.to/lastmile_qr_scan"}, "fusion_lon": 0.0}, {"lat": 38.84433383333333, "is_disabled": 0, "type": "electric_scooter", "lon": -76.998138, "bike_id": "ad3be7d30dac71f7852232c3deb94019", "fusion_lat": 0.0, "name": "ad3be7d30dac71f7852232c3deb94019", "is_reserved": 0, "rental_uris": {"android": "https://dc.lft.to/lastmile_qr_scan", "ios": "https://dc.lft.to/lastmile_qr_scan"}, "fusion_lon": 0.0}, {"lat": 38.9077785, "is_disabled": 0, "type": "electric_scooter", "lon": -77.03860783333333, "bike_id": "caed9b5fa09ae2fd22055f9c6cea9e65", "fusion_lat": 0.0, "name": "caed9b5fa09ae2fd22055f9c6cea9e65", "is_reserved": 0, "rental_uris": {"android": "https://dc.lft.to/lastmile_qr_scan", "ios": "https://dc.lft.to/lastmile_qr_scan"}, "fusion_lon": 0.0}, {"lat": 38.901518, "is_disabled": 0, "type": "electric_scooter", "lon": -77.0256575, "bike_id": "36393d3e62e57d02687f2d87203b56ed", "fusion_lat": 0.0, "name": "36393d3e62e57d02687f2d87203b56ed", "is_reserved": 0, "rental_uris": {"android": "https://dc.lft.to/lastmile_qr_scan", "ios": "https://dc.lft.to/lastmile_qr_scan"}, "fusion_lon": 0.0}, {"lat": 38.91975766666667, "is_disabled": 0, "type": "electric_scooter", "lon": -77.02397816666667, "bike_id": "d0b59644345181edfa8216be9db7aa93", "fusion_lat": 0.0, "name": "d0b59644345181edfa8216be9db7aa93", "is_reserved": 0, "rental_uris": {"android": "https://dc.lft.to/lastmile_qr_scan", "ios": "https://dc.lft.to/lastmile_qr_scan"}, "fusion_lon": 0.0}, {"lat": 38.810551833333335, "is_disabled": 0, "type": "electric_bike", "lon": -77.08507033333333, "bike_id": "3c241b47e36537e1bc99c227cfe75077", "fusion_lat": 0.0, "name": "3c241b47e36537e1bc99c227cfe75077", "is_reserved": 0, "rental_uris": {"android": "https://dc.lft.to/lastmile_qr_scan", "ios": "https://dc.lft.to/lastmile_qr_scan"}, "fusion_lon": 0.0}, {"lat": 38.9155455, "is_disabled": 0, "type": "electric_scooter", "lon": -77.0097505, "bike_id": "758a5196d95887297eaa95c073f1269e", "fusion_lat": 0.0, "name": "758a5196d95887297eaa95c073f1269e", "is_reserved": 0, "rental_uris": {"android": "https://dc.lft.to/lastmile_qr_scan", "ios": "https://dc.lft.to/lastmile_qr_scan"}, "fusion_lon": 0.0}, {"lat": 38.8998875, "is_disabled": 0, "type": "electric_scooter", "lon": -77.01905366666666, "bike_id": "906ea14d3ab17e51e9c74092f8a1e03a", "fusion_lat": 0.0, "name": "906ea14d3ab17e51e9c74092f8a1e03a", "is_reserved": 0, "rental_uris": {"android": "https://dc.lft.to/lastmile_qr_scan", "ios": "https://dc.lft.to/lastmile_qr_scan"}, "fusion_lon": 0.0}, {"lat": 38.854326666666665, "is_disabled": 0, "type": "electric_bike", "lon": -76.90961366666667, "bike_id": "13914b2e30109a00942bd1621702cf77", "fusion_lat": 0.0, "name": "13914b2e30109a00942bd1621702cf77", "is_reserved": 0, "rental_uris": {"android": "https://dc.lft.to/lastmile_qr_scan", "ios": "https://dc.lft.to/lastmile_qr_scan"}, "fusion_lon": 0.0}, {"lat": 38.94599683333333, "is_disabled": 0, "type": "electric_scooter", "lon": -77.07035783333333, "bike_id": "599ccce4654a850c056ad54c02ecf84f", "fusion_lat": 0.0, "name": "599ccce4654a850c056ad54c02ecf84f", "is_reserved": 0, "rental_uris": {"android": "https://dc.lft.to/lastmile_qr_scan", "ios": "https://dc.lft.to/lastmile_qr_scan"}, "fusion_lon": 0.0}, {"lat": 38.9238185, "is_disabled": 0, "type": "electric_scooter", "lon": -77.0276485, "bike_id": "c88bddc16c9a7923075927cd42095015", "fusion_lat": 0.0, "name": "c88bddc16c9a7923075927cd42095015", "is_reserved": 0, "rental_uris": {"android": "https://dc.lft.to/lastmile_qr_scan", "ios": "https://dc.lft.to/lastmile_qr_scan"}, "fusion_lon": 0.0}, {"lat": 38.904905666666664, "is_disabled": 0, "type": "electric_scooter", "lon": -76.99540983333333, "bike_id": "3ca6b5decdc2fcdbe4c3f04751f34b0e", "fusion_lat": 0.0, "name": "3ca6b5decdc2fcdbe4c3f04751f34b0e", "is_reserved": 0, "rental_uris": {"android": "https://dc.lft.to/lastmile_qr_scan", "ios": "https://dc.lft.to/lastmile_qr_scan"}, "fusion_lon": 0.0}, {"lat": 38.921091833333335, "is_disabled": 0, "type": "electric_scooter", "lon": -77.042093, "bike_id": "bd175124d020d4e854a9e01d69e66653", "fusion_lat": 0.0, "name": "bd175124d020d4e854a9e01d69e66653", "is_reserved": 0, "rental_uris": {"android": "https://dc.lft.to/lastmile_qr_scan", "ios": "https://dc.lft.to/lastmile_qr_scan"}, "fusion_lon": 0.0}, {"lat": 38.893632333333336, "is_disabled": 0, "type": "electric_scooter", "lon": -76.991099, "bike_id": "e2c5235873606d45d150b76ab7444095", "fusion_lat": 0.0, "name": "e2c5235873606d45d150b76ab7444095", "is_reserved": 0, "rental_uris": {"android": "https://dc.lft.to/lastmile_qr_scan", "ios": "https://dc.lft.to/lastmile_qr_scan"}, "fusion_lon": 0.0}, {"lat": 38.90571083333333, "is_disabled": 0, "type": "electric_scooter", "lon": -76.98171183333334, "bike_id": "2c3d89ab46e8bc333ade2a21bf3a6e91", "fusion_lat": 0.0, "name": "2c3d89ab46e8bc333ade2a21bf3a6e91", "is_reserved": 0, "rental_uris": {"android": "https://dc.lft.to/lastmile_qr_scan", "ios": "https://dc.lft.to/lastmile_qr_scan"}, "fusion_lon": 0.0}, {"lat": 38.93690333333333, "is_disabled": 0, "type": "electric_scooter", "lon": -77.05992583333334, "bike_id": "b1ce146dd74104fce56e3ff09022b07b", "fusion_lat": 0.0, "name": "b1ce146dd74104fce56e3ff09022b07b", "is_reserved": 0, "rental_uris": {"android": "https://dc.lft.to/lastmile_qr_scan", "ios": "https://dc.lft.to/lastmile_qr_scan"}, "fusion_lon": 0.0}, {"lat": 38.9305325, "is_disabled": 0, "type": "electric_scooter", "lon": -77.04186066666666, "bike_id": "79eb14e0647a136f6fa58d9d1febdd7d", "fusion_lat": 0.0, "name": "79eb14e0647a136f6fa58d9d1febdd7d", "is_reserved": 0, "rental_uris": {"android": "https://dc.lft.to/lastmile_qr_scan", "ios": "https://dc.lft.to/lastmile_qr_scan"}, "fusion_lon": 0.0}, {"lat": 38.90584116666667, "is_disabled": 0, "type": "electric_scooter", "lon": -77.062812, "bike_id": "64de690280d0d5cbd4917a747bbc4e2e", "fusion_lat": 0.0, "name": "64de690280d0d5cbd4917a747bbc4e2e", "is_reserved": 0, "rental_uris": {"android": "https://dc.lft.to/lastmile_qr_scan", "ios": "https://dc.lft.to/lastmile_qr_scan"}, "fusion_lon": 0.0}, {"lat": 38.9085995, "is_disabled": 0, "type": "electric_scooter", "lon": -76.99163333333334, "bike_id": "46f0d7b4379f70b52c87a04960fe42fb", "fusion_lat": 0.0, "name": "46f0d7b4379f70b52c87a04960fe42fb", "is_reserved": 0, "rental_uris": {"android": "https://dc.lft.to/lastmile_qr_scan", "ios": "https://dc.lft.to/lastmile_qr_scan"}, "fusion_lon": 0.0}, {"lat": 38.8912655, "is_disabled": 0, "type": "electric_scooter", "lon": -76.94384783333334, "bike_id": "0476ec9ff018724a50b0b3a963d96693", "fusion_lat": 0.0, "name": "0476ec9ff018724a50b0b3a963d96693", "is_reserved": 0, "rental_uris": {"android": "https://dc.lft.to/lastmile_qr_scan", "ios": "https://dc.lft.to/lastmile_qr_scan"}, "fusion_lon": 0.0}, {"lat": 38.90052716666667, "is_disabled": 0, "type": "electric_scooter", "lon": -76.99368866666667, "bike_id": "3160472ed079055f581b655430ff0b0e", "fusion_lat": 0.0, "name": "3160472ed079055f581b655430ff0b0e", "is_reserved": 0, "rental_uris": {"android": "https://dc.lft.to/lastmile_qr_scan", "ios": "https://dc.lft.to/lastmile_qr_scan"}, "fusion_lon": 0.0}, {"lat": 38.91530433333333, "is_disabled": 0, "type": "electric_scooter", "lon": -77.0199705, "bike_id": "5392e9c65f1650d2ddcdd8f0718700a6", "fusion_lat": 0.0, "name": "5392e9c65f1650d2ddcdd8f0718700a6", "is_reserved": 0, "rental_uris": {"android": "https://dc.lft.to/lastmile_qr_scan", "ios": "https://dc.lft.to/lastmile_qr_scan"}, "fusion_lon": 0.0}, {"lat": 38.89915883333333, "is_disabled": 0, "type": "electric_scooter", "lon": -76.93343516666667, "bike_id": "4599745dc23784c23fe5ab5afd7d1c37", "fusion_lat": 0.0, "name": "4599745dc23784c23fe5ab5afd7d1c37", "is_reserved": 0, "rental_uris": {"android": "https://dc.lft.to/lastmile_qr_scan", "ios": "https://dc.lft.to/lastmile_qr_scan"}, "fusion_lon": 0.0}, {"lat": 38.9228535, "is_disabled": 0, "type": "electric_scooter", "lon": -77.04241666666667, "bike_id": "99c42358a9b97e76c3709043d25849af", "fusion_lat": 0.0, "name": "99c42358a9b97e76c3709043d25849af", "is_reserved": 0, "rental_uris": {"android": "https://dc.lft.to/lastmile_qr_scan", "ios": "https://dc.lft.to/lastmile_qr_scan"}, "fusion_lon": 0.0}, {"lat": 38.9061855, "is_disabled": 0, "type": "electric_scooter", "lon": -76.98988333333334, "bike_id": "d376a9b887848cefdc880eb6f6ef3c0f", "fusion_lat": 0.0, "name": "d376a9b887848cefdc880eb6f6ef3c0f", "is_reserved": 0, "rental_uris": {"android": "https://dc.lft.to/lastmile_qr_scan", "ios": "https://dc.lft.to/lastmile_qr_scan"}, "fusion_lon": 0.0}, {"lat": 38.859072, "is_disabled": 0, "type": "electric_scooter", "lon": -76.99150716666666, "bike_id": "947318ec1dfa8e84d631599dd29f1a97", "fusion_lat": 0.0, "name": "947318ec1dfa8e84d631599dd29f1a97", "is_reserved": 0, "rental_uris": {"android": "https://dc.lft.to/lastmile_qr_scan", "ios": "https://dc.lft.to/lastmile_qr_scan"}, "fusion_lon": 0.0}, {"lat": 38.89840133333333, "is_disabled": 0, "type": "electric_scooter", "lon": -77.02261216666666, "bike_id": "6cf0d71c5728332c9a0bc8c9c642bfbb", "fusion_lat": 0.0, "name": "6cf0d71c5728332c9a0bc8c9c642bfbb", "is_reserved": 0, "rental_uris": {"android": "https://dc.lft.to/lastmile_qr_scan", "ios": "https://dc.lft.to/lastmile_qr_scan"}, "fusion_lon": 0.0}, {"lat": 38.915712, "is_disabled": 0, "type": "electric_scooter", "lon": -77.03219616666667, "bike_id": "60c9104667b21c46594515dd30c3e797", "fusion_lat": 0.0, "name": "60c9104667b21c46594515dd30c3e797", "is_reserved": 0, "rental_uris": {"android": "https://dc.lft.to/lastmile_qr_scan", "ios": "https://dc.lft.to/lastmile_qr_scan"}, "fusion_lon": 0.0}, {"lat": 38.89168683333333, "is_disabled": 0, "type": "electric_bike", "lon": -77.0338545, "bike_id": "b0dfff5620b615e0720014ca6d0f0500", "fusion_lat": 0.0, "name": "b0dfff5620b615e0720014ca6d0f0500", "is_reserved": 0, "rental_uris": {"android": "https://dc.lft.to/lastmile_qr_scan", "ios": "https://dc.lft.to/lastmile_qr_scan"}, "fusion_lon": 0.0}, {"lat": 38.9274835, "is_disabled": 0, "type": "electric_scooter", "lon": -77.025381, "bike_id": "78d3728b0296059b6fd7eb99d79c1f60", "fusion_lat": 0.0, "name": "78d3728b0296059b6fd7eb99d79c1f60", "is_reserved": 0, "rental_uris": {"android": "https://dc.lft.to/lastmile_qr_scan", "ios": "https://dc.lft.to/lastmile_qr_scan"}, "fusion_lon": 0.0}, {"lat": 38.89434983333334, "is_disabled": 0, "type": "electric_scooter", "lon": -77.03200566666666, "bike_id": "d97a091e08e57519c5e11116830526db", "fusion_lat": 0.0, "name": "d97a091e08e57519c5e11116830526db", "is_reserved": 0, "rental_uris": {"android": "https://dc.lft.to/lastmile_qr_scan", "ios": "https://dc.lft.to/lastmile_qr_scan"}, "fusion_lon": 0.0}, {"lat": 38.934357166666665, "is_disabled": 0, "type": "electric_scooter", "lon": -76.96514033333334, "bike_id": "344c4bf7446713f5b4ee1fbce5501503", "fusion_lat": 0.0, "name": "344c4bf7446713f5b4ee1fbce5501503", "is_reserved": 0, "rental_uris": {"android": "https://dc.lft.to/lastmile_qr_scan", "ios": "https://dc.lft.to/lastmile_qr_scan"}, "fusion_lon": 0.0}, {"lat": 38.915554, "is_disabled": 0, "type": "electric_scooter", "lon": -77.03134866666667, "bike_id": "9413e1f3abbd91440bd142f0101ed557", "fusion_lat": 0.0, "name": "9413e1f3abbd91440bd142f0101ed557", "is_reserved": 0, "rental_uris": {"android": "https://dc.lft.to/lastmile_qr_scan", "ios": "https://dc.lft.to/lastmile_qr_scan"}, "fusion_lon": 0.0}, {"lat": 38.9002025, "is_disabled": 0, "type": "electric_scooter", "lon": -77.00219333333334, "bike_id": "1db55046300052b7822b64545fa5994b", "fusion_lat": 0.0, "name": "1db55046300052b7822b64545fa5994b", "is_reserved": 0, "rental_uris": {"android": "https://dc.lft.to/lastmile_qr_scan", "ios": "https://dc.lft.to/lastmile_qr_scan"}, "fusion_lon": 0.0}, {"lat": 38.933771666666665, "is_disabled": 0, "type": "electric_scooter", "lon": -77.03554083333333, "bike_id": "c3119107e4f5add9fb5cf105eb8ef21c", "fusion_lat": 0.0, "name": "c3119107e4f5add9fb5cf105eb8ef21c", "is_reserved": 0, "rental_uris": {"android": "https://dc.lft.to/lastmile_qr_scan", "ios": "https://dc.lft.to/lastmile_qr_scan"}, "fusion_lon": 0.0}, {"lat": 38.884663833333335, "is_disabled": 0, "type": "electric_scooter", "lon": -76.92955633333334, "bike_id": "f1e77b4e97364c28add726705737d90d", "fusion_lat": 0.0, "name": "f1e77b4e97364c28add726705737d90d", "is_reserved": 0, "rental_uris": {"android": "https://dc.lft.to/lastmile_qr_scan", "ios": "https://dc.lft.to/lastmile_qr_scan"}, "fusion_lon": 0.0}, {"lat": 38.8753915, "is_disabled": 0, "type": "electric_scooter", "lon": -77.00542983333334, "bike_id": "77716197573a8de46a65f965fe74d72c", "fusion_lat": 0.0, "name": "77716197573a8de46a65f965fe74d72c", "is_reserved": 0, "rental_uris": {"android": "https://dc.lft.to/lastmile_qr_scan", "ios": "https://dc.lft.to/lastmile_qr_scan"}, "fusion_lon": 0.0}, {"lat": 38.9318, "is_disabled": 0, "type": "electric_scooter", "lon": -77.02369116666667, "bike_id": "11c01d11f3c23a46f7d7bd0e90d734c3", "fusion_lat": 0.0, "name": "11c01d11f3c23a46f7d7bd0e90d734c3", "is_reserved": 0, "rental_uris": {"android": "https://dc.lft.to/lastmile_qr_scan", "ios": "https://dc.lft.to/lastmile_qr_scan"}, "fusion_lon": 0.0}, {"lat": 38.88608216666667, "is_disabled": 0, "type": "electric_scooter", "lon": -77.01892583333333, "bike_id": "134aa4841643cb46ce0a00c4237f995e", "fusion_lat": 0.0, "name": "134aa4841643cb46ce0a00c4237f995e", "is_reserved": 0, "rental_uris": {"android": "https://dc.lft.to/lastmile_qr_scan", "ios": "https://dc.lft.to/lastmile_qr_scan"}, "fusion_lon": 0.0}, {"lat": 38.8854745, "is_disabled": 0, "type": "electric_bike", "lon": -77.11786266666667, "bike_id": "2202ced8b2f23af17782a1b2d779c99b", "fusion_lat": 0.0, "name": "2202ced8b2f23af17782a1b2d779c99b", "is_reserved": 0, "rental_uris": {"android": "https://dc.lft.to/lastmile_qr_scan", "ios": "https://dc.lft.to/lastmile_qr_scan"}, "fusion_lon": 0.0}, {"lat": 38.91958066666667, "is_disabled": 0, "type": "electric_scooter", "lon": -77.01443833333333, "bike_id": "cab8fb123236e4ac2205cf072b4f9ea6", "fusion_lat": 0.0, "name": "cab8fb123236e4ac2205cf072b4f9ea6", "is_reserved": 0, "rental_uris": {"android": "https://dc.lft.to/lastmile_qr_scan", "ios": "https://dc.lft.to/lastmile_qr_scan"}, "fusion_lon": 0.0}, {"lat": 38.9024915, "is_disabled": 0, "type": "electric_scooter", "lon": -77.02897366666667, "bike_id": "757b0ed3c02937d19576546dbb9d2e1a", "fusion_lat": 0.0, "name": "757b0ed3c02937d19576546dbb9d2e1a", "is_reserved": 0, "rental_uris": {"android": "https://dc.lft.to/lastmile_qr_scan", "ios": "https://dc.lft.to/lastmile_qr_scan"}, "fusion_lon": 0.0}, {"lat": 38.89901233333333, "is_disabled": 0, "type": "electric_scooter", "lon": -77.03940233333333, "bike_id": "c2e484f5c127125070911c07059b30f0", "fusion_lat": 0.0, "name": "c2e484f5c127125070911c07059b30f0", "is_reserved": 0, "rental_uris": {"android": "https://dc.lft.to/lastmile_qr_scan", "ios": "https://dc.lft.to/lastmile_qr_scan"}, "fusion_lon": 0.0}, {"lat": 38.886771, "is_disabled": 0, "type": "electric_bike", "lon": -77.16241666666667, "bike_id": "d654ede11efd2425373efa7865e14258", "fusion_lat": 0.0, "name": "d654ede11efd2425373efa7865e14258", "is_reserved": 0, "rental_uris": {"android": "https://dc.lft.to/lastmile_qr_scan", "ios": "https://dc.lft.to/lastmile_qr_scan"}, "fusion_lon": 0.0}, {"lat": 38.95704533333333, "is_disabled": 0, "type": "electric_scooter", "lon": -77.024076, "bike_id": "a13a7232c29dc3fd1c114343bdc7d218", "fusion_lat": 0.0, "name": "a13a7232c29dc3fd1c114343bdc7d218", "is_reserved": 0, "rental_uris": {"android": "https://dc.lft.to/lastmile_qr_scan", "ios": "https://dc.lft.to/lastmile_qr_scan"}, "fusion_lon": 0.0}, {"lat": 38.913506, "is_disabled": 0, "type": "electric_scooter", "lon": -77.03185566666667, "bike_id": "446a01fd5d4ee0e61b89234253cde789", "fusion_lat": 0.0, "name": "446a01fd5d4ee0e61b89234253cde789", "is_reserved": 0, "rental_uris": {"android": "https://dc.lft.to/lastmile_qr_scan", "ios": "https://dc.lft.to/lastmile_qr_scan"}, "fusion_lon": 0.0}, {"lat": 38.87731733333333, "is_disabled": 0, "type": "electric_bike", "lon": -77.1185235, "bike_id": "6c851d5d5722bea7f7664e2574a308ab", "fusion_lat": 0.0, "name": "6c851d5d5722bea7f7664e2574a308ab", "is_reserved": 0, "rental_uris": {"android": "https://dc.lft.to/lastmile_qr_scan", "ios": "https://dc.lft.to/lastmile_qr_scan"}, "fusion_lon": 0.0}, {"lat": 38.8637275, "is_disabled": 0, "type": "electric_scooter", "lon": -76.9904635, "bike_id": "b72ce35c27c7866e98d64f2f30deb239", "fusion_lat": 0.0, "name": "b72ce35c27c7866e98d64f2f30deb239", "is_reserved": 0, "rental_uris": {"android": "https://dc.lft.to/lastmile_qr_scan", "ios": "https://dc.lft.to/lastmile_qr_scan"}, "fusion_lon": 0.0}, {"lat": 38.95184533333333, "is_disabled": 0, "type": "electric_bike", "lon": -76.93545866666666, "bike_id": "7190e172b172618e1c52d77e48da7e15", "fusion_lat": 0.0, "name": "7190e172b172618e1c52d77e48da7e15", "is_reserved": 0, "rental_uris": {"android": "https://dc.lft.to/lastmile_qr_scan", "ios": "https://dc.lft.to/lastmile_qr_scan"}, "fusion_lon": 0.0}, {"lat": 38.91109983333333, "is_disabled": 0, "type": "electric_scooter", "lon": -77.0362465, "bike_id": "e5ef60dc4f30da7384e11d222710d5ce", "fusion_lat": 0.0, "name": "e5ef60dc4f30da7384e11d222710d5ce", "is_reserved": 0, "rental_uris": {"android": "https://dc.lft.to/lastmile_qr_scan", "ios": "https://dc.lft.to/lastmile_qr_scan"}, "fusion_lon": 0.0}, {"lat": 38.920492, "is_disabled": 0, "type": "electric_scooter", "lon": -77.041952, "bike_id": "40290eec349b7d9ace5c59564e0b96d4", "fusion_lat": 0.0, "name": "40290eec349b7d9ace5c59564e0b96d4", "is_reserved": 0, "rental_uris": {"android": "https://dc.lft.to/lastmile_qr_scan", "ios": "https://dc.lft.to/lastmile_qr_scan"}, "fusion_lon": 0.0}, {"lat": 38.87080916666667, "is_disabled": 0, "type": "electric_scooter", "lon": -77.01188533333334, "bike_id": "274a174f2ab70ec66c0073ecd8e2462b", "fusion_lat": 0.0, "name": "274a174f2ab70ec66c0073ecd8e2462b", "is_reserved": 0, "rental_uris": {"android": "https://dc.lft.to/lastmile_qr_scan", "ios": "https://dc.lft.to/lastmile_qr_scan"}, "fusion_lon": 0.0}, {"lat": 38.920602, "is_disabled": 0, "type": "electric_scooter", "lon": -77.04372966666666, "bike_id": "f71f79c8b404bd8db3ebacb7d59f4eaf", "fusion_lat": 0.0, "name": "f71f79c8b404bd8db3ebacb7d59f4eaf", "is_reserved": 0, "rental_uris": {"android": "https://dc.lft.to/lastmile_qr_scan", "ios": "https://dc.lft.to/lastmile_qr_scan"}, "fusion_lon": 0.0}, {"lat": 38.917423, "is_disabled": 0, "type": "electric_scooter", "lon": -77.03186516666666, "bike_id": "7355f76a3ae14c6c73895790b1bc4f6b", "fusion_lat": 0.0, "name": "7355f76a3ae14c6c73895790b1bc4f6b", "is_reserved": 0, "rental_uris": {"android": "https://dc.lft.to/lastmile_qr_scan", "ios": "https://dc.lft.to/lastmile_qr_scan"}, "fusion_lon": 0.0}, {"lat": 38.921271833333336, "is_disabled": 0, "type": "electric_scooter", "lon": -77.04579166666667, "bike_id": "0d136f49f743a25d5342aa4b69eacb96", "fusion_lat": 0.0, "name": "0d136f49f743a25d5342aa4b69eacb96", "is_reserved": 0, "rental_uris": {"android": "https://dc.lft.to/lastmile_qr_scan", "ios": "https://dc.lft.to/lastmile_qr_scan"}, "fusion_lon": 0.0}, {"lat": 38.93915766666667, "is_disabled": 0, "type": "electric_scooter", "lon": -77.06673433333333, "bike_id": "f3a81cf5e1fccab6c8cf473d2ea14d8a", "fusion_lat": 0.0, "name": "f3a81cf5e1fccab6c8cf473d2ea14d8a", "is_reserved": 0, "rental_uris": {"android": "https://dc.lft.to/lastmile_qr_scan", "ios": "https://dc.lft.to/lastmile_qr_scan"}, "fusion_lon": 0.0}, {"lat": 38.905078333333336, "is_disabled": 0, "type": "electric_scooter", "lon": -77.041726, "bike_id": "d567d9e6b20c6f45ba093d69be510690", "fusion_lat": 0.0, "name": "d567d9e6b20c6f45ba093d69be510690", "is_reserved": 0, "rental_uris": {"android": "https://dc.lft.to/lastmile_qr_scan", "ios": "https://dc.lft.to/lastmile_qr_scan"}, "fusion_lon": 0.0}, {"lat": 38.925828, "is_disabled": 0, "type": "electric_scooter", "lon": -77.05273616666666, "bike_id": "f5794b8755d5cf1d96dc53916bcc9792", "fusion_lat": 0.0, "name": "f5794b8755d5cf1d96dc53916bcc9792", "is_reserved": 0, "rental_uris": {"android": "https://dc.lft.to/lastmile_qr_scan", "ios": "https://dc.lft.to/lastmile_qr_scan"}, "fusion_lon": 0.0}, {"lat": 38.928870833333335, "is_disabled": 0, "type": "electric_scooter", "lon": -77.057487, "bike_id": "45e6275442545a95c9bdddf2dc4a74a6", "fusion_lat": 0.0, "name": "45e6275442545a95c9bdddf2dc4a74a6", "is_reserved": 0, "rental_uris": {"android": "https://dc.lft.to/lastmile_qr_scan", "ios": "https://dc.lft.to/lastmile_qr_scan"}, "fusion_lon": 0.0}, {"lat": 38.90863383333333, "is_disabled": 0, "type": "electric_bike", "lon": -76.94010216666666, "bike_id": "01aa51dd793f9c977a2094736e683bb8", "fusion_lat": 0.0, "name": "01aa51dd793f9c977a2094736e683bb8", "is_reserved": 0, "rental_uris": {"android": "https://dc.lft.to/lastmile_qr_scan", "ios": "https://dc.lft.to/lastmile_qr_scan"}, "fusion_lon": 0.0}, {"lat": 38.8671285, "is_disabled": 0, "type": "electric_scooter", "lon": -76.98727916666667, "bike_id": "7010fe8b8e0db38232f9946216d9e1dd", "fusion_lat": 0.0, "name": "7010fe8b8e0db38232f9946216d9e1dd", "is_reserved": 0, "rental_uris": {"android": "https://dc.lft.to/lastmile_qr_scan", "ios": "https://dc.lft.to/lastmile_qr_scan"}, "fusion_lon": 0.0}, {"lat": 38.905887166666666, "is_disabled": 0, "type": "electric_scooter", "lon": -76.986211, "bike_id": "893b6a4758f85e5864ed7b4f3c35caad", "fusion_lat": 0.0, "name": "893b6a4758f85e5864ed7b4f3c35caad", "is_reserved": 0, "rental_uris": {"android": "https://dc.lft.to/lastmile_qr_scan", "ios": "https://dc.lft.to/lastmile_qr_scan"}, "fusion_lon": 0.0}, {"lat": 38.90674666666666, "is_disabled": 0, "type": "electric_scooter", "lon": -77.04189133333334, "bike_id": "7721167ca84b18ad85b818e40c767156", "fusion_lat": 0.0, "name": "7721167ca84b18ad85b818e40c767156", "is_reserved": 0, "rental_uris": {"android": "https://dc.lft.to/lastmile_qr_scan", "ios": "https://dc.lft.to/lastmile_qr_scan"}, "fusion_lon": 0.0}, {"lat": 38.95893816666667, "is_disabled": 0, "type": "electric_bike", "lon": -76.92485583333334, "bike_id": "8e84a5ee203cec5ea6420a756869930c", "fusion_lat": 0.0, "name": "8e84a5ee203cec5ea6420a756869930c", "is_reserved": 0, "rental_uris": {"android": "https://dc.lft.to/lastmile_qr_scan", "ios": "https://dc.lft.to/lastmile_qr_scan"}, "fusion_lon": 0.0}, {"lat": 38.940416666666664, "is_disabled": 0, "type": "electric_bike", "lon": -77.05163116666667, "bike_id": "b299041f8e3eecf1d64534af7f4495dd", "fusion_lat": 0.0, "name": "b299041f8e3eecf1d64534af7f4495dd", "is_reserved": 0, "rental_uris": {"android": "https://dc.lft.to/lastmile_qr_scan", "ios": "https://dc.lft.to/lastmile_qr_scan"}, "fusion_lon": 0.0}, {"lat": 38.92908766666667, "is_disabled": 0, "type": "electric_scooter", "lon": -77.0318955, "bike_id": "a1f9970d716064f96a2b23b56fd3e51a", "fusion_lat": 0.0, "name": "a1f9970d716064f96a2b23b56fd3e51a", "is_reserved": 0, "rental_uris": {"android": "https://dc.lft.to/lastmile_qr_scan", "ios": "https://dc.lft.to/lastmile_qr_scan"}, "fusion_lon": 0.0}, {"lat": 38.920664, "is_disabled": 0, "type": "electric_scooter", "lon": -77.02498483333333, "bike_id": "b94bf6957d6c9784793ad0ece9f5dd69", "fusion_lat": 0.0, "name": "b94bf6957d6c9784793ad0ece9f5dd69", "is_reserved": 0, "rental_uris": {"android": "https://dc.lft.to/lastmile_qr_scan", "ios": "https://dc.lft.to/lastmile_qr_scan"}, "fusion_lon": 0.0}, {"lat": 38.89047133333333, "is_disabled": 0, "type": "electric_scooter", "lon": -76.94078, "bike_id": "454a790492b711a3d85f7b892796ea9d", "fusion_lat": 0.0, "name": "454a790492b711a3d85f7b892796ea9d", "is_reserved": 0, "rental_uris": {"android": "https://dc.lft.to/lastmile_qr_scan", "ios": "https://dc.lft.to/lastmile_qr_scan"}, "fusion_lon": 0.0}, {"lat": 38.917933, "is_disabled": 0, "type": "electric_scooter", "lon": -77.04446766666666, "bike_id": "280b08a982477f190043f80e799a18d5", "fusion_lat": 0.0, "name": "280b08a982477f190043f80e799a18d5", "is_reserved": 0, "rental_uris": {"android": "https://dc.lft.to/lastmile_qr_scan", "ios": "https://dc.lft.to/lastmile_qr_scan"}, "fusion_lon": 0.0}, {"lat": 38.918193, "is_disabled": 0, "type": "electric_scooter", "lon": -77.03197483333334, "bike_id": "ba934c44ba697640760423238b732dab", "fusion_lat": 0.0, "name": "ba934c44ba697640760423238b732dab", "is_reserved": 0, "rental_uris": {"android": "https://dc.lft.to/lastmile_qr_scan", "ios": "https://dc.lft.to/lastmile_qr_scan"}, "fusion_lon": 0.0}, {"lat": 38.9027765, "is_disabled": 0, "type": "electric_scooter", "lon": -77.036508, "bike_id": "d0783d461ffd382ecd517753b425cd14", "fusion_lat": 0.0, "name": "d0783d461ffd382ecd517753b425cd14", "is_reserved": 0, "rental_uris": {"android": "https://dc.lft.to/lastmile_qr_scan", "ios": "https://dc.lft.to/lastmile_qr_scan"}, "fusion_lon": 0.0}, {"lat": 38.89000166666667, "is_disabled": 0, "type": "electric_scooter", "lon": -77.048897, "bike_id": "39db6559bad59f56c112aa4d16213c82", "fusion_lat": 0.0, "name": "39db6559bad59f56c112aa4d16213c82", "is_reserved": 0, "rental_uris": {"android": "https://dc.lft.to/lastmile_qr_scan", "ios": "https://dc.lft.to/lastmile_qr_scan"}, "fusion_lon": 0.0}, {"lat": 38.92112483333333, "is_disabled": 0, "type": "electric_bike", "lon": -76.98575933333333, "bike_id": "d60dfb54155d2b32fd5370a1de4986f7", "fusion_lat": 0.0, "name": "d60dfb54155d2b32fd5370a1de4986f7", "is_reserved": 0, "rental_uris": {"android": "https://dc.lft.to/lastmile_qr_scan", "ios": "https://dc.lft.to/lastmile_qr_scan"}, "fusion_lon": 0.0}, {"lat": 38.858537166666665, "is_disabled": 0, "type": "electric_bike", "lon": -77.097547, "bike_id": "4f5ec566c5ae4317dc5995a031718ad4", "fusion_lat": 0.0, "name": "4f5ec566c5ae4317dc5995a031718ad4", "is_reserved": 0, "rental_uris": {"android": "https://dc.lft.to/lastmile_qr_scan", "ios": "https://dc.lft.to/lastmile_qr_scan"}, "fusion_lon": 0.0}, {"lat": 38.84814033333333, "is_disabled": 0, "type": "electric_bike", "lon": -77.07910116666666, "bike_id": "96d6bcc16d6179a64af7f74396dea52a", "fusion_lat": 0.0, "name": "96d6bcc16d6179a64af7f74396dea52a", "is_reserved": 0, "rental_uris": {"android": "https://dc.lft.to/lastmile_qr_scan", "ios": "https://dc.lft.to/lastmile_qr_scan"}, "fusion_lon": 0.0}, {"lat": 38.8551515, "is_disabled": 0, "type": "electric_bike", "lon": -76.98414116666666, "bike_id": "96ea739e9b837f5d86fa2ebc50b7f30e", "fusion_lat": 0.0, "name": "96ea739e9b837f5d86fa2ebc50b7f30e", "is_reserved": 0, "rental_uris": {"android": "https://dc.lft.to/lastmile_qr_scan", "ios": "https://dc.lft.to/lastmile_qr_scan"}, "fusion_lon": 0.0}, {"lat": 38.90370583333333, "is_disabled": 0, "type": "electric_scooter", "lon": -77.038897, "bike_id": "67e81a23e5d9908e15f6ea1a9c2beb99", "fusion_lat": 0.0, "name": "67e81a23e5d9908e15f6ea1a9c2beb99", "is_reserved": 0, "rental_uris": {"android": "https://dc.lft.to/lastmile_qr_scan", "ios": "https://dc.lft.to/lastmile_qr_scan"}, "fusion_lon": 0.0}, {"lat": 38.9056225, "is_disabled": 0, "type": "electric_scooter", "lon": -77.02426416666667, "bike_id": "2c94e6649b15d7e38be0ed670416334f", "fusion_lat": 0.0, "name": "2c94e6649b15d7e38be0ed670416334f", "is_reserved": 0, "rental_uris": {"android": "https://dc.lft.to/lastmile_qr_scan", "ios": "https://dc.lft.to/lastmile_qr_scan"}, "fusion_lon": 0.0}, {"lat": 38.897605166666665, "is_disabled": 0, "type": "electric_scooter", "lon": -76.94184466666667, "bike_id": "f666c4e1be6578b332147178de618fb0", "fusion_lat": 0.0, "name": "f666c4e1be6578b332147178de618fb0", "is_reserved": 0, "rental_uris": {"android": "https://dc.lft.to/lastmile_qr_scan", "ios": "https://dc.lft.to/lastmile_qr_scan"}, "fusion_lon": 0.0}, {"lat": 38.90729833333333, "is_disabled": 0, "type": "electric_scooter", "lon": -77.0236955, "bike_id": "c7b5cdc4d06bb32db1a074dd3aab42c5", "fusion_lat": 0.0, "name": "c7b5cdc4d06bb32db1a074dd3aab42c5", "is_reserved": 0, "rental_uris": {"android": "https://dc.lft.to/lastmile_qr_scan", "ios": "https://dc.lft.to/lastmile_qr_scan"}, "fusion_lon": 0.0}, {"lat": 38.90525566666667, "is_disabled": 0, "type": "electric_scooter", "lon": -77.06141316666667, "bike_id": "7f7de738ec8371cc97d5aca79a4c2982", "fusion_lat": 0.0, "name": "7f7de738ec8371cc97d5aca79a4c2982", "is_reserved": 0, "rental_uris": {"android": "https://dc.lft.to/lastmile_qr_scan", "ios": "https://dc.lft.to/lastmile_qr_scan"}, "fusion_lon": 0.0}, {"lat": 38.9026865, "is_disabled": 0, "type": "electric_scooter", "lon": -77.0268625, "bike_id": "ebbe139bb7da2e10c53f2788f79a0b2a", "fusion_lat": 0.0, "name": "ebbe139bb7da2e10c53f2788f79a0b2a", "is_reserved": 0, "rental_uris": {"android": "https://dc.lft.to/lastmile_qr_scan", "ios": "https://dc.lft.to/lastmile_qr_scan"}, "fusion_lon": 0.0}, {"lat": 38.93698933333334, "is_disabled": 0, "type": "electric_scooter", "lon": -77.03264466666667, "bike_id": "448557686a5c9e186f7fd935b48f984c", "fusion_lat": 0.0, "name": "448557686a5c9e186f7fd935b48f984c", "is_reserved": 0, "rental_uris": {"android": "https://dc.lft.to/lastmile_qr_scan", "ios": "https://dc.lft.to/lastmile_qr_scan"}, "fusion_lon": 0.0}, {"lat": 38.88431766666667, "is_disabled": 0, "type": "electric_scooter", "lon": -76.95754266666667, "bike_id": "4febdc8b20a9508be6ac21b0bb9472f3", "fusion_lat": 0.0, "name": "4febdc8b20a9508be6ac21b0bb9472f3", "is_reserved": 0, "rental_uris": {"android": "https://dc.lft.to/lastmile_qr_scan", "ios": "https://dc.lft.to/lastmile_qr_scan"}, "fusion_lon": 0.0}, {"lat": 38.90654766666667, "is_disabled": 0, "type": "electric_scooter", "lon": -77.0488085, "bike_id": "de8a5a226e7836bea8b1c4ff452fa297", "fusion_lat": 0.0, "name": "de8a5a226e7836bea8b1c4ff452fa297", "is_reserved": 0, "rental_uris": {"android": "https://dc.lft.to/lastmile_qr_scan", "ios": "https://dc.lft.to/lastmile_qr_scan"}, "fusion_lon": 0.0}, {"lat": 38.87456616666667, "is_disabled": 0, "type": "electric_scooter", "lon": -77.005433, "bike_id": "df9e0dc3e36085178b171d0d5bcd5545", "fusion_lat": 0.0, "name": "df9e0dc3e36085178b171d0d5bcd5545", "is_reserved": 0, "rental_uris": {"android": "https://dc.lft.to/lastmile_qr_scan", "ios": "https://dc.lft.to/lastmile_qr_scan"}, "fusion_lon": 0.0}, {"lat": 38.911203, "is_disabled": 0, "type": "electric_scooter", "lon": -77.04472183333333, "bike_id": "fd4a6e3cfc1efae07a69f355198093de", "fusion_lat": 0.0, "name": "fd4a6e3cfc1efae07a69f355198093de", "is_reserved": 0, "rental_uris": {"android": "https://dc.lft.to/lastmile_qr_scan", "ios": "https://dc.lft.to/lastmile_qr_scan"}, "fusion_lon": 0.0}, {"lat": 38.92563783333333, "is_disabled": 0, "type": "electric_scooter", "lon": -77.0576005, "bike_id": "8f663854e6ace719bf82b94d1c21064f", "fusion_lat": 0.0, "name": "8f663854e6ace719bf82b94d1c21064f", "is_reserved": 0, "rental_uris": {"android": "https://dc.lft.to/lastmile_qr_scan", "ios": "https://dc.lft.to/lastmile_qr_scan"}, "fusion_lon": 0.0}, {"lat": 38.89741733333334, "is_disabled": 0, "type": "electric_scooter", "lon": -77.04534433333333, "bike_id": "245e2c09c0fc3da44f400c125e1033e9", "fusion_lat": 0.0, "name": "245e2c09c0fc3da44f400c125e1033e9", "is_reserved": 0, "rental_uris": {"android": "https://dc.lft.to/lastmile_qr_scan", "ios": "https://dc.lft.to/lastmile_qr_scan"}, "fusion_lon": 0.0}, {"lat": 38.899109, "is_disabled": 0, "type": "electric_scooter", "lon": -76.93347816666666, "bike_id": "96215a07db285673d866f84d7f40ca37", "fusion_lat": 0.0, "name": "96215a07db285673d866f84d7f40ca37", "is_reserved": 0, "rental_uris": {"android": "https://dc.lft.to/lastmile_qr_scan", "ios": "https://dc.lft.to/lastmile_qr_scan"}, "fusion_lon": 0.0}, {"lat": 38.91787166666667, "is_disabled": 0, "type": "electric_scooter", "lon": -77.04330083333333, "bike_id": "15ad62ab1ea7ea7a83ca82535c130786", "fusion_lat": 0.0, "name": "15ad62ab1ea7ea7a83ca82535c130786", "is_reserved": 0, "rental_uris": {"android": "https://dc.lft.to/lastmile_qr_scan", "ios": "https://dc.lft.to/lastmile_qr_scan"}, "fusion_lon": 0.0}, {"lat": 38.880016833333336, "is_disabled": 0, "type": "electric_scooter", "lon": -76.98545283333333, "bike_id": "1af4979067ec649f4bc573cf4b2dcc16", "fusion_lat": 0.0, "name": "1af4979067ec649f4bc573cf4b2dcc16", "is_reserved": 0, "rental_uris": {"android": "https://dc.lft.to/lastmile_qr_scan", "ios": "https://dc.lft.to/lastmile_qr_scan"}, "fusion_lon": 0.0}, {"lat": 38.932581, "is_disabled": 0, "type": "electric_scooter", "lon": -77.03265416666666, "bike_id": "c9a7ec5cda60afed2e1e298f90b87999", "fusion_lat": 0.0, "name": "c9a7ec5cda60afed2e1e298f90b87999", "is_reserved": 0, "rental_uris": {"android": "https://dc.lft.to/lastmile_qr_scan", "ios": "https://dc.lft.to/lastmile_qr_scan"}, "fusion_lon": 0.0}, {"lat": 38.892639333333335, "is_disabled": 0, "type": "electric_scooter", "lon": -76.94156316666667, "bike_id": "bf7d531855e52ec2786c71dbf5f77952", "fusion_lat": 0.0, "name": "bf7d531855e52ec2786c71dbf5f77952", "is_reserved": 0, "rental_uris": {"android": "https://dc.lft.to/lastmile_qr_scan", "ios": "https://dc.lft.to/lastmile_qr_scan"}, "fusion_lon": 0.0}, {"lat": 38.914524, "is_disabled": 0, "type": "electric_scooter", "lon": -77.03210733333333, "bike_id": "5b20366fc1bbe5ce88cfd5976892ec10", "fusion_lat": 0.0, "name": "5b20366fc1bbe5ce88cfd5976892ec10", "is_reserved": 0, "rental_uris": {"android": "https://dc.lft.to/lastmile_qr_scan", "ios": "https://dc.lft.to/lastmile_qr_scan"}, "fusion_lon": 0.0}, {"lat": 38.9041585, "is_disabled": 0, "type": "electric_scooter", "lon": -77.02079733333333, "bike_id": "e9abe251e79c78a67e42f7aa8189c76c", "fusion_lat": 0.0, "name": "e9abe251e79c78a67e42f7aa8189c76c", "is_reserved": 0, "rental_uris": {"android": "https://dc.lft.to/lastmile_qr_scan", "ios": "https://dc.lft.to/lastmile_qr_scan"}, "fusion_lon": 0.0}, {"lat": 38.80680616666667, "is_disabled": 0, "type": "electric_bike", "lon": -77.08122516666667, "bike_id": "28b9f618f0d96e86c6ef0a9aec3d2d2c", "fusion_lat": 0.0, "name": "28b9f618f0d96e86c6ef0a9aec3d2d2c", "is_reserved": 0, "rental_uris": {"android": "https://dc.lft.to/lastmile_qr_scan", "ios": "https://dc.lft.to/lastmile_qr_scan"}, "fusion_lon": 0.0}, {"lat": 38.897946833333336, "is_disabled": 0, "type": "electric_scooter", "lon": -77.0320445, "bike_id": "61872565a2bb77849b6d2e4fd15007de", "fusion_lat": 0.0, "name": "61872565a2bb77849b6d2e4fd15007de", "is_reserved": 0, "rental_uris": {"android": "https://dc.lft.to/lastmile_qr_scan", "ios": "https://dc.lft.to/lastmile_qr_scan"}, "fusion_lon": 0.0}, {"lat": 38.858115, "is_disabled": 0, "type": "electric_scooter", "lon": -76.98991366666667, "bike_id": "808c1c67bb6e99fb20d27632da3ec01a", "fusion_lat": 0.0, "name": "808c1c67bb6e99fb20d27632da3ec01a", "is_reserved": 0, "rental_uris": {"android": "https://dc.lft.to/lastmile_qr_scan", "ios": "https://dc.lft.to/lastmile_qr_scan"}, "fusion_lon": 0.0}, {"lat": 38.92761766666667, "is_disabled": 0, "type": "electric_scooter", "lon": -77.0231995, "bike_id": "a59445882bf3e838e897f55a9268f0f1", "fusion_lat": 0.0, "name": "a59445882bf3e838e897f55a9268f0f1", "is_reserved": 0, "rental_uris": {"android": "https://dc.lft.to/lastmile_qr_scan", "ios": "https://dc.lft.to/lastmile_qr_scan"}, "fusion_lon": 0.0}, {"lat": 38.9167945, "is_disabled": 0, "type": "electric_scooter", "lon": -77.0297235, "bike_id": "d09e08a2d815ff51906babe1aae6e74c", "fusion_lat": 0.0, "name": "d09e08a2d815ff51906babe1aae6e74c", "is_reserved": 0, "rental_uris": {"android": "https://dc.lft.to/lastmile_qr_scan", "ios": "https://dc.lft.to/lastmile_qr_scan"}, "fusion_lon": 0.0}, {"lat": 38.866602666666665, "is_disabled": 0, "type": "electric_scooter", "lon": -76.98882966666666, "bike_id": "1c2d722450748b16964e371008e948a0", "fusion_lat": 0.0, "name": "1c2d722450748b16964e371008e948a0", "is_reserved": 0, "rental_uris": {"android": "https://dc.lft.to/lastmile_qr_scan", "ios": "https://dc.lft.to/lastmile_qr_scan"}, "fusion_lon": 0.0}, {"lat": 38.907293, "is_disabled": 0, "type": "electric_scooter", "lon": -77.04282166666667, "bike_id": "9bfdd48914bdfce797b368d4bd436570", "fusion_lat": 0.0, "name": "9bfdd48914bdfce797b368d4bd436570", "is_reserved": 0, "rental_uris": {"android": "https://dc.lft.to/lastmile_qr_scan", "ios": "https://dc.lft.to/lastmile_qr_scan"}, "fusion_lon": 0.0}, {"lat": 38.90169216666666, "is_disabled": 0, "type": "electric_scooter", "lon": -77.0259085, "bike_id": "a56b36bdc32dc459d68c3223745d0bb7", "fusion_lat": 0.0, "name": "a56b36bdc32dc459d68c3223745d0bb7", "is_reserved": 0, "rental_uris": {"android": "https://dc.lft.to/lastmile_qr_scan", "ios": "https://dc.lft.to/lastmile_qr_scan"}, "fusion_lon": 0.0}, {"lat": 38.939931, "is_disabled": 0, "type": "electric_scooter", "lon": -77.07177283333333, "bike_id": "51e347ab03aef8608178a43e28e72b20", "fusion_lat": 0.0, "name": "51e347ab03aef8608178a43e28e72b20", "is_reserved": 0, "rental_uris": {"android": "https://dc.lft.to/lastmile_qr_scan", "ios": "https://dc.lft.to/lastmile_qr_scan"}, "fusion_lon": 0.0}, {"lat": 38.97372, "is_disabled": 0, "type": "electric_scooter", "lon": -77.0184835, "bike_id": "12b6ef267d9fa8cd7a10b8f1562397cd", "fusion_lat": 0.0, "name": "12b6ef267d9fa8cd7a10b8f1562397cd", "is_reserved": 0, "rental_uris": {"android": "https://dc.lft.to/lastmile_qr_scan", "ios": "https://dc.lft.to/lastmile_qr_scan"}, "fusion_lon": 0.0}, {"lat": 38.90112516666667, "is_disabled": 0, "type": "electric_scooter", "lon": -77.025276, "bike_id": "a3d8089603e2d881c8ffbe8d7eca7e85", "fusion_lat": 0.0, "name": "a3d8089603e2d881c8ffbe8d7eca7e85", "is_reserved": 0, "rental_uris": {"android": "https://dc.lft.to/lastmile_qr_scan", "ios": "https://dc.lft.to/lastmile_qr_scan"}, "fusion_lon": 0.0}, {"lat": 38.917246666666664, "is_disabled": 0, "type": "electric_scooter", "lon": -77.025092, "bike_id": "ed28cd35b96e465f2a8ee2ced0f1061a", "fusion_lat": 0.0, "name": "ed28cd35b96e465f2a8ee2ced0f1061a", "is_reserved": 0, "rental_uris": {"android": "https://dc.lft.to/lastmile_qr_scan", "ios": "https://dc.lft.to/lastmile_qr_scan"}, "fusion_lon": 0.0}, {"lat": 38.898395666666666, "is_disabled": 0, "type": "electric_scooter", "lon": -77.02257533333334, "bike_id": "53d3d842c759b0ae538bd12485a77209", "fusion_lat": 0.0, "name": "53d3d842c759b0ae538bd12485a77209", "is_reserved": 0, "rental_uris": {"android": "https://dc.lft.to/lastmile_qr_scan", "ios": "https://dc.lft.to/lastmile_qr_scan"}, "fusion_lon": 0.0}, {"lat": 38.909835, "is_disabled": 0, "type": "electric_scooter", "lon": -77.02395833333334, "bike_id": "09ba09b37961db9e981bfec6c749deb9", "fusion_lat": 0.0, "name": "09ba09b37961db9e981bfec6c749deb9", "is_reserved": 0, "rental_uris": {"android": "https://dc.lft.to/lastmile_qr_scan", "ios": "https://dc.lft.to/lastmile_qr_scan"}, "fusion_lon": 0.0}, {"lat": 38.922864, "is_disabled": 0, "type": "electric_scooter", "lon": -77.03200766666667, "bike_id": "8af4642d745b02915634efe9a0e8e716", "fusion_lat": 0.0, "name": "8af4642d745b02915634efe9a0e8e716", "is_reserved": 0, "rental_uris": {"android": "https://dc.lft.to/lastmile_qr_scan", "ios": "https://dc.lft.to/lastmile_qr_scan"}, "fusion_lon": 0.0}, {"lat": 38.855099, "is_disabled": 0, "type": "electric_bike", "lon": -77.12019883333333, "bike_id": "3c26e4acf400c840cecefe12501ac27d", "fusion_lat": 0.0, "name": "3c26e4acf400c840cecefe12501ac27d", "is_reserved": 0, "rental_uris": {"android": "https://dc.lft.to/lastmile_qr_scan", "ios": "https://dc.lft.to/lastmile_qr_scan"}, "fusion_lon": 0.0}, {"lat": 38.905794666666665, "is_disabled": 0, "type": "electric_scooter", "lon": -77.008857, "bike_id": "037074df2b8b6fdde98fee65006206e3", "fusion_lat": 0.0, "name": "037074df2b8b6fdde98fee65006206e3", "is_reserved": 0, "rental_uris": {"android": "https://dc.lft.to/lastmile_qr_scan", "ios": "https://dc.lft.to/lastmile_qr_scan"}, "fusion_lon": 0.0}, {"lat": 38.90876816666667, "is_disabled": 0, "type": "electric_scooter", "lon": -77.066741, "bike_id": "12529af2a218af4a5e69be9e59e49a9a", "fusion_lat": 0.0, "name": "12529af2a218af4a5e69be9e59e49a9a", "is_reserved": 0, "rental_uris": {"android": "https://dc.lft.to/lastmile_qr_scan", "ios": "https://dc.lft.to/lastmile_qr_scan"}, "fusion_lon": 0.0}, {"lat": 38.8924015, "is_disabled": 0, "type": "electric_scooter", "lon": -77.01515916666666, "bike_id": "6b4f3dc0a787be55667f19d1111dd199", "fusion_lat": 0.0, "name": "6b4f3dc0a787be55667f19d1111dd199", "is_reserved": 0, "rental_uris": {"android": "https://dc.lft.to/lastmile_qr_scan", "ios": "https://dc.lft.to/lastmile_qr_scan"}, "fusion_lon": 0.0}, {"lat": 38.92306716666667, "is_disabled": 0, "type": "electric_scooter", "lon": -77.044679, "bike_id": "b4251b48afb2a0c8693a4474a921724a", "fusion_lat": 0.0, "name": "b4251b48afb2a0c8693a4474a921724a", "is_reserved": 0, "rental_uris": {"android": "https://dc.lft.to/lastmile_qr_scan", "ios": "https://dc.lft.to/lastmile_qr_scan"}, "fusion_lon": 0.0}, {"lat": 38.9336145, "is_disabled": 0, "type": "electric_bike", "lon": -77.09960883333333, "bike_id": "88f35881b1848a04fe3b7bd8f209d9a8", "fusion_lat": 0.0, "name": "88f35881b1848a04fe3b7bd8f209d9a8", "is_reserved": 0, "rental_uris": {"android": "https://dc.lft.to/lastmile_qr_scan", "ios": "https://dc.lft.to/lastmile_qr_scan"}, "fusion_lon": 0.0}, {"lat": 38.92713233333333, "is_disabled": 0, "type": "electric_scooter", "lon": -77.02086516666667, "bike_id": "f3bc56b2bc1b1b2db192c7c32dccbbb2", "fusion_lat": 0.0, "name": "f3bc56b2bc1b1b2db192c7c32dccbbb2", "is_reserved": 0, "rental_uris": {"android": "https://dc.lft.to/lastmile_qr_scan", "ios": "https://dc.lft.to/lastmile_qr_scan"}, "fusion_lon": 0.0}, {"lat": 38.8974435, "is_disabled": 0, "type": "electric_scooter", "lon": -77.00941983333334, "bike_id": "e3ef612f063e0a6037f2881e947dd09a", "fusion_lat": 0.0, "name": "e3ef612f063e0a6037f2881e947dd09a", "is_reserved": 0, "rental_uris": {"android": "https://dc.lft.to/lastmile_qr_scan", "ios": "https://dc.lft.to/lastmile_qr_scan"}, "fusion_lon": 0.0}, {"lat": 38.918150833333335, "is_disabled": 0, "type": "electric_scooter", "lon": -77.00003016666666, "bike_id": "7d195d3b5e311c6f93e7ea9ece517713", "fusion_lat": 0.0, "name": "7d195d3b5e311c6f93e7ea9ece517713", "is_reserved": 0, "rental_uris": {"android": "https://dc.lft.to/lastmile_qr_scan", "ios": "https://dc.lft.to/lastmile_qr_scan"}, "fusion_lon": 0.0}, {"lat": 38.91721, "is_disabled": 0, "type": "electric_scooter", "lon": -77.0324135, "bike_id": "ecd39b2e89875f14e02aa2db4321db0c", "fusion_lat": 0.0, "name": "ecd39b2e89875f14e02aa2db4321db0c", "is_reserved": 0, "rental_uris": {"android": "https://dc.lft.to/lastmile_qr_scan", "ios": "https://dc.lft.to/lastmile_qr_scan"}, "fusion_lon": 0.0}, {"lat": 38.9156465, "is_disabled": 0, "type": "electric_scooter", "lon": -77.031522, "bike_id": "f471766d0689504ecc4dd008ca5ab60b", "fusion_lat": 0.0, "name": "f471766d0689504ecc4dd008ca5ab60b", "is_reserved": 0, "rental_uris": {"android": "https://dc.lft.to/lastmile_qr_scan", "ios": "https://dc.lft.to/lastmile_qr_scan"}, "fusion_lon": 0.0}, {"lat": 38.9037555, "is_disabled": 0, "type": "electric_scooter", "lon": -77.06022816666666, "bike_id": "cbe1bcddb6e051b5dc2e4180204ee69c", "fusion_lat": 0.0, "name": "cbe1bcddb6e051b5dc2e4180204ee69c", "is_reserved": 0, "rental_uris": {"android": "https://dc.lft.to/lastmile_qr_scan", "ios": "https://dc.lft.to/lastmile_qr_scan"}, "fusion_lon": 0.0}, {"lat": 38.9595585, "is_disabled": 0, "type": "electric_bike", "lon": -77.10092733333333, "bike_id": "3af64ca25dddbe17b33a57910e257d6f", "fusion_lat": 0.0, "name": "3af64ca25dddbe17b33a57910e257d6f", "is_reserved": 0, "rental_uris": {"android": "https://dc.lft.to/lastmile_qr_scan", "ios": "https://dc.lft.to/lastmile_qr_scan"}, "fusion_lon": 0.0}, {"lat": 38.8968735, "is_disabled": 0, "type": "electric_scooter", "lon": -76.9353475, "bike_id": "81847a045036be13b2c1fd493507ecf2", "fusion_lat": 0.0, "name": "81847a045036be13b2c1fd493507ecf2", "is_reserved": 0, "rental_uris": {"android": "https://dc.lft.to/lastmile_qr_scan", "ios": "https://dc.lft.to/lastmile_qr_scan"}, "fusion_lon": 0.0}, {"lat": 38.91710166666667, "is_disabled": 0, "type": "electric_scooter", "lon": -77.03869616666667, "bike_id": "2b29d55162b939caa085e32ad47d3d32", "fusion_lat": 0.0, "name": "2b29d55162b939caa085e32ad47d3d32", "is_reserved": 0, "rental_uris": {"android": "https://dc.lft.to/lastmile_qr_scan", "ios": "https://dc.lft.to/lastmile_qr_scan"}, "fusion_lon": 0.0}, {"lat": 38.87409383333333, "is_disabled": 0, "type": "electric_bike", "lon": -77.000426, "bike_id": "289afda1f9b0b6932ba1bb5fd57a4c52", "fusion_lat": 0.0, "name": "289afda1f9b0b6932ba1bb5fd57a4c52", "is_reserved": 0, "rental_uris": {"android": "https://dc.lft.to/lastmile_qr_scan", "ios": "https://dc.lft.to/lastmile_qr_scan"}, "fusion_lon": 0.0}, {"lat": 38.9186945, "is_disabled": 0, "type": "electric_scooter", "lon": -77.04586883333333, "bike_id": "20c2d4f88bb9b42a341a87f4a667a529", "fusion_lat": 0.0, "name": "20c2d4f88bb9b42a341a87f4a667a529", "is_reserved": 0, "rental_uris": {"android": "https://dc.lft.to/lastmile_qr_scan", "ios": "https://dc.lft.to/lastmile_qr_scan"}, "fusion_lon": 0.0}, {"lat": 38.91339983333334, "is_disabled": 0, "type": "electric_scooter", "lon": -77.03254733333333, "bike_id": "b21f3fb0c499b04bbc2288b53e0e208c", "fusion_lat": 0.0, "name": "b21f3fb0c499b04bbc2288b53e0e208c", "is_reserved": 0, "rental_uris": {"android": "https://dc.lft.to/lastmile_qr_scan", "ios": "https://dc.lft.to/lastmile_qr_scan"}, "fusion_lon": 0.0}, {"lat": 38.920646166666664, "is_disabled": 0, "type": "electric_scooter", "lon": -77.04332933333333, "bike_id": "53c6f5a7bf530ab4105ab4f5703b5dde", "fusion_lat": 0.0, "name": "53c6f5a7bf530ab4105ab4f5703b5dde", "is_reserved": 0, "rental_uris": {"android": "https://dc.lft.to/lastmile_qr_scan", "ios": "https://dc.lft.to/lastmile_qr_scan"}, "fusion_lon": 0.0}, {"lat": 38.88437833333333, "is_disabled": 0, "type": "electric_scooter", "lon": -77.03038416666666, "bike_id": "be85020da71895f7d49f1d987a9f1e9c", "fusion_lat": 0.0, "name": "be85020da71895f7d49f1d987a9f1e9c", "is_reserved": 0, "rental_uris": {"android": "https://dc.lft.to/lastmile_qr_scan", "ios": "https://dc.lft.to/lastmile_qr_scan"}, "fusion_lon": 0.0}, {"lat": 38.961521166666664, "is_disabled": 0, "type": "electric_scooter", "lon": -77.02797766666667, "bike_id": "936c001de90eb54796e9328e8d560745", "fusion_lat": 0.0, "name": "936c001de90eb54796e9328e8d560745", "is_reserved": 0, "rental_uris": {"android": "https://dc.lft.to/lastmile_qr_scan", "ios": "https://dc.lft.to/lastmile_qr_scan"}, "fusion_lon": 0.0}, {"lat": 38.9112105, "is_disabled": 0, "type": "electric_scooter", "lon": -77.044573, "bike_id": "eb3584be9227bff2e35cac25507e5377", "fusion_lat": 0.0, "name": "eb3584be9227bff2e35cac25507e5377", "is_reserved": 0, "rental_uris": {"android": "https://dc.lft.to/lastmile_qr_scan", "ios": "https://dc.lft.to/lastmile_qr_scan"}, "fusion_lon": 0.0}, {"lat": 38.914897, "is_disabled": 0, "type": "electric_scooter", "lon": -77.03262, "bike_id": "321ce278f403d288db507613d37e778d", "fusion_lat": 0.0, "name": "321ce278f403d288db507613d37e778d", "is_reserved": 0, "rental_uris": {"android": "https://dc.lft.to/lastmile_qr_scan", "ios": "https://dc.lft.to/lastmile_qr_scan"}, "fusion_lon": 0.0}, {"lat": 38.864303166666666, "is_disabled": 0, "type": "electric_scooter", "lon": -77.01352033333333, "bike_id": "2e2d5705483616074246c9da6e77a971", "fusion_lat": 0.0, "name": "2e2d5705483616074246c9da6e77a971", "is_reserved": 0, "rental_uris": {"android": "https://dc.lft.to/lastmile_qr_scan", "ios": "https://dc.lft.to/lastmile_qr_scan"}, "fusion_lon": 0.0}, {"lat": 38.9273825, "is_disabled": 0, "type": "electric_scooter", "lon": -77.02264333333333, "bike_id": "23613a4c0a9f22bc70b3d9f24a070022", "fusion_lat": 0.0, "name": "23613a4c0a9f22bc70b3d9f24a070022", "is_reserved": 0, "rental_uris": {"android": "https://dc.lft.to/lastmile_qr_scan", "ios": "https://dc.lft.to/lastmile_qr_scan"}, "fusion_lon": 0.0}, {"lat": 38.89879233333333, "is_disabled": 0, "type": "electric_scooter", "lon": -77.02377466666667, "bike_id": "535449340f154e0498bb0d79c0a93b89", "fusion_lat": 0.0, "name": "535449340f154e0498bb0d79c0a93b89", "is_reserved": 0, "rental_uris": {"android": "https://dc.lft.to/lastmile_qr_scan", "ios": "https://dc.lft.to/lastmile_qr_scan"}, "fusion_lon": 0.0}, {"lat": 38.89817766666667, "is_disabled": 0, "type": "electric_scooter", "lon": -76.99692883333333, "bike_id": "a1369fad35fa41606b3b92ff554110c1", "fusion_lat": 0.0, "name": "a1369fad35fa41606b3b92ff554110c1", "is_reserved": 0, "rental_uris": {"android": "https://dc.lft.to/lastmile_qr_scan", "ios": "https://dc.lft.to/lastmile_qr_scan"}, "fusion_lon": 0.0}, {"lat": 38.89366533333333, "is_disabled": 0, "type": "electric_bike", "lon": -76.94769783333334, "bike_id": "5af5833b5f336396b126d3959177c3cf", "fusion_lat": 0.0, "name": "5af5833b5f336396b126d3959177c3cf", "is_reserved": 0, "rental_uris": {"android": "https://dc.lft.to/lastmile_qr_scan", "ios": "https://dc.lft.to/lastmile_qr_scan"}, "fusion_lon": 0.0}, {"lat": 38.922430166666665, "is_disabled": 0, "type": "electric_scooter", "lon": -77.04268283333333, "bike_id": "0d7939f2e98d98c33d005a0d73157b29", "fusion_lat": 0.0, "name": "0d7939f2e98d98c33d005a0d73157b29", "is_reserved": 0, "rental_uris": {"android": "https://dc.lft.to/lastmile_qr_scan", "ios": "https://dc.lft.to/lastmile_qr_scan"}, "fusion_lon": 0.0}, {"lat": 38.86232833333333, "is_disabled": 0, "type": "electric_scooter", "lon": -76.995497, "bike_id": "ce1368e9b301fa79fe6f1f2c7fd381e8", "fusion_lat": 0.0, "name": "ce1368e9b301fa79fe6f1f2c7fd381e8", "is_reserved": 0, "rental_uris": {"android": "https://dc.lft.to/lastmile_qr_scan", "ios": "https://dc.lft.to/lastmile_qr_scan"}, "fusion_lon": 0.0}, {"lat": 38.91374533333333, "is_disabled": 0, "type": "electric_scooter", "lon": -77.0269085, "bike_id": "fd58da5219675cf6f3c5be62c1c7d8bd", "fusion_lat": 0.0, "name": "fd58da5219675cf6f3c5be62c1c7d8bd", "is_reserved": 0, "rental_uris": {"android": "https://dc.lft.to/lastmile_qr_scan", "ios": "https://dc.lft.to/lastmile_qr_scan"}, "fusion_lon": 0.0}, {"lat": 38.88889733333333, "is_disabled": 0, "type": "electric_scooter", "lon": -76.93154016666666, "bike_id": "51c714e01313333405ab89064cf7cf61", "fusion_lat": 0.0, "name": "51c714e01313333405ab89064cf7cf61", "is_reserved": 0, "rental_uris": {"android": "https://dc.lft.to/lastmile_qr_scan", "ios": "https://dc.lft.to/lastmile_qr_scan"}, "fusion_lon": 0.0}, {"lat": 38.9201535, "is_disabled": 0, "type": "electric_scooter", "lon": -77.02499766666666, "bike_id": "bc631c81268d17f82c93d4947d979156", "fusion_lat": 0.0, "name": "bc631c81268d17f82c93d4947d979156", "is_reserved": 0, "rental_uris": {"android": "https://dc.lft.to/lastmile_qr_scan", "ios": "https://dc.lft.to/lastmile_qr_scan"}, "fusion_lon": 0.0}, {"lat": 38.92761816666667, "is_disabled": 0, "type": "electric_scooter", "lon": -77.03220983333334, "bike_id": "911ed46b2ce548681aba3671555f2f72", "fusion_lat": 0.0, "name": "911ed46b2ce548681aba3671555f2f72", "is_reserved": 0, "rental_uris": {"android": "https://dc.lft.to/lastmile_qr_scan", "ios": "https://dc.lft.to/lastmile_qr_scan"}, "fusion_lon": 0.0}, {"lat": 38.9614865, "is_disabled": 0, "type": "electric_scooter", "lon": -77.028018, "bike_id": "9e4e5a76818faae87fdaba5513061add", "fusion_lat": 0.0, "name": "9e4e5a76818faae87fdaba5513061add", "is_reserved": 0, "rental_uris": {"android": "https://dc.lft.to/lastmile_qr_scan", "ios": "https://dc.lft.to/lastmile_qr_scan"}, "fusion_lon": 0.0}, {"lat": 38.91715283333333, "is_disabled": 0, "type": "electric_scooter", "lon": -77.02719416666666, "bike_id": "55365d0fe61837530f52a1b7ec8918c1", "fusion_lat": 0.0, "name": "55365d0fe61837530f52a1b7ec8918c1", "is_reserved": 0, "rental_uris": {"android": "https://dc.lft.to/lastmile_qr_scan", "ios": "https://dc.lft.to/lastmile_qr_scan"}, "fusion_lon": 0.0}, {"lat": 38.90244233333333, "is_disabled": 0, "type": "electric_scooter", "lon": -77.02896066666666, "bike_id": "0dca8d0f920e6ce19cd75aaad3a6ff04", "fusion_lat": 0.0, "name": "0dca8d0f920e6ce19cd75aaad3a6ff04", "is_reserved": 0, "rental_uris": {"android": "https://dc.lft.to/lastmile_qr_scan", "ios": "https://dc.lft.to/lastmile_qr_scan"}, "fusion_lon": 0.0}, {"lat": 38.91113166666667, "is_disabled": 0, "type": "electric_scooter", "lon": -77.03249733333334, "bike_id": "88bea503c072a564641c237006f754db", "fusion_lat": 0.0, "name": "88bea503c072a564641c237006f754db", "is_reserved": 0, "rental_uris": {"android": "https://dc.lft.to/lastmile_qr_scan", "ios": "https://dc.lft.to/lastmile_qr_scan"}, "fusion_lon": 0.0}, {"lat": 38.924839, "is_disabled": 0, "type": "electric_scooter", "lon": -77.02841833333333, "bike_id": "1d6e786faa871c6ef397da12e548a304", "fusion_lat": 0.0, "name": "1d6e786faa871c6ef397da12e548a304", "is_reserved": 0, "rental_uris": {"android": "https://dc.lft.to/lastmile_qr_scan", "ios": "https://dc.lft.to/lastmile_qr_scan"}, "fusion_lon": 0.0}, {"lat": 39.056329, "is_disabled": 0, "type": "electric_bike", "lon": -77.12526466666667, "bike_id": "a5b816840c48239476e2154b97258d3d", "fusion_lat": 0.0, "name": "a5b816840c48239476e2154b97258d3d", "is_reserved": 0, "rental_uris": {"android": "https://dc.lft.to/lastmile_qr_scan", "ios": "https://dc.lft.to/lastmile_qr_scan"}, "fusion_lon": 0.0}, {"lat": 38.9170965, "is_disabled": 0, "type": "electric_scooter", "lon": -77.030312, "bike_id": "83c25fc83520313adcffc5e4bf4aea7f", "fusion_lat": 0.0, "name": "83c25fc83520313adcffc5e4bf4aea7f", "is_reserved": 0, "rental_uris": {"android": "https://dc.lft.to/lastmile_qr_scan", "ios": "https://dc.lft.to/lastmile_qr_scan"}, "fusion_lon": 0.0}, {"lat": 38.924443833333335, "is_disabled": 0, "type": "electric_scooter", "lon": -77.0335825, "bike_id": "57e36e79a9a480eee28f118b97b10ae3", "fusion_lat": 0.0, "name": "57e36e79a9a480eee28f118b97b10ae3", "is_reserved": 0, "rental_uris": {"android": "https://dc.lft.to/lastmile_qr_scan", "ios": "https://dc.lft.to/lastmile_qr_scan"}, "fusion_lon": 0.0}, {"lat": 38.909896833333335, "is_disabled": 0, "type": "electric_scooter", "lon": -76.99739916666667, "bike_id": "313130a56617026d475ab25eb8a96371", "fusion_lat": 0.0, "name": "313130a56617026d475ab25eb8a96371", "is_reserved": 0, "rental_uris": {"android": "https://dc.lft.to/lastmile_qr_scan", "ios": "https://dc.lft.to/lastmile_qr_scan"}, "fusion_lon": 0.0}, {"lat": 38.881319500000004, "is_disabled": 0, "type": "electric_scooter", "lon": -76.98721916666666, "bike_id": "abcedbe149ba9e155b970796637d139a", "fusion_lat": 0.0, "name": "abcedbe149ba9e155b970796637d139a", "is_reserved": 0, "rental_uris": {"android": "https://dc.lft.to/lastmile_qr_scan", "ios": "https://dc.lft.to/lastmile_qr_scan"}, "fusion_lon": 0.0}, {"lat": 38.9234245, "is_disabled": 0, "type": "electric_scooter", "lon": -77.05169333333333, "bike_id": "4831ebd270cd0284c2ed4c12af6821e4", "fusion_lat": 0.0, "name": "4831ebd270cd0284c2ed4c12af6821e4", "is_reserved": 0, "rental_uris": {"android": "https://dc.lft.to/lastmile_qr_scan", "ios": "https://dc.lft.to/lastmile_qr_scan"}, "fusion_lon": 0.0}, {"lat": 38.93142616666667, "is_disabled": 0, "type": "electric_scooter", "lon": -77.02146766666667, "bike_id": "2b578ad2ade157597d761f23d269836d", "fusion_lat": 0.0, "name": "2b578ad2ade157597d761f23d269836d", "is_reserved": 0, "rental_uris": {"android": "https://dc.lft.to/lastmile_qr_scan", "ios": "https://dc.lft.to/lastmile_qr_scan"}, "fusion_lon": 0.0}, {"lat": 38.86663083333333, "is_disabled": 0, "type": "electric_scooter", "lon": -76.98907766666666, "bike_id": "b317e10c8a4da95b39ff8953bdcb681e", "fusion_lat": 0.0, "name": "b317e10c8a4da95b39ff8953bdcb681e", "is_reserved": 0, "rental_uris": {"android": "https://dc.lft.to/lastmile_qr_scan", "ios": "https://dc.lft.to/lastmile_qr_scan"}, "fusion_lon": 0.0}, {"lat": 38.906372833333336, "is_disabled": 0, "type": "electric_scooter", "lon": -77.00842766666666, "bike_id": "4a169bc21d187cbbef066f608f194795", "fusion_lat": 0.0, "name": "4a169bc21d187cbbef066f608f194795", "is_reserved": 0, "rental_uris": {"android": "https://dc.lft.to/lastmile_qr_scan", "ios": "https://dc.lft.to/lastmile_qr_scan"}, "fusion_lon": 0.0}, {"lat": 38.9170225, "is_disabled": 0, "type": "electric_scooter", "lon": -77.02897416666667, "bike_id": "fc26be1dee1e1d550207bb453e374543", "fusion_lat": 0.0, "name": "fc26be1dee1e1d550207bb453e374543", "is_reserved": 0, "rental_uris": {"android": "https://dc.lft.to/lastmile_qr_scan", "ios": "https://dc.lft.to/lastmile_qr_scan"}, "fusion_lon": 0.0}, {"lat": 38.92219083333333, "is_disabled": 0, "type": "electric_scooter", "lon": -77.04245366666666, "bike_id": "a01919e4fffe3ded9dea017d0d6cc207", "fusion_lat": 0.0, "name": "a01919e4fffe3ded9dea017d0d6cc207", "is_reserved": 0, "rental_uris": {"android": "https://dc.lft.to/lastmile_qr_scan", "ios": "https://dc.lft.to/lastmile_qr_scan"}, "fusion_lon": 0.0}, {"lat": 38.906794166666664, "is_disabled": 0, "type": "electric_scooter", "lon": -77.06271416666667, "bike_id": "4b314b6f719ed8d37a1536dbfd45e8f7", "fusion_lat": 0.0, "name": "4b314b6f719ed8d37a1536dbfd45e8f7", "is_reserved": 0, "rental_uris": {"android": "https://dc.lft.to/lastmile_qr_scan", "ios": "https://dc.lft.to/lastmile_qr_scan"}, "fusion_lon": 0.0}, {"lat": 38.89646716666667, "is_disabled": 0, "type": "electric_scooter", "lon": -77.04674816666666, "bike_id": "3d7a6c66ead96d3487b29fdb524946a3", "fusion_lat": 0.0, "name": "3d7a6c66ead96d3487b29fdb524946a3", "is_reserved": 0, "rental_uris": {"android": "https://dc.lft.to/lastmile_qr_scan", "ios": "https://dc.lft.to/lastmile_qr_scan"}, "fusion_lon": 0.0}, {"lat": 38.8706915, "is_disabled": 0, "type": "electric_scooter", "lon": -76.97964033333334, "bike_id": "f32cc6bf480fd93fc7089f54f13f8b36", "fusion_lat": 0.0, "name": "f32cc6bf480fd93fc7089f54f13f8b36", "is_reserved": 0, "rental_uris": {"android": "https://dc.lft.to/lastmile_qr_scan", "ios": "https://dc.lft.to/lastmile_qr_scan"}, "fusion_lon": 0.0}, {"lat": 38.91566666666667, "is_disabled": 0, "type": "electric_scooter", "lon": -77.05019083333333, "bike_id": "f8f3131633aa7783fe20ea70c1e94c06", "fusion_lat": 0.0, "name": "f8f3131633aa7783fe20ea70c1e94c06", "is_reserved": 0, "rental_uris": {"android": "https://dc.lft.to/lastmile_qr_scan", "ios": "https://dc.lft.to/lastmile_qr_scan"}, "fusion_lon": 0.0}, {"lat": 38.886375, "is_disabled": 0, "type": "electric_scooter", "lon": -76.954911, "bike_id": "53f372af5b0e9b95a4fc01100c5a83cb", "fusion_lat": 0.0, "name": "53f372af5b0e9b95a4fc01100c5a83cb", "is_reserved": 0, "rental_uris": {"android": "https://dc.lft.to/lastmile_qr_scan", "ios": "https://dc.lft.to/lastmile_qr_scan"}, "fusion_lon": 0.0}, {"lat": 38.94697133333333, "is_disabled": 0, "type": "electric_scooter", "lon": -77.019488, "bike_id": "caff4c2195f25855ab94d5e41964a273", "fusion_lat": 0.0, "name": "caff4c2195f25855ab94d5e41964a273", "is_reserved": 0, "rental_uris": {"android": "https://dc.lft.to/lastmile_qr_scan", "ios": "https://dc.lft.to/lastmile_qr_scan"}, "fusion_lon": 0.0}, {"lat": 38.90485816666666, "is_disabled": 0, "type": "electric_scooter", "lon": -76.97332133333333, "bike_id": "fe92f2629e46d14794ab22082be06199", "fusion_lat": 0.0, "name": "fe92f2629e46d14794ab22082be06199", "is_reserved": 0, "rental_uris": {"android": "https://dc.lft.to/lastmile_qr_scan", "ios": "https://dc.lft.to/lastmile_qr_scan"}, "fusion_lon": 0.0}, {"lat": 38.92127583333333, "is_disabled": 0, "type": "electric_scooter", "lon": -77.041916, "bike_id": "df44976b42d879e2c70bba70699a48d6", "fusion_lat": 0.0, "name": "df44976b42d879e2c70bba70699a48d6", "is_reserved": 0, "rental_uris": {"android": "https://dc.lft.to/lastmile_qr_scan", "ios": "https://dc.lft.to/lastmile_qr_scan"}, "fusion_lon": 0.0}, {"lat": 38.906521166666664, "is_disabled": 0, "type": "electric_scooter", "lon": -77.014059, "bike_id": "e0ba89447eba6fa6f6270a09ee2bfb24", "fusion_lat": 0.0, "name": "e0ba89447eba6fa6f6270a09ee2bfb24", "is_reserved": 0, "rental_uris": {"android": "https://dc.lft.to/lastmile_qr_scan", "ios": "https://dc.lft.to/lastmile_qr_scan"}, "fusion_lon": 0.0}, {"lat": 38.89692466666666, "is_disabled": 0, "type": "electric_scooter", "lon": -77.00493533333334, "bike_id": "518b8e4b7f4ead5c0e94e501cdc2c921", "fusion_lat": 0.0, "name": "518b8e4b7f4ead5c0e94e501cdc2c921", "is_reserved": 0, "rental_uris": {"android": "https://dc.lft.to/lastmile_qr_scan", "ios": "https://dc.lft.to/lastmile_qr_scan"}, "fusion_lon": 0.0}, {"lat": 38.9247325, "is_disabled": 0, "type": "electric_scooter", "lon": -77.05242333333334, "bike_id": "43233f96be38a0de42c4b2aec302c0f5", "fusion_lat": 0.0, "name": "43233f96be38a0de42c4b2aec302c0f5", "is_reserved": 0, "rental_uris": {"android": "https://dc.lft.to/lastmile_qr_scan", "ios": "https://dc.lft.to/lastmile_qr_scan"}, "fusion_lon": 0.0}, {"lat": 38.917775166666665, "is_disabled": 0, "type": "electric_scooter", "lon": -77.04095933333333, "bike_id": "912d95f5cab08effae534fa09c02bd8f", "fusion_lat": 0.0, "name": "912d95f5cab08effae534fa09c02bd8f", "is_reserved": 0, "rental_uris": {"android": "https://dc.lft.to/lastmile_qr_scan", "ios": "https://dc.lft.to/lastmile_qr_scan"}, "fusion_lon": 0.0}, {"lat": 38.9225205, "is_disabled": 0, "type": "electric_scooter", "lon": -77.0193745, "bike_id": "a9dcd24abde80f8ffb07b9dd0726191a", "fusion_lat": 0.0, "name": "a9dcd24abde80f8ffb07b9dd0726191a", "is_reserved": 0, "rental_uris": {"android": "https://dc.lft.to/lastmile_qr_scan", "ios": "https://dc.lft.to/lastmile_qr_scan"}, "fusion_lon": 0.0}, {"lat": 38.89508083333333, "is_disabled": 0, "type": "electric_scooter", "lon": -77.01612783333333, "bike_id": "fdc2b27b2753e7fd9a362ae3e0320536", "fusion_lat": 0.0, "name": "fdc2b27b2753e7fd9a362ae3e0320536", "is_reserved": 0, "rental_uris": {"android": "https://dc.lft.to/lastmile_qr_scan", "ios": "https://dc.lft.to/lastmile_qr_scan"}, "fusion_lon": 0.0}, {"lat": 38.9140145, "is_disabled": 0, "type": "electric_scooter", "lon": -77.02388033333334, "bike_id": "cb6d608b47424b2cf849fce90d2a7108", "fusion_lat": 0.0, "name": "cb6d608b47424b2cf849fce90d2a7108", "is_reserved": 0, "rental_uris": {"android": "https://dc.lft.to/lastmile_qr_scan", "ios": "https://dc.lft.to/lastmile_qr_scan"}, "fusion_lon": 0.0}, {"lat": 38.9431525, "is_disabled": 0, "type": "electric_scooter", "lon": -77.0613775, "bike_id": "77d13a148acb63745f9ab7a729106d39", "fusion_lat": 0.0, "name": "77d13a148acb63745f9ab7a729106d39", "is_reserved": 0, "rental_uris": {"android": "https://dc.lft.to/lastmile_qr_scan", "ios": "https://dc.lft.to/lastmile_qr_scan"}, "fusion_lon": 0.0}, {"lat": 38.91709133333333, "is_disabled": 0, "type": "electric_scooter", "lon": -77.03468966666667, "bike_id": "d4eccd374a4632380ffdb6f449c7e77f", "fusion_lat": 0.0, "name": "d4eccd374a4632380ffdb6f449c7e77f", "is_reserved": 0, "rental_uris": {"android": "https://dc.lft.to/lastmile_qr_scan", "ios": "https://dc.lft.to/lastmile_qr_scan"}, "fusion_lon": 0.0}, {"lat": 38.8949435, "is_disabled": 0, "type": "electric_scooter", "lon": -77.002527, "bike_id": "b96855c9e979b6f6a60422dd6ad8b13a", "fusion_lat": 0.0, "name": "b96855c9e979b6f6a60422dd6ad8b13a", "is_reserved": 0, "rental_uris": {"android": "https://dc.lft.to/lastmile_qr_scan", "ios": "https://dc.lft.to/lastmile_qr_scan"}, "fusion_lon": 0.0}, {"lat": 38.873784666666666, "is_disabled": 0, "type": "electric_scooter", "lon": -77.00059416666667, "bike_id": "94e29b39ef8af4879b88ce7e9e98ce52", "fusion_lat": 0.0, "name": "94e29b39ef8af4879b88ce7e9e98ce52", "is_reserved": 0, "rental_uris": {"android": "https://dc.lft.to/lastmile_qr_scan", "ios": "https://dc.lft.to/lastmile_qr_scan"}, "fusion_lon": 0.0}, {"lat": 38.897816166666665, "is_disabled": 0, "type": "electric_bike", "lon": -76.90439233333333, "bike_id": "d68025273bc2b46eb5a18fff51712539", "fusion_lat": 0.0, "name": "d68025273bc2b46eb5a18fff51712539", "is_reserved": 0, "rental_uris": {"android": "https://dc.lft.to/lastmile_qr_scan", "ios": "https://dc.lft.to/lastmile_qr_scan"}, "fusion_lon": 0.0}, {"lat": 38.9275155, "is_disabled": 0, "type": "electric_scooter", "lon": -76.997079, "bike_id": "e44fc239212e5c0aec93afa09387177a", "fusion_lat": 0.0, "name": "e44fc239212e5c0aec93afa09387177a", "is_reserved": 0, "rental_uris": {"android": "https://dc.lft.to/lastmile_qr_scan", "ios": "https://dc.lft.to/lastmile_qr_scan"}, "fusion_lon": 0.0}, {"lat": 38.901583, "is_disabled": 0, "type": "electric_scooter", "lon": -76.98630533333333, "bike_id": "5c9952d2eeea7d1b095a467f0c424df4", "fusion_lat": 0.0, "name": "5c9952d2eeea7d1b095a467f0c424df4", "is_reserved": 0, "rental_uris": {"android": "https://dc.lft.to/lastmile_qr_scan", "ios": "https://dc.lft.to/lastmile_qr_scan"}, "fusion_lon": 0.0}, {"lat": 38.95626633333333, "is_disabled": 0, "type": "electric_bike", "lon": -76.93881633333334, "bike_id": "710d2159628e8a50040303cb82ce3037", "fusion_lat": 0.0, "name": "710d2159628e8a50040303cb82ce3037", "is_reserved": 0, "rental_uris": {"android": "https://dc.lft.to/lastmile_qr_scan", "ios": "https://dc.lft.to/lastmile_qr_scan"}, "fusion_lon": 0.0}, {"lat": 38.921415833333334, "is_disabled": 0, "type": "electric_scooter", "lon": -77.03487483333333, "bike_id": "d7b3f45f18e107d5d484329015073146", "fusion_lat": 0.0, "name": "d7b3f45f18e107d5d484329015073146", "is_reserved": 0, "rental_uris": {"android": "https://dc.lft.to/lastmile_qr_scan", "ios": "https://dc.lft.to/lastmile_qr_scan"}, "fusion_lon": 0.0}, {"lat": 38.90108133333333, "is_disabled": 0, "type": "electric_scooter", "lon": -77.01694816666667, "bike_id": "b3ffda6d25d564ce33b521be857a234d", "fusion_lat": 0.0, "name": "b3ffda6d25d564ce33b521be857a234d", "is_reserved": 0, "rental_uris": {"android": "https://dc.lft.to/lastmile_qr_scan", "ios": "https://dc.lft.to/lastmile_qr_scan"}, "fusion_lon": 0.0}, {"lat": 38.900021833333334, "is_disabled": 0, "type": "electric_scooter", "lon": -77.02193316666667, "bike_id": "caae25bb62529f68d30839af8fa34012", "fusion_lat": 0.0, "name": "caae25bb62529f68d30839af8fa34012", "is_reserved": 0, "rental_uris": {"android": "https://dc.lft.to/lastmile_qr_scan", "ios": "https://dc.lft.to/lastmile_qr_scan"}, "fusion_lon": 0.0}, {"lat": 38.9066125, "is_disabled": 0, "type": "electric_scooter", "lon": -77.05323833333334, "bike_id": "ed043260b59ebb069c218f51c5897b79", "fusion_lat": 0.0, "name": "ed043260b59ebb069c218f51c5897b79", "is_reserved": 0, "rental_uris": {"android": "https://dc.lft.to/lastmile_qr_scan", "ios": "https://dc.lft.to/lastmile_qr_scan"}, "fusion_lon": 0.0}, {"lat": 38.842765166666666, "is_disabled": 0, "type": "electric_bike", "lon": -76.9884295, "bike_id": "d1528e6884d362fe9b493fc3da849596", "fusion_lat": 0.0, "name": "d1528e6884d362fe9b493fc3da849596", "is_reserved": 0, "rental_uris": {"android": "https://dc.lft.to/lastmile_qr_scan", "ios": "https://dc.lft.to/lastmile_qr_scan"}, "fusion_lon": 0.0}, {"lat": 38.90134583333333, "is_disabled": 0, "type": "electric_scooter", "lon": -77.02687783333333, "bike_id": "aa2905fb2eefb1ecb64a8d5a97011f03", "fusion_lat": 0.0, "name": "aa2905fb2eefb1ecb64a8d5a97011f03", "is_reserved": 0, "rental_uris": {"android": "https://dc.lft.to/lastmile_qr_scan", "ios": "https://dc.lft.to/lastmile_qr_scan"}, "fusion_lon": 0.0}, {"lat": 38.881146, "is_disabled": 0, "type": "electric_scooter", "lon": -76.98337716666667, "bike_id": "e1730a461cc766d006ac7df0beb23d09", "fusion_lat": 0.0, "name": "e1730a461cc766d006ac7df0beb23d09", "is_reserved": 0, "rental_uris": {"android": "https://dc.lft.to/lastmile_qr_scan", "ios": "https://dc.lft.to/lastmile_qr_scan"}, "fusion_lon": 0.0}, {"lat": 38.903582, "is_disabled": 0, "type": "electric_scooter", "lon": -77.01772333333334, "bike_id": "d4b87e7bdf7c9f77cdec1ddddd529140", "fusion_lat": 0.0, "name": "d4b87e7bdf7c9f77cdec1ddddd529140", "is_reserved": 0, "rental_uris": {"android": "https://dc.lft.to/lastmile_qr_scan", "ios": "https://dc.lft.to/lastmile_qr_scan"}, "fusion_lon": 0.0}, {"lat": 38.925763, "is_disabled": 0, "type": "electric_scooter", "lon": -77.05745033333334, "bike_id": "2eef3b59ae3ed0a9fc0e0b03bfba9582", "fusion_lat": 0.0, "name": "2eef3b59ae3ed0a9fc0e0b03bfba9582", "is_reserved": 0, "rental_uris": {"android": "https://dc.lft.to/lastmile_qr_scan", "ios": "https://dc.lft.to/lastmile_qr_scan"}, "fusion_lon": 0.0}, {"lat": 38.916217, "is_disabled": 0, "type": "electric_scooter", "lon": -77.04298166666666, "bike_id": "ad0dbfaa6399d565297daa8328bca951", "fusion_lat": 0.0, "name": "ad0dbfaa6399d565297daa8328bca951", "is_reserved": 0, "rental_uris": {"android": "https://dc.lft.to/lastmile_qr_scan", "ios": "https://dc.lft.to/lastmile_qr_scan"}, "fusion_lon": 0.0}, {"lat": 38.922444666666664, "is_disabled": 0, "type": "electric_scooter", "lon": -77.04270083333333, "bike_id": "b26520c0399d95627dc286539dc2872c", "fusion_lat": 0.0, "name": "b26520c0399d95627dc286539dc2872c", "is_reserved": 0, "rental_uris": {"android": "https://dc.lft.to/lastmile_qr_scan", "ios": "https://dc.lft.to/lastmile_qr_scan"}, "fusion_lon": 0.0}, {"lat": 38.901072, "is_disabled": 0, "type": "electric_scooter", "lon": -77.059009, "bike_id": "357acc684130464e216881d53f1cd728", "fusion_lat": 0.0, "name": "357acc684130464e216881d53f1cd728", "is_reserved": 0, "rental_uris": {"android": "https://dc.lft.to/lastmile_qr_scan", "ios": "https://dc.lft.to/lastmile_qr_scan"}, "fusion_lon": 0.0}, {"lat": 38.907956666666664, "is_disabled": 0, "type": "electric_scooter", "lon": -77.04336583333334, "bike_id": "54aaa003e3e4e15daa9043283bc9144c", "fusion_lat": 0.0, "name": "54aaa003e3e4e15daa9043283bc9144c", "is_reserved": 0, "rental_uris": {"android": "https://dc.lft.to/lastmile_qr_scan", "ios": "https://dc.lft.to/lastmile_qr_scan"}, "fusion_lon": 0.0}, {"lat": 38.905431, "is_disabled": 0, "type": "electric_scooter", "lon": -77.03401166666667, "bike_id": "8ef7c2e829d944798d14cf707dafcedf", "fusion_lat": 0.0, "name": "8ef7c2e829d944798d14cf707dafcedf", "is_reserved": 0, "rental_uris": {"android": "https://dc.lft.to/lastmile_qr_scan", "ios": "https://dc.lft.to/lastmile_qr_scan"}, "fusion_lon": 0.0}, {"lat": 38.90803583333334, "is_disabled": 0, "type": "electric_scooter", "lon": -77.04334416666667, "bike_id": "a82e2bbe7f9bfd673a767a878f8a8601", "fusion_lat": 0.0, "name": "a82e2bbe7f9bfd673a767a878f8a8601", "is_reserved": 0, "rental_uris": {"android": "https://dc.lft.to/lastmile_qr_scan", "ios": "https://dc.lft.to/lastmile_qr_scan"}, "fusion_lon": 0.0}, {"lat": 38.909787, "is_disabled": 0, "type": "electric_bike", "lon": -76.98516883333333, "bike_id": "962081c0c676bcdbdb16113293559096", "fusion_lat": 0.0, "name": "962081c0c676bcdbdb16113293559096", "is_reserved": 0, "rental_uris": {"android": "https://dc.lft.to/lastmile_qr_scan", "ios": "https://dc.lft.to/lastmile_qr_scan"}, "fusion_lon": 0.0}, {"lat": 38.9244715, "is_disabled": 0, "type": "electric_scooter", "lon": -77.0519065, "bike_id": "d312d9b2aa179c4cbb08d3f02035c689", "fusion_lat": 0.0, "name": "d312d9b2aa179c4cbb08d3f02035c689", "is_reserved": 0, "rental_uris": {"android": "https://dc.lft.to/lastmile_qr_scan", "ios": "https://dc.lft.to/lastmile_qr_scan"}, "fusion_lon": 0.0}, {"lat": 38.89345083333333, "is_disabled": 0, "type": "electric_scooter", "lon": -76.94936066666666, "bike_id": "882fd6bf9774a02bff4d24e96c774bbd", "fusion_lat": 0.0, "name": "882fd6bf9774a02bff4d24e96c774bbd", "is_reserved": 0, "rental_uris": {"android": "https://dc.lft.to/lastmile_qr_scan", "ios": "https://dc.lft.to/lastmile_qr_scan"}, "fusion_lon": 0.0}, {"lat": 38.971946833333334, "is_disabled": 0, "type": "electric_bike", "lon": -77.02717033333333, "bike_id": "c86de608a1578f03473e6b115f5e73bd", "fusion_lat": 0.0, "name": "c86de608a1578f03473e6b115f5e73bd", "is_reserved": 0, "rental_uris": {"android": "https://dc.lft.to/lastmile_qr_scan", "ios": "https://dc.lft.to/lastmile_qr_scan"}, "fusion_lon": 0.0}, {"lat": 38.909723666666665, "is_disabled": 0, "type": "electric_scooter", "lon": -77.03255116666666, "bike_id": "b02ed2a74549a639f20eaaa9a39bf163", "fusion_lat": 0.0, "name": "b02ed2a74549a639f20eaaa9a39bf163", "is_reserved": 0, "rental_uris": {"android": "https://dc.lft.to/lastmile_qr_scan", "ios": "https://dc.lft.to/lastmile_qr_scan"}, "fusion_lon": 0.0}, {"lat": 38.90972283333333, "is_disabled": 0, "type": "electric_scooter", "lon": -77.009209, "bike_id": "9a8dffdbba18ecbaef220f20a2545270", "fusion_lat": 0.0, "name": "9a8dffdbba18ecbaef220f20a2545270", "is_reserved": 0, "rental_uris": {"android": "https://dc.lft.to/lastmile_qr_scan", "ios": "https://dc.lft.to/lastmile_qr_scan"}, "fusion_lon": 0.0}, {"lat": 38.91056183333333, "is_disabled": 0, "type": "electric_scooter", "lon": -77.043348, "bike_id": "7d726ffd942bbaa6240da0e796698bc0", "fusion_lat": 0.0, "name": "7d726ffd942bbaa6240da0e796698bc0", "is_reserved": 0, "rental_uris": {"android": "https://dc.lft.to/lastmile_qr_scan", "ios": "https://dc.lft.to/lastmile_qr_scan"}, "fusion_lon": 0.0}, {"lat": 38.898897166666664, "is_disabled": 0, "type": "electric_scooter", "lon": -77.03951683333334, "bike_id": "6f759ab85c7ca3d643d3460fd19f540c", "fusion_lat": 0.0, "name": "6f759ab85c7ca3d643d3460fd19f540c", "is_reserved": 0, "rental_uris": {"android": "https://dc.lft.to/lastmile_qr_scan", "ios": "https://dc.lft.to/lastmile_qr_scan"}, "fusion_lon": 0.0}, {"lat": 38.892296, "is_disabled": 0, "type": "electric_scooter", "lon": -77.05001266666666, "bike_id": "f70b9b4d7b5265aaf75915680ba715e1", "fusion_lat": 0.0, "name": "f70b9b4d7b5265aaf75915680ba715e1", "is_reserved": 0, "rental_uris": {"android": "https://dc.lft.to/lastmile_qr_scan", "ios": "https://dc.lft.to/lastmile_qr_scan"}, "fusion_lon": 0.0}, {"lat": 38.90041333333333, "is_disabled": 0, "type": "electric_scooter", "lon": -77.00580566666666, "bike_id": "f44ce88e74cf1961e1b90effd8e6a7cc", "fusion_lat": 0.0, "name": "f44ce88e74cf1961e1b90effd8e6a7cc", "is_reserved": 0, "rental_uris": {"android": "https://dc.lft.to/lastmile_qr_scan", "ios": "https://dc.lft.to/lastmile_qr_scan"}, "fusion_lon": 0.0}, {"lat": 38.95278316666667, "is_disabled": 0, "type": "electric_scooter", "lon": -77.03662483333333, "bike_id": "7a69fd2dcfc5f56f20a7cdbcb9f1f424", "fusion_lat": 0.0, "name": "7a69fd2dcfc5f56f20a7cdbcb9f1f424", "is_reserved": 0, "rental_uris": {"android": "https://dc.lft.to/lastmile_qr_scan", "ios": "https://dc.lft.to/lastmile_qr_scan"}, "fusion_lon": 0.0}, {"lat": 38.9247105, "is_disabled": 0, "type": "electric_bike", "lon": -77.20838033333334, "bike_id": "261865413160f14f258c4e6f63a93378", "fusion_lat": 0.0, "name": "261865413160f14f258c4e6f63a93378", "is_reserved": 0, "rental_uris": {"android": "https://dc.lft.to/lastmile_qr_scan", "ios": "https://dc.lft.to/lastmile_qr_scan"}, "fusion_lon": 0.0}, {"lat": 38.9445205, "is_disabled": 0, "type": "electric_scooter", "lon": -77.06031216666666, "bike_id": "9618a652ff72c05a45c71d98e4aa861a", "fusion_lat": 0.0, "name": "9618a652ff72c05a45c71d98e4aa861a", "is_reserved": 0, "rental_uris": {"android": "https://dc.lft.to/lastmile_qr_scan", "ios": "https://dc.lft.to/lastmile_qr_scan"}, "fusion_lon": 0.0}, {"lat": 38.858087166666664, "is_disabled": 0, "type": "electric_scooter", "lon": -76.986552, "bike_id": "e74297ec59c6a9f5b9828d462fd3ca4a", "fusion_lat": 0.0, "name": "e74297ec59c6a9f5b9828d462fd3ca4a", "is_reserved": 0, "rental_uris": {"android": "https://dc.lft.to/lastmile_qr_scan", "ios": "https://dc.lft.to/lastmile_qr_scan"}, "fusion_lon": 0.0}, {"lat": 38.92248816666667, "is_disabled": 0, "type": "electric_scooter", "lon": -76.9938715, "bike_id": "eb865b4ad85bdaf9ca271801cc77f12e", "fusion_lat": 0.0, "name": "eb865b4ad85bdaf9ca271801cc77f12e", "is_reserved": 0, "rental_uris": {"android": "https://dc.lft.to/lastmile_qr_scan", "ios": "https://dc.lft.to/lastmile_qr_scan"}, "fusion_lon": 0.0}, {"lat": 38.9181275, "is_disabled": 0, "type": "electric_scooter", "lon": -77.02874033333333, "bike_id": "f45726a648b531fa02ca244b0a125915", "fusion_lat": 0.0, "name": "f45726a648b531fa02ca244b0a125915", "is_reserved": 0, "rental_uris": {"android": "https://dc.lft.to/lastmile_qr_scan", "ios": "https://dc.lft.to/lastmile_qr_scan"}, "fusion_lon": 0.0}, {"lat": 38.87424083333333, "is_disabled": 0, "type": "electric_bike", "lon": -77.08575216666667, "bike_id": "49b8bd3464cbc66ffd0a0fccf75161d8", "fusion_lat": 0.0, "name": "49b8bd3464cbc66ffd0a0fccf75161d8", "is_reserved": 0, "rental_uris": {"android": "https://dc.lft.to/lastmile_qr_scan", "ios": "https://dc.lft.to/lastmile_qr_scan"}, "fusion_lon": 0.0}, {"lat": 38.917071166666666, "is_disabled": 0, "type": "electric_scooter", "lon": -77.024685, "bike_id": "57d1141f274dd4d04ca25c077460e79d", "fusion_lat": 0.0, "name": "57d1141f274dd4d04ca25c077460e79d", "is_reserved": 0, "rental_uris": {"android": "https://dc.lft.to/lastmile_qr_scan", "ios": "https://dc.lft.to/lastmile_qr_scan"}, "fusion_lon": 0.0}, {"lat": 38.9293995, "is_disabled": 0, "type": "electric_scooter", "lon": -77.032554, "bike_id": "76a68f44eda2e3ab68a3157f1fc3f239", "fusion_lat": 0.0, "name": "76a68f44eda2e3ab68a3157f1fc3f239", "is_reserved": 0, "rental_uris": {"android": "https://dc.lft.to/lastmile_qr_scan", "ios": "https://dc.lft.to/lastmile_qr_scan"}, "fusion_lon": 0.0}, {"lat": 38.909005666666665, "is_disabled": 0, "type": "electric_scooter", "lon": -77.03212033333334, "bike_id": "42faf9ac1d030e6f3d1b4bfbc640fee2", "fusion_lat": 0.0, "name": "42faf9ac1d030e6f3d1b4bfbc640fee2", "is_reserved": 0, "rental_uris": {"android": "https://dc.lft.to/lastmile_qr_scan", "ios": "https://dc.lft.to/lastmile_qr_scan"}, "fusion_lon": 0.0}, {"lat": 38.91694783333333, "is_disabled": 0, "type": "electric_scooter", "lon": -77.04273933333333, "bike_id": "cf7b3463908def54dc26ab5e407f40ca", "fusion_lat": 0.0, "name": "cf7b3463908def54dc26ab5e407f40ca", "is_reserved": 0, "rental_uris": {"android": "https://dc.lft.to/lastmile_qr_scan", "ios": "https://dc.lft.to/lastmile_qr_scan"}, "fusion_lon": 0.0}, {"lat": 38.92710816666666, "is_disabled": 0, "type": "electric_scooter", "lon": -77.02096766666666, "bike_id": "e7268d1edbe388cd744d1bd21695976b", "fusion_lat": 0.0, "name": "e7268d1edbe388cd744d1bd21695976b", "is_reserved": 0, "rental_uris": {"android": "https://dc.lft.to/lastmile_qr_scan", "ios": "https://dc.lft.to/lastmile_qr_scan"}, "fusion_lon": 0.0}, {"lat": 38.91632333333333, "is_disabled": 0, "type": "electric_scooter", "lon": -77.03276183333334, "bike_id": "8ba215a01cfe759414ccb61425ef2195", "fusion_lat": 0.0, "name": "8ba215a01cfe759414ccb61425ef2195", "is_reserved": 0, "rental_uris": {"android": "https://dc.lft.to/lastmile_qr_scan", "ios": "https://dc.lft.to/lastmile_qr_scan"}, "fusion_lon": 0.0}, {"lat": 38.905555166666666, "is_disabled": 0, "type": "electric_scooter", "lon": -77.04348383333334, "bike_id": "98e90151d6961cdfb6182b7245e50e39", "fusion_lat": 0.0, "name": "98e90151d6961cdfb6182b7245e50e39", "is_reserved": 0, "rental_uris": {"android": "https://dc.lft.to/lastmile_qr_scan", "ios": "https://dc.lft.to/lastmile_qr_scan"}, "fusion_lon": 0.0}, {"lat": 38.871445666666666, "is_disabled": 0, "type": "electric_bike", "lon": -76.93705883333334, "bike_id": "806e12b58c5b2947fbd01bfaf692ff04", "fusion_lat": 0.0, "name": "806e12b58c5b2947fbd01bfaf692ff04", "is_reserved": 0, "rental_uris": {"android": "https://dc.lft.to/lastmile_qr_scan", "ios": "https://dc.lft.to/lastmile_qr_scan"}, "fusion_lon": 0.0}, {"lat": 38.867108, "is_disabled": 0, "type": "electric_scooter", "lon": -76.98726683333334, "bike_id": "f1212fe85c7fd386a3b2fca22d61f1a5", "fusion_lat": 0.0, "name": "f1212fe85c7fd386a3b2fca22d61f1a5", "is_reserved": 0, "rental_uris": {"android": "https://dc.lft.to/lastmile_qr_scan", "ios": "https://dc.lft.to/lastmile_qr_scan"}, "fusion_lon": 0.0}, {"lat": 38.930959333333334, "is_disabled": 0, "type": "electric_scooter", "lon": -77.02506666666666, "bike_id": "ea17543008ed2cfd08f5229d9911f859", "fusion_lat": 0.0, "name": "ea17543008ed2cfd08f5229d9911f859", "is_reserved": 0, "rental_uris": {"android": "https://dc.lft.to/lastmile_qr_scan", "ios": "https://dc.lft.to/lastmile_qr_scan"}, "fusion_lon": 0.0}, {"lat": 38.8988815, "is_disabled": 0, "type": "electric_scooter", "lon": -77.04029766666666, "bike_id": "5d317c59175aa247fc645583bb12ca22", "fusion_lat": 0.0, "name": "5d317c59175aa247fc645583bb12ca22", "is_reserved": 0, "rental_uris": {"android": "https://dc.lft.to/lastmile_qr_scan", "ios": "https://dc.lft.to/lastmile_qr_scan"}, "fusion_lon": 0.0}, {"lat": 38.902981833333335, "is_disabled": 0, "type": "electric_scooter", "lon": -77.04680016666667, "bike_id": "57251bcdd3831bfa2509bcc5b7758d8f", "fusion_lat": 0.0, "name": "57251bcdd3831bfa2509bcc5b7758d8f", "is_reserved": 0, "rental_uris": {"android": "https://dc.lft.to/lastmile_qr_scan", "ios": "https://dc.lft.to/lastmile_qr_scan"}, "fusion_lon": 0.0}, {"lat": 38.8811185, "is_disabled": 0, "type": "electric_scooter", "lon": -76.98337216666667, "bike_id": "353574838b5626f2bad84223c4374f95", "fusion_lat": 0.0, "name": "353574838b5626f2bad84223c4374f95", "is_reserved": 0, "rental_uris": {"android": "https://dc.lft.to/lastmile_qr_scan", "ios": "https://dc.lft.to/lastmile_qr_scan"}, "fusion_lon": 0.0}, {"lat": 38.84565933333333, "is_disabled": 0, "type": "electric_bike", "lon": -77.09621666666666, "bike_id": "743dd62cfd07f9f4a228c67f6c053238", "fusion_lat": 0.0, "name": "743dd62cfd07f9f4a228c67f6c053238", "is_reserved": 0, "rental_uris": {"android": "https://dc.lft.to/lastmile_qr_scan", "ios": "https://dc.lft.to/lastmile_qr_scan"}, "fusion_lon": 0.0}, {"lat": 38.88693983333334, "is_disabled": 0, "type": "electric_scooter", "lon": -77.01765583333334, "bike_id": "c57479ac6819b31906b8f2baeda6d566", "fusion_lat": 0.0, "name": "c57479ac6819b31906b8f2baeda6d566", "is_reserved": 0, "rental_uris": {"android": "https://dc.lft.to/lastmile_qr_scan", "ios": "https://dc.lft.to/lastmile_qr_scan"}, "fusion_lon": 0.0}, {"lat": 38.88390066666667, "is_disabled": 0, "type": "electric_scooter", "lon": -77.01888016666666, "bike_id": "058fd96e84fc70615f02b12eab31dcc8", "fusion_lat": 0.0, "name": "058fd96e84fc70615f02b12eab31dcc8", "is_reserved": 0, "rental_uris": {"android": "https://dc.lft.to/lastmile_qr_scan", "ios": "https://dc.lft.to/lastmile_qr_scan"}, "fusion_lon": 0.0}, {"lat": 38.903615333333335, "is_disabled": 0, "type": "electric_scooter", "lon": -77.022011, "bike_id": "31d416b3d8847beb3bf722ab9c89c03c", "fusion_lat": 0.0, "name": "31d416b3d8847beb3bf722ab9c89c03c", "is_reserved": 0, "rental_uris": {"android": "https://dc.lft.to/lastmile_qr_scan", "ios": "https://dc.lft.to/lastmile_qr_scan"}, "fusion_lon": 0.0}, {"lat": 38.922445, "is_disabled": 0, "type": "electric_scooter", "lon": -77.02183233333334, "bike_id": "cc048bd96bf0114b45a3c50ba60ce163", "fusion_lat": 0.0, "name": "cc048bd96bf0114b45a3c50ba60ce163", "is_reserved": 0, "rental_uris": {"android": "https://dc.lft.to/lastmile_qr_scan", "ios": "https://dc.lft.to/lastmile_qr_scan"}, "fusion_lon": 0.0}, {"lat": 38.90048983333333, "is_disabled": 0, "type": "electric_scooter", "lon": -76.9901485, "bike_id": "c2e335cc417f7338460d584e5a00c705", "fusion_lat": 0.0, "name": "c2e335cc417f7338460d584e5a00c705", "is_reserved": 0, "rental_uris": {"android": "https://dc.lft.to/lastmile_qr_scan", "ios": "https://dc.lft.to/lastmile_qr_scan"}, "fusion_lon": 0.0}, {"lat": 38.8769065, "is_disabled": 0, "type": "electric_scooter", "lon": -77.0175095, "bike_id": "bc530f1808dbf5c29d674ea9d7fd4d90", "fusion_lat": 0.0, "name": "bc530f1808dbf5c29d674ea9d7fd4d90", "is_reserved": 0, "rental_uris": {"android": "https://dc.lft.to/lastmile_qr_scan", "ios": "https://dc.lft.to/lastmile_qr_scan"}, "fusion_lon": 0.0}, {"lat": 38.86891683333333, "is_disabled": 0, "type": "electric_scooter", "lon": -76.98310483333333, "bike_id": "cc6031b71fbb7fe25b3c7719d3e195fe", "fusion_lat": 0.0, "name": "cc6031b71fbb7fe25b3c7719d3e195fe", "is_reserved": 0, "rental_uris": {"android": "https://dc.lft.to/lastmile_qr_scan", "ios": "https://dc.lft.to/lastmile_qr_scan"}, "fusion_lon": 0.0}, {"lat": 38.917079, "is_disabled": 0, "type": "electric_scooter", "lon": -77.024949, "bike_id": "1e61820e84694e412b0ee889dd7d9446", "fusion_lat": 0.0, "name": "1e61820e84694e412b0ee889dd7d9446", "is_reserved": 0, "rental_uris": {"android": "https://dc.lft.to/lastmile_qr_scan", "ios": "https://dc.lft.to/lastmile_qr_scan"}, "fusion_lon": 0.0},