{"data": {"bikes": [{"rental_uris": {"ios": "https://dc.lft.to/lastmile_qr_scan", "android": "https://dc.lft.to/lastmile_qr_scan"}, "type": "electric_scooter", "name": "893eace2da997ca2dbd7f1ad4822772c", "is_reserved": 0, "lon": -77.04604083333334, "is_disabled": 0, "fusion_lat": 0.0, "lat": 38.91915316666667, "bike_id": "893eace2da997ca2dbd7f1ad4822772c", "fusion_lon": 0.0}, {"rental_uris": {"ios": "https://dc.lft.to/lastmile_qr_scan", "android": "https://dc.lft.to/lastmile_qr_scan"}, "type": "electric_scooter", "name": "b68556637d47b8da63cb5d8a4f153f5b", "is_reserved": 0, "lon": -77.025722, "is_disabled": 0, "fusion_lat": 0.0, "lat": 38.935247333333336, "bike_id": "b68556637d47b8da63cb5d8a4f153f5b", "fusion_lon": 0.0}, {"rental_uris": {"ios": "https://dc.lft.to/lastmile_qr_scan", "android": "https://dc.lft.to/lastmile_qr_scan"}, "type": "electric_scooter", "name": "e5b70ceb77d5331de9bc67972b5e2185", "is_reserved": 0, "lon": -77.02524916666667, "is_disabled": 0, "fusion_lat": 0.0, "lat": 38.880434666666666, "bike_id": "e5b70ceb77d5331de9bc67972b5e2185", "fusion_lon": 0.0}, {"rental_uris": {"ios": "https://dc.lft.to/lastmile_qr_scan", "android": "https://dc.lft.to/lastmile_qr_scan"}, "type": "electric_scooter", "name": "5c163fd3cb72b7fccfe6e76a69046ad2", "is_reserved": 0, "lon": -77.01538233333333, "is_disabled": 0, "fusion_lat": 0.0, "lat": 38.89168933333333, "bike_id": "5c163fd3cb72b7fccfe6e76a69046ad2", "fusion_lon": 0.0}, {"rental_uris": {"ios": "https://dc.lft.to/lastmile_qr_scan", "android": "https://dc.lft.to/lastmile_qr_scan"}, "type": "electric_scooter", "name": "d41f1c92c989bea40f19a1a9c6159f89", "is_reserved": 0, "lon": -77.029696, "is_disabled": 0, "fusion_lat": 0.0, "lat": 38.932466166666664, "bike_id": "d41f1c92c989bea40f19a1a9c6159f89", "fusion_lon": 0.0}, {"rental_uris": {"ios": "https://dc.lft.to/lastmile_qr_scan", "android": "https://dc.lft.to/lastmile_qr_scan"}, "type": "electric_scooter", "name": "bcd43740d3d56c3570bf6fbe3b5596cc", "is_reserved": 0, "lon": -77.02156166666667, "is_disabled": 0, "fusion_lat": 0.0, "lat": 38.926014, "bike_id": "bcd43740d3d56c3570bf6fbe3b5596cc", "fusion_lon": 0.0}, {"rental_uris": {"ios": "https://dc.lft.to/lastmile_qr_scan", "android": "https://dc.lft.to/lastmile_qr_scan"}, "type": "electric_scooter", "name": "dfd1fd580f56049df56ceed9cc7c3ff3", "is_reserved": 0, "lon": -77.0627835, "is_disabled": 0, "fusion_lat": 0.0, "lat": 38.91241466666666, "bike_id": "dfd1fd580f56049df56ceed9cc7c3ff3", "fusion_lon": 0.0}, {"rental_uris": {"ios": "https://dc.lft.to/lastmile_qr_scan", "android": "https://dc.lft.to/lastmile_qr_scan"}, "type": "electric_scooter", "name": "459b0f6fddaeee705cf4be427ff2a8fa", "is_reserved": 0, "lon": -76.9816085, "is_disabled": 0, "fusion_lat": 0.0, "lat": 38.86173483333334, "bike_id": "459b0f6fddaeee705cf4be427ff2a8fa", "fusion_lon": 0.0}, {"rental_uris": {"ios": "https://dc.lft.to/lastmile_qr_scan", "android": "https://dc.lft.to/lastmile_qr_scan"}, "type": "electric_bike", "name": "74b2ed9669c36517882f7772a552045e", "is_reserved": 0, "lon": -77.01353516666667, "is_disabled": 0, "fusion_lat": 0.0, "lat": 38.916000333333336, "bike_id": "74b2ed9669c36517882f7772a552045e", "fusion_lon": 0.0}, {"rental_uris": {"ios": "https://dc.lft.to/lastmile_qr_scan", "android": "https://dc.lft.to/lastmile_qr_scan"}, "type": "electric_scooter", "name": "f128129c60def0235ff34546a2f76e10", "is_reserved": 0, "lon": -77.04413666666666, "is_disabled": 0, "fusion_lat": 0.0, "lat": 38.91133583333333, "bike_id": "f128129c60def0235ff34546a2f76e10", "fusion_lon": 0.0}, {"rental_uris": {"ios": "https://dc.lft.to/lastmile_qr_scan", "android": "https://dc.lft.to/lastmile_qr_scan"}, "type": "electric_scooter", "name": "b00e586bca91a9013d49ffe35ad98911", "is_reserved": 0, "lon": -77.02135383333334, "is_disabled": 0, "fusion_lat": 0.0, "lat": 38.92446866666667, "bike_id": "b00e586bca91a9013d49ffe35ad98911", "fusion_lon": 0.0}, {"rental_uris": {"ios": "https://dc.lft.to/lastmile_qr_scan", "android": "https://dc.lft.to/lastmile_qr_scan"}, "type": "electric_scooter", "name": "033e9295b12f0b7b8efbe49e07bbea04", "is_reserved": 0, "lon": -77.0238355, "is_disabled": 0, "fusion_lat": 0.0, "lat": 38.897406, "bike_id": "033e9295b12f0b7b8efbe49e07bbea04", "fusion_lon": 0.0}, {"rental_uris": {"ios": "https://dc.lft.to/lastmile_qr_scan", "android": "https://dc.lft.to/lastmile_qr_scan"}, "type": "electric_scooter", "name": "395614659eba356ea3e26cb2cb88cd40", "is_reserved": 0, "lon": -77.01962733333333, "is_disabled": 0, "fusion_lat": 0.0, "lat": 38.929094, "bike_id": "395614659eba356ea3e26cb2cb88cd40", "fusion_lon": 0.0}, {"rental_uris": {"ios": "https://dc.lft.to/lastmile_qr_scan", "android": "https://dc.lft.to/lastmile_qr_scan"}, "type": "electric_scooter", "name": "369fa37833620d1373bacb8d9add2cb2", "is_reserved": 0, "lon": -77.01763083333333, "is_disabled": 0, "fusion_lat": 0.0, "lat": 38.877191333333336, "bike_id": "369fa37833620d1373bacb8d9add2cb2", "fusion_lon": 0.0}, {"rental_uris": {"ios": "https://dc.lft.to/lastmile_qr_scan", "android": "https://dc.lft.to/lastmile_qr_scan"}, "type": "electric_scooter", "name": "6ddfc0c6196a84f0e0390d8501a9dc03", "is_reserved": 0, "lon": -76.996314, "is_disabled": 0, "fusion_lat": 0.0, "lat": 38.8773315, "bike_id": "6ddfc0c6196a84f0e0390d8501a9dc03", "fusion_lon": 0.0}, {"rental_uris": {"ios": "https://dc.lft.to/lastmile_qr_scan", "android": "https://dc.lft.to/lastmile_qr_scan"}, "type": "electric_bike", "name": "8df364ba2f3bc9076d096e4c44bcad81", "is_reserved": 0, "lon": -77.09624716666667, "is_disabled": 0, "fusion_lat": 0.0, "lat": 38.97431, "bike_id": "8df364ba2f3bc9076d096e4c44bcad81", "fusion_lon": 0.0}, {"rental_uris": {"ios": "https://dc.lft.to/lastmile_qr_scan", "android": "https://dc.lft.to/lastmile_qr_scan"}, "type": "electric_scooter", "name": "1e69e8b34459526b605ebc64ea958312", "is_reserved": 0, "lon": -77.056878, "is_disabled": 0, "fusion_lat": 0.0, "lat": 38.905295333333335, "bike_id": "1e69e8b34459526b605ebc64ea958312", "fusion_lon": 0.0}, {"rental_uris": {"ios": "https://dc.lft.to/lastmile_qr_scan", "android": "https://dc.lft.to/lastmile_qr_scan"}, "type": "electric_scooter", "name": "1d83ed0e719534cfea8b6c79cb4bc439", "is_reserved": 0, "lon": -77.019034, "is_disabled": 0, "fusion_lat": 0.0, "lat": 38.9056775, "bike_id": "1d83ed0e719534cfea8b6c79cb4bc439", "fusion_lon": 0.0}, {"rental_uris": {"ios": "https://dc.lft.to/lastmile_qr_scan", "android": "https://dc.lft.to/lastmile_qr_scan"}, "type": "electric_scooter", "name": "e16efc80f97fc300398ebb7508b1fd65", "is_reserved": 0, "lon": -77.0522285, "is_disabled": 0, "fusion_lat": 0.0, "lat": 38.9244515, "bike_id": "e16efc80f97fc300398ebb7508b1fd65", "fusion_lon": 0.0}, {"rental_uris": {"ios": "https://dc.lft.to/lastmile_qr_scan", "android": "https://dc.lft.to/lastmile_qr_scan"}, "type": "electric_scooter", "name": "058cf4c78ae18f255563979f1d5b4200", "is_reserved": 0, "lon": -77.03374133333334, "is_disabled": 0, "fusion_lat": 0.0, "lat": 38.90973416666667, "bike_id": "058cf4c78ae18f255563979f1d5b4200", "fusion_lon": 0.0}, {"rental_uris": {"ios": "https://dc.lft.to/lastmile_qr_scan", "android": "https://dc.lft.to/lastmile_qr_scan"}, "type": "electric_scooter", "name": "50bf16cd6db7f1fa6deea4c0f3ea3de7", "is_reserved": 0, "lon": -76.9465215, "is_disabled": 0, "fusion_lat": 0.0, "lat": 38.898237, "bike_id": "50bf16cd6db7f1fa6deea4c0f3ea3de7", "fusion_lon": 0.0}, {"rental_uris": {"ios": "https://dc.lft.to/lastmile_qr_scan", "android": "https://dc.lft.to/lastmile_qr_scan"}, "type": "electric_bike", "name": "a02ba273995beff08ce2b9d09f39430e", "is_reserved": 0, "lon": -76.93335583333334, "is_disabled": 0, "fusion_lat": 0.0, "lat": 38.9515245, "bike_id": "a02ba273995beff08ce2b9d09f39430e", "fusion_lon": 0.0}, {"rental_uris": {"ios": "https://dc.lft.to/lastmile_qr_scan", "android": "https://dc.lft.to/lastmile_qr_scan"}, "type": "electric_scooter", "name": "f9c79af2e2e6f717b6b3fbf59fe02a1c", "is_reserved": 0, "lon": -77.05124933333333, "is_disabled": 0, "fusion_lat": 0.0, "lat": 38.9234195, "bike_id": "f9c79af2e2e6f717b6b3fbf59fe02a1c", "fusion_lon": 0.0}, {"rental_uris": {"ios": "https://dc.lft.to/lastmile_qr_scan", "android": "https://dc.lft.to/lastmile_qr_scan"}, "type": "electric_scooter", "name": "d33d749a89bcfc4de8130b4a7118df87", "is_reserved": 0, "lon": -76.99917433333333, "is_disabled": 0, "fusion_lat": 0.0, "lat": 38.921710833333336, "bike_id": "d33d749a89bcfc4de8130b4a7118df87", "fusion_lon": 0.0}, {"rental_uris": {"ios": "https://dc.lft.to/lastmile_qr_scan", "android": "https://dc.lft.to/lastmile_qr_scan"}, "type": "electric_bike", "name": "8a1e3a9a17b6cbc8efe5e1385815c8e3", "is_reserved": 0, "lon": -77.04313016666667, "is_disabled": 0, "fusion_lat": 0.0, "lat": 39.03421133333333, "bike_id": "8a1e3a9a17b6cbc8efe5e1385815c8e3", "fusion_lon": 0.0}, {"rental_uris": {"ios": "https://dc.lft.to/lastmile_qr_scan", "android": "https://dc.lft.to/lastmile_qr_scan"}, "type": "electric_bike", "name": "41e1b506b9ef5b6085f40006cb4c8448", "is_reserved": 0, "lon": -77.1135725, "is_disabled": 0, "fusion_lat": 0.0, "lat": 38.84193666666667, "bike_id": "41e1b506b9ef5b6085f40006cb4c8448", "fusion_lon": 0.0}, {"rental_uris": {"ios": "https://dc.lft.to/lastmile_qr_scan", "android": "https://dc.lft.to/lastmile_qr_scan"}, "type": "electric_scooter", "name": "6ac28e943539550503cf8211b17a0510", "is_reserved": 0, "lon": -76.93368966666667, "is_disabled": 0, "fusion_lat": 0.0, "lat": 38.8991165, "bike_id": "6ac28e943539550503cf8211b17a0510", "fusion_lon": 0.0}, {"rental_uris": {"ios": "https://dc.lft.to/lastmile_qr_scan", "android": "https://dc.lft.to/lastmile_qr_scan"}, "type": "electric_scooter", "name": "0f95735532e8a2751aa981a897830e0f", "is_reserved": 0, "lon": -77.01754533333333, "is_disabled": 0, "fusion_lat": 0.0, "lat": 38.900327, "bike_id": "0f95735532e8a2751aa981a897830e0f", "fusion_lon": 0.0}, {"rental_uris": {"ios": "https://dc.lft.to/lastmile_qr_scan", "android": "https://dc.lft.to/lastmile_qr_scan"}, "type": "electric_scooter", "name": "1ea455d257f6b48cb1d64876abbad1c5", "is_reserved": 0, "lon": -77.03127083333334, "is_disabled": 0, "fusion_lat": 0.0, "lat": 38.915515666666664, "bike_id": "1ea455d257f6b48cb1d64876abbad1c5", "fusion_lon": 0.0}, {"rental_uris": {"ios": "https://dc.lft.to/lastmile_qr_scan", "android": "https://dc.lft.to/lastmile_qr_scan"}, "type": "electric_scooter", "name": "98fa1f36b19256369a83b60a8a3dfa1d", "is_reserved": 0, "lon": -76.99348133333334, "is_disabled": 0, "fusion_lat": 0.0, "lat": 38.8769015, "bike_id": "98fa1f36b19256369a83b60a8a3dfa1d", "fusion_lon": 0.0}, {"rental_uris": {"ios": "https://dc.lft.to/lastmile_qr_scan", "android": "https://dc.lft.to/lastmile_qr_scan"}, "type": "electric_scooter", "name": "297dcc72f12c1e7609b62e1949d487e9", "is_reserved": 0, "lon": -76.98931983333334, "is_disabled": 0, "fusion_lat": 0.0, "lat": 38.878597, "bike_id": "297dcc72f12c1e7609b62e1949d487e9", "fusion_lon": 0.0}, {"rental_uris": {"ios": "https://dc.lft.to/lastmile_qr_scan", "android": "https://dc.lft.to/lastmile_qr_scan"}, "type": "electric_scooter", "name": "8e658a8865d707c5d532e592225be33a", "is_reserved": 0, "lon": -77.02076983333333, "is_disabled": 0, "fusion_lat": 0.0, "lat": 38.90864216666667, "bike_id": "8e658a8865d707c5d532e592225be33a", "fusion_lon": 0.0}, {"rental_uris": {"ios": "https://dc.lft.to/lastmile_qr_scan", "android": "https://dc.lft.to/lastmile_qr_scan"}, "type": "electric_scooter", "name": "46dc67ef55768f6011b9afbd8f90323c", "is_reserved": 0, "lon": -77.07455466666667, "is_disabled": 0, "fusion_lat": 0.0, "lat": 38.937796666666664, "bike_id": "46dc67ef55768f6011b9afbd8f90323c", "fusion_lon": 0.0}, {"rental_uris": {"ios": "https://dc.lft.to/lastmile_qr_scan", "android": "https://dc.lft.to/lastmile_qr_scan"}, "type": "electric_scooter", "name": "0213ff5653ffa891694917734a885afd", "is_reserved": 0, "lon": -77.051309, "is_disabled": 0, "fusion_lat": 0.0, "lat": 38.923629166666665, "bike_id": "0213ff5653ffa891694917734a885afd", "fusion_lon": 0.0}, {"rental_uris": {"ios": "https://dc.lft.to/lastmile_qr_scan", "android": "https://dc.lft.to/lastmile_qr_scan"}, "type": "electric_scooter", "name": "9e8754079e76ae7656379cdb69490b19", "is_reserved": 0, "lon": -77.02191483333333, "is_disabled": 0, "fusion_lat": 0.0, "lat": 38.90975366666667, "bike_id": "9e8754079e76ae7656379cdb69490b19", "fusion_lon": 0.0}, {"rental_uris": {"ios": "https://dc.lft.to/lastmile_qr_scan", "android": "https://dc.lft.to/lastmile_qr_scan"}, "type": "electric_scooter", "name": "b4a99ddd5c368379bf7fe7c9d7a6d01e", "is_reserved": 0, "lon": -77.03230216666667, "is_disabled": 0, "fusion_lat": 0.0, "lat": 38.923526, "bike_id": "b4a99ddd5c368379bf7fe7c9d7a6d01e", "fusion_lon": 0.0}, {"rental_uris": {"ios": "https://dc.lft.to/lastmile_qr_scan", "android": "https://dc.lft.to/lastmile_qr_scan"}, "type": "electric_scooter", "name": "40a968e3a76012b80750461c63576f47", "is_reserved": 0, "lon": -77.03164966666667, "is_disabled": 0, "fusion_lat": 0.0, "lat": 38.9141095, "bike_id": "40a968e3a76012b80750461c63576f47", "fusion_lon": 0.0}, {"rental_uris": {"ios": "https://dc.lft.to/lastmile_qr_scan", "android": "https://dc.lft.to/lastmile_qr_scan"}, "type": "electric_scooter", "name": "17887c7cbd49f31be294a45db7f8d93c", "is_reserved": 0, "lon": -77.043958, "is_disabled": 0, "fusion_lat": 0.0, "lat": 38.908901, "bike_id": "17887c7cbd49f31be294a45db7f8d93c", "fusion_lon": 0.0}, {"rental_uris": {"ios": "https://dc.lft.to/lastmile_qr_scan", "android": "https://dc.lft.to/lastmile_qr_scan"}, "type": "electric_scooter", "name": "34ed07377e16caeb38ca4b06e836a85f", "is_reserved": 0, "lon": -77.04136566666666, "is_disabled": 0, "fusion_lat": 0.0, "lat": 38.932738, "bike_id": "34ed07377e16caeb38ca4b06e836a85f", "fusion_lon": 0.0}, {"rental_uris": {"ios": "https://dc.lft.to/lastmile_qr_scan", "android": "https://dc.lft.to/lastmile_qr_scan"}, "type": "electric_scooter", "name": "452056e6e26f52b86ad8ab3d853b051a", "is_reserved": 0, "lon": -76.995305, "is_disabled": 0, "fusion_lat": 0.0, "lat": 38.87742333333333, "bike_id": "452056e6e26f52b86ad8ab3d853b051a", "fusion_lon": 0.0}, {"rental_uris": {"ios": "https://dc.lft.to/lastmile_qr_scan", "android": "https://dc.lft.to/lastmile_qr_scan"}, "type": "electric_scooter", "name": "90ab96b477f58f5403d51ee27e406f6e", "is_reserved": 0, "lon": -77.00556, "is_disabled": 0, "fusion_lat": 0.0, "lat": 38.874649833333336, "bike_id": "90ab96b477f58f5403d51ee27e406f6e", "fusion_lon": 0.0}, {"rental_uris": {"ios": "https://dc.lft.to/lastmile_qr_scan", "android": "https://dc.lft.to/lastmile_qr_scan"}, "type": "electric_scooter", "name": "14dce9893efaecef68eb34197f3aa348", "is_reserved": 0, "lon": -77.038591, "is_disabled": 0, "fusion_lat": 0.0, "lat": 38.911038833333336, "bike_id": "14dce9893efaecef68eb34197f3aa348", "fusion_lon": 0.0}, {"rental_uris": {"ios": "https://dc.lft.to/lastmile_qr_scan", "android": "https://dc.lft.to/lastmile_qr_scan"}, "type": "electric_scooter", "name": "8ca59feb81898e8819f295e3f9b9d73b", "is_reserved": 0, "lon": -76.98101466666667, "is_disabled": 0, "fusion_lat": 0.0, "lat": 38.902499, "bike_id": "8ca59feb81898e8819f295e3f9b9d73b", "fusion_lon": 0.0}, {"rental_uris": {"ios": "https://dc.lft.to/lastmile_qr_scan", "android": "https://dc.lft.to/lastmile_qr_scan"}, "type": "electric_scooter", "name": "fd496ccdd61885959ab96f43aadf3cbe", "is_reserved": 0, "lon": -77.04377416666667, "is_disabled": 0, "fusion_lat": 0.0, "lat": 38.93493333333333, "bike_id": "fd496ccdd61885959ab96f43aadf3cbe", "fusion_lon": 0.0}, {"rental_uris": {"ios": "https://dc.lft.to/lastmile_qr_scan", "android": "https://dc.lft.to/lastmile_qr_scan"}, "type": "electric_scooter", "name": "856725fdfd49aefeccb04e98ecf69ea7", "is_reserved": 0, "lon": -77.02946966666667, "is_disabled": 0, "fusion_lat": 0.0, "lat": 38.90896516666667, "bike_id": "856725fdfd49aefeccb04e98ecf69ea7", "fusion_lon": 0.0}, {"rental_uris": {"ios": "https://dc.lft.to/lastmile_qr_scan", "android": "https://dc.lft.to/lastmile_qr_scan"}, "type": "electric_scooter", "name": "301c5fc7aaa258e941eaea2a79e6dc61", "is_reserved": 0, "lon": -77.00419016666666, "is_disabled": 0, "fusion_lat": 0.0, "lat": 38.8770895, "bike_id": "301c5fc7aaa258e941eaea2a79e6dc61", "fusion_lon": 0.0}, {"rental_uris": {"ios": "https://dc.lft.to/lastmile_qr_scan", "android": "https://dc.lft.to/lastmile_qr_scan"}, "type": "electric_bike", "name": "3ed4c82cf4ce5647c3a1178716d7670f", "is_reserved": 0, "lon": -76.99918966666667, "is_disabled": 0, "fusion_lat": 0.0, "lat": 38.864475, "bike_id": "3ed4c82cf4ce5647c3a1178716d7670f", "fusion_lon": 0.0}, {"rental_uris": {"ios": "https://dc.lft.to/lastmile_qr_scan", "android": "https://dc.lft.to/lastmile_qr_scan"}, "type": "electric_scooter", "name": "7831435f7f24af11bf641362d3777b9b", "is_reserved": 0, "lon": -77.0611255, "is_disabled": 0, "fusion_lat": 0.0, "lat": 38.902375166666666, "bike_id": "7831435f7f24af11bf641362d3777b9b", "fusion_lon": 0.0}, {"rental_uris": {"ios": "https://dc.lft.to/lastmile_qr_scan", "android": "https://dc.lft.to/lastmile_qr_scan"}, "type": "electric_scooter", "name": "f4a86e607961c2a4bf0da2d8bdd91791", "is_reserved": 0, "lon": -77.04160366666666, "is_disabled": 0, "fusion_lat": 0.0, "lat": 38.919500666666664, "bike_id": "f4a86e607961c2a4bf0da2d8bdd91791", "fusion_lon": 0.0}, {"rental_uris": {"ios": "https://dc.lft.to/lastmile_qr_scan", "android": "https://dc.lft.to/lastmile_qr_scan"}, "type": "electric_scooter", "name": "0b1157f59790d698ff2447ce3572c353", "is_reserved": 0, "lon": -76.99500966666666, "is_disabled": 0, "fusion_lat": 0.0, "lat": 38.8624725, "bike_id": "0b1157f59790d698ff2447ce3572c353", "fusion_lon": 0.0}, {"rental_uris": {"ios": "https://dc.lft.to/lastmile_qr_scan", "android": "https://dc.lft.to/lastmile_qr_scan"}, "type": "electric_scooter", "name": "50388e1dd779164d9477574bf8686459", "is_reserved": 0, "lon": -77.032534, "is_disabled": 0, "fusion_lat": 0.0, "lat": 38.896105, "bike_id": "50388e1dd779164d9477574bf8686459", "fusion_lon": 0.0}, {"rental_uris": {"ios": "https://dc.lft.to/lastmile_qr_scan", "android": "https://dc.lft.to/lastmile_qr_scan"}, "type": "electric_scooter", "name": "08167c9607f928424452cfb99bb85915", "is_reserved": 0, "lon": -77.032106, "is_disabled": 0, "fusion_lat": 0.0, "lat": 38.9070845, "bike_id": "08167c9607f928424452cfb99bb85915", "fusion_lon": 0.0}, {"rental_uris": {"ios": "https://dc.lft.to/lastmile_qr_scan", "android": "https://dc.lft.to/lastmile_qr_scan"}, "type": "electric_scooter", "name": "73932b404e7dd12b903aaecfca6afc7b", "is_reserved": 0, "lon": -77.08405333333333, "is_disabled": 0, "fusion_lat": 0.0, "lat": 38.908029666666664, "bike_id": "73932b404e7dd12b903aaecfca6afc7b", "fusion_lon": 0.0}, {"rental_uris": {"ios": "https://dc.lft.to/lastmile_qr_scan", "android": "https://dc.lft.to/lastmile_qr_scan"}, "type": "electric_scooter", "name": "9d7a2085f85d029c443b38dbb0f67595", "is_reserved": 0, "lon": -77.042477, "is_disabled": 0, "fusion_lat": 0.0, "lat": 38.921799166666666, "bike_id": "9d7a2085f85d029c443b38dbb0f67595", "fusion_lon": 0.0}, {"rental_uris": {"ios": "https://dc.lft.to/lastmile_qr_scan", "android": "https://dc.lft.to/lastmile_qr_scan"}, "type": "electric_bike", "name": "f2ff79904130306907a3b9f19fad43f7", "is_reserved": 0, "lon": -76.94554966666666, "is_disabled": 0, "fusion_lat": 0.0, "lat": 38.983012, "bike_id": "f2ff79904130306907a3b9f19fad43f7", "fusion_lon": 0.0}, {"rental_uris": {"ios": "https://dc.lft.to/lastmile_qr_scan", "android": "https://dc.lft.to/lastmile_qr_scan"}, "type": "electric_scooter", "name": "e4a7b1a2c1e233d07d5b9ad86fe2c0c5", "is_reserved": 0, "lon": -77.00363816666666, "is_disabled": 0, "fusion_lat": 0.0, "lat": 38.877061166666664, "bike_id": "e4a7b1a2c1e233d07d5b9ad86fe2c0c5", "fusion_lon": 0.0}, {"rental_uris": {"ios": "https://dc.lft.to/lastmile_qr_scan", "android": "https://dc.lft.to/lastmile_qr_scan"}, "type": "electric_scooter", "name": "cac8cc7e7ba0eddcb297c77869925672", "is_reserved": 0, "lon": -77.00063716666666, "is_disabled": 0, "fusion_lat": 0.0, "lat": 38.876826, "bike_id": "cac8cc7e7ba0eddcb297c77869925672", "fusion_lon": 0.0}, {"rental_uris": {"ios": "https://dc.lft.to/lastmile_qr_scan", "android": "https://dc.lft.to/lastmile_qr_scan"}, "type": "electric_bike", "name": "f26db32ef96d83c5cc4f908734eb95e2", "is_reserved": 0, "lon": -76.99579883333334, "is_disabled": 0, "fusion_lat": 0.0, "lat": 38.92070283333334, "bike_id": "f26db32ef96d83c5cc4f908734eb95e2", "fusion_lon": 0.0}, {"rental_uris": {"ios": "https://dc.lft.to/lastmile_qr_scan", "android": "https://dc.lft.to/lastmile_qr_scan"}, "type": "electric_scooter", "name": "d0d14f6c7a9237c8dfb0812e07596dca", "is_reserved": 0, "lon": -77.02981083333333, "is_disabled": 0, "fusion_lat": 0.0, "lat": 38.91710616666667, "bike_id": "d0d14f6c7a9237c8dfb0812e07596dca", "fusion_lon": 0.0}, {"rental_uris": {"ios": "https://dc.lft.to/lastmile_qr_scan", "android": "https://dc.lft.to/lastmile_qr_scan"}, "type": "electric_bike", "name": "37a5f9060170e3e9c071a5fd2437bc17", "is_reserved": 0, "lon": -76.95237766666666, "is_disabled": 0, "fusion_lat": 0.0, "lat": 38.884694333333336, "bike_id": "37a5f9060170e3e9c071a5fd2437bc17", "fusion_lon": 0.0}, {"rental_uris": {"ios": "https://dc.lft.to/lastmile_qr_scan", "android": "https://dc.lft.to/lastmile_qr_scan"}, "type": "electric_scooter", "name": "6db3cf836000a4465b818edeb2cccdfa", "is_reserved": 0, "lon": -77.044243, "is_disabled": 0, "fusion_lat": 0.0, "lat": 38.9212535, "bike_id": "6db3cf836000a4465b818edeb2cccdfa", "fusion_lon": 0.0}, {"rental_uris": {"ios": "https://dc.lft.to/lastmile_qr_scan", "android": "https://dc.lft.to/lastmile_qr_scan"}, "type": "electric_bike", "name": "cd53612104d16904c63a21155c7915b9", "is_reserved": 0, "lon": -76.92890916666667, "is_disabled": 0, "fusion_lat": 0.0, "lat": 38.978266833333336, "bike_id": "cd53612104d16904c63a21155c7915b9", "fusion_lon": 0.0}, {"rental_uris": {"ios": "https://dc.lft.to/lastmile_qr_scan", "android": "https://dc.lft.to/lastmile_qr_scan"}, "type": "electric_bike", "name": "ff29cbc45b131ee0bea9ec2d1725c79f", "is_reserved": 0, "lon": -76.98349516666667, "is_disabled": 0, "fusion_lat": 0.0, "lat": 38.86263833333334, "bike_id": "ff29cbc45b131ee0bea9ec2d1725c79f", "fusion_lon": 0.0}, {"rental_uris": {"ios": "https://dc.lft.to/lastmile_qr_scan", "android": "https://dc.lft.to/lastmile_qr_scan"}, "type": "electric_scooter", "name": "c096e1cc5a3b5a80b0010eb216c1769b", "is_reserved": 0, "lon": -77.0501885, "is_disabled": 0, "fusion_lat": 0.0, "lat": 38.92359616666667, "bike_id": "c096e1cc5a3b5a80b0010eb216c1769b", "fusion_lon": 0.0}, {"rental_uris": {"ios": "https://dc.lft.to/lastmile_qr_scan", "android": "https://dc.lft.to/lastmile_qr_scan"}, "type": "electric_scooter", "name": "028da971c3134b97acf23ca4d958c2dc", "is_reserved": 0, "lon": -77.02773133333334, "is_disabled": 0, "fusion_lat": 0.0, "lat": 38.9169285, "bike_id": "028da971c3134b97acf23ca4d958c2dc", "fusion_lon": 0.0}, {"rental_uris": {"ios": "https://dc.lft.to/lastmile_qr_scan", "android": "https://dc.lft.to/lastmile_qr_scan"}, "type": "electric_scooter", "name": "e3973a6332672253f0719b47a4067d6a", "is_reserved": 0, "lon": -77.03708066666667, "is_disabled": 0, "fusion_lat": 0.0, "lat": 38.91803383333333, "bike_id": "e3973a6332672253f0719b47a4067d6a", "fusion_lon": 0.0}, {"rental_uris": {"ios": "https://dc.lft.to/lastmile_qr_scan", "android": "https://dc.lft.to/lastmile_qr_scan"}, "type": "electric_scooter", "name": "962511b96ac29ffe0ac2d04e50a0d28c", "is_reserved": 0, "lon": -77.03196083333333, "is_disabled": 0, "fusion_lat": 0.0, "lat": 38.9157595, "bike_id": "962511b96ac29ffe0ac2d04e50a0d28c", "fusion_lon": 0.0}, {"rental_uris": {"ios": "https://dc.lft.to/lastmile_qr_scan", "android": "https://dc.lft.to/lastmile_qr_scan"}, "type": "electric_scooter", "name": "cd6b856436f8fec2acebb52426cb1410", "is_reserved": 0, "lon": -77.054218, "is_disabled": 0, "fusion_lat": 0.0, "lat": 38.92847316666667, "bike_id": "cd6b856436f8fec2acebb52426cb1410", "fusion_lon": 0.0}, {"rental_uris": {"ios": "https://dc.lft.to/lastmile_qr_scan", "android": "https://dc.lft.to/lastmile_qr_scan"}, "type": "electric_bike", "name": "f4992f63a99ed5755a4a5893b8d66d4f", "is_reserved": 0, "lon": -77.024051, "is_disabled": 0, "fusion_lat": 0.0, "lat": 38.907492500000004, "bike_id": "f4992f63a99ed5755a4a5893b8d66d4f", "fusion_lon": 0.0}, {"rental_uris": {"ios": "https://dc.lft.to/lastmile_qr_scan", "android": "https://dc.lft.to/lastmile_qr_scan"}, "type": "electric_scooter", "name": "3c2f3a16782d1218d2967f9f914dcd06", "is_reserved": 0, "lon": -77.0121405, "is_disabled": 0, "fusion_lat": 0.0, "lat": 38.8716975, "bike_id": "3c2f3a16782d1218d2967f9f914dcd06", "fusion_lon": 0.0}, {"rental_uris": {"ios": "https://dc.lft.to/lastmile_qr_scan", "android": "https://dc.lft.to/lastmile_qr_scan"}, "type": "electric_bike", "name": "69745b13ec0af2d823ae9475500cee86", "is_reserved": 0, "lon": -76.99282683333334, "is_disabled": 0, "fusion_lat": 0.0, "lat": 38.972557, "bike_id": "69745b13ec0af2d823ae9475500cee86", "fusion_lon": 0.0}, {"rental_uris": {"ios": "https://dc.lft.to/lastmile_qr_scan", "android": "https://dc.lft.to/lastmile_qr_scan"}, "type": "electric_scooter", "name": "be6cbcaf53eae90abf24868a9cd36121", "is_reserved": 0, "lon": -77.03861366666666, "is_disabled": 0, "fusion_lat": 0.0, "lat": 38.9038955, "bike_id": "be6cbcaf53eae90abf24868a9cd36121", "fusion_lon": 0.0}, {"rental_uris": {"ios": "https://dc.lft.to/lastmile_qr_scan", "android": "https://dc.lft.to/lastmile_qr_scan"}, "type": "electric_scooter", "name": "aa8b500ca7c6eb00c8e9af78794bc517", "is_reserved": 0, "lon": -77.03252016666667, "is_disabled": 0, "fusion_lat": 0.0, "lat": 38.91413883333333, "bike_id": "aa8b500ca7c6eb00c8e9af78794bc517", "fusion_lon": 0.0}, {"rental_uris": {"ios": "https://dc.lft.to/lastmile_qr_scan", "android": "https://dc.lft.to/lastmile_qr_scan"}, "type": "electric_scooter", "name": "66ca20376db1d73c557e9ec05900fa1e", "is_reserved": 0, "lon": -77.0403915, "is_disabled": 0, "fusion_lat": 0.0, "lat": 38.91183916666667, "bike_id": "66ca20376db1d73c557e9ec05900fa1e", "fusion_lon": 0.0}, {"rental_uris": {"ios": "https://dc.lft.to/lastmile_qr_scan", "android": "https://dc.lft.to/lastmile_qr_scan"}, "type": "electric_scooter", "name": "dce32bc934ce46a93ee4fb58da1cddf9", "is_reserved": 0, "lon": -77.05219383333333, "is_disabled": 0, "fusion_lat": 0.0, "lat": 38.924927333333336, "bike_id": "dce32bc934ce46a93ee4fb58da1cddf9", "fusion_lon": 0.0}, {"rental_uris": {"ios": "https://dc.lft.to/lastmile_qr_scan", "android": "https://dc.lft.to/lastmile_qr_scan"}, "type": "electric_scooter", "name": "2d480b8367ed4ece818681adafd79bf3", "is_reserved": 0, "lon": -77.02406666666667, "is_disabled": 0, "fusion_lat": 0.0, "lat": 38.93810783333333, "bike_id": "2d480b8367ed4ece818681adafd79bf3", "fusion_lon": 0.0}, {"rental_uris": {"ios": "https://dc.lft.to/lastmile_qr_scan", "android": "https://dc.lft.to/lastmile_qr_scan"}, "type": "electric_scooter", "name": "14907e7c13b69ce92c3e67e22cb0973b", "is_reserved": 0, "lon": -76.99758016666667, "is_disabled": 0, "fusion_lat": 0.0, "lat": 38.896725833333335, "bike_id": "14907e7c13b69ce92c3e67e22cb0973b", "fusion_lon": 0.0}, {"rental_uris": {"ios": "https://dc.lft.to/lastmile_qr_scan", "android": "https://dc.lft.to/lastmile_qr_scan"}, "type": "electric_scooter", "name": "9460a4839b3ba38a92a6ef5011105fe4", "is_reserved": 0, "lon": -77.01553666666666, "is_disabled": 0, "fusion_lat": 0.0, "lat": 38.90259116666667, "bike_id": "9460a4839b3ba38a92a6ef5011105fe4", "fusion_lon": 0.0}, {"rental_uris": {"ios": "https://dc.lft.to/lastmile_qr_scan", "android": "https://dc.lft.to/lastmile_qr_scan"}, "type": "electric_bike", "name": "bb71496ab83c66d2856aa3a3eed7fbc0", "is_reserved": 0, "lon": -76.99699533333333, "is_disabled": 0, "fusion_lat": 0.0, "lat": 38.838616333333334, "bike_id": "bb71496ab83c66d2856aa3a3eed7fbc0", "fusion_lon": 0.0}, {"rental_uris": {"ios": "https://dc.lft.to/lastmile_qr_scan", "android": "https://dc.lft.to/lastmile_qr_scan"}, "type": "electric_scooter", "name": "d104742767c5ebfa0cc27b57dccffcc8", "is_reserved": 0, "lon": -77.007351, "is_disabled": 0, "fusion_lat": 0.0, "lat": 38.87850783333333, "bike_id": "d104742767c5ebfa0cc27b57dccffcc8", "fusion_lon": 0.0}, {"rental_uris": {"ios": "https://dc.lft.to/lastmile_qr_scan", "android": "https://dc.lft.to/lastmile_qr_scan"}, "type": "electric_scooter", "name": "610096ac6d0633756e68cdaca4090039", "is_reserved": 0, "lon": -77.0448515, "is_disabled": 0, "fusion_lat": 0.0, "lat": 38.91865933333333, "bike_id": "610096ac6d0633756e68cdaca4090039", "fusion_lon": 0.0}, {"rental_uris": {"ios": "https://dc.lft.to/lastmile_qr_scan", "android": "https://dc.lft.to/lastmile_qr_scan"}, "type": "electric_scooter", "name": "1feb74959304f96baa73103f23b34cdb", "is_reserved": 0, "lon": -77.05861833333333, "is_disabled": 0, "fusion_lat": 0.0, "lat": 38.904508, "bike_id": "1feb74959304f96baa73103f23b34cdb", "fusion_lon": 0.0}, {"rental_uris": {"ios": "https://dc.lft.to/lastmile_qr_scan", "android": "https://dc.lft.to/lastmile_qr_scan"}, "type": "electric_scooter", "name": "d42a1e8a6e80e8d5cf1e9749cda80f70", "is_reserved": 0, "lon": -76.9869905, "is_disabled": 0, "fusion_lat": 0.0, "lat": 38.912942666666666, "bike_id": "d42a1e8a6e80e8d5cf1e9749cda80f70", "fusion_lon": 0.0}, {"rental_uris": {"ios": "https://dc.lft.to/lastmile_qr_scan", "android": "https://dc.lft.to/lastmile_qr_scan"}, "type": "electric_scooter", "name": "798d6d806a9954767132551a754d1578", "is_reserved": 0, "lon": -77.01638983333333, "is_disabled": 0, "fusion_lat": 0.0, "lat": 38.9293655, "bike_id": "798d6d806a9954767132551a754d1578", "fusion_lon": 0.0}, {"rental_uris": {"ios": "https://dc.lft.to/lastmile_qr_scan", "android": "https://dc.lft.to/lastmile_qr_scan"}, "type": "electric_scooter", "name": "8d5caa1bdb319f76226df9ffdf35c1db", "is_reserved": 0, "lon": -77.043421, "is_disabled": 0, "fusion_lat": 0.0, "lat": 38.907255666666664, "bike_id": "8d5caa1bdb319f76226df9ffdf35c1db", "fusion_lon": 0.0}, {"rental_uris": {"ios": "https://dc.lft.to/lastmile_qr_scan", "android": "https://dc.lft.to/lastmile_qr_scan"}, "type": "electric_scooter", "name": "8d003de0709141e4dcb707d7c8b876c0", "is_reserved": 0, "lon": -77.0447885, "is_disabled": 0, "fusion_lat": 0.0, "lat": 38.9158525, "bike_id": "8d003de0709141e4dcb707d7c8b876c0", "fusion_lon": 0.0}, {"rental_uris": {"ios": "https://dc.lft.to/lastmile_qr_scan", "android": "https://dc.lft.to/lastmile_qr_scan"}, "type": "electric_scooter", "name": "564b14008aefd44cade84385ab3237c9", "is_reserved": 0, "lon": -77.03648666666666, "is_disabled": 0, "fusion_lat": 0.0, "lat": 38.90065466666667, "bike_id": "564b14008aefd44cade84385ab3237c9", "fusion_lon": 0.0}, {"rental_uris": {"ios": "https://dc.lft.to/lastmile_qr_scan", "android": "https://dc.lft.to/lastmile_qr_scan"}, "type": "electric_scooter", "name": "afb7d9b6157000872dcce560b93d0f44", "is_reserved": 0, "lon": -76.98636833333333, "is_disabled": 0, "fusion_lat": 0.0, "lat": 38.90028066666667, "bike_id": "afb7d9b6157000872dcce560b93d0f44", "fusion_lon": 0.0}, {"rental_uris": {"ios": "https://dc.lft.to/lastmile_qr_scan", "android": "https://dc.lft.to/lastmile_qr_scan"}, "type": "electric_scooter", "name": "090b035c387338e4a707ccb38ffab567", "is_reserved": 0, "lon": -77.023933, "is_disabled": 0, "fusion_lat": 0.0, "lat": 38.91080916666667, "bike_id": "090b035c387338e4a707ccb38ffab567", "fusion_lon": 0.0}, {"rental_uris": {"ios": "https://dc.lft.to/lastmile_qr_scan", "android": "https://dc.lft.to/lastmile_qr_scan"}, "type": "electric_scooter", "name": "c6c803163004791cd1e1d72b2399fba0", "is_reserved": 0, "lon": -77.00161766666666, "is_disabled": 0, "fusion_lat": 0.0, "lat": 38.873745, "bike_id": "c6c803163004791cd1e1d72b2399fba0", "fusion_lon": 0.0}, {"rental_uris": {"ios": "https://dc.lft.to/lastmile_qr_scan", "android": "https://dc.lft.to/lastmile_qr_scan"}, "type": "electric_scooter", "name": "3787ed00edc3c0023f548859bfe3861d", "is_reserved": 0, "lon": -77.0502525, "is_disabled": 0, "fusion_lat": 0.0, "lat": 38.923525166666664, "bike_id": "3787ed00edc3c0023f548859bfe3861d", "fusion_lon": 0.0}, {"rental_uris": {"ios": "https://dc.lft.to/lastmile_qr_scan", "android": "https://dc.lft.to/lastmile_qr_scan"}, "type": "electric_scooter", "name": "d9db61c41adb421719ce90d41f1e7a14", "is_reserved": 0, "lon": -77.00744833333333, "is_disabled": 0, "fusion_lat": 0.0, "lat": 38.903505, "bike_id": "d9db61c41adb421719ce90d41f1e7a14", "fusion_lon": 0.0}, {"rental_uris": {"ios": "https://dc.lft.to/lastmile_qr_scan", "android": "https://dc.lft.to/lastmile_qr_scan"}, "type": "electric_scooter", "name": "9195f4d113220998ce7f02af3c5db1eb", "is_reserved": 0, "lon": -77.032005, "is_disabled": 0, "fusion_lat": 0.0, "lat": 38.92107416666666, "bike_id": "9195f4d113220998ce7f02af3c5db1eb", "fusion_lon": 0.0}, {"rental_uris": {"ios": "https://dc.lft.to/lastmile_qr_scan", "android": "https://dc.lft.to/lastmile_qr_scan"}, "type": "electric_scooter", "name": "50b9e168f9f55b6b9e731f6d2a70f5e9", "is_reserved": 0, "lon": -77.0195055, "is_disabled": 0, "fusion_lat": 0.0, "lat": 38.92246, "bike_id": "50b9e168f9f55b6b9e731f6d2a70f5e9", "fusion_lon": 0.0}, {"rental_uris": {"ios": "https://dc.lft.to/lastmile_qr_scan", "android": "https://dc.lft.to/lastmile_qr_scan"}, "type": "electric_scooter", "name": "9faccb034c55dd3c36f9776a30cc80b3", "is_reserved": 0, "lon": -77.005552, "is_disabled": 0, "fusion_lat": 0.0, "lat": 38.9118005, "bike_id": "9faccb034c55dd3c36f9776a30cc80b3", "fusion_lon": 0.0}, {"rental_uris": {"ios": "https://dc.lft.to/lastmile_qr_scan", "android": "https://dc.lft.to/lastmile_qr_scan"}, "type": "electric_scooter", "name": "1d4f16b305c2e58d8067d67db71c399b", "is_reserved": 0, "lon": -77.0487255, "is_disabled": 0, "fusion_lat": 0.0, "lat": 38.91020283333334, "bike_id": "1d4f16b305c2e58d8067d67db71c399b", "fusion_lon": 0.0}, {"rental_uris": {"ios": "https://dc.lft.to/lastmile_qr_scan", "android": "https://dc.lft.to/lastmile_qr_scan"}, "type": "electric_scooter", "name": "c8272be65d7779970c5caa09d4baaf32", "is_reserved": 0, "lon": -77.01014716666667, "is_disabled": 0, "fusion_lat": 0.0, "lat": 38.912541166666664, "bike_id": "c8272be65d7779970c5caa09d4baaf32", "fusion_lon": 0.0}, {"rental_uris": {"ios": "https://dc.lft.to/lastmile_qr_scan", "android": "https://dc.lft.to/lastmile_qr_scan"}, "type": "electric_scooter", "name": "4bccd78aef7b3fa3eb9b3cae753cea6d", "is_reserved": 0, "lon": -76.99423166666666, "is_disabled": 0, "fusion_lat": 0.0, "lat": 38.9168635, "bike_id": "4bccd78aef7b3fa3eb9b3cae753cea6d", "fusion_lon": 0.0}, {"rental_uris": {"ios": "https://dc.lft.to/lastmile_qr_scan", "android": "https://dc.lft.to/lastmile_qr_scan"}, "type": "electric_scooter", "name": "6c3dbf369afd09a0344b21ad3b6a5835", "is_reserved": 0, "lon": -77.0472985, "is_disabled": 0, "fusion_lat": 0.0, "lat": 38.895522166666666, "bike_id": "6c3dbf369afd09a0344b21ad3b6a5835", "fusion_lon": 0.0}, {"rental_uris": {"ios": "https://dc.lft.to/lastmile_qr_scan", "android": "https://dc.lft.to/lastmile_qr_scan"}, "type": "electric_scooter", "name": "68d475ad3d7a6797cf7274bb1ab55b2a", "is_reserved": 0, "lon": -77.01829216666667, "is_disabled": 0, "fusion_lat": 0.0, "lat": 38.905161166666666, "bike_id": "68d475ad3d7a6797cf7274bb1ab55b2a", "fusion_lon": 0.0}, {"rental_uris": {"ios": "https://dc.lft.to/lastmile_qr_scan", "android": "https://dc.lft.to/lastmile_qr_scan"}, "type": "electric_scooter", "name": "9b6197d0d7a02b0880c7491b59f4575c", "is_reserved": 0, "lon": -77.04225533333333, "is_disabled": 0, "fusion_lat": 0.0, "lat": 38.91104033333333, "bike_id": "9b6197d0d7a02b0880c7491b59f4575c", "fusion_lon": 0.0}, {"rental_uris": {"ios": "https://dc.lft.to/lastmile_qr_scan", "android": "https://dc.lft.to/lastmile_qr_scan"}, "type": "electric_scooter", "name": "d3636578d41f635a47edf5d49a0a4bdb", "is_reserved": 0, "lon": -77.03175716666667, "is_disabled": 0, "fusion_lat": 0.0, "lat": 38.91550733333333, "bike_id": "d3636578d41f635a47edf5d49a0a4bdb", "fusion_lon": 0.0}, {"rental_uris": {"ios": "https://dc.lft.to/lastmile_qr_scan", "android": "https://dc.lft.to/lastmile_qr_scan"}, "type": "electric_scooter", "name": "66bbc792d3f97a240a126b28e308e3bb", "is_reserved": 0, "lon": -77.026994, "is_disabled": 0, "fusion_lat": 0.0, "lat": 38.90838816666667, "bike_id": "66bbc792d3f97a240a126b28e308e3bb", "fusion_lon": 0.0}, {"rental_uris": {"ios": "https://dc.lft.to/lastmile_qr_scan", "android": "https://dc.lft.to/lastmile_qr_scan"}, "type": "electric_scooter", "name": "094251b9f6b6c8a980fe464c5a31d552", "is_reserved": 0, "lon": -77.04442316666666, "is_disabled": 0, "fusion_lat": 0.0, "lat": 38.91781316666667, "bike_id": "094251b9f6b6c8a980fe464c5a31d552", "fusion_lon": 0.0}, {"rental_uris": {"ios": "https://dc.lft.to/lastmile_qr_scan", "android": "https://dc.lft.to/lastmile_qr_scan"}, "type": "electric_scooter", "name": "3986ddb848af3375c2c7b8c842dd33a2", "is_reserved": 0, "lon": -77.044769, "is_disabled": 0, "fusion_lat": 0.0, "lat": 38.912273666666664, "bike_id": "3986ddb848af3375c2c7b8c842dd33a2", "fusion_lon": 0.0}, {"rental_uris": {"ios": "https://dc.lft.to/lastmile_qr_scan", "android": "https://dc.lft.to/lastmile_qr_scan"}, "type": "electric_scooter", "name": "b2c79668333371da6f6bfbb8fae16892", "is_reserved": 0, "lon": -77.03582716666666, "is_disabled": 0, "fusion_lat": 0.0, "lat": 38.9002735, "bike_id": "b2c79668333371da6f6bfbb8fae16892", "fusion_lon": 0.0}, {"rental_uris": {"ios": "https://dc.lft.to/lastmile_qr_scan", "android": "https://dc.lft.to/lastmile_qr_scan"}, "type": "electric_scooter", "name": "c20738c79e19bf11112b8f78a73ef9f4", "is_reserved": 0, "lon": -77.03657816666667, "is_disabled": 0, "fusion_lat": 0.0, "lat": 38.91541566666667, "bike_id": "c20738c79e19bf11112b8f78a73ef9f4", "fusion_lon": 0.0}, {"rental_uris": {"ios": "https://dc.lft.to/lastmile_qr_scan", "android": "https://dc.lft.to/lastmile_qr_scan"}, "type": "electric_scooter", "name": "8b11edad06f4e798936fa91991b660b2", "is_reserved": 0, "lon": -77.02202066666666, "is_disabled": 0, "fusion_lat": 0.0, "lat": 38.91980516666667, "bike_id": "8b11edad06f4e798936fa91991b660b2", "fusion_lon": 0.0}, {"rental_uris": {"ios": "https://dc.lft.to/lastmile_qr_scan", "android": "https://dc.lft.to/lastmile_qr_scan"}, "type": "electric_scooter", "name": "95b6f7976d6e46c9ad114e5fc74eb216", "is_reserved": 0, "lon": -77.03111816666667, "is_disabled": 0, "fusion_lat": 0.0, "lat": 38.920172666666666, "bike_id": "95b6f7976d6e46c9ad114e5fc74eb216", "fusion_lon": 0.0}, {"rental_uris": {"ios": "https://dc.lft.to/lastmile_qr_scan", "android": "https://dc.lft.to/lastmile_qr_scan"}, "type": "electric_scooter", "name": "9cbaf7b8cde8f19ff9061c78413e8c12", "is_reserved": 0, "lon": -77.07151933333333, "is_disabled": 0, "fusion_lat": 0.0, "lat": 38.907690833333334, "bike_id": "9cbaf7b8cde8f19ff9061c78413e8c12", "fusion_lon": 0.0}, {"rental_uris": {"ios": "https://dc.lft.to/lastmile_qr_scan", "android": "https://dc.lft.to/lastmile_qr_scan"}, "type": "electric_scooter", "name": "a821e41dd0d0653f5fa0b67246da4e3d", "is_reserved": 0, "lon": -77.00732816666667, "is_disabled": 0, "fusion_lat": 0.0, "lat": 38.876641666666664, "bike_id": "a821e41dd0d0653f5fa0b67246da4e3d", "fusion_lon": 0.0}, {"rental_uris": {"ios": "https://dc.lft.to/lastmile_qr_scan", "android": "https://dc.lft.to/lastmile_qr_scan"}, "type": "electric_scooter", "name": "bc3c0b419c3a8c3170ae046451ed40a2", "is_reserved": 0, "lon": -77.043975, "is_disabled": 0, "fusion_lat": 0.0, "lat": 38.92034566666667, "bike_id": "bc3c0b419c3a8c3170ae046451ed40a2", "fusion_lon": 0.0}, {"rental_uris": {"ios": "https://dc.lft.to/lastmile_qr_scan", "android": "https://dc.lft.to/lastmile_qr_scan"}, "type": "electric_scooter", "name": "41c8f55db2faf04c046ce627f805d52a", "is_reserved": 0, "lon": -77.073641, "is_disabled": 0, "fusion_lat": 0.0, "lat": 38.92854766666667, "bike_id": "41c8f55db2faf04c046ce627f805d52a", "fusion_lon": 0.0}, {"rental_uris": {"ios": "https://dc.lft.to/lastmile_qr_scan", "android": "https://dc.lft.to/lastmile_qr_scan"}, "type": "electric_scooter", "name": "dbb7c4814b760a72cd18cd0d924add64", "is_reserved": 0, "lon": -77.00534883333333, "is_disabled": 0, "fusion_lat": 0.0, "lat": 38.900369166666664, "bike_id": "dbb7c4814b760a72cd18cd0d924add64", "fusion_lon": 0.0}, {"rental_uris": {"ios": "https://dc.lft.to/lastmile_qr_scan", "android": "https://dc.lft.to/lastmile_qr_scan"}, "type": "electric_scooter", "name": "4b1d2cbc28819e3d6422a54acd310743", "is_reserved": 0, "lon": -77.04151616666667, "is_disabled": 0, "fusion_lat": 0.0, "lat": 38.9057105, "bike_id": "4b1d2cbc28819e3d6422a54acd310743", "fusion_lon": 0.0}, {"rental_uris": {"ios": "https://dc.lft.to/lastmile_qr_scan", "android": "https://dc.lft.to/lastmile_qr_scan"}, "type": "electric_scooter", "name": "5875a20750853eaec3b6c3f6549cc28f", "is_reserved": 0, "lon": -77.02344266666667, "is_disabled": 0, "fusion_lat": 0.0, "lat": 38.93178733333333, "bike_id": "5875a20750853eaec3b6c3f6549cc28f", "fusion_lon": 0.0}, {"rental_uris": {"ios": "https://dc.lft.to/lastmile_qr_scan", "android": "https://dc.lft.to/lastmile_qr_scan"}, "type": "electric_scooter", "name": "e35d5d4e78dbf9c3c7e1919086fdacad", "is_reserved": 0, "lon": -77.04345683333334, "is_disabled": 0, "fusion_lat": 0.0, "lat": 38.910454333333334, "bike_id": "e35d5d4e78dbf9c3c7e1919086fdacad", "fusion_lon": 0.0}, {"rental_uris": {"ios": "https://dc.lft.to/lastmile_qr_scan", "android": "https://dc.lft.to/lastmile_qr_scan"}, "type": "electric_scooter", "name": "a9c6b03fc0a6060d2c2f0eb63857811a", "is_reserved": 0, "lon": -77.02804716666667, "is_disabled": 0, "fusion_lat": 0.0, "lat": 38.90736733333333, "bike_id": "a9c6b03fc0a6060d2c2f0eb63857811a", "fusion_lon": 0.0}, {"rental_uris": {"ios": "https://dc.lft.to/lastmile_qr_scan", "android": "https://dc.lft.to/lastmile_qr_scan"}, "type": "electric_scooter", "name": "6f7568c36afde32265e592752f025d58", "is_reserved": 0, "lon": -77.02152683333334, "is_disabled": 0, "fusion_lat": 0.0, "lat": 38.88744333333333, "bike_id": "6f7568c36afde32265e592752f025d58", "fusion_lon": 0.0}, {"rental_uris": {"ios": "https://dc.lft.to/lastmile_qr_scan", "android": "https://dc.lft.to/lastmile_qr_scan"}, "type": "electric_scooter", "name": "7670101b754ffad4ccf14a672537ce96", "is_reserved": 0, "lon": -76.9337375, "is_disabled": 0, "fusion_lat": 0.0, "lat": 38.8991415, "bike_id": "7670101b754ffad4ccf14a672537ce96", "fusion_lon": 0.0}, {"rental_uris": {"ios": "https://dc.lft.to/lastmile_qr_scan", "android": "https://dc.lft.to/lastmile_qr_scan"}, "type": "electric_bike", "name": "b298c280711764aeb80e9ae08b22593c", "is_reserved": 0, "lon": -76.994435, "is_disabled": 0, "fusion_lat": 0.0, "lat": 38.8310205, "bike_id": "b298c280711764aeb80e9ae08b22593c", "fusion_lon": 0.0}, {"rental_uris": {"ios": "https://dc.lft.to/lastmile_qr_scan", "android": "https://dc.lft.to/lastmile_qr_scan"}, "type": "electric_scooter", "name": "bad872add81f514bffda8ee2389be7d0", "is_reserved": 0, "lon": -77.04405683333333, "is_disabled": 0, "fusion_lat": 0.0, "lat": 38.905799333333334, "bike_id": "bad872add81f514bffda8ee2389be7d0", "fusion_lon": 0.0}, {"rental_uris": {"ios": "https://dc.lft.to/lastmile_qr_scan", "android": "https://dc.lft.to/lastmile_qr_scan"}, "type": "electric_scooter", "name": "6257d19882387c58ac6f762b01592655", "is_reserved": 0, "lon": -77.02805283333333, "is_disabled": 0, "fusion_lat": 0.0, "lat": 38.90732883333333, "bike_id": "6257d19882387c58ac6f762b01592655", "fusion_lon": 0.0}, {"rental_uris": {"ios": "https://dc.lft.to/lastmile_qr_scan", "android": "https://dc.lft.to/lastmile_qr_scan"}, "type": "electric_scooter", "name": "dc79f3b53f568c3e1a94a6b642d0650e", "is_reserved": 0, "lon": -77.04859316666666, "is_disabled": 0, "fusion_lat": 0.0, "lat": 38.912640333333336, "bike_id": "dc79f3b53f568c3e1a94a6b642d0650e", "fusion_lon": 0.0}, {"rental_uris": {"ios": "https://dc.lft.to/lastmile_qr_scan", "android": "https://dc.lft.to/lastmile_qr_scan"}, "type": "electric_scooter", "name": "0d0407c81cd298a15613c2b4ba903d9a", "is_reserved": 0, "lon": -77.00662216666667, "is_disabled": 0, "fusion_lat": 0.0, "lat": 38.90104616666667, "bike_id": "0d0407c81cd298a15613c2b4ba903d9a", "fusion_lon": 0.0}, {"rental_uris": {"ios": "https://dc.lft.to/lastmile_qr_scan", "android": "https://dc.lft.to/lastmile_qr_scan"}, "type": "electric_scooter", "name": "03ec4d2aa2dae5d54e8d80114c899c77", "is_reserved": 0, "lon": -77.02532433333333, "is_disabled": 0, "fusion_lat": 0.0, "lat": 38.9453355, "bike_id": "03ec4d2aa2dae5d54e8d80114c899c77", "fusion_lon": 0.0}, {"rental_uris": {"ios": "https://dc.lft.to/lastmile_qr_scan", "android": "https://dc.lft.to/lastmile_qr_scan"}, "type": "electric_scooter", "name": "3a8ffe160af973ca5b5b064947f23822", "is_reserved": 0, "lon": -77.05058383333333, "is_disabled": 0, "fusion_lat": 0.0, "lat": 38.92582016666667, "bike_id": "3a8ffe160af973ca5b5b064947f23822", "fusion_lon": 0.0}, {"rental_uris": {"ios": "https://dc.lft.to/lastmile_qr_scan", "android": "https://dc.lft.to/lastmile_qr_scan"}, "type": "electric_scooter", "name": "6b19cad0deedb58cd152f80cfc12edbb", "is_reserved": 0, "lon": -77.02195583333334, "is_disabled": 0, "fusion_lat": 0.0, "lat": 38.910544, "bike_id": "6b19cad0deedb58cd152f80cfc12edbb", "fusion_lon": 0.0}, {"rental_uris": {"ios": "https://dc.lft.to/lastmile_qr_scan", "android": "https://dc.lft.to/lastmile_qr_scan"}, "type": "electric_scooter", "name": "f18b176941e39a2524604aff262be58b", "is_reserved": 0, "lon": -76.92989283333333, "is_disabled": 0, "fusion_lat": 0.0, "lat": 38.892899, "bike_id": "f18b176941e39a2524604aff262be58b", "fusion_lon": 0.0}, {"rental_uris": {"ios": "https://dc.lft.to/lastmile_qr_scan", "android": "https://dc.lft.to/lastmile_qr_scan"}, "type": "electric_scooter", "name": "6af63e5e8f2c290fb6b707205f5bb567", "is_reserved": 0, "lon": -77.00688483333333, "is_disabled": 0, "fusion_lat": 0.0, "lat": 38.89999983333333, "bike_id": "6af63e5e8f2c290fb6b707205f5bb567", "fusion_lon": 0.0}, {"rental_uris": {"ios": "https://dc.lft.to/lastmile_qr_scan", "android": "https://dc.lft.to/lastmile_qr_scan"}, "type": "electric_bike", "name": "cfc85d4eb0f76e4f44d7de7ddf4dad75", "is_reserved": 0, "lon": -77.07093716666667, "is_disabled": 0, "fusion_lat": 0.0, "lat": 38.899122, "bike_id": "cfc85d4eb0f76e4f44d7de7ddf4dad75", "fusion_lon": 0.0}, {"rental_uris": {"ios": "https://dc.lft.to/lastmile_qr_scan", "android": "https://dc.lft.to/lastmile_qr_scan"}, "type": "electric_scooter", "name": "a03af90a7c9690b4566b95fac0e9d25a", "is_reserved": 0, "lon": -77.02212383333334, "is_disabled": 0, "fusion_lat": 0.0, "lat": 38.894274, "bike_id": "a03af90a7c9690b4566b95fac0e9d25a", "fusion_lon": 0.0}, {"rental_uris": {"ios": "https://dc.lft.to/lastmile_qr_scan", "android": "https://dc.lft.to/lastmile_qr_scan"}, "type": "electric_scooter", "name": "feb5d3fbc762fe98c3f7d5cbae2800b2", "is_reserved": 0, "lon": -77.03145866666667, "is_disabled": 0, "fusion_lat": 0.0, "lat": 38.91612166666667, "bike_id": "feb5d3fbc762fe98c3f7d5cbae2800b2", "fusion_lon": 0.0}, {"rental_uris": {"ios": "https://dc.lft.to/lastmile_qr_scan", "android": "https://dc.lft.to/lastmile_qr_scan"}, "type": "electric_scooter", "name": "e97c8bf3e59031ca8a7712492d629586", "is_reserved": 0, "lon": -77.00535383333333, "is_disabled": 0, "fusion_lat": 0.0, "lat": 38.88045416666667, "bike_id": "e97c8bf3e59031ca8a7712492d629586", "fusion_lon": 0.0}, {"rental_uris": {"ios": "https://dc.lft.to/lastmile_qr_scan", "android": "https://dc.lft.to/lastmile_qr_scan"}, "type": "electric_scooter", "name": "a24e8f0f78ce23c766beb61b1a4f1cbd", "is_reserved": 0, "lon": -76.97411866666667, "is_disabled": 0, "fusion_lat": 0.0, "lat": 38.90133433333333, "bike_id": "a24e8f0f78ce23c766beb61b1a4f1cbd", "fusion_lon": 0.0}, {"rental_uris": {"ios": "https://dc.lft.to/lastmile_qr_scan", "android": "https://dc.lft.to/lastmile_qr_scan"}, "type": "electric_scooter", "name": "04584d69b3198bd33b08e7bb33670ab3", "is_reserved": 0, "lon": -77.02691, "is_disabled": 0, "fusion_lat": 0.0, "lat": 38.90079516666667, "bike_id": "04584d69b3198bd33b08e7bb33670ab3", "fusion_lon": 0.0}, {"rental_uris": {"ios": "https://dc.lft.to/lastmile_qr_scan", "android": "https://dc.lft.to/lastmile_qr_scan"}, "type": "electric_scooter", "name": "80db288b23e506fb3f772eb4ede35197", "is_reserved": 0, "lon": -77.02219666666667, "is_disabled": 0, "fusion_lat": 0.0, "lat": 38.924674, "bike_id": "80db288b23e506fb3f772eb4ede35197", "fusion_lon": 0.0}, {"rental_uris": {"ios": "https://dc.lft.to/lastmile_qr_scan", "android": "https://dc.lft.to/lastmile_qr_scan"}, "type": "electric_scooter", "name": "7f7c7ae8e8c9469fc30061fea05e0af4", "is_reserved": 0, "lon": -77.02811233333334, "is_disabled": 0, "fusion_lat": 0.0, "lat": 38.8959805, "bike_id": "7f7c7ae8e8c9469fc30061fea05e0af4", "fusion_lon": 0.0}, {"rental_uris": {"ios": "https://dc.lft.to/lastmile_qr_scan", "android": "https://dc.lft.to/lastmile_qr_scan"}, "type": "electric_scooter", "name": "4ca17ecf21ecbbce0bea0adc31ce8ef6", "is_reserved": 0, "lon": -77.02719033333334, "is_disabled": 0, "fusion_lat": 0.0, "lat": 38.90031283333333, "bike_id": "4ca17ecf21ecbbce0bea0adc31ce8ef6", "fusion_lon": 0.0}, {"rental_uris": {"ios": "https://dc.lft.to/lastmile_qr_scan", "android": "https://dc.lft.to/lastmile_qr_scan"}, "type": "electric_scooter", "name": "c09660d513ebfbb20fbcb2dc99b09ee7", "is_reserved": 0, "lon": -77.005961, "is_disabled": 0, "fusion_lat": 0.0, "lat": 38.87576116666666, "bike_id": "c09660d513ebfbb20fbcb2dc99b09ee7", "fusion_lon": 0.0}, {"rental_uris": {"ios": "https://dc.lft.to/lastmile_qr_scan", "android": "https://dc.lft.to/lastmile_qr_scan"}, "type": "electric_scooter", "name": "8750ecc20bda15c1c0cfcfb8de392e9b", "is_reserved": 0, "lon": -77.02300666666666, "is_disabled": 0, "fusion_lat": 0.0, "lat": 38.961281166666666, "bike_id": "8750ecc20bda15c1c0cfcfb8de392e9b", "fusion_lon": 0.0}, {"rental_uris": {"ios": "https://dc.lft.to/lastmile_qr_scan", "android": "https://dc.lft.to/lastmile_qr_scan"}, "type": "electric_scooter", "name": "5a95f9dd87c1054e33497f355688f4fb", "is_reserved": 0, "lon": -77.02723516666667, "is_disabled": 0, "fusion_lat": 0.0, "lat": 38.90566283333333, "bike_id": "5a95f9dd87c1054e33497f355688f4fb", "fusion_lon": 0.0}, {"rental_uris": {"ios": "https://dc.lft.to/lastmile_qr_scan", "android": "https://dc.lft.to/lastmile_qr_scan"}, "type": "electric_bike", "name": "e0349c7c00e847cfc217ba52105db4b4", "is_reserved": 0, "lon": -77.00209466666666, "is_disabled": 0, "fusion_lat": 0.0, "lat": 38.98845516666667, "bike_id": "e0349c7c00e847cfc217ba52105db4b4", "fusion_lon": 0.0}, {"rental_uris": {"ios": "https://dc.lft.to/lastmile_qr_scan", "android": "https://dc.lft.to/lastmile_qr_scan"}, "type": "electric_scooter", "name": "1066f51e2f7768168934982b3422947f", "is_reserved": 0, "lon": -77.0322275, "is_disabled": 0, "fusion_lat": 0.0, "lat": 38.892208333333336, "bike_id": "1066f51e2f7768168934982b3422947f", "fusion_lon": 0.0}, {"rental_uris": {"ios": "https://dc.lft.to/lastmile_qr_scan", "android": "https://dc.lft.to/lastmile_qr_scan"}, "type": "electric_scooter", "name": "eb600d424511790a6733bdc78d26d3a9", "is_reserved": 0, "lon": -77.01317466666667, "is_disabled": 0, "fusion_lat": 0.0, "lat": 38.9564895, "bike_id": "eb600d424511790a6733bdc78d26d3a9", "fusion_lon": 0.0}, {"rental_uris": {"ios": "https://dc.lft.to/lastmile_qr_scan", "android": "https://dc.lft.to/lastmile_qr_scan"}, "type": "electric_scooter", "name": "8d22b43f6d776d3429e08babb8ea1062", "is_reserved": 0, "lon": -77.04055116666666, "is_disabled": 0, "fusion_lat": 0.0, "lat": 38.89639583333334, "bike_id": "8d22b43f6d776d3429e08babb8ea1062", "fusion_lon": 0.0}, {"rental_uris": {"ios": "https://dc.lft.to/lastmile_qr_scan", "android": "https://dc.lft.to/lastmile_qr_scan"}, "type": "electric_bike", "name": "c2cc76f85fd79beaba5c95e2bb1a0017", "is_reserved": 0, "lon": -77.01505016666667, "is_disabled": 0, "fusion_lat": 0.0, "lat": 38.9023935, "bike_id": "c2cc76f85fd79beaba5c95e2bb1a0017", "fusion_lon": 0.0}, {"rental_uris": {"ios": "https://dc.lft.to/lastmile_qr_scan", "android": "https://dc.lft.to/lastmile_qr_scan"}, "type": "electric_scooter", "name": "ead07429b3993ce2896c6810ad89586b", "is_reserved": 0, "lon": -77.033664, "is_disabled": 0, "fusion_lat": 0.0, "lat": 38.91039816666667, "bike_id": "ead07429b3993ce2896c6810ad89586b", "fusion_lon": 0.0}, {"rental_uris": {"ios": "https://dc.lft.to/lastmile_qr_scan", "android": "https://dc.lft.to/lastmile_qr_scan"}, "type": "electric_scooter", "name": "ac21e0a0afd1131632b38afc395d3d78", "is_reserved": 0, "lon": -77.041249, "is_disabled": 0, "fusion_lat": 0.0, "lat": 38.92536233333333, "bike_id": "ac21e0a0afd1131632b38afc395d3d78", "fusion_lon": 0.0}, {"rental_uris": {"ios": "https://dc.lft.to/lastmile_qr_scan", "android": "https://dc.lft.to/lastmile_qr_scan"}, "type": "electric_scooter", "name": "6767da37db62856eacf5cc944771179a", "is_reserved": 0, "lon": -77.00594016666666, "is_disabled": 0, "fusion_lat": 0.0, "lat": 38.875713833333336, "bike_id": "6767da37db62856eacf5cc944771179a", "fusion_lon": 0.0}, {"rental_uris": {"ios": "https://dc.lft.to/lastmile_qr_scan", "android": "https://dc.lft.to/lastmile_qr_scan"}, "type": "electric_scooter", "name": "75f5854ddcd7b437ba0849c066489c80", "is_reserved": 0, "lon": -77.0276225, "is_disabled": 0, "fusion_lat": 0.0, "lat": 38.95781066666667, "bike_id": "75f5854ddcd7b437ba0849c066489c80", "fusion_lon": 0.0}, {"rental_uris": {"ios": "https://dc.lft.to/lastmile_qr_scan", "android": "https://dc.lft.to/lastmile_qr_scan"}, "type": "electric_scooter", "name": "1cf3afc13d8937aabaf0a5d4ea65bb83", "is_reserved": 0, "lon": -76.92636883333333, "is_disabled": 0, "fusion_lat": 0.0, "lat": 38.8836285, "bike_id": "1cf3afc13d8937aabaf0a5d4ea65bb83", "fusion_lon": 0.0}, {"rental_uris": {"ios": "https://dc.lft.to/lastmile_qr_scan", "android": "https://dc.lft.to/lastmile_qr_scan"}, "type": "electric_scooter", "name": "b267ea4a984ba9ab1f438187e14c615f", "is_reserved": 0, "lon": -76.94870766666666, "is_disabled": 0, "fusion_lat": 0.0, "lat": 38.89484233333334, "bike_id": "b267ea4a984ba9ab1f438187e14c615f", "fusion_lon": 0.0}, {"rental_uris": {"ios": "https://dc.lft.to/lastmile_qr_scan", "android": "https://dc.lft.to/lastmile_qr_scan"}, "type": "electric_scooter", "name": "46e6e0c631ae93fd547869115df13ca3", "is_reserved": 0, "lon": -77.03323633333333, "is_disabled": 0, "fusion_lat": 0.0, "lat": 38.887683333333335, "bike_id": "46e6e0c631ae93fd547869115df13ca3", "fusion_lon": 0.0}, {"rental_uris": {"ios": "https://dc.lft.to/lastmile_qr_scan", "android": "https://dc.lft.to/lastmile_qr_scan"}, "type": "electric_scooter", "name": "4d54523d45675583446cd0c78364d081", "is_reserved": 0, "lon": -77.04552716666667, "is_disabled": 0, "fusion_lat": 0.0, "lat": 38.913182, "bike_id": "4d54523d45675583446cd0c78364d081", "fusion_lon": 0.0}, {"rental_uris": {"ios": "https://dc.lft.to/lastmile_qr_scan", "android": "https://dc.lft.to/lastmile_qr_scan"}, "type": "electric_bike", "name": "09396671cfa1b774329486f12430c8dc", "is_reserved": 0, "lon": -77.12654866666666, "is_disabled": 0, "fusion_lat": 0.0, "lat": 38.819087833333334, "bike_id": "09396671cfa1b774329486f12430c8dc", "fusion_lon": 0.0}, {"rental_uris": {"ios": "https://dc.lft.to/lastmile_qr_scan", "android": "https://dc.lft.to/lastmile_qr_scan"}, "type": "electric_scooter", "name": "31602f09d7dd0d9377504a13c3c6013a", "is_reserved": 0, "lon": -77.03201066666666, "is_disabled": 0, "fusion_lat": 0.0, "lat": 38.9157675, "bike_id": "31602f09d7dd0d9377504a13c3c6013a", "fusion_lon": 0.0}, {"rental_uris": {"ios": "https://dc.lft.to/lastmile_qr_scan", "android": "https://dc.lft.to/lastmile_qr_scan"}, "type": "electric_scooter", "name": "12bb7d27b017571f8bd56fdc15a36c43", "is_reserved": 0, "lon": -77.03416283333334, "is_disabled": 0, "fusion_lat": 0.0, "lat": 38.92202183333333, "bike_id": "12bb7d27b017571f8bd56fdc15a36c43", "fusion_lon": 0.0}, {"rental_uris": {"ios": "https://dc.lft.to/lastmile_qr_scan", "android": "https://dc.lft.to/lastmile_qr_scan"}, "type": "electric_scooter", "name": "b1c88575560f7fcb7f5c150115998640", "is_reserved": 0, "lon": -77.00552833333333, "is_disabled": 0, "fusion_lat": 0.0, "lat": 38.876372, "bike_id": "b1c88575560f7fcb7f5c150115998640", "fusion_lon": 0.0}, {"rental_uris": {"ios": "https://dc.lft.to/lastmile_qr_scan", "android": "https://dc.lft.to/lastmile_qr_scan"}, "type": "electric_bike", "name": "25f3d969c152647d07e9eab6066bbb7e", "is_reserved": 0, "lon": -77.085229, "is_disabled": 0, "fusion_lat": 0.0, "lat": 38.85646066666666, "bike_id": "25f3d969c152647d07e9eab6066bbb7e", "fusion_lon": 0.0}, {"rental_uris": {"ios": "https://dc.lft.to/lastmile_qr_scan", "android": "https://dc.lft.to/lastmile_qr_scan"}, "type": "electric_scooter", "name": "b0239f3f1d8cf0f5f3626770c11ed533", "is_reserved": 0, "lon": -77.0279255, "is_disabled": 0, "fusion_lat": 0.0, "lat": 38.93078333333333, "bike_id": "b0239f3f1d8cf0f5f3626770c11ed533", "fusion_lon": 0.0}, {"rental_uris": {"ios": "https://dc.lft.to/lastmile_qr_scan", "android": "https://dc.lft.to/lastmile_qr_scan"}, "type": "electric_scooter", "name": "40b4dd1ca7bf0619cfe682bf340c377a", "is_reserved": 0, "lon": -77.05910783333333, "is_disabled": 0, "fusion_lat": 0.0, "lat": 38.902717, "bike_id": "40b4dd1ca7bf0619cfe682bf340c377a", "fusion_lon": 0.0}, {"rental_uris": {"ios": "https://dc.lft.to/lastmile_qr_scan", "android": "https://dc.lft.to/lastmile_qr_scan"}, "type": "electric_scooter", "name": "60f2ccb6b21ea37dddc7309a90525255", "is_reserved": 0, "lon": -76.98507233333333, "is_disabled": 0, "fusion_lat": 0.0, "lat": 38.8798865, "bike_id": "60f2ccb6b21ea37dddc7309a90525255", "fusion_lon": 0.0}, {"rental_uris": {"ios": "https://dc.lft.to/lastmile_qr_scan", "android": "https://dc.lft.to/lastmile_qr_scan"}, "type": "electric_scooter", "name": "220cb5dae232f67f259e9f322616b7eb", "is_reserved": 0, "lon": -77.04746733333333, "is_disabled": 0, "fusion_lat": 0.0, "lat": 38.900948, "bike_id": "220cb5dae232f67f259e9f322616b7eb", "fusion_lon": 0.0}, {"rental_uris": {"ios": "https://dc.lft.to/lastmile_qr_scan", "android": "https://dc.lft.to/lastmile_qr_scan"}, "type": "electric_scooter", "name": "24a1f4443b6c0897408a9b2286672a8b", "is_reserved": 0, "lon": -77.0416275, "is_disabled": 0, "fusion_lat": 0.0, "lat": 38.92560266666667, "bike_id": "24a1f4443b6c0897408a9b2286672a8b", "fusion_lon": 0.0}, {"rental_uris": {"ios": "https://dc.lft.to/lastmile_qr_scan", "android": "https://dc.lft.to/lastmile_qr_scan"}, "type": "electric_scooter", "name": "c8d0563ec0806fee538d34feafcd45d0", "is_reserved": 0, "lon": -77.0403785, "is_disabled": 0, "fusion_lat": 0.0, "lat": 38.90410966666666, "bike_id": "c8d0563ec0806fee538d34feafcd45d0", "fusion_lon": 0.0}, {"rental_uris": {"ios": "https://dc.lft.to/lastmile_qr_scan", "android": "https://dc.lft.to/lastmile_qr_scan"}, "type": "electric_scooter", "name": "901527903aaf2787c7a538bbb72ead71", "is_reserved": 0, "lon": -77.024581, "is_disabled": 0, "fusion_lat": 0.0, "lat": 38.90311533333333, "bike_id": "901527903aaf2787c7a538bbb72ead71", "fusion_lon": 0.0}, {"rental_uris": {"ios": "https://dc.lft.to/lastmile_qr_scan", "android": "https://dc.lft.to/lastmile_qr_scan"}, "type": "electric_scooter", "name": "ef2535c74c6dd0d46a9c8d32e9e8eeb9", "is_reserved": 0, "lon": -77.024142, "is_disabled": 0, "fusion_lat": 0.0, "lat": 38.93812583333333, "bike_id": "ef2535c74c6dd0d46a9c8d32e9e8eeb9", "fusion_lon": 0.0}, {"rental_uris": {"ios": "https://dc.lft.to/lastmile_qr_scan", "android": "https://dc.lft.to/lastmile_qr_scan"}, "type": "electric_scooter", "name": "5343df568e65b78923413baf6188b3f4", "is_reserved": 0, "lon": -76.98358816666666, "is_disabled": 0, "fusion_lat": 0.0, "lat": 38.887408, "bike_id": "5343df568e65b78923413baf6188b3f4", "fusion_lon": 0.0}, {"rental_uris": {"ios": "https://dc.lft.to/lastmile_qr_scan", "android": "https://dc.lft.to/lastmile_qr_scan"}, "type": "electric_scooter", "name": "dc8f9bf0082f559fb8a0c871d54d41f6", "is_reserved": 0, "lon": -77.02576683333334, "is_disabled": 0, "fusion_lat": 0.0, "lat": 38.88076383333333, "bike_id": "dc8f9bf0082f559fb8a0c871d54d41f6", "fusion_lon": 0.0}, {"rental_uris": {"ios": "https://dc.lft.to/lastmile_qr_scan", "android": "https://dc.lft.to/lastmile_qr_scan"}, "type": "electric_scooter", "name": "f86c23675f6300e5283b7246a3d120c5", "is_reserved": 0, "lon": -77.01809416666667, "is_disabled": 0, "fusion_lat": 0.0, "lat": 38.92114183333333, "bike_id": "f86c23675f6300e5283b7246a3d120c5", "fusion_lon": 0.0}, {"rental_uris": {"ios": "https://dc.lft.to/lastmile_qr_scan", "android": "https://dc.lft.to/lastmile_qr_scan"}, "type": "electric_scooter", "name": "a4c7cfa6c3a8c54587bb717fd29fb148", "is_reserved": 0, "lon": -76.998665, "is_disabled": 0, "fusion_lat": 0.0, "lat": 38.90024566666666, "bike_id": "a4c7cfa6c3a8c54587bb717fd29fb148", "fusion_lon": 0.0}, {"rental_uris": {"ios": "https://dc.lft.to/lastmile_qr_scan", "android": "https://dc.lft.to/lastmile_qr_scan"}, "type": "electric_scooter", "name": "569335a26cf0bd817113b43673e8fadf", "is_reserved": 0, "lon": -77.0057865, "is_disabled": 0, "fusion_lat": 0.0, "lat": 38.902403166666666, "bike_id": "569335a26cf0bd817113b43673e8fadf", "fusion_lon": 0.0}, {"rental_uris": {"ios": "https://dc.lft.to/lastmile_qr_scan", "android": "https://dc.lft.to/lastmile_qr_scan"}, "type": "electric_scooter", "name": "7bdb77092d124d2a4f6fc76fd8f6daf5", "is_reserved": 0, "lon": -77.03144183333333, "is_disabled": 0, "fusion_lat": 0.0, "lat": 38.91264683333333, "bike_id": "7bdb77092d124d2a4f6fc76fd8f6daf5", "fusion_lon": 0.0}, {"rental_uris": {"ios": "https://dc.lft.to/lastmile_qr_scan", "android": "https://dc.lft.to/lastmile_qr_scan"}, "type": "electric_scooter", "name": "c4d000bc0a6cbde315f9d275b4371267", "is_reserved": 0, "lon": -77.00051883333333, "is_disabled": 0, "fusion_lat": 0.0, "lat": 38.873785, "bike_id": "c4d000bc0a6cbde315f9d275b4371267", "fusion_lon": 0.0}, {"rental_uris": {"ios": "https://dc.lft.to/lastmile_qr_scan", "android": "https://dc.lft.to/lastmile_qr_scan"}, "type": "electric_scooter", "name": "dc198221250307e1d7031b11f0cf2aca", "is_reserved": 0, "lon": -76.98158166666667, "is_disabled": 0, "fusion_lat": 0.0, "lat": 38.899365, "bike_id": "dc198221250307e1d7031b11f0cf2aca", "fusion_lon": 0.0}, {"rental_uris": {"ios": "https://dc.lft.to/lastmile_qr_scan", "android": "https://dc.lft.to/lastmile_qr_scan"}, "type": "electric_scooter", "name": "49e4e62501735762c9d19979c1dfbaa9", "is_reserved": 0, "lon": -77.00572916666667, "is_disabled": 0, "fusion_lat": 0.0, "lat": 38.878536, "bike_id": "49e4e62501735762c9d19979c1dfbaa9", "fusion_lon": 0.0}, {"rental_uris": {"ios": "https://dc.lft.to/lastmile_qr_scan", "android": "https://dc.lft.to/lastmile_qr_scan"}, "type": "electric_scooter", "name": "38304ec08163909bc95c1891bdbc3516", "is_reserved": 0, "lon": -77.0386495, "is_disabled": 0, "fusion_lat": 0.0, "lat": 38.90360716666667, "bike_id": "38304ec08163909bc95c1891bdbc3516", "fusion_lon": 0.0}, {"rental_uris": {"ios": "https://dc.lft.to/lastmile_qr_scan", "android": "https://dc.lft.to/lastmile_qr_scan"}, "type": "electric_scooter", "name": "1c08bf27b5787e5008595d38119eaa6f", "is_reserved": 0, "lon": -77.04110966666667, "is_disabled": 0, "fusion_lat": 0.0, "lat": 38.91693716666666, "bike_id": "1c08bf27b5787e5008595d38119eaa6f", "fusion_lon": 0.0}, {"rental_uris": {"ios": "https://dc.lft.to/lastmile_qr_scan", "android": "https://dc.lft.to/lastmile_qr_scan"}, "type": "electric_scooter", "name": "8afb9ffd84a87bfc4751c63183a54197", "is_reserved": 0, "lon": -77.0195535, "is_disabled": 0, "fusion_lat": 0.0, "lat": 38.923263, "bike_id": "8afb9ffd84a87bfc4751c63183a54197", "fusion_lon": 0.0}, {"rental_uris": {"ios": "https://dc.lft.to/lastmile_qr_scan", "android": "https://dc.lft.to/lastmile_qr_scan"}, "type": "electric_scooter", "name": "317ac69261c1415969effbdfcc25cb38", "is_reserved": 0, "lon": -77.0518315, "is_disabled": 0, "fusion_lat": 0.0, "lat": 38.902515666666666, "bike_id": "317ac69261c1415969effbdfcc25cb38", "fusion_lon": 0.0}, {"rental_uris": {"ios": "https://dc.lft.to/lastmile_qr_scan", "android": "https://dc.lft.to/lastmile_qr_scan"}, "type": "electric_scooter", "name": "c6be7fa5ae31c025d280ec840e3df149", "is_reserved": 0, "lon": -77.01521716666667, "is_disabled": 0, "fusion_lat": 0.0, "lat": 38.91328166666667, "bike_id": "c6be7fa5ae31c025d280ec840e3df149", "fusion_lon": 0.0}, {"rental_uris": {"ios": "https://dc.lft.to/lastmile_qr_scan", "android": "https://dc.lft.to/lastmile_qr_scan"}, "type": "electric_bike", "name": "1c8593df9adb3f5651440dcf7f780d46", "is_reserved": 0, "lon": -76.98245716666666, "is_disabled": 0, "fusion_lat": 0.0, "lat": 38.952366, "bike_id": "1c8593df9adb3f5651440dcf7f780d46", "fusion_lon": 0.0}, {"rental_uris": {"ios": "https://dc.lft.to/lastmile_qr_scan", "android": "https://dc.lft.to/lastmile_qr_scan"}, "type": "electric_scooter", "name": "3d56bd25496f3bdc48d795e9ef798e3f", "is_reserved": 0, "lon": -77.04083466666667, "is_disabled": 0, "fusion_lat": 0.0, "lat": 38.947885, "bike_id": "3d56bd25496f3bdc48d795e9ef798e3f", "fusion_lon": 0.0}, {"rental_uris": {"ios": "https://dc.lft.to/lastmile_qr_scan", "android": "https://dc.lft.to/lastmile_qr_scan"}, "type": "electric_scooter", "name": "d28076c50c143d5131d021fc2fd386b7", "is_reserved": 0, "lon": -77.03788833333333, "is_disabled": 0, "fusion_lat": 0.0, "lat": 38.92196066666666, "bike_id": "d28076c50c143d5131d021fc2fd386b7", "fusion_lon": 0.0}, {"rental_uris": {"ios": "https://dc.lft.to/lastmile_qr_scan", "android": "https://dc.lft.to/lastmile_qr_scan"}, "type": "electric_bike", "name": "b5715e83f1d3109d3f5b943699870cd5", "is_reserved": 0, "lon": -76.98013183333333, "is_disabled": 0, "fusion_lat": 0.0, "lat": 38.85301066666667, "bike_id": "b5715e83f1d3109d3f5b943699870cd5", "fusion_lon": 0.0}, {"rental_uris": {"ios": "https://dc.lft.to/lastmile_qr_scan", "android": "https://dc.lft.to/lastmile_qr_scan"}, "type": "electric_scooter", "name": "50bddfa0f0dee852bcbf3dbc61cb55db", "is_reserved": 0, "lon": -77.03327183333333, "is_disabled": 0, "fusion_lat": 0.0, "lat": 38.9095425, "bike_id": "50bddfa0f0dee852bcbf3dbc61cb55db", "fusion_lon": 0.0}, {"rental_uris": {"ios": "https://dc.lft.to/lastmile_qr_scan", "android": "https://dc.lft.to/lastmile_qr_scan"}, "type": "electric_scooter", "name": "1683e678626bb5e0edefc391b56322db", "is_reserved": 0, "lon": -77.01923833333333, "is_disabled": 0, "fusion_lat": 0.0, "lat": 38.9373005, "bike_id": "1683e678626bb5e0edefc391b56322db", "fusion_lon": 0.0}, {"rental_uris": {"ios": "https://dc.lft.to/lastmile_qr_scan", "android": "https://dc.lft.to/lastmile_qr_scan"}, "type": "electric_scooter", "name": "c97f1390fa768efd9453d09cd6befc6f", "is_reserved": 0, "lon": -77.01478116666667, "is_disabled": 0, "fusion_lat": 0.0, "lat": 38.919478166666664, "bike_id": "c97f1390fa768efd9453d09cd6befc6f", "fusion_lon": 0.0}, {"rental_uris": {"ios": "https://dc.lft.to/lastmile_qr_scan", "android": "https://dc.lft.to/lastmile_qr_scan"}, "type": "electric_scooter", "name": "a83518793b27e720a6985746cc66bf21", "is_reserved": 0, "lon": -77.03863966666667, "is_disabled": 0, "fusion_lat": 0.0, "lat": 38.911939, "bike_id": "a83518793b27e720a6985746cc66bf21", "fusion_lon": 0.0}, {"rental_uris": {"ios": "https://dc.lft.to/lastmile_qr_scan", "android": "https://dc.lft.to/lastmile_qr_scan"}, "type": "electric_scooter", "name": "faf2a3a19c71ae4e64bb7398097adf08", "is_reserved": 0, "lon": -77.04170016666667, "is_disabled": 0, "fusion_lat": 0.0, "lat": 38.919818166666666, "bike_id": "faf2a3a19c71ae4e64bb7398097adf08", "fusion_lon": 0.0}, {"rental_uris": {"ios": "https://dc.lft.to/lastmile_qr_scan", "android": "https://dc.lft.to/lastmile_qr_scan"}, "type": "electric_bike", "name": "de3d451aa5efdab9ad5319a2d002766b", "is_reserved": 0, "lon": -76.98842333333333, "is_disabled": 0, "fusion_lat": 0.0, "lat": 38.84275066666667, "bike_id": "de3d451aa5efdab9ad5319a2d002766b", "fusion_lon": 0.0}, {"rental_uris": {"ios": "https://dc.lft.to/lastmile_qr_scan", "android": "https://dc.lft.to/lastmile_qr_scan"}, "type": "electric_scooter", "name": "27db0603928d3dec63c224112e4c4f2f", "is_reserved": 0, "lon": -77.04161716666667, "is_disabled": 0, "fusion_lat": 0.0, "lat": 38.91945466666667, "bike_id": "27db0603928d3dec63c224112e4c4f2f", "fusion_lon": 0.0}, {"rental_uris": {"ios": "https://dc.lft.to/lastmile_qr_scan", "android": "https://dc.lft.to/lastmile_qr_scan"}, "type": "electric_bike", "name": "8b76df82b52275206914f4e86160f261", "is_reserved": 0, "lon": -77.10731166666666, "is_disabled": 0, "fusion_lat": 0.0, "lat": 38.85533483333333, "bike_id": "8b76df82b52275206914f4e86160f261", "fusion_lon": 0.0}, {"rental_uris": {"ios": "https://dc.lft.to/lastmile_qr_scan", "android": "https://dc.lft.to/lastmile_qr_scan"}, "type": "electric_scooter", "name": "f48d7f49ee7f5c46fe29adce6b89659d", "is_reserved": 0, "lon": -77.02346183333333, "is_disabled": 0, "fusion_lat": 0.0, "lat": 38.92044466666667, "bike_id": "f48d7f49ee7f5c46fe29adce6b89659d", "fusion_lon": 0.0}, {"rental_uris": {"ios": "https://dc.lft.to/lastmile_qr_scan", "android": "https://dc.lft.to/lastmile_qr_scan"}, "type": "electric_scooter", "name": "c1c679eee7d2607057ca552912b6284b", "is_reserved": 0, "lon": -77.02197633333333, "is_disabled": 0, "fusion_lat": 0.0, "lat": 38.91122433333334, "bike_id": "c1c679eee7d2607057ca552912b6284b", "fusion_lon": 0.0}, {"rental_uris": {"ios": "https://dc.lft.to/lastmile_qr_scan", "android": "https://dc.lft.to/lastmile_qr_scan"}, "type": "electric_scooter", "name": "3864376f335d16e9339b161aebab935d", "is_reserved": 0, "lon": -77.00191933333333, "is_disabled": 0, "fusion_lat": 0.0, "lat": 38.90842083333333, "bike_id": "3864376f335d16e9339b161aebab935d", "fusion_lon": 0.0}, {"rental_uris": {"ios": "https://dc.lft.to/lastmile_qr_scan", "android": "https://dc.lft.to/lastmile_qr_scan"}, "type": "electric_scooter", "name": "a4f3f5122fb30e0af53afc20c3bc0167", "is_reserved": 0, "lon": -77.04003933333334, "is_disabled": 0, "fusion_lat": 0.0, "lat": 38.91179133333333, "bike_id": "a4f3f5122fb30e0af53afc20c3bc0167", "fusion_lon": 0.0}, {"rental_uris": {"ios": "https://dc.lft.to/lastmile_qr_scan", "android": "https://dc.lft.to/lastmile_qr_scan"}, "type": "electric_scooter", "name": "4ab1e77623d79922932c99b221c2744c", "is_reserved": 0, "lon": -77.03860483333334, "is_disabled": 0, "fusion_lat": 0.0, "lat": 38.917071666666665, "bike_id": "4ab1e77623d79922932c99b221c2744c", "fusion_lon": 0.0}, {"rental_uris": {"ios": "https://dc.lft.to/lastmile_qr_scan", "android": "https://dc.lft.to/lastmile_qr_scan"}, "type": "electric_scooter", "name": "8cc7037018d80df68d0a2b01289e03fc", "is_reserved": 0, "lon": -77.00827583333333, "is_disabled": 0, "fusion_lat": 0.0, "lat": 38.91563, "bike_id": "8cc7037018d80df68d0a2b01289e03fc", "fusion_lon": 0.0}, {"rental_uris": {"ios": "https://dc.lft.to/lastmile_qr_scan", "android": "https://dc.lft.to/lastmile_qr_scan"}, "type": "electric_scooter", "name": "1f15c705a3f86abcd3a078051d8c2e13", "is_reserved": 0, "lon": -77.06324033333334, "is_disabled": 0, "fusion_lat": 0.0, "lat": 38.91337383333333, "bike_id": "1f15c705a3f86abcd3a078051d8c2e13", "fusion_lon": 0.0}, {"rental_uris": {"ios": "https://dc.lft.to/lastmile_qr_scan", "android": "https://dc.lft.to/lastmile_qr_scan"}, "type": "electric_scooter", "name": "a8b665062108287aface5b5a8a3778ae", "is_reserved": 0, "lon": -77.04014, "is_disabled": 0, "fusion_lat": 0.0, "lat": 38.917976833333334, "bike_id": "a8b665062108287aface5b5a8a3778ae", "fusion_lon": 0.0}, {"rental_uris": {"ios": "https://dc.lft.to/lastmile_qr_scan", "android": "https://dc.lft.to/lastmile_qr_scan"}, "type": "electric_bike", "name": "0c1c1bb1cbf7daa69e1586e3f8d02825", "is_reserved": 0, "lon": -77.11289733333334, "is_disabled": 0, "fusion_lat": 0.0, "lat": 38.831019833333336, "bike_id": "0c1c1bb1cbf7daa69e1586e3f8d02825", "fusion_lon": 0.0}, {"rental_uris": {"ios": "https://dc.lft.to/lastmile_qr_scan", "android": "https://dc.lft.to/lastmile_qr_scan"}, "type": "electric_scooter", "name": "1a4620f3ec2d8c2bc7fcbea6d49842f0", "is_reserved": 0, "lon": -77.05123266666666, "is_disabled": 0, "fusion_lat": 0.0, "lat": 38.923421, "bike_id": "1a4620f3ec2d8c2bc7fcbea6d49842f0", "fusion_lon": 0.0}, {"rental_uris": {"ios": "https://dc.lft.to/lastmile_qr_scan", "android": "https://dc.lft.to/lastmile_qr_scan"}, "type": "electric_scooter", "name": "6ff8cf7b9d7d6c9b98eaa35b854de949", "is_reserved": 0, "lon": -77.00197416666667, "is_disabled": 0, "fusion_lat": 0.0, "lat": 38.900406833333335, "bike_id": "6ff8cf7b9d7d6c9b98eaa35b854de949", "fusion_lon": 0.0}, {"rental_uris": {"ios": "https://dc.lft.to/lastmile_qr_scan", "android": "https://dc.lft.to/lastmile_qr_scan"}, "type": "electric_scooter", "name": "f0acaacc3a90c16a78270d8c2d527132", "is_reserved": 0, "lon": -77.0878055, "is_disabled": 0, "fusion_lat": 0.0, "lat": 38.935566, "bike_id": "f0acaacc3a90c16a78270d8c2d527132", "fusion_lon": 0.0}, {"rental_uris": {"ios": "https://dc.lft.to/lastmile_qr_scan", "android": "https://dc.lft.to/lastmile_qr_scan"}, "type": "electric_scooter", "name": "74a3c0fd1cd847769b76b652a97e6b01", "is_reserved": 0, "lon": -76.9960955, "is_disabled": 0, "fusion_lat": 0.0, "lat": 38.890833, "bike_id": "74a3c0fd1cd847769b76b652a97e6b01", "fusion_lon": 0.0}, {"rental_uris": {"ios": "https://dc.lft.to/lastmile_qr_scan", "android": "https://dc.lft.to/lastmile_qr_scan"}, "type": "electric_scooter", "name": "d1ab6fe96001bd6c42698d5892c0f4c4", "is_reserved": 0, "lon": -77.02363466666667, "is_disabled": 0, "fusion_lat": 0.0, "lat": 38.92042, "bike_id": "d1ab6fe96001bd6c42698d5892c0f4c4", "fusion_lon": 0.0}, {"rental_uris": {"ios": "https://dc.lft.to/lastmile_qr_scan", "android": "https://dc.lft.to/lastmile_qr_scan"}, "type": "electric_scooter", "name": "2ee1f08dc2126976f608cff43defdde8", "is_reserved": 0, "lon": -77.028194, "is_disabled": 0, "fusion_lat": 0.0, "lat": 38.9237425, "bike_id": "2ee1f08dc2126976f608cff43defdde8", "fusion_lon": 0.0}, {"rental_uris": {"ios": "https://dc.lft.to/lastmile_qr_scan", "android": "https://dc.lft.to/lastmile_qr_scan"}, "type": "electric_scooter", "name": "640f2d02941face568cfd0ee90368539", "is_reserved": 0, "lon": -77.0357755, "is_disabled": 0, "fusion_lat": 0.0, "lat": 38.91037683333333, "bike_id": "640f2d02941face568cfd0ee90368539", "fusion_lon": 0.0}, {"rental_uris": {"ios": "https://dc.lft.to/lastmile_qr_scan", "android": "https://dc.lft.to/lastmile_qr_scan"}, "type": "electric_scooter", "name": "031093b3329574b3099fa8e11b0cf1bc", "is_reserved": 0, "lon": -77.0413765, "is_disabled": 0, "fusion_lat": 0.0, "lat": 38.9062755, "bike_id": "031093b3329574b3099fa8e11b0cf1bc", "fusion_lon": 0.0}, {"rental_uris": {"ios": "https://dc.lft.to/lastmile_qr_scan", "android": "https://dc.lft.to/lastmile_qr_scan"}, "type": "electric_scooter", "name": "4a9bc87f48a2ea02d187f1362fef1e71", "is_reserved": 0, "lon": -77.02792883333333, "is_disabled": 0, "fusion_lat": 0.0, "lat": 38.896012166666665, "bike_id": "4a9bc87f48a2ea02d187f1362fef1e71", "fusion_lon": 0.0}, {"rental_uris": {"ios": "https://dc.lft.to/lastmile_qr_scan", "android": "https://dc.lft.to/lastmile_qr_scan"}, "type": "electric_scooter", "name": "0769d69c8c76d2c5096280f896b0df9e", "is_reserved": 0, "lon": -77.04497816666667, "is_disabled": 0, "fusion_lat": 0.0, "lat": 38.89733016666667, "bike_id": "0769d69c8c76d2c5096280f896b0df9e", "fusion_lon": 0.0}, {"rental_uris": {"ios": "https://dc.lft.to/lastmile_qr_scan", "android": "https://dc.lft.to/lastmile_qr_scan"}, "type": "electric_bike", "name": "ce93be17cd29259acde1933f7dd80e9f", "is_reserved": 0, "lon": -77.03198283333333, "is_disabled": 0, "fusion_lat": 0.0, "lat": 38.921010333333335, "bike_id": "ce93be17cd29259acde1933f7dd80e9f", "fusion_lon": 0.0}, {"rental_uris": {"ios": "https://dc.lft.to/lastmile_qr_scan", "android": "https://dc.lft.to/lastmile_qr_scan"}, "type": "electric_scooter", "name": "e64460bfc3e83557b871ef14cb1c0c5f", "is_reserved": 0, "lon": -77.05914233333333, "is_disabled": 0, "fusion_lat": 0.0, "lat": 38.9022435, "bike_id": "e64460bfc3e83557b871ef14cb1c0c5f", "fusion_lon": 0.0}, {"rental_uris": {"ios": "https://dc.lft.to/lastmile_qr_scan", "android": "https://dc.lft.to/lastmile_qr_scan"}, "type": "electric_bike", "name": "f6771f8bbb9a03015e1e77cc38d91202", "is_reserved": 0, "lon": -77.0363995, "is_disabled": 0, "fusion_lat": 0.0, "lat": 38.991350833333335, "bike_id": "f6771f8bbb9a03015e1e77cc38d91202", "fusion_lon": 0.0}, {"rental_uris": {"ios": "https://dc.lft.to/lastmile_qr_scan", "android": "https://dc.lft.to/lastmile_qr_scan"}, "type": "electric_scooter", "name": "8d7f64525cbde1ff5db973df021e50a7", "is_reserved": 0, "lon": -77.02312266666667, "is_disabled": 0, "fusion_lat": 0.0, "lat": 38.91765083333333, "bike_id": "8d7f64525cbde1ff5db973df021e50a7", "fusion_lon": 0.0}, {"rental_uris": {"ios": "https://dc.lft.to/lastmile_qr_scan", "android": "https://dc.lft.to/lastmile_qr_scan"}, "type": "electric_scooter", "name": "094845af28df21cbda6222834c48102e", "is_reserved": 0, "lon": -77.04169216666666, "is_disabled": 0, "fusion_lat": 0.0, "lat": 38.8979915, "bike_id": "094845af28df21cbda6222834c48102e", "fusion_lon": 0.0}, {"rental_uris": {"ios": "https://dc.lft.to/lastmile_qr_scan", "android": "https://dc.lft.to/lastmile_qr_scan"}, "type": "electric_scooter", "name": "6aebbcf823fb9923f9e25596d1fdcb31", "is_reserved": 0, "lon": -77.0259595, "is_disabled": 0, "fusion_lat": 0.0, "lat": 38.91454266666667, "bike_id": "6aebbcf823fb9923f9e25596d1fdcb31", "fusion_lon": 0.0}, {"rental_uris": {"ios": "https://dc.lft.to/lastmile_qr_scan", "android": "https://dc.lft.to/lastmile_qr_scan"}, "type": "electric_scooter", "name": "9ece98d261a838a22e35be24bcaf3f2b", "is_reserved": 0, "lon": -77.03509733333334, "is_disabled": 0, "fusion_lat": 0.0, "lat": 38.909584, "bike_id": "9ece98d261a838a22e35be24bcaf3f2b", "fusion_lon": 0.0}, {"rental_uris": {"ios": "https://dc.lft.to/lastmile_qr_scan", "android": "https://dc.lft.to/lastmile_qr_scan"}, "type": "electric_scooter", "name": "7ed9636fe3635b344000378ccc1e83ac", "is_reserved": 0, "lon": -77.048311, "is_disabled": 0, "fusion_lat": 0.0, "lat": 38.912688833333334, "bike_id": "7ed9636fe3635b344000378ccc1e83ac", "fusion_lon": 0.0}, {"rental_uris": {"ios": "https://dc.lft.to/lastmile_qr_scan", "android": "https://dc.lft.to/lastmile_qr_scan"}, "type": "electric_scooter", "name": "25de087563176bf129bfad2453d3f379", "is_reserved": 0, "lon": -77.04488266666667, "is_disabled": 0, "fusion_lat": 0.0, "lat": 38.91231333333333, "bike_id": "25de087563176bf129bfad2453d3f379", "fusion_lon": 0.0}, {"rental_uris": {"ios": "https://dc.lft.to/lastmile_qr_scan", "android": "https://dc.lft.to/lastmile_qr_scan"}, "type": "electric_scooter", "name": "8394005ae32074754f9feab83178fa0f", "is_reserved": 0, "lon": -77.02142283333333, "is_disabled": 0, "fusion_lat": 0.0, "lat": 38.913226333333334, "bike_id": "8394005ae32074754f9feab83178fa0f", "fusion_lon": 0.0}, {"rental_uris": {"ios": "https://dc.lft.to/lastmile_qr_scan", "android": "https://dc.lft.to/lastmile_qr_scan"}, "type": "electric_scooter", "name": "504a04df5eb842cd22e3e20257ce4e5b", "is_reserved": 0, "lon": -77.03707533333333, "is_disabled": 0, "fusion_lat": 0.0, "lat": 38.928339, "bike_id": "504a04df5eb842cd22e3e20257ce4e5b", "fusion_lon": 0.0}, {"rental_uris": {"ios": "https://dc.lft.to/lastmile_qr_scan", "android": "https://dc.lft.to/lastmile_qr_scan"}, "type": "electric_scooter", "name": "3a4b20c016ed9d6cad6cc0ac98df6e35", "is_reserved": 0, "lon": -77.020206, "is_disabled": 0, "fusion_lat": 0.0, "lat": 38.89813483333333, "bike_id": "3a4b20c016ed9d6cad6cc0ac98df6e35", "fusion_lon": 0.0}, {"rental_uris": {"ios": "https://dc.lft.to/lastmile_qr_scan", "android": "https://dc.lft.to/lastmile_qr_scan"}, "type": "electric_scooter", "name": "f23733e363e6b74aa587d024b07042cb", "is_reserved": 0, "lon": -76.9962015, "is_disabled": 0, "fusion_lat": 0.0, "lat": 38.88618266666667, "bike_id": "f23733e363e6b74aa587d024b07042cb", "fusion_lon": 0.0}, {"rental_uris": {"ios": "https://dc.lft.to/lastmile_qr_scan", "android": "https://dc.lft.to/lastmile_qr_scan"}, "type": "electric_scooter", "name": "66ce6a258f3a4c3e94ff6a15965d5352", "is_reserved": 0, "lon": -77.03674416666667, "is_disabled": 0, "fusion_lat": 0.0, "lat": 38.9027585, "bike_id": "66ce6a258f3a4c3e94ff6a15965d5352", "fusion_lon": 0.0}, {"rental_uris": {"ios": "https://dc.lft.to/lastmile_qr_scan", "android": "https://dc.lft.to/lastmile_qr_scan"}, "type": "electric_scooter", "name": "51f6529ae21ee8fd4789b2bd5853a3cd", "is_reserved": 0, "lon": -77.02812783333333, "is_disabled": 0, "fusion_lat": 0.0, "lat": 38.9176395, "bike_id": "51f6529ae21ee8fd4789b2bd5853a3cd", "fusion_lon": 0.0}, {"rental_uris": {"ios": "https://dc.lft.to/lastmile_qr_scan", "android": "https://dc.lft.to/lastmile_qr_scan"}, "type": "electric_scooter", "name": "c44998709226184b8fc3471a2690ab56", "is_reserved": 0, "lon": -77.05596066666666, "is_disabled": 0, "fusion_lat": 0.0, "lat": 38.894218333333335, "bike_id": "c44998709226184b8fc3471a2690ab56", "fusion_lon": 0.0}, {"rental_uris": {"ios": "https://dc.lft.to/lastmile_qr_scan", "android": "https://dc.lft.to/lastmile_qr_scan"}, "type": "electric_scooter", "name": "87c49bcba4d8c80dc2e23a40f81b3dcf", "is_reserved": 0, "lon": -77.03645183333333, "is_disabled": 0, "fusion_lat": 0.0, "lat": 38.9185365, "bike_id": "87c49bcba4d8c80dc2e23a40f81b3dcf", "fusion_lon": 0.0}, {"rental_uris": {"ios": "https://dc.lft.to/lastmile_qr_scan", "android": "https://dc.lft.to/lastmile_qr_scan"}, "type": "electric_scooter", "name": "aa37d17fef362ce483c91c3f54e88df4", "is_reserved": 0, "lon": -77.02693733333334, "is_disabled": 0, "fusion_lat": 0.0, "lat": 38.91148283333333, "bike_id": "aa37d17fef362ce483c91c3f54e88df4", "fusion_lon": 0.0}, {"rental_uris": {"ios": "https://dc.lft.to/lastmile_qr_scan", "android": "https://dc.lft.to/lastmile_qr_scan"}, "type": "electric_scooter", "name": "8897c2839e96aec73162b2f121d11378", "is_reserved": 0, "lon": -77.03063183333333, "is_disabled": 0, "fusion_lat": 0.0, "lat": 38.909511333333334, "bike_id": "8897c2839e96aec73162b2f121d11378", "fusion_lon": 0.0}, {"rental_uris": {"ios": "https://dc.lft.to/lastmile_qr_scan", "android": "https://dc.lft.to/lastmile_qr_scan"}, "type": "electric_scooter", "name": "cf173fd4395cdd461842472b84bca65e", "is_reserved": 0, "lon": -77.0329345, "is_disabled": 0, "fusion_lat": 0.0, "lat": 38.924510833333336, "bike_id": "cf173fd4395cdd461842472b84bca65e", "fusion_lon": 0.0}, {"rental_uris": {"ios": "https://dc.lft.to/lastmile_qr_scan", "android": "https://dc.lft.to/lastmile_qr_scan"}, "type": "electric_scooter", "name": "922bd159bcc91b593f042e1fbc597ae7", "is_reserved": 0, "lon": -77.03207233333333, "is_disabled": 0, "fusion_lat": 0.0, "lat": 38.9070655, "bike_id": "922bd159bcc91b593f042e1fbc597ae7", "fusion_lon": 0.0}, {"rental_uris": {"ios": "https://dc.lft.to/lastmile_qr_scan", "android": "https://dc.lft.to/lastmile_qr_scan"}, "type": "electric_bike", "name": "da7cd7eda2493fe82913e3d0705a2274", "is_reserved": 0, "lon": -77.05955266666666, "is_disabled": 0, "fusion_lat": 0.0, "lat": 38.86377316666667, "bike_id": "da7cd7eda2493fe82913e3d0705a2274", "fusion_lon": 0.0}, {"rental_uris": {"ios": "https://dc.lft.to/lastmile_qr_scan", "android": "https://dc.lft.to/lastmile_qr_scan"}, "type": "electric_scooter", "name": "500a902f2277331f5a77e1956d894517", "is_reserved": 0, "lon": -77.04273983333333, "is_disabled": 0, "fusion_lat": 0.0, "lat": 38.9230485, "bike_id": "500a902f2277331f5a77e1956d894517", "fusion_lon": 0.0}, {"rental_uris": {"ios": "https://dc.lft.to/lastmile_qr_scan", "android": "https://dc.lft.to/lastmile_qr_scan"}, "type": "electric_scooter", "name": "9488691410fe00e708acf9c0b141d1f2", "is_reserved": 0, "lon": -77.04106216666666, "is_disabled": 0, "fusion_lat": 0.0, "lat": 38.905417, "bike_id": "9488691410fe00e708acf9c0b141d1f2", "fusion_lon": 0.0}, {"rental_uris": {"ios": "https://dc.lft.to/lastmile_qr_scan", "android": "https://dc.lft.to/lastmile_qr_scan"}, "type": "electric_scooter", "name": "a42685b1f0aa2029dcfa4a0c96c75a21", "is_reserved": 0, "lon": -77.02666116666667, "is_disabled": 0, "fusion_lat": 0.0, "lat": 38.8848745, "bike_id": "a42685b1f0aa2029dcfa4a0c96c75a21", "fusion_lon": 0.0}, {"rental_uris": {"ios": "https://dc.lft.to/lastmile_qr_scan", "android": "https://dc.lft.to/lastmile_qr_scan"}, "type": "electric_bike", "name": "3815901e6e0a5512d3227e6d64b2abd2", "is_reserved": 0, "lon": -76.95738766666666, "is_disabled": 0, "fusion_lat": 0.0, "lat": 38.88853133333333, "bike_id": "3815901e6e0a5512d3227e6d64b2abd2", "fusion_lon": 0.0}, {"rental_uris": {"ios": "https://dc.lft.to/lastmile_qr_scan", "android": "https://dc.lft.to/lastmile_qr_scan"}, "type": "electric_scooter", "name": "a987986a3915d4e6991546a30401deab", "is_reserved": 0, "lon": -77.0162545, "is_disabled": 0, "fusion_lat": 0.0, "lat": 38.903655, "bike_id": "a987986a3915d4e6991546a30401deab", "fusion_lon": 0.0}, {"rental_uris": {"ios": "https://dc.lft.to/lastmile_qr_scan", "android": "https://dc.lft.to/lastmile_qr_scan"}, "type": "electric_scooter", "name": "239f6094eef5d47e0a0e1e7c2cf8f0b2", "is_reserved": 0, "lon": -77.02140583333333, "is_disabled": 0, "fusion_lat": 0.0, "lat": 38.9155415, "bike_id": "239f6094eef5d47e0a0e1e7c2cf8f0b2", "fusion_lon": 0.0}, {"rental_uris": {"ios": "https://dc.lft.to/lastmile_qr_scan", "android": "https://dc.lft.to/lastmile_qr_scan"}, "type": "electric_scooter", "name": "6de368c046a75e9f56e32d03382cf01c", "is_reserved": 0, "lon": -77.002144, "is_disabled": 0, "fusion_lat": 0.0, "lat": 38.90044116666667, "bike_id": "6de368c046a75e9f56e32d03382cf01c", "fusion_lon": 0.0}, {"rental_uris": {"ios": "https://dc.lft.to/lastmile_qr_scan", "android": "https://dc.lft.to/lastmile_qr_scan"}, "type": "electric_scooter", "name": "a11a50dd76f32e283d0487691efd2c23", "is_reserved": 0, "lon": -76.94717, "is_disabled": 0, "fusion_lat": 0.0, "lat": 38.8907955, "bike_id": "a11a50dd76f32e283d0487691efd2c23", "fusion_lon": 0.0}, {"rental_uris": {"ios": "https://dc.lft.to/lastmile_qr_scan", "android": "https://dc.lft.to/lastmile_qr_scan"}, "type": "electric_scooter", "name": "f2af2db3d356dd0ce8edbbc1fb1daddf", "is_reserved": 0, "lon": -77.03206333333333, "is_disabled": 0, "fusion_lat": 0.0, "lat": 38.908277166666664, "bike_id": "f2af2db3d356dd0ce8edbbc1fb1daddf", "fusion_lon": 0.0}, {"rental_uris": {"ios": "https://dc.lft.to/lastmile_qr_scan", "android": "https://dc.lft.to/lastmile_qr_scan"}, "type": "electric_scooter", "name": "c34f3105b61d74e520f0f37a8630ca16", "is_reserved": 0, "lon": -77.05149816666666, "is_disabled": 0, "fusion_lat": 0.0, "lat": 38.902050833333334, "bike_id": "c34f3105b61d74e520f0f37a8630ca16", "fusion_lon": 0.0}, {"rental_uris": {"ios": "https://dc.lft.to/lastmile_qr_scan", "android": "https://dc.lft.to/lastmile_qr_scan"}, "type": "electric_scooter", "name": "83361b25ea8dfac988cf0e57f55c403f", "is_reserved": 0, "lon": -77.04290333333333, "is_disabled": 0, "fusion_lat": 0.0, "lat": 38.922399166666665, "bike_id": "83361b25ea8dfac988cf0e57f55c403f", "fusion_lon": 0.0}, {"rental_uris": {"ios": "https://dc.lft.to/lastmile_qr_scan", "android": "https://dc.lft.to/lastmile_qr_scan"}, "type": "electric_scooter", "name": "c0be2868ef8d4800139f572a88f27d8f", "is_reserved": 0, "lon": -77.00533116666666, "is_disabled": 0, "fusion_lat": 0.0, "lat": 38.88022733333333, "bike_id": "c0be2868ef8d4800139f572a88f27d8f", "fusion_lon": 0.0}, {"rental_uris": {"ios": "https://dc.lft.to/lastmile_qr_scan", "android": "https://dc.lft.to/lastmile_qr_scan"}, "type": "electric_scooter", "name": "b609d3e96e22c65b809c55d638ddb91d", "is_reserved": 0, "lon": -77.02357266666667, "is_disabled": 0, "fusion_lat": 0.0, "lat": 38.902184166666665, "bike_id": "b609d3e96e22c65b809c55d638ddb91d", "fusion_lon": 0.0}, {"rental_uris": {"ios": "https://dc.lft.to/lastmile_qr_scan", "android": "https://dc.lft.to/lastmile_qr_scan"}, "type": "electric_scooter", "name": "160422cf11971c4a6430be8cdd840285", "is_reserved": 0, "lon": -76.948714, "is_disabled": 0, "fusion_lat": 0.0, "lat": 38.89481633333333, "bike_id": "160422cf11971c4a6430be8cdd840285", "fusion_lon": 0.0}, {"rental_uris": {"ios": "https://dc.lft.to/lastmile_qr_scan", "android": "https://dc.lft.to/lastmile_qr_scan"}, "type": "electric_scooter", "name": "736615a170b45ea47bc60cceea4689bd", "is_reserved": 0, "lon": -77.04176483333333, "is_disabled": 0, "fusion_lat": 0.0, "lat": 38.90728166666667, "bike_id": "736615a170b45ea47bc60cceea4689bd", "fusion_lon": 0.0}, {"rental_uris": {"ios": "https://dc.lft.to/lastmile_qr_scan", "android": "https://dc.lft.to/lastmile_qr_scan"}, "type": "electric_scooter", "name": "065a0b8c9412e54174d33665d22b212f", "is_reserved": 0, "lon": -77.03944766666666, "is_disabled": 0, "fusion_lat": 0.0, "lat": 38.924843333333335, "bike_id": "065a0b8c9412e54174d33665d22b212f", "fusion_lon": 0.0}, {"rental_uris": {"ios": "https://dc.lft.to/lastmile_qr_scan", "android": "https://dc.lft.to/lastmile_qr_scan"}, "type": "electric_scooter", "name": "e896e0f2b2785376475e2fec4d7d85e3", "is_reserved": 0, "lon": -77.04257966666667, "is_disabled": 0, "fusion_lat": 0.0, "lat": 38.92220283333333, "bike_id": "e896e0f2b2785376475e2fec4d7d85e3", "fusion_lon": 0.0}, {"rental_uris": {"ios": "https://dc.lft.to/lastmile_qr_scan", "android": "https://dc.lft.to/lastmile_qr_scan"}, "type": "electric_scooter", "name": "79925b41898dd3b09af110cc7baeab1f", "is_reserved": 0, "lon": -77.03119666666667, "is_disabled": 0, "fusion_lat": 0.0, "lat": 38.920174833333334, "bike_id": "79925b41898dd3b09af110cc7baeab1f", "fusion_lon": 0.0}, {"rental_uris": {"ios": "https://dc.lft.to/lastmile_qr_scan", "android": "https://dc.lft.to/lastmile_qr_scan"}, "type": "electric_scooter", "name": "310397c207c97cb573d84da248b69d7f", "is_reserved": 0, "lon": -77.03924383333333, "is_disabled": 0, "fusion_lat": 0.0, "lat": 38.9012595, "bike_id": "310397c207c97cb573d84da248b69d7f", "fusion_lon": 0.0}, {"rental_uris": {"ios": "https://dc.lft.to/lastmile_qr_scan", "android": "https://dc.lft.to/lastmile_qr_scan"}, "type": "electric_scooter", "name": "cd860292fb977089535609d7bf7e28af", "is_reserved": 0, "lon": -77.04202033333334, "is_disabled": 0, "fusion_lat": 0.0, "lat": 38.91664166666666, "bike_id": "cd860292fb977089535609d7bf7e28af", "fusion_lon": 0.0}, {"rental_uris": {"ios": "https://dc.lft.to/lastmile_qr_scan", "android": "https://dc.lft.to/lastmile_qr_scan"}, "type": "electric_bike", "name": "5fea92f0ee1020e2c97a66dd4576f91a", "is_reserved": 0, "lon": -76.96325883333333, "is_disabled": 0, "fusion_lat": 0.0, "lat": 38.938925, "bike_id": "5fea92f0ee1020e2c97a66dd4576f91a", "fusion_lon": 0.0}, {"rental_uris": {"ios": "https://dc.lft.to/lastmile_qr_scan", "android": "https://dc.lft.to/lastmile_qr_scan"}, "type": "electric_scooter", "name": "84ef1c3956d589f5ce9f1bd1f2295d39", "is_reserved": 0, "lon": -77.04284383333334, "is_disabled": 0, "fusion_lat": 0.0, "lat": 38.922678, "bike_id": "84ef1c3956d589f5ce9f1bd1f2295d39", "fusion_lon": 0.0}, {"rental_uris": {"ios": "https://dc.lft.to/lastmile_qr_scan", "android": "https://dc.lft.to/lastmile_qr_scan"}, "type": "electric_scooter", "name": "ae879d89088b462b95d2a4599876ff8b", "is_reserved": 0, "lon": -77.03846816666666, "is_disabled": 0, "fusion_lat": 0.0, "lat": 38.90840033333333, "bike_id": "ae879d89088b462b95d2a4599876ff8b", "fusion_lon": 0.0}, {"rental_uris": {"ios": "https://dc.lft.to/lastmile_qr_scan", "android": "https://dc.lft.to/lastmile_qr_scan"}, "type": "electric_scooter", "name": "225dc226c20738659098b7212319e612", "is_reserved": 0, "lon": -77.04638016666667, "is_disabled": 0, "fusion_lat": 0.0, "lat": 38.900579666666665, "bike_id": "225dc226c20738659098b7212319e612", "fusion_lon": 0.0}, {"rental_uris": {"ios": "https://dc.lft.to/lastmile_qr_scan", "android": "https://dc.lft.to/lastmile_qr_scan"}, "type": "electric_scooter", "name": "a7595c65be3c8778f44a4624c4d01229", "is_reserved": 0, "lon": -77.02431733333333, "is_disabled": 0, "fusion_lat": 0.0, "lat": 38.90714466666667, "bike_id": "a7595c65be3c8778f44a4624c4d01229", "fusion_lon": 0.0}, {"rental_uris": {"ios": "https://dc.lft.to/lastmile_qr_scan", "android": "https://dc.lft.to/lastmile_qr_scan"}, "type": "electric_scooter", "name": "0387c409d03bda1ef1553e0986e85de8", "is_reserved": 0, "lon": -77.07842133333334, "is_disabled": 0, "fusion_lat": 0.0, "lat": 38.93123033333333, "bike_id": "0387c409d03bda1ef1553e0986e85de8", "fusion_lon": 0.0}, {"rental_uris": {"ios": "https://dc.lft.to/lastmile_qr_scan", "android": "https://dc.lft.to/lastmile_qr_scan"}, "type": "electric_scooter", "name": "3cdc6f785be189211a910819f5046964", "is_reserved": 0, "lon": -77.02969116666667, "is_disabled": 0, "fusion_lat": 0.0, "lat": 38.916823666666666, "bike_id": "3cdc6f785be189211a910819f5046964", "fusion_lon": 0.0}, {"rental_uris": {"ios": "https://dc.lft.to/lastmile_qr_scan", "android": "https://dc.lft.to/lastmile_qr_scan"}, "type": "electric_bike", "name": "f4206253423aa7e2a1ab08f48840501b", "is_reserved": 0, "lon": -77.08142516666666, "is_disabled": 0, "fusion_lat": 0.0, "lat": 38.8229455, "bike_id": "f4206253423aa7e2a1ab08f48840501b", "fusion_lon": 0.0}, {"rental_uris": {"ios": "https://dc.lft.to/lastmile_qr_scan", "android": "https://dc.lft.to/lastmile_qr_scan"}, "type": "electric_scooter", "name": "208c6242db55b5a5777ca61f7979498a", "is_reserved": 0, "lon": -77.02088766666667, "is_disabled": 0, "fusion_lat": 0.0, "lat": 38.93000383333333, "bike_id": "208c6242db55b5a5777ca61f7979498a", "fusion_lon": 0.0}, {"rental_uris": {"ios": "https://dc.lft.to/lastmile_qr_scan", "android": "https://dc.lft.to/lastmile_qr_scan"}, "type": "electric_bike", "name": "5ec7b45a1cc1075a4b4901b529d6eb67", "is_reserved": 0, "lon": -77.06914583333334, "is_disabled": 0, "fusion_lat": 0.0, "lat": 38.91760416666666, "bike_id": "5ec7b45a1cc1075a4b4901b529d6eb67", "fusion_lon": 0.0}, {"rental_uris": {"ios": "https://dc.lft.to/lastmile_qr_scan", "android": "https://dc.lft.to/lastmile_qr_scan"}, "type": "electric_scooter", "name": "a62e89d88d5860d95cb58cfdb9d840fd", "is_reserved": 0, "lon": -76.98548883333333, "is_disabled": 0, "fusion_lat": 0.0, "lat": 38.88352233333333, "bike_id": "a62e89d88d5860d95cb58cfdb9d840fd", "fusion_lon": 0.0}, {"rental_uris": {"ios": "https://dc.lft.to/lastmile_qr_scan", "android": "https://dc.lft.to/lastmile_qr_scan"}, "type": "electric_scooter", "name": "e6fb4debbff057fcc5dbe1578eea5d20", "is_reserved": 0, "lon": -77.023786, "is_disabled": 0, "fusion_lat": 0.0, "lat": 38.8796185, "bike_id": "e6fb4debbff057fcc5dbe1578eea5d20", "fusion_lon": 0.0}, {"rental_uris": {"ios": "https://dc.lft.to/lastmile_qr_scan", "android": "https://dc.lft.to/lastmile_qr_scan"}, "type": "electric_scooter", "name": "fbc1a6df3d5c5d69dc7314d60db8eacf", "is_reserved": 0, "lon": -77.0012365, "is_disabled": 0, "fusion_lat": 0.0, "lat": 38.8778925, "bike_id": "fbc1a6df3d5c5d69dc7314d60db8eacf", "fusion_lon": 0.0}, {"rental_uris": {"ios": "https://dc.lft.to/lastmile_qr_scan", "android": "https://dc.lft.to/lastmile_qr_scan"}, "type": "electric_scooter", "name": "d7597751fa238f970fe1eb1e2ab4db45", "is_reserved": 0, "lon": -77.028237, "is_disabled": 0, "fusion_lat": 0.0, "lat": 38.887268166666665, "bike_id": "d7597751fa238f970fe1eb1e2ab4db45", "fusion_lon": 0.0}, {"rental_uris": {"ios": "https://dc.lft.to/lastmile_qr_scan", "android": "https://dc.lft.to/lastmile_qr_scan"}, "type": "electric_scooter", "name": "2e96dedcd763122ce8509f22fa2b2719", "is_reserved": 0, "lon": -77.00371766666666, "is_disabled": 0, "fusion_lat": 0.0, "lat": 38.91563333333333, "bike_id": "2e96dedcd763122ce8509f22fa2b2719", "fusion_lon": 0.0}, {"rental_uris": {"ios": "https://dc.lft.to/lastmile_qr_scan", "android": "https://dc.lft.to/lastmile_qr_scan"}, "type": "electric_scooter", "name": "bb88cb2f6d13c7649dcebad2889f48e3", "is_reserved": 0, "lon": -77.01217133333333, "is_disabled": 0, "fusion_lat": 0.0, "lat": 38.901655, "bike_id": "bb88cb2f6d13c7649dcebad2889f48e3", "fusion_lon": 0.0}, {"rental_uris": {"ios": "https://dc.lft.to/lastmile_qr_scan", "android": "https://dc.lft.to/lastmile_qr_scan"}, "type": "electric_scooter", "name": "6ec827ef39971e4775d50069a969cdae", "is_reserved": 0, "lon": -76.98911916666667, "is_disabled": 0, "fusion_lat": 0.0, "lat": 38.90009233333333, "bike_id": "6ec827ef39971e4775d50069a969cdae", "fusion_lon": 0.0}, {"rental_uris": {"ios": "https://dc.lft.to/lastmile_qr_scan", "android": "https://dc.lft.to/lastmile_qr_scan"}, "type": "electric_scooter", "name": "03a0e2c30744260da825216c9f77ae93", "is_reserved": 0, "lon": -76.98707333333333, "is_disabled": 0, "fusion_lat": 0.0, "lat": 38.859643166666665, "bike_id": "03a0e2c30744260da825216c9f77ae93", "fusion_lon": 0.0}, {"rental_uris": {"ios": "https://dc.lft.to/lastmile_qr_scan", "android": "https://dc.lft.to/lastmile_qr_scan"}, "type": "electric_scooter", "name": "e576ad0981be014d3c013990b4758421", "is_reserved": 0, "lon": -77.02716566666666, "is_disabled": 0, "fusion_lat": 0.0, "lat": 38.910156666666666, "bike_id": "e576ad0981be014d3c013990b4758421", "fusion_lon": 0.0}, {"rental_uris": {"ios": "https://dc.lft.to/lastmile_qr_scan", "android": "https://dc.lft.to/lastmile_qr_scan"}, "type": "electric_scooter", "name": "c843bdff59540996b0917279b7ce1098", "is_reserved": 0, "lon": -77.014347, "is_disabled": 0, "fusion_lat": 0.0, "lat": 38.92026216666667, "bike_id": "c843bdff59540996b0917279b7ce1098", "fusion_lon": 0.0}, {"rental_uris": {"ios": "https://dc.lft.to/lastmile_qr_scan", "android": "https://dc.lft.to/lastmile_qr_scan"}, "type": "electric_scooter", "name": "9d339a8404c12e07c5e9bde4618b8890", "is_reserved": 0, "lon": -77.04463516666667, "is_disabled": 0, "fusion_lat": 0.0, "lat": 38.9111885, "bike_id": "9d339a8404c12e07c5e9bde4618b8890", "fusion_lon": 0.0}, {"rental_uris": {"ios": "https://dc.lft.to/lastmile_qr_scan", "android": "https://dc.lft.to/lastmile_qr_scan"}, "type": "electric_scooter", "name": "e550c377721fe727cb5ff043b1f40b52", "is_reserved": 0, "lon": -76.97155583333333, "is_disabled": 0, "fusion_lat": 0.0, "lat": 38.91620966666667, "bike_id": "e550c377721fe727cb5ff043b1f40b52", "fusion_lon": 0.0}, {"rental_uris": {"ios": "https://dc.lft.to/lastmile_qr_scan", "android": "https://dc.lft.to/lastmile_qr_scan"}, "type": "electric_scooter", "name": "c5bb3ff8aa0c3ec790abddfdb0ebd024", "is_reserved": 0, "lon": -77.01270516666666, "is_disabled": 0, "fusion_lat": 0.0, "lat": 38.8971815, "bike_id": "c5bb3ff8aa0c3ec790abddfdb0ebd024", "fusion_lon": 0.0}, {"rental_uris": {"ios": "https://dc.lft.to/lastmile_qr_scan", "android": "https://dc.lft.to/lastmile_qr_scan"}, "type": "electric_scooter", "name": "53f421026434979901cf0e124618b110", "is_reserved": 0, "lon": -77.02250233333334, "is_disabled": 0, "fusion_lat": 0.0, "lat": 38.9127435, "bike_id": "53f421026434979901cf0e124618b110", "fusion_lon": 0.0}, {"rental_uris": {"ios": "https://dc.lft.to/lastmile_qr_scan", "android": "https://dc.lft.to/lastmile_qr_scan"}, "type": "electric_scooter", "name": "72e4489cdb6be71ff41ea3f857dfc092", "is_reserved": 0, "lon": -77.042531, "is_disabled": 0, "fusion_lat": 0.0, "lat": 38.92230466666667, "bike_id": "72e4489cdb6be71ff41ea3f857dfc092", "fusion_lon": 0.0}, {"rental_uris": {"ios": "https://dc.lft.to/lastmile_qr_scan", "android": "https://dc.lft.to/lastmile_qr_scan"}, "type": "electric_scooter", "name": "5412cf81fcb6275c25773f9ba768665b", "is_reserved": 0, "lon": -77.03841233333333, "is_disabled": 0, "fusion_lat": 0.0, "lat": 38.906728666666666, "bike_id": "5412cf81fcb6275c25773f9ba768665b", "fusion_lon": 0.0}, {"rental_uris": {"ios": "https://dc.lft.to/lastmile_qr_scan", "android": "https://dc.lft.to/lastmile_qr_scan"}, "type": "electric_scooter", "name": "06b5593c61e492a418b326adf0fb7dac", "is_reserved": 0, "lon": -77.02199566666667, "is_disabled": 0, "fusion_lat": 0.0, "lat": 38.887219333333334, "bike_id": "06b5593c61e492a418b326adf0fb7dac", "fusion_lon": 0.0}, {"rental_uris": {"ios": "https://dc.lft.to/lastmile_qr_scan", "android": "https://dc.lft.to/lastmile_qr_scan"},