{"data": {"bikes": [{"rental_uris": {"ios": "https://dc.lft.to/lastmile_qr_scan", "android": "https://dc.lft.to/lastmile_qr_scan"}, "lon": -77.02835316666666, "type": "electric_scooter", "fusion_lat": 0.0, "lat": 38.88768666666667, "name": "77e26b8a8a24d0e2e84d4cd98b98c247", "fusion_lon": 0.0, "bike_id": "77e26b8a8a24d0e2e84d4cd98b98c247", "is_disabled": 0, "is_reserved": 0}, {"rental_uris": {"ios": "https://dc.lft.to/lastmile_qr_scan", "android": "https://dc.lft.to/lastmile_qr_scan"}, "lon": -77.03747583333333, "type": "electric_scooter", "fusion_lat": 0.0, "lat": 38.9259085, "name": "66a07582d6e037b088b453ffeba260ee", "fusion_lon": 0.0, "bike_id": "66a07582d6e037b088b453ffeba260ee", "is_disabled": 0, "is_reserved": 0}, {"rental_uris": {"ios": "https://dc.lft.to/lastmile_qr_scan", "android": "https://dc.lft.to/lastmile_qr_scan"}, "lon": -77.048077, "type": "electric_scooter", "fusion_lat": 0.0, "lat": 38.903679333333336, "name": "80ba0a7b46008a42627ddfe01854b54e", "fusion_lon": 0.0, "bike_id": "80ba0a7b46008a42627ddfe01854b54e", "is_disabled": 0, "is_reserved": 0}, {"rental_uris": {"ios": "https://dc.lft.to/lastmile_qr_scan", "android": "https://dc.lft.to/lastmile_qr_scan"}, "lon": -77.02522983333333, "type": "electric_scooter", "fusion_lat": 0.0, "lat": 38.919809, "name": "4d66c0c9d76d36f40a136be79031f434", "fusion_lon": 0.0, "bike_id": "4d66c0c9d76d36f40a136be79031f434", "is_disabled": 0, "is_reserved": 0}, {"rental_uris": {"ios": "https://dc.lft.to/lastmile_qr_scan", "android": "https://dc.lft.to/lastmile_qr_scan"}, "lon": -77.02619, "type": "electric_scooter", "fusion_lat": 0.0, "lat": 38.929141333333334, "name": "3aa86863e45be908e5a27bd5138741fc", "fusion_lon": 0.0, "bike_id": "3aa86863e45be908e5a27bd5138741fc", "is_disabled": 0, "is_reserved": 0}, {"rental_uris": {"ios": "https://dc.lft.to/lastmile_qr_scan", "android": "https://dc.lft.to/lastmile_qr_scan"}, "lon": -77.05754283333333, "type": "electric_scooter", "fusion_lat": 0.0, "lat": 38.93417933333333, "name": "21e19f5728595836eecd41e5758f9d41", "fusion_lon": 0.0, "bike_id": "21e19f5728595836eecd41e5758f9d41", "is_disabled": 0, "is_reserved": 0}, {"rental_uris": {"ios": "https://dc.lft.to/lastmile_qr_scan", "android": "https://dc.lft.to/lastmile_qr_scan"}, "lon": -76.9989715, "type": "electric_scooter", "fusion_lat": 0.0, "lat": 38.90936, "name": "38dcd490e64736e69eaa1499c1572a5f", "fusion_lon": 0.0, "bike_id": "38dcd490e64736e69eaa1499c1572a5f", "is_disabled": 0, "is_reserved": 0}, {"rental_uris": {"ios": "https://dc.lft.to/lastmile_qr_scan", "android": "https://dc.lft.to/lastmile_qr_scan"}, "lon": -77.04110083333333, "type": "electric_scooter", "fusion_lat": 0.0, "lat": 38.9156275, "name": "d21e5e7490305761fd68e176918f0a85", "fusion_lon": 0.0, "bike_id": "d21e5e7490305761fd68e176918f0a85", "is_disabled": 0, "is_reserved": 0}, {"rental_uris": {"ios": "https://dc.lft.to/lastmile_qr_scan", "android": "https://dc.lft.to/lastmile_qr_scan"}, "lon": -77.03077866666666, "type": "electric_scooter", "fusion_lat": 0.0, "lat": 38.911858, "name": "402b437fc1b018a9eab023ee7f6fefd2", "fusion_lon": 0.0, "bike_id": "402b437fc1b018a9eab023ee7f6fefd2", "is_disabled": 0, "is_reserved": 0}, {"rental_uris": {"ios": "https://dc.lft.to/lastmile_qr_scan", "android": "https://dc.lft.to/lastmile_qr_scan"}, "lon": -77.11523266666667, "type": "electric_bike", "fusion_lat": 0.0, "lat": 38.8549255, "name": "9ebe961bc42fecca247cf729e321bffb", "fusion_lon": 0.0, "bike_id": "9ebe961bc42fecca247cf729e321bffb", "is_disabled": 0, "is_reserved": 0}, {"rental_uris": {"ios": "https://dc.lft.to/lastmile_qr_scan", "android": "https://dc.lft.to/lastmile_qr_scan"}, "lon": -77.04592, "type": "electric_scooter", "fusion_lat": 0.0, "lat": 38.917226166666666, "name": "47c24a1d334fcdb4f59843a16abf34ee", "fusion_lon": 0.0, "bike_id": "47c24a1d334fcdb4f59843a16abf34ee", "is_disabled": 0, "is_reserved": 0}, {"rental_uris": {"ios": "https://dc.lft.to/lastmile_qr_scan", "android": "https://dc.lft.to/lastmile_qr_scan"}, "lon": -77.02001766666666, "type": "electric_scooter", "fusion_lat": 0.0, "lat": 38.8973705, "name": "346363c2fde43a21d7d8ed608e30f9f6", "fusion_lon": 0.0, "bike_id": "346363c2fde43a21d7d8ed608e30f9f6", "is_disabled": 0, "is_reserved": 0}, {"rental_uris": {"ios": "https://dc.lft.to/lastmile_qr_scan", "android": "https://dc.lft.to/lastmile_qr_scan"}, "lon": -76.97825416666667, "type": "electric_bike", "fusion_lat": 0.0, "lat": 38.8461305, "name": "f138a7ccfeb6ac2848a6c69ed18d2dae", "fusion_lon": 0.0, "bike_id": "f138a7ccfeb6ac2848a6c69ed18d2dae", "is_disabled": 0, "is_reserved": 0}, {"rental_uris": {"ios": "https://dc.lft.to/lastmile_qr_scan", "android": "https://dc.lft.to/lastmile_qr_scan"}, "lon": -77.04891383333333, "type": "electric_scooter", "fusion_lat": 0.0, "lat": 38.906001, "name": "f14068a2e9abdfd43f2b84118a0eb91b", "fusion_lon": 0.0, "bike_id": "f14068a2e9abdfd43f2b84118a0eb91b", "is_disabled": 0, "is_reserved": 0}, {"rental_uris": {"ios": "https://dc.lft.to/lastmile_qr_scan", "android": "https://dc.lft.to/lastmile_qr_scan"}, "lon": -77.0321335, "type": "electric_scooter", "fusion_lat": 0.0, "lat": 38.89220733333333, "name": "d610597311cfde5e6d41cffa6349ba12", "fusion_lon": 0.0, "bike_id": "d610597311cfde5e6d41cffa6349ba12", "is_disabled": 0, "is_reserved": 0}, {"rental_uris": {"ios": "https://dc.lft.to/lastmile_qr_scan", "android": "https://dc.lft.to/lastmile_qr_scan"}, "lon": -76.9839375, "type": "electric_bike", "fusion_lat": 0.0, "lat": 38.92203966666667, "name": "8dc6580ceadab7a6a90c7ed913a302b7", "fusion_lon": 0.0, "bike_id": "8dc6580ceadab7a6a90c7ed913a302b7", "is_disabled": 0, "is_reserved": 0}, {"rental_uris": {"ios": "https://dc.lft.to/lastmile_qr_scan", "android": "https://dc.lft.to/lastmile_qr_scan"}, "lon": -77.03318166666666, "type": "electric_scooter", "fusion_lat": 0.0, "lat": 38.89878816666667, "name": "5755f8c88a9b7cfc9d5ab37acc4ced48", "fusion_lon": 0.0, "bike_id": "5755f8c88a9b7cfc9d5ab37acc4ced48", "is_disabled": 0, "is_reserved": 0}, {"rental_uris": {"ios": "https://dc.lft.to/lastmile_qr_scan", "android": "https://dc.lft.to/lastmile_qr_scan"}, "lon": -77.02048533333334, "type": "electric_scooter", "fusion_lat": 0.0, "lat": 38.915537666666665, "name": "e5dde5668e5c19e587a44682d71de0d6", "fusion_lon": 0.0, "bike_id": "e5dde5668e5c19e587a44682d71de0d6", "is_disabled": 0, "is_reserved": 0}, {"rental_uris": {"ios": "https://dc.lft.to/lastmile_qr_scan", "android": "https://dc.lft.to/lastmile_qr_scan"}, "lon": -77.02961666666667, "type": "electric_scooter", "fusion_lat": 0.0, "lat": 38.89214033333333, "name": "bbfa9062e094e9a282f1d917dc7bfac3", "fusion_lon": 0.0, "bike_id": "bbfa9062e094e9a282f1d917dc7bfac3", "is_disabled": 0, "is_reserved": 0}, {"rental_uris": {"ios": "https://dc.lft.to/lastmile_qr_scan", "android": "https://dc.lft.to/lastmile_qr_scan"}, "lon": -77.03415033333333, "type": "electric_scooter", "fusion_lat": 0.0, "lat": 38.935357333333336, "name": "a2831209a21b904c8a2697bbd918f6f3", "fusion_lon": 0.0, "bike_id": "a2831209a21b904c8a2697bbd918f6f3", "is_disabled": 0, "is_reserved": 0}, {"rental_uris": {"ios": "https://dc.lft.to/lastmile_qr_scan", "android": "https://dc.lft.to/lastmile_qr_scan"}, "lon": -77.0716405, "type": "electric_scooter", "fusion_lat": 0.0, "lat": 38.907789333333334, "name": "835308dd5df018ec128f961304dc0191", "fusion_lon": 0.0, "bike_id": "835308dd5df018ec128f961304dc0191", "is_disabled": 0, "is_reserved": 0}, {"rental_uris": {"ios": "https://dc.lft.to/lastmile_qr_scan", "android": "https://dc.lft.to/lastmile_qr_scan"}, "lon": -77.03139533333334, "type": "electric_scooter", "fusion_lat": 0.0, "lat": 38.9103155, "name": "b543d0c6c6bf860c3391a59a09bd84e9", "fusion_lon": 0.0, "bike_id": "b543d0c6c6bf860c3391a59a09bd84e9", "is_disabled": 0, "is_reserved": 0}, {"rental_uris": {"ios": "https://dc.lft.to/lastmile_qr_scan", "android": "https://dc.lft.to/lastmile_qr_scan"}, "lon": -77.03192033333333, "type": "electric_scooter", "fusion_lat": 0.0, "lat": 38.92950733333333, "name": "8b2d31719fc3010c618dc166633714b3", "fusion_lon": 0.0, "bike_id": "8b2d31719fc3010c618dc166633714b3", "is_disabled": 0, "is_reserved": 0}, {"rental_uris": {"ios": "https://dc.lft.to/lastmile_qr_scan", "android": "https://dc.lft.to/lastmile_qr_scan"}, "lon": -77.12625716666666, "type": "electric_bike", "fusion_lat": 0.0, "lat": 39.05810783333333, "name": "1d1c049f82806427d7e173c6f93f50ce", "fusion_lon": 0.0, "bike_id": "1d1c049f82806427d7e173c6f93f50ce", "is_disabled": 0, "is_reserved": 0}, {"rental_uris": {"ios": "https://dc.lft.to/lastmile_qr_scan", "android": "https://dc.lft.to/lastmile_qr_scan"}, "lon": -77.0433885, "type": "electric_scooter", "fusion_lat": 0.0, "lat": 38.903689666666665, "name": "bab5a01dac7603e2053b76bb5dd1a379", "fusion_lon": 0.0, "bike_id": "bab5a01dac7603e2053b76bb5dd1a379", "is_disabled": 0, "is_reserved": 0}, {"rental_uris": {"ios": "https://dc.lft.to/lastmile_qr_scan", "android": "https://dc.lft.to/lastmile_qr_scan"}, "lon": -77.038408, "type": "electric_scooter", "fusion_lat": 0.0, "lat": 38.90750166666667, "name": "b3545068398a0e4f03fb1cb78165b236", "fusion_lon": 0.0, "bike_id": "b3545068398a0e4f03fb1cb78165b236", "is_disabled": 0, "is_reserved": 0}, {"rental_uris": {"ios": "https://dc.lft.to/lastmile_qr_scan", "android": "https://dc.lft.to/lastmile_qr_scan"}, "lon": -77.07725383333333, "type": "electric_scooter", "fusion_lat": 0.0, "lat": 38.947068333333334, "name": "71df28f1fc86fe082a56e9bf7dd55e56", "fusion_lon": 0.0, "bike_id": "71df28f1fc86fe082a56e9bf7dd55e56", "is_disabled": 0, "is_reserved": 0}, {"rental_uris": {"ios": "https://dc.lft.to/lastmile_qr_scan", "android": "https://dc.lft.to/lastmile_qr_scan"}, "lon": -77.0278275, "type": "electric_scooter", "fusion_lat": 0.0, "lat": 38.95381166666667, "name": "4f0483ef54d1242426e430a9c9463c08", "fusion_lon": 0.0, "bike_id": "4f0483ef54d1242426e430a9c9463c08", "is_disabled": 0, "is_reserved": 0}, {"rental_uris": {"ios": "https://dc.lft.to/lastmile_qr_scan", "android": "https://dc.lft.to/lastmile_qr_scan"}, "lon": -77.02545816666667, "type": "electric_scooter", "fusion_lat": 0.0, "lat": 38.92407083333333, "name": "00444573f2dd0f3ef7cad21530d29a21", "fusion_lon": 0.0, "bike_id": "00444573f2dd0f3ef7cad21530d29a21", "is_disabled": 0, "is_reserved": 0}, {"rental_uris": {"ios": "https://dc.lft.to/lastmile_qr_scan", "android": "https://dc.lft.to/lastmile_qr_scan"}, "lon": -76.97305516666667, "type": "electric_scooter", "fusion_lat": 0.0, "lat": 38.9199315, "name": "710475336c99d1cccd8819892280da51", "fusion_lon": 0.0, "bike_id": "710475336c99d1cccd8819892280da51", "is_disabled": 0, "is_reserved": 0}, {"rental_uris": {"ios": "https://dc.lft.to/lastmile_qr_scan", "android": "https://dc.lft.to/lastmile_qr_scan"}, "lon": -77.03465, "type": "electric_scooter", "fusion_lat": 0.0, "lat": 38.92352316666667, "name": "d5cd8ea21bcc25e04a6cd75cf6928d9d", "fusion_lon": 0.0, "bike_id": "d5cd8ea21bcc25e04a6cd75cf6928d9d", "is_disabled": 0, "is_reserved": 0}, {"rental_uris": {"ios": "https://dc.lft.to/lastmile_qr_scan", "android": "https://dc.lft.to/lastmile_qr_scan"}, "lon": -77.04797633333334, "type": "electric_scooter", "fusion_lat": 0.0, "lat": 38.89953416666667, "name": "8b8762279be1c3efadbf501ed7d27820", "fusion_lon": 0.0, "bike_id": "8b8762279be1c3efadbf501ed7d27820", "is_disabled": 0, "is_reserved": 0}, {"rental_uris": {"ios": "https://dc.lft.to/lastmile_qr_scan", "android": "https://dc.lft.to/lastmile_qr_scan"}, "lon": -77.03360383333333, "type": "electric_scooter", "fusion_lat": 0.0, "lat": 38.93223666666667, "name": "f3975453c2f8a1be7622d5ea2377f95e", "fusion_lon": 0.0, "bike_id": "f3975453c2f8a1be7622d5ea2377f95e", "is_disabled": 0, "is_reserved": 0}, {"rental_uris": {"ios": "https://dc.lft.to/lastmile_qr_scan", "android": "https://dc.lft.to/lastmile_qr_scan"}, "lon": -77.00601083333333, "type": "electric_scooter", "fusion_lat": 0.0, "lat": 38.884933333333336, "name": "8c89046103096430d4f839f2e7a19ee5", "fusion_lon": 0.0, "bike_id": "8c89046103096430d4f839f2e7a19ee5", "is_disabled": 0, "is_reserved": 0}, {"rental_uris": {"ios": "https://dc.lft.to/lastmile_qr_scan", "android": "https://dc.lft.to/lastmile_qr_scan"}, "lon": -77.07101016666667, "type": "electric_bike", "fusion_lat": 0.0, "lat": 38.91450283333333, "name": "b3a680578ca2583385deea7c36623d16", "fusion_lon": 0.0, "bike_id": "b3a680578ca2583385deea7c36623d16", "is_disabled": 0, "is_reserved": 0}, {"rental_uris": {"ios": "https://dc.lft.to/lastmile_qr_scan", "android": "https://dc.lft.to/lastmile_qr_scan"}, "lon": -77.021883, "type": "electric_scooter", "fusion_lat": 0.0, "lat": 38.8802945, "name": "8ba537f82b4e3df4b74e6e0788bfa432", "fusion_lon": 0.0, "bike_id": "8ba537f82b4e3df4b74e6e0788bfa432", "is_disabled": 0, "is_reserved": 0}, {"rental_uris": {"ios": "https://dc.lft.to/lastmile_qr_scan", "android": "https://dc.lft.to/lastmile_qr_scan"}, "lon": -77.0366605, "type": "electric_scooter", "fusion_lat": 0.0, "lat": 38.91816216666667, "name": "5eae2037f7daff51818b0f7b70af17bf", "fusion_lon": 0.0, "bike_id": "5eae2037f7daff51818b0f7b70af17bf", "is_disabled": 0, "is_reserved": 0}, {"rental_uris": {"ios": "https://dc.lft.to/lastmile_qr_scan", "android": "https://dc.lft.to/lastmile_qr_scan"}, "lon": -76.98093466666667, "type": "electric_bike", "fusion_lat": 0.0, "lat": 38.88137233333333, "name": "6e7e5e10908b27c861d1cd8b4caa52d5", "fusion_lon": 0.0, "bike_id": "6e7e5e10908b27c861d1cd8b4caa52d5", "is_disabled": 0, "is_reserved": 0}, {"rental_uris": {"ios": "https://dc.lft.to/lastmile_qr_scan", "android": "https://dc.lft.to/lastmile_qr_scan"}, "lon": -77.03739383333334, "type": "electric_scooter", "fusion_lat": 0.0, "lat": 38.90703933333333, "name": "d2fdabb95861de6305f625c2991c0ffa", "fusion_lon": 0.0, "bike_id": "d2fdabb95861de6305f625c2991c0ffa", "is_disabled": 0, "is_reserved": 0}, {"rental_uris": {"ios": "https://dc.lft.to/lastmile_qr_scan", "android": "https://dc.lft.to/lastmile_qr_scan"}, "lon": -77.00310016666667, "type": "electric_bike", "fusion_lat": 0.0, "lat": 38.872597666666664, "name": "2a5709ca1a019832b1f7d25ea66f6b61", "fusion_lon": 0.0, "bike_id": "2a5709ca1a019832b1f7d25ea66f6b61", "is_disabled": 0, "is_reserved": 0}, {"rental_uris": {"ios": "https://dc.lft.to/lastmile_qr_scan", "android": "https://dc.lft.to/lastmile_qr_scan"}, "lon": -77.07683266666666, "type": "electric_bike", "fusion_lat": 0.0, "lat": 38.83196216666666, "name": "fea132c27c32cf0936946a4c9259dac2", "fusion_lon": 0.0, "bike_id": "fea132c27c32cf0936946a4c9259dac2", "is_disabled": 0, "is_reserved": 0}, {"rental_uris": {"ios": "https://dc.lft.to/lastmile_qr_scan", "android": "https://dc.lft.to/lastmile_qr_scan"}, "lon": -77.04749383333333, "type": "electric_scooter", "fusion_lat": 0.0, "lat": 38.90241266666666, "name": "11f3059f1031f497c66ae956be25505a", "fusion_lon": 0.0, "bike_id": "11f3059f1031f497c66ae956be25505a", "is_disabled": 0, "is_reserved": 0}, {"rental_uris": {"ios": "https://dc.lft.to/lastmile_qr_scan", "android": "https://dc.lft.to/lastmile_qr_scan"}, "lon": -77.0020235, "type": "electric_scooter", "fusion_lat": 0.0, "lat": 38.90019366666667, "name": "cbccf21434a4d4845bae4b869cbc94a0", "fusion_lon": 0.0, "bike_id": "cbccf21434a4d4845bae4b869cbc94a0", "is_disabled": 0, "is_reserved": 0}, {"rental_uris": {"ios": "https://dc.lft.to/lastmile_qr_scan", "android": "https://dc.lft.to/lastmile_qr_scan"}, "lon": -77.041548, "type": "electric_scooter", "fusion_lat": 0.0, "lat": 38.91929116666667, "name": "4c89cb7b5e002e0193d45bb677b6f691", "fusion_lon": 0.0, "bike_id": "4c89cb7b5e002e0193d45bb677b6f691", "is_disabled": 0, "is_reserved": 0}, {"rental_uris": {"ios": "https://dc.lft.to/lastmile_qr_scan", "android": "https://dc.lft.to/lastmile_qr_scan"}, "lon": -77.0335565, "type": "electric_scooter", "fusion_lat": 0.0, "lat": 38.924394, "name": "7c05ceba4d7d04e26cb5cfebff4fa243", "fusion_lon": 0.0, "bike_id": "7c05ceba4d7d04e26cb5cfebff4fa243", "is_disabled": 0, "is_reserved": 0}, {"rental_uris": {"ios": "https://dc.lft.to/lastmile_qr_scan", "android": "https://dc.lft.to/lastmile_qr_scan"}, "lon": -77.12266233333334, "type": "electric_bike", "fusion_lat": 0.0, "lat": 38.8918855, "name": "3ea92a15e7538bf2a58330cbcbbe0273", "fusion_lon": 0.0, "bike_id": "3ea92a15e7538bf2a58330cbcbbe0273", "is_disabled": 0, "is_reserved": 0}, {"rental_uris": {"ios": "https://dc.lft.to/lastmile_qr_scan", "android": "https://dc.lft.to/lastmile_qr_scan"}, "lon": -77.11223916666667, "type": "electric_bike", "fusion_lat": 0.0, "lat": 38.82876183333333, "name": "2c8e0f1d1b16d7e7089de7e2c6ec4866", "fusion_lon": 0.0, "bike_id": "2c8e0f1d1b16d7e7089de7e2c6ec4866", "is_disabled": 0, "is_reserved": 0}, {"rental_uris": {"ios": "https://dc.lft.to/lastmile_qr_scan", "android": "https://dc.lft.to/lastmile_qr_scan"}, "lon": -77.023957, "type": "electric_scooter", "fusion_lat": 0.0, "lat": 38.915971, "name": "069b192ac11a9cc0a7c449a0e8b486c7", "fusion_lon": 0.0, "bike_id": "069b192ac11a9cc0a7c449a0e8b486c7", "is_disabled": 0, "is_reserved": 0}, {"rental_uris": {"ios": "https://dc.lft.to/lastmile_qr_scan", "android": "https://dc.lft.to/lastmile_qr_scan"}, "lon": -76.93539566666666, "type": "electric_bike", "fusion_lat": 0.0, "lat": 38.955518, "name": "5b3df50dd696d5aabb2700e137746310", "fusion_lon": 0.0, "bike_id": "5b3df50dd696d5aabb2700e137746310", "is_disabled": 0, "is_reserved": 0}, {"rental_uris": {"ios": "https://dc.lft.to/lastmile_qr_scan", "android": "https://dc.lft.to/lastmile_qr_scan"}, "lon": -77.00705366666666, "type": "electric_scooter", "fusion_lat": 0.0, "lat": 38.90590566666667, "name": "9906af49466a8d88b72063e250df7169", "fusion_lon": 0.0, "bike_id": "9906af49466a8d88b72063e250df7169", "is_disabled": 0, "is_reserved": 0}, {"rental_uris": {"ios": "https://dc.lft.to/lastmile_qr_scan", "android": "https://dc.lft.to/lastmile_qr_scan"}, "lon": -77.05006083333333, "type": "electric_scooter", "fusion_lat": 0.0, "lat": 38.898910666666666, "name": "1fe606e31f12df5b643e707f755a7303", "fusion_lon": 0.0, "bike_id": "1fe606e31f12df5b643e707f755a7303", "is_disabled": 0, "is_reserved": 0}, {"rental_uris": {"ios": "https://dc.lft.to/lastmile_qr_scan", "android": "https://dc.lft.to/lastmile_qr_scan"}, "lon": -77.00210283333334, "type": "electric_scooter", "fusion_lat": 0.0, "lat": 38.9022285, "name": "333b6080693446cd5867247751ff56cc", "fusion_lon": 0.0, "bike_id": "333b6080693446cd5867247751ff56cc", "is_disabled": 0, "is_reserved": 0}, {"rental_uris": {"ios": "https://dc.lft.to/lastmile_qr_scan", "android": "https://dc.lft.to/lastmile_qr_scan"}, "lon": -77.00570833333333, "type": "electric_scooter", "fusion_lat": 0.0, "lat": 38.872179, "name": "13c999a89ee7736081cd924850158de2", "fusion_lon": 0.0, "bike_id": "13c999a89ee7736081cd924850158de2", "is_disabled": 0, "is_reserved": 0}, {"rental_uris": {"ios": "https://dc.lft.to/lastmile_qr_scan", "android": "https://dc.lft.to/lastmile_qr_scan"}, "lon": -76.91657483333333, "type": "electric_bike", "fusion_lat": 0.0, "lat": 38.8686345, "name": "0816c8fd31fa1803be1692df79eff658", "fusion_lon": 0.0, "bike_id": "0816c8fd31fa1803be1692df79eff658", "is_disabled": 0, "is_reserved": 0}, {"rental_uris": {"ios": "https://dc.lft.to/lastmile_qr_scan", "android": "https://dc.lft.to/lastmile_qr_scan"}, "lon": -77.03462433333333, "type": "electric_scooter", "fusion_lat": 0.0, "lat": 38.926337333333336, "name": "f5ff9949a70aaab53e1a59a4ae6eb332", "fusion_lon": 0.0, "bike_id": "f5ff9949a70aaab53e1a59a4ae6eb332", "is_disabled": 0, "is_reserved": 0}, {"rental_uris": {"ios": "https://dc.lft.to/lastmile_qr_scan", "android": "https://dc.lft.to/lastmile_qr_scan"}, "lon": -77.12731033333333, "type": "electric_bike", "fusion_lat": 0.0, "lat": 38.8955895, "name": "e44a24c30923154f226a9278c4dc9f09", "fusion_lon": 0.0, "bike_id": "e44a24c30923154f226a9278c4dc9f09", "is_disabled": 0, "is_reserved": 0}, {"rental_uris": {"ios": "https://dc.lft.to/lastmile_qr_scan", "android": "https://dc.lft.to/lastmile_qr_scan"}, "lon": -77.026116, "type": "electric_scooter", "fusion_lat": 0.0, "lat": 38.8998025, "name": "79c989381e27e1247fef1dabc2f51f77", "fusion_lon": 0.0, "bike_id": "79c989381e27e1247fef1dabc2f51f77", "is_disabled": 0, "is_reserved": 0}, {"rental_uris": {"ios": "https://dc.lft.to/lastmile_qr_scan", "android": "https://dc.lft.to/lastmile_qr_scan"}, "lon": -76.94891716666666, "type": "electric_scooter", "fusion_lat": 0.0, "lat": 38.89530366666666, "name": "9b088a43e8e86bfcc909e23c4733660c", "fusion_lon": 0.0, "bike_id": "9b088a43e8e86bfcc909e23c4733660c", "is_disabled": 0, "is_reserved": 0}, {"rental_uris": {"ios": "https://dc.lft.to/lastmile_qr_scan", "android": "https://dc.lft.to/lastmile_qr_scan"}, "lon": -77.01112516666667, "type": "electric_scooter", "fusion_lat": 0.0, "lat": 38.916148, "name": "e922e84176629415d5cce759de592b81", "fusion_lon": 0.0, "bike_id": "e922e84176629415d5cce759de592b81", "is_disabled": 0, "is_reserved": 0}, {"rental_uris": {"ios": "https://dc.lft.to/lastmile_qr_scan", "android": "https://dc.lft.to/lastmile_qr_scan"}, "lon": -77.04195166666666, "type": "electric_scooter", "fusion_lat": 0.0, "lat": 38.91265533333333, "name": "4bc425a6d5ed031b6c1a2598ee9d71c0", "fusion_lon": 0.0, "bike_id": "4bc425a6d5ed031b6c1a2598ee9d71c0", "is_disabled": 0, "is_reserved": 0}, {"rental_uris": {"ios": "https://dc.lft.to/lastmile_qr_scan", "android": "https://dc.lft.to/lastmile_qr_scan"}, "lon": -77.01621516666667, "type": "electric_scooter", "fusion_lat": 0.0, "lat": 38.876877666666665, "name": "ce27f36d6e71063d10a4ead4bf6b3437", "fusion_lon": 0.0, "bike_id": "ce27f36d6e71063d10a4ead4bf6b3437", "is_disabled": 0, "is_reserved": 0}, {"rental_uris": {"ios": "https://dc.lft.to/lastmile_qr_scan", "android": "https://dc.lft.to/lastmile_qr_scan"}, "lon": -77.04499766666666, "type": "electric_scooter", "fusion_lat": 0.0, "lat": 38.9192395, "name": "27c7419173e54ae9d2ea208f0cc3ddae", "fusion_lon": 0.0, "bike_id": "27c7419173e54ae9d2ea208f0cc3ddae", "is_disabled": 0, "is_reserved": 0}, {"rental_uris": {"ios": "https://dc.lft.to/lastmile_qr_scan", "android": "https://dc.lft.to/lastmile_qr_scan"}, "lon": -77.07473466666667, "type": "electric_bike", "fusion_lat": 0.0, "lat": 38.920619333333335, "name": "5438717747f1776c3fc3b37acb017ebf", "fusion_lon": 0.0, "bike_id": "5438717747f1776c3fc3b37acb017ebf", "is_disabled": 0, "is_reserved": 0}, {"rental_uris": {"ios": "https://dc.lft.to/lastmile_qr_scan", "android": "https://dc.lft.to/lastmile_qr_scan"}, "lon": -77.09563866666667, "type": "electric_bike", "fusion_lat": 0.0, "lat": 38.91706683333334, "name": "081b0a9c8568bb1d2ca90b1d06c07be8", "fusion_lon": 0.0, "bike_id": "081b0a9c8568bb1d2ca90b1d06c07be8", "is_disabled": 0, "is_reserved": 0}, {"rental_uris": {"ios": "https://dc.lft.to/lastmile_qr_scan", "android": "https://dc.lft.to/lastmile_qr_scan"}, "lon": -76.90816416666667, "type": "electric_bike", "fusion_lat": 0.0, "lat": 38.99453283333333, "name": "2dc8856224f3461e45dc706721bb81fc", "fusion_lon": 0.0, "bike_id": "2dc8856224f3461e45dc706721bb81fc", "is_disabled": 0, "is_reserved": 0}, {"rental_uris": {"ios": "https://dc.lft.to/lastmile_qr_scan", "android": "https://dc.lft.to/lastmile_qr_scan"}, "lon": -77.013177, "type": "electric_scooter", "fusion_lat": 0.0, "lat": 38.892355, "name": "fc2a69cedba97af6da92d82fe2388a42", "fusion_lon": 0.0, "bike_id": "fc2a69cedba97af6da92d82fe2388a42", "is_disabled": 0, "is_reserved": 0}, {"rental_uris": {"ios": "https://dc.lft.to/lastmile_qr_scan", "android": "https://dc.lft.to/lastmile_qr_scan"}, "lon": -77.02128816666666, "type": "electric_scooter", "fusion_lat": 0.0, "lat": 38.90008783333333, "name": "2e24ed34c491ec82d2dd0d0ba7c03fad", "fusion_lon": 0.0, "bike_id": "2e24ed34c491ec82d2dd0d0ba7c03fad", "is_disabled": 0, "is_reserved": 0}, {"rental_uris": {"ios": "https://dc.lft.to/lastmile_qr_scan", "android": "https://dc.lft.to/lastmile_qr_scan"}, "lon": -77.00044133333333, "type": "electric_bike", "fusion_lat": 0.0, "lat": 38.874358, "name": "cda76d5238e694bd0b592975b8b1b3b7", "fusion_lon": 0.0, "bike_id": "cda76d5238e694bd0b592975b8b1b3b7", "is_disabled": 0, "is_reserved": 0}, {"rental_uris": {"ios": "https://dc.lft.to/lastmile_qr_scan", "android": "https://dc.lft.to/lastmile_qr_scan"}, "lon": -76.984288, "type": "electric_scooter", "fusion_lat": 0.0, "lat": 38.91428333333333, "name": "868d6dd7eac65b0bb449e9533df20be0", "fusion_lon": 0.0, "bike_id": "868d6dd7eac65b0bb449e9533df20be0", "is_disabled": 0, "is_reserved": 0}, {"rental_uris": {"ios": "https://dc.lft.to/lastmile_qr_scan", "android": "https://dc.lft.to/lastmile_qr_scan"}, "lon": -77.02530666666667, "type": "electric_scooter", "fusion_lat": 0.0, "lat": 38.91819733333333, "name": "841102fa4b997b4f438ab1f02d89202c", "fusion_lon": 0.0, "bike_id": "841102fa4b997b4f438ab1f02d89202c", "is_disabled": 0, "is_reserved": 0}, {"rental_uris": {"ios": "https://dc.lft.to/lastmile_qr_scan", "android": "https://dc.lft.to/lastmile_qr_scan"}, "lon": -77.0270895, "type": "electric_scooter", "fusion_lat": 0.0, "lat": 38.90351316666667, "name": "095388bd2965a4625b0c428f8d993967", "fusion_lon": 0.0, "bike_id": "095388bd2965a4625b0c428f8d993967", "is_disabled": 0, "is_reserved": 0}, {"rental_uris": {"ios": "https://dc.lft.to/lastmile_qr_scan", "android": "https://dc.lft.to/lastmile_qr_scan"}, "lon": -77.0481285, "type": "electric_scooter", "fusion_lat": 0.0, "lat": 38.913328, "name": "73f2183312971bc591e2f6ee88a2f647", "fusion_lon": 0.0, "bike_id": "73f2183312971bc591e2f6ee88a2f647", "is_disabled": 0, "is_reserved": 0}, {"rental_uris": {"ios": "https://dc.lft.to/lastmile_qr_scan", "android": "https://dc.lft.to/lastmile_qr_scan"}, "lon": -77.065329, "type": "electric_scooter", "fusion_lat": 0.0, "lat": 38.93476833333333, "name": "095d322b81b77d1a34bb0dfddd86d4e0", "fusion_lon": 0.0, "bike_id": "095d322b81b77d1a34bb0dfddd86d4e0", "is_disabled": 0, "is_reserved": 0}, {"rental_uris": {"ios": "https://dc.lft.to/lastmile_qr_scan", "android": "https://dc.lft.to/lastmile_qr_scan"}, "lon": -77.02836533333333, "type": "electric_scooter", "fusion_lat": 0.0, "lat": 38.92473916666667, "name": "cee549ed2b559c7eeb08595a873b0daa", "fusion_lon": 0.0, "bike_id": "cee549ed2b559c7eeb08595a873b0daa", "is_disabled": 0, "is_reserved": 0}, {"rental_uris": {"ios": "https://dc.lft.to/lastmile_qr_scan", "android": "https://dc.lft.to/lastmile_qr_scan"}, "lon": -77.12904066666667, "type": "electric_bike", "fusion_lat": 0.0, "lat": 38.86378633333333, "name": "e0c8806fe8ce7e189909bede4fb3aa62", "fusion_lon": 0.0, "bike_id": "e0c8806fe8ce7e189909bede4fb3aa62", "is_disabled": 0, "is_reserved": 0}, {"rental_uris": {"ios": "https://dc.lft.to/lastmile_qr_scan", "android": "https://dc.lft.to/lastmile_qr_scan"}, "lon": -77.05153616666666, "type": "electric_scooter", "fusion_lat": 0.0, "lat": 38.897623, "name": "7a8eb3fceaee2698f3f72c49cdb0720f", "fusion_lon": 0.0, "bike_id": "7a8eb3fceaee2698f3f72c49cdb0720f", "is_disabled": 0, "is_reserved": 0}, {"rental_uris": {"ios": "https://dc.lft.to/lastmile_qr_scan", "android": "https://dc.lft.to/lastmile_qr_scan"}, "lon": -77.04256366666667, "type": "electric_scooter", "fusion_lat": 0.0, "lat": 38.92064933333333, "name": "d4800900f062406157565ddcc2330939", "fusion_lon": 0.0, "bike_id": "d4800900f062406157565ddcc2330939", "is_disabled": 0, "is_reserved": 0}, {"rental_uris": {"ios": "https://dc.lft.to/lastmile_qr_scan", "android": "https://dc.lft.to/lastmile_qr_scan"}, "lon": -77.00786383333333, "type": "electric_scooter", "fusion_lat": 0.0, "lat": 38.897345333333334, "name": "69046377d7c809ab7be756dfdc0d7b70", "fusion_lon": 0.0, "bike_id": "69046377d7c809ab7be756dfdc0d7b70", "is_disabled": 0, "is_reserved": 0}, {"rental_uris": {"ios": "https://dc.lft.to/lastmile_qr_scan", "android": "https://dc.lft.to/lastmile_qr_scan"}, "lon": -77.03384666666666, "type": "electric_scooter", "fusion_lat": 0.0, "lat": 38.8865275, "name": "c228f68df1633b8f232cdb356fb8ce85", "fusion_lon": 0.0, "bike_id": "c228f68df1633b8f232cdb356fb8ce85", "is_disabled": 0, "is_reserved": 0}, {"rental_uris": {"ios": "https://dc.lft.to/lastmile_qr_scan", "android": "https://dc.lft.to/lastmile_qr_scan"}, "lon": -77.02104366666667, "type": "electric_scooter", "fusion_lat": 0.0, "lat": 38.89482266666667, "name": "a79857a692a2b62a54e153922db9cdd4", "fusion_lon": 0.0, "bike_id": "a79857a692a2b62a54e153922db9cdd4", "is_disabled": 0, "is_reserved": 0}, {"rental_uris": {"ios": "https://dc.lft.to/lastmile_qr_scan", "android": "https://dc.lft.to/lastmile_qr_scan"}, "lon": -77.02084, "type": "electric_scooter", "fusion_lat": 0.0, "lat": 38.881867666666665, "name": "9e9c1dbe9cea3fdefda73e6f0129943c", "fusion_lon": 0.0, "bike_id": "9e9c1dbe9cea3fdefda73e6f0129943c", "is_disabled": 0, "is_reserved": 0}, {"rental_uris": {"ios": "https://dc.lft.to/lastmile_qr_scan", "android": "https://dc.lft.to/lastmile_qr_scan"}, "lon": -77.05293883333333, "type": "electric_scooter", "fusion_lat": 0.0, "lat": 38.92797916666667, "name": "e669f9038302831485f2090197c8036a", "fusion_lon": 0.0, "bike_id": "e669f9038302831485f2090197c8036a", "is_disabled": 0, "is_reserved": 0}, {"rental_uris": {"ios": "https://dc.lft.to/lastmile_qr_scan", "android": "https://dc.lft.to/lastmile_qr_scan"}, "lon": -77.0260575, "type": "electric_scooter", "fusion_lat": 0.0, "lat": 38.975840833333336, "name": "65067b3bc82b1d89f3a8c03ec03d2757", "fusion_lon": 0.0, "bike_id": "65067b3bc82b1d89f3a8c03ec03d2757", "is_disabled": 0, "is_reserved": 0}, {"rental_uris": {"ios": "https://dc.lft.to/lastmile_qr_scan", "android": "https://dc.lft.to/lastmile_qr_scan"}, "lon": -77.0269185, "type": "electric_scooter", "fusion_lat": 0.0, "lat": 38.90636083333333, "name": "c54ec4076e57c26f45463842a65515bc", "fusion_lon": 0.0, "bike_id": "c54ec4076e57c26f45463842a65515bc", "is_disabled": 0, "is_reserved": 0}, {"rental_uris": {"ios": "https://dc.lft.to/lastmile_qr_scan", "android": "https://dc.lft.to/lastmile_qr_scan"}, "lon": -77.05357283333333, "type": "electric_scooter", "fusion_lat": 0.0, "lat": 38.92792433333334, "name": "d46de6851cf98b57e3cf271bcc85457f", "fusion_lon": 0.0, "bike_id": "d46de6851cf98b57e3cf271bcc85457f", "is_disabled": 0, "is_reserved": 0}, {"rental_uris": {"ios": "https://dc.lft.to/lastmile_qr_scan", "android": "https://dc.lft.to/lastmile_qr_scan"}, "lon": -77.02390016666666, "type": "electric_scooter", "fusion_lat": 0.0, "lat": 38.915917666666665, "name": "1b39d56352c55bc58782d8419dfc2bcc", "fusion_lon": 0.0, "bike_id": "1b39d56352c55bc58782d8419dfc2bcc", "is_disabled": 0, "is_reserved": 0}, {"rental_uris": {"ios": "https://dc.lft.to/lastmile_qr_scan", "android": "https://dc.lft.to/lastmile_qr_scan"}, "lon": -77.05218266666667, "type": "electric_scooter", "fusion_lat": 0.0, "lat": 38.9249405, "name": "ecd0837019ad429de76f480620e97638", "fusion_lon": 0.0, "bike_id": "ecd0837019ad429de76f480620e97638", "is_disabled": 0, "is_reserved": 0}, {"rental_uris": {"ios": "https://dc.lft.to/lastmile_qr_scan", "android": "https://dc.lft.to/lastmile_qr_scan"}, "lon": -77.02693566666666, "type": "electric_scooter", "fusion_lat": 0.0, "lat": 38.908741166666665, "name": "e5a4a2614f5fe2488150a7b15ea894d8", "fusion_lon": 0.0, "bike_id": "e5a4a2614f5fe2488150a7b15ea894d8", "is_disabled": 0, "is_reserved": 0}, {"rental_uris": {"ios": "https://dc.lft.to/lastmile_qr_scan", "android": "https://dc.lft.to/lastmile_qr_scan"}, "lon": -77.01832083333333, "type": "electric_scooter", "fusion_lat": 0.0, "lat": 38.87707283333334, "name": "88d6a1c06d414c9b0bedef25e1642f1a", "fusion_lon": 0.0, "bike_id": "88d6a1c06d414c9b0bedef25e1642f1a", "is_disabled": 0, "is_reserved": 0}, {"rental_uris": {"ios": "https://dc.lft.to/lastmile_qr_scan", "android": "https://dc.lft.to/lastmile_qr_scan"}, "lon": -76.9837425, "type": "electric_scooter", "fusion_lat": 0.0, "lat": 38.8602845, "name": "99af17d70017cc6fd3a780b36347e7aa", "fusion_lon": 0.0, "bike_id": "99af17d70017cc6fd3a780b36347e7aa", "is_disabled": 0, "is_reserved": 0}, {"rental_uris": {"ios": "https://dc.lft.to/lastmile_qr_scan", "android": "https://dc.lft.to/lastmile_qr_scan"}, "lon": -77.04880666666666, "type": "electric_scooter", "fusion_lat": 0.0, "lat": 38.90601866666667, "name": "42f2a587a098b4f11440b4bdefabafa9", "fusion_lon": 0.0, "bike_id": "42f2a587a098b4f11440b4bdefabafa9", "is_disabled": 0, "is_reserved": 0}, {"rental_uris": {"ios": "https://dc.lft.to/lastmile_qr_scan", "android": "https://dc.lft.to/lastmile_qr_scan"}, "lon": -77.0221365, "type": "electric_scooter", "fusion_lat": 0.0, "lat": 38.905711, "name": "8c074215fffada4ced42b94e7975ca62", "fusion_lon": 0.0, "bike_id": "8c074215fffada4ced42b94e7975ca62", "is_disabled": 0, "is_reserved": 0}, {"rental_uris": {"ios": "https://dc.lft.to/lastmile_qr_scan", "android": "https://dc.lft.to/lastmile_qr_scan"}, "lon": -77.00208316666667, "type": "electric_scooter", "fusion_lat": 0.0, "lat": 38.90026683333333, "name": "18501ad25cc0cdb6c27a7797cb97b90b", "fusion_lon": 0.0, "bike_id": "18501ad25cc0cdb6c27a7797cb97b90b", "is_disabled": 0, "is_reserved": 0}, {"rental_uris": {"ios": "https://dc.lft.to/lastmile_qr_scan", "android": "https://dc.lft.to/lastmile_qr_scan"}, "lon": -77.01835966666667, "type": "electric_bike", "fusion_lat": 0.0, "lat": 38.90867033333333, "name": "ced0c8ed77398d4f1d696f417339c3d5", "fusion_lon": 0.0, "bike_id": "ced0c8ed77398d4f1d696f417339c3d5", "is_disabled": 0, "is_reserved": 0}, {"rental_uris": {"ios": "https://dc.lft.to/lastmile_qr_scan", "android": "https://dc.lft.to/lastmile_qr_scan"}, "lon": -77.01101133333333, "type": "electric_scooter", "fusion_lat": 0.0, "lat": 38.89494533333333, "name": "79b2e1d81e4a4db63b207d3f02a13201", "fusion_lon": 0.0, "bike_id": "79b2e1d81e4a4db63b207d3f02a13201", "is_disabled": 0, "is_reserved": 0}, {"rental_uris": {"ios": "https://dc.lft.to/lastmile_qr_scan", "android": "https://dc.lft.to/lastmile_qr_scan"}, "lon": -77.0512355, "type": "electric_scooter", "fusion_lat": 0.0, "lat": 38.923635166666664, "name": "e45e22fc9b1a5ca3bdd0962bf4b05fc1", "fusion_lon": 0.0, "bike_id": "e45e22fc9b1a5ca3bdd0962bf4b05fc1", "is_disabled": 0, "is_reserved": 0}, {"rental_uris": {"ios": "https://dc.lft.to/lastmile_qr_scan", "android": "https://dc.lft.to/lastmile_qr_scan"}, "lon": -77.04264916666666, "type": "electric_scooter", "fusion_lat": 0.0, "lat": 38.90260216666667, "name": "ea705e01233141c837e9c60395ada184", "fusion_lon": 0.0, "bike_id": "ea705e01233141c837e9c60395ada184", "is_disabled": 0, "is_reserved": 0}, {"rental_uris": {"ios": "https://dc.lft.to/lastmile_qr_scan", "android": "https://dc.lft.to/lastmile_qr_scan"}, "lon": -76.996834, "type": "electric_scooter", "fusion_lat": 0.0, "lat": 38.90497533333333, "name": "718ad8d1de7603898d749e3a9a01df57", "fusion_lon": 0.0, "bike_id": "718ad8d1de7603898d749e3a9a01df57", "is_disabled": 0, "is_reserved": 0}, {"rental_uris": {"ios": "https://dc.lft.to/lastmile_qr_scan", "android": "https://dc.lft.to/lastmile_qr_scan"}, "lon": -77.027121, "type": "electric_scooter", "fusion_lat": 0.0, "lat": 38.90670583333333, "name": "7bd9769a5cdbaadbe5656cc118f733cc", "fusion_lon": 0.0, "bike_id": "7bd9769a5cdbaadbe5656cc118f733cc", "is_disabled": 0, "is_reserved": 0}, {"rental_uris": {"ios": "https://dc.lft.to/lastmile_qr_scan", "android": "https://dc.lft.to/lastmile_qr_scan"}, "lon": -77.04649433333333, "type": "electric_scooter", "fusion_lat": 0.0, "lat": 38.89337716666667, "name": "3792819118f0a6a77df65201134666b5", "fusion_lon": 0.0, "bike_id": "3792819118f0a6a77df65201134666b5", "is_disabled": 0, "is_reserved": 0}, {"rental_uris": {"ios": "https://dc.lft.to/lastmile_qr_scan", "android": "https://dc.lft.to/lastmile_qr_scan"}, "lon": -77.10687233333333, "type": "electric_bike", "fusion_lat": 0.0, "lat": 38.935850333333335, "name": "70cd438b458f34d6798ffee802ffe00a", "fusion_lon": 0.0, "bike_id": "70cd438b458f34d6798ffee802ffe00a", "is_disabled": 0, "is_reserved": 0}, {"rental_uris": {"ios": "https://dc.lft.to/lastmile_qr_scan", "android": "https://dc.lft.to/lastmile_qr_scan"}, "lon": -77.04903783333333, "type": "electric_scooter", "fusion_lat": 0.0, "lat": 38.90536916666667, "name": "fa7a4b39bdc592a5c4a58c8d4acf9472", "fusion_lon": 0.0, "bike_id": "fa7a4b39bdc592a5c4a58c8d4acf9472", "is_disabled": 0, "is_reserved": 0}, {"rental_uris": {"ios": "https://dc.lft.to/lastmile_qr_scan", "android": "https://dc.lft.to/lastmile_qr_scan"}, "lon": -76.9985305, "type": "electric_scooter", "fusion_lat": 0.0, "lat": 38.900517, "name": "b3f27391d9d6530488162ffb99896174", "fusion_lon": 0.0, "bike_id": "b3f27391d9d6530488162ffb99896174", "is_disabled": 0, "is_reserved": 0}, {"rental_uris": {"ios": "https://dc.lft.to/lastmile_qr_scan", "android": "https://dc.lft.to/lastmile_qr_scan"}, "lon": -76.98852166666667, "type": "electric_scooter", "fusion_lat": 0.0, "lat": 38.903425, "name": "c450988e6ca74e6c5684bb63cc4ef4ad", "fusion_lon": 0.0, "bike_id": "c450988e6ca74e6c5684bb63cc4ef4ad", "is_disabled": 0, "is_reserved": 0}, {"rental_uris": {"ios": "https://dc.lft.to/lastmile_qr_scan", "android": "https://dc.lft.to/lastmile_qr_scan"}, "lon": -77.02490533333334, "type": "electric_scooter", "fusion_lat": 0.0, "lat": 38.904157833333336, "name": "3e6938eead62e1d036d1099dfb8d6740", "fusion_lon": 0.0, "bike_id": "3e6938eead62e1d036d1099dfb8d6740", "is_disabled": 0, "is_reserved": 0}, {"rental_uris": {"ios": "https://dc.lft.to/lastmile_qr_scan", "android": "https://dc.lft.to/lastmile_qr_scan"}, "lon": -77.02783, "type": "electric_scooter", "fusion_lat": 0.0, "lat": 38.92368283333333, "name": "a6365bf3e32c9debbd3105cb85a6e527", "fusion_lon": 0.0, "bike_id": "a6365bf3e32c9debbd3105cb85a6e527", "is_disabled": 0, "is_reserved": 0}, {"rental_uris": {"ios": "https://dc.lft.to/lastmile_qr_scan", "android": "https://dc.lft.to/lastmile_qr_scan"}, "lon": -77.04725616666667, "type": "electric_scooter", "fusion_lat": 0.0, "lat": 38.90971433333333, "name": "0358f64710789de6dedfd11424f6426e", "fusion_lon": 0.0, "bike_id": "0358f64710789de6dedfd11424f6426e", "is_disabled": 0, "is_reserved": 0}, {"rental_uris": {"ios": "https://dc.lft.to/lastmile_qr_scan", "android": "https://dc.lft.to/lastmile_qr_scan"}, "lon": -77.03851766666666, "type": "electric_scooter", "fusion_lat": 0.0, "lat": 38.90374466666667, "name": "5e69e306f29e55b4d877b8c9ce12993a", "fusion_lon": 0.0, "bike_id": "5e69e306f29e55b4d877b8c9ce12993a", "is_disabled": 0, "is_reserved": 0}, {"rental_uris": {"ios": "https://dc.lft.to/lastmile_qr_scan", "android": "https://dc.lft.to/lastmile_qr_scan"}, "lon": -77.036566, "type": "electric_scooter", "fusion_lat": 0.0, "lat": 38.93084966666667, "name": "8a608620360935855a87e238d64cce07", "fusion_lon": 0.0, "bike_id": "8a608620360935855a87e238d64cce07", "is_disabled": 0, "is_reserved": 0}, {"rental_uris": {"ios": "https://dc.lft.to/lastmile_qr_scan", "android": "https://dc.lft.to/lastmile_qr_scan"}, "lon": -77.04173116666666, "type": "electric_scooter", "fusion_lat": 0.0, "lat": 38.90346016666667, "name": "2b58d3c7cc67a7cf9d37789e2a027d43", "fusion_lon": 0.0, "bike_id": "2b58d3c7cc67a7cf9d37789e2a027d43", "is_disabled": 0, "is_reserved": 0}, {"rental_uris": {"ios": "https://dc.lft.to/lastmile_qr_scan", "android": "https://dc.lft.to/lastmile_qr_scan"}, "lon": -77.02204433333333, "type": "electric_scooter", "fusion_lat": 0.0, "lat": 38.91541183333333, "name": "d289c77b2ee0c79856b5dbb27bef31a0", "fusion_lon": 0.0, "bike_id": "d289c77b2ee0c79856b5dbb27bef31a0", "is_disabled": 0, "is_reserved": 0}, {"rental_uris": {"ios": "https://dc.lft.to/lastmile_qr_scan", "android": "https://dc.lft.to/lastmile_qr_scan"}, "lon": -77.03309783333333, "type": "electric_scooter", "fusion_lat": 0.0, "lat": 38.9015445, "name": "f50a93b75e8e18154000497baf614fd0", "fusion_lon": 0.0, "bike_id": "f50a93b75e8e18154000497baf614fd0", "is_disabled": 0, "is_reserved": 0}, {"rental_uris": {"ios": "https://dc.lft.to/lastmile_qr_scan", "android": "https://dc.lft.to/lastmile_qr_scan"}, "lon": -77.02808216666666, "type": "electric_scooter", "fusion_lat": 0.0, "lat": 38.930824666666666, "name": "3141feb00163c5d9bf605b44a59932c2", "fusion_lon": 0.0, "bike_id": "3141feb00163c5d9bf605b44a59932c2", "is_disabled": 0, "is_reserved": 0}, {"rental_uris": {"ios": "https://dc.lft.to/lastmile_qr_scan", "android": "https://dc.lft.to/lastmile_qr_scan"}, "lon": -77.06350483333334, "type": "electric_scooter", "fusion_lat": 0.0, "lat": 38.94446383333333, "name": "1bb4a280961bda738405f1bcb8bc3de5", "fusion_lon": 0.0, "bike_id": "1bb4a280961bda738405f1bcb8bc3de5", "is_disabled": 0, "is_reserved": 0}, {"rental_uris": {"ios": "https://dc.lft.to/lastmile_qr_scan", "android": "https://dc.lft.to/lastmile_qr_scan"}, "lon": -77.021478, "type": "electric_scooter", "fusion_lat": 0.0, "lat": 38.9282335, "name": "649303940dcace2428c9d2a58b9b470a", "fusion_lon": 0.0, "bike_id": "649303940dcace2428c9d2a58b9b470a", "is_disabled": 0, "is_reserved": 0}, {"rental_uris": {"ios": "https://dc.lft.to/lastmile_qr_scan", "android": "https://dc.lft.to/lastmile_qr_scan"}, "lon": -77.03426433333334, "type": "electric_scooter", "fusion_lat": 0.0, "lat": 38.9191325, "name": "214accb64569f125a7f733735aaf90b1", "fusion_lon": 0.0, "bike_id": "214accb64569f125a7f733735aaf90b1", "is_disabled": 0, "is_reserved": 0}, {"rental_uris": {"ios": "https://dc.lft.to/lastmile_qr_scan", "android": "https://dc.lft.to/lastmile_qr_scan"}, "lon": -76.94720666666667, "type": "electric_scooter", "fusion_lat": 0.0, "lat": 38.89674316666667, "name": "3140cecd5867c2f62863eb9744bdf6e9", "fusion_lon": 0.0, "bike_id": "3140cecd5867c2f62863eb9744bdf6e9", "is_disabled": 0, "is_reserved": 0}, {"rental_uris": {"ios": "https://dc.lft.to/lastmile_qr_scan", "android": "https://dc.lft.to/lastmile_qr_scan"}, "lon": -77.02472616666667, "type": "electric_scooter", "fusion_lat": 0.0, "lat": 38.89742016666667, "name": "75be2bd2365ee926ab45c47bd7991e79", "fusion_lon": 0.0, "bike_id": "75be2bd2365ee926ab45c47bd7991e79", "is_disabled": 0, "is_reserved": 0}, {"rental_uris": {"ios": "https://dc.lft.to/lastmile_qr_scan", "android": "https://dc.lft.to/lastmile_qr_scan"}, "lon": -77.00591616666667, "type": "electric_scooter", "fusion_lat": 0.0, "lat": 38.906126666666665, "name": "f3d8dfba289d32609d2eca1673f98094", "fusion_lon": 0.0, "bike_id": "f3d8dfba289d32609d2eca1673f98094", "is_disabled": 0, "is_reserved": 0}, {"rental_uris": {"ios": "https://dc.lft.to/lastmile_qr_scan", "android": "https://dc.lft.to/lastmile_qr_scan"}, "lon": -76.99272766666667, "type": "electric_scooter", "fusion_lat": 0.0, "lat": 38.897644, "name": "1d15837e721bf6d2659742b1d629aaf7", "fusion_lon": 0.0, "bike_id": "1d15837e721bf6d2659742b1d629aaf7", "is_disabled": 0, "is_reserved": 0}, {"rental_uris": {"ios": "https://dc.lft.to/lastmile_qr_scan", "android": "https://dc.lft.to/lastmile_qr_scan"}, "lon": -77.03560116666667, "type": "electric_scooter", "fusion_lat": 0.0, "lat": 38.931391, "name": "2ccf236e29c6cf13aa8192af310b73a5", "fusion_lon": 0.0, "bike_id": "2ccf236e29c6cf13aa8192af310b73a5", "is_disabled": 0, "is_reserved": 0}, {"rental_uris": {"ios": "https://dc.lft.to/lastmile_qr_scan", "android": "https://dc.lft.to/lastmile_qr_scan"}, "lon": -77.0241985, "type": "electric_scooter", "fusion_lat": 0.0, "lat": 38.917102666666665, "name": "568231b87fc1232f2d86ffacee8adfb1", "fusion_lon": 0.0, "bike_id": "568231b87fc1232f2d86ffacee8adfb1", "is_disabled": 0, "is_reserved": 0}, {"rental_uris": {"ios": "https://dc.lft.to/lastmile_qr_scan", "android": "https://dc.lft.to/lastmile_qr_scan"}, "lon": -76.98997966666667, "type": "electric_bike", "fusion_lat": 0.0, "lat": 38.86392033333333, "name": "418f20eaaffe4f527fc0b7d31b6969f7", "fusion_lon": 0.0, "bike_id": "418f20eaaffe4f527fc0b7d31b6969f7", "is_disabled": 0, "is_reserved": 0}, {"rental_uris": {"ios": "https://dc.lft.to/lastmile_qr_scan", "android": "https://dc.lft.to/lastmile_qr_scan"}, "lon": -77.03704366666666, "type": "electric_scooter", "fusion_lat": 0.0, "lat": 38.92638316666667, "name": "aeb4fe01c19051d06b3bcba684164e1c", "fusion_lon": 0.0, "bike_id": "aeb4fe01c19051d06b3bcba684164e1c", "is_disabled": 0, "is_reserved": 0}, {"rental_uris": {"ios": "https://dc.lft.to/lastmile_qr_scan", "android": "https://dc.lft.to/lastmile_qr_scan"}, "lon": -77.02766983333333, "type": "electric_scooter", "fusion_lat": 0.0, "lat": 38.8919745, "name": "cc242494aafe7e2981e3a14c2bf7d1a6", "fusion_lon": 0.0, "bike_id": "cc242494aafe7e2981e3a14c2bf7d1a6", "is_disabled": 0, "is_reserved": 0}, {"rental_uris": {"ios": "https://dc.lft.to/lastmile_qr_scan", "android": "https://dc.lft.to/lastmile_qr_scan"}, "lon": -77.02064816666666, "type": "electric_scooter", "fusion_lat": 0.0, "lat": 38.93530066666667, "name": "795d8f7881d4458e0d92c3e4cbf73817", "fusion_lon": 0.0, "bike_id": "795d8f7881d4458e0d92c3e4cbf73817", "is_disabled": 0, "is_reserved": 0}, {"rental_uris": {"ios": "https://dc.lft.to/lastmile_qr_scan", "android": "https://dc.lft.to/lastmile_qr_scan"}, "lon": -77.01078233333334, "type": "electric_bike", "fusion_lat": 0.0, "lat": 38.956559666666664, "name": "f302b80522804610e9dfe24a9633a503", "fusion_lon": 0.0, "bike_id": "f302b80522804610e9dfe24a9633a503", "is_disabled": 0, "is_reserved": 0}, {"rental_uris": {"ios": "https://dc.lft.to/lastmile_qr_scan", "android": "https://dc.lft.to/lastmile_qr_scan"}, "lon": -77.0446895, "type": "electric_scooter", "fusion_lat": 0.0, "lat": 38.903249833333334, "name": "214e012b08d20a3e7d74d8b95e720fb1", "fusion_lon": 0.0, "bike_id": "214e012b08d20a3e7d74d8b95e720fb1", "is_disabled": 0, "is_reserved": 0}, {"rental_uris": {"ios": "https://dc.lft.to/lastmile_qr_scan", "android": "https://dc.lft.to/lastmile_qr_scan"}, "lon": -77.04240433333334, "type": "electric_scooter", "fusion_lat": 0.0, "lat": 38.92068033333334, "name": "c756a539eef4aa1b3a38e8767a7a40fe", "fusion_lon": 0.0, "bike_id": "c756a539eef4aa1b3a38e8767a7a40fe", "is_disabled": 0, "is_reserved": 0}, {"rental_uris": {"ios": "https://dc.lft.to/lastmile_qr_scan", "android": "https://dc.lft.to/lastmile_qr_scan"}, "lon": -77.04500533333334, "type": "electric_scooter", "fusion_lat": 0.0, "lat": 38.913099833333334, "name": "7cbc6c4fbf0c9038c7e08442a0dac69f", "fusion_lon": 0.0, "bike_id": "7cbc6c4fbf0c9038c7e08442a0dac69f", "is_disabled": 0, "is_reserved": 0}, {"rental_uris": {"ios": "https://dc.lft.to/lastmile_qr_scan", "android": "https://dc.lft.to/lastmile_qr_scan"}, "lon": -77.0283035, "type": "electric_scooter", "fusion_lat": 0.0, "lat": 38.9247055, "name": "68f11edabac8d79c81797ebcd806c4b1", "fusion_lon": 0.0, "bike_id": "68f11edabac8d79c81797ebcd806c4b1", "is_disabled": 0, "is_reserved": 0}, {"rental_uris": {"ios": "https://dc.lft.to/lastmile_qr_scan", "android": "https://dc.lft.to/lastmile_qr_scan"}, "lon": -77.01087516666666, "type": "electric_scooter", "fusion_lat": 0.0, "lat": 38.918171666666666, "name": "e0303f8ace94092b389bb9f0847bed6f", "fusion_lon": 0.0, "bike_id": "e0303f8ace94092b389bb9f0847bed6f", "is_disabled": 0, "is_reserved": 0}, {"rental_uris": {"ios": "https://dc.lft.to/lastmile_qr_scan", "android": "https://dc.lft.to/lastmile_qr_scan"}, "lon": -77.04085266666667, "type": "electric_scooter", "fusion_lat": 0.0, "lat": 38.90725066666667, "name": "b31f70b3ba681474938d314d6cc0a134", "fusion_lon": 0.0, "bike_id": "b31f70b3ba681474938d314d6cc0a134", "is_disabled": 0, "is_reserved": 0}, {"rental_uris": {"ios": "https://dc.lft.to/lastmile_qr_scan", "android": "https://dc.lft.to/lastmile_qr_scan"}, "lon": -77.00103783333333, "type": "electric_scooter", "fusion_lat": 0.0, "lat": 38.89427166666667, "name": "51ae09c0b32b1abfeafbea9fe6e4917d", "fusion_lon": 0.0, "bike_id": "51ae09c0b32b1abfeafbea9fe6e4917d", "is_disabled": 0, "is_reserved": 0}, {"rental_uris": {"ios": "https://dc.lft.to/lastmile_qr_scan", "android": "https://dc.lft.to/lastmile_qr_scan"}, "lon": -77.03299933333334, "type": "electric_scooter", "fusion_lat": 0.0, "lat": 38.922091333333334, "name": "fd02bb814e66f6bd0af5a146b599db3c", "fusion_lon": 0.0, "bike_id": "fd02bb814e66f6bd0af5a146b599db3c", "is_disabled": 0, "is_reserved": 0}, {"rental_uris": {"ios": "https://dc.lft.to/lastmile_qr_scan", "android": "https://dc.lft.to/lastmile_qr_scan"}, "lon": -77.0209605, "type": "electric_scooter", "fusion_lat": 0.0, "lat": 38.91005083333334, "name": "1a76d51b198e50469821b9e6df37f4a2", "fusion_lon": 0.0, "bike_id": "1a76d51b198e50469821b9e6df37f4a2", "is_disabled": 0, "is_reserved": 0}, {"rental_uris": {"ios": "https://dc.lft.to/lastmile_qr_scan", "android": "https://dc.lft.to/lastmile_qr_scan"}, "lon": -77.02999, "type": "electric_scooter", "fusion_lat": 0.0, "lat": 38.9248225, "name": "705fcceb23c3c2d8144f442a7bae3869", "fusion_lon": 0.0, "bike_id": "705fcceb23c3c2d8144f442a7bae3869", "is_disabled": 0, "is_reserved": 0}, {"rental_uris": {"ios": "https://dc.lft.to/lastmile_qr_scan", "android": "https://dc.lft.to/lastmile_qr_scan"}, "lon": -76.94780433333334, "type": "electric_bike", "fusion_lat": 0.0, "lat": 38.894424, "name": "645254b28e549a09fbcdcbd5e0e5fb9a", "fusion_lon": 0.0, "bike_id": "645254b28e549a09fbcdcbd5e0e5fb9a", "is_disabled": 0, "is_reserved": 0}, {"rental_uris": {"ios": "https://dc.lft.to/lastmile_qr_scan", "android": "https://dc.lft.to/lastmile_qr_scan"}, "lon": -77.01580966666667, "type": "electric_scooter", "fusion_lat": 0.0, "lat": 38.91680866666667, "name": "754ec5901d0e5ba01c45a70eb87e8660", "fusion_lon": 0.0, "bike_id": "754ec5901d0e5ba01c45a70eb87e8660", "is_disabled": 0, "is_reserved": 0}, {"rental_uris": {"ios": "https://dc.lft.to/lastmile_qr_scan", "android": "https://dc.lft.to/lastmile_qr_scan"}, "lon": -77.36092133333334, "type": "electric_bike", "fusion_lat": 0.0, "lat": 38.9396215, "name": "7d77137a6f4209c923c4f7a3ff9696db", "fusion_lon": 0.0, "bike_id": "7d77137a6f4209c923c4f7a3ff9696db", "is_disabled": 0, "is_reserved": 0}, {"rental_uris": {"ios": "https://dc.lft.to/lastmile_qr_scan", "android": "https://dc.lft.to/lastmile_qr_scan"}, "lon": -76.97986033333333, "type": "electric_bike", "fusion_lat": 0.0, "lat": 38.87755583333333, "name": "60551b5f0bb0595252e472d70ea72ce7", "fusion_lon": 0.0, "bike_id": "60551b5f0bb0595252e472d70ea72ce7", "is_disabled": 0, "is_reserved": 0}, {"rental_uris": {"ios": "https://dc.lft.to/lastmile_qr_scan", "android": "https://dc.lft.to/lastmile_qr_scan"}, "lon": -77.0350165, "type": "electric_scooter", "fusion_lat": 0.0, "lat": 38.92871016666667, "name": "60b04f4a90e2a61626826ed084306f74", "fusion_lon": 0.0, "bike_id": "60b04f4a90e2a61626826ed084306f74", "is_disabled": 0, "is_reserved": 0}, {"rental_uris": {"ios": "https://dc.lft.to/lastmile_qr_scan", "android": "https://dc.lft.to/lastmile_qr_scan"}, "lon": -77.01147433333334, "type": "electric_scooter", "fusion_lat": 0.0, "lat": 38.907301333333336, "name": "ee448ea8a563a955ba42abcfb2aee541", "fusion_lon": 0.0, "bike_id": "ee448ea8a563a955ba42abcfb2aee541", "is_disabled": 0, "is_reserved": 0}, {"rental_uris": {"ios": "https://dc.lft.to/lastmile_qr_scan", "android": "https://dc.lft.to/lastmile_qr_scan"}, "lon": -77.0465655, "type": "electric_scooter", "fusion_lat": 0.0, "lat": 38.905522833333336, "name": "467023f222964a4c0a81d25d272aa76a", "fusion_lon": 0.0, "bike_id": "467023f222964a4c0a81d25d272aa76a", "is_disabled": 0, "is_reserved": 0}, {"rental_uris": {"ios": "https://dc.lft.to/lastmile_qr_scan", "android": "https://dc.lft.to/lastmile_qr_scan"}, "lon": -77.03209316666667, "type": "electric_scooter", "fusion_lat": 0.0, "lat": 38.9258405, "name": "ccbf7bb442d10958091a48cdde33564d", "fusion_lon": 0.0, "bike_id": "ccbf7bb442d10958091a48cdde33564d", "is_disabled": 0, "is_reserved": 0}, {"rental_uris": {"ios": "https://dc.lft.to/lastmile_qr_scan", "android": "https://dc.lft.to/lastmile_qr_scan"}, "lon": -77.041002, "type": "electric_scooter", "fusion_lat": 0.0, "lat": 38.9236635, "name": "52f0191cbb085250272785b5fee73aca", "fusion_lon": 0.0, "bike_id": "52f0191cbb085250272785b5fee73aca", "is_disabled": 0, "is_reserved": 0}, {"rental_uris": {"ios": "https://dc.lft.to/lastmile_qr_scan", "android": "https://dc.lft.to/lastmile_qr_scan"}, "lon": -77.03661616666666, "type": "electric_scooter", "fusion_lat": 0.0, "lat": 38.91308133333333, "name": "b03f52dd1c0c291e8d4edcc8fd1d71ba", "fusion_lon": 0.0, "bike_id": "b03f52dd1c0c291e8d4edcc8fd1d71ba", "is_disabled": 0, "is_reserved": 0}, {"rental_uris": {"ios": "https://dc.lft.to/lastmile_qr_scan", "android": "https://dc.lft.to/lastmile_qr_scan"}, "lon": -76.9497205, "type": "electric_scooter", "fusion_lat": 0.0, "lat": 38.893743666666666, "name": "d97dbb983fd6ec79f7e153f8bd1ceb27", "fusion_lon": 0.0, "bike_id": "d97dbb983fd6ec79f7e153f8bd1ceb27", "is_disabled": 0, "is_reserved": 0}, {"rental_uris": {"ios": "https://dc.lft.to/lastmile_qr_scan", "android": "https://dc.lft.to/lastmile_qr_scan"}, "lon": -77.03748616666667, "type": "electric_scooter", "fusion_lat": 0.0, "lat": 38.914787, "name": "467737c2c43a31c335e4014bc499635d", "fusion_lon": 0.0, "bike_id": "467737c2c43a31c335e4014bc499635d", "is_disabled": 0, "is_reserved": 0}, {"rental_uris": {"ios": "https://dc.lft.to/lastmile_qr_scan", "android": "https://dc.lft.to/lastmile_qr_scan"}, "lon": -77.041485, "type": "electric_scooter", "fusion_lat": 0.0, "lat": 38.91786233333333, "name": "a5e625189ba122e8f635748bb82d1a75", "fusion_lon": 0.0, "bike_id": "a5e625189ba122e8f635748bb82d1a75", "is_disabled": 0, "is_reserved": 0}, {"rental_uris": {"ios": "https://dc.lft.to/lastmile_qr_scan", "android": "https://dc.lft.to/lastmile_qr_scan"}, "lon": -76.98022066666667, "type": "electric_scooter", "fusion_lat": 0.0, "lat": 38.903793666666665, "name": "981044d754bd85193a45b61b0b50f98b", "fusion_lon": 0.0, "bike_id": "981044d754bd85193a45b61b0b50f98b", "is_disabled": 0, "is_reserved": 0}, {"rental_uris": {"ios": "https://dc.lft.to/lastmile_qr_scan", "android": "https://dc.lft.to/lastmile_qr_scan"}, "lon": -77.01077633333334, "type": "electric_bike", "fusion_lat": 0.0, "lat": 38.962591333333336, "name": "92206110c2c1580686d692ae879b18f6", "fusion_lon": 0.0, "bike_id": "92206110c2c1580686d692ae879b18f6", "is_disabled": 0, "is_reserved": 0}, {"rental_uris": {"ios": "https://dc.lft.to/lastmile_qr_scan", "android": "https://dc.lft.to/lastmile_qr_scan"}, "lon": -77.0379715, "type": "electric_bike", "fusion_lat": 0.0, "lat": 38.930731333333334, "name": "1646e3d33f3e77b0780ed20f1439f2a3", "fusion_lon": 0.0, "bike_id": "1646e3d33f3e77b0780ed20f1439f2a3", "is_disabled": 0, "is_reserved": 0}, {"rental_uris": {"ios": "https://dc.lft.to/lastmile_qr_scan", "android": "https://dc.lft.to/lastmile_qr_scan"}, "lon": -77.07568083333334, "type": "electric_scooter", "fusion_lat": 0.0, "lat": 38.920938666666665, "name": "1ff39888013d2143829aadfc99961ab0", "fusion_lon": 0.0, "bike_id": "1ff39888013d2143829aadfc99961ab0", "is_disabled": 0, "is_reserved": 0}, {"rental_uris": {"ios": "https://dc.lft.to/lastmile_qr_scan", "android": "https://dc.lft.to/lastmile_qr_scan"}, "lon": -76.99838966666667, "type": "electric_bike", "fusion_lat": 0.0, "lat": 38.83917816666667, "name": "adac271a1bcb349ca28ad3b424c02ba0", "fusion_lon": 0.0, "bike_id": "adac271a1bcb349ca28ad3b424c02ba0", "is_disabled": 0, "is_reserved": 0}, {"rental_uris": {"ios": "https://dc.lft.to/lastmile_qr_scan", "android": "https://dc.lft.to/lastmile_qr_scan"}, "lon": -77.01104466666666, "type": "electric_scooter", "fusion_lat": 0.0, "lat": 38.8948625, "name": "72e0bfc1a63e6746c9aedda7cbbb4884", "fusion_lon": 0.0, "bike_id": "72e0bfc1a63e6746c9aedda7cbbb4884", "is_disabled": 0, "is_reserved": 0}, {"rental_uris": {"ios": "https://dc.lft.to/lastmile_qr_scan", "android": "https://dc.lft.to/lastmile_qr_scan"}, "lon": -76.99968283333334, "type": "electric_scooter", "fusion_lat": 0.0, "lat": 38.90846883333333, "name": "3b2cd59c27a9eb66d8f33f79e1617ad2", "fusion_lon": 0.0, "bike_id": "3b2cd59c27a9eb66d8f33f79e1617ad2", "is_disabled": 0, "is_reserved": 0}, {"rental_uris": {"ios": "https://dc.lft.to/lastmile_qr_scan", "android": "https://dc.lft.to/lastmile_qr_scan"}, "lon": -77.03000783333333, "type": "electric_scooter", "fusion_lat": 0.0, "lat": 38.934609333333334, "name": "b45558a1979f976377c9675e3f38f21c", "fusion_lon": 0.0, "bike_id": "b45558a1979f976377c9675e3f38f21c", "is_disabled": 0, "is_reserved": 0}, {"rental_uris": {"ios": "https://dc.lft.to/lastmile_qr_scan", "android": "https://dc.lft.to/lastmile_qr_scan"}, "lon": -77.01410733333333, "type": "electric_scooter", "fusion_lat": 0.0, "lat": 38.91696233333333, "name": "e3805e6844f4c31c168a25296ea916c0", "fusion_lon": 0.0, "bike_id": "e3805e6844f4c31c168a25296ea916c0", "is_disabled": 0, "is_reserved": 0}, {"rental_uris": {"ios": "https://dc.lft.to/lastmile_qr_scan", "android": "https://dc.lft.to/lastmile_qr_scan"}, "lon": -77.0050485, "type": "electric_scooter", "fusion_lat": 0.0, "lat": 38.878928, "name": "33bdda693d2d83cd3065444026a40bea", "fusion_lon": 0.0, "bike_id": "33bdda693d2d83cd3065444026a40bea", "is_disabled": 0, "is_reserved": 0}, {"rental_uris": {"ios": "https://dc.lft.to/lastmile_qr_scan", "android": "https://dc.lft.to/lastmile_qr_scan"}, "lon": -76.93569233333334, "type": "electric_bike", "fusion_lat": 0.0, "lat": 38.885301, "name": "75da53de8639bf2475c3de67687189ff", "fusion_lon": 0.0, "bike_id": "75da53de8639bf2475c3de67687189ff", "is_disabled": 0, "is_reserved": 0}, {"rental_uris": {"ios": "https://dc.lft.to/lastmile_qr_scan", "android": "https://dc.lft.to/lastmile_qr_scan"}, "lon": -77.02651166666666, "type": "electric_scooter", "fusion_lat": 0.0, "lat": 38.93860633333333, "name": "3606a2ca5c84b5c261b51528b1f80560", "fusion_lon": 0.0, "bike_id": "3606a2ca5c84b5c261b51528b1f80560", "is_disabled": 0, "is_reserved": 0}, {"rental_uris": {"ios": "https://dc.lft.to/lastmile_qr_scan", "android": "https://dc.lft.to/lastmile_qr_scan"}, "lon": -77.02567933333333, "type": "electric_scooter", "fusion_lat": 0.0, "lat": 38.88746533333333, "name": "6893339071ac246b930aeb53edb58f84", "fusion_lon": 0.0, "bike_id": "6893339071ac246b930aeb53edb58f84", "is_disabled": 0, "is_reserved": 0}, {"rental_uris": {"ios": "https://dc.lft.to/lastmile_qr_scan", "android": "https://dc.lft.to/lastmile_qr_scan"}, "lon": -77.02628633333333, "type": "electric_bike", "fusion_lat": 0.0, "lat": 38.96222183333333, "name": "f19f32f9a92f0a8a294dd624c7d5c1f2", "fusion_lon": 0.0, "bike_id": "f19f32f9a92f0a8a294dd624c7d5c1f2", "is_disabled": 0, "is_reserved": 0}, {"rental_uris": {"ios": "https://dc.lft.to/lastmile_qr_scan", "android": "https://dc.lft.to/lastmile_qr_scan"}, "lon": -77.04421533333333, "type": "electric_scooter", "fusion_lat": 0.0, "lat": 38.892216, "name": "7f2cdea86a9f598feb35cfd4bfbbf93f", "fusion_lon": 0.0, "bike_id": "7f2cdea86a9f598feb35cfd4bfbbf93f", "is_disabled": 0, "is_reserved": 0}, {"rental_uris": {"ios": "https://dc.lft.to/lastmile_qr_scan", "android": "https://dc.lft.to/lastmile_qr_scan"}, "lon": -77.03475866666666, "type": "electric_scooter", "fusion_lat": 0.0, "lat": 38.934591166666664, "name": "c50b96ca6a27a4bed53d79ac94268cc9", "fusion_lon": 0.0, "bike_id": "c50b96ca6a27a4bed53d79ac94268cc9", "is_disabled": 0, "is_reserved": 0}, {"rental_uris": {"ios": "https://dc.lft.to/lastmile_qr_scan", "android": "https://dc.lft.to/lastmile_qr_scan"}, "lon": -77.0072335, "type": "electric_scooter", "fusion_lat": 0.0, "lat": 38.8849195, "name": "e2bfb862a14a0831dee47d201217a2da", "fusion_lon": 0.0, "bike_id": "e2bfb862a14a0831dee47d201217a2da", "is_disabled": 0, "is_reserved": 0}, {"rental_uris": {"ios": "https://dc.lft.to/lastmile_qr_scan", "android": "https://dc.lft.to/lastmile_qr_scan"}, "lon": -77.01635033333334, "type": "electric_scooter", "fusion_lat": 0.0, "lat": 38.87208716666667, "name": "7a4c4f92a37c738b0eb459d96b6f8a03", "fusion_lon": 0.0, "bike_id": "7a4c4f92a37c738b0eb459d96b6f8a03", "is_disabled": 0, "is_reserved": 0}, {"rental_uris": {"ios": "https://dc.lft.to/lastmile_qr_scan", "android": "https://dc.lft.to/lastmile_qr_scan"}, "lon": -77.0478465, "type": "electric_scooter", "fusion_lat": 0.0, "lat": 38.89224, "name": "6070adabbde2581145f20f2bbe609329", "fusion_lon": 0.0, "bike_id": "6070adabbde2581145f20f2bbe609329", "is_disabled": 0, "is_reserved": 0}, {"rental_uris": {"ios": "https://dc.lft.to/lastmile_qr_scan", "android": "https://dc.lft.to/lastmile_qr_scan"}, "lon": -77.00193, "type": "electric_scooter", "fusion_lat": 0.0, "lat": 38.9004315, "name": "cedbfe7eefd0bd75a400c340476e90a8", "fusion_lon": 0.0, "bike_id": "cedbfe7eefd0bd75a400c340476e90a8", "is_disabled": 0, "is_reserved": 0}, {"rental_uris": {"ios": "https://dc.lft.to/lastmile_qr_scan", "android": "https://dc.lft.to/lastmile_qr_scan"}, "lon": -77.1784455, "type": "electric_bike", "fusion_lat": 0.0, "lat": 39.08904016666666, "name": "4e658bc8d915e6810ecf423aa41c3449", "fusion_lon": 0.0, "bike_id": "4e658bc8d915e6810ecf423aa41c3449", "is_disabled": 0, "is_reserved": 0}, {"rental_uris": {"ios": "https://dc.lft.to/lastmile_qr_scan", "android": "https://dc.lft.to/lastmile_qr_scan"}, "lon": -77.085394, "type": "electric_bike", "fusion_lat": 0.0, "lat": 38.85621, "name": "366863c10ec0b858bfe06680fa18730d", "fusion_lon": 0.0, "bike_id": "366863c10ec0b858bfe06680fa18730d", "is_disabled": 0, "is_reserved": 0}, {"rental_uris": {"ios": "https://dc.lft.to/lastmile_qr_scan", "android": "https://dc.lft.to/lastmile_qr_scan"}, "lon": -77.03353916666667, "type": "electric_scooter", "fusion_lat": 0.0, "lat": 38.88505216666667, "name": "3bd422ae4bc14d7dbc23fadf9b12fdc1", "fusion_lon": 0.0, "bike_id": "3bd422ae4bc14d7dbc23fadf9b12fdc1", "is_disabled": 0, "is_reserved": 0}, {"rental_uris": {"ios": "https://dc.lft.to/lastmile_qr_scan", "android": "https://dc.lft.to/lastmile_qr_scan"}, "lon": -77.02098466666666, "type": "electric_scooter", "fusion_lat": 0.0, "lat": 38.9311265, "name": "b42eae41d6c6902cea13588b4e354fe6", "fusion_lon": 0.0, "bike_id": "b42eae41d6c6902cea13588b4e354fe6", "is_disabled": 0, "is_reserved": 0}, {"rental_uris": {"ios": "https://dc.lft.to/lastmile_qr_scan", "android": "https://dc.lft.to/lastmile_qr_scan"}, "lon": -77.03824033333333, "type": "electric_scooter", "fusion_lat": 0.0, "lat": 38.911066166666664, "name": "95a0a8c51cf6286d8115099d737735fc", "fusion_lon": 0.0, "bike_id": "95a0a8c51cf6286d8115099d737735fc", "is_disabled": 0, "is_reserved": 0}, {"rental_uris": {"ios": "https://dc.lft.to/lastmile_qr_scan", "android": "https://dc.lft.to/lastmile_qr_scan"}, "lon": -77.02978, "type": "electric_scooter", "fusion_lat": 0.0, "lat": 38.962296, "name": "6c2e4eebc4a5073418e4f2640ec7e6c2", "fusion_lon": 0.0, "bike_id": "6c2e4eebc4a5073418e4f2640ec7e6c2", "is_disabled": 0, "is_reserved": 0}, {"rental_uris": {"ios": "https://dc.lft.to/lastmile_qr_scan", "android": "https://dc.lft.to/lastmile_qr_scan"}, "lon": -77.04102266666666, "type": "electric_scooter", "fusion_lat": 0.0, "lat": 38.91855266666666, "name": "42e5832d89a9a7348cef24747f66b2b9", "fusion_lon": 0.0, "bike_id": "42e5832d89a9a7348cef24747f66b2b9", "is_disabled": 0, "is_reserved": 0}, {"rental_uris": {"ios": "https://dc.lft.to/lastmile_qr_scan", "android": "https://dc.lft.to/lastmile_qr_scan"}, "lon": -77.11223933333333, "type": "electric_bike", "fusion_lat": 0.0, "lat": 38.8287435, "name": "272fa310e46eca2d8ec12916d1f7a3c5", "fusion_lon": 0.0, "bike_id": "272fa310e46eca2d8ec12916d1f7a3c5", "is_disabled": 0, "is_reserved": 0}, {"rental_uris": {"ios": "https://dc.lft.to/lastmile_qr_scan", "android": "https://dc.lft.to/lastmile_qr_scan"}, "lon": -76.995222, "type": "electric_scooter", "fusion_lat": 0.0, "lat": 38.883753, "name": "60ea55517b594808817dcbdbd9bb5af3", "fusion_lon": 0.0, "bike_id": "60ea55517b594808817dcbdbd9bb5af3", "is_disabled": 0, "is_reserved": 0}, {"rental_uris": {"ios": "https://dc.lft.to/lastmile_qr_scan", "android": "https://dc.lft.to/lastmile_qr_scan"}, "lon": -77.02200616666667, "type": "electric_scooter", "fusion_lat": 0.0, "lat": 38.9083585, "name": "48380ef99e215f7d5513530a8ef3223f", "fusion_lon": 0.0, "bike_id": "48380ef99e215f7d5513530a8ef3223f", "is_disabled": 0, "is_reserved": 0}, {"rental_uris": {"ios": "https://dc.lft.to/lastmile_qr_scan", "android": "https://dc.lft.to/lastmile_qr_scan"}, "lon": -77.03530633333334, "type": "electric_scooter", "fusion_lat": 0.0, "lat": 38.92333566666667, "name": "41e7e8a1045f2d201bce975795d727e0", "fusion_lon": 0.0, "bike_id": "41e7e8a1045f2d201bce975795d727e0", "is_disabled": 0, "is_reserved": 0}, {"rental_uris": {"ios": "https://dc.lft.to/lastmile_qr_scan", "android": "https://dc.lft.to/lastmile_qr_scan"}, "lon": -76.99873333333333, "type": "electric_scooter", "fusion_lat": 0.0, "lat": 38.900339833333334, "name": "4ef3f86137718ce7694897be9a86751f", "fusion_lon": 0.0, "bike_id": "4ef3f86137718ce7694897be9a86751f", "is_disabled": 0, "is_reserved": 0}, {"rental_uris": {"ios": "https://dc.lft.to/lastmile_qr_scan", "android": "https://dc.lft.to/lastmile_qr_scan"}, "lon": -76.9315785, "type": "electric_scooter", "fusion_lat": 0.0, "lat": 38.89879766666667, "name": "0ec447e896286eb932cfb77f18c2e6e7", "fusion_lon": 0.0, "bike_id": "0ec447e896286eb932cfb77f18c2e6e7", "is_disabled": 0, "is_reserved": 0}, {"rental_uris": {"ios": "https://dc.lft.to/lastmile_qr_scan", "android": "https://dc.lft.to/lastmile_qr_scan"}, "lon": -77.02006, "type": "electric_scooter", "fusion_lat": 0.0, "lat": 38.8973845, "name": "b3abef1aa44453e03d418f47820ac652", "fusion_lon": 0.0, "bike_id": "b3abef1aa44453e03d418f47820ac652", "is_disabled": 0, "is_reserved": 0}, {"rental_uris": {"ios": "https://dc.lft.to/lastmile_qr_scan", "android": "https://dc.lft.to/lastmile_qr_scan"}, "lon": -76.87496883333333, "type": "electric_bike", "fusion_lat": 0.0, "lat": 38.990906833333334, "name": "2e632b4f4de2eda6c3eeafb365f0974a", "fusion_lon": 0.0, "bike_id": "2e632b4f4de2eda6c3eeafb365f0974a", "is_disabled": 0, "is_reserved": 0}, {"rental_uris": {"ios": "https://dc.lft.to/lastmile_qr_scan", "android": "https://dc.lft.to/lastmile_qr_scan"}, "lon": -77.0208165, "type": "electric_scooter", "fusion_lat": 0.0, "lat": 38.881869333333334, "name": "2265ed98636c17a2148c93a0fd264a1a", "fusion_lon": 0.0, "bike_id": "2265ed98636c17a2148c93a0fd264a1a", "is_disabled": 0, "is_reserved": 0}, {"rental_uris": {"ios": "https://dc.lft.to/lastmile_qr_scan", "android": "https://dc.lft.to/lastmile_qr_scan"}, "lon": -76.9917775, "type": "electric_scooter", "fusion_lat": 0.0, "lat": 38.9045315, "name": "299790be423909aa6a12feb2bfd2a460", "fusion_lon": 0.0, "bike_id": "299790be423909aa6a12feb2bfd2a460", "is_disabled": 0, "is_reserved": 0}, {"rental_uris": {"ios": "https://dc.lft.to/lastmile_qr_scan", "android": "https://dc.lft.to/lastmile_qr_scan"}, "lon": -77.02014416666667, "type": "electric_scooter", "fusion_lat": 0.0, "lat": 38.9003425, "name": "22c0136a35d559c3379f19a009ef2576", "fusion_lon": 0.0, "bike_id": "22c0136a35d559c3379f19a009ef2576", "is_disabled": 0, "is_reserved": 0}, {"rental_uris": {"ios": "https://dc.lft.to/lastmile_qr_scan", "android": "https://dc.lft.to/lastmile_qr_scan"}, "lon": -77.050852, "type": "electric_scooter", "fusion_lat": 0.0, "lat": 38.9245995, "name": "4d859540e08cfc49e8416b06c3ab6662", "fusion_lon": 0.0, "bike_id": "4d859540e08cfc49e8416b06c3ab6662", "is_disabled": 0, "is_reserved": 0}, {"rental_uris": {"ios": "https://dc.lft.to/lastmile_qr_scan", "android": "https://dc.lft.to/lastmile_qr_scan"}, "lon": -77.02985833333334, "type": "electric_scooter", "fusion_lat": 0.0, "lat": 38.8955365, "name": "af92f159a8681d2d91d5f5ced187f899", "fusion_lon": 0.0, "bike_id": "af92f159a8681d2d91d5f5ced187f899", "is_disabled": 0, "is_reserved": 0}, {"rental_uris": {"ios": "https://dc.lft.to/lastmile_qr_scan", "android": "https://dc.lft.to/lastmile_qr_scan"}, "lon": -77.0153035, "type": "electric_scooter", "fusion_lat": 0.0, "lat": 38.88734066666667, "name": "01ce5e1f516d3117b19d463e29887986", "fusion_lon": 0.0, "bike_id": "01ce5e1f516d3117b19d463e29887986", "is_disabled": 0, "is_reserved": 0}, {"rental_uris": {"ios": "https://dc.lft.to/lastmile_qr_scan", "android": "https://dc.lft.to/lastmile_qr_scan"}, "lon": -77.07899316666666, "type": "electric_bike", "fusion_lat": 0.0, "lat": 38.839341833333336, "name": "81dec3339eb3322334a12a3c73376fbc", "fusion_lon": 0.0, "bike_id": "81dec3339eb3322334a12a3c73376fbc", "is_disabled": 0, "is_reserved": 0}, {"rental_uris": {"ios": "https://dc.lft.to/lastmile_qr_scan", "android": "https://dc.lft.to/lastmile_qr_scan"}, "lon": -77.0271165, "type": "electric_scooter", "fusion_lat": 0.0, "lat": 38.881318, "name": "0691dffbc0974e06b39af0581e165390", "fusion_lon": 0.0, "bike_id": "0691dffbc0974e06b39af0581e165390", "is_disabled": 0, "is_reserved": 0}, {"rental_uris": {"ios": "https://dc.lft.to/lastmile_qr_scan", "android": "https://dc.lft.to/lastmile_qr_scan"}, "lon": -77.007768, "type": "electric_scooter", "fusion_lat": 0.0, "lat": 38.87089, "name": "7fb498923f096d176161c227455c1f23", "fusion_lon": 0.0, "bike_id": "7fb498923f096d176161c227455c1f23", "is_disabled": 0, "is_reserved": 0}, {"rental_uris": {"ios": "https://dc.lft.to/lastmile_qr_scan", "android": "https://dc.lft.to/lastmile_qr_scan"}, "lon": -77.11416183333333, "type": "electric_bike", "fusion_lat": 0.0, "lat": 38.842833166666665, "name": "a671e51eaa2ea201117c758ac51f2f78", "fusion_lon": 0.0, "bike_id": "a671e51eaa2ea201117c758ac51f2f78", "is_disabled": 0, "is_reserved": 0}, {"rental_uris": {"ios": "https://dc.lft.to/lastmile_qr_scan", "android": "https://dc.lft.to/lastmile_qr_scan"}, "lon": -77.023481, "type": "electric_scooter", "fusion_lat": 0.0, "lat": 38.93386816666667, "name": "1a6b9188086a0a9044d4c15dcf64fb4b", "fusion_lon": 0.0, "bike_id": "1a6b9188086a0a9044d4c15dcf64fb4b", "is_disabled": 0, "is_reserved": 0}, {"rental_uris": {"ios": "https://dc.lft.to/lastmile_qr_scan", "android": "https://dc.lft.to/lastmile_qr_scan"}, "lon": -76.9726095, "type": "electric_bike", "fusion_lat": 0.0, "lat": 38.9192195, "name": "15d23bb31b1e09f28c4aa677e1c650de", "fusion_lon": 0.0, "bike_id": "15d23bb31b1e09f28c4aa677e1c650de", "is_disabled": 0, "is_reserved": 0}, {"rental_uris": {"ios": "https://dc.lft.to/lastmile_qr_scan", "android": "https://dc.lft.to/lastmile_qr_scan"}, "lon": -77.02347466666667, "type": "electric_scooter", "fusion_lat": 0.0, "lat": 38.931348, "name": "fc8abed0b3ee16498f3e0f7693b741ae", "fusion_lon": 0.0, "bike_id": "fc8abed0b3ee16498f3e0f7693b741ae", "is_disabled": 0, "is_reserved": 0}, {"rental_uris": {"ios": "https://dc.lft.to/lastmile_qr_scan", "android": "https://dc.lft.to/lastmile_qr_scan"}, "lon": -77.01226866666667, "type": "electric_scooter", "fusion_lat": 0.0, "lat": 38.913217833333334, "name": "26ee56df6dae99b9bd84806e5bd3a000", "fusion_lon": 0.0, "bike_id": "26ee56df6dae99b9bd84806e5bd3a000", "is_disabled": 0, "is_reserved": 0}, {"rental_uris": {"ios": "https://dc.lft.to/lastmile_qr_scan", "android": "https://dc.lft.to/lastmile_qr_scan"}, "lon": -77.05097766666667, "type": "electric_bike", "fusion_lat": 0.0, "lat": 38.81332166666667, "name": "596b99d7398fbaae13fa9a81e5237b3d", "fusion_lon": 0.0, "bike_id": "596b99d7398fbaae13fa9a81e5237b3d", "is_disabled": 0, "is_reserved": 0}, {"rental_uris": {"ios": "https://dc.lft.to/lastmile_qr_scan", "android": "https://dc.lft.to/lastmile_qr_scan"}, "lon": -76.98510433333334, "type": "electric_scooter", "fusion_lat": 0.0, "lat": 38.90605383333333, "name": "01630823c0272ae331326124b3f44255", "fusion_lon": 0.0, "bike_id": "01630823c0272ae331326124b3f44255", "is_disabled": 0, "is_reserved": 0}, {"rental_uris": {"ios": "https://dc.lft.to/lastmile_qr_scan", "android": "https://dc.lft.to/lastmile_qr_scan"}, "lon": -76.99976033333333, "type": "electric_scooter", "fusion_lat": 0.0, "lat": 38.9092055, "name": "44ef81e86d2ba317a0cac27bcb9449d9", "fusion_lon": 0.0, "bike_id": "44ef81e86d2ba317a0cac27bcb9449d9", "is_disabled": 0, "is_reserved": 0}, {"rental_uris": {"ios": "https://dc.lft.to/lastmile_qr_scan", "android": "https://dc.lft.to/lastmile_qr_scan"}, "lon": -77.01884933333334, "type": "electric_scooter", "fusion_lat": 0.0, "lat": 38.90611466666667, "name": "a5fe7f6b5b98f9346dbb5cc61cd166d5", "fusion_lon": 0.0, "bike_id": "a5fe7f6b5b98f9346dbb5cc61cd166d5", "is_disabled": 0, "is_reserved": 0}, {"rental_uris": {"ios": "https://dc.lft.to/lastmile_qr_scan", "android": "https://dc.lft.to/lastmile_qr_scan"}, "lon": -77.0060725, "type": "electric_scooter", "fusion_lat": 0.0, "lat": 38.877258, "name": "c6e2a14d50588a519879c71143d42abd", "fusion_lon": 0.0, "bike_id": "c6e2a14d50588a519879c71143d42abd", "is_disabled": 0, "is_reserved": 0}, {"rental_uris": {"ios": "https://dc.lft.to/lastmile_qr_scan", "android": "https://dc.lft.to/lastmile_qr_scan"}, "lon": -77.001992, "type": "electric_scooter", "fusion_lat": 0.0, "lat": 38.90045533333333, "name": "cce14aecdd260cdf04f53c1dd2cb8063", "fusion_lon": 0.0, "bike_id": "cce14aecdd260cdf04f53c1dd2cb8063", "is_disabled": 0, "is_reserved": 0}, {"rental_uris": {"ios": "https://dc.lft.to/lastmile_qr_scan", "android": "https://dc.lft.to/lastmile_qr_scan"}, "lon": -77.0351875, "type": "electric_scooter", "fusion_lat": 0.0, "lat": 38.922238666666665, "name": "d277148c743b3ee7acd7bbf595f2ccd6", "fusion_lon": 0.0, "bike_id": "d277148c743b3ee7acd7bbf595f2ccd6", "is_disabled": 0, "is_reserved": 0}, {"rental_uris": {"ios": "https://dc.lft.to/lastmile_qr_scan", "android": "https://dc.lft.to/lastmile_qr_scan"}, "lon": -77.041386, "type": "electric_scooter", "fusion_lat": 0.0, "lat": 38.92169533333333, "name": "75329bd926e4cbf6444e2850da1c1c05", "fusion_lon": 0.0, "bike_id": "75329bd926e4cbf6444e2850da1c1c05", "is_disabled": 0, "is_reserved": 0}, {"rental_uris": {"ios": "https://dc.lft.to/lastmile_qr_scan", "android": "https://dc.lft.to/lastmile_qr_scan"}, "lon": -77.03558233333334, "type": "electric_bike", "fusion_lat": 0.0, "lat": 38.964707, "name": "8833db2257203a5853b1bbea34a54224", "fusion_lon": 0.0, "bike_id": "8833db2257203a5853b1bbea34a54224", "is_disabled": 0, "is_reserved": 0}, {"rental_uris": {"ios": "https://dc.lft.to/lastmile_qr_scan", "android": "https://dc.lft.to/lastmile_qr_scan"}, "lon": -76.99822066666667, "type": "electric_scooter", "fusion_lat": 0.0, "lat": 38.88871683333333, "name": "c8c80dd2073cbf1c3e4ccaa7e45b45fa", "fusion_lon": 0.0, "bike_id": "c8c80dd2073cbf1c3e4ccaa7e45b45fa", "is_disabled": 0, "is_reserved": 0}, {"rental_uris": {"ios": "https://dc.lft.to/lastmile_qr_scan", "android": "https://dc.lft.to/lastmile_qr_scan"}, "lon": -77.016384, "type": "electric_scooter", "fusion_lat": 0.0, "lat": 38.907153666666666, "name": "fb4ad73ec4306253496b4a851f18813e", "fusion_lon": 0.0, "bike_id": "fb4ad73ec4306253496b4a851f18813e", "is_disabled": 0, "is_reserved": 0}, {"rental_uris": {"ios": "https://dc.lft.to/lastmile_qr_scan", "android": "https://dc.lft.to/lastmile_qr_scan"}, "lon": -77.02556, "type": "electric_scooter", "fusion_lat": 0.0, "lat": 38.884312333333334, "name": "e8beb8f3f5daa8954625db25dad34a50", "fusion_lon": 0.0, "bike_id": "e8beb8f3f5daa8954625db25dad34a50", "is_disabled": 0, "is_reserved": 0}, {"rental_uris": {"ios": "https://dc.lft.to/lastmile_qr_scan", "android": "https://dc.lft.to/lastmile_qr_scan"}, "lon": -77.04343333333334, "type": "electric_scooter", "fusion_lat": 0.0, "lat": 38.89653333333333, "name": "d242da47c40113a20b7ccb0892c25810", "fusion_lon": 0.0, "bike_id": "d242da47c40113a20b7ccb0892c25810", "is_disabled": 0, "is_reserved": 0}, {"rental_uris": {"ios": "https://dc.lft.to/lastmile_qr_scan", "android": "https://dc.lft.to/lastmile_qr_scan"}, "lon": -77.01883916666667, "type": "electric_scooter", "fusion_lat": 0.0, "lat": 38.9118895, "name": "6fc56203f9480e91442bd0f84b0a882e", "fusion_lon": 0.0, "bike_id": "6fc56203f9480e91442bd0f84b0a882e", "is_disabled": 0, "is_reserved": 0}, {"rental_uris": {"ios": "https://dc.lft.to/lastmile_qr_scan", "android": "https://dc.lft.to/lastmile_qr_scan"}, "lon": -77.04371166666667, "type": "electric_scooter", "fusion_lat": 0.0, "lat": 38.9178445, "name": "0de94107c4c59570db1ed62b3e70c13d", "fusion_lon": 0.0, "bike_id": "0de94107c4c59570db1ed62b3e70c13d", "is_disabled": 0, "is_reserved": 0}, {"rental_uris": {"ios": "https://dc.lft.to/lastmile_qr_scan", "android": "https://dc.lft.to/lastmile_qr_scan"}, "lon": -77.0346895, "type": "electric_scooter", "fusion_lat": 0.0, "lat": 38.93451483333333, "name": "134f621eb3c497bb3df6323140c1787c", "fusion_lon": 0.0, "bike_id": "134f621eb3c497bb3df6323140c1787c", "is_disabled": 0, "is_reserved": 0}, {"rental_uris": {"ios": "https://dc.lft.to/lastmile_qr_scan", "android": "https://dc.lft.to/lastmile_qr_scan"}, "lon": -77.0314315, "type": "electric_scooter", "fusion_lat": 0.0, "lat": 38.914038, "name": "95b442441ee07a47f62227c74e133ad9", "fusion_lon": 0.0, "bike_id": "95b442441ee07a47f62227c74e133ad9", "is_disabled": 0, "is_reserved": 0}, {"rental_uris": {"ios": "https://dc.lft.to/lastmile_qr_scan", "android": "https://dc.lft.to/lastmile_qr_scan"}, "lon": -76.9830445, "type": "electric_scooter", "fusion_lat": 0.0, "lat": 38.899703333333335, "name": "34db6b03249393e9b37f41ac16822d75", "fusion_lon": 0.0, "bike_id": "34db6b03249393e9b37f41ac16822d75", "is_disabled": 0, "is_reserved": 0}, {"rental_uris": {"ios": "https://dc.lft.to/lastmile_qr_scan", "android": "https://dc.lft.to/lastmile_qr_scan"}, "lon": -76.989976, "type": "electric_scooter", "fusion_lat": 0.0, "lat": 38.9039135, "name": "4f6a548b36d306777b5094262f2da727", "fusion_lon": 0.0, "bike_id": "4f6a548b36d306777b5094262f2da727", "is_disabled": 0, "is_reserved": 0}, {"rental_uris": {"ios": "https://dc.lft.to/lastmile_qr_scan", "android": "https://dc.lft.to/lastmile_qr_scan"}, "lon": -77.0102255, "type": "electric_scooter", "fusion_lat": 0.0, "lat": 38.91805866666667, "name": "69f6aee6edb2b9e47771d62ec777bca7", "fusion_lon": 0.0, "bike_id": "69f6aee6edb2b9e47771d62ec777bca7", "is_disabled": 0, "is_reserved": 0}, {"rental_uris": {"ios": "https://dc.lft.to/lastmile_qr_scan", "android": "https://dc.lft.to/lastmile_qr_scan"}, "lon": -76.998429, "type": "electric_scooter", "fusion_lat": 0.0, "lat": 38.90062783333333, "name": "3e464dfdf403a36b77751fad3227a8d4", "fusion_lon": 0.0, "bike_id": "3e464dfdf403a36b77751fad3227a8d4", "is_disabled": 0, "is_reserved": 0}, {"rental_uris": {"ios": "https://dc.lft.to/lastmile_qr_scan", "android": "https://dc.lft.to/lastmile_qr_scan"}, "lon": -77.03754266666667, "type": "electric_scooter", "fusion_lat": 0.0, "lat": 38.9125735, "name": "fe9cf3284f5effa885f761d842b8030f", "fusion_lon": 0.0, "bike_id": "fe9cf3284f5effa885f761d842b8030f", "is_disabled": 0, "is_reserved": 0}, {"rental_uris": {"ios": "https://dc.lft.to/lastmile_qr_scan", "android": "https://dc.lft.to/lastmile_qr_scan"}, "lon": -77.05756383333333, "type": "electric_scooter", "fusion_lat": 0.0, "lat": 38.934177166666665, "name": "bf8e1af86e2a6b0a9f17553c98dd9507", "fusion_lon": 0.0, "bike_id": "bf8e1af86e2a6b0a9f17553c98dd9507", "is_disabled": 0, "is_reserved": 0}, {"rental_uris": {"ios": "https://dc.lft.to/lastmile_qr_scan", "android": "https://dc.lft.to/lastmile_qr_scan"}, "lon": -77.05931633333333, "type": "electric_scooter", "fusion_lat": 0.0, "lat": 38.909555, "name": "3c3328cea2728bd28d7e1c454c4ea84a", "fusion_lon": 0.0, "bike_id": "3c3328cea2728bd28d7e1c454c4ea84a", "is_disabled": 0, "is_reserved": 0}, {"rental_uris": {"ios": "https://dc.lft.to/lastmile_qr_scan", "android": "https://dc.lft.to/lastmile_qr_scan"}, "lon": -77.0199065, "type": "electric_scooter", "fusion_lat": 0.0, "lat": 38.937806, "name": "96f8f380fc4d9f913ffb142201606833", "fusion_lon": 0.0, "bike_id": "96f8f380fc4d9f913ffb142201606833", "is_disabled": 0, "is_reserved": 0}, {"rental_uris": {"ios": "https://dc.lft.to/lastmile_qr_scan", "android": "https://dc.lft.to/lastmile_qr_scan"}, "lon": -76.9955455, "type": "electric_scooter", "fusion_lat": 0.0, "lat": 38.8623365, "name": "eb0e44423d2162ffe70b54b20e13dea7", "fusion_lon": 0.0, "bike_id": "eb0e44423d2162ffe70b54b20e13dea7", "is_disabled": 0, "is_reserved": 0}, {"rental_uris": {"ios": "https://dc.lft.to/lastmile_qr_scan", "android": "https://dc.lft.to/lastmile_qr_scan"}, "lon": -77.0027995, "type": "electric_scooter", "fusion_lat": 0.0, "lat": 38.897356, "name": "a3c781e31b7363fd699a5db49d896b82", "fusion_lon": 0.0, "bike_id": "a3c781e31b7363fd699a5db49d896b82", "is_disabled": 0, "is_reserved": 0}, {"rental_uris": {"ios": "https://dc.lft.to/lastmile_qr_scan", "android": "https://dc.lft.to/lastmile_qr_scan"}, "lon": -77.1050745, "type": "electric_bike", "fusion_lat": 0.0, "lat": 38.92845466666667, "name": "5347a3530d3a7f2e939043325c95333c", "fusion_lon": 0.0, "bike_id": "5347a3530d3a7f2e939043325c95333c", "is_disabled": 0, "is_reserved": 0}, {"rental_uris": {"ios": "https://dc.lft.to/lastmile_qr_scan", "android": "https://dc.lft.to/lastmile_qr_scan"}, "lon": -77.02211483333333, "type": "electric_scooter", "fusion_lat": 0.0, "lat": 38.88768316666667, "name": "47b1718ee222d045437c66a75b425ade", "fusion_lon": 0.0, "bike_id": "47b1718ee222d045437c66a75b425ade", "is_disabled": 0, "is_reserved": 0}, {"rental_uris": {"ios": "https://dc.lft.to/lastmile_qr_scan", "android": "https://dc.lft.to/lastmile_qr_scan"}, "lon": -77.0551425, "type": "electric_scooter", "fusion_lat": 0.0, "lat": 38.899271666666664, "name": "fb1a440641f3cc14830a7330b897cf53", "fusion_lon": 0.0, "bike_id": "fb1a440641f3cc14830a7330b897cf53", "is_disabled": 0, "is_reserved": 0}, {"rental_uris": {"ios": "https://dc.lft.to/lastmile_qr_scan", "android": "https://dc.lft.to/lastmile_qr_scan"}, "lon": -76.98413966666666, "type": "electric_scooter", "fusion_lat": 0.0, "lat": 38.8597245, "name": "3eb51b22c4f0cfcb9f1635e2c8e2634a", "fusion_lon": 0.0, "bike_id": "3eb51b22c4f0cfcb9f1635e2c8e2634a", "is_disabled": 0, "is_reserved": 0}, {"rental_uris": {"ios": "https://dc.lft.to/lastmile_qr_scan", "android": "https://dc.lft.to/lastmile_qr_scan"}, "lon": -77.00657583333333, "type": "electric_scooter", "fusion_lat": 0.0, "lat": 38.9446255, "name": "bf1aa89cbbcb414bdd93a139d26e3352", "fusion_lon": 0.0, "bike_id": "bf1aa89cbbcb414bdd93a139d26e3352", "is_disabled": 0, "is_reserved": 0}, {"rental_uris": {"ios": "https://dc.lft.to/lastmile_qr_scan", "android": "https://dc.lft.to/lastmile_qr_scan"}, "lon": -77.08941166666666, "type": "electric_bike", "fusion_lat": 0.0, "lat": 38.840993, "name": "6435d2872236ca6a024127e6c91655eb", "fusion_lon": 0.0, "bike_id": "6435d2872236ca6a024127e6c91655eb", "is_disabled": 0, "is_reserved": 0}, {"rental_uris": {"ios": "https://dc.lft.to/lastmile_qr_scan", "android": "https://dc.lft.to/lastmile_qr_scan"}, "lon": -77.03093466666667, "type": "electric_scooter", "fusion_lat": 0.0, "lat": 38.90025833333333, "name": "86ae5275e14f3371effeb1888a2d2aea", "fusion_lon": 0.0, "bike_id": "86ae5275e14f3371effeb1888a2d2aea", "is_disabled": 0, "is_reserved": 0}, {"rental_uris": {"ios": "https://dc.lft.to/lastmile_qr_scan", "android": "https://dc.lft.to/lastmile_qr_scan"}, "lon": -77.04479166666667, "type": "electric_scooter", "fusion_lat": 0.0, "lat": 38.91568733333333, "name": "ff2dbb685acbb4a2409e789e09ddd52f", "fusion_lon": 0.0, "bike_id": "ff2dbb685acbb4a2409e789e09ddd52f", "is_disabled": 0, "is_reserved": 0}, {"rental_uris": {"ios": "https://dc.lft.to/lastmile_qr_scan", "android": "https://dc.lft.to/lastmile_qr_scan"}, "lon": -77.0151585, "type": "electric_scooter", "fusion_lat": 0.0, "lat": 38.91611916666667, "name": "244b657fb00d221ae44bc8e5f4e45050", "fusion_lon": 0.0, "bike_id": "244b657fb00d221ae44bc8e5f4e45050", "is_disabled": 0, "is_reserved": 0}, {"rental_uris": {"ios": "https://dc.lft.to/lastmile_qr_scan", "android": "https://dc.lft.to/lastmile_qr_scan"}, "lon": -77.02624333333333, "type": "electric_scooter", "fusion_lat": 0.0, "lat": 38.927883333333334, "name": "98a1862e989e38a36070ba69b345092b", "fusion_lon": 0.0, "bike_id": "98a1862e989e38a36070ba69b345092b", "is_disabled": 0, "is_reserved": 0}, {"rental_uris": {"ios": "https://dc.lft.to/lastmile_qr_scan", "android": "https://dc.lft.to/lastmile_qr_scan"}, "lon": -76.99336266666667, "type": "electric_bike", "fusion_lat": 0.0, "lat": 38.9619655, "name": "135b2344c3ffe3c5e004dda5f61a930d", "fusion_lon": 0.0, "bike_id": "135b2344c3ffe3c5e004dda5f61a930d", "is_disabled": 0, "is_reserved": 0}, {"rental_uris": {"ios": "https://dc.lft.to/lastmile_qr_scan", "android": "https://dc.lft.to/lastmile_qr_scan"}, "lon": -77.0293135, "type": "electric_scooter", "fusion_lat": 0.0, "lat": 38.88222116666667, "name": "62b5d4276ec2789b879ad1781e33f5b3", "fusion_lon": 0.0, "bike_id": "62b5d4276ec2789b879ad1781e33f5b3", "is_disabled": 0, "is_reserved": 0}, {"rental_uris": {"ios": "https://dc.lft.to/lastmile_qr_scan", "android": "https://dc.lft.to/lastmile_qr_scan"}, "lon": -77.07362616666667, "type": "electric_scooter", "fusion_lat": 0.0, "lat": 38.937394833333336, "name": "22c19f8917b0dcd3ac32aa4d119a9b99", "fusion_lon": 0.0, "bike_id": "22c19f8917b0dcd3ac32aa4d119a9b99", "is_disabled": 0, "is_reserved": 0}, {"rental_uris": {"ios": "https://dc.lft.to/lastmile_qr_scan", "android": "https://dc.lft.to/lastmile_qr_scan"}, "lon": -77.01865983333333, "type": "electric_scooter", "fusion_lat": 0.0, "lat": 38.94888783333333, "name": "ba9b95ceb2c9eb89a0b2dbf7c78ade4a", "fusion_lon": 0.0, "bike_id": "ba9b95ceb2c9eb89a0b2dbf7c78ade4a", "is_disabled": 0, "is_reserved": 0}, {"rental_uris": {"ios": "https://dc.lft.to/lastmile_qr_scan", "android": "https://dc.lft.to/lastmile_qr_scan"}, "lon": -77.055643, "type": "electric_scooter", "fusion_lat": 0.0, "lat": 38.899874, "name": "8b616de634e93e81345c94174cb4d21b", "fusion_lon": 0.0, "bike_id": "8b616de634e93e81345c94174cb4d21b", "is_disabled": 0, "is_reserved": 0}, {"rental_uris": {"ios": "https://dc.lft.to/lastmile_qr_scan", "android": "https://dc.lft.to/lastmile_qr_scan"}, "lon": -76.9762355, "type": "electric_scooter", "fusion_lat": 0.0, "lat": 38.905719, "name": "ba617c8684617d1c4076c3e6f248a7f8", "fusion_lon": 0.0, "bike_id": "ba617c8684617d1c4076c3e6f248a7f8", "is_disabled": 0, "is_reserved": 0}, {"rental_uris": {"ios": "https://dc.lft.to/lastmile_qr_scan", "android": "https://dc.lft.to/lastmile_qr_scan"}, "lon": -77.04823916666666, "type": "electric_scooter", "fusion_lat": 0.0, "lat": 38.897238, "name": "fd41dba01a9a281fcf6271744e1756bc", "fusion_lon": 0.0, "bike_id": "fd41dba01a9a281fcf6271744e1756bc", "is_disabled": 0, "is_reserved": 0}, {"rental_uris": {"ios": "https://dc.lft.to/lastmile_qr_scan", "android": "https://dc.lft.to/lastmile_qr_scan"}, "lon": -77.06646133333334, "type": "electric_scooter", "fusion_lat": 0.0, "lat": 38.9137485, "name": "cbf48e139bdad451e628d5bf36043add", "fusion_lon": 0.0, "bike_id": "cbf48e139bdad451e628d5bf36043add", "is_disabled": 0, "is_reserved": 0}, {"rental_uris": {"ios": "https://dc.lft.to/lastmile_qr_scan", "android": "https://dc.lft.to/lastmile_qr_scan"}, "lon": -77.03185683333334, "type": "electric_scooter", "fusion_lat": 0.0, "lat": 38.90844533333333, "name": "67d66a073d0e9a05f311f0eb71f03e95", "fusion_lon": 0.0, "bike_id": "67d66a073d0e9a05f311f0eb71f03e95", "is_disabled": 0, "is_reserved": 0}, {"rental_uris": {"ios": "https://dc.lft.to/lastmile_qr_scan", "android": "https://dc.lft.to/lastmile_qr_scan"}, "lon": -77.02981283333334, "type": "electric_bike", "fusion_lat": 0.0, "lat": 38.93699616666667, "name": "6ef0e42edecdb00d7765560925e0bb62", "fusion_lon": 0.0, "bike_id": "6ef0e42edecdb00d7765560925e0bb62", "is_disabled": 0, "is_reserved": 0}, {"rental_uris": {"ios": "https://dc.lft.to/lastmile_qr_scan", "android": "https://dc.lft.to/lastmile_qr_scan"}, "lon": -76.9652695, "type": "electric_scooter", "fusion_lat": 0.0, "lat": 38.8762885, "name": "f34c7fb2d7d7f7a44d336b202cdc0208", "fusion_lon": 0.0, "bike_id": "f34c7fb2d7d7f7a44d336b202cdc0208", "is_disabled": 0, "is_reserved": 0}, {"rental_uris": {"ios": "https://dc.lft.to/lastmile_qr_scan", "android": "https://dc.lft.to/lastmile_qr_scan"}, "lon": -77.04607133333333, "type": "electric_scooter", "fusion_lat": 0.0, "lat": 38.902565333333335, "name": "c58f77ae1746d2549c67a1a4f92200fa", "fusion_lon": 0.0, "bike_id": "c58f77ae1746d2549c67a1a4f92200fa", "is_disabled": 0, "is_reserved": 0}, {"rental_uris": {"ios": "https://dc.lft.to/lastmile_qr_scan", "android": "https://dc.lft.to/lastmile_qr_scan"}, "lon": -77.023929, "type": "electric_scooter", "fusion_lat": 0.0, "lat": 38.95290833333333, "name": "f101eca4b543fb9e4cf7e0f0c2184b76", "fusion_lon": 0.0, "bike_id": "f101eca4b543fb9e4cf7e0f0c2184b76", "is_disabled": 0, "is_reserved": 0}, {"rental_uris": {"ios": "https://dc.lft.to/lastmile_qr_scan", "android": "https://dc.lft.to/lastmile_qr_scan"}, "lon": -77.0258705, "type": "electric_scooter", "fusion_lat": 0.0, "lat": 38.914971, "name": "847ca33254e218d9c2483105d15b949c", "fusion_lon": 0.0, "bike_id": "847ca33254e218d9c2483105d15b949c", "is_disabled": 0, "is_reserved": 0}, {"rental_uris": {"ios": "https://dc.lft.to/lastmile_qr_scan", "android": "https://dc.lft.to/lastmile_qr_scan"}, "lon": -77.017662, "type": "electric_scooter", "fusion_lat": 0.0, "lat": 38.900315, "name": "cdc47858ae56f0afd963f4c9a7b988fa", "fusion_lon": 0.0, "bike_id": "cdc47858ae56f0afd963f4c9a7b988fa", "is_disabled": 0, "is_reserved": 0}, {"rental_uris": {"ios": "https://dc.lft.to/lastmile_qr_scan", "android": "https://dc.lft.to/lastmile_qr_scan"}, "lon": -77.0098015, "type": "electric_scooter", "fusion_lat": 0.0, "lat": 38.914821333333336, "name": "3bf062aff0f5854a4ba515332c984cb9", "fusion_lon": 0.0, "bike_id": "3bf062aff0f5854a4ba515332c984cb9", "is_disabled": 0, "is_reserved": 0}, {"rental_uris": {"ios": "https://dc.lft.to/lastmile_qr_scan", "android": "https://dc.lft.to/lastmile_qr_scan"}, "lon": -77.03772116666667, "type": "electric_scooter", "fusion_lat": 0.0, "lat": 38.93588866666666, "name": "5b5c953c1a94a6d6d2335f5f507874b7", "fusion_lon": 0.0, "bike_id": "5b5c953c1a94a6d6d2335f5f507874b7", "is_disabled": 0, "is_reserved": 0}, {"rental_uris": {"ios": "https://dc.lft.to/lastmile_qr_scan", "android": "https://dc.lft.to/lastmile_qr_scan"}, "lon": -77.0356345, "type": "electric_scooter", "fusion_lat": 0.0, "lat": 38.908644333333335, "name": "21da38a099f22ee2673822cafe4a5cdc", "fusion_lon": 0.0, "bike_id": "21da38a099f22ee2673822cafe4a5cdc", "is_disabled": 0, "is_reserved": 0}, {"rental_uris": {"ios": "https://dc.lft.to/lastmile_qr_scan", "android": "https://dc.lft.to/lastmile_qr_scan"}, "lon": -77.01052033333333, "type": "electric_scooter", "fusion_lat": 0.0, "lat": 38.879388166666665, "name": "4b15d064567f944260ed7284ed4d8a1d", "fusion_lon": 0.0, "bike_id": "4b15d064567f944260ed7284ed4d8a1d", "is_disabled": 0, "is_reserved": 0}, {"rental_uris": {"ios": "https://dc.lft.to/lastmile_qr_scan", "android": "https://dc.lft.to/lastmile_qr_scan"}, "lon": -77.067576, "type": "electric_scooter", "fusion_lat": 0.0, "lat": 38.915646333333335, "name": "75f997e6906abecca28b8403e4157221", "fusion_lon": 0.0, "bike_id": "75f997e6906abecca28b8403e4157221", "is_disabled": 0, "is_reserved": 0}, {"rental_uris": {"ios": "https://dc.lft.to/lastmile_qr_scan", "android": "https://dc.lft.to/lastmile_qr_scan"}, "lon": -77.01115333333334, "type": "electric_scooter", "fusion_lat": 0.0, "lat": 38.9079345, "name": "8d621ae7bd9cd86e252b247ca12bdd53", "fusion_lon": 0.0, "bike_id": "8d621ae7bd9cd86e252b247ca12bdd53", "is_disabled": 0, "is_reserved": 0}, {"rental_uris": {"ios": "https://dc.lft.to/lastmile_qr_scan", "android": "https://dc.lft.to/lastmile_qr_scan"}, "lon": -77.025923, "type": "electric_scooter", "fusion_lat": 0.0, "lat": 38.8959835, "name": "218e80dc46e9439cce777d01c79b7b92", "fusion_lon": 0.0, "bike_id": "218e80dc46e9439cce777d01c79b7b92", "is_disabled": 0, "is_reserved": 0}, {"rental_uris": {"ios": "https://dc.lft.to/lastmile_qr_scan", "android": "https://dc.lft.to/lastmile_qr_scan"}, "lon": -76.9662925, "type": "electric_bike", "fusion_lat": 0.0, "lat": 38.942052833333335, "name": "331b7a240a1b8b89a0dbe982bf15e86b", "fusion_lon": 0.0, "bike_id": "331b7a240a1b8b89a0dbe982bf15e86b", "is_disabled": 0, "is_reserved": 0}, {"rental_uris": {"ios": "https://dc.lft.to/lastmile_qr_scan", "android": "https://dc.lft.to/lastmile_qr_scan"}, "lon": -77.02110316666666, "type": "electric_scooter", "fusion_lat": 0.0, "lat": 38.91315566666667, "name": "2df3098f5f7bcc60949880359c0fb278", "fusion_lon": 0.0, "bike_id": "2df3098f5f7bcc60949880359c0fb278", "is_disabled": 0, "is_reserved": 0}, {"rental_uris": {"ios": "https://dc.lft.to/lastmile_qr_scan", "android": "https://dc.lft.to/lastmile_qr_scan"}, "lon": -76.93756866666666, "type": "electric_scooter", "fusion_lat": 0.0, "lat": 38.89051166666667, "name": "69cd7876277be1f0ba99b3b84fd41a70", "fusion_lon": 0.0, "bike_id": "69cd7876277be1f0ba99b3b84fd41a70", "is_disabled": 0, "is_reserved": 0}, {"rental_uris": {"ios": "https://dc.lft.to/lastmile_qr_scan", "android": "https://dc.lft.to/lastmile_qr_scan"}, "lon": -77.02028266666666, "type": "electric_scooter", "fusion_lat": 0.0, "lat": 38.932234, "name": "d238822613f94d4a39eeeac3626f1613", "fusion_lon": 0.0, "bike_id": "d238822613f94d4a39eeeac3626f1613", "is_disabled": 0, "is_reserved": 0}, {"rental_uris": {"ios": "https://dc.lft.to/lastmile_qr_scan", "android": "https://dc.lft.to/lastmile_qr_scan"}, "lon": -77.02647683333333, "type": "electric_scooter", "fusion_lat": 0.0, "lat": 38.93858316666667, "name": "6bd6f138a8aa25ed6fb87221d11ef5d3", "fusion_lon": 0.0, "bike_id": "6bd6f138a8aa25ed6fb87221d11ef5d3", "is_disabled": 0, "is_reserved": 0}, {"rental_uris": {"ios": "https://dc.lft.to/lastmile_qr_scan", "android": "https://dc.lft.to/lastmile_qr_scan"}, "lon": -77.00591766666666, "type": "electric_scooter", "fusion_lat": 0.0, "lat": 38.90243733333333, "name": "b6ab56c31ecb599ba742c7b101a85c75", "fusion_lon": 0.0, "bike_id": "b6ab56c31ecb599ba742c7b101a85c75", "is_disabled": 0, "is_reserved": 0}, {"rental_uris": {"ios": "https://dc.lft.to/lastmile_qr_scan", "android": "https://dc.lft.to/lastmile_qr_scan"}, "lon": -77.04009766666667, "type": "electric_scooter", "fusion_lat": 0.0, "lat": 38.8888865, "name": "b2ec3d5b9b05141aa3ed2aaec9f02664", "fusion_lon": 0.0, "bike_id": "b2ec3d5b9b05141aa3ed2aaec9f02664", "is_disabled": 0, "is_reserved": 0}, {"rental_uris": {"ios": "https://dc.lft.to/lastmile_qr_scan", "android": "https://dc.lft.to/lastmile_qr_scan"}, "lon": -77.03168766666667, "type": "electric_scooter", "fusion_lat": 0.0, "lat": 38.913172833333334, "name": "c0b2805c17c5d6cdd4321f41c73f43aa", "fusion_lon": 0.0, "bike_id": "c0b2805c17c5d6cdd4321f41c73f43aa", "is_disabled": 0, "is_reserved": 0}, {"rental_uris": {"ios": "https://dc.lft.to/lastmile_qr_scan", "android": "https://dc.lft.to/lastmile_qr_scan"}, "lon": -76.98171683333334, "type": "electric_scooter", "fusion_lat": 0.0, "lat": 38.895786333333334, "name": "cc4ec64fa77bbf5e4ba47669706bc78e", "fusion_lon": 0.0, "bike_id": "cc4ec64fa77bbf5e4ba47669706bc78e", "is_disabled": 0, "is_reserved": 0}, {"rental_uris": {"ios": "https://dc.lft.to/lastmile_qr_scan", "android": "https://dc.lft.to/lastmile_qr_scan"}, "lon": -77.03263566666666, "type": "electric_scooter", "fusion_lat": 0.0, "lat": 38.928105333333335, "name": "1a8f325bd6a5088ed4948a9c74fd3c94", "fusion_lon": 0.0, "bike_id": "1a8f325bd6a5088ed4948a9c74fd3c94", "is_disabled": 0, "is_reserved": 0}, {"rental_uris": {"ios": "https://dc.lft.to/lastmile_qr_scan", "android": "https://dc.lft.to/lastmile_qr_scan"}, "lon": -76.98257533333333, "type": "electric_scooter", "fusion_lat": 0.0, "lat": 38.908651666666664, "name": "506ad2754a0b7409ce11aedc919fd06b", "fusion_lon": 0.0, "bike_id": "506ad2754a0b7409ce11aedc919fd06b", "is_disabled": 0, "is_reserved": 0}, {"rental_uris": {"ios": "https://dc.lft.to/lastmile_qr_scan", "android": "https://dc.lft.to/lastmile_qr_scan"}, "lon": -77.0193665, "type": "electric_scooter", "fusion_lat": 0.0, "lat": 38.90245766666666, "name": "e84fb8ac3c8c15e74023bd2f8b7ed325", "fusion_lon": 0.0, "bike_id": "e84fb8ac3c8c15e74023bd2f8b7ed325", "is_disabled": 0, "is_reserved": 0}, {"rental_uris": {"ios": "https://dc.lft.to/lastmile_qr_scan", "android": "https://dc.lft.to/lastmile_qr_scan"}, "lon": -77.04185683333333, "type": "electric_scooter", "fusion_lat": 0.0, "lat": 38.9200595, "name": "7c7123fe489db9835d9c1c5e106ba301", "fusion_lon": 0.0, "bike_id": "7c7123fe489db9835d9c1c5e106ba301", "is_disabled": 0, "is_reserved": 0}, {"rental_uris": {"ios": "https://dc.lft.to/lastmile_qr_scan", "android": "https://dc.lft.to/lastmile_qr_scan"}, "lon": -77.0097505, "type": "electric_scooter", "fusion_lat": 0.0, "lat": 38.919234833333334, "name": "9cda6a2b3f0a93cee2354f82378e2a32", "fusion_lon": 0.0, "bike_id": "9cda6a2b3f0a93cee2354f82378e2a32", "is_disabled": 0, "is_reserved": 0}, {"rental_uris": {"ios": "https://dc.lft.to/lastmile_qr_scan", "android": "https://dc.lft.to/lastmile_qr_scan"}, "lon": -77.01871966666667, "type": "electric_scooter", "fusion_lat": 0.0, "lat": 38.887455, "name": "6005ca7c6a1852fadbcb5635d9b6ee4c", "fusion_lon": 0.0, "bike_id": "6005ca7c6a1852fadbcb5635d9b6ee4c", "is_disabled": 0, "is_reserved": 0}, {"rental_uris": {"ios": "https://dc.lft.to/lastmile_qr_scan", "android": "https://dc.lft.to/lastmile_qr_scan"}, "lon": -77.02183683333334, "type": "electric_scooter", "fusion_lat": 0.0, "lat": 38.939500833333334, "name": "8254f6c69ee527b4b42fe145b9cc42db", "fusion_lon": 0.0, "bike_id": "8254f6c69ee527b4b42fe145b9cc42db", "is_disabled": 0, "is_reserved": 0}, {"rental_uris": {"ios": "https://dc.lft.to/lastmile_qr_scan", "android": "https://dc.lft.to/lastmile_qr_scan"}, "lon": -77.04543416666667, "type": "electric_scooter", "fusion_lat": 0.0, "lat": 38.933933, "name": "14f8d92e67d77505424f0de61c3cc4fa", "fusion_lon": 0.0, "bike_id": "14f8d92e67d77505424f0de61c3cc4fa", "is_disabled": 0, "is_reserved": 0}, {"rental_uris": {"ios": "https://dc.lft.to/lastmile_qr_scan", "android": "https://dc.lft.to/lastmile_qr_scan"}, "lon": -77.02554416666666, "type": "electric_scooter", "fusion_lat": 0.0, "lat": 38.924716333333336, "name": "40fc542e4fe9169e1fb6506f4a7de092", "fusion_lon": 0.0, "bike_id": "40fc542e4fe9169e1fb6506f4a7de092", "is_disabled": 0, "is_reserved": 0}, {"rental_uris": {"ios": "https://dc.lft.to/lastmile_qr_scan", "android": "https://dc.lft.to/lastmile_qr_scan"}, "lon": -77.0301945, "type": "electric_scooter", "fusion_lat": 0.0, "lat": 38.9101405, "name": "c47941be21847cfe45fb6ce6905edcb6", "fusion_lon": 0.0, "bike_id": "c47941be21847cfe45fb6ce6905edcb6", "is_disabled": 0, "is_reserved": 0}, {"rental_uris": {"ios": "https://dc.lft.to/lastmile_qr_scan", "android": "https://dc.lft.to/lastmile_qr_scan"}, "lon": -76.94890533333333, "type": "electric_scooter", "fusion_lat": 0.0, "lat": 38.895307833333334, "name": "2749e62239af49e0ce5b264a9a7e1e0d", "fusion_lon": 0.0, "bike_id": "2749e62239af49e0ce5b264a9a7e1e0d", "is_disabled": 0, "is_reserved": 0}, {"rental_uris": {"ios": "https://dc.lft.to/lastmile_qr_scan", "android": "https://dc.lft.to/lastmile_qr_scan"}, "lon": -76.90938016666666, "type": "electric_bike", "fusion_lat": 0.0, "lat": 38.8540335, "name": "72a4498f317c8673ed9c6d1d1810ae8f", "fusion_lon": 0.0, "bike_id": "72a4498f317c8673ed9c6d1d1810ae8f", "is_disabled": 0, "is_reserved": 0}, {"rental_uris": {"ios": "https://dc.lft.to/lastmile_qr_scan", "android": "https://dc.lft.to/lastmile_qr_scan"}, "lon": -77.05163666666667, "type": "electric_scooter", "fusion_lat": 0.0, "lat": 38.90585083333333, "name": "e383d7db45c71f1772aa610c11e4e77d", "fusion_lon": 0.0, "bike_id": "e383d7db45c71f1772aa610c11e4e77d", "is_disabled": 0, "is_reserved": 0}, {"rental_uris": {"ios": "https://dc.lft.to/lastmile_qr_scan", "android": "https://dc.lft.to/lastmile_qr_scan"}, "lon": -77.05072783333334, "type": "electric_scooter", "fusion_lat": 0.0, "lat": 38.89609, "name": "9d4df15110ffdc59083524ebce78a36c", "fusion_lon": 0.0, "bike_id": "9d4df15110ffdc59083524ebce78a36c", "is_disabled": 0, "is_reserved": 0}, {"rental_uris": {"ios": "https://dc.lft.to/lastmile_qr_scan", "android": "https://dc.lft.to/lastmile_qr_scan"}, "lon": -76.97204516666666, "type": "electric_scooter", "fusion_lat": 0.0, "lat": 38.85502, "name": "3c53f90f13137801912542fb975654c8", "fusion_lon": 0.0, "bike_id": "3c53f90f13137801912542fb975654c8", "is_disabled": 0, "is_reserved": 0}, {"rental_uris": {"ios": "https://dc.lft.to/lastmile_qr_scan", "android": "https://dc.lft.to/lastmile_qr_scan"},