{"data": {"bikes": [{"bike_id": "17bb8ad7c2b6fbf21945d66a6f0eac9f", "lon": -77.05391116666667, "lat": 38.90522816666667, "fusion_lon": 0.0, "rental_uris": {"ios": "https://dc.lft.to/lastmile_qr_scan", "android": "https://dc.lft.to/lastmile_qr_scan"}, "is_disabled": 0, "is_reserved": 0, "name": "17bb8ad7c2b6fbf21945d66a6f0eac9f", "type": "electric_scooter", "fusion_lat": 0.0}, {"bike_id": "b2c849d93ceddefefc70a81eed114ea8", "lon": -77.02204883333333, "lat": 38.9198595, "fusion_lon": 0.0, "rental_uris": {"ios": "https://dc.lft.to/lastmile_qr_scan", "android": "https://dc.lft.to/lastmile_qr_scan"}, "is_disabled": 0, "is_reserved": 0, "name": "b2c849d93ceddefefc70a81eed114ea8", "type": "electric_scooter", "fusion_lat": 0.0}, {"bike_id": "86a5e485c65bc31a762c450153e9dc2b", "lon": -77.01520466666666, "lat": 38.9004305, "fusion_lon": 0.0, "rental_uris": {"ios": "https://dc.lft.to/lastmile_qr_scan", "android": "https://dc.lft.to/lastmile_qr_scan"}, "is_disabled": 0, "is_reserved": 0, "name": "86a5e485c65bc31a762c450153e9dc2b", "type": "electric_scooter", "fusion_lat": 0.0}, {"bike_id": "8bdd697cfb4c71472e254abd23f2e8b8", "lon": -76.98883166666667, "lat": 38.866585666666666, "fusion_lon": 0.0, "rental_uris": {"ios": "https://dc.lft.to/lastmile_qr_scan", "android": "https://dc.lft.to/lastmile_qr_scan"}, "is_disabled": 0, "is_reserved": 0, "name": "8bdd697cfb4c71472e254abd23f2e8b8", "type": "electric_scooter", "fusion_lat": 0.0}, {"bike_id": "8082f35a84084a68945000cbdf44f1cf", "lon": -77.030845, "lat": 38.90752233333333, "fusion_lon": 0.0, "rental_uris": {"ios": "https://dc.lft.to/lastmile_qr_scan", "android": "https://dc.lft.to/lastmile_qr_scan"}, "is_disabled": 0, "is_reserved": 0, "name": "8082f35a84084a68945000cbdf44f1cf", "type": "electric_scooter", "fusion_lat": 0.0}, {"bike_id": "be912474755828c166c74b46407779f4", "lon": -77.0371025, "lat": 38.91655333333333, "fusion_lon": 0.0, "rental_uris": {"ios": "https://dc.lft.to/lastmile_qr_scan", "android": "https://dc.lft.to/lastmile_qr_scan"}, "is_disabled": 0, "is_reserved": 0, "name": "be912474755828c166c74b46407779f4", "type": "electric_scooter", "fusion_lat": 0.0}, {"bike_id": "e147ce2254d2b84a9dc822bac853c9a3", "lon": -77.0044045, "lat": 38.990028333333335, "fusion_lon": 0.0, "rental_uris": {"ios": "https://dc.lft.to/lastmile_qr_scan", "android": "https://dc.lft.to/lastmile_qr_scan"}, "is_disabled": 0, "is_reserved": 0, "name": "e147ce2254d2b84a9dc822bac853c9a3", "type": "electric_bike", "fusion_lat": 0.0}, {"bike_id": "bcfac0f3fd27e08c8c74a47e48a1ccb5", "lon": -77.01280683333333, "lat": 38.95650166666667, "fusion_lon": 0.0, "rental_uris": {"ios": "https://dc.lft.to/lastmile_qr_scan", "android": "https://dc.lft.to/lastmile_qr_scan"}, "is_disabled": 0, "is_reserved": 0, "name": "bcfac0f3fd27e08c8c74a47e48a1ccb5", "type": "electric_bike", "fusion_lat": 0.0}, {"bike_id": "e382ec8ab2042b202da66b7853a7998a", "lon": -77.01553933333334, "lat": 38.89365133333333, "fusion_lon": 0.0, "rental_uris": {"ios": "https://dc.lft.to/lastmile_qr_scan", "android": "https://dc.lft.to/lastmile_qr_scan"}, "is_disabled": 0, "is_reserved": 0, "name": "e382ec8ab2042b202da66b7853a7998a", "type": "electric_scooter", "fusion_lat": 0.0}, {"bike_id": "91a5e80cfdfc37617cddf2ea90123f3c", "lon": -77.010836, "lat": 38.917444333333336, "fusion_lon": 0.0, "rental_uris": {"ios": "https://dc.lft.to/lastmile_qr_scan", "android": "https://dc.lft.to/lastmile_qr_scan"}, "is_disabled": 0, "is_reserved": 0, "name": "91a5e80cfdfc37617cddf2ea90123f3c", "type": "electric_scooter", "fusion_lat": 0.0}, {"bike_id": "dd5cb09119b0cb8b680bf91841d53603", "lon": -77.03272566666666, "lat": 38.92846216666667, "fusion_lon": 0.0, "rental_uris": {"ios": "https://dc.lft.to/lastmile_qr_scan", "android": "https://dc.lft.to/lastmile_qr_scan"}, "is_disabled": 0, "is_reserved": 0, "name": "dd5cb09119b0cb8b680bf91841d53603", "type": "electric_scooter", "fusion_lat": 0.0}, {"bike_id": "42debd37a79e57a4e1e6a4dd868937fd", "lon": -77.02281483333333, "lat": 38.878379333333335, "fusion_lon": 0.0, "rental_uris": {"ios": "https://dc.lft.to/lastmile_qr_scan", "android": "https://dc.lft.to/lastmile_qr_scan"}, "is_disabled": 0, "is_reserved": 0, "name": "42debd37a79e57a4e1e6a4dd868937fd", "type": "electric_scooter", "fusion_lat": 0.0}, {"bike_id": "d8281adaf9bf5f0fc9f1e2b7a08fe2e1", "lon": -77.03151916666667, "lat": 38.927952166666664, "fusion_lon": 0.0, "rental_uris": {"ios": "https://dc.lft.to/lastmile_qr_scan", "android": "https://dc.lft.to/lastmile_qr_scan"}, "is_disabled": 0, "is_reserved": 0, "name": "d8281adaf9bf5f0fc9f1e2b7a08fe2e1", "type": "electric_scooter", "fusion_lat": 0.0}, {"bike_id": "f3c66dba09f21ea862b47596edd8e3f6", "lon": -77.01627533333334, "lat": 38.9289775, "fusion_lon": 0.0, "rental_uris": {"ios": "https://dc.lft.to/lastmile_qr_scan", "android": "https://dc.lft.to/lastmile_qr_scan"}, "is_disabled": 0, "is_reserved": 0, "name": "f3c66dba09f21ea862b47596edd8e3f6", "type": "electric_scooter", "fusion_lat": 0.0}, {"bike_id": "8a7a9d22abf679b806250b7a734d6b18", "lon": -76.93699416666666, "lat": 38.890167166666664, "fusion_lon": 0.0, "rental_uris": {"ios": "https://dc.lft.to/lastmile_qr_scan", "android": "https://dc.lft.to/lastmile_qr_scan"}, "is_disabled": 0, "is_reserved": 0, "name": "8a7a9d22abf679b806250b7a734d6b18", "type": "electric_scooter", "fusion_lat": 0.0}, {"bike_id": "cdafafe4783424bc2957ea5924bcb99a", "lon": -77.02849366666666, "lat": 38.901263166666666, "fusion_lon": 0.0, "rental_uris": {"ios": "https://dc.lft.to/lastmile_qr_scan", "android": "https://dc.lft.to/lastmile_qr_scan"}, "is_disabled": 0, "is_reserved": 0, "name": "cdafafe4783424bc2957ea5924bcb99a", "type": "electric_scooter", "fusion_lat": 0.0}, {"bike_id": "f7b8857e795975b21145b13eb5b01abb", "lon": -77.09468433333333, "lat": 38.869376833333334, "fusion_lon": 0.0, "rental_uris": {"ios": "https://dc.lft.to/lastmile_qr_scan", "android": "https://dc.lft.to/lastmile_qr_scan"}, "is_disabled": 0, "is_reserved": 0, "name": "f7b8857e795975b21145b13eb5b01abb", "type": "electric_bike", "fusion_lat": 0.0}, {"bike_id": "867477f9fb95ea431cd0c621d7600954", "lon": -77.01268083333333, "lat": 38.901934, "fusion_lon": 0.0, "rental_uris": {"ios": "https://dc.lft.to/lastmile_qr_scan", "android": "https://dc.lft.to/lastmile_qr_scan"}, "is_disabled": 0, "is_reserved": 0, "name": "867477f9fb95ea431cd0c621d7600954", "type": "electric_scooter", "fusion_lat": 0.0}, {"bike_id": "4d3b19ffa51116509ae66ba3e2844b3c", "lon": -77.02125233333334, "lat": 38.93577766666667, "fusion_lon": 0.0, "rental_uris": {"ios": "https://dc.lft.to/lastmile_qr_scan", "android": "https://dc.lft.to/lastmile_qr_scan"}, "is_disabled": 0, "is_reserved": 0, "name": "4d3b19ffa51116509ae66ba3e2844b3c", "type": "electric_scooter", "fusion_lat": 0.0}, {"bike_id": "c1c6f8bc72103ae3e5c81257c8c13322", "lon": -77.02637216666666, "lat": 38.936536833333335, "fusion_lon": 0.0, "rental_uris": {"ios": "https://dc.lft.to/lastmile_qr_scan", "android": "https://dc.lft.to/lastmile_qr_scan"}, "is_disabled": 0, "is_reserved": 0, "name": "c1c6f8bc72103ae3e5c81257c8c13322", "type": "electric_scooter", "fusion_lat": 0.0}, {"bike_id": "7c3a390a3bf9aa0d481ef133137036a4", "lon": -77.024562, "lat": 38.918295, "fusion_lon": 0.0, "rental_uris": {"ios": "https://dc.lft.to/lastmile_qr_scan", "android": "https://dc.lft.to/lastmile_qr_scan"}, "is_disabled": 0, "is_reserved": 0, "name": "7c3a390a3bf9aa0d481ef133137036a4", "type": "electric_scooter", "fusion_lat": 0.0}, {"bike_id": "e34a6fad8e6f42baadbed4a35b33fe92", "lon": -77.02381466666667, "lat": 38.932103166666664, "fusion_lon": 0.0, "rental_uris": {"ios": "https://dc.lft.to/lastmile_qr_scan", "android": "https://dc.lft.to/lastmile_qr_scan"}, "is_disabled": 0, "is_reserved": 0, "name": "e34a6fad8e6f42baadbed4a35b33fe92", "type": "electric_bike", "fusion_lat": 0.0}, {"bike_id": "baebd9e629d20571cb4631e3c44d6a9b", "lon": -77.02847933333334, "lat": 38.887437166666665, "fusion_lon": 0.0, "rental_uris": {"ios": "https://dc.lft.to/lastmile_qr_scan", "android": "https://dc.lft.to/lastmile_qr_scan"}, "is_disabled": 0, "is_reserved": 0, "name": "baebd9e629d20571cb4631e3c44d6a9b", "type": "electric_scooter", "fusion_lat": 0.0}, {"bike_id": "df2172a2f09f42aad42ed72b8a83223f", "lon": -76.9574765, "lat": 38.88458833333333, "fusion_lon": 0.0, "rental_uris": {"ios": "https://dc.lft.to/lastmile_qr_scan", "android": "https://dc.lft.to/lastmile_qr_scan"}, "is_disabled": 0, "is_reserved": 0, "name": "df2172a2f09f42aad42ed72b8a83223f", "type": "electric_scooter", "fusion_lat": 0.0}, {"bike_id": "752e64e885e6e25366c930ab075921df", "lon": -77.02715316666666, "lat": 38.909055333333335, "fusion_lon": 0.0, "rental_uris": {"ios": "https://dc.lft.to/lastmile_qr_scan", "android": "https://dc.lft.to/lastmile_qr_scan"}, "is_disabled": 0, "is_reserved": 0, "name": "752e64e885e6e25366c930ab075921df", "type": "electric_scooter", "fusion_lat": 0.0}, {"bike_id": "5d6a761b8ec0a0441c6939c31240e7c0", "lon": -77.025786, "lat": 38.94401666666667, "fusion_lon": 0.0, "rental_uris": {"ios": "https://dc.lft.to/lastmile_qr_scan", "android": "https://dc.lft.to/lastmile_qr_scan"}, "is_disabled": 0, "is_reserved": 0, "name": "5d6a761b8ec0a0441c6939c31240e7c0", "type": "electric_scooter", "fusion_lat": 0.0}, {"bike_id": "9d577badf44b295a55035922f94cc4a9", "lon": -77.05011316666666, "lat": 38.89310116666667, "fusion_lon": 0.0, "rental_uris": {"ios": "https://dc.lft.to/lastmile_qr_scan", "android": "https://dc.lft.to/lastmile_qr_scan"}, "is_disabled": 0, "is_reserved": 0, "name": "9d577badf44b295a55035922f94cc4a9", "type": "electric_scooter", "fusion_lat": 0.0}, {"bike_id": "6ab90d0f5aa8d7a45402ae80ceb2d130", "lon": -77.0057365, "lat": 38.871977666666666, "fusion_lon": 0.0, "rental_uris": {"ios": "https://dc.lft.to/lastmile_qr_scan", "android": "https://dc.lft.to/lastmile_qr_scan"}, "is_disabled": 0, "is_reserved": 0, "name": "6ab90d0f5aa8d7a45402ae80ceb2d130", "type": "electric_scooter", "fusion_lat": 0.0}, {"bike_id": "e708b6ef17c11dfcc1f48faa4f367e8b", "lon": -76.99644283333333, "lat": 38.9044555, "fusion_lon": 0.0, "rental_uris": {"ios": "https://dc.lft.to/lastmile_qr_scan", "android": "https://dc.lft.to/lastmile_qr_scan"}, "is_disabled": 0, "is_reserved": 0, "name": "e708b6ef17c11dfcc1f48faa4f367e8b", "type": "electric_scooter", "fusion_lat": 0.0}, {"bike_id": "f47260b76f3faa5783129252961a2fbb", "lon": -77.02505183333334, "lat": 38.941995, "fusion_lon": 0.0, "rental_uris": {"ios": "https://dc.lft.to/lastmile_qr_scan", "android": "https://dc.lft.to/lastmile_qr_scan"}, "is_disabled": 0, "is_reserved": 0, "name": "f47260b76f3faa5783129252961a2fbb", "type": "electric_scooter", "fusion_lat": 0.0}, {"bike_id": "f808d05b1352d629f1aba814cbdac517", "lon": -77.02734566666666, "lat": 38.887481, "fusion_lon": 0.0, "rental_uris": {"ios": "https://dc.lft.to/lastmile_qr_scan", "android": "https://dc.lft.to/lastmile_qr_scan"}, "is_disabled": 0, "is_reserved": 0, "name": "f808d05b1352d629f1aba814cbdac517", "type": "electric_scooter", "fusion_lat": 0.0}, {"bike_id": "be2914f6c2f6cb5805dff7db8612853a", "lon": -77.0412235, "lat": 38.902775166666665, "fusion_lon": 0.0, "rental_uris": {"ios": "https://dc.lft.to/lastmile_qr_scan", "android": "https://dc.lft.to/lastmile_qr_scan"}, "is_disabled": 0, "is_reserved": 0, "name": "be2914f6c2f6cb5805dff7db8612853a", "type": "electric_scooter", "fusion_lat": 0.0}, {"bike_id": "73007be8838f9570bbb9606fbfe7b9d2", "lon": -77.02858866666666, "lat": 38.897308333333335, "fusion_lon": 0.0, "rental_uris": {"ios": "https://dc.lft.to/lastmile_qr_scan", "android": "https://dc.lft.to/lastmile_qr_scan"}, "is_disabled": 0, "is_reserved": 0, "name": "73007be8838f9570bbb9606fbfe7b9d2", "type": "electric_scooter", "fusion_lat": 0.0}, {"bike_id": "76939aaa6b2eb42674fbb1acae541e3a", "lon": -77.02392283333333, "lat": 38.91146666666667, "fusion_lon": 0.0, "rental_uris": {"ios": "https://dc.lft.to/lastmile_qr_scan", "android": "https://dc.lft.to/lastmile_qr_scan"}, "is_disabled": 0, "is_reserved": 0, "name": "76939aaa6b2eb42674fbb1acae541e3a", "type": "electric_scooter", "fusion_lat": 0.0}, {"bike_id": "2a773316c59a8d91fe5bfa4bf31f94be", "lon": -77.036424, "lat": 38.917421, "fusion_lon": 0.0, "rental_uris": {"ios": "https://dc.lft.to/lastmile_qr_scan", "android": "https://dc.lft.to/lastmile_qr_scan"}, "is_disabled": 0, "is_reserved": 0, "name": "2a773316c59a8d91fe5bfa4bf31f94be", "type": "electric_scooter", "fusion_lat": 0.0}, {"bike_id": "7aff972a4a2a6e505180d0cdcbe73ea1", "lon": -77.0476995, "lat": 38.917679666666665, "fusion_lon": 0.0, "rental_uris": {"ios": "https://dc.lft.to/lastmile_qr_scan", "android": "https://dc.lft.to/lastmile_qr_scan"}, "is_disabled": 0, "is_reserved": 0, "name": "7aff972a4a2a6e505180d0cdcbe73ea1", "type": "electric_scooter", "fusion_lat": 0.0}, {"bike_id": "4e754954778fd7982a5fa21b59ca5256", "lon": -77.04287383333333, "lat": 38.9080695, "fusion_lon": 0.0, "rental_uris": {"ios": "https://dc.lft.to/lastmile_qr_scan", "android": "https://dc.lft.to/lastmile_qr_scan"}, "is_disabled": 0, "is_reserved": 0, "name": "4e754954778fd7982a5fa21b59ca5256", "type": "electric_scooter", "fusion_lat": 0.0}, {"bike_id": "a4d798d3e94b662237c0943c8eec8f52", "lon": -76.97343116666667, "lat": 38.86519916666666, "fusion_lon": 0.0, "rental_uris": {"ios": "https://dc.lft.to/lastmile_qr_scan", "android": "https://dc.lft.to/lastmile_qr_scan"}, "is_disabled": 0, "is_reserved": 0, "name": "a4d798d3e94b662237c0943c8eec8f52", "type": "electric_bike", "fusion_lat": 0.0}, {"bike_id": "54836776224a9009823168b2cf3c2e41", "lon": -76.995358, "lat": 38.926671, "fusion_lon": 0.0, "rental_uris": {"ios": "https://dc.lft.to/lastmile_qr_scan", "android": "https://dc.lft.to/lastmile_qr_scan"}, "is_disabled": 0, "is_reserved": 0, "name": "54836776224a9009823168b2cf3c2e41", "type": "electric_scooter", "fusion_lat": 0.0}, {"bike_id": "4af05838681a1a5fbc9ff99f2960ccb4", "lon": -77.00784683333333, "lat": 38.89725583333333, "fusion_lon": 0.0, "rental_uris": {"ios": "https://dc.lft.to/lastmile_qr_scan", "android": "https://dc.lft.to/lastmile_qr_scan"}, "is_disabled": 0, "is_reserved": 0, "name": "4af05838681a1a5fbc9ff99f2960ccb4", "type": "electric_scooter", "fusion_lat": 0.0}, {"bike_id": "5c80cf569760cac5ef6b514f0f7a0b5d", "lon": -77.03511016666667, "lat": 38.92164433333333, "fusion_lon": 0.0, "rental_uris": {"ios": "https://dc.lft.to/lastmile_qr_scan", "android": "https://dc.lft.to/lastmile_qr_scan"}, "is_disabled": 0, "is_reserved": 0, "name": "5c80cf569760cac5ef6b514f0f7a0b5d", "type": "electric_scooter", "fusion_lat": 0.0}, {"bike_id": "1295b0b6e980d92edfa42f0e3ecbf2b7", "lon": -77.03122, "lat": 38.916939166666666, "fusion_lon": 0.0, "rental_uris": {"ios": "https://dc.lft.to/lastmile_qr_scan", "android": "https://dc.lft.to/lastmile_qr_scan"}, "is_disabled": 0, "is_reserved": 0, "name": "1295b0b6e980d92edfa42f0e3ecbf2b7", "type": "electric_scooter", "fusion_lat": 0.0}, {"bike_id": "ce268ba13158844a2153d1a9513e6c12", "lon": -77.0456575, "lat": 38.909642833333336, "fusion_lon": 0.0, "rental_uris": {"ios": "https://dc.lft.to/lastmile_qr_scan", "android": "https://dc.lft.to/lastmile_qr_scan"}, "is_disabled": 0, "is_reserved": 0, "name": "ce268ba13158844a2153d1a9513e6c12", "type": "electric_scooter", "fusion_lat": 0.0}, {"bike_id": "11d9fb3c0865e507bb8356adbd4b30f5", "lon": -77.03064616666667, "lat": 38.927762, "fusion_lon": 0.0, "rental_uris": {"ios": "https://dc.lft.to/lastmile_qr_scan", "android": "https://dc.lft.to/lastmile_qr_scan"}, "is_disabled": 0, "is_reserved": 0, "name": "11d9fb3c0865e507bb8356adbd4b30f5", "type": "electric_scooter", "fusion_lat": 0.0}, {"bike_id": "c3344e03519788d0750f00f55a0f90ba", "lon": -77.027324, "lat": 38.95175966666667, "fusion_lon": 0.0, "rental_uris": {"ios": "https://dc.lft.to/lastmile_qr_scan", "android": "https://dc.lft.to/lastmile_qr_scan"}, "is_disabled": 0, "is_reserved": 0, "name": "c3344e03519788d0750f00f55a0f90ba", "type": "electric_scooter", "fusion_lat": 0.0}, {"bike_id": "a36621324b3870b7a11b2430085b8900", "lon": -76.98767333333333, "lat": 38.85771283333333, "fusion_lon": 0.0, "rental_uris": {"ios": "https://dc.lft.to/lastmile_qr_scan", "android": "https://dc.lft.to/lastmile_qr_scan"}, "is_disabled": 0, "is_reserved": 0, "name": "a36621324b3870b7a11b2430085b8900", "type": "electric_bike", "fusion_lat": 0.0}, {"bike_id": "e71b5c5384e10cb831c6cc32da1596b1", "lon": -76.97717516666667, "lat": 38.898971333333336, "fusion_lon": 0.0, "rental_uris": {"ios": "https://dc.lft.to/lastmile_qr_scan", "android": "https://dc.lft.to/lastmile_qr_scan"}, "is_disabled": 0, "is_reserved": 0, "name": "e71b5c5384e10cb831c6cc32da1596b1", "type": "electric_scooter", "fusion_lat": 0.0}, {"bike_id": "0d4a0f0d6467b32ae493fbffacd9f6bb", "lon": -77.027784, "lat": 38.95531066666667, "fusion_lon": 0.0, "rental_uris": {"ios": "https://dc.lft.to/lastmile_qr_scan", "android": "https://dc.lft.to/lastmile_qr_scan"}, "is_disabled": 0, "is_reserved": 0, "name": "0d4a0f0d6467b32ae493fbffacd9f6bb", "type": "electric_scooter", "fusion_lat": 0.0}, {"bike_id": "862443b9a722c75f6cb90390225121f4", "lon": -77.01682533333333, "lat": 38.97123766666667, "fusion_lon": 0.0, "rental_uris": {"ios": "https://dc.lft.to/lastmile_qr_scan", "android": "https://dc.lft.to/lastmile_qr_scan"}, "is_disabled": 0, "is_reserved": 0, "name": "862443b9a722c75f6cb90390225121f4", "type": "electric_scooter", "fusion_lat": 0.0}, {"bike_id": "8e6caf9ddcd0878bf54709aeffc24d52", "lon": -77.05821483333334, "lat": 38.935277166666665, "fusion_lon": 0.0, "rental_uris": {"ios": "https://dc.lft.to/lastmile_qr_scan", "android": "https://dc.lft.to/lastmile_qr_scan"}, "is_disabled": 0, "is_reserved": 0, "name": "8e6caf9ddcd0878bf54709aeffc24d52", "type": "electric_scooter", "fusion_lat": 0.0}, {"bike_id": "9511823513f6c6d7f63354e82f29c397", "lon": -77.03669083333334, "lat": 38.908023666666665, "fusion_lon": 0.0, "rental_uris": {"ios": "https://dc.lft.to/lastmile_qr_scan", "android": "https://dc.lft.to/lastmile_qr_scan"}, "is_disabled": 0, "is_reserved": 0, "name": "9511823513f6c6d7f63354e82f29c397", "type": "electric_scooter", "fusion_lat": 0.0}, {"bike_id": "6e2261dc137fe09390a616aab287f3b1", "lon": -77.01717016666667, "lat": 38.89345316666667, "fusion_lon": 0.0, "rental_uris": {"ios": "https://dc.lft.to/lastmile_qr_scan", "android": "https://dc.lft.to/lastmile_qr_scan"}, "is_disabled": 0, "is_reserved": 0, "name": "6e2261dc137fe09390a616aab287f3b1", "type": "electric_scooter", "fusion_lat": 0.0}, {"bike_id": "ccd1d8f7ef39b74127f93c8e2d25b70e", "lon": -77.043531, "lat": 38.921587, "fusion_lon": 0.0, "rental_uris": {"ios": "https://dc.lft.to/lastmile_qr_scan", "android": "https://dc.lft.to/lastmile_qr_scan"}, "is_disabled": 0, "is_reserved": 0, "name": "ccd1d8f7ef39b74127f93c8e2d25b70e", "type": "electric_scooter", "fusion_lat": 0.0}, {"bike_id": "79edee28d78ea8564b9bdc54c8351ed2", "lon": -77.09523166666666, "lat": 38.83811466666667, "fusion_lon": 0.0, "rental_uris": {"ios": "https://dc.lft.to/lastmile_qr_scan", "android": "https://dc.lft.to/lastmile_qr_scan"}, "is_disabled": 0, "is_reserved": 0, "name": "79edee28d78ea8564b9bdc54c8351ed2", "type": "electric_bike", "fusion_lat": 0.0}, {"bike_id": "d743eb2712d80804d992b1106d2530c8", "lon": -77.0487525, "lat": 38.893220666666664, "fusion_lon": 0.0, "rental_uris": {"ios": "https://dc.lft.to/lastmile_qr_scan", "android": "https://dc.lft.to/lastmile_qr_scan"}, "is_disabled": 0, "is_reserved": 0, "name": "d743eb2712d80804d992b1106d2530c8", "type": "electric_scooter", "fusion_lat": 0.0}, {"bike_id": "1f2bd6fc352141c35db6066790b833c9", "lon": -77.041471, "lat": 38.926468, "fusion_lon": 0.0, "rental_uris": {"ios": "https://dc.lft.to/lastmile_qr_scan", "android": "https://dc.lft.to/lastmile_qr_scan"}, "is_disabled": 0, "is_reserved": 0, "name": "1f2bd6fc352141c35db6066790b833c9", "type": "electric_scooter", "fusion_lat": 0.0}, {"bike_id": "72f5cfdfbfb065b2d795ad139dd21bda", "lon": -77.04504233333333, "lat": 38.90552983333333, "fusion_lon": 0.0, "rental_uris": {"ios": "https://dc.lft.to/lastmile_qr_scan", "android": "https://dc.lft.to/lastmile_qr_scan"}, "is_disabled": 0, "is_reserved": 0, "name": "72f5cfdfbfb065b2d795ad139dd21bda", "type": "electric_scooter", "fusion_lat": 0.0}, {"bike_id": "c107da7800a28dc1b8e60a300ed50be7", "lon": -77.02404866666667, "lat": 38.909605166666665, "fusion_lon": 0.0, "rental_uris": {"ios": "https://dc.lft.to/lastmile_qr_scan", "android": "https://dc.lft.to/lastmile_qr_scan"}, "is_disabled": 0, "is_reserved": 0, "name": "c107da7800a28dc1b8e60a300ed50be7", "type": "electric_scooter", "fusion_lat": 0.0}, {"bike_id": "c12a10ac8affb9d6d41a5da71b39cdfa", "lon": -76.98508733333334, "lat": 38.88084666666666, "fusion_lon": 0.0, "rental_uris": {"ios": "https://dc.lft.to/lastmile_qr_scan", "android": "https://dc.lft.to/lastmile_qr_scan"}, "is_disabled": 0, "is_reserved": 0, "name": "c12a10ac8affb9d6d41a5da71b39cdfa", "type": "electric_scooter", "fusion_lat": 0.0}, {"bike_id": "17aec0b9089c9aae91f15ba8b19042ad", "lon": -77.02487283333333, "lat": 38.938659333333334, "fusion_lon": 0.0, "rental_uris": {"ios": "https://dc.lft.to/lastmile_qr_scan", "android": "https://dc.lft.to/lastmile_qr_scan"}, "is_disabled": 0, "is_reserved": 0, "name": "17aec0b9089c9aae91f15ba8b19042ad", "type": "electric_scooter", "fusion_lat": 0.0}, {"bike_id": "33c3000eb5a461f47d5287e0a41d3765", "lon": -76.99255933333333, "lat": 38.88266133333333, "fusion_lon": 0.0, "rental_uris": {"ios": "https://dc.lft.to/lastmile_qr_scan", "android": "https://dc.lft.to/lastmile_qr_scan"}, "is_disabled": 0, "is_reserved": 0, "name": "33c3000eb5a461f47d5287e0a41d3765", "type": "electric_scooter", "fusion_lat": 0.0}, {"bike_id": "5f90b239208ba9291488148a3d050f8a", "lon": -77.04199866666667, "lat": 38.90741516666667, "fusion_lon": 0.0, "rental_uris": {"ios": "https://dc.lft.to/lastmile_qr_scan", "android": "https://dc.lft.to/lastmile_qr_scan"}, "is_disabled": 0, "is_reserved": 0, "name": "5f90b239208ba9291488148a3d050f8a", "type": "electric_scooter", "fusion_lat": 0.0}, {"bike_id": "a21b65c1e37a633ab8623939fb336ab4", "lon": -77.032147, "lat": 38.91744033333333, "fusion_lon": 0.0, "rental_uris": {"ios": "https://dc.lft.to/lastmile_qr_scan", "android": "https://dc.lft.to/lastmile_qr_scan"}, "is_disabled": 0, "is_reserved": 0, "name": "a21b65c1e37a633ab8623939fb336ab4", "type": "electric_scooter", "fusion_lat": 0.0}, {"bike_id": "803e216e948ac83869fc00418f375143", "lon": -77.07163783333333, "lat": 38.908699666666664, "fusion_lon": 0.0, "rental_uris": {"ios": "https://dc.lft.to/lastmile_qr_scan", "android": "https://dc.lft.to/lastmile_qr_scan"}, "is_disabled": 0, "is_reserved": 0, "name": "803e216e948ac83869fc00418f375143", "type": "electric_scooter", "fusion_lat": 0.0}, {"bike_id": "c93c3c2f1167a6087fe002033a5f6f63", "lon": -77.0416965, "lat": 38.91514333333333, "fusion_lon": 0.0, "rental_uris": {"ios": "https://dc.lft.to/lastmile_qr_scan", "android": "https://dc.lft.to/lastmile_qr_scan"}, "is_disabled": 0, "is_reserved": 0, "name": "c93c3c2f1167a6087fe002033a5f6f63", "type": "electric_scooter", "fusion_lat": 0.0}, {"bike_id": "83075f1f9c7ba79272bf28bfbf919309", "lon": -77.04187683333333, "lat": 38.92336683333333, "fusion_lon": 0.0, "rental_uris": {"ios": "https://dc.lft.to/lastmile_qr_scan", "android": "https://dc.lft.to/lastmile_qr_scan"}, "is_disabled": 0, "is_reserved": 0, "name": "83075f1f9c7ba79272bf28bfbf919309", "type": "electric_scooter", "fusion_lat": 0.0}, {"bike_id": "60c95278256ad066f8dadb7290739baa", "lon": -77.02302266666666, "lat": 38.92012366666667, "fusion_lon": 0.0, "rental_uris": {"ios": "https://dc.lft.to/lastmile_qr_scan", "android": "https://dc.lft.to/lastmile_qr_scan"}, "is_disabled": 0, "is_reserved": 0, "name": "60c95278256ad066f8dadb7290739baa", "type": "electric_scooter", "fusion_lat": 0.0}, {"bike_id": "a59a919cb7e4dc912eefdf1321e41433", "lon": -77.00912866666667, "lat": 38.827860333333334, "fusion_lon": 0.0, "rental_uris": {"ios": "https://dc.lft.to/lastmile_qr_scan", "android": "https://dc.lft.to/lastmile_qr_scan"}, "is_disabled": 0, "is_reserved": 0, "name": "a59a919cb7e4dc912eefdf1321e41433", "type": "electric_bike", "fusion_lat": 0.0}, {"bike_id": "4af4244bc73f57ebc3cdd7ca24d64a50", "lon": -77.011255, "lat": 38.898754833333335, "fusion_lon": 0.0, "rental_uris": {"ios": "https://dc.lft.to/lastmile_qr_scan", "android": "https://dc.lft.to/lastmile_qr_scan"}, "is_disabled": 0, "is_reserved": 0, "name": "4af4244bc73f57ebc3cdd7ca24d64a50", "type": "electric_scooter", "fusion_lat": 0.0}, {"bike_id": "e94005471393fc74c24cfe69e4e343f0", "lon": -77.01916683333333, "lat": 38.9022825, "fusion_lon": 0.0, "rental_uris": {"ios": "https://dc.lft.to/lastmile_qr_scan", "android": "https://dc.lft.to/lastmile_qr_scan"}, "is_disabled": 0, "is_reserved": 0, "name": "e94005471393fc74c24cfe69e4e343f0", "type": "electric_scooter", "fusion_lat": 0.0}, {"bike_id": "0b3ea97c99bbbb931de9a3fa1ae87308", "lon": -76.98482216666666, "lat": 38.90507066666667, "fusion_lon": 0.0, "rental_uris": {"ios": "https://dc.lft.to/lastmile_qr_scan", "android": "https://dc.lft.to/lastmile_qr_scan"}, "is_disabled": 0, "is_reserved": 0, "name": "0b3ea97c99bbbb931de9a3fa1ae87308", "type": "electric_scooter", "fusion_lat": 0.0}, {"bike_id": "7e6a4e0dc1d03f2666cebcb234c9dae5", "lon": -76.98912366666667, "lat": 38.8705795, "fusion_lon": 0.0, "rental_uris": {"ios": "https://dc.lft.to/lastmile_qr_scan", "android": "https://dc.lft.to/lastmile_qr_scan"}, "is_disabled": 0, "is_reserved": 0, "name": "7e6a4e0dc1d03f2666cebcb234c9dae5", "type": "electric_scooter", "fusion_lat": 0.0}, {"bike_id": "37bf6f14cb908a68e4fd44d211da770c", "lon": -77.05438233333334, "lat": 38.8979995, "fusion_lon": 0.0, "rental_uris": {"ios": "https://dc.lft.to/lastmile_qr_scan", "android": "https://dc.lft.to/lastmile_qr_scan"}, "is_disabled": 0, "is_reserved": 0, "name": "37bf6f14cb908a68e4fd44d211da770c", "type": "electric_scooter", "fusion_lat": 0.0}, {"bike_id": "773ec7f0f8155b9257077d837561a344", "lon": -77.03250616666666, "lat": 38.918188, "fusion_lon": 0.0, "rental_uris": {"ios": "https://dc.lft.to/lastmile_qr_scan", "android": "https://dc.lft.to/lastmile_qr_scan"}, "is_disabled": 0, "is_reserved": 0, "name": "773ec7f0f8155b9257077d837561a344", "type": "electric_scooter", "fusion_lat": 0.0}, {"bike_id": "d88560c0a7ffa3aeeb5545a956b5fdb0", "lon": -77.0197965, "lat": 38.945181166666664, "fusion_lon": 0.0, "rental_uris": {"ios": "https://dc.lft.to/lastmile_qr_scan", "android": "https://dc.lft.to/lastmile_qr_scan"}, "is_disabled": 0, "is_reserved": 0, "name": "d88560c0a7ffa3aeeb5545a956b5fdb0", "type": "electric_scooter", "fusion_lat": 0.0}, {"bike_id": "a1efb45d65a5b3f87756ea6bb3a5ac01", "lon": -77.021994, "lat": 38.910121, "fusion_lon": 0.0, "rental_uris": {"ios": "https://dc.lft.to/lastmile_qr_scan", "android": "https://dc.lft.to/lastmile_qr_scan"}, "is_disabled": 0, "is_reserved": 0, "name": "a1efb45d65a5b3f87756ea6bb3a5ac01", "type": "electric_scooter", "fusion_lat": 0.0}, {"bike_id": "18280211204c292ff3cefa665e4b5366", "lon": -77.036161, "lat": 38.922945, "fusion_lon": 0.0, "rental_uris": {"ios": "https://dc.lft.to/lastmile_qr_scan", "android": "https://dc.lft.to/lastmile_qr_scan"}, "is_disabled": 0, "is_reserved": 0, "name": "18280211204c292ff3cefa665e4b5366", "type": "electric_bike", "fusion_lat": 0.0}, {"bike_id": "2a0772f5a9592238af1088c5b03b3232", "lon": -77.0406245, "lat": 38.9176715, "fusion_lon": 0.0, "rental_uris": {"ios": "https://dc.lft.to/lastmile_qr_scan", "android": "https://dc.lft.to/lastmile_qr_scan"}, "is_disabled": 0, "is_reserved": 0, "name": "2a0772f5a9592238af1088c5b03b3232", "type": "electric_scooter", "fusion_lat": 0.0}, {"bike_id": "37e9ca272fb3a73a0571b6d2357219c2", "lon": -77.03122883333333, "lat": 38.92306933333333, "fusion_lon": 0.0, "rental_uris": {"ios": "https://dc.lft.to/lastmile_qr_scan", "android": "https://dc.lft.to/lastmile_qr_scan"}, "is_disabled": 0, "is_reserved": 0, "name": "37e9ca272fb3a73a0571b6d2357219c2", "type": "electric_scooter", "fusion_lat": 0.0}, {"bike_id": "ddd46b983ef919e0c96222a5bd8c3868", "lon": -77.01769383333334, "lat": 38.881080833333336, "fusion_lon": 0.0, "rental_uris": {"ios": "https://dc.lft.to/lastmile_qr_scan", "android": "https://dc.lft.to/lastmile_qr_scan"}, "is_disabled": 0, "is_reserved": 0, "name": "ddd46b983ef919e0c96222a5bd8c3868", "type": "electric_scooter", "fusion_lat": 0.0}, {"bike_id": "34e69dfbe022b14309939df47cd1b6f7", "lon": -77.03913566666667, "lat": 38.9064105, "fusion_lon": 0.0, "rental_uris": {"ios": "https://dc.lft.to/lastmile_qr_scan", "android": "https://dc.lft.to/lastmile_qr_scan"}, "is_disabled": 0, "is_reserved": 0, "name": "34e69dfbe022b14309939df47cd1b6f7", "type": "electric_scooter", "fusion_lat": 0.0}, {"bike_id": "532b53285a3d758ad238cb0e2d300416", "lon": -77.02409716666666, "lat": 38.92195316666667, "fusion_lon": 0.0, "rental_uris": {"ios": "https://dc.lft.to/lastmile_qr_scan", "android": "https://dc.lft.to/lastmile_qr_scan"}, "is_disabled": 0, "is_reserved": 0, "name": "532b53285a3d758ad238cb0e2d300416", "type": "electric_bike", "fusion_lat": 0.0}, {"bike_id": "08940a565565b75b5a68c75bb6619396", "lon": -77.032068, "lat": 38.9157675, "fusion_lon": 0.0, "rental_uris": {"ios": "https://dc.lft.to/lastmile_qr_scan", "android": "https://dc.lft.to/lastmile_qr_scan"}, "is_disabled": 0, "is_reserved": 0, "name": "08940a565565b75b5a68c75bb6619396", "type": "electric_scooter", "fusion_lat": 0.0}, {"bike_id": "56b53934082f885761369cb371504e6f", "lon": -77.026476, "lat": 38.98457166666667, "fusion_lon": 0.0, "rental_uris": {"ios": "https://dc.lft.to/lastmile_qr_scan", "android": "https://dc.lft.to/lastmile_qr_scan"}, "is_disabled": 0, "is_reserved": 0, "name": "56b53934082f885761369cb371504e6f", "type": "electric_scooter", "fusion_lat": 0.0}, {"bike_id": "f32151788b97b57c7b3bd60fcebffb30", "lon": -77.03150166666667, "lat": 38.911152666666666, "fusion_lon": 0.0, "rental_uris": {"ios": "https://dc.lft.to/lastmile_qr_scan", "android": "https://dc.lft.to/lastmile_qr_scan"}, "is_disabled": 0, "is_reserved": 0, "name": "f32151788b97b57c7b3bd60fcebffb30", "type": "electric_scooter", "fusion_lat": 0.0}, {"bike_id": "be393bfff5b9cbddb63e5fb437f1709e", "lon": -77.01873683333334, "lat": 38.92136383333333, "fusion_lon": 0.0, "rental_uris": {"ios": "https://dc.lft.to/lastmile_qr_scan", "android": "https://dc.lft.to/lastmile_qr_scan"}, "is_disabled": 0, "is_reserved": 0, "name": "be393bfff5b9cbddb63e5fb437f1709e", "type": "electric_scooter", "fusion_lat": 0.0}, {"bike_id": "13d00adc70231d57e59255f0fa52ad64", "lon": -77.07687033333333, "lat": 38.925247666666664, "fusion_lon": 0.0, "rental_uris": {"ios": "https://dc.lft.to/lastmile_qr_scan", "android": "https://dc.lft.to/lastmile_qr_scan"}, "is_disabled": 0, "is_reserved": 0, "name": "13d00adc70231d57e59255f0fa52ad64", "type": "electric_scooter", "fusion_lat": 0.0}, {"bike_id": "27fb26e25334318a8f5ce35ab3baac20", "lon": -77.06884183333334, "lat": 38.91829833333333, "fusion_lon": 0.0, "rental_uris": {"ios": "https://dc.lft.to/lastmile_qr_scan", "android": "https://dc.lft.to/lastmile_qr_scan"}, "is_disabled": 0, "is_reserved": 0, "name": "27fb26e25334318a8f5ce35ab3baac20", "type": "electric_scooter", "fusion_lat": 0.0}, {"bike_id": "012842c924e4cba7eb9deb33fd5755da", "lon": -77.04500416666667, "lat": 38.9147385, "fusion_lon": 0.0, "rental_uris": {"ios": "https://dc.lft.to/lastmile_qr_scan", "android": "https://dc.lft.to/lastmile_qr_scan"}, "is_disabled": 0, "is_reserved": 0, "name": "012842c924e4cba7eb9deb33fd5755da", "type": "electric_scooter", "fusion_lat": 0.0}, {"bike_id": "980f3babef34079f211e75892e0b5da2", "lon": -77.02873433333333, "lat": 38.895059333333336, "fusion_lon": 0.0, "rental_uris": {"ios": "https://dc.lft.to/lastmile_qr_scan", "android": "https://dc.lft.to/lastmile_qr_scan"}, "is_disabled": 0, "is_reserved": 0, "name": "980f3babef34079f211e75892e0b5da2", "type": "electric_scooter", "fusion_lat": 0.0}, {"bike_id": "723895d0365cab373823a2d34ad4f18c", "lon": -76.93000666666667, "lat": 38.89703933333333, "fusion_lon": 0.0, "rental_uris": {"ios": "https://dc.lft.to/lastmile_qr_scan", "android": "https://dc.lft.to/lastmile_qr_scan"}, "is_disabled": 0, "is_reserved": 0, "name": "723895d0365cab373823a2d34ad4f18c", "type": "electric_scooter", "fusion_lat": 0.0}, {"bike_id": "24e3362d151914c5ec006ee475c0177e", "lon": -77.02491383333333, "lat": 38.917076333333334, "fusion_lon": 0.0, "rental_uris": {"ios": "https://dc.lft.to/lastmile_qr_scan", "android": "https://dc.lft.to/lastmile_qr_scan"}, "is_disabled": 0, "is_reserved": 0, "name": "24e3362d151914c5ec006ee475c0177e", "type": "electric_scooter", "fusion_lat": 0.0}, {"bike_id": "efa054419a4740a0f2e1b4835ea09dd3", "lon": -77.03175533333334, "lat": 38.90986983333333, "fusion_lon": 0.0, "rental_uris": {"ios": "https://dc.lft.to/lastmile_qr_scan", "android": "https://dc.lft.to/lastmile_qr_scan"}, "is_disabled": 0, "is_reserved": 0, "name": "efa054419a4740a0f2e1b4835ea09dd3", "type": "electric_scooter", "fusion_lat": 0.0}, {"bike_id": "fd2f1ca0de81b532be0cab6948af8727", "lon": -77.02309216666667, "lat": 38.916389833333334, "fusion_lon": 0.0, "rental_uris": {"ios": "https://dc.lft.to/lastmile_qr_scan", "android": "https://dc.lft.to/lastmile_qr_scan"}, "is_disabled": 0, "is_reserved": 0, "name": "fd2f1ca0de81b532be0cab6948af8727", "type": "electric_scooter", "fusion_lat": 0.0}, {"bike_id": "3beed1a76166c1c445743efc59965318", "lon": -77.00890783333334, "lat": 38.923616, "fusion_lon": 0.0, "rental_uris": {"ios": "https://dc.lft.to/lastmile_qr_scan", "android": "https://dc.lft.to/lastmile_qr_scan"}, "is_disabled": 0, "is_reserved": 0, "name": "3beed1a76166c1c445743efc59965318", "type": "electric_scooter", "fusion_lat": 0.0}, {"bike_id": "4062708c427b83fe9b0db39def9fd60e", "lon": -77.0230975, "lat": 38.9097125, "fusion_lon": 0.0, "rental_uris": {"ios": "https://dc.lft.to/lastmile_qr_scan", "android": "https://dc.lft.to/lastmile_qr_scan"}, "is_disabled": 0, "is_reserved": 0, "name": "4062708c427b83fe9b0db39def9fd60e", "type": "electric_scooter", "fusion_lat": 0.0}, {"bike_id": "d51f4cea8319e0aa38e126b5a44cc564", "lon": -77.045249, "lat": 38.903555833333336, "fusion_lon": 0.0, "rental_uris": {"ios": "https://dc.lft.to/lastmile_qr_scan", "android": "https://dc.lft.to/lastmile_qr_scan"}, "is_disabled": 0, "is_reserved": 0, "name": "d51f4cea8319e0aa38e126b5a44cc564", "type": "electric_scooter", "fusion_lat": 0.0}, {"bike_id": "255fc087209c703b0699ae90761fd2eb", "lon": -77.050013, "lat": 38.90374716666667, "fusion_lon": 0.0, "rental_uris": {"ios": "https://dc.lft.to/lastmile_qr_scan", "android": "https://dc.lft.to/lastmile_qr_scan"}, "is_disabled": 0, "is_reserved": 0, "name": "255fc087209c703b0699ae90761fd2eb", "type": "electric_scooter", "fusion_lat": 0.0}, {"bike_id": "31c04b98bf9fa96c668a097e229e1254", "lon": -77.03218666666666, "lat": 38.91992066666667, "fusion_lon": 0.0, "rental_uris": {"ios": "https://dc.lft.to/lastmile_qr_scan", "android": "https://dc.lft.to/lastmile_qr_scan"}, "is_disabled": 0, "is_reserved": 0, "name": "31c04b98bf9fa96c668a097e229e1254", "type": "electric_scooter", "fusion_lat": 0.0}, {"bike_id": "274c4bfec24e13f4ce8a0a2b73682132", "lon": -77.00062733333333, "lat": 38.907205166666664, "fusion_lon": 0.0, "rental_uris": {"ios": "https://dc.lft.to/lastmile_qr_scan", "android": "https://dc.lft.to/lastmile_qr_scan"}, "is_disabled": 0, "is_reserved": 0, "name": "274c4bfec24e13f4ce8a0a2b73682132", "type": "electric_scooter", "fusion_lat": 0.0}, {"bike_id": "702e96c43db938a9d06d4d26615d67b1", "lon": -77.02135333333334, "lat": 38.9368965, "fusion_lon": 0.0, "rental_uris": {"ios": "https://dc.lft.to/lastmile_qr_scan", "android": "https://dc.lft.to/lastmile_qr_scan"}, "is_disabled": 0, "is_reserved": 0, "name": "702e96c43db938a9d06d4d26615d67b1", "type": "electric_bike", "fusion_lat": 0.0}, {"bike_id": "12c4c4a794077c327a59c603d082c603", "lon": -77.07063966666666, "lat": 38.899253333333334, "fusion_lon": 0.0, "rental_uris": {"ios": "https://dc.lft.to/lastmile_qr_scan", "android": "https://dc.lft.to/lastmile_qr_scan"}, "is_disabled": 0, "is_reserved": 0, "name": "12c4c4a794077c327a59c603d082c603", "type": "electric_scooter", "fusion_lat": 0.0}, {"bike_id": "f3ee4cfdf868dc93652777b9ea1bae73", "lon": -76.98912733333333, "lat": 38.8663225, "fusion_lon": 0.0, "rental_uris": {"ios": "https://dc.lft.to/lastmile_qr_scan", "android": "https://dc.lft.to/lastmile_qr_scan"}, "is_disabled": 0, "is_reserved": 0, "name": "f3ee4cfdf868dc93652777b9ea1bae73", "type": "electric_scooter", "fusion_lat": 0.0}, {"bike_id": "264f9a43bd921d83b88a49871d054e6b", "lon": -77.04265333333333, "lat": 38.90860716666667, "fusion_lon": 0.0, "rental_uris": {"ios": "https://dc.lft.to/lastmile_qr_scan", "android": "https://dc.lft.to/lastmile_qr_scan"}, "is_disabled": 0, "is_reserved": 0, "name": "264f9a43bd921d83b88a49871d054e6b", "type": "electric_scooter", "fusion_lat": 0.0}, {"bike_id": "110dcf04f392567f7d19ae33396fbfa2", "lon": -77.00142883333334, "lat": 38.907454333333334, "fusion_lon": 0.0, "rental_uris": {"ios": "https://dc.lft.to/lastmile_qr_scan", "android": "https://dc.lft.to/lastmile_qr_scan"}, "is_disabled": 0, "is_reserved": 0, "name": "110dcf04f392567f7d19ae33396fbfa2", "type": "electric_scooter", "fusion_lat": 0.0}, {"bike_id": "c1d57ce8aa5d557d08514f90ab61c9a5", "lon": -77.01622533333334, "lat": 38.8981665, "fusion_lon": 0.0, "rental_uris": {"ios": "https://dc.lft.to/lastmile_qr_scan", "android": "https://dc.lft.to/lastmile_qr_scan"}, "is_disabled": 0, "is_reserved": 0, "name": "c1d57ce8aa5d557d08514f90ab61c9a5", "type": "electric_scooter", "fusion_lat": 0.0}, {"bike_id": "482a4b2f980c7a9b9ee7e3dc0fd033ad", "lon": -76.99702283333333, "lat": 38.93216283333334, "fusion_lon": 0.0, "rental_uris": {"ios": "https://dc.lft.to/lastmile_qr_scan", "android": "https://dc.lft.to/lastmile_qr_scan"}, "is_disabled": 0, "is_reserved": 0, "name": "482a4b2f980c7a9b9ee7e3dc0fd033ad", "type": "electric_scooter", "fusion_lat": 0.0}, {"bike_id": "e6e12ce1d617cf20a024e28e3660d0d1", "lon": -77.03572066666666, "lat": 38.9096455, "fusion_lon": 0.0, "rental_uris": {"ios": "https://dc.lft.to/lastmile_qr_scan", "android": "https://dc.lft.to/lastmile_qr_scan"}, "is_disabled": 0, "is_reserved": 0, "name": "e6e12ce1d617cf20a024e28e3660d0d1", "type": "electric_scooter", "fusion_lat": 0.0}, {"bike_id": "460299a48128e18eefd2494db794167e", "lon": -77.04557983333333, "lat": 38.90365833333333, "fusion_lon": 0.0, "rental_uris": {"ios": "https://dc.lft.to/lastmile_qr_scan", "android": "https://dc.lft.to/lastmile_qr_scan"}, "is_disabled": 0, "is_reserved": 0, "name": "460299a48128e18eefd2494db794167e", "type": "electric_scooter", "fusion_lat": 0.0}, {"bike_id": "c707f5fe8e39769026a563b033561526", "lon": -77.041628, "lat": 38.91983916666667, "fusion_lon": 0.0, "rental_uris": {"ios": "https://dc.lft.to/lastmile_qr_scan", "android": "https://dc.lft.to/lastmile_qr_scan"}, "is_disabled": 0, "is_reserved": 0, "name": "c707f5fe8e39769026a563b033561526", "type": "electric_scooter", "fusion_lat": 0.0}, {"bike_id": "5c22233cce28338144762448a43480f5", "lon": -76.93217666666666, "lat": 38.880637166666666, "fusion_lon": 0.0, "rental_uris": {"ios": "https://dc.lft.to/lastmile_qr_scan", "android": "https://dc.lft.to/lastmile_qr_scan"}, "is_disabled": 0, "is_reserved": 0, "name": "5c22233cce28338144762448a43480f5", "type": "electric_scooter", "fusion_lat": 0.0}, {"bike_id": "31fdbf0a17c0d2aa861296eebdcf67f5", "lon": -77.02737033333334, "lat": 38.89995583333334, "fusion_lon": 0.0, "rental_uris": {"ios": "https://dc.lft.to/lastmile_qr_scan", "android": "https://dc.lft.to/lastmile_qr_scan"}, "is_disabled": 0, "is_reserved": 0, "name": "31fdbf0a17c0d2aa861296eebdcf67f5", "type": "electric_scooter", "fusion_lat": 0.0}, {"bike_id": "ed0be5f6c75202eefc902796c80f6f0a", "lon": -77.01778716666666, "lat": 38.885956166666666, "fusion_lon": 0.0, "rental_uris": {"ios": "https://dc.lft.to/lastmile_qr_scan", "android": "https://dc.lft.to/lastmile_qr_scan"}, "is_disabled": 0, "is_reserved": 0, "name": "ed0be5f6c75202eefc902796c80f6f0a", "type": "electric_scooter", "fusion_lat": 0.0}, {"bike_id": "465b7bfa5b0efcdaaf1098a36b200bb1", "lon": -76.97807566666667, "lat": 38.903157, "fusion_lon": 0.0, "rental_uris": {"ios": "https://dc.lft.to/lastmile_qr_scan", "android": "https://dc.lft.to/lastmile_qr_scan"}, "is_disabled": 0, "is_reserved": 0, "name": "465b7bfa5b0efcdaaf1098a36b200bb1", "type": "electric_scooter", "fusion_lat": 0.0}, {"bike_id": "e28c1729b71bb9927b590d7561825a61", "lon": -77.03375416666667, "lat": 38.9012815, "fusion_lon": 0.0, "rental_uris": {"ios": "https://dc.lft.to/lastmile_qr_scan", "android": "https://dc.lft.to/lastmile_qr_scan"}, "is_disabled": 0, "is_reserved": 0, "name": "e28c1729b71bb9927b590d7561825a61", "type": "electric_scooter", "fusion_lat": 0.0}, {"bike_id": "31c22bb2b27b4914147cbd6beb5a2543", "lon": -77.03872933333334, "lat": 38.907861833333335, "fusion_lon": 0.0, "rental_uris": {"ios": "https://dc.lft.to/lastmile_qr_scan", "android": "https://dc.lft.to/lastmile_qr_scan"}, "is_disabled": 0, "is_reserved": 0, "name": "31c22bb2b27b4914147cbd6beb5a2543", "type": "electric_scooter", "fusion_lat": 0.0}, {"bike_id": "8fc07741e3d14b9e034ca39329c7801a", "lon": -76.99270666666666, "lat": 38.90604916666667, "fusion_lon": 0.0, "rental_uris": {"ios": "https://dc.lft.to/lastmile_qr_scan", "android": "https://dc.lft.to/lastmile_qr_scan"}, "is_disabled": 0, "is_reserved": 0, "name": "8fc07741e3d14b9e034ca39329c7801a", "type": "electric_scooter", "fusion_lat": 0.0}, {"bike_id": "da20020115a50ef9aca3e7e20d4b0780", "lon": -77.04210416666666, "lat": 38.902951333333334, "fusion_lon": 0.0, "rental_uris": {"ios": "https://dc.lft.to/lastmile_qr_scan", "android": "https://dc.lft.to/lastmile_qr_scan"}, "is_disabled": 0, "is_reserved": 0, "name": "da20020115a50ef9aca3e7e20d4b0780", "type": "electric_scooter", "fusion_lat": 0.0}, {"bike_id": "55fef9ea9bcb5b4ec69a29bb5893dde5", "lon": -77.017589, "lat": 38.87667016666666, "fusion_lon": 0.0, "rental_uris": {"ios": "https://dc.lft.to/lastmile_qr_scan", "android": "https://dc.lft.to/lastmile_qr_scan"}, "is_disabled": 0, "is_reserved": 0, "name": "55fef9ea9bcb5b4ec69a29bb5893dde5", "type": "electric_scooter", "fusion_lat": 0.0}, {"bike_id": "790c88fe202391a23867884e2b940bc7", "lon": -77.03158016666667, "lat": 38.91119716666667, "fusion_lon": 0.0, "rental_uris": {"ios": "https://dc.lft.to/lastmile_qr_scan", "android": "https://dc.lft.to/lastmile_qr_scan"}, "is_disabled": 0, "is_reserved": 0, "name": "790c88fe202391a23867884e2b940bc7", "type": "electric_scooter", "fusion_lat": 0.0}, {"bike_id": "e9421a36fee19ddc4e98cce8ae95bcdd", "lon": -77.0332185, "lat": 38.9451295, "fusion_lon": 0.0, "rental_uris": {"ios": "https://dc.lft.to/lastmile_qr_scan", "android": "https://dc.lft.to/lastmile_qr_scan"}, "is_disabled": 0, "is_reserved": 0, "name": "e9421a36fee19ddc4e98cce8ae95bcdd", "type": "electric_scooter", "fusion_lat": 0.0}, {"bike_id": "e60a875df43b8a7ced6aa3c591d4e68d", "lon": -77.03336916666666, "lat": 38.921657, "fusion_lon": 0.0, "rental_uris": {"ios": "https://dc.lft.to/lastmile_qr_scan", "android": "https://dc.lft.to/lastmile_qr_scan"}, "is_disabled": 0, "is_reserved": 0, "name": "e60a875df43b8a7ced6aa3c591d4e68d", "type": "electric_scooter", "fusion_lat": 0.0}, {"bike_id": "3dd8a31980e250dd70e45e33e8614eaf", "lon": -76.98754666666666, "lat": 38.94561, "fusion_lon": 0.0, "rental_uris": {"ios": "https://dc.lft.to/lastmile_qr_scan", "android": "https://dc.lft.to/lastmile_qr_scan"}, "is_disabled": 0, "is_reserved": 0, "name": "3dd8a31980e250dd70e45e33e8614eaf", "type": "electric_bike", "fusion_lat": 0.0}, {"bike_id": "8cc8ff44d595a4a94b262f0103ad9818", "lon": -77.0476665, "lat": 38.91249333333333, "fusion_lon": 0.0, "rental_uris": {"ios": "https://dc.lft.to/lastmile_qr_scan", "android": "https://dc.lft.to/lastmile_qr_scan"}, "is_disabled": 0, "is_reserved": 0, "name": "8cc8ff44d595a4a94b262f0103ad9818", "type": "electric_scooter", "fusion_lat": 0.0}, {"bike_id": "637d72903dc1b780160b640d6fff6aff", "lon": -77.01132316666667, "lat": 38.90726166666666, "fusion_lon": 0.0, "rental_uris": {"ios": "https://dc.lft.to/lastmile_qr_scan", "android": "https://dc.lft.to/lastmile_qr_scan"}, "is_disabled": 0, "is_reserved": 0, "name": "637d72903dc1b780160b640d6fff6aff", "type": "electric_scooter", "fusion_lat": 0.0}, {"bike_id": "bd10f3d72cde7a78455c65066ebcb927", "lon": -76.9574805, "lat": 38.8845915, "fusion_lon": 0.0, "rental_uris": {"ios": "https://dc.lft.to/lastmile_qr_scan", "android": "https://dc.lft.to/lastmile_qr_scan"}, "is_disabled": 0, "is_reserved": 0, "name": "bd10f3d72cde7a78455c65066ebcb927", "type": "electric_scooter", "fusion_lat": 0.0}, {"bike_id": "121cf07e8727b098e9de1a345eb1b505", "lon": -77.11864683333333, "lat": 38.85895, "fusion_lon": 0.0, "rental_uris": {"ios": "https://dc.lft.to/lastmile_qr_scan", "android": "https://dc.lft.to/lastmile_qr_scan"}, "is_disabled": 0, "is_reserved": 0, "name": "121cf07e8727b098e9de1a345eb1b505", "type": "electric_bike", "fusion_lat": 0.0}, {"bike_id": "b659caa36019c5c422cd2d3c13bd1859", "lon": -77.034445, "lat": 38.920485666666664, "fusion_lon": 0.0, "rental_uris": {"ios": "https://dc.lft.to/lastmile_qr_scan", "android": "https://dc.lft.to/lastmile_qr_scan"}, "is_disabled": 0, "is_reserved": 0, "name": "b659caa36019c5c422cd2d3c13bd1859", "type": "electric_scooter", "fusion_lat": 0.0}, {"bike_id": "5701e889bdd3ab88e71e226a73af532d", "lon": -77.04348433333334, "lat": 38.90113933333333, "fusion_lon": 0.0, "rental_uris": {"ios": "https://dc.lft.to/lastmile_qr_scan", "android": "https://dc.lft.to/lastmile_qr_scan"}, "is_disabled": 0, "is_reserved": 0, "name": "5701e889bdd3ab88e71e226a73af532d", "type": "electric_scooter", "fusion_lat": 0.0}, {"bike_id": "b8a15c6d124b1d80f6055ef13f2bd0cb", "lon": -77.0342995, "lat": 38.90976166666667, "fusion_lon": 0.0, "rental_uris": {"ios": "https://dc.lft.to/lastmile_qr_scan", "android": "https://dc.lft.to/lastmile_qr_scan"}, "is_disabled": 0, "is_reserved": 0, "name": "b8a15c6d124b1d80f6055ef13f2bd0cb", "type": "electric_scooter", "fusion_lat": 0.0}, {"bike_id": "7efee0ab4e2d41965bed15e6c946a6e1", "lon": -77.0385665, "lat": 38.91143683333333, "fusion_lon": 0.0, "rental_uris": {"ios": "https://dc.lft.to/lastmile_qr_scan", "android": "https://dc.lft.to/lastmile_qr_scan"}, "is_disabled": 0, "is_reserved": 0, "name": "7efee0ab4e2d41965bed15e6c946a6e1", "type": "electric_scooter", "fusion_lat": 0.0}, {"bike_id": "4ef61774db68eafe355e46e03dc5ed0d", "lon": -76.977489, "lat": 38.871643166666665, "fusion_lon": 0.0, "rental_uris": {"ios": "https://dc.lft.to/lastmile_qr_scan", "android": "https://dc.lft.to/lastmile_qr_scan"}, "is_disabled": 0, "is_reserved": 0, "name": "4ef61774db68eafe355e46e03dc5ed0d", "type": "electric_scooter", "fusion_lat": 0.0}, {"bike_id": "2bb9922f2c264efcc185c71749adba6c", "lon": -77.007892, "lat": 38.926902166666665, "fusion_lon": 0.0, "rental_uris": {"ios": "https://dc.lft.to/lastmile_qr_scan", "android": "https://dc.lft.to/lastmile_qr_scan"}, "is_disabled": 0, "is_reserved": 0, "name": "2bb9922f2c264efcc185c71749adba6c", "type": "electric_scooter", "fusion_lat": 0.0}, {"bike_id": "241223ff14a89734412b385d6a0753e2", "lon": -77.02960416666667, "lat": 38.92272066666666, "fusion_lon": 0.0, "rental_uris": {"ios": "https://dc.lft.to/lastmile_qr_scan", "android": "https://dc.lft.to/lastmile_qr_scan"}, "is_disabled": 0, "is_reserved": 0, "name": "241223ff14a89734412b385d6a0753e2", "type": "electric_scooter", "fusion_lat": 0.0}, {"bike_id": "72d7b508b3e83ca46845d2d580de5e94", "lon": -77.01813766666666, "lat": 38.92102516666667, "fusion_lon": 0.0, "rental_uris": {"ios": "https://dc.lft.to/lastmile_qr_scan", "android": "https://dc.lft.to/lastmile_qr_scan"}, "is_disabled": 0, "is_reserved": 0, "name": "72d7b508b3e83ca46845d2d580de5e94", "type": "electric_scooter", "fusion_lat": 0.0}, {"bike_id": "f7310d49f59edd7b816dc13c771053e3", "lon": -77.0320445, "lat": 38.91798716666667, "fusion_lon": 0.0, "rental_uris": {"ios": "https://dc.lft.to/lastmile_qr_scan", "android": "https://dc.lft.to/lastmile_qr_scan"}, "is_disabled": 0, "is_reserved": 0, "name": "f7310d49f59edd7b816dc13c771053e3", "type": "electric_scooter", "fusion_lat": 0.0}, {"bike_id": "280e399f0ea6ca165904cd789cc8b3f3", "lon": -76.91194916666667, "lat": 38.891822, "fusion_lon": 0.0, "rental_uris": {"ios": "https://dc.lft.to/lastmile_qr_scan", "android": "https://dc.lft.to/lastmile_qr_scan"}, "is_disabled": 0, "is_reserved": 0, "name": "280e399f0ea6ca165904cd789cc8b3f3", "type": "electric_scooter", "fusion_lat": 0.0}, {"bike_id": "80cbf94a3dc6c0b8c1202034d1e2ed5d", "lon": -77.02385033333333, "lat": 38.909557666666664, "fusion_lon": 0.0, "rental_uris": {"ios": "https://dc.lft.to/lastmile_qr_scan", "android": "https://dc.lft.to/lastmile_qr_scan"}, "is_disabled": 0, "is_reserved": 0, "name": "80cbf94a3dc6c0b8c1202034d1e2ed5d", "type": "electric_scooter", "fusion_lat": 0.0}, {"bike_id": "4ecac73a60bf2db5cd542e6ee42e2e75", "lon": -77.04339933333333, "lat": 38.9043545, "fusion_lon": 0.0, "rental_uris": {"ios": "https://dc.lft.to/lastmile_qr_scan", "android": "https://dc.lft.to/lastmile_qr_scan"}, "is_disabled": 0, "is_reserved": 0, "name": "4ecac73a60bf2db5cd542e6ee42e2e75", "type": "electric_scooter", "fusion_lat": 0.0}, {"bike_id": "065526e45f2b24c8e9ece35f032f23b7", "lon": -77.04499566666667, "lat": 38.910562, "fusion_lon": 0.0, "rental_uris": {"ios": "https://dc.lft.to/lastmile_qr_scan", "android": "https://dc.lft.to/lastmile_qr_scan"}, "is_disabled": 0, "is_reserved": 0, "name": "065526e45f2b24c8e9ece35f032f23b7", "type": "electric_scooter", "fusion_lat": 0.0}, {"bike_id": "ffa06c5392c6c8780f67a0f1b4ca08ea", "lon": -77.02692233333333, "lat": 38.896365333333335, "fusion_lon": 0.0, "rental_uris": {"ios": "https://dc.lft.to/lastmile_qr_scan", "android": "https://dc.lft.to/lastmile_qr_scan"}, "is_disabled": 0, "is_reserved": 0, "name": "ffa06c5392c6c8780f67a0f1b4ca08ea", "type": "electric_scooter", "fusion_lat": 0.0}, {"bike_id": "c621c2bbf8109ff5f79554e569b56165", "lon": -77.03906183333334, "lat": 38.917594666666666, "fusion_lon": 0.0, "rental_uris": {"ios": "https://dc.lft.to/lastmile_qr_scan", "android": "https://dc.lft.to/lastmile_qr_scan"}, "is_disabled": 0, "is_reserved": 0, "name": "c621c2bbf8109ff5f79554e569b56165", "type": "electric_scooter", "fusion_lat": 0.0}, {"bike_id": "d1ebe975658db634ec2d651b344f37c7", "lon": -77.03512933333333, "lat": 38.91880866666666, "fusion_lon": 0.0, "rental_uris": {"ios": "https://dc.lft.to/lastmile_qr_scan", "android": "https://dc.lft.to/lastmile_qr_scan"}, "is_disabled": 0, "is_reserved": 0, "name": "d1ebe975658db634ec2d651b344f37c7", "type": "electric_scooter", "fusion_lat": 0.0}, {"bike_id": "ec5da563ec519efb594f8acf1d0dbfa6", "lon": -77.04059016666666, "lat": 38.923930166666665, "fusion_lon": 0.0, "rental_uris": {"ios": "https://dc.lft.to/lastmile_qr_scan", "android": "https://dc.lft.to/lastmile_qr_scan"}, "is_disabled": 0, "is_reserved": 0, "name": "ec5da563ec519efb594f8acf1d0dbfa6", "type": "electric_scooter", "fusion_lat": 0.0}, {"bike_id": "a7cb7885f982a4a6b670d540465c80d6", "lon": -77.0401575, "lat": 38.903386, "fusion_lon": 0.0, "rental_uris": {"ios": "https://dc.lft.to/lastmile_qr_scan", "android": "https://dc.lft.to/lastmile_qr_scan"}, "is_disabled": 0, "is_reserved": 0, "name": "a7cb7885f982a4a6b670d540465c80d6", "type": "electric_scooter", "fusion_lat": 0.0}, {"bike_id": "3bd15cba790d4682f234ce0e699a9b4a", "lon": -77.04386166666667, "lat": 38.91661333333333, "fusion_lon": 0.0, "rental_uris": {"ios": "https://dc.lft.to/lastmile_qr_scan", "android": "https://dc.lft.to/lastmile_qr_scan"}, "is_disabled": 0, "is_reserved": 0, "name": "3bd15cba790d4682f234ce0e699a9b4a", "type": "electric_scooter", "fusion_lat": 0.0}, {"bike_id": "583b5c50395cd679915bd5d5ba881275", "lon": -77.03309683333333, "lat": 38.91704983333333, "fusion_lon": 0.0, "rental_uris": {"ios": "https://dc.lft.to/lastmile_qr_scan", "android": "https://dc.lft.to/lastmile_qr_scan"}, "is_disabled": 0, "is_reserved": 0, "name": "583b5c50395cd679915bd5d5ba881275", "type": "electric_scooter", "fusion_lat": 0.0}, {"bike_id": "efea565f368fa803fceb9ca939ef150d", "lon": -77.02650583333333, "lat": 38.994208666666665, "fusion_lon": 0.0, "rental_uris": {"ios": "https://dc.lft.to/lastmile_qr_scan", "android": "https://dc.lft.to/lastmile_qr_scan"}, "is_disabled": 0, "is_reserved": 0, "name": "efea565f368fa803fceb9ca939ef150d", "type": "electric_bike", "fusion_lat": 0.0}, {"bike_id": "4b67470620620df632fb8f67db4b0cfe", "lon": -77.05236766666667, "lat": 38.92466066666667, "fusion_lon": 0.0, "rental_uris": {"ios": "https://dc.lft.to/lastmile_qr_scan", "android": "https://dc.lft.to/lastmile_qr_scan"}, "is_disabled": 0, "is_reserved": 0, "name": "4b67470620620df632fb8f67db4b0cfe", "type": "electric_scooter", "fusion_lat": 0.0}, {"bike_id": "5ae4e5225179db4aa4d8db9d59204f75", "lon": -76.98494516666666, "lat": 38.904416, "fusion_lon": 0.0, "rental_uris": {"ios": "https://dc.lft.to/lastmile_qr_scan", "android": "https://dc.lft.to/lastmile_qr_scan"}, "is_disabled": 0, "is_reserved": 0, "name": "5ae4e5225179db4aa4d8db9d59204f75", "type": "electric_scooter", "fusion_lat": 0.0}, {"bike_id": "316afc9e19699d5670096a0ddf5b79e2", "lon": -77.01783516666667, "lat": 38.91192133333333, "fusion_lon": 0.0, "rental_uris": {"ios": "https://dc.lft.to/lastmile_qr_scan", "android": "https://dc.lft.to/lastmile_qr_scan"}, "is_disabled": 0, "is_reserved": 0, "name": "316afc9e19699d5670096a0ddf5b79e2", "type": "electric_scooter", "fusion_lat": 0.0}, {"bike_id": "93dcafaf4cbd6f9cf2d50445f972db37", "lon": -77.00265033333334, "lat": 38.9057925, "fusion_lon": 0.0, "rental_uris": {"ios": "https://dc.lft.to/lastmile_qr_scan", "android": "https://dc.lft.to/lastmile_qr_scan"}, "is_disabled": 0, "is_reserved": 0, "name": "93dcafaf4cbd6f9cf2d50445f972db37", "type": "electric_scooter", "fusion_lat": 0.0}, {"bike_id": "8b58ae754cd7a2f18c2a75de675c300b", "lon": -77.0367185, "lat": 38.90262583333333, "fusion_lon": 0.0, "rental_uris": {"ios": "https://dc.lft.to/lastmile_qr_scan", "android": "https://dc.lft.to/lastmile_qr_scan"}, "is_disabled": 0, "is_reserved": 0, "name": "8b58ae754cd7a2f18c2a75de675c300b", "type": "electric_scooter", "fusion_lat": 0.0}, {"bike_id": "aa63469c62da634fe788d998ad7f66a0", "lon": -76.98067133333333, "lat": 38.90017816666666, "fusion_lon": 0.0, "rental_uris": {"ios": "https://dc.lft.to/lastmile_qr_scan", "android": "https://dc.lft.to/lastmile_qr_scan"}, "is_disabled": 0, "is_reserved": 0, "name": "aa63469c62da634fe788d998ad7f66a0", "type": "electric_scooter", "fusion_lat": 0.0}, {"bike_id": "7734cc0d85e261c97a8103f5dd30c2e9", "lon": -77.02988283333333, "lat": 38.89615516666667, "fusion_lon": 0.0, "rental_uris": {"ios": "https://dc.lft.to/lastmile_qr_scan", "android": "https://dc.lft.to/lastmile_qr_scan"}, "is_disabled": 0, "is_reserved": 0, "name": "7734cc0d85e261c97a8103f5dd30c2e9", "type": "electric_scooter", "fusion_lat": 0.0}, {"bike_id": "758b17917839d8df5f565388dcfa39a4", "lon": -77.00566816666667, "lat": 38.83585466666667, "fusion_lon": 0.0, "rental_uris": {"ios": "https://dc.lft.to/lastmile_qr_scan", "android": "https://dc.lft.to/lastmile_qr_scan"}, "is_disabled": 0, "is_reserved": 0, "name": "758b17917839d8df5f565388dcfa39a4", "type": "electric_scooter", "fusion_lat": 0.0}, {"bike_id": "e9a2403446160a8a9cde5f1ac298cba4", "lon": -77.03219733333333, "lat": 38.928684, "fusion_lon": 0.0, "rental_uris": {"ios": "https://dc.lft.to/lastmile_qr_scan", "android": "https://dc.lft.to/lastmile_qr_scan"}, "is_disabled": 0, "is_reserved": 0, "name": "e9a2403446160a8a9cde5f1ac298cba4", "type": "electric_scooter", "fusion_lat": 0.0}, {"bike_id": "53a1fc0c009dfe32e77384e58ddb8a76", "lon": -77.02729716666667, "lat": 38.9518105, "fusion_lon": 0.0, "rental_uris": {"ios": "https://dc.lft.to/lastmile_qr_scan", "android": "https://dc.lft.to/lastmile_qr_scan"}, "is_disabled": 0, "is_reserved": 0, "name": "53a1fc0c009dfe32e77384e58ddb8a76", "type": "electric_scooter", "fusion_lat": 0.0}, {"bike_id": "98427f0e69c36b21e7087b36a9631835", "lon": -77.02437116666667, "lat": 38.918614166666664, "fusion_lon": 0.0, "rental_uris": {"ios": "https://dc.lft.to/lastmile_qr_scan", "android": "https://dc.lft.to/lastmile_qr_scan"}, "is_disabled": 0, "is_reserved": 0, "name": "98427f0e69c36b21e7087b36a9631835", "type": "electric_scooter", "fusion_lat": 0.0}, {"bike_id": "f1e926fe2b0d94153bf69788560de687", "lon": -77.02696033333334, "lat": 38.916845, "fusion_lon": 0.0, "rental_uris": {"ios": "https://dc.lft.to/lastmile_qr_scan", "android": "https://dc.lft.to/lastmile_qr_scan"}, "is_disabled": 0, "is_reserved": 0, "name": "f1e926fe2b0d94153bf69788560de687", "type": "electric_scooter", "fusion_lat": 0.0}, {"bike_id": "3f6aef46c579fa7bac9aa4d85b9a9927", "lon": -76.99488416666667, "lat": 38.83576266666667, "fusion_lon": 0.0, "rental_uris": {"ios": "https://dc.lft.to/lastmile_qr_scan", "android": "https://dc.lft.to/lastmile_qr_scan"}, "is_disabled": 0, "is_reserved": 0, "name": "3f6aef46c579fa7bac9aa4d85b9a9927", "type": "electric_scooter", "fusion_lat": 0.0}, {"bike_id": "781a9efb533f74a3aaf5ebbf48f0465e", "lon": -77.0263215, "lat": 38.89626283333333, "fusion_lon": 0.0, "rental_uris": {"ios": "https://dc.lft.to/lastmile_qr_scan", "android": "https://dc.lft.to/lastmile_qr_scan"}, "is_disabled": 0, "is_reserved": 0, "name": "781a9efb533f74a3aaf5ebbf48f0465e", "type": "electric_scooter", "fusion_lat": 0.0}, {"bike_id": "64c4e42897d704535ec31e13a2a0d945", "lon": -77.02808233333333, "lat": 38.91681966666667, "fusion_lon": 0.0, "rental_uris": {"ios": "https://dc.lft.to/lastmile_qr_scan", "android": "https://dc.lft.to/lastmile_qr_scan"}, "is_disabled": 0, "is_reserved": 0, "name": "64c4e42897d704535ec31e13a2a0d945", "type": "electric_scooter", "fusion_lat": 0.0}, {"bike_id": "4c06c265838b97a20b67b3e90c9ae1e5", "lon": -77.025531, "lat": 38.91556216666667, "fusion_lon": 0.0, "rental_uris": {"ios": "https://dc.lft.to/lastmile_qr_scan", "android": "https://dc.lft.to/lastmile_qr_scan"}, "is_disabled": 0, "is_reserved": 0, "name": "4c06c265838b97a20b67b3e90c9ae1e5", "type": "electric_scooter", "fusion_lat": 0.0}, {"bike_id": "a1e92dd214848d6f8d77ca71445d6245", "lon": -77.04740633333333, "lat": 38.9010335, "fusion_lon": 0.0, "rental_uris": {"ios": "https://dc.lft.to/lastmile_qr_scan", "android": "https://dc.lft.to/lastmile_qr_scan"}, "is_disabled": 0, "is_reserved": 0, "name": "a1e92dd214848d6f8d77ca71445d6245", "type": "electric_scooter", "fusion_lat": 0.0}, {"bike_id": "1dc1dd251d01dbd87b7fe4db72b2ecb1", "lon": -77.03134333333334, "lat": 38.906281666666665, "fusion_lon": 0.0, "rental_uris": {"ios": "https://dc.lft.to/lastmile_qr_scan", "android": "https://dc.lft.to/lastmile_qr_scan"}, "is_disabled": 0, "is_reserved": 0, "name": "1dc1dd251d01dbd87b7fe4db72b2ecb1", "type": "electric_scooter", "fusion_lat": 0.0}, {"bike_id": "460c2c28895dd9cf9831f166dddb9a0d", "lon": -77.03294516666666, "lat": 38.93781716666667, "fusion_lon": 0.0, "rental_uris": {"ios": "https://dc.lft.to/lastmile_qr_scan", "android": "https://dc.lft.to/lastmile_qr_scan"}, "is_disabled": 0, "is_reserved": 0, "name": "460c2c28895dd9cf9831f166dddb9a0d", "type": "electric_scooter", "fusion_lat": 0.0}, {"bike_id": "2ec7f0be0b8d77bb10487b106d765ea3", "lon": -77.03213116666667, "lat": 38.920753833333336, "fusion_lon": 0.0, "rental_uris": {"ios": "https://dc.lft.to/lastmile_qr_scan", "android": "https://dc.lft.to/lastmile_qr_scan"}, "is_disabled": 0, "is_reserved": 0, "name": "2ec7f0be0b8d77bb10487b106d765ea3", "type": "electric_scooter", "fusion_lat": 0.0}, {"bike_id": "c419a574ee364be7a88acbc3060eef5c", "lon": -77.038434, "lat": 38.905087333333334, "fusion_lon": 0.0, "rental_uris": {"ios": "https://dc.lft.to/lastmile_qr_scan", "android": "https://dc.lft.to/lastmile_qr_scan"}, "is_disabled": 0, "is_reserved": 0, "name": "c419a574ee364be7a88acbc3060eef5c", "type": "electric_scooter", "fusion_lat": 0.0}, {"bike_id": "3d7d13c89915bec3fea4c319241f6dd6", "lon": -77.0280215, "lat": 38.91676183333333, "fusion_lon": 0.0, "rental_uris": {"ios": "https://dc.lft.to/lastmile_qr_scan", "android": "https://dc.lft.to/lastmile_qr_scan"}, "is_disabled": 0, "is_reserved": 0, "name": "3d7d13c89915bec3fea4c319241f6dd6", "type": "electric_scooter", "fusion_lat": 0.0}, {"bike_id": "0607c0420ead214a8633f4a9a2e920a0", "lon": -77.0552455, "lat": 38.897354666666665, "fusion_lon": 0.0, "rental_uris": {"ios": "https://dc.lft.to/lastmile_qr_scan", "android": "https://dc.lft.to/lastmile_qr_scan"}, "is_disabled": 0, "is_reserved": 0, "name": "0607c0420ead214a8633f4a9a2e920a0", "type": "electric_scooter", "fusion_lat": 0.0}, {"bike_id": "77418642e3179f4d1b460a5be430904b", "lon": -77.002356, "lat": 38.87629583333333, "fusion_lon": 0.0, "rental_uris": {"ios": "https://dc.lft.to/lastmile_qr_scan", "android": "https://dc.lft.to/lastmile_qr_scan"}, "is_disabled": 0, "is_reserved": 0, "name": "77418642e3179f4d1b460a5be430904b", "type": "electric_scooter", "fusion_lat": 0.0}, {"bike_id": "022f5fb7e9b0fe4fe0d0e0180a77c160", "lon": -77.00818633333333, "lat": 38.87851283333333, "fusion_lon": 0.0, "rental_uris": {"ios": "https://dc.lft.to/lastmile_qr_scan", "android": "https://dc.lft.to/lastmile_qr_scan"}, "is_disabled": 0, "is_reserved": 0, "name": "022f5fb7e9b0fe4fe0d0e0180a77c160", "type": "electric_scooter", "fusion_lat": 0.0}, {"bike_id": "a8a632029426531fd436e9407da9668f", "lon": -77.00959316666666, "lat": 38.907875833333335, "fusion_lon": 0.0, "rental_uris": {"ios": "https://dc.lft.to/lastmile_qr_scan", "android": "https://dc.lft.to/lastmile_qr_scan"}, "is_disabled": 0, "is_reserved": 0, "name": "a8a632029426531fd436e9407da9668f", "type": "electric_scooter", "fusion_lat": 0.0}, {"bike_id": "88f682538fbf1ea145cfa963a0a9197c", "lon": -77.03199783333334, "lat": 38.9202565, "fusion_lon": 0.0, "rental_uris": {"ios": "https://dc.lft.to/lastmile_qr_scan", "android": "https://dc.lft.to/lastmile_qr_scan"}, "is_disabled": 0, "is_reserved": 0, "name": "88f682538fbf1ea145cfa963a0a9197c", "type": "electric_scooter", "fusion_lat": 0.0}, {"bike_id": "c0dc10d881640533065689d14a39bb71", "lon": -77.042242, "lat": 38.920634, "fusion_lon": 0.0, "rental_uris": {"ios": "https://dc.lft.to/lastmile_qr_scan", "android": "https://dc.lft.to/lastmile_qr_scan"}, "is_disabled": 0, "is_reserved": 0, "name": "c0dc10d881640533065689d14a39bb71", "type": "electric_scooter", "fusion_lat": 0.0}, {"bike_id": "71fec93b82c60649313f00b9418bff8b", "lon": -77.025106, "lat": 38.9214155, "fusion_lon": 0.0, "rental_uris": {"ios": "https://dc.lft.to/lastmile_qr_scan", "android": "https://dc.lft.to/lastmile_qr_scan"}, "is_disabled": 0, "is_reserved": 0, "name": "71fec93b82c60649313f00b9418bff8b", "type": "electric_scooter", "fusion_lat": 0.0}, {"bike_id": "df0050d9f3feb6b9c9b0612afcc938d7", "lon": -77.04253266666667, "lat": 38.903793, "fusion_lon": 0.0, "rental_uris": {"ios": "https://dc.lft.to/lastmile_qr_scan", "android": "https://dc.lft.to/lastmile_qr_scan"}, "is_disabled": 0, "is_reserved": 0, "name": "df0050d9f3feb6b9c9b0612afcc938d7", "type": "electric_scooter", "fusion_lat": 0.0}, {"bike_id": "f8be5d18f56ff566068b95bcd80d0712", "lon": -77.0424135, "lat": 38.922745, "fusion_lon": 0.0, "rental_uris": {"ios": "https://dc.lft.to/lastmile_qr_scan", "android": "https://dc.lft.to/lastmile_qr_scan"}, "is_disabled": 0, "is_reserved": 0, "name": "f8be5d18f56ff566068b95bcd80d0712", "type": "electric_scooter", "fusion_lat": 0.0}, {"bike_id": "548d6fe53774eb2be00409891bc6e65c", "lon": -77.11735733333333, "lat": 38.882214166666664, "fusion_lon": 0.0, "rental_uris": {"ios": "https://dc.lft.to/lastmile_qr_scan", "android": "https://dc.lft.to/lastmile_qr_scan"}, "is_disabled": 0, "is_reserved": 0, "name": "548d6fe53774eb2be00409891bc6e65c", "type": "electric_bike", "fusion_lat": 0.0}, {"bike_id": "371947c46f6797d65fcd34e1f591dcd8", "lon": -76.93476666666666, "lat": 38.895047, "fusion_lon": 0.0, "rental_uris": {"ios": "https://dc.lft.to/lastmile_qr_scan", "android": "https://dc.lft.to/lastmile_qr_scan"}, "is_disabled": 0, "is_reserved": 0, "name": "371947c46f6797d65fcd34e1f591dcd8", "type": "electric_scooter", "fusion_lat": 0.0}, {"bike_id": "e3d181b54a11d3c15f0a236285a2c1db", "lon": -77.0168925, "lat": 38.914221166666664, "fusion_lon": 0.0, "rental_uris": {"ios": "https://dc.lft.to/lastmile_qr_scan", "android": "https://dc.lft.to/lastmile_qr_scan"}, "is_disabled": 0, "is_reserved": 0, "name": "e3d181b54a11d3c15f0a236285a2c1db", "type": "electric_scooter", "fusion_lat": 0.0}, {"bike_id": "cbfdbdd86054ef25387c22b909e8d2f5", "lon": -77.043221, "lat": 38.92622816666667, "fusion_lon": 0.0, "rental_uris": {"ios": "https://dc.lft.to/lastmile_qr_scan", "android": "https://dc.lft.to/lastmile_qr_scan"}, "is_disabled": 0, "is_reserved": 0, "name": "cbfdbdd86054ef25387c22b909e8d2f5", "type": "electric_scooter", "fusion_lat": 0.0}, {"bike_id": "4bcbe3743e4171f0766c5337350d357b", "lon": -77.06946016666667, "lat": 38.995311, "fusion_lon": 0.0, "rental_uris": {"ios": "https://dc.lft.to/lastmile_qr_scan", "android": "https://dc.lft.to/lastmile_qr_scan"}, "is_disabled": 0, "is_reserved": 0, "name": "4bcbe3743e4171f0766c5337350d357b", "type": "electric_bike", "fusion_lat": 0.0}, {"bike_id": "ec6a58d3955d33a4d276f9a1bcb1e803", "lon": -77.03860183333333, "lat": 38.909711333333334, "fusion_lon": 0.0, "rental_uris": {"ios": "https://dc.lft.to/lastmile_qr_scan", "android": "https://dc.lft.to/lastmile_qr_scan"}, "is_disabled": 0, "is_reserved": 0, "name": "ec6a58d3955d33a4d276f9a1bcb1e803", "type": "electric_scooter", "fusion_lat": 0.0}, {"bike_id": "c01deb3518c63b02073a169efe144c4c", "lon": -77.04445166666666, "lat": 38.9080305, "fusion_lon": 0.0, "rental_uris": {"ios": "https://dc.lft.to/lastmile_qr_scan", "android": "https://dc.lft.to/lastmile_qr_scan"}, "is_disabled": 0, "is_reserved": 0, "name": "c01deb3518c63b02073a169efe144c4c", "type": "electric_scooter", "fusion_lat": 0.0}, {"bike_id": "3b09293e74560c1bc2f00d826edd82fc", "lon": -77.0345525, "lat": 38.9179635, "fusion_lon": 0.0, "rental_uris": {"ios": "https://dc.lft.to/lastmile_qr_scan", "android": "https://dc.lft.to/lastmile_qr_scan"}, "is_disabled": 0, "is_reserved": 0, "name": "3b09293e74560c1bc2f00d826edd82fc", "type": "electric_scooter", "fusion_lat": 0.0}, {"bike_id": "45f0fcfc9b1fd04ca48e2356302daf54", "lon": -77.054776, "lat": 38.800182666666664, "fusion_lon": 0.0, "rental_uris": {"ios": "https://dc.lft.to/lastmile_qr_scan", "android": "https://dc.lft.to/lastmile_qr_scan"}, "is_disabled": 0, "is_reserved": 0, "name": "45f0fcfc9b1fd04ca48e2356302daf54", "type": "electric_bike", "fusion_lat": 0.0}, {"bike_id": "3e74c932a4a46d0a47f46fb7a761c148", "lon": -77.02016383333333, "lat": 38.89266583333333, "fusion_lon": 0.0, "rental_uris": {"ios": "https://dc.lft.to/lastmile_qr_scan", "android": "https://dc.lft.to/lastmile_qr_scan"}, "is_disabled": 0, "is_reserved": 0, "name": "3e74c932a4a46d0a47f46fb7a761c148", "type": "electric_scooter", "fusion_lat": 0.0}, {"bike_id": "17c4b815e5b928bebd3b442baff71ee2", "lon": -77.0298665, "lat": 38.920519166666665, "fusion_lon": 0.0, "rental_uris": {"ios": "https://dc.lft.to/lastmile_qr_scan", "android": "https://dc.lft.to/lastmile_qr_scan"}, "is_disabled": 0, "is_reserved": 0, "name": "17c4b815e5b928bebd3b442baff71ee2", "type": "electric_scooter", "fusion_lat": 0.0}, {"bike_id": "ac66aed5bc33955c16f22e7d10d5abce", "lon": -77.10723683333333, "lat": 38.8795695, "fusion_lon": 0.0, "rental_uris": {"ios": "https://dc.lft.to/lastmile_qr_scan", "android": "https://dc.lft.to/lastmile_qr_scan"}, "is_disabled": 0, "is_reserved": 0, "name": "ac66aed5bc33955c16f22e7d10d5abce", "type": "electric_bike", "fusion_lat": 0.0}, {"bike_id": "82175eb0e34be72b1d19c61bf83c5ed5", "lon": -77.0223035, "lat": 38.95684033333333, "fusion_lon": 0.0, "rental_uris": {"ios": "https://dc.lft.to/lastmile_qr_scan", "android": "https://dc.lft.to/lastmile_qr_scan"}, "is_disabled": 0, "is_reserved": 0, "name": "82175eb0e34be72b1d19c61bf83c5ed5", "type": "electric_scooter", "fusion_lat": 0.0}, {"bike_id": "23e850e740a6c46a06edd87bbef2efd2", "lon": -77.03727566666667, "lat": 38.911021833333336, "fusion_lon": 0.0, "rental_uris": {"ios": "https://dc.lft.to/lastmile_qr_scan", "android": "https://dc.lft.to/lastmile_qr_scan"}, "is_disabled": 0, "is_reserved": 0, "name": "23e850e740a6c46a06edd87bbef2efd2", "type": "electric_scooter", "fusion_lat": 0.0}, {"bike_id": "993a6841187b178dff021072213799c9", "lon": -77.13325016666667, "lat": 38.87051566666667, "fusion_lon": 0.0, "rental_uris": {"ios": "https://dc.lft.to/lastmile_qr_scan", "android": "https://dc.lft.to/lastmile_qr_scan"}, "is_disabled": 0, "is_reserved": 0, "name": "993a6841187b178dff021072213799c9", "type": "electric_bike", "fusion_lat": 0.0}, {"bike_id": "d2923fa1c4c52eee2551f6fcf9989da4", "lon": -77.04239566666666, "lat": 38.923654166666665, "fusion_lon": 0.0, "rental_uris": {"ios": "https://dc.lft.to/lastmile_qr_scan", "android": "https://dc.lft.to/lastmile_qr_scan"}, "is_disabled": 0, "is_reserved": 0, "name": "d2923fa1c4c52eee2551f6fcf9989da4", "type": "electric_scooter", "fusion_lat": 0.0}, {"bike_id": "aeeedfeb5faffa172298250efa3a1260", "lon": -77.03175466666667, "lat": 38.88747766666667, "fusion_lon": 0.0, "rental_uris": {"ios": "https://dc.lft.to/lastmile_qr_scan", "android": "https://dc.lft.to/lastmile_qr_scan"}, "is_disabled": 0, "is_reserved": 0, "name": "aeeedfeb5faffa172298250efa3a1260", "type": "electric_scooter", "fusion_lat": 0.0}, {"bike_id": "8a4d2b86fa22c424787d367c49abccc8", "lon": -77.03885133333333, "lat": 38.92010233333333, "fusion_lon": 0.0, "rental_uris": {"ios": "https://dc.lft.to/lastmile_qr_scan", "android": "https://dc.lft.to/lastmile_qr_scan"}, "is_disabled": 0, "is_reserved": 0, "name": "8a4d2b86fa22c424787d367c49abccc8", "type": "electric_scooter", "fusion_lat": 0.0}, {"bike_id": "43d5dbdefcb1df01640562743f2d6481", "lon": -77.04688516666667, "lat": 38.902325166666664, "fusion_lon": 0.0, "rental_uris": {"ios": "https://dc.lft.to/lastmile_qr_scan", "android": "https://dc.lft.to/lastmile_qr_scan"}, "is_disabled": 0, "is_reserved": 0, "name": "43d5dbdefcb1df01640562743f2d6481", "type": "electric_scooter", "fusion_lat": 0.0}, {"bike_id": "469c958d30964947db6681bc6df868c0", "lon": -77.02974416666666, "lat": 38.916557833333336, "fusion_lon": 0.0, "rental_uris": {"ios": "https://dc.lft.to/lastmile_qr_scan", "android": "https://dc.lft.to/lastmile_qr_scan"}, "is_disabled": 0, "is_reserved": 0, "name": "469c958d30964947db6681bc6df868c0", "type": "electric_scooter", "fusion_lat": 0.0}, {"bike_id": "fb082a95bc3387bae966d8a129a9075b", "lon": -77.03592866666666, "lat": 38.93673316666667, "fusion_lon": 0.0, "rental_uris": {"ios": "https://dc.lft.to/lastmile_qr_scan", "android": "https://dc.lft.to/lastmile_qr_scan"}, "is_disabled": 0, "is_reserved": 0, "name": "fb082a95bc3387bae966d8a129a9075b", "type": "electric_scooter", "fusion_lat": 0.0}, {"bike_id": "d627574278afaeaf7eda1d9b1286e781", "lon": -77.00139516666667, "lat": 38.905116666666665, "fusion_lon": 0.0, "rental_uris": {"ios": "https://dc.lft.to/lastmile_qr_scan", "android": "https://dc.lft.to/lastmile_qr_scan"}, "is_disabled": 0, "is_reserved": 0, "name": "d627574278afaeaf7eda1d9b1286e781", "type": "electric_scooter", "fusion_lat": 0.0}, {"bike_id": "11f1a5bc81bec9f24b663d29cf0177e1", "lon": -77.02981916666667, "lat": 38.90084933333333, "fusion_lon": 0.0, "rental_uris": {"ios": "https://dc.lft.to/lastmile_qr_scan", "android": "https://dc.lft.to/lastmile_qr_scan"}, "is_disabled": 0, "is_reserved": 0, "name": "11f1a5bc81bec9f24b663d29cf0177e1", "type": "electric_scooter", "fusion_lat": 0.0}, {"bike_id": "b5b1895ccbfcb7a69b54404391e2883b", "lon": -77.027121, "lat": 38.9084655, "fusion_lon": 0.0, "rental_uris": {"ios": "https://dc.lft.to/lastmile_qr_scan", "android": "https://dc.lft.to/lastmile_qr_scan"}, "is_disabled": 0, "is_reserved": 0, "name": "b5b1895ccbfcb7a69b54404391e2883b", "type": "electric_scooter", "fusion_lat": 0.0}, {"bike_id": "5301fdc83133f4454a731cac43a801fa", "lon": -77.01587233333333, "lat": 38.90881483333333, "fusion_lon": 0.0, "rental_uris": {"ios": "https://dc.lft.to/lastmile_qr_scan", "android": "https://dc.lft.to/lastmile_qr_scan"}, "is_disabled": 0, "is_reserved": 0, "name": "5301fdc83133f4454a731cac43a801fa", "type": "electric_scooter", "fusion_lat": 0.0}, {"bike_id": "d7744304d17d840617774f870cd64370", "lon": -77.040955, "lat": 38.90549866666667, "fusion_lon": 0.0, "rental_uris": {"ios": "https://dc.lft.to/lastmile_qr_scan", "android": "https://dc.lft.to/lastmile_qr_scan"}, "is_disabled": 0, "is_reserved": 0, "name": "d7744304d17d840617774f870cd64370", "type": "electric_scooter", "fusion_lat": 0.0}, {"bike_id": "b473db2eb04e599c7ea3a2770a6cd33b", "lon": -76.998224, "lat": 38.876790666666665, "fusion_lon": 0.0, "rental_uris": {"ios": "https://dc.lft.to/lastmile_qr_scan", "android": "https://dc.lft.to/lastmile_qr_scan"}, "is_disabled": 0, "is_reserved": 0, "name": "b473db2eb04e599c7ea3a2770a6cd33b", "type": "electric_scooter", "fusion_lat": 0.0}, {"bike_id": "c9b6e25fbfd236a75492478c077fd5be", "lon": -77.04019916666667, "lat": 38.917972, "fusion_lon": 0.0, "rental_uris": {"ios": "https://dc.lft.to/lastmile_qr_scan", "android": "https://dc.lft.to/lastmile_qr_scan"}, "is_disabled": 0, "is_reserved": 0, "name": "c9b6e25fbfd236a75492478c077fd5be", "type": "electric_scooter", "fusion_lat": 0.0}, {"bike_id": "a80989d8192577f6c7940096febaf076", "lon": -77.0393575, "lat": 38.8985645, "fusion_lon": 0.0, "rental_uris": {"ios": "https://dc.lft.to/lastmile_qr_scan", "android": "https://dc.lft.to/lastmile_qr_scan"}, "is_disabled": 0, "is_reserved": 0, "name": "a80989d8192577f6c7940096febaf076", "type": "electric_scooter", "fusion_lat": 0.0}, {"bike_id": "30a66fbfe5442ae2cb117c5241998e89", "lon": -76.99929583333333, "lat": 39.03989416666667, "fusion_lon": 0.0, "rental_uris": {"ios": "https://dc.lft.to/lastmile_qr_scan", "android": "https://dc.lft.to/lastmile_qr_scan"}, "is_disabled": 0, "is_reserved": 0, "name": "30a66fbfe5442ae2cb117c5241998e89", "type": "electric_bike", "fusion_lat": 0.0}, {"bike_id": "f0995139c33390acb2ac8e2d15de1943", "lon": -77.041514, "lat": 38.923504, "fusion_lon": 0.0, "rental_uris": {"ios": "https://dc.lft.to/lastmile_qr_scan", "android": "https://dc.lft.to/lastmile_qr_scan"}, "is_disabled": 0, "is_reserved": 0, "name": "f0995139c33390acb2ac8e2d15de1943", "type": "electric_scooter", "fusion_lat": 0.0}, {"bike_id": "5e15547a42e7f8b3632aca59e9602e19", "lon": -77.00765133333333, "lat": 38.895930166666666, "fusion_lon": 0.0, "rental_uris": {"ios": "https://dc.lft.to/lastmile_qr_scan", "android": "https://dc.lft.to/lastmile_qr_scan"}, "is_disabled": 0, "is_reserved": 0, "name": "5e15547a42e7f8b3632aca59e9602e19", "type": "electric_scooter", "fusion_lat": 0.0}, {"bike_id": "7a37086f40fa27f5ae8bc10441dfe78b", "lon": -77.01996233333334, "lat": 38.966265, "fusion_lon": 0.0, "rental_uris": {"ios": "https://dc.lft.to/lastmile_qr_scan", "android": "https://dc.lft.to/lastmile_qr_scan"}, "is_disabled": 0, "is_reserved": 0, "name": "7a37086f40fa27f5ae8bc10441dfe78b", "type": "electric_scooter", "fusion_lat": 0.0}, {"bike_id": "3852efea803b948a0c292caf4fe29168", "lon": -77.02583383333334, "lat": 38.9033485, "fusion_lon": 0.0, "rental_uris": {"ios": "https://dc.lft.to/lastmile_qr_scan", "android": "https://dc.lft.to/lastmile_qr_scan"}, "is_disabled": 0, "is_reserved": 0, "name": "3852efea803b948a0c292caf4fe29168", "type": "electric_scooter", "fusion_lat": 0.0}, {"bike_id": "b03f7bc5a4bb1ca9dc01ebc1199b63d7", "lon": -77.05025216666667, "lat": 38.896708, "fusion_lon": 0.0, "rental_uris": {"ios": "https://dc.lft.to/lastmile_qr_scan", "android": "https://dc.lft.to/lastmile_qr_scan"}, "is_disabled": 0, "is_reserved": 0, "name": "b03f7bc5a4bb1ca9dc01ebc1199b63d7", "type": "electric_scooter", "fusion_lat": 0.0}, {"bike_id": "6caf6c1a25038fe2544e763eaa79afb7", "lon": -76.93408983333333, "lat": 38.89915116666667, "fusion_lon": 0.0, "rental_uris": {"ios": "https://dc.lft.to/lastmile_qr_scan", "android": "https://dc.lft.to/lastmile_qr_scan"}, "is_disabled": 0, "is_reserved": 0, "name": "6caf6c1a25038fe2544e763eaa79afb7", "type": "electric_scooter", "fusion_lat": 0.0}, {"bike_id": "b6789bf0a71b8f890e3fd91e12736656", "lon": -77.00911016666667, "lat": 38.909943166666665, "fusion_lon": 0.0, "rental_uris": {"ios": "https://dc.lft.to/lastmile_qr_scan", "android": "https://dc.lft.to/lastmile_qr_scan"}, "is_disabled": 0, "is_reserved": 0, "name": "b6789bf0a71b8f890e3fd91e12736656", "type": "electric_bike", "fusion_lat": 0.0}, {"bike_id": "dc28e0b8b83ee1d1239fe658ce425f87", "lon": -77.0085935, "lat": 38.91081666666667, "fusion_lon": 0.0, "rental_uris": {"ios": "https://dc.lft.to/lastmile_qr_scan", "android": "https://dc.lft.to/lastmile_qr_scan"}, "is_disabled": 0, "is_reserved": 0, "name": "dc28e0b8b83ee1d1239fe658ce425f87", "type": "electric_scooter", "fusion_lat": 0.0}, {"bike_id": "11f238217c675cbd79962d71ee09c3ea", "lon": -77.088178, "lat": 38.871684333333334, "fusion_lon": 0.0, "rental_uris": {"ios": "https://dc.lft.to/lastmile_qr_scan", "android": "https://dc.lft.to/lastmile_qr_scan"}, "is_disabled": 0, "is_reserved": 0, "name": "11f238217c675cbd79962d71ee09c3ea", "type": "electric_bike", "fusion_lat": 0.0}, {"bike_id": "1b7d9480ff152b51e625f3c59e6e7928", "lon": -77.05060783333333, "lat": 38.92417483333333, "fusion_lon": 0.0, "rental_uris": {"ios": "https://dc.lft.to/lastmile_qr_scan", "android": "https://dc.lft.to/lastmile_qr_scan"}, "is_disabled": 0, "is_reserved": 0, "name": "1b7d9480ff152b51e625f3c59e6e7928", "type": "electric_scooter", "fusion_lat": 0.0}, {"bike_id": "bf216e25ac43a7f6407e5278dfbd168b", "lon": -77.027221, "lat": 38.92405466666666, "fusion_lon": 0.0, "rental_uris": {"ios": "https://dc.lft.to/lastmile_qr_scan", "android": "https://dc.lft.to/lastmile_qr_scan"}, "is_disabled": 0, "is_reserved": 0, "name": "bf216e25ac43a7f6407e5278dfbd168b", "type": "electric_scooter", "fusion_lat": 0.0}, {"bike_id": "17668dab27f0aa4ce31f35427714af0b", "lon": -77.01825916666667, "lat": 38.92263883333333, "fusion_lon": 0.0, "rental_uris": {"ios": "https://dc.lft.to/lastmile_qr_scan", "android": "https://dc.lft.to/lastmile_qr_scan"}, "is_disabled": 0, "is_reserved": 0, "name": "17668dab27f0aa4ce31f35427714af0b", "type": "electric_scooter", "fusion_lat": 0.0}, {"bike_id": "c2dbf7f3c8a27e1bd8bfe3d7bde2f90e", "lon": -77.02399366666667, "lat": 38.920039333333335, "fusion_lon": 0.0, "rental_uris": {"ios": "https://dc.lft.to/lastmile_qr_scan", "android": "https://dc.lft.to/lastmile_qr_scan"}, "is_disabled": 0, "is_reserved": 0, "name": "c2dbf7f3c8a27e1bd8bfe3d7bde2f90e", "type": "electric_scooter", "fusion_lat": 0.0}, {"bike_id": "d27ed98c445d79fa517a3beeb7351bd1", "lon": -77.0341345, "lat": 38.9324085, "fusion_lon": 0.0, "rental_uris": {"ios": "https://dc.lft.to/lastmile_qr_scan", "android": "https://dc.lft.to/lastmile_qr_scan"}, "is_disabled": 0, "is_reserved": 0, "name": "d27ed98c445d79fa517a3beeb7351bd1", "type": "electric_scooter", "fusion_lat": 0.0}, {"bike_id": "d1987b3c47897b7f50d8cb7d70adff75", "lon": -77.04964633333333, "lat": 38.9074025, "fusion_lon": 0.0, "rental_uris": {"ios": "https://dc.lft.to/lastmile_qr_scan", "android": "https://dc.lft.to/lastmile_qr_scan"}, "is_disabled": 0, "is_reserved": 0, "name": "d1987b3c47897b7f50d8cb7d70adff75", "type": "electric_scooter", "fusion_lat": 0.0}, {"bike_id": "3e587700f0bb210bfd882d4f1bb5ab63", "lon": -77.02650766666666, "lat": 38.94983083333333, "fusion_lon": 0.0, "rental_uris": {"ios": "https://dc.lft.to/lastmile_qr_scan", "android": "https://dc.lft.to/lastmile_qr_scan"}, "is_disabled": 0, "is_reserved": 0, "name": "3e587700f0bb210bfd882d4f1bb5ab63", "type": "electric_scooter", "fusion_lat": 0.0}, {"bike_id": "0111ab72235f41ed3647e959c92b5ab0", "lon": -77.004418, "lat": 38.876681833333336, "fusion_lon": 0.0, "rental_uris": {"ios": "https://dc.lft.to/lastmile_qr_scan", "android": "https://dc.lft.to/lastmile_qr_scan"}, "is_disabled": 0, "is_reserved": 0, "name": "0111ab72235f41ed3647e959c92b5ab0", "type": "electric_scooter", "fusion_lat": 0.0}, {"bike_id": "b79dfe83d521044effeb5aebe84d30e2", "lon": -77.0716505, "lat": 38.90777383333333, "fusion_lon": 0.0, "rental_uris": {"ios": "https://dc.lft.to/lastmile_qr_scan", "android": "https://dc.lft.to/lastmile_qr_scan"}, "is_disabled": 0, "is_reserved": 0, "name": "b79dfe83d521044effeb5aebe84d30e2", "type": "electric_scooter", "fusion_lat": 0.0}, {"bike_id": "533523651d2f15de7c49f072d2911dbd", "lon": -77.00134783333333, "lat": 38.886111166666666, "fusion_lon": 0.0, "rental_uris": {"ios": "https://dc.lft.to/lastmile_qr_scan", "android": "https://dc.lft.to/lastmile_qr_scan"}, "is_disabled": 0, "is_reserved": 0, "name": "533523651d2f15de7c49f072d2911dbd", "type": "electric_scooter", "fusion_lat": 0.0}, {"bike_id": "f41ba0cca7d30bc66b20d8374ea3a147", "lon": -77.02792666666667, "lat": 38.95840316666666, "fusion_lon": 0.0, "rental_uris": {"ios": "https://dc.lft.to/lastmile_qr_scan", "android": "https://dc.lft.to/lastmile_qr_scan"}, "is_disabled": 0, "is_reserved": 0, "name": "f41ba0cca7d30bc66b20d8374ea3a147", "type": "electric_scooter", "fusion_lat": 0.0}, {"bike_id": "912af019d83bda402afb13aa58ed2823", "lon": -76.9823205, "lat": 38.866172666666664, "fusion_lon": 0.0, "rental_uris": {"ios": "https://dc.lft.to/lastmile_qr_scan", "android": "https://dc.lft.to/lastmile_qr_scan"}, "is_disabled": 0, "is_reserved": 0, "name": "912af019d83bda402afb13aa58ed2823", "type": "electric_scooter", "fusion_lat": 0.0}, {"bike_id": "a4da43eec4fd680734eb0643dffce12a", "lon": -77.00217366666666, "lat": 38.823693666666664, "fusion_lon": 0.0, "rental_uris": {"ios": "https://dc.lft.to/lastmile_qr_scan", "android": "https://dc.lft.to/lastmile_qr_scan"}, "is_disabled": 0, "is_reserved": 0, "name": "a4da43eec4fd680734eb0643dffce12a", "type": "electric_bike", "fusion_lat": 0.0}, {"bike_id": "bfa48140e7fecf629a01f248816af7a8", "lon": -77.04714716666666, "lat": 38.922335333333336, "fusion_lon": 0.0, "rental_uris": {"ios": "https://dc.lft.to/lastmile_qr_scan", "android": "https://dc.lft.to/lastmile_qr_scan"}, "is_disabled": 0, "is_reserved": 0, "name": "bfa48140e7fecf629a01f248816af7a8", "type": "electric_scooter", "fusion_lat": 0.0}, {"bike_id": "57665eac29e5488a520e92d7d76f4d0a", "lon": -77.1183015, "lat": 38.8593735, "fusion_lon": 0.0, "rental_uris": {"ios": "https://dc.lft.to/lastmile_qr_scan", "android": "https://dc.lft.to/lastmile_qr_scan"}, "is_disabled": 0, "is_reserved": 0, "name": "57665eac29e5488a520e92d7d76f4d0a", "type": "electric_bike", "fusion_lat": 0.0}, {"bike_id": "f7bddf59f33277c7a5a3e054f34ba2ba", "lon": -77.0312625, "lat": 38.920154833333335, "fusion_lon": 0.0, "rental_uris": {"ios": "https://dc.lft.to/lastmile_qr_scan", "android": "https://dc.lft.to/lastmile_qr_scan"}, "is_disabled": 0, "is_reserved": 0, "name": "f7bddf59f33277c7a5a3e054f34ba2ba", "type": "electric_scooter", "fusion_lat": 0.0}, {"bike_id": "76d415130dce7646a92dc1489734a682", "lon": -76.9377115, "lat": 38.90368466666666, "fusion_lon": 0.0, "rental_uris": {"ios": "https://dc.lft.to/lastmile_qr_scan", "android": "https://dc.lft.to/lastmile_qr_scan"}, "is_disabled": 0, "is_reserved": 0, "name": "76d415130dce7646a92dc1489734a682", "type": "electric_scooter", "fusion_lat": 0.0}, {"bike_id": "5ef2cf4071b07f3ddb0f85dea39d8c9c", "lon": -77.023512, "lat": 38.935314166666664, "fusion_lon": 0.0, "rental_uris": {"ios": "https://dc.lft.to/lastmile_qr_scan", "android": "https://dc.lft.to/lastmile_qr_scan"}, "is_disabled": 0, "is_reserved": 0, "name": "5ef2cf4071b07f3ddb0f85dea39d8c9c", "type": "electric_scooter", "fusion_lat": 0.0}, {"bike_id": "9bdc24cdfc4475272014e6ca70171276", "lon": -77.01952583333333, "lat": 38.923149333333335, "fusion_lon": 0.0, "rental_uris": {"ios": "https://dc.lft.to/lastmile_qr_scan", "android": "https://dc.lft.to/lastmile_qr_scan"}, "is_disabled": 0, "is_reserved": 0, "name": "9bdc24cdfc4475272014e6ca70171276", "type": "electric_scooter", "fusion_lat": 0.0}, {"bike_id": "6da374073ec89349e8a6596fdf4e4b0c", "lon": -77.04980583333334, "lat": 39.062934, "fusion_lon": 0.0, "rental_uris": {"ios": "https://dc.lft.to/lastmile_qr_scan", "android": "https://dc.lft.to/lastmile_qr_scan"}, "is_disabled": 0, "is_reserved": 0, "name": "6da374073ec89349e8a6596fdf4e4b0c", "type": "electric_bike", "fusion_lat": 0.0}, {"bike_id": "9a6e755755dc8d7ea3ae60b7309d6385", "lon": -77.04088533333334, "lat": 38.892254666666666, "fusion_lon": 0.0, "rental_uris": {"ios": "https://dc.lft.to/lastmile_qr_scan", "android": "https://dc.lft.to/lastmile_qr_scan"}, "is_disabled": 0, "is_reserved": 0, "name": "9a6e755755dc8d7ea3ae60b7309d6385", "type": "electric_scooter", "fusion_lat": 0.0}, {"bike_id": "545ec01a2a86ed14c6c6edcb355485eb", "lon": -76.9305955, "lat": 38.901551, "fusion_lon": 0.0, "rental_uris": {"ios": "https://dc.lft.to/lastmile_qr_scan", "android": "https://dc.lft.to/lastmile_qr_scan"}, "is_disabled": 0, "is_reserved": 0, "name": "545ec01a2a86ed14c6c6edcb355485eb", "type": "electric_scooter", "fusion_lat": 0.0}, {"bike_id": "244bbccdc2d0ae316cf79ce882e8e2ff", "lon": -77.03701016666666, "lat": 38.906386833333336, "fusion_lon": 0.0, "rental_uris": {"ios": "https://dc.lft.to/lastmile_qr_scan", "android": "https://dc.lft.to/lastmile_qr_scan"}, "is_disabled": 0, "is_reserved": 0, "name": "244bbccdc2d0ae316cf79ce882e8e2ff", "type": "electric_scooter", "fusion_lat": 0.0}, {"bike_id": "ea2172187dec0701325b274f98c914da", "lon": -77.04168633333333, "lat": 38.9066005, "fusion_lon": 0.0, "rental_uris": {"ios": "https://dc.lft.to/lastmile_qr_scan", "android": "https://dc.lft.to/lastmile_qr_scan"}, "is_disabled": 0, "is_reserved": 0, "name": "ea2172187dec0701325b274f98c914da", "type": "electric_scooter", "fusion_lat": 0.0}, {"bike_id": "cc92b05b0e8475442ae952fce61028bb", "lon": -76.92984416666667, "lat": 38.9014665, "fusion_lon": 0.0, "rental_uris": {"ios": "https://dc.lft.to/lastmile_qr_scan", "android": "https://dc.lft.to/lastmile_qr_scan"}, "is_disabled": 0, "is_reserved": 0, "name": "cc92b05b0e8475442ae952fce61028bb", "type": "electric_scooter", "fusion_lat": 0.0}, {"bike_id": "d5f40f034f6c6baac79c7be422446c13", "lon": -77.00435233333333, "lat": 38.876693333333336, "fusion_lon": 0.0, "rental_uris": {"ios": "https://dc.lft.to/lastmile_qr_scan", "android": "https://dc.lft.to/lastmile_qr_scan"}, "is_disabled": 0, "is_reserved": 0, "name": "d5f40f034f6c6baac79c7be422446c13", "type": "electric_scooter", "fusion_lat": 0.0}, {"bike_id": "473edc6db4f0ddc3bbfb4630b3dad19b", "lon": -77.03197683333333, "lat": 38.90706683333333, "fusion_lon": 0.0, "rental_uris": {"ios": "https://dc.lft.to/lastmile_qr_scan", "android": "https://dc.lft.to/lastmile_qr_scan"}, "is_disabled": 0, "is_reserved": 0, "name": "473edc6db4f0ddc3bbfb4630b3dad19b", "type": "electric_scooter", "fusion_lat": 0.0}, {"bike_id": "4a0c05816429e29b5fff8d102e5aff77", "lon": -76.98745933333333, "lat": 38.908035166666664, "fusion_lon": 0.0, "rental_uris": {"ios": "https://dc.lft.to/lastmile_qr_scan", "android": "https://dc.lft.to/lastmile_qr_scan"}, "is_disabled": 0, "is_reserved": 0, "name": "4a0c05816429e29b5fff8d102e5aff77", "type": "electric_scooter", "fusion_lat": 0.0}, {"bike_id": "2f679da71539bf5664e7494547db39b9", "lon": -76.96772633333333, "lat": 38.874196833333336, "fusion_lon": 0.0, "rental_uris": {"ios": "https://dc.lft.to/lastmile_qr_scan", "android": "https://dc.lft.to/lastmile_qr_scan"}, "is_disabled": 0, "is_reserved": 0, "name": "2f679da71539bf5664e7494547db39b9", "type": "electric_scooter", "fusion_lat": 0.0}, {"bike_id": "e60c275a34bf8f87109a15c40e2a7aad", "lon": -77.02695283333334, "lat": 38.92249, "fusion_lon": 0.0, "rental_uris": {"ios": "https://dc.lft.to/lastmile_qr_scan", "android": "https://dc.lft.to/lastmile_qr_scan"}, "is_disabled": 0, "is_reserved": 0, "name": "e60c275a34bf8f87109a15c40e2a7aad", "type": "electric_scooter", "fusion_lat": 0.0}, {"bike_id": "9386f4deec26b7a0f6f0e549fd57868b", "lon": -77.036573, "lat": 38.92244083333333, "fusion_lon": 0.0, "rental_uris": {"ios": "https://dc.lft.to/lastmile_qr_scan", "android": "https://dc.lft.to/lastmile_qr_scan"}, "is_disabled": 0, "is_reserved": 0, "name": "9386f4deec26b7a0f6f0e549fd57868b", "type": "electric_scooter", "fusion_lat": 0.0}, {"bike_id": "1ffc1afa4c33b3165a698da16a631c32", "lon": -77.04906633333333, "lat": 38.888411, "fusion_lon": 0.0, "rental_uris": {"ios": "https://dc.lft.to/lastmile_qr_scan", "android": "https://dc.lft.to/lastmile_qr_scan"}, "is_disabled": 0, "is_reserved": 0, "name": "1ffc1afa4c33b3165a698da16a631c32", "type": "electric_scooter", "fusion_lat": 0.0}, {"bike_id": "650589d88483c03cf173a38f02812cdb", "lon": -77.053192, "lat": 38.91553916666667, "fusion_lon": 0.0, "rental_uris": {"ios": "https://dc.lft.to/lastmile_qr_scan", "android": "https://dc.lft.to/lastmile_qr_scan"}, "is_disabled": 0, "is_reserved": 0, "name": "650589d88483c03cf173a38f02812cdb", "type": "electric_scooter", "fusion_lat": 0.0}, {"bike_id": "69817781c7333f29912999ed3e9327b5", "lon": -77.04332483333333, "lat": 38.8922795, "fusion_lon": 0.0, "rental_uris": {"ios": "https://dc.lft.to/lastmile_qr_scan", "android": "https://dc.lft.to/lastmile_qr_scan"}, "is_disabled": 0, "is_reserved": 0, "name": "69817781c7333f29912999ed3e9327b5", "type": "electric_scooter", "fusion_lat": 0.0}, {"bike_id": "e084ef236940df3b9f5b358df79cb65d", "lon": -77.047598, "lat": 38.9175945, "fusion_lon": 0.0, "rental_uris": {"ios": "https://dc.lft.to/lastmile_qr_scan", "android": "https://dc.lft.to/lastmile_qr_scan"}, "is_disabled": 0, "is_reserved": 0, "name": "e084ef236940df3b9f5b358df79cb65d", "type": "electric_scooter", "fusion_lat": 0.0}, {"bike_id": "38a734f907a6c2250de38e3f8784a49b", "lon": -77.038338, "lat": 38.90799233333333, "fusion_lon": 0.0, "rental_uris": {"ios": "https://dc.lft.to/lastmile_qr_scan", "android": "https://dc.lft.to/lastmile_qr_scan"}, "is_disabled": 0, "is_reserved": 0, "name": "38a734f907a6c2250de38e3f8784a49b", "type": "electric_scooter", "fusion_lat": 0.0}, {"bike_id": "921fe0bf6baa57ef0d52145d9e43d679", "lon": -77.05974233333333, "lat": 38.92832933333333, "fusion_lon": 0.0, "rental_uris": {"ios": "https://dc.lft.to/lastmile_qr_scan", "android": "https://dc.lft.to/lastmile_qr_scan"}, "is_disabled": 0, "is_reserved": 0, "name": "921fe0bf6baa57ef0d52145d9e43d679", "type": "electric_scooter", "fusion_lat": 0.0}, {"bike_id": "ef9623e4170a3f9cf95c81c77a38f15a", "lon": -77.0646015, "lat": 38.97393366666667, "fusion_lon": 0.0, "rental_uris": {"ios": "https://dc.lft.to/lastmile_qr_scan", "android": "https://dc.lft.to/lastmile_qr_scan"}, "is_disabled": 0, "is_reserved": 0, "name": "ef9623e4170a3f9cf95c81c77a38f15a", "type": "electric_bike", "fusion_lat": 0.0}, {"bike_id": "aa9fcefa09e49465d920ef320ead6f0d", "lon": -77.01015333333334, "lat": 38.9071355, "fusion_lon": 0.0, "rental_uris": {"ios": "https://dc.lft.to/lastmile_qr_scan", "android": "https://dc.lft.to/lastmile_qr_scan"}, "is_disabled": 0, "is_reserved": 0, "name": "aa9fcefa09e49465d920ef320ead6f0d", "type": "electric_scooter", "fusion_lat": 0.0}, {"bike_id": "b8b11de772191b14a3b27d03f2fb81e3", "lon": -77.03458916666666, "lat": 38.91826966666667, "fusion_lon": 0.0, "rental_uris": {"ios": "https://dc.lft.to/lastmile_qr_scan", "android": "https://dc.lft.to/lastmile_qr_scan"}, "is_disabled": 0, "is_reserved": 0, "name": "b8b11de772191b14a3b27d03f2fb81e3", "type": "electric_scooter", "fusion_lat": 0.0}, {"bike_id": "52c9120e7e87df457be4bf80db1c1a19", "lon": -77.0222065, "lat": 38.91117583333333, "fusion_lon": 0.0, "rental_uris": {"ios": "https://dc.lft.to/lastmile_qr_scan", "android": "https://dc.lft.to/lastmile_qr_scan"}, "is_disabled": 0, "is_reserved": 0, "name": "52c9120e7e87df457be4bf80db1c1a19", "type": "electric_scooter", "fusion_lat": 0.0}, {"bike_id": "0067a748d3d34fc775448f22e781780e", "lon": -77.02907133333333, "lat": 38.900423, "fusion_lon": 0.0, "rental_uris": {"ios": "https://dc.lft.to/lastmile_qr_scan", "android": "https://dc.lft.to/lastmile_qr_scan"}, "is_disabled": 0, "is_reserved": 0, "name": "0067a748d3d34fc775448f22e781780e", "type": "electric_scooter", "fusion_lat": 0.0}, {"bike_id": "635a3b96ec2cf0b4e0940a91ce3ef13d", "lon": -77.05574583333333, "lat": 38.897315, "fusion_lon": 0.0, "rental_uris": {"ios": "https://dc.lft.to/lastmile_qr_scan", "android": "https://dc.lft.to/lastmile_qr_scan"}, "is_disabled": 0, "is_reserved": 0, "name": "635a3b96ec2cf0b4e0940a91ce3ef13d", "type": "electric_scooter", "fusion_lat": 0.0}, {"bike_id": "b0321ea844565df847645c58d843d3fc", "lon": -77.04675716666667, "lat": 38.895105, "fusion_lon": 0.0, "rental_uris": {"ios": "https://dc.lft.to/lastmile_qr_scan", "android": "https://dc.lft.to/lastmile_qr_scan"}, "is_disabled": 0, "is_reserved": 0, "name": "b0321ea844565df847645c58d843d3fc", "type": "electric_scooter", "fusion_lat": 0.0}, {"bike_id": "940148871d01be6f417e2d6761aaffa3", "lon": -77.01996183333333, "lat": 38.918986833333335, "fusion_lon": 0.0, "rental_uris": {"ios": "https://dc.lft.to/lastmile_qr_scan", "android": "https://dc.lft.to/lastmile_qr_scan"}, "is_disabled": 0, "is_reserved": 0, "name": "940148871d01be6f417e2d6761aaffa3", "type": "electric_scooter", "fusion_lat": 0.0}, {"bike_id": "033caf9fc996a94ebb4266b44caed925", "lon": -76.98272766666666, "lat": 38.88534116666666, "fusion_lon": 0.0, "rental_uris": {"ios": "https://dc.lft.to/lastmile_qr_scan", "android": "https://dc.lft.to/lastmile_qr_scan"}, "is_disabled": 0, "is_reserved": 0, "name": "033caf9fc996a94ebb4266b44caed925", "type": "electric_scooter", "fusion_lat": 0.0}, {"bike_id": "5b5ba23272d4d2a13f4fe32bb1a03e2f", "lon": -76.9748665, "lat": 38.9035115, "fusion_lon": 0.0, "rental_uris": {"ios": "https://dc.lft.to/lastmile_qr_scan", "android": "https://dc.lft.to/lastmile_qr_scan"}, "is_disabled": 0, "is_reserved": 0, "name": "5b5ba23272d4d2a13f4fe32bb1a03e2f", "type": "electric_scooter", "fusion_lat": 0.0}, {"bike_id": "a06762fccf2895a31aa066e5e84c022d", "lon": -77.05256666666666, "lat": 38.92510883333333, "fusion_lon": 0.0, "rental_uris": {"ios": "https://dc.lft.to/lastmile_qr_scan", "android": "https://dc.lft.to/lastmile_qr_scan"}, "is_disabled": 0, "is_reserved": 0, "name": "a06762fccf2895a31aa066e5e84c022d", "type": "electric_scooter", "fusion_lat": 0.0}, {"bike_id": "cc237c6b100df804f0c088c385de5a13", "lon": -77.0378445, "lat": 38.93600683333333, "fusion_lon": 0.0, "rental_uris": {"ios": "https://dc.lft.to/lastmile_qr_scan", "android": "https://dc.lft.to/lastmile_qr_scan"}, "is_disabled": 0, "is_reserved": 0, "name": "cc237c6b100df804f0c088c385de5a13", "type": "electric_scooter", "fusion_lat": 0.0}, {"bike_id": "1648b17e99b30f888074ee274054a0fe", "lon": -77.070175, "lat": 38.90509383333333, "fusion_lon": 0.0, "rental_uris": {"ios": "https://dc.lft.to/lastmile_qr_scan", "android": "https://dc.lft.to/lastmile_qr_scan"}, "is_disabled": 0, "is_reserved": 0, "name": "1648b17e99b30f888074ee274054a0fe", "type": "electric_scooter", "fusion_lat": 0.0}, {"bike_id": "883b58b817d163a6dbd6e4487e16e7d5", "lon": -77.0122505, "lat": 38.93044783333333, "fusion_lon": 0.0, "rental_uris": {"ios": "https://dc.lft.to/lastmile_qr_scan", "android": "https://dc.lft.to/lastmile_qr_scan"}, "is_disabled": 0, "is_reserved": 0, "name": "883b58b817d163a6dbd6e4487e16e7d5", "type": "electric_scooter", "fusion_lat": 0.0}, {"bike_id": "9c0431c54e096a4abdd09f4a672e88a9", "lon": -77.01099266666667, "lat": 38.9631165, "fusion_lon": 0.0, "rental_uris": {"ios": "https://dc.lft.to/lastmile_qr_scan", "android": "https://dc.lft.to/lastmile_qr_scan"}, "is_disabled": 0, "is_reserved": 0, "name": "9c0431c54e096a4abdd09f4a672e88a9", "type": "electric_bike", "fusion_lat": 0.0}, {"bike_id": "e10978febb209285b344c31ab4a0c305", "lon": -77.08962016666666, "lat": 38.918131333333335, "fusion_lon": 0.0, "rental_uris": {"ios": "https://dc.lft.to/lastmile_qr_scan", "android": "https://dc.lft.to/lastmile_qr_scan"}, "is_disabled": 0, "is_reserved": 0, "name": "e10978febb209285b344c31ab4a0c305", "type": "electric_scooter", "fusion_lat": 0.0}, {"bike_id": "7b51f80b3a1e56f47be451356507e0da", "lon": -77.020286, "lat": 38.91305583333333, "fusion_lon": 0.0, "rental_uris": {"ios": "https://dc.lft.to/lastmile_qr_scan", "android": "https://dc.lft.to/lastmile_qr_scan"}, "is_disabled": 0, "is_reserved": 0, "name": "7b51f80b3a1e56f47be451356507e0da", "type": "electric_scooter", "fusion_lat": 0.0}, {"bike_id": "55676e3a12c8a52f33397cb6d4d4b3d8", "lon": -76.97362533333333, "lat": 38.963250333333335, "fusion_lon": 0.0, "rental_uris": {"ios": "https://dc.lft.to/lastmile_qr_scan", "android": "https://dc.lft.to/lastmile_qr_scan"}, "is_disabled": 0, "is_reserved": 0, "name": "55676e3a12c8a52f33397cb6d4d4b3d8", "type": "electric_bike", "fusion_lat": 0.0}, {"bike_id": "afc01caf17d7627da319e99a48831e5b", "lon": -77.04167883333334, "lat": 38.918912, "fusion_lon": 0.0, "rental_uris": {"ios": "https://dc.lft.to/lastmile_qr_scan", "android": "https://dc.lft.to/lastmile_qr_scan"}, "is_disabled": 0, "is_reserved": 0, "name": "afc01caf17d7627da319e99a48831e5b", "type": "electric_scooter", "fusion_lat": 0.0}, {"bike_id": "c869644657d3f6b88a760626a960d386", "lon": -77.0241885, "lat": 38.919222833333336, "fusion_lon": 0.0, "rental_uris": {"ios": "https://dc.lft.to/lastmile_qr_scan", "android": "https://dc.lft.to/lastmile_qr_scan"}, "is_disabled": 0, "is_reserved": 0, "name": "c869644657d3f6b88a760626a960d386", "type": "electric_scooter", "fusion_lat": 0.0}, {"bike_id": "2a58d11a645abb262e72b44712adc06d", "lon": -77.03471016666667, "lat": 38.916993166666664, "fusion_lon": 0.0, "rental_uris": {"ios": "https://dc.lft.to/lastmile_qr_scan", "android": "https://dc.lft.to/lastmile_qr_scan"}, "is_disabled": 0, "is_reserved": 0, "name": "2a58d11a645abb262e72b44712adc06d", "type": "electric_scooter", "fusion_lat": 0.0}, {"bike_id": "9aa6e4d193f30263543edc0755a73e6b", "lon": -77.04176166666667, "lat": 38.904850833333334, "fusion_lon": 0.0, "rental_uris": {"ios": "https://dc.lft.to/lastmile_qr_scan", "android": "https://dc.lft.to/lastmile_qr_scan"}, "is_disabled": 0, "is_reserved": 0, "name": "9aa6e4d193f30263543edc0755a73e6b", "type": "electric_scooter", "fusion_lat": 0.0}, {"bike_id": "49ee05ba725566419cc19373889aac99", "lon": -77.03810466666667, "lat": 38.91265216666667, "fusion_lon": 0.0, "rental_uris": {"ios": "https://dc.lft.to/lastmile_qr_scan", "android": "https://dc.lft.to/lastmile_qr_scan"}, "is_disabled": 0, "is_reserved": 0, "name": "49ee05ba725566419cc19373889aac99", "type": "electric_scooter", "fusion_lat": 0.0}, {"bike_id": "89ddf0bd02252380f0dc33d95879a013", "lon": -76.98097983333334, "lat": 38.95352616666667, "fusion_lon": 0.0, "rental_uris": {"ios": "https://dc.lft.to/lastmile_qr_scan", "android": "https://dc.lft.to/lastmile_qr_scan"}, "is_disabled": 0, "is_reserved": 0, "name": "89ddf0bd02252380f0dc33d95879a013", "type": "electric_bike", "fusion_lat": 0.0}, {"bike_id": "d34587d07c9dab02d2eca383cec36456", "lon": -77.021759, "lat": 38.94292883333333, "fusion_lon": 0.0, "rental_uris": {"ios": "https://dc.lft.to/lastmile_qr_scan", "android": "https://dc.lft.to/lastmile_qr_scan"}, "is_disabled": 0, "is_reserved": 0, "name": "d34587d07c9dab02d2eca383cec36456", "type": "electric_scooter", "fusion_lat": 0.0}, {"bike_id": "f0eae386f2028efadc3f2b16a8715f0c", "lon": -76.95103816666666, "lat": 38.88822533333333, "fusion_lon": 0.0, "rental_uris": {"ios": "https://dc.lft.to/lastmile_qr_scan", "android": "https://dc.lft.to/lastmile_qr_scan"}, "is_disabled": 0, "is_reserved": 0, "name": "f0eae386f2028efadc3f2b16a8715f0c", "type": "electric_scooter", "fusion_lat": 0.0}, {"bike_id": "51c482ff2143324a21adf4010dd18bed", "lon": -77.038208, "lat": 38.90772066666667, "fusion_lon": 0.0, "rental_uris": {"ios": "https://dc.lft.to/lastmile_qr_scan", "android": "https://dc.lft.to/lastmile_qr_scan"}, "is_disabled": 0, "is_reserved": 0, "name": "51c482ff2143324a21adf4010dd18bed", "type": "electric_scooter", "fusion_lat": 0.0},