{"data": {"bikes": [{"fusion_lon": 0.0, "is_reserved": 0, "bike_id": "c818e683156f5cbeca7bb1916fbcd703", "lon": -77.03144583333334, "name": "c818e683156f5cbeca7bb1916fbcd703", "lat": 38.91187516666667, "fusion_lat": 0.0, "rental_uris": {"ios": "https://dc.lft.to/lastmile_qr_scan", "android": "https://dc.lft.to/lastmile_qr_scan"}, "is_disabled": 0, "type": "electric_scooter"}, {"fusion_lon": 0.0, "is_reserved": 0, "bike_id": "8ccfefe0f98e7cd8b97ff7c0b5f0db6c", "lon": -77.0427895, "name": "8ccfefe0f98e7cd8b97ff7c0b5f0db6c", "lat": 38.9118675, "fusion_lat": 0.0, "rental_uris": {"ios": "https://dc.lft.to/lastmile_qr_scan", "android": "https://dc.lft.to/lastmile_qr_scan"}, "is_disabled": 0, "type": "electric_scooter"}, {"fusion_lon": 0.0, "is_reserved": 0, "bike_id": "f825cc069df197dd676425b2adc73fcb", "lon": -77.04655183333334, "name": "f825cc069df197dd676425b2adc73fcb", "lat": 38.89502683333333, "fusion_lat": 0.0, "rental_uris": {"ios": "https://dc.lft.to/lastmile_qr_scan", "android": "https://dc.lft.to/lastmile_qr_scan"}, "is_disabled": 0, "type": "electric_scooter"}, {"fusion_lon": 0.0, "is_reserved": 0, "bike_id": "fb1d5056c4bd7d4a47ddd7b1933ec53a", "lon": -77.01417933333333, "name": "fb1d5056c4bd7d4a47ddd7b1933ec53a", "lat": 38.918147833333336, "fusion_lat": 0.0, "rental_uris": {"ios": "https://dc.lft.to/lastmile_qr_scan", "android": "https://dc.lft.to/lastmile_qr_scan"}, "is_disabled": 0, "type": "electric_scooter"}, {"fusion_lon": 0.0, "is_reserved": 0, "bike_id": "67a9b7e92da25945ef7685fd8de6ea81", "lon": -77.012163, "name": "67a9b7e92da25945ef7685fd8de6ea81", "lat": 38.82883416666667, "fusion_lat": 0.0, "rental_uris": {"ios": "https://dc.lft.to/lastmile_qr_scan", "android": "https://dc.lft.to/lastmile_qr_scan"}, "is_disabled": 0, "type": "electric_bike"}, {"fusion_lon": 0.0, "is_reserved": 0, "bike_id": "e546e19a80ab7e35315e2e3b696114e5", "lon": -77.01954533333334, "name": "e546e19a80ab7e35315e2e3b696114e5", "lat": 38.92263966666667, "fusion_lat": 0.0, "rental_uris": {"ios": "https://dc.lft.to/lastmile_qr_scan", "android": "https://dc.lft.to/lastmile_qr_scan"}, "is_disabled": 0, "type": "electric_scooter"}, {"fusion_lon": 0.0, "is_reserved": 0, "bike_id": "f237a0ac50942c311f052836a0b7ee3b", "lon": -77.02570166666666, "name": "f237a0ac50942c311f052836a0b7ee3b", "lat": 38.925750666666666, "fusion_lat": 0.0, "rental_uris": {"ios": "https://dc.lft.to/lastmile_qr_scan", "android": "https://dc.lft.to/lastmile_qr_scan"}, "is_disabled": 0, "type": "electric_scooter"}, {"fusion_lon": 0.0, "is_reserved": 0, "bike_id": "7f8de6d5fc9ec534fb2af5555096d006", "lon": -77.0320615, "name": "7f8de6d5fc9ec534fb2af5555096d006", "lat": 38.919478, "fusion_lat": 0.0, "rental_uris": {"ios": "https://dc.lft.to/lastmile_qr_scan", "android": "https://dc.lft.to/lastmile_qr_scan"}, "is_disabled": 0, "type": "electric_scooter"}, {"fusion_lon": 0.0, "is_reserved": 0, "bike_id": "d12a82a3645496f434a7a5c41261e472", "lon": -77.00920966666666, "name": "d12a82a3645496f434a7a5c41261e472", "lat": 38.95763616666667, "fusion_lat": 0.0, "rental_uris": {"ios": "https://dc.lft.to/lastmile_qr_scan", "android": "https://dc.lft.to/lastmile_qr_scan"}, "is_disabled": 0, "type": "electric_scooter"}, {"fusion_lon": 0.0, "is_reserved": 0, "bike_id": "9cc3c5a8a0f47179eff5a571bb7209b7", "lon": -76.9996205, "name": "9cc3c5a8a0f47179eff5a571bb7209b7", "lat": 38.9070295, "fusion_lat": 0.0, "rental_uris": {"ios": "https://dc.lft.to/lastmile_qr_scan", "android": "https://dc.lft.to/lastmile_qr_scan"}, "is_disabled": 0, "type": "electric_scooter"}, {"fusion_lon": 0.0, "is_reserved": 0, "bike_id": "9370dd6cca9cae11641f857eebd5bd09", "lon": -77.02728216666667, "name": "9370dd6cca9cae11641f857eebd5bd09", "lat": 38.9231475, "fusion_lat": 0.0, "rental_uris": {"ios": "https://dc.lft.to/lastmile_qr_scan", "android": "https://dc.lft.to/lastmile_qr_scan"}, "is_disabled": 0, "type": "electric_scooter"}, {"fusion_lon": 0.0, "is_reserved": 0, "bike_id": "5824fd583a5f079a69f1c5805197311c", "lon": -77.0247055, "name": "5824fd583a5f079a69f1c5805197311c", "lat": 38.917052166666664, "fusion_lat": 0.0, "rental_uris": {"ios": "https://dc.lft.to/lastmile_qr_scan", "android": "https://dc.lft.to/lastmile_qr_scan"}, "is_disabled": 0, "type": "electric_scooter"}, {"fusion_lon": 0.0, "is_reserved": 0, "bike_id": "afd725095a4c85a57db6f174826d8c25", "lon": -76.99811883333334, "name": "afd725095a4c85a57db6f174826d8c25", "lat": 38.92925833333334, "fusion_lat": 0.0, "rental_uris": {"ios": "https://dc.lft.to/lastmile_qr_scan", "android": "https://dc.lft.to/lastmile_qr_scan"}, "is_disabled": 0, "type": "electric_scooter"}, {"fusion_lon": 0.0, "is_reserved": 0, "bike_id": "72c8f11c8f58b1e099b257ee467eefa6", "lon": -77.00031166666666, "name": "72c8f11c8f58b1e099b257ee467eefa6", "lat": 38.8739975, "fusion_lat": 0.0, "rental_uris": {"ios": "https://dc.lft.to/lastmile_qr_scan", "android": "https://dc.lft.to/lastmile_qr_scan"}, "is_disabled": 0, "type": "electric_scooter"}, {"fusion_lon": 0.0, "is_reserved": 0, "bike_id": "578b4549268fdc4ffba0dd185e8fe535", "lon": -77.02373733333333, "name": "578b4549268fdc4ffba0dd185e8fe535", "lat": 38.90221566666666, "fusion_lat": 0.0, "rental_uris": {"ios": "https://dc.lft.to/lastmile_qr_scan", "android": "https://dc.lft.to/lastmile_qr_scan"}, "is_disabled": 0, "type": "electric_scooter"}, {"fusion_lon": 0.0, "is_reserved": 0, "bike_id": "e6feb7925d1a846503ef56a086d8065e", "lon": -77.0434455, "name": "e6feb7925d1a846503ef56a086d8065e", "lat": 38.896826, "fusion_lat": 0.0, "rental_uris": {"ios": "https://dc.lft.to/lastmile_qr_scan", "android": "https://dc.lft.to/lastmile_qr_scan"}, "is_disabled": 0, "type": "electric_scooter"}, {"fusion_lon": 0.0, "is_reserved": 0, "bike_id": "bd1de0a931f451c1c73b8be1bb12b705", "lon": -77.04488183333333, "name": "bd1de0a931f451c1c73b8be1bb12b705", "lat": 38.900115166666666, "fusion_lat": 0.0, "rental_uris": {"ios": "https://dc.lft.to/lastmile_qr_scan", "android": "https://dc.lft.to/lastmile_qr_scan"}, "is_disabled": 0, "type": "electric_scooter"}, {"fusion_lon": 0.0, "is_reserved": 0, "bike_id": "12856868c21ba80c7cd256ca9675c8a2", "lon": -77.03799816666667, "name": "12856868c21ba80c7cd256ca9675c8a2", "lat": 38.92076766666667, "fusion_lat": 0.0, "rental_uris": {"ios": "https://dc.lft.to/lastmile_qr_scan", "android": "https://dc.lft.to/lastmile_qr_scan"}, "is_disabled": 0, "type": "electric_scooter"}, {"fusion_lon": 0.0, "is_reserved": 0, "bike_id": "2e3b227bec7040fe7f4e1f45a6eeea37", "lon": -77.033665, "name": "2e3b227bec7040fe7f4e1f45a6eeea37", "lat": 38.91923833333333, "fusion_lat": 0.0, "rental_uris": {"ios": "https://dc.lft.to/lastmile_qr_scan", "android": "https://dc.lft.to/lastmile_qr_scan"}, "is_disabled": 0, "type": "electric_scooter"}, {"fusion_lon": 0.0, "is_reserved": 0, "bike_id": "7bcfd2be1c694c629af966073b32027f", "lon": -77.02785766666666, "name": "7bcfd2be1c694c629af966073b32027f", "lat": 38.961585666666664, "fusion_lat": 0.0, "rental_uris": {"ios": "https://dc.lft.to/lastmile_qr_scan", "android": "https://dc.lft.to/lastmile_qr_scan"}, "is_disabled": 0, "type": "electric_scooter"}, {"fusion_lon": 0.0, "is_reserved": 0, "bike_id": "428b327935b68d39e6e9b751a5ca9842", "lon": -77.01430066666667, "name": "428b327935b68d39e6e9b751a5ca9842", "lat": 38.918223, "fusion_lat": 0.0, "rental_uris": {"ios": "https://dc.lft.to/lastmile_qr_scan", "android": "https://dc.lft.to/lastmile_qr_scan"}, "is_disabled": 0, "type": "electric_scooter"}, {"fusion_lon": 0.0, "is_reserved": 0, "bike_id": "13ffce0145b12ca5a5051dacd0f49e75", "lon": -77.0379, "name": "13ffce0145b12ca5a5051dacd0f49e75", "lat": 38.92011133333333, "fusion_lat": 0.0, "rental_uris": {"ios": "https://dc.lft.to/lastmile_qr_scan", "android": "https://dc.lft.to/lastmile_qr_scan"}, "is_disabled": 0, "type": "electric_scooter"}, {"fusion_lon": 0.0, "is_reserved": 0, "bike_id": "a1d51fc20a08b60f8df61d9cd28d23de", "lon": -77.0319965, "name": "a1d51fc20a08b60f8df61d9cd28d23de", "lat": 38.91265116666667, "fusion_lat": 0.0, "rental_uris": {"ios": "https://dc.lft.to/lastmile_qr_scan", "android": "https://dc.lft.to/lastmile_qr_scan"}, "is_disabled": 0, "type": "electric_scooter"}, {"fusion_lon": 0.0, "is_reserved": 0, "bike_id": "ccb1728dc83475bf38acf48c6db3723d", "lon": -77.02688033333334, "name": "ccb1728dc83475bf38acf48c6db3723d", "lat": 38.89465716666667, "fusion_lat": 0.0, "rental_uris": {"ios": "https://dc.lft.to/lastmile_qr_scan", "android": "https://dc.lft.to/lastmile_qr_scan"}, "is_disabled": 0, "type": "electric_scooter"}, {"fusion_lon": 0.0, "is_reserved": 0, "bike_id": "4b522c7c19ef9fdcb99e99cf056a5db1", "lon": -77.02290883333333, "name": "4b522c7c19ef9fdcb99e99cf056a5db1", "lat": 38.919431333333335, "fusion_lat": 0.0, "rental_uris": {"ios": "https://dc.lft.to/lastmile_qr_scan", "android": "https://dc.lft.to/lastmile_qr_scan"}, "is_disabled": 0, "type": "electric_scooter"}, {"fusion_lon": 0.0, "is_reserved": 0, "bike_id": "6a52f21fdc831df18df7c3b98b9f92f2", "lon": -77.03180066666667, "name": "6a52f21fdc831df18df7c3b98b9f92f2", "lat": 38.91557783333333, "fusion_lat": 0.0, "rental_uris": {"ios": "https://dc.lft.to/lastmile_qr_scan", "android": "https://dc.lft.to/lastmile_qr_scan"}, "is_disabled": 0, "type": "electric_scooter"}, {"fusion_lon": 0.0, "is_reserved": 0, "bike_id": "265a27e71985a225afb5bf3df6e1a9e4", "lon": -76.983598, "name": "265a27e71985a225afb5bf3df6e1a9e4", "lat": 38.862657, "fusion_lat": 0.0, "rental_uris": {"ios": "https://dc.lft.to/lastmile_qr_scan", "android": "https://dc.lft.to/lastmile_qr_scan"}, "is_disabled": 0, "type": "electric_bike"}, {"fusion_lon": 0.0, "is_reserved": 0, "bike_id": "3aba8ebea4a105de0218150d025be597", "lon": -77.04555166666667, "name": "3aba8ebea4a105de0218150d025be597", "lat": 38.9207215, "fusion_lat": 0.0, "rental_uris": {"ios": "https://dc.lft.to/lastmile_qr_scan", "android": "https://dc.lft.to/lastmile_qr_scan"}, "is_disabled": 0, "type": "electric_scooter"}, {"fusion_lon": 0.0, "is_reserved": 0, "bike_id": "7b2d1e230be8b0e51f44c768c9d14c1b", "lon": -76.98683666666666, "name": "7b2d1e230be8b0e51f44c768c9d14c1b", "lat": 38.900212, "fusion_lat": 0.0, "rental_uris": {"ios": "https://dc.lft.to/lastmile_qr_scan", "android": "https://dc.lft.to/lastmile_qr_scan"}, "is_disabled": 0, "type": "electric_bike"}, {"fusion_lon": 0.0, "is_reserved": 0, "bike_id": "21d5aedaa9add82cd053f486b9854721", "lon": -76.99505533333334, "name": "21d5aedaa9add82cd053f486b9854721", "lat": 38.8949165, "fusion_lat": 0.0, "rental_uris": {"ios": "https://dc.lft.to/lastmile_qr_scan", "android": "https://dc.lft.to/lastmile_qr_scan"}, "is_disabled": 0, "type": "electric_scooter"}, {"fusion_lon": 0.0, "is_reserved": 0, "bike_id": "2f0b6db5383fe10964809458293fb221", "lon": -77.04071066666667, "name": "2f0b6db5383fe10964809458293fb221", "lat": 38.90579966666667, "fusion_lat": 0.0, "rental_uris": {"ios": "https://dc.lft.to/lastmile_qr_scan", "android": "https://dc.lft.to/lastmile_qr_scan"}, "is_disabled": 0, "type": "electric_scooter"}, {"fusion_lon": 0.0, "is_reserved": 0, "bike_id": "e8ec7ba133bfaf6ffcd80d40f265c72f", "lon": -76.99412983333333, "name": "e8ec7ba133bfaf6ffcd80d40f265c72f", "lat": 38.92110783333333, "fusion_lat": 0.0, "rental_uris": {"ios": "https://dc.lft.to/lastmile_qr_scan", "android": "https://dc.lft.to/lastmile_qr_scan"}, "is_disabled": 0, "type": "electric_scooter"}, {"fusion_lon": 0.0, "is_reserved": 0, "bike_id": "1098f6c056e16e4e4fc441362e4ebf30", "lon": -77.0477545, "name": "1098f6c056e16e4e4fc441362e4ebf30", "lat": 38.89894683333333, "fusion_lat": 0.0, "rental_uris": {"ios": "https://dc.lft.to/lastmile_qr_scan", "android": "https://dc.lft.to/lastmile_qr_scan"}, "is_disabled": 0, "type": "electric_scooter"}, {"fusion_lon": 0.0, "is_reserved": 0, "bike_id": "3ce5461a0659b460784d845e225ebafd", "lon": -77.02610483333333, "name": "3ce5461a0659b460784d845e225ebafd", "lat": 38.9039825, "fusion_lat": 0.0, "rental_uris": {"ios": "https://dc.lft.to/lastmile_qr_scan", "android": "https://dc.lft.to/lastmile_qr_scan"}, "is_disabled": 0, "type": "electric_scooter"}, {"fusion_lon": 0.0, "is_reserved": 0, "bike_id": "24140dd49f52f5f2e26fa98bd3038c3f", "lon": -76.99857516666667, "name": "24140dd49f52f5f2e26fa98bd3038c3f", "lat": 38.88664416666667, "fusion_lat": 0.0, "rental_uris": {"ios": "https://dc.lft.to/lastmile_qr_scan", "android": "https://dc.lft.to/lastmile_qr_scan"}, "is_disabled": 0, "type": "electric_scooter"}, {"fusion_lon": 0.0, "is_reserved": 0, "bike_id": "626889b60e1b6f2dbe976ed3c9bb0c1c", "lon": -77.021835, "name": "626889b60e1b6f2dbe976ed3c9bb0c1c", "lat": 38.893022, "fusion_lat": 0.0, "rental_uris": {"ios": "https://dc.lft.to/lastmile_qr_scan", "android": "https://dc.lft.to/lastmile_qr_scan"}, "is_disabled": 0, "type": "electric_scooter"}, {"fusion_lon": 0.0, "is_reserved": 0, "bike_id": "dec863d411140605f894478ea0625e8c", "lon": -76.98898083333333, "name": "dec863d411140605f894478ea0625e8c", "lat": 38.8954485, "fusion_lat": 0.0, "rental_uris": {"ios": "https://dc.lft.to/lastmile_qr_scan", "android": "https://dc.lft.to/lastmile_qr_scan"}, "is_disabled": 0, "type": "electric_scooter"}, {"fusion_lon": 0.0, "is_reserved": 0, "bike_id": "9369a3c33789d2bae2721221fbc1e237", "lon": -77.024323, "name": "9369a3c33789d2bae2721221fbc1e237", "lat": 38.926011833333334, "fusion_lat": 0.0, "rental_uris": {"ios": "https://dc.lft.to/lastmile_qr_scan", "android": "https://dc.lft.to/lastmile_qr_scan"}, "is_disabled": 0, "type": "electric_scooter"}, {"fusion_lon": 0.0, "is_reserved": 0, "bike_id": "4ca0529bc397c73b8766484174ade62a", "lon": -77.0052775, "name": "4ca0529bc397c73b8766484174ade62a", "lat": 38.896072833333335, "fusion_lat": 0.0, "rental_uris": {"ios": "https://dc.lft.to/lastmile_qr_scan", "android": "https://dc.lft.to/lastmile_qr_scan"}, "is_disabled": 0, "type": "electric_scooter"}, {"fusion_lon": 0.0, "is_reserved": 0, "bike_id": "7512bd3c02a1d3e4412dffe46a021f88", "lon": -77.02367266666667, "name": "7512bd3c02a1d3e4412dffe46a021f88", "lat": 38.937712, "fusion_lat": 0.0, "rental_uris": {"ios": "https://dc.lft.to/lastmile_qr_scan", "android": "https://dc.lft.to/lastmile_qr_scan"}, "is_disabled": 0, "type": "electric_scooter"}, {"fusion_lon": 0.0, "is_reserved": 0, "bike_id": "fbd34c7902023d69ab8e56aa8b2a13c5", "lon": -77.02306816666666, "name": "fbd34c7902023d69ab8e56aa8b2a13c5", "lat": 38.965521333333335, "fusion_lat": 0.0, "rental_uris": {"ios": "https://dc.lft.to/lastmile_qr_scan", "android": "https://dc.lft.to/lastmile_qr_scan"}, "is_disabled": 0, "type": "electric_bike"}, {"fusion_lon": 0.0, "is_reserved": 0, "bike_id": "edf05405b1540e39ceaf2596ad8caf7a", "lon": -77.028819, "name": "edf05405b1540e39ceaf2596ad8caf7a", "lat": 38.91704433333334, "fusion_lat": 0.0, "rental_uris": {"ios": "https://dc.lft.to/lastmile_qr_scan", "android": "https://dc.lft.to/lastmile_qr_scan"}, "is_disabled": 0, "type": "electric_scooter"}, {"fusion_lon": 0.0, "is_reserved": 0, "bike_id": "b4097233c0a49fdef44dfd0979159dc2", "lon": -77.05295, "name": "b4097233c0a49fdef44dfd0979159dc2", "lat": 38.910209333333334, "fusion_lat": 0.0, "rental_uris": {"ios": "https://dc.lft.to/lastmile_qr_scan", "android": "https://dc.lft.to/lastmile_qr_scan"}, "is_disabled": 0, "type": "electric_scooter"}, {"fusion_lon": 0.0, "is_reserved": 0, "bike_id": "a179b36623efcf8927eddb8739913a64", "lon": -77.04338516666667, "name": "a179b36623efcf8927eddb8739913a64", "lat": 38.89224633333333, "fusion_lat": 0.0, "rental_uris": {"ios": "https://dc.lft.to/lastmile_qr_scan", "android": "https://dc.lft.to/lastmile_qr_scan"}, "is_disabled": 0, "type": "electric_scooter"}, {"fusion_lon": 0.0, "is_reserved": 0, "bike_id": "048177fe9d7f3784d19ceceec3d3a2a0", "lon": -77.0033025, "name": "048177fe9d7f3784d19ceceec3d3a2a0", "lat": 38.90264916666667, "fusion_lat": 0.0, "rental_uris": {"ios": "https://dc.lft.to/lastmile_qr_scan", "android": "https://dc.lft.to/lastmile_qr_scan"}, "is_disabled": 0, "type": "electric_scooter"}, {"fusion_lon": 0.0, "is_reserved": 0, "bike_id": "5dbc4a8a2e9f7ab493b69d44141cbcd0", "lon": -77.03865133333333, "name": "5dbc4a8a2e9f7ab493b69d44141cbcd0", "lat": 38.90267566666667, "fusion_lat": 0.0, "rental_uris": {"ios": "https://dc.lft.to/lastmile_qr_scan", "android": "https://dc.lft.to/lastmile_qr_scan"}, "is_disabled": 0, "type": "electric_scooter"}, {"fusion_lon": 0.0, "is_reserved": 0, "bike_id": "d5d68d5f603541315800f33298dde155", "lon": -77.0323395, "name": "d5d68d5f603541315800f33298dde155", "lat": 38.929850333333334, "fusion_lat": 0.0, "rental_uris": {"ios": "https://dc.lft.to/lastmile_qr_scan", "android": "https://dc.lft.to/lastmile_qr_scan"}, "is_disabled": 0, "type": "electric_scooter"}, {"fusion_lon": 0.0, "is_reserved": 0, "bike_id": "0bbf93677d9009490649b24c49bbe26b", "lon": -77.01496766666666, "name": "0bbf93677d9009490649b24c49bbe26b", "lat": 38.926741666666665, "fusion_lat": 0.0, "rental_uris": {"ios": "https://dc.lft.to/lastmile_qr_scan", "android": "https://dc.lft.to/lastmile_qr_scan"}, "is_disabled": 0, "type": "electric_scooter"}, {"fusion_lon": 0.0, "is_reserved": 0, "bike_id": "89b8752b1c221fb7fc0bf160d470f270", "lon": -77.02858366666666, "name": "89b8752b1c221fb7fc0bf160d470f270", "lat": 38.90144683333333, "fusion_lat": 0.0, "rental_uris": {"ios": "https://dc.lft.to/lastmile_qr_scan", "android": "https://dc.lft.to/lastmile_qr_scan"}, "is_disabled": 0, "type": "electric_scooter"}, {"fusion_lon": 0.0, "is_reserved": 0, "bike_id": "f12dc040cf8f79b3c4ae2a2658f28582", "lon": -77.04782533333334, "name": "f12dc040cf8f79b3c4ae2a2658f28582", "lat": 38.90038883333333, "fusion_lat": 0.0, "rental_uris": {"ios": "https://dc.lft.to/lastmile_qr_scan", "android": "https://dc.lft.to/lastmile_qr_scan"}, "is_disabled": 0, "type": "electric_scooter"}, {"fusion_lon": 0.0, "is_reserved": 0, "bike_id": "ac83782b4a30e6ea02cc0f860ccd012d", "lon": -77.02734366666667, "name": "ac83782b4a30e6ea02cc0f860ccd012d", "lat": 38.934605166666664, "fusion_lat": 0.0, "rental_uris": {"ios": "https://dc.lft.to/lastmile_qr_scan", "android": "https://dc.lft.to/lastmile_qr_scan"}, "is_disabled": 0, "type": "electric_scooter"}, {"fusion_lon": 0.0, "is_reserved": 0, "bike_id": "fca8a77da37e2b8da9368a408b3aa79d", "lon": -77.03125283333334, "name": "fca8a77da37e2b8da9368a408b3aa79d", "lat": 38.95938233333333, "fusion_lat": 0.0, "rental_uris": {"ios": "https://dc.lft.to/lastmile_qr_scan", "android": "https://dc.lft.to/lastmile_qr_scan"}, "is_disabled": 0, "type": "electric_scooter"}, {"fusion_lon": 0.0, "is_reserved": 0, "bike_id": "2152af98e56331a469ef78096bea35b1", "lon": -77.0616825, "name": "2152af98e56331a469ef78096bea35b1", "lat": 38.90283933333333, "fusion_lat": 0.0, "rental_uris": {"ios": "https://dc.lft.to/lastmile_qr_scan", "android": "https://dc.lft.to/lastmile_qr_scan"}, "is_disabled": 0, "type": "electric_scooter"}, {"fusion_lon": 0.0, "is_reserved": 0, "bike_id": "30b6b73d37f6e250340ee75c71924ea1", "lon": -77.03185666666667, "name": "30b6b73d37f6e250340ee75c71924ea1", "lat": 38.892306833333336, "fusion_lat": 0.0, "rental_uris": {"ios": "https://dc.lft.to/lastmile_qr_scan", "android": "https://dc.lft.to/lastmile_qr_scan"}, "is_disabled": 0, "type": "electric_scooter"}, {"fusion_lon": 0.0, "is_reserved": 0, "bike_id": "64fbb5357f27eef46414f528b53dcf15", "lon": -76.979346, "name": "64fbb5357f27eef46414f528b53dcf15", "lat": 38.90694116666667, "fusion_lat": 0.0, "rental_uris": {"ios": "https://dc.lft.to/lastmile_qr_scan", "android": "https://dc.lft.to/lastmile_qr_scan"}, "is_disabled": 0, "type": "electric_scooter"}, {"fusion_lon": 0.0, "is_reserved": 0, "bike_id": "cd240ff955334a3a14e99bf6bf3a7864", "lon": -77.00706783333334, "name": "cd240ff955334a3a14e99bf6bf3a7864", "lat": 38.90729616666667, "fusion_lat": 0.0, "rental_uris": {"ios": "https://dc.lft.to/lastmile_qr_scan", "android": "https://dc.lft.to/lastmile_qr_scan"}, "is_disabled": 0, "type": "electric_scooter"}, {"fusion_lon": 0.0, "is_reserved": 0, "bike_id": "027cd112cd9e3a23e37e861b8841a6f2", "lon": -77.02656183333333, "name": "027cd112cd9e3a23e37e861b8841a6f2", "lat": 38.975498, "fusion_lat": 0.0, "rental_uris": {"ios": "https://dc.lft.to/lastmile_qr_scan", "android": "https://dc.lft.to/lastmile_qr_scan"}, "is_disabled": 0, "type": "electric_scooter"}, {"fusion_lon": 0.0, "is_reserved": 0, "bike_id": "22fa5210648e516f821907f4d5e3f293", "lon": -76.99284266666666, "name": "22fa5210648e516f821907f4d5e3f293", "lat": 38.972648666666664, "fusion_lat": 0.0, "rental_uris": {"ios": "https://dc.lft.to/lastmile_qr_scan", "android": "https://dc.lft.to/lastmile_qr_scan"}, "is_disabled": 0, "type": "electric_bike"}, {"fusion_lon": 0.0, "is_reserved": 0, "bike_id": "37e312e4e429862ccdf17b1ee1b44ac2", "lon": -77.00910483333334, "name": "37e312e4e429862ccdf17b1ee1b44ac2", "lat": 38.871203666666666, "fusion_lat": 0.0, "rental_uris": {"ios": "https://dc.lft.to/lastmile_qr_scan", "android": "https://dc.lft.to/lastmile_qr_scan"}, "is_disabled": 0, "type": "electric_scooter"}, {"fusion_lon": 0.0, "is_reserved": 0, "bike_id": "3313bcb6050149e5029f96cbde629ca9", "lon": -76.99320766666666, "name": "3313bcb6050149e5029f96cbde629ca9", "lat": 38.8770905, "fusion_lat": 0.0, "rental_uris": {"ios": "https://dc.lft.to/lastmile_qr_scan", "android": "https://dc.lft.to/lastmile_qr_scan"}, "is_disabled": 0, "type": "electric_scooter"}, {"fusion_lon": 0.0, "is_reserved": 0, "bike_id": "0ac864e517a1fb8fdcdb639482467614", "lon": -77.03310966666666, "name": "0ac864e517a1fb8fdcdb639482467614", "lat": 38.90419883333333, "fusion_lat": 0.0, "rental_uris": {"ios": "https://dc.lft.to/lastmile_qr_scan", "android": "https://dc.lft.to/lastmile_qr_scan"}, "is_disabled": 0, "type": "electric_scooter"}, {"fusion_lon": 0.0, "is_reserved": 0, "bike_id": "01400d9a9e4de5ba59b1a7df8ce091e8", "lon": -77.02305983333333, "name": "01400d9a9e4de5ba59b1a7df8ce091e8", "lat": 38.92062, "fusion_lat": 0.0, "rental_uris": {"ios": "https://dc.lft.to/lastmile_qr_scan", "android": "https://dc.lft.to/lastmile_qr_scan"}, "is_disabled": 0, "type": "electric_scooter"}, {"fusion_lon": 0.0, "is_reserved": 0, "bike_id": "ff8ee14836c2ab78cb3c40e546211b26", "lon": -77.08088233333334, "name": "ff8ee14836c2ab78cb3c40e546211b26", "lat": 38.9086575, "fusion_lat": 0.0, "rental_uris": {"ios": "https://dc.lft.to/lastmile_qr_scan", "android": "https://dc.lft.to/lastmile_qr_scan"}, "is_disabled": 0, "type": "electric_bike"}, {"fusion_lon": 0.0, "is_reserved": 0, "bike_id": "56e74cae527cce76872dfb1d9ab7b43f", "lon": -77.02113816666666, "name": "56e74cae527cce76872dfb1d9ab7b43f", "lat": 38.92355366666666, "fusion_lat": 0.0, "rental_uris": {"ios": "https://dc.lft.to/lastmile_qr_scan", "android": "https://dc.lft.to/lastmile_qr_scan"}, "is_disabled": 0, "type": "electric_scooter"}, {"fusion_lon": 0.0, "is_reserved": 0, "bike_id": "1175d7aac25854ae5fcb87bde641b66a", "lon": -77.0840595, "name": "1175d7aac25854ae5fcb87bde641b66a", "lat": 38.90807866666667, "fusion_lat": 0.0, "rental_uris": {"ios": "https://dc.lft.to/lastmile_qr_scan", "android": "https://dc.lft.to/lastmile_qr_scan"}, "is_disabled": 0, "type": "electric_scooter"}, {"fusion_lon": 0.0, "is_reserved": 0, "bike_id": "8ccac6de23cc6ba4dd5d503cd74e3ea9", "lon": -77.0863525, "name": "8ccac6de23cc6ba4dd5d503cd74e3ea9", "lat": 38.93464916666667, "fusion_lat": 0.0, "rental_uris": {"ios": "https://dc.lft.to/lastmile_qr_scan", "android": "https://dc.lft.to/lastmile_qr_scan"}, "is_disabled": 0, "type": "electric_scooter"}, {"fusion_lon": 0.0, "is_reserved": 0, "bike_id": "3a43b0e7b52c983457121577ad9634f2", "lon": -77.0521835, "name": "3a43b0e7b52c983457121577ad9634f2", "lat": 38.9248145, "fusion_lat": 0.0, "rental_uris": {"ios": "https://dc.lft.to/lastmile_qr_scan", "android": "https://dc.lft.to/lastmile_qr_scan"}, "is_disabled": 0, "type": "electric_scooter"}, {"fusion_lon": 0.0, "is_reserved": 0, "bike_id": "1ae13074aaa270e24204405ee36f830e", "lon": -77.01104583333333, "name": "1ae13074aaa270e24204405ee36f830e", "lat": 38.895392666666666, "fusion_lat": 0.0, "rental_uris": {"ios": "https://dc.lft.to/lastmile_qr_scan", "android": "https://dc.lft.to/lastmile_qr_scan"}, "is_disabled": 0, "type": "electric_scooter"}, {"fusion_lon": 0.0, "is_reserved": 0, "bike_id": "2d9c6cc01eb2cceb33ddf7ba9e311846", "lon": -77.03197433333334, "name": "2d9c6cc01eb2cceb33ddf7ba9e311846", "lat": 38.89246116666666, "fusion_lat": 0.0, "rental_uris": {"ios": "https://dc.lft.to/lastmile_qr_scan", "android": "https://dc.lft.to/lastmile_qr_scan"}, "is_disabled": 0, "type": "electric_scooter"}, {"fusion_lon": 0.0, "is_reserved": 0, "bike_id": "c4bc3174618d11901ddb62fbe358fac3", "lon": -77.23413616666667, "name": "c4bc3174618d11901ddb62fbe358fac3", "lat": 38.87578766666667, "fusion_lat": 0.0, "rental_uris": {"ios": "https://dc.lft.to/lastmile_qr_scan", "android": "https://dc.lft.to/lastmile_qr_scan"}, "is_disabled": 0, "type": "electric_bike"}, {"fusion_lon": 0.0, "is_reserved": 0, "bike_id": "f8e4fa5a0262ca9bd948c7f2412d3b4e", "lon": -77.02989066666666, "name": "f8e4fa5a0262ca9bd948c7f2412d3b4e", "lat": 38.898403, "fusion_lat": 0.0, "rental_uris": {"ios": "https://dc.lft.to/lastmile_qr_scan", "android": "https://dc.lft.to/lastmile_qr_scan"}, "is_disabled": 0, "type": "electric_scooter"}, {"fusion_lon": 0.0, "is_reserved": 0, "bike_id": "2f3f3ed5f5d5ddc1f04949e24d6b8903", "lon": -76.98138216666666, "name": "2f3f3ed5f5d5ddc1f04949e24d6b8903", "lat": 38.85708966666667, "fusion_lat": 0.0, "rental_uris": {"ios": "https://dc.lft.to/lastmile_qr_scan", "android": "https://dc.lft.to/lastmile_qr_scan"}, "is_disabled": 0, "type": "electric_scooter"}, {"fusion_lon": 0.0, "is_reserved": 0, "bike_id": "3e122e78d342a037fc23c24e02a762fd", "lon": -77.04247333333333, "name": "3e122e78d342a037fc23c24e02a762fd", "lat": 38.922375, "fusion_lat": 0.0, "rental_uris": {"ios": "https://dc.lft.to/lastmile_qr_scan", "android": "https://dc.lft.to/lastmile_qr_scan"}, "is_disabled": 0, "type": "electric_scooter"}, {"fusion_lon": 0.0, "is_reserved": 0, "bike_id": "f4775285539fd544b63b4f5f15b685eb", "lon": -77.04351216666667, "name": "f4775285539fd544b63b4f5f15b685eb", "lat": 38.90395083333333, "fusion_lat": 0.0, "rental_uris": {"ios": "https://dc.lft.to/lastmile_qr_scan", "android": "https://dc.lft.to/lastmile_qr_scan"}, "is_disabled": 0, "type": "electric_scooter"}, {"fusion_lon": 0.0, "is_reserved": 0, "bike_id": "0493ab2e597d8e37821b9499c8af32ad", "lon": -77.0413705, "name": "0493ab2e597d8e37821b9499c8af32ad", "lat": 38.942545333333335, "fusion_lat": 0.0, "rental_uris": {"ios": "https://dc.lft.to/lastmile_qr_scan", "android": "https://dc.lft.to/lastmile_qr_scan"}, "is_disabled": 0, "type": "electric_scooter"}, {"fusion_lon": 0.0, "is_reserved": 0, "bike_id": "c7a222a90c5fad1a37d34d991031c30b", "lon": -76.9272575, "name": "c7a222a90c5fad1a37d34d991031c30b", "lat": 38.88040766666667, "fusion_lat": 0.0, "rental_uris": {"ios": "https://dc.lft.to/lastmile_qr_scan", "android": "https://dc.lft.to/lastmile_qr_scan"}, "is_disabled": 0, "type": "electric_scooter"}, {"fusion_lon": 0.0, "is_reserved": 0, "bike_id": "2dc6d4a0f99238ab9d4e925bee659db5", "lon": -77.0220405, "name": "2dc6d4a0f99238ab9d4e925bee659db5", "lat": 38.911275, "fusion_lat": 0.0, "rental_uris": {"ios": "https://dc.lft.to/lastmile_qr_scan", "android": "https://dc.lft.to/lastmile_qr_scan"}, "is_disabled": 0, "type": "electric_scooter"}, {"fusion_lon": 0.0, "is_reserved": 0, "bike_id": "b8d9c91506866a93097488188af637d4", "lon": -77.03512233333333, "name": "b8d9c91506866a93097488188af637d4", "lat": 38.918505, "fusion_lat": 0.0, "rental_uris": {"ios": "https://dc.lft.to/lastmile_qr_scan", "android": "https://dc.lft.to/lastmile_qr_scan"}, "is_disabled": 0, "type": "electric_scooter"}, {"fusion_lon": 0.0, "is_reserved": 0, "bike_id": "37cee4700ad275e42e29f11e3959b32d", "lon": -77.0075855, "name": "37cee4700ad275e42e29f11e3959b32d", "lat": 38.900430666666665, "fusion_lat": 0.0, "rental_uris": {"ios": "https://dc.lft.to/lastmile_qr_scan", "android": "https://dc.lft.to/lastmile_qr_scan"}, "is_disabled": 0, "type": "electric_scooter"}, {"fusion_lon": 0.0, "is_reserved": 0, "bike_id": "bfee1f65fd3c0decdd2d4defcd8995eb", "lon": -77.03791133333333, "name": "bfee1f65fd3c0decdd2d4defcd8995eb", "lat": 38.9251285, "fusion_lat": 0.0, "rental_uris": {"ios": "https://dc.lft.to/lastmile_qr_scan", "android": "https://dc.lft.to/lastmile_qr_scan"}, "is_disabled": 0, "type": "electric_scooter"}, {"fusion_lon": 0.0, "is_reserved": 0, "bike_id": "7e2c45456ebfde66ba16de0f1cf30fb4", "lon": -77.0591365, "name": "7e2c45456ebfde66ba16de0f1cf30fb4", "lat": 38.90198516666667, "fusion_lat": 0.0, "rental_uris": {"ios": "https://dc.lft.to/lastmile_qr_scan", "android": "https://dc.lft.to/lastmile_qr_scan"}, "is_disabled": 0, "type": "electric_scooter"}, {"fusion_lon": 0.0, "is_reserved": 0, "bike_id": "dbe81deffca609d22870948ee56c379c", "lon": -77.03694616666667, "name": "dbe81deffca609d22870948ee56c379c", "lat": 38.939434, "fusion_lat": 0.0, "rental_uris": {"ios": "https://dc.lft.to/lastmile_qr_scan", "android": "https://dc.lft.to/lastmile_qr_scan"}, "is_disabled": 0, "type": "electric_scooter"}, {"fusion_lon": 0.0, "is_reserved": 0, "bike_id": "6370f4bec471d645076ec8d867d39886", "lon": -77.00942233333333, "name": "6370f4bec471d645076ec8d867d39886", "lat": 38.905725333333336, "fusion_lat": 0.0, "rental_uris": {"ios": "https://dc.lft.to/lastmile_qr_scan", "android": "https://dc.lft.to/lastmile_qr_scan"}, "is_disabled": 0, "type": "electric_scooter"}, {"fusion_lon": 0.0, "is_reserved": 0, "bike_id": "e9c95633dcf7359fc6f5f015c5908280", "lon": -77.03265683333333, "name": "e9c95633dcf7359fc6f5f015c5908280", "lat": 38.91991816666667, "fusion_lat": 0.0, "rental_uris": {"ios": "https://dc.lft.to/lastmile_qr_scan", "android": "https://dc.lft.to/lastmile_qr_scan"}, "is_disabled": 0, "type": "electric_scooter"}, {"fusion_lon": 0.0, "is_reserved": 0, "bike_id": "37f6c18b0e0edcd629fbb523f092bb1e", "lon": -77.184185, "name": "37f6c18b0e0edcd629fbb523f092bb1e", "lat": 38.89103816666667, "fusion_lat": 0.0, "rental_uris": {"ios": "https://dc.lft.to/lastmile_qr_scan", "android": "https://dc.lft.to/lastmile_qr_scan"}, "is_disabled": 0, "type": "electric_bike"}, {"fusion_lon": 0.0, "is_reserved": 0, "bike_id": "0f21b218d0ecfed131b581a64a11aaeb", "lon": -76.95052, "name": "0f21b218d0ecfed131b581a64a11aaeb", "lat": 39.08494266666667, "fusion_lat": 0.0, "rental_uris": {"ios": "https://dc.lft.to/lastmile_qr_scan", "android": "https://dc.lft.to/lastmile_qr_scan"}, "is_disabled": 0, "type": "electric_bike"}, {"fusion_lon": 0.0, "is_reserved": 0, "bike_id": "d66abfc4e7caebb8d2e91754c832c07e", "lon": -77.06360983333333, "name": "d66abfc4e7caebb8d2e91754c832c07e", "lat": 38.9444235, "fusion_lat": 0.0, "rental_uris": {"ios": "https://dc.lft.to/lastmile_qr_scan", "android": "https://dc.lft.to/lastmile_qr_scan"}, "is_disabled": 0, "type": "electric_scooter"}, {"fusion_lon": 0.0, "is_reserved": 0, "bike_id": "bae444818e7edd7449cfaaa1218a2059", "lon": -77.02994683333333, "name": "bae444818e7edd7449cfaaa1218a2059", "lat": 38.90583433333333, "fusion_lat": 0.0, "rental_uris": {"ios": "https://dc.lft.to/lastmile_qr_scan", "android": "https://dc.lft.to/lastmile_qr_scan"}, "is_disabled": 0, "type": "electric_scooter"}, {"fusion_lon": 0.0, "is_reserved": 0, "bike_id": "0d00c662c21fcd501a5234dc5fec5b09", "lon": -77.0196245, "name": "0d00c662c21fcd501a5234dc5fec5b09", "lat": 38.92297833333333, "fusion_lat": 0.0, "rental_uris": {"ios": "https://dc.lft.to/lastmile_qr_scan", "android": "https://dc.lft.to/lastmile_qr_scan"}, "is_disabled": 0, "type": "electric_scooter"}, {"fusion_lon": 0.0, "is_reserved": 0, "bike_id": "77290a7258c5195eba181b058e85131c", "lon": -77.02752183333334, "name": "77290a7258c5195eba181b058e85131c", "lat": 38.89219766666667, "fusion_lat": 0.0, "rental_uris": {"ios": "https://dc.lft.to/lastmile_qr_scan", "android": "https://dc.lft.to/lastmile_qr_scan"}, "is_disabled": 0, "type": "electric_scooter"}, {"fusion_lon": 0.0, "is_reserved": 0, "bike_id": "ee63784f0b3deb219f54200224ee8810", "lon": -77.04648833333333, "name": "ee63784f0b3deb219f54200224ee8810", "lat": 38.89223833333333, "fusion_lat": 0.0, "rental_uris": {"ios": "https://dc.lft.to/lastmile_qr_scan", "android": "https://dc.lft.to/lastmile_qr_scan"}, "is_disabled": 0, "type": "electric_scooter"}, {"fusion_lon": 0.0, "is_reserved": 0, "bike_id": "e33e01ef18f4347a65ee9c97fe7cfd89", "lon": -77.04817716666666, "name": "e33e01ef18f4347a65ee9c97fe7cfd89", "lat": 38.89977533333333, "fusion_lat": 0.0, "rental_uris": {"ios": "https://dc.lft.to/lastmile_qr_scan", "android": "https://dc.lft.to/lastmile_qr_scan"}, "is_disabled": 0, "type": "electric_scooter"}, {"fusion_lon": 0.0, "is_reserved": 0, "bike_id": "857bb0a71e183b226afacb42044f8f36", "lon": -77.032239, "name": "857bb0a71e183b226afacb42044f8f36", "lat": 38.90144266666667, "fusion_lat": 0.0, "rental_uris": {"ios": "https://dc.lft.to/lastmile_qr_scan", "android": "https://dc.lft.to/lastmile_qr_scan"}, "is_disabled": 0, "type": "electric_scooter"}, {"fusion_lon": 0.0, "is_reserved": 0, "bike_id": "7a38ceef6f1f2ec21d84a1278add0e09", "lon": -77.0449495, "name": "7a38ceef6f1f2ec21d84a1278add0e09", "lat": 38.913662333333335, "fusion_lat": 0.0, "rental_uris": {"ios": "https://dc.lft.to/lastmile_qr_scan", "android": "https://dc.lft.to/lastmile_qr_scan"}, "is_disabled": 0, "type": "electric_scooter"}, {"fusion_lon": 0.0, "is_reserved": 0, "bike_id": "4a31d850002f31afc5aa36bc04bd841d", "lon": -77.03290533333333, "name": "4a31d850002f31afc5aa36bc04bd841d", "lat": 38.899021, "fusion_lat": 0.0, "rental_uris": {"ios": "https://dc.lft.to/lastmile_qr_scan", "android": "https://dc.lft.to/lastmile_qr_scan"}, "is_disabled": 0, "type": "electric_scooter"}, {"fusion_lon": 0.0, "is_reserved": 0, "bike_id": "79e723864f174df8d761cb01e3538231", "lon": -76.98184916666666, "name": "79e723864f174df8d761cb01e3538231", "lat": 38.953148, "fusion_lat": 0.0, "rental_uris": {"ios": "https://dc.lft.to/lastmile_qr_scan", "android": "https://dc.lft.to/lastmile_qr_scan"}, "is_disabled": 0, "type": "electric_bike"}, {"fusion_lon": 0.0, "is_reserved": 0, "bike_id": "4342e909c4efce8498004c7592129024", "lon": -77.02244816666666, "name": "4342e909c4efce8498004c7592129024", "lat": 38.924666333333334, "fusion_lat": 0.0, "rental_uris": {"ios": "https://dc.lft.to/lastmile_qr_scan", "android": "https://dc.lft.to/lastmile_qr_scan"}, "is_disabled": 0, "type": "electric_scooter"}, {"fusion_lon": 0.0, "is_reserved": 0, "bike_id": "52573d14d481070dae5d4ad7ec8ba470", "lon": -77.07659933333333, "name": "52573d14d481070dae5d4ad7ec8ba470", "lat": 38.8098155, "fusion_lat": 0.0, "rental_uris": {"ios": "https://dc.lft.to/lastmile_qr_scan", "android": "https://dc.lft.to/lastmile_qr_scan"}, "is_disabled": 0, "type": "electric_bike"}, {"fusion_lon": 0.0, "is_reserved": 0, "bike_id": "9c114da82df9673d131f21238db2051c", "lon": -76.99429816666667, "name": "9c114da82df9673d131f21238db2051c", "lat": 38.933484666666665, "fusion_lat": 0.0, "rental_uris": {"ios": "https://dc.lft.to/lastmile_qr_scan", "android": "https://dc.lft.to/lastmile_qr_scan"}, "is_disabled": 0, "type": "electric_scooter"}, {"fusion_lon": 0.0, "is_reserved": 0, "bike_id": "2e53de1bcc1e0e3a4a40e16044df6066", "lon": -77.02848683333333, "name": "2e53de1bcc1e0e3a4a40e16044df6066", "lat": 38.94267416666667, "fusion_lat": 0.0, "rental_uris": {"ios": "https://dc.lft.to/lastmile_qr_scan", "android": "https://dc.lft.to/lastmile_qr_scan"}, "is_disabled": 0, "type": "electric_bike"}, {"fusion_lon": 0.0, "is_reserved": 0, "bike_id": "92a42cefd810a6d6fe4a92ff74732e5c", "lon": -77.00203616666667, "name": "92a42cefd810a6d6fe4a92ff74732e5c", "lat": 38.90841366666667, "fusion_lat": 0.0, "rental_uris": {"ios": "https://dc.lft.to/lastmile_qr_scan", "android": "https://dc.lft.to/lastmile_qr_scan"}, "is_disabled": 0, "type": "electric_scooter"}, {"fusion_lon": 0.0, "is_reserved": 0, "bike_id": "d9cd1d60bbf66e3828a38cd361e98710", "lon": -76.98948633333333, "name": "d9cd1d60bbf66e3828a38cd361e98710", "lat": 38.90397133333333, "fusion_lat": 0.0, "rental_uris": {"ios": "https://dc.lft.to/lastmile_qr_scan", "android": "https://dc.lft.to/lastmile_qr_scan"}, "is_disabled": 0, "type": "electric_scooter"}, {"fusion_lon": 0.0, "is_reserved": 0, "bike_id": "6dd6761f6e16e80a6a2ef5366363c397", "lon": -77.01380133333333, "name": "6dd6761f6e16e80a6a2ef5366363c397", "lat": 38.88670466666667, "fusion_lat": 0.0, "rental_uris": {"ios": "https://dc.lft.to/lastmile_qr_scan", "android": "https://dc.lft.to/lastmile_qr_scan"}, "is_disabled": 0, "type": "electric_scooter"}, {"fusion_lon": 0.0, "is_reserved": 0, "bike_id": "6ba268d096f231d5a7896c5ef91bc43f", "lon": -77.07169783333333, "name": "6ba268d096f231d5a7896c5ef91bc43f", "lat": 38.9201855, "fusion_lat": 0.0, "rental_uris": {"ios": "https://dc.lft.to/lastmile_qr_scan", "android": "https://dc.lft.to/lastmile_qr_scan"}, "is_disabled": 0, "type": "electric_scooter"}, {"fusion_lon": 0.0, "is_reserved": 0, "bike_id": "9cbad5376811d77d92a4bc44e58979d0", "lon": -76.90756933333333, "name": "9cbad5376811d77d92a4bc44e58979d0", "lat": 38.8961795, "fusion_lat": 0.0, "rental_uris": {"ios": "https://dc.lft.to/lastmile_qr_scan", "android": "https://dc.lft.to/lastmile_qr_scan"}, "is_disabled": 0, "type": "electric_bike"}, {"fusion_lon": 0.0, "is_reserved": 0, "bike_id": "04ac3fa2d64ea83cd6631ba9ffd8811a", "lon": -77.04167366666667, "name": "04ac3fa2d64ea83cd6631ba9ffd8811a", "lat": 38.9198625, "fusion_lat": 0.0, "rental_uris": {"ios": "https://dc.lft.to/lastmile_qr_scan", "android": "https://dc.lft.to/lastmile_qr_scan"}, "is_disabled": 0, "type": "electric_scooter"}, {"fusion_lon": 0.0, "is_reserved": 0, "bike_id": "a93bccec2451dfe6862088845d89f8c9", "lon": -77.02187183333334, "name": "a93bccec2451dfe6862088845d89f8c9", "lat": 38.9147745, "fusion_lat": 0.0, "rental_uris": {"ios": "https://dc.lft.to/lastmile_qr_scan", "android": "https://dc.lft.to/lastmile_qr_scan"}, "is_disabled": 0, "type": "electric_scooter"}, {"fusion_lon": 0.0, "is_reserved": 0, "bike_id": "0c214de42237f4808fa00db48c36b939", "lon": -77.036689, "name": "0c214de42237f4808fa00db48c36b939", "lat": 38.922452, "fusion_lat": 0.0, "rental_uris": {"ios": "https://dc.lft.to/lastmile_qr_scan", "android": "https://dc.lft.to/lastmile_qr_scan"}, "is_disabled": 0, "type": "electric_scooter"}, {"fusion_lon": 0.0, "is_reserved": 0, "bike_id": "9c59964402f8f02233bb0b2f5d2d9ff2", "lon": -77.04569916666667, "name": "9c59964402f8f02233bb0b2f5d2d9ff2", "lat": 38.89831366666667, "fusion_lat": 0.0, "rental_uris": {"ios": "https://dc.lft.to/lastmile_qr_scan", "android": "https://dc.lft.to/lastmile_qr_scan"}, "is_disabled": 0, "type": "electric_scooter"}, {"fusion_lon": 0.0, "is_reserved": 0, "bike_id": "25071e11e2323020a0c14c38681e48a2", "lon": -77.03217633333334, "name": "25071e11e2323020a0c14c38681e48a2", "lat": 38.92761316666667, "fusion_lat": 0.0, "rental_uris": {"ios": "https://dc.lft.to/lastmile_qr_scan", "android": "https://dc.lft.to/lastmile_qr_scan"}, "is_disabled": 0, "type": "electric_scooter"}, {"fusion_lon": 0.0, "is_reserved": 0, "bike_id": "9cb8f61c1cd77bbcb227a09bc658198e", "lon": -77.04337283333334, "name": "9cb8f61c1cd77bbcb227a09bc658198e", "lat": 38.89226716666667, "fusion_lat": 0.0, "rental_uris": {"ios": "https://dc.lft.to/lastmile_qr_scan", "android": "https://dc.lft.to/lastmile_qr_scan"}, "is_disabled": 0, "type": "electric_scooter"}, {"fusion_lon": 0.0, "is_reserved": 0, "bike_id": "462860f9e645deb57b46c56fac4d44a2", "lon": -77.0279965, "name": "462860f9e645deb57b46c56fac4d44a2", "lat": 38.9307995, "fusion_lat": 0.0, "rental_uris": {"ios": "https://dc.lft.to/lastmile_qr_scan", "android": "https://dc.lft.to/lastmile_qr_scan"}, "is_disabled": 0, "type": "electric_scooter"}, {"fusion_lon": 0.0, "is_reserved": 0, "bike_id": "a0c6f920b5a1d34ceb15c74f22e6de14", "lon": -77.00245733333334, "name": "a0c6f920b5a1d34ceb15c74f22e6de14", "lat": 38.87646566666667, "fusion_lat": 0.0, "rental_uris": {"ios": "https://dc.lft.to/lastmile_qr_scan", "android": "https://dc.lft.to/lastmile_qr_scan"}, "is_disabled": 0, "type": "electric_scooter"}, {"fusion_lon": 0.0, "is_reserved": 0, "bike_id": "af816e12b8a2452cd7e505a77a29ceb0", "lon": -77.02404733333333, "name": "af816e12b8a2452cd7e505a77a29ceb0", "lat": 38.900344833333335, "fusion_lat": 0.0, "rental_uris": {"ios": "https://dc.lft.to/lastmile_qr_scan", "android": "https://dc.lft.to/lastmile_qr_scan"}, "is_disabled": 0, "type": "electric_scooter"}, {"fusion_lon": 0.0, "is_reserved": 0, "bike_id": "f90cf9837fa0616732db3d651faaa96a", "lon": -77.02691733333333, "name": "f90cf9837fa0616732db3d651faaa96a", "lat": 38.89476633333334, "fusion_lat": 0.0, "rental_uris": {"ios": "https://dc.lft.to/lastmile_qr_scan", "android": "https://dc.lft.to/lastmile_qr_scan"}, "is_disabled": 0, "type": "electric_scooter"}, {"fusion_lon": 0.0, "is_reserved": 0, "bike_id": "65553a3558b608003538d287738756cb", "lon": -77.02496733333334, "name": "65553a3558b608003538d287738756cb", "lat": 38.919877666666665, "fusion_lat": 0.0, "rental_uris": {"ios": "https://dc.lft.to/lastmile_qr_scan", "android": "https://dc.lft.to/lastmile_qr_scan"}, "is_disabled": 0, "type": "electric_scooter"}, {"fusion_lon": 0.0, "is_reserved": 0, "bike_id": "e0728635aced59d412ab76ff16657143", "lon": -77.02912016666667, "name": "e0728635aced59d412ab76ff16657143", "lat": 38.998217333333336, "fusion_lat": 0.0, "rental_uris": {"ios": "https://dc.lft.to/lastmile_qr_scan", "android": "https://dc.lft.to/lastmile_qr_scan"}, "is_disabled": 0, "type": "electric_bike"}, {"fusion_lon": 0.0, "is_reserved": 0, "bike_id": "efeefcbd62d75adc7efa023dc6d1e392", "lon": -77.03856416666666, "name": "efeefcbd62d75adc7efa023dc6d1e392", "lat": 38.91210783333333, "fusion_lat": 0.0, "rental_uris": {"ios": "https://dc.lft.to/lastmile_qr_scan", "android": "https://dc.lft.to/lastmile_qr_scan"}, "is_disabled": 0, "type": "electric_scooter"}, {"fusion_lon": 0.0, "is_reserved": 0, "bike_id": "88665410f05910b36213387a873310c2", "lon": -77.00372133333333, "name": "88665410f05910b36213387a873310c2", "lat": 38.9144025, "fusion_lat": 0.0, "rental_uris": {"ios": "https://dc.lft.to/lastmile_qr_scan", "android": "https://dc.lft.to/lastmile_qr_scan"}, "is_disabled": 0, "type": "electric_scooter"}, {"fusion_lon": 0.0, "is_reserved": 0, "bike_id": "479cbbfa17663c9f0a04beaafa7e5809", "lon": -76.97710716666667, "name": "479cbbfa17663c9f0a04beaafa7e5809", "lat": 38.8221005, "fusion_lat": 0.0, "rental_uris": {"ios": "https://dc.lft.to/lastmile_qr_scan", "android": "https://dc.lft.to/lastmile_qr_scan"}, "is_disabled": 0, "type": "electric_bike"}, {"fusion_lon": 0.0, "is_reserved": 0, "bike_id": "f38a941336ae6fe4632b592576b3a8f9", "lon": -76.96311933333334, "name": "f38a941336ae6fe4632b592576b3a8f9", "lat": 38.896843833333335, "fusion_lat": 0.0, "rental_uris": {"ios": "https://dc.lft.to/lastmile_qr_scan", "android": "https://dc.lft.to/lastmile_qr_scan"}, "is_disabled": 0, "type": "electric_bike"}, {"fusion_lon": 0.0, "is_reserved": 0, "bike_id": "c036b3032c7b728590040a8d7defbd54", "lon": -77.03327733333333, "name": "c036b3032c7b728590040a8d7defbd54", "lat": 38.91919466666667, "fusion_lat": 0.0, "rental_uris": {"ios": "https://dc.lft.to/lastmile_qr_scan", "android": "https://dc.lft.to/lastmile_qr_scan"}, "is_disabled": 0, "type": "electric_scooter"}, {"fusion_lon": 0.0, "is_reserved": 0, "bike_id": "66e3a644d03e0c26d3b217bbe42c4900", "lon": -77.0226305, "name": "66e3a644d03e0c26d3b217bbe42c4900", "lat": 38.922375833333334, "fusion_lat": 0.0, "rental_uris": {"ios": "https://dc.lft.to/lastmile_qr_scan", "android": "https://dc.lft.to/lastmile_qr_scan"}, "is_disabled": 0, "type": "electric_scooter"}, {"fusion_lon": 0.0, "is_reserved": 0, "bike_id": "8ad87eb759b8ce0f219a1340c9d0044a", "lon": -77.01275633333333, "name": "8ad87eb759b8ce0f219a1340c9d0044a", "lat": 38.903898, "fusion_lat": 0.0, "rental_uris": {"ios": "https://dc.lft.to/lastmile_qr_scan", "android": "https://dc.lft.to/lastmile_qr_scan"}, "is_disabled": 0, "type": "electric_scooter"}, {"fusion_lon": 0.0, "is_reserved": 0, "bike_id": "149c23b9563d8d74a715f848a57946e7", "lon": -77.02030316666666, "name": "149c23b9563d8d74a715f848a57946e7", "lat": 38.8950195, "fusion_lat": 0.0, "rental_uris": {"ios": "https://dc.lft.to/lastmile_qr_scan", "android": "https://dc.lft.to/lastmile_qr_scan"}, "is_disabled": 0, "type": "electric_scooter"}, {"fusion_lon": 0.0, "is_reserved": 0, "bike_id": "6213b042597944135ddc326bd11813c6", "lon": -77.02509183333333, "name": "6213b042597944135ddc326bd11813c6", "lat": 38.91104266666667, "fusion_lat": 0.0, "rental_uris": {"ios": "https://dc.lft.to/lastmile_qr_scan", "android": "https://dc.lft.to/lastmile_qr_scan"}, "is_disabled": 0, "type": "electric_scooter"}, {"fusion_lon": 0.0, "is_reserved": 0, "bike_id": "f1a02b4bf565c4b52ea504eefe7194b5", "lon": -77.02487516666666, "name": "f1a02b4bf565c4b52ea504eefe7194b5", "lat": 38.917410833333335, "fusion_lat": 0.0, "rental_uris": {"ios": "https://dc.lft.to/lastmile_qr_scan", "android": "https://dc.lft.to/lastmile_qr_scan"}, "is_disabled": 0, "type": "electric_scooter"}, {"fusion_lon": 0.0, "is_reserved": 0, "bike_id": "449880dd4c70ffee2ff71c323117b569", "lon": -76.98603583333333, "name": "449880dd4c70ffee2ff71c323117b569", "lat": 38.900229333333336, "fusion_lat": 0.0, "rental_uris": {"ios": "https://dc.lft.to/lastmile_qr_scan", "android": "https://dc.lft.to/lastmile_qr_scan"}, "is_disabled": 0, "type": "electric_scooter"}, {"fusion_lon": 0.0, "is_reserved": 0, "bike_id": "c5387f06dde4103fa5001b264e4a0d60", "lon": -77.02642266666666, "name": "c5387f06dde4103fa5001b264e4a0d60", "lat": 38.9042075, "fusion_lat": 0.0, "rental_uris": {"ios": "https://dc.lft.to/lastmile_qr_scan", "android": "https://dc.lft.to/lastmile_qr_scan"}, "is_disabled": 0, "type": "electric_scooter"}, {"fusion_lon": 0.0, "is_reserved": 0, "bike_id": "725ba3fceac601748d7f80f4efabff5f", "lon": -77.046444, "name": "725ba3fceac601748d7f80f4efabff5f", "lat": 38.89221383333334, "fusion_lat": 0.0, "rental_uris": {"ios": "https://dc.lft.to/lastmile_qr_scan", "android": "https://dc.lft.to/lastmile_qr_scan"}, "is_disabled": 0, "type": "electric_scooter"}, {"fusion_lon": 0.0, "is_reserved": 0, "bike_id": "c73e16e404407c53c73a5dad33a692e1", "lon": -77.01856766666667, "name": "c73e16e404407c53c73a5dad33a692e1", "lat": 38.948857833333335, "fusion_lat": 0.0, "rental_uris": {"ios": "https://dc.lft.to/lastmile_qr_scan", "android": "https://dc.lft.to/lastmile_qr_scan"}, "is_disabled": 0, "type": "electric_scooter"}, {"fusion_lon": 0.0, "is_reserved": 0, "bike_id": "a1fb4aec8b1a7dcc0dd7b0181a6bcd4b", "lon": -77.059082, "name": "a1fb4aec8b1a7dcc0dd7b0181a6bcd4b", "lat": 38.901732333333335, "fusion_lat": 0.0, "rental_uris": {"ios": "https://dc.lft.to/lastmile_qr_scan", "android": "https://dc.lft.to/lastmile_qr_scan"}, "is_disabled": 0, "type": "electric_scooter"}, {"fusion_lon": 0.0, "is_reserved": 0, "bike_id": "b07161bb16a6e15a3cf9229e77c4c456", "lon": -77.04471866666667, "name": "b07161bb16a6e15a3cf9229e77c4c456", "lat": 38.92326166666667, "fusion_lat": 0.0, "rental_uris": {"ios": "https://dc.lft.to/lastmile_qr_scan", "android": "https://dc.lft.to/lastmile_qr_scan"}, "is_disabled": 0, "type": "electric_scooter"}, {"fusion_lon": 0.0, "is_reserved": 0, "bike_id": "32ce3e99a2afa0f60e088e3c2fbbf131", "lon": -77.020855, "name": "32ce3e99a2afa0f60e088e3c2fbbf131", "lat": 38.901969, "fusion_lat": 0.0, "rental_uris": {"ios": "https://dc.lft.to/lastmile_qr_scan", "android": "https://dc.lft.to/lastmile_qr_scan"}, "is_disabled": 0, "type": "electric_scooter"}, {"fusion_lon": 0.0, "is_reserved": 0, "bike_id": "1877a1c5bab1b028dcccc1eae2504d43", "lon": -77.02340716666667, "name": "1877a1c5bab1b028dcccc1eae2504d43", "lat": 38.9316965, "fusion_lat": 0.0, "rental_uris": {"ios": "https://dc.lft.to/lastmile_qr_scan", "android": "https://dc.lft.to/lastmile_qr_scan"}, "is_disabled": 0, "type": "electric_scooter"}, {"fusion_lon": 0.0, "is_reserved": 0, "bike_id": "e6ff7bb8dc9844ac34fd1e42fd7e30c9", "lon": -76.9320825, "name": "e6ff7bb8dc9844ac34fd1e42fd7e30c9", "lat": 38.89666183333333, "fusion_lat": 0.0, "rental_uris": {"ios": "https://dc.lft.to/lastmile_qr_scan", "android": "https://dc.lft.to/lastmile_qr_scan"}, "is_disabled": 0, "type": "electric_scooter"}, {"fusion_lon": 0.0, "is_reserved": 0, "bike_id": "68041c6e4ed28a1c34f32bb9944d6f2c", "lon": -77.018242, "name": "68041c6e4ed28a1c34f32bb9944d6f2c", "lat": 38.901082833333334, "fusion_lat": 0.0, "rental_uris": {"ios": "https://dc.lft.to/lastmile_qr_scan", "android": "https://dc.lft.to/lastmile_qr_scan"}, "is_disabled": 0, "type": "electric_scooter"}, {"fusion_lon": 0.0, "is_reserved": 0, "bike_id": "b2f369633767d587118ffbaf1655c836", "lon": -76.92621133333333, "name": "b2f369633767d587118ffbaf1655c836", "lat": 38.88460666666667, "fusion_lat": 0.0, "rental_uris": {"ios": "https://dc.lft.to/lastmile_qr_scan", "android": "https://dc.lft.to/lastmile_qr_scan"}, "is_disabled": 0, "type": "electric_scooter"}, {"fusion_lon": 0.0, "is_reserved": 0, "bike_id": "a78afd0db1b6d414014fd2b89ee06864", "lon": -77.04388333333333, "name": "a78afd0db1b6d414014fd2b89ee06864", "lat": 38.9211855, "fusion_lat": 0.0, "rental_uris": {"ios": "https://dc.lft.to/lastmile_qr_scan", "android": "https://dc.lft.to/lastmile_qr_scan"}, "is_disabled": 0, "type": "electric_scooter"}, {"fusion_lon": 0.0, "is_reserved": 0, "bike_id": "a52408cedaa438044106edafa19a833a", "lon": -77.022126, "name": "a52408cedaa438044106edafa19a833a", "lat": 38.922307333333336, "fusion_lat": 0.0, "rental_uris": {"ios": "https://dc.lft.to/lastmile_qr_scan", "android": "https://dc.lft.to/lastmile_qr_scan"}, "is_disabled": 0, "type": "electric_scooter"}, {"fusion_lon": 0.0, "is_reserved": 0, "bike_id": "105b3514e0cad33c4d2e2b6b1381a9f5", "lon": -76.93760216666666, "name": "105b3514e0cad33c4d2e2b6b1381a9f5", "lat": 38.89043, "fusion_lat": 0.0, "rental_uris": {"ios": "https://dc.lft.to/lastmile_qr_scan", "android": "https://dc.lft.to/lastmile_qr_scan"}, "is_disabled": 0, "type": "electric_scooter"}, {"fusion_lon": 0.0, "is_reserved": 0, "bike_id": "e03a429f8a50eb0cc57f3f901422d705", "lon": -77.032085, "name": "e03a429f8a50eb0cc57f3f901422d705", "lat": 38.892401, "fusion_lat": 0.0, "rental_uris": {"ios": "https://dc.lft.to/lastmile_qr_scan", "android": "https://dc.lft.to/lastmile_qr_scan"}, "is_disabled": 0, "type": "electric_scooter"}, {"fusion_lon": 0.0, "is_reserved": 0, "bike_id": "b7116ed93a6f77e57fc6b1c1a7b4bfdc", "lon": -77.02731383333334, "name": "b7116ed93a6f77e57fc6b1c1a7b4bfdc", "lat": 38.9513085, "fusion_lat": 0.0, "rental_uris": {"ios": "https://dc.lft.to/lastmile_qr_scan", "android": "https://dc.lft.to/lastmile_qr_scan"}, "is_disabled": 0, "type": "electric_scooter"}, {"fusion_lon": 0.0, "is_reserved": 0, "bike_id": "d370cafcf0e9afbd025e68313d1c63fd", "lon": -77.00565283333333, "name": "d370cafcf0e9afbd025e68313d1c63fd", "lat": 38.896089, "fusion_lat": 0.0, "rental_uris": {"ios": "https://dc.lft.to/lastmile_qr_scan", "android": "https://dc.lft.to/lastmile_qr_scan"}, "is_disabled": 0, "type": "electric_scooter"}, {"fusion_lon": 0.0, "is_reserved": 0, "bike_id": "3e4a5526e78b47de80fef78142a4176d", "lon": -77.09026183333333, "name": "3e4a5526e78b47de80fef78142a4176d", "lat": 38.926603, "fusion_lat": 0.0, "rental_uris": {"ios": "https://dc.lft.to/lastmile_qr_scan", "android": "https://dc.lft.to/lastmile_qr_scan"}, "is_disabled": 0, "type": "electric_bike"}, {"fusion_lon": 0.0, "is_reserved": 0, "bike_id": "407edff1fe826b22ab80f9d2a66a5d07", "lon": -77.00589316666667, "name": "407edff1fe826b22ab80f9d2a66a5d07", "lat": 38.87606816666667, "fusion_lat": 0.0, "rental_uris": {"ios": "https://dc.lft.to/lastmile_qr_scan", "android": "https://dc.lft.to/lastmile_qr_scan"}, "is_disabled": 0, "type": "electric_scooter"}, {"fusion_lon": 0.0, "is_reserved": 0, "bike_id": "27a1de6bf9b747fd243e3a773bd55de4", "lon": -77.03825983333333, "name": "27a1de6bf9b747fd243e3a773bd55de4", "lat": 38.912698666666664, "fusion_lat": 0.0, "rental_uris": {"ios": "https://dc.lft.to/lastmile_qr_scan", "android": "https://dc.lft.to/lastmile_qr_scan"}, "is_disabled": 0, "type": "electric_scooter"}, {"fusion_lon": 0.0, "is_reserved": 0, "bike_id": "aa78705f713d33d4e6db1700ddf09e42", "lon": -76.93032183333334, "name": "aa78705f713d33d4e6db1700ddf09e42", "lat": 38.90010783333334, "fusion_lat": 0.0, "rental_uris": {"ios": "https://dc.lft.to/lastmile_qr_scan", "android": "https://dc.lft.to/lastmile_qr_scan"}, "is_disabled": 0, "type": "electric_scooter"}, {"fusion_lon": 0.0, "is_reserved": 0, "bike_id": "930522ca7abd9e596b9d1120365e8518", "lon": -76.996934, "name": "930522ca7abd9e596b9d1120365e8518", "lat": 38.93236866666667, "fusion_lat": 0.0, "rental_uris": {"ios": "https://dc.lft.to/lastmile_qr_scan", "android": "https://dc.lft.to/lastmile_qr_scan"}, "is_disabled": 0, "type": "electric_scooter"}, {"fusion_lon": 0.0, "is_reserved": 0, "bike_id": "6b79ca7ae15bfd60c76a60875c2cd17c", "lon": -77.0319115, "name": "6b79ca7ae15bfd60c76a60875c2cd17c", "lat": 38.91564566666667, "fusion_lat": 0.0, "rental_uris": {"ios": "https://dc.lft.to/lastmile_qr_scan", "android": "https://dc.lft.to/lastmile_qr_scan"}, "is_disabled": 0, "type": "electric_scooter"}, {"fusion_lon": 0.0, "is_reserved": 0, "bike_id": "4d9b892c758d9348bf8f54599b3d5ec7", "lon": -77.003044, "name": "4d9b892c758d9348bf8f54599b3d5ec7", "lat": 38.892017333333335, "fusion_lat": 0.0, "rental_uris": {"ios": "https://dc.lft.to/lastmile_qr_scan", "android": "https://dc.lft.to/lastmile_qr_scan"}, "is_disabled": 0, "type": "electric_scooter"}, {"fusion_lon": 0.0, "is_reserved": 0, "bike_id": "97b26283e10364dd2c344bfc1295ab9d", "lon": -76.93749733333334, "name": "97b26283e10364dd2c344bfc1295ab9d", "lat": 38.89007766666667, "fusion_lat": 0.0, "rental_uris": {"ios": "https://dc.lft.to/lastmile_qr_scan", "android": "https://dc.lft.to/lastmile_qr_scan"}, "is_disabled": 0, "type": "electric_scooter"}, {"fusion_lon": 0.0, "is_reserved": 0, "bike_id": "fd3baf692fba28447889e30ebc5156c1", "lon": -76.99164216666667, "name": "fd3baf692fba28447889e30ebc5156c1", "lat": 38.900480333333334, "fusion_lat": 0.0, "rental_uris": {"ios": "https://dc.lft.to/lastmile_qr_scan", "android": "https://dc.lft.to/lastmile_qr_scan"}, "is_disabled": 0, "type": "electric_scooter"}, {"fusion_lon": 0.0, "is_reserved": 0, "bike_id": "be499cca921931b682007212688462c2", "lon": -77.05066066666667, "name": "be499cca921931b682007212688462c2", "lat": 38.92407083333333, "fusion_lat": 0.0, "rental_uris": {"ios": "https://dc.lft.to/lastmile_qr_scan", "android": "https://dc.lft.to/lastmile_qr_scan"}, "is_disabled": 0, "type": "electric_scooter"}, {"fusion_lon": 0.0, "is_reserved": 0, "bike_id": "4ebc768e320c8c437d70920bda4dc36f", "lon": -77.038699, "name": "4ebc768e320c8c437d70920bda4dc36f", "lat": 38.9027625, "fusion_lat": 0.0, "rental_uris": {"ios": "https://dc.lft.to/lastmile_qr_scan", "android": "https://dc.lft.to/lastmile_qr_scan"}, "is_disabled": 0, "type": "electric_scooter"}, {"fusion_lon": 0.0, "is_reserved": 0, "bike_id": "bb96afc566660ab57693e32b761c9520", "lon": -77.04340733333333, "name": "bb96afc566660ab57693e32b761c9520", "lat": 38.90572916666667, "fusion_lat": 0.0, "rental_uris": {"ios": "https://dc.lft.to/lastmile_qr_scan", "android": "https://dc.lft.to/lastmile_qr_scan"}, "is_disabled": 0, "type": "electric_scooter"}, {"fusion_lon": 0.0, "is_reserved": 0, "bike_id": "d6d7f89a822c02437de185ca8c7db34c", "lon": -77.04531416666667, "name": "d6d7f89a822c02437de185ca8c7db34c", "lat": 38.90761083333334, "fusion_lat": 0.0, "rental_uris": {"ios": "https://dc.lft.to/lastmile_qr_scan", "android": "https://dc.lft.to/lastmile_qr_scan"}, "is_disabled": 0, "type": "electric_scooter"}, {"fusion_lon": 0.0, "is_reserved": 0, "bike_id": "8f1b1f7aae6ac20ec592d5f581b69b65", "lon": -77.07748216666667, "name": "8f1b1f7aae6ac20ec592d5f581b69b65", "lat": 38.912294333333335, "fusion_lat": 0.0, "rental_uris": {"ios": "https://dc.lft.to/lastmile_qr_scan", "android": "https://dc.lft.to/lastmile_qr_scan"}, "is_disabled": 0, "type": "electric_scooter"}, {"fusion_lon": 0.0, "is_reserved": 0, "bike_id": "50f90ea8489dce4e2b833a083e95d82f", "lon": -77.02852983333334, "name": "50f90ea8489dce4e2b833a083e95d82f", "lat": 38.922483, "fusion_lat": 0.0, "rental_uris": {"ios": "https://dc.lft.to/lastmile_qr_scan", "android": "https://dc.lft.to/lastmile_qr_scan"}, "is_disabled": 0, "type": "electric_scooter"}, {"fusion_lon": 0.0, "is_reserved": 0, "bike_id": "7540adb0cb9bec43b315d5bd203b5a45", "lon": -77.05785583333333, "name": "7540adb0cb9bec43b315d5bd203b5a45", "lat": 38.900953666666666, "fusion_lat": 0.0, "rental_uris": {"ios": "https://dc.lft.to/lastmile_qr_scan", "android": "https://dc.lft.to/lastmile_qr_scan"}, "is_disabled": 0, "type": "electric_scooter"}, {"fusion_lon": 0.0, "is_reserved": 0, "bike_id": "2b4170378702937c897addb317eba2ef", "lon": -77.024935, "name": "2b4170378702937c897addb317eba2ef", "lat": 38.919776166666665, "fusion_lat": 0.0, "rental_uris": {"ios": "https://dc.lft.to/lastmile_qr_scan", "android": "https://dc.lft.to/lastmile_qr_scan"}, "is_disabled": 0, "type": "electric_scooter"}, {"fusion_lon": 0.0, "is_reserved": 0, "bike_id": "6552cff06d51cb33870a417ed8124c16", "lon": -77.04203316666667, "name": "6552cff06d51cb33870a417ed8124c16", "lat": 38.9297335, "fusion_lat": 0.0, "rental_uris": {"ios": "https://dc.lft.to/lastmile_qr_scan", "android": "https://dc.lft.to/lastmile_qr_scan"}, "is_disabled": 0, "type": "electric_scooter"}, {"fusion_lon": 0.0, "is_reserved": 0, "bike_id": "a084865dfbf1576c6e139cd8533ecf8f", "lon": -77.05415783333333, "name": "a084865dfbf1576c6e139cd8533ecf8f", "lat": 38.928324333333336, "fusion_lat": 0.0, "rental_uris": {"ios": "https://dc.lft.to/lastmile_qr_scan", "android": "https://dc.lft.to/lastmile_qr_scan"}, "is_disabled": 0, "type": "electric_scooter"}, {"fusion_lon": 0.0, "is_reserved": 0, "bike_id": "ef8eda094a91d5e6ac9862d1e2210f3a", "lon": -77.04675083333333, "name": "ef8eda094a91d5e6ac9862d1e2210f3a", "lat": 38.9131675, "fusion_lat": 0.0, "rental_uris": {"ios": "https://dc.lft.to/lastmile_qr_scan", "android": "https://dc.lft.to/lastmile_qr_scan"}, "is_disabled": 0, "type": "electric_scooter"}, {"fusion_lon": 0.0, "is_reserved": 0, "bike_id": "8443fe79bd5e65ff0d35da6b640333cb", "lon": -77.02538216666666, "name": "8443fe79bd5e65ff0d35da6b640333cb", "lat": 38.937471, "fusion_lat": 0.0, "rental_uris": {"ios": "https://dc.lft.to/lastmile_qr_scan", "android": "https://dc.lft.to/lastmile_qr_scan"}, "is_disabled": 0, "type": "electric_scooter"}, {"fusion_lon": 0.0, "is_reserved": 0, "bike_id": "c12d42dcb6945b69e95b44b74eae46dd", "lon": -77.03133866666667, "name": "c12d42dcb6945b69e95b44b74eae46dd", "lat": 38.8971685, "fusion_lat": 0.0, "rental_uris": {"ios": "https://dc.lft.to/lastmile_qr_scan", "android": "https://dc.lft.to/lastmile_qr_scan"}, "is_disabled": 0, "type": "electric_scooter"}, {"fusion_lon": 0.0, "is_reserved": 0, "bike_id": "8f3aba19aeaf8537ce2dbc03a144ec5c", "lon": -77.03180483333334, "name": "8f3aba19aeaf8537ce2dbc03a144ec5c", "lat": 38.91027783333333, "fusion_lat": 0.0, "rental_uris": {"ios": "https://dc.lft.to/lastmile_qr_scan", "android": "https://dc.lft.to/lastmile_qr_scan"}, "is_disabled": 0, "type": "electric_scooter"}, {"fusion_lon": 0.0, "is_reserved": 0, "bike_id": "e312d65a4b9bdd39ba31cdd339c46ebd", "lon": -77.02292933333334, "name": "e312d65a4b9bdd39ba31cdd339c46ebd", "lat": 38.898618, "fusion_lat": 0.0, "rental_uris": {"ios": "https://dc.lft.to/lastmile_qr_scan", "android": "https://dc.lft.to/lastmile_qr_scan"}, "is_disabled": 0, "type": "electric_scooter"}, {"fusion_lon": 0.0, "is_reserved": 0, "bike_id": "3c61ceaef30d1560188b699cb02bf026", "lon": -77.02242466666667, "name": "3c61ceaef30d1560188b699cb02bf026", "lat": 38.92454166666667, "fusion_lat": 0.0, "rental_uris": {"ios": "https://dc.lft.to/lastmile_qr_scan", "android": "https://dc.lft.to/lastmile_qr_scan"}, "is_disabled": 0, "type": "electric_scooter"}, {"fusion_lon": 0.0, "is_reserved": 0, "bike_id": "ed0d27f41c46b58a7bf46641fba99365", "lon": -76.99457183333334, "name": "ed0d27f41c46b58a7bf46641fba99365", "lat": 38.904570166666666, "fusion_lat": 0.0, "rental_uris": {"ios": "https://dc.lft.to/lastmile_qr_scan", "android": "https://dc.lft.to/lastmile_qr_scan"}, "is_disabled": 0, "type": "electric_scooter"}, {"fusion_lon": 0.0, "is_reserved": 0, "bike_id": "cdc9dbb9749297afdd01d403161b9a22", "lon": -77.0136055, "name": "cdc9dbb9749297afdd01d403161b9a22", "lat": 39.029242, "fusion_lat": 0.0, "rental_uris": {"ios": "https://dc.lft.to/lastmile_qr_scan", "android": "https://dc.lft.to/lastmile_qr_scan"}, "is_disabled": 0, "type": "electric_bike"}, {"fusion_lon": 0.0, "is_reserved": 0, "bike_id": "d848d2cb39772f4845335307e9d43e99", "lon": -76.97958833333334, "name": "d848d2cb39772f4845335307e9d43e99", "lat": 38.92037216666667, "fusion_lat": 0.0, "rental_uris": {"ios": "https://dc.lft.to/lastmile_qr_scan", "android": "https://dc.lft.to/lastmile_qr_scan"}, "is_disabled": 0, "type": "electric_bike"}, {"fusion_lon": 0.0, "is_reserved": 0, "bike_id": "fcfaf3b0d62f4d285c72527ff498b642", "lon": -77.04610333333333, "name": "fcfaf3b0d62f4d285c72527ff498b642", "lat": 38.898281833333336, "fusion_lat": 0.0, "rental_uris": {"ios": "https://dc.lft.to/lastmile_qr_scan", "android": "https://dc.lft.to/lastmile_qr_scan"}, "is_disabled": 0, "type": "electric_scooter"}, {"fusion_lon": 0.0, "is_reserved": 0, "bike_id": "de02321273e16eb077384e56995bd718", "lon": -77.02751116666667, "name": "de02321273e16eb077384e56995bd718", "lat": 38.926815166666664, "fusion_lat": 0.0, "rental_uris": {"ios": "https://dc.lft.to/lastmile_qr_scan", "android": "https://dc.lft.to/lastmile_qr_scan"}, "is_disabled": 0, "type": "electric_scooter"}, {"fusion_lon": 0.0, "is_reserved": 0, "bike_id": "9a69c8fcd61fb588d948018d220a9714", "lon": -77.07853116666666, "name": "9a69c8fcd61fb588d948018d220a9714", "lat": 38.9314065, "fusion_lat": 0.0, "rental_uris": {"ios": "https://dc.lft.to/lastmile_qr_scan", "android": "https://dc.lft.to/lastmile_qr_scan"}, "is_disabled": 0, "type": "electric_scooter"}, {"fusion_lon": 0.0, "is_reserved": 0, "bike_id": "76b4cc3338c7379b1761e4f0642c33b3", "lon": -77.00252633333334, "name": "76b4cc3338c7379b1761e4f0642c33b3", "lat": 38.8762905, "fusion_lat": 0.0, "rental_uris": {"ios": "https://dc.lft.to/lastmile_qr_scan", "android": "https://dc.lft.to/lastmile_qr_scan"}, "is_disabled": 0, "type": "electric_scooter"}, {"fusion_lon": 0.0, "is_reserved": 0, "bike_id": "2ea20202861bfd69e93cb687bf2222ea", "lon": -77.03186833333334, "name": "2ea20202861bfd69e93cb687bf2222ea", "lat": 38.915309666666666, "fusion_lat": 0.0, "rental_uris": {"ios": "https://dc.lft.to/lastmile_qr_scan", "android": "https://dc.lft.to/lastmile_qr_scan"}, "is_disabled": 0, "type": "electric_scooter"}, {"fusion_lon": 0.0, "is_reserved": 0, "bike_id": "fbc14509aff435c698043e431cb0aa39", "lon": -76.98340216666666, "name": "fbc14509aff435c698043e431cb0aa39", "lat": 38.88709433333333, "fusion_lat": 0.0, "rental_uris": {"ios": "https://dc.lft.to/lastmile_qr_scan", "android": "https://dc.lft.to/lastmile_qr_scan"}, "is_disabled": 0, "type": "electric_scooter"}, {"fusion_lon": 0.0, "is_reserved": 0, "bike_id": "4082bec8a6e5ef5c25580169e781a82d", "lon": -77.03636933333334, "name": "4082bec8a6e5ef5c25580169e781a82d", "lat": 38.916194, "fusion_lat": 0.0, "rental_uris": {"ios": "https://dc.lft.to/lastmile_qr_scan", "android": "https://dc.lft.to/lastmile_qr_scan"}, "is_disabled": 0, "type": "electric_scooter"}, {"fusion_lon": 0.0, "is_reserved": 0, "bike_id": "699ee87464e0399f7eeaa2eaff1a5279", "lon": -77.0219615, "name": "699ee87464e0399f7eeaa2eaff1a5279", "lat": 38.9248265, "fusion_lat": 0.0, "rental_uris": {"ios": "https://dc.lft.to/lastmile_qr_scan", "android": "https://dc.lft.to/lastmile_qr_scan"}, "is_disabled": 0, "type": "electric_scooter"}, {"fusion_lon": 0.0, "is_reserved": 0, "bike_id": "56e4bffbf38afbf339c03788599b654e", "lon": -76.99303166666667, "name": "56e4bffbf38afbf339c03788599b654e", "lat": 38.90767233333333, "fusion_lat": 0.0, "rental_uris": {"ios": "https://dc.lft.to/lastmile_qr_scan", "android": "https://dc.lft.to/lastmile_qr_scan"}, "is_disabled": 0, "type": "electric_scooter"}, {"fusion_lon": 0.0, "is_reserved": 0, "bike_id": "556c42fea51a8e11929ebf1b6cf1e7e4", "lon": -77.052121, "name": "556c42fea51a8e11929ebf1b6cf1e7e4", "lat": 38.91421066666667, "fusion_lat": 0.0, "rental_uris": {"ios": "https://dc.lft.to/lastmile_qr_scan", "android": "https://dc.lft.to/lastmile_qr_scan"}, "is_disabled": 0, "type": "electric_scooter"}, {"fusion_lon": 0.0, "is_reserved": 0, "bike_id": "79f804d0d8c71fcb750b4933d8239831", "lon": -77.06271183333334, "name": "79f804d0d8c71fcb750b4933d8239831", "lat": 38.90463416666667, "fusion_lat": 0.0, "rental_uris": {"ios": "https://dc.lft.to/lastmile_qr_scan", "android": "https://dc.lft.to/lastmile_qr_scan"}, "is_disabled": 0, "type": "electric_scooter"}, {"fusion_lon": 0.0, "is_reserved": 0, "bike_id": "a8d86af8d8a3de2aa02bf5c41c969ac6", "lon": -77.04689533333334, "name": "a8d86af8d8a3de2aa02bf5c41c969ac6", "lat": 38.892226666666666, "fusion_lat": 0.0, "rental_uris": {"ios": "https://dc.lft.to/lastmile_qr_scan", "android": "https://dc.lft.to/lastmile_qr_scan"}, "is_disabled": 0, "type": "electric_scooter"}, {"fusion_lon": 0.0, "is_reserved": 0, "bike_id": "3494d77491e14601aebfe9fc492b36fd", "lon": -77.02046233333333, "name": "3494d77491e14601aebfe9fc492b36fd", "lat": 38.879409, "fusion_lat": 0.0, "rental_uris": {"ios": "https://dc.lft.to/lastmile_qr_scan", "android": "https://dc.lft.to/lastmile_qr_scan"}, "is_disabled": 0, "type": "electric_scooter"}, {"fusion_lon": 0.0, "is_reserved": 0, "bike_id": "542cd17b7e6042da841dbf9bff668862", "lon": -76.99799866666666, "name": "542cd17b7e6042da841dbf9bff668862", "lat": 38.94831533333333, "fusion_lat": 0.0, "rental_uris": {"ios": "https://dc.lft.to/lastmile_qr_scan", "android": "https://dc.lft.to/lastmile_qr_scan"}, "is_disabled": 0, "type": "electric_scooter"}, {"fusion_lon": 0.0, "is_reserved": 0, "bike_id": "fc471b6a807c810f948996b6c52dc6f9", "lon": -77.03872316666667, "name": "fc471b6a807c810f948996b6c52dc6f9", "lat": 38.9027895, "fusion_lat": 0.0, "rental_uris": {"ios": "https://dc.lft.to/lastmile_qr_scan", "android": "https://dc.lft.to/lastmile_qr_scan"}, "is_disabled": 0, "type": "electric_scooter"}, {"fusion_lon": 0.0, "is_reserved": 0, "bike_id": "80f1cba1bfb276f70e725750e320e218", "lon": -77.0473095, "name": "80f1cba1bfb276f70e725750e320e218", "lat": 38.8997245, "fusion_lat": 0.0, "rental_uris": {"ios": "https://dc.lft.to/lastmile_qr_scan", "android": "https://dc.lft.to/lastmile_qr_scan"}, "is_disabled": 0, "type": "electric_scooter"}, {"fusion_lon": 0.0, "is_reserved": 0, "bike_id": "edbd9ab75f31b81245850bb20e54bed0", "lon": -76.99258416666666, "name": "edbd9ab75f31b81245850bb20e54bed0", "lat": 38.807327666666666, "fusion_lat": 0.0, "rental_uris": {"ios": "https://dc.lft.to/lastmile_qr_scan", "android": "https://dc.lft.to/lastmile_qr_scan"}, "is_disabled": 0, "type": "electric_bike"}, {"fusion_lon": 0.0, "is_reserved": 0, "bike_id": "7a9e3864e07839c161892882cbb53b6a", "lon": -77.02965533333334, "name": "7a9e3864e07839c161892882cbb53b6a", "lat": 38.9268825, "fusion_lat": 0.0, "rental_uris": {"ios": "https://dc.lft.to/lastmile_qr_scan", "android": "https://dc.lft.to/lastmile_qr_scan"}, "is_disabled": 0, "type": "electric_scooter"}, {"fusion_lon": 0.0, "is_reserved": 0, "bike_id": "d0a34ddd8a27dfd4f3f2fcfcd0739bb9", "lon": -77.02163416666667, "name": "d0a34ddd8a27dfd4f3f2fcfcd0739bb9", "lat": 38.92615833333333, "fusion_lat": 0.0, "rental_uris": {"ios": "https://dc.lft.to/lastmile_qr_scan", "android": "https://dc.lft.to/lastmile_qr_scan"}, "is_disabled": 0, "type": "electric_scooter"}, {"fusion_lon": 0.0, "is_reserved": 0, "bike_id": "c9b0e5f2672a6284167c95cba488f880", "lon": -77.04367466666666, "name": "c9b0e5f2672a6284167c95cba488f880", "lat": 38.892254666666666, "fusion_lat": 0.0, "rental_uris": {"ios": "https://dc.lft.to/lastmile_qr_scan", "android": "https://dc.lft.to/lastmile_qr_scan"}, "is_disabled": 0, "type": "electric_scooter"}, {"fusion_lon": 0.0, "is_reserved": 0, "bike_id": "5c5de8baaa2ff469afdb27993fd40d66", "lon": -77.0266445, "name": "5c5de8baaa2ff469afdb27993fd40d66", "lat": 38.92392983333333, "fusion_lat": 0.0, "rental_uris": {"ios": "https://dc.lft.to/lastmile_qr_scan", "android": "https://dc.lft.to/lastmile_qr_scan"}, "is_disabled": 0, "type": "electric_scooter"}, {"fusion_lon": 0.0, "is_reserved": 0, "bike_id": "03858447c4dddb185d2d2c9d66232125", "lon": -76.9575705, "name": "03858447c4dddb185d2d2c9d66232125", "lat": 38.8843975, "fusion_lat": 0.0, "rental_uris": {"ios": "https://dc.lft.to/lastmile_qr_scan", "android": "https://dc.lft.to/lastmile_qr_scan"}, "is_disabled": 0, "type": "electric_scooter"}, {"fusion_lon": 0.0, "is_reserved": 0, "bike_id": "51e2065add56f03d60ad5d4529e449e0", "lon": -77.01792333333333, "name": "51e2065add56f03d60ad5d4529e449e0", "lat": 38.902653, "fusion_lat": 0.0, "rental_uris": {"ios": "https://dc.lft.to/lastmile_qr_scan", "android": "https://dc.lft.to/lastmile_qr_scan"}, "is_disabled": 0, "type": "electric_scooter"}, {"fusion_lon": 0.0, "is_reserved": 0, "bike_id": "c4092b4991bb3800442abf60b2923369", "lon": -76.99853083333333, "name": "c4092b4991bb3800442abf60b2923369", "lat": 38.891931, "fusion_lat": 0.0, "rental_uris": {"ios": "https://dc.lft.to/lastmile_qr_scan", "android": "https://dc.lft.to/lastmile_qr_scan"}, "is_disabled": 0, "type": "electric_scooter"}, {"fusion_lon": 0.0, "is_reserved": 0, "bike_id": "8f2a976c9212e5b6d732dcf4433cdba9", "lon": -77.04815133333334, "name": "8f2a976c9212e5b6d732dcf4433cdba9", "lat": 38.89593516666667, "fusion_lat": 0.0, "rental_uris": {"ios": "https://dc.lft.to/lastmile_qr_scan", "android": "https://dc.lft.to/lastmile_qr_scan"}, "is_disabled": 0, "type": "electric_scooter"}, {"fusion_lon": 0.0, "is_reserved": 0, "bike_id": "57ac6a50a95ebe6eb0091eb0848e2f02", "lon": -77.02946766666666, "name": "57ac6a50a95ebe6eb0091eb0848e2f02", "lat": 38.905035166666664, "fusion_lat": 0.0, "rental_uris": {"ios": "https://dc.lft.to/lastmile_qr_scan", "android": "https://dc.lft.to/lastmile_qr_scan"}, "is_disabled": 0, "type": "electric_scooter"}, {"fusion_lon": 0.0, "is_reserved": 0, "bike_id": "37be9b26d2fd8d7e5c488708d83210c4", "lon": -77.02450333333333, "name": "37be9b26d2fd8d7e5c488708d83210c4", "lat": 38.89732466666667, "fusion_lat": 0.0, "rental_uris": {"ios": "https://dc.lft.to/lastmile_qr_scan", "android": "https://dc.lft.to/lastmile_qr_scan"}, "is_disabled": 0, "type": "electric_scooter"}, {"fusion_lon": 0.0, "is_reserved": 0, "bike_id": "8df89192dea6f7cf8ed2f8b103d1cf74", "lon": -77.03864383333334, "name": "8df89192dea6f7cf8ed2f8b103d1cf74", "lat": 38.90279866666667, "fusion_lat": 0.0, "rental_uris": {"ios": "https://dc.lft.to/lastmile_qr_scan", "android": "https://dc.lft.to/lastmile_qr_scan"}, "is_disabled": 0, "type": "electric_scooter"}, {"fusion_lon": 0.0, "is_reserved": 0, "bike_id": "95054c116399ec8734f9f8b9a4193730", "lon": -77.03308316666667, "name": "95054c116399ec8734f9f8b9a4193730", "lat": 38.90357, "fusion_lat": 0.0, "rental_uris": {"ios": "https://dc.lft.to/lastmile_qr_scan", "android": "https://dc.lft.to/lastmile_qr_scan"}, "is_disabled": 0, "type": "electric_scooter"}, {"fusion_lon": 0.0, "is_reserved": 0, "bike_id": "47308ef5772ce8fd33e80fbe57ac4207", "lon": -77.10405383333334, "name": "47308ef5772ce8fd33e80fbe57ac4207", "lat": 39.005367166666666, "fusion_lat": 0.0, "rental_uris": {"ios": "https://dc.lft.to/lastmile_qr_scan", "android": "https://dc.lft.to/lastmile_qr_scan"}, "is_disabled": 0, "type": "electric_bike"}, {"fusion_lon": 0.0, "is_reserved": 0, "bike_id": "7717513c1e986b78fd07c8a29dcdb6ef", "lon": -77.04360466666667, "name": "7717513c1e986b78fd07c8a29dcdb6ef", "lat": 38.89723266666667, "fusion_lat": 0.0, "rental_uris": {"ios": "https://dc.lft.to/lastmile_qr_scan", "android": "https://dc.lft.to/lastmile_qr_scan"}, "is_disabled": 0, "type": "electric_scooter"}, {"fusion_lon": 0.0, "is_reserved": 0, "bike_id": "e0b534f109269d4a4cf95fa3a69899bd", "lon": -77.047498, "name": "e0b534f109269d4a4cf95fa3a69899bd", "lat": 38.905244833333334, "fusion_lat": 0.0, "rental_uris": {"ios": "https://dc.lft.to/lastmile_qr_scan", "android": "https://dc.lft.to/lastmile_qr_scan"}, "is_disabled": 0, "type": "electric_scooter"}, {"fusion_lon": 0.0, "is_reserved": 0, "bike_id": "d3d188dded3dda7b4daf1f7e902cc2d7", "lon": -77.02453783333333, "name": "d3d188dded3dda7b4daf1f7e902cc2d7", "lat": 38.91554083333333, "fusion_lat": 0.0, "rental_uris": {"ios": "https://dc.lft.to/lastmile_qr_scan", "android": "https://dc.lft.to/lastmile_qr_scan"}, "is_disabled": 0, "type": "electric_scooter"}, {"fusion_lon": 0.0, "is_reserved": 0, "bike_id": "a6724d0d1a7331ad9f190d17e564e6f4", "lon": -77.009308, "name": "a6724d0d1a7331ad9f190d17e564e6f4", "lat": 38.895517, "fusion_lat": 0.0, "rental_uris": {"ios": "https://dc.lft.to/lastmile_qr_scan", "android": "https://dc.lft.to/lastmile_qr_scan"}, "is_disabled": 0, "type": "electric_scooter"}, {"fusion_lon": 0.0, "is_reserved": 0, "bike_id": "3ca53234493343172868c9434792efa3", "lon": -77.0466165, "name": "3ca53234493343172868c9434792efa3", "lat": 38.904244166666665, "fusion_lat": 0.0, "rental_uris": {"ios": "https://dc.lft.to/lastmile_qr_scan", "android": "https://dc.lft.to/lastmile_qr_scan"}, "is_disabled": 0, "type": "electric_scooter"}, {"fusion_lon": 0.0, "is_reserved": 0, "bike_id": "0693d7df6f7be85c91261998d67f3b29", "lon": -77.03404016666667, "name": "0693d7df6f7be85c91261998d67f3b29", "lat": 38.9191765, "fusion_lat": 0.0, "rental_uris": {"ios": "https://dc.lft.to/lastmile_qr_scan", "android": "https://dc.lft.to/lastmile_qr_scan"}, "is_disabled": 0, "type": "electric_scooter"}, {"fusion_lon": 0.0, "is_reserved": 0, "bike_id": "191e1ed5ba39ed58988bb15baaec8c4e", "lon": -77.02215366666667, "name": "191e1ed5ba39ed58988bb15baaec8c4e", "lat": 38.910149, "fusion_lat": 0.0, "rental_uris": {"ios": "https://dc.lft.to/lastmile_qr_scan", "android": "https://dc.lft.to/lastmile_qr_scan"}, "is_disabled": 0, "type": "electric_scooter"}, {"fusion_lon": 0.0, "is_reserved": 0, "bike_id": "2cb91e21f4918f01da03f5fe0fdb1ada", "lon": -77.05682633333333, "name": "2cb91e21f4918f01da03f5fe0fdb1ada", "lat": 38.9233945, "fusion_lat": 0.0, "rental_uris": {"ios": "https://dc.lft.to/lastmile_qr_scan", "android": "https://dc.lft.to/lastmile_qr_scan"}, "is_disabled": 0, "type": "electric_scooter"}, {"fusion_lon": 0.0, "is_reserved": 0, "bike_id": "9d44c4c0fe6e6a31ceda08a97bf6424d", "lon": -77.03245833333334, "name": "9d44c4c0fe6e6a31ceda08a97bf6424d", "lat": 38.93035483333333, "fusion_lat": 0.0, "rental_uris": {"ios": "https://dc.lft.to/lastmile_qr_scan", "android": "https://dc.lft.to/lastmile_qr_scan"}, "is_disabled": 0, "type": "electric_scooter"}, {"fusion_lon": 0.0, "is_reserved": 0, "bike_id": "7a048895d273203464f40047d512e1e3", "lon": -76.98660166666667, "name": "7a048895d273203464f40047d512e1e3", "lat": 38.868718, "fusion_lat": 0.0, "rental_uris": {"ios": "https://dc.lft.to/lastmile_qr_scan", "android": "https://dc.lft.to/lastmile_qr_scan"}, "is_disabled": 0, "type": "electric_scooter"}, {"fusion_lon": 0.0, "is_reserved": 0, "bike_id": "8ffd3e7c07922cbbad9bc75b85b3081b", "lon": -77.03132983333333, "name": "8ffd3e7c07922cbbad9bc75b85b3081b", "lat": 38.93067816666667, "fusion_lat": 0.0, "rental_uris": {"ios": "https://dc.lft.to/lastmile_qr_scan", "android": "https://dc.lft.to/lastmile_qr_scan"}, "is_disabled": 0, "type": "electric_scooter"}, {"fusion_lon": 0.0, "is_reserved": 0, "bike_id": "b0bc5333313a9d9bf5e0f380ed777ac7", "lon": -77.08319616666667, "name": "b0bc5333313a9d9bf5e0f380ed777ac7", "lat": 38.854449833333334, "fusion_lat": 0.0, "rental_uris": {"ios": "https://dc.lft.to/lastmile_qr_scan", "android": "https://dc.lft.to/lastmile_qr_scan"}, "is_disabled": 0, "type": "electric_bike"}, {"fusion_lon": 0.0, "is_reserved": 0, "bike_id": "b634f16fa4538fcbfa1442b70ef0e093", "lon": -77.004076, "name": "b634f16fa4538fcbfa1442b70ef0e093", "lat": 38.877644, "fusion_lat": 0.0, "rental_uris": {"ios": "https://dc.lft.to/lastmile_qr_scan", "android": "https://dc.lft.to/lastmile_qr_scan"}, "is_disabled": 0, "type": "electric_scooter"}, {"fusion_lon": 0.0, "is_reserved": 0, "bike_id": "03c84e5e2f8409dc4ac30e774ec0b284", "lon": -76.98619566666666, "name": "03c84e5e2f8409dc4ac30e774ec0b284", "lat": 38.93972983333333, "fusion_lat": 0.0, "rental_uris": {"ios": "https://dc.lft.to/lastmile_qr_scan", "android": "https://dc.lft.to/lastmile_qr_scan"}, "is_disabled": 0, "type": "electric_bike"}, {"fusion_lon": 0.0, "is_reserved": 0, "bike_id": "ca6d78e4bc94753cc449d5db93085cb8", "lon": -77.0298905, "name": "ca6d78e4bc94753cc449d5db93085cb8", "lat": 38.8961355, "fusion_lat": 0.0, "rental_uris": {"ios": "https://dc.lft.to/lastmile_qr_scan", "android": "https://dc.lft.to/lastmile_qr_scan"}, "is_disabled": 0, "type": "electric_scooter"}, {"fusion_lon": 0.0, "is_reserved": 0, "bike_id": "fddfb0a8820411adab2f799d61541f90", "lon": -77.0684265, "name": "fddfb0a8820411adab2f799d61541f90", "lat": 38.8564435, "fusion_lat": 0.0, "rental_uris": {"ios": "https://dc.lft.to/lastmile_qr_scan", "android": "https://dc.lft.to/lastmile_qr_scan"}, "is_disabled": 0, "type": "electric_bike"}, {"fusion_lon": 0.0, "is_reserved": 0, "bike_id": "e560356f71fe01ce0862d485e822b33a", "lon": -77.027456, "name": "e560356f71fe01ce0862d485e822b33a", "lat": 38.90265816666667, "fusion_lat": 0.0, "rental_uris": {"ios": "https://dc.lft.to/lastmile_qr_scan", "android": "https://dc.lft.to/lastmile_qr_scan"}, "is_disabled": 0, "type": "electric_scooter"}, {"fusion_lon": 0.0, "is_reserved": 0, "bike_id": "9c3c7344b355e737bd97435beb143341", "lon": -77.04139966666666, "name": "9c3c7344b355e737bd97435beb143341", "lat": 38.934036666666664, "fusion_lat": 0.0, "rental_uris": {"ios": "https://dc.lft.to/lastmile_qr_scan", "android": "https://dc.lft.to/lastmile_qr_scan"}, "is_disabled": 0, "type": "electric_scooter"}, {"fusion_lon": 0.0, "is_reserved": 0, "bike_id": "2217c9c9997aefa7dfc6a99b3e9d4657", "lon": -77.03889416666667, "name": "2217c9c9997aefa7dfc6a99b3e9d4657", "lat": 38.917105666666664, "fusion_lat": 0.0, "rental_uris": {"ios": "https://dc.lft.to/lastmile_qr_scan", "android": "https://dc.lft.to/lastmile_qr_scan"}, "is_disabled": 0, "type": "electric_scooter"}, {"fusion_lon": 0.0, "is_reserved": 0, "bike_id": "1e90a30d10637b60d5c709b0c94a948d", "lon": -76.9974065, "name": "1e90a30d10637b60d5c709b0c94a948d", "lat": 38.8822195, "fusion_lat": 0.0, "rental_uris": {"ios": "https://dc.lft.to/lastmile_qr_scan", "android": "https://dc.lft.to/lastmile_qr_scan"}, "is_disabled": 0, "type": "electric_scooter"}, {"fusion_lon": 0.0, "is_reserved": 0, "bike_id": "ef48688e169147f97e15b6457416d626", "lon": -77.12040616666667, "name": "ef48688e169147f97e15b6457416d626", "lat": 38.82432433333334, "fusion_lat": 0.0, "rental_uris": {"ios": "https://dc.lft.to/lastmile_qr_scan", "android": "https://dc.lft.to/lastmile_qr_scan"}, "is_disabled": 0, "type": "electric_bike"}, {"fusion_lon": 0.0, "is_reserved": 0, "bike_id": "94fa1946870c086de8d79507a1d02c32", "lon": -76.97485616666667, "name": "94fa1946870c086de8d79507a1d02c32", "lat": 38.8656105, "fusion_lat": 0.0, "rental_uris": {"ios": "https://dc.lft.to/lastmile_qr_scan", "android": "https://dc.lft.to/lastmile_qr_scan"}, "is_disabled": 0, "type": "electric_bike"}, {"fusion_lon": 0.0, "is_reserved": 0, "bike_id": "33b6177fe634b1a1efe6ec04703030a9", "lon": -77.01074716666666, "name": "33b6177fe634b1a1efe6ec04703030a9", "lat": 38.87251533333333, "fusion_lat": 0.0, "rental_uris": {"ios": "https://dc.lft.to/lastmile_qr_scan", "android": "https://dc.lft.to/lastmile_qr_scan"}, "is_disabled": 0, "type": "electric_scooter"}, {"fusion_lon": 0.0, "is_reserved": 0, "bike_id": "e4e803eee9ce4f001580c44fb53ba1c2", "lon": -77.02621933333333, "name": "e4e803eee9ce4f001580c44fb53ba1c2", "lat": 38.896203166666666, "fusion_lat": 0.0, "rental_uris": {"ios": "https://dc.lft.to/lastmile_qr_scan", "android": "https://dc.lft.to/lastmile_qr_scan"}, "is_disabled": 0, "type": "electric_scooter"}, {"fusion_lon": 0.0, "is_reserved": 0, "bike_id": "7ca284eee0bde9c208b101e6d73fe5bd", "lon": -77.03987966666666, "name": "7ca284eee0bde9c208b101e6d73fe5bd", "lat": 38.9206995, "fusion_lat": 0.0, "rental_uris": {"ios": "https://dc.lft.to/lastmile_qr_scan", "android": "https://dc.lft.to/lastmile_qr_scan"}, "is_disabled": 0, "type": "electric_scooter"}, {"fusion_lon": 0.0, "is_reserved": 0, "bike_id": "b01d116c34545f3727928d8c2fa99aa6", "lon": -77.059975, "name": "b01d116c34545f3727928d8c2fa99aa6", "lat": 38.9271475, "fusion_lat": 0.0, "rental_uris": {"ios": "https://dc.lft.to/lastmile_qr_scan", "android": "https://dc.lft.to/lastmile_qr_scan"}, "is_disabled": 0, "type": "electric_scooter"}, {"fusion_lon": 0.0, "is_reserved": 0, "bike_id": "98c5d902fcd554c9727a140ee2c95e7d", "lon": -77.04123983333334, "name": "98c5d902fcd554c9727a140ee2c95e7d", "lat": 38.929621166666664, "fusion_lat": 0.0, "rental_uris": {"ios": "https://dc.lft.to/lastmile_qr_scan", "android": "https://dc.lft.to/lastmile_qr_scan"}, "is_disabled": 0, "type": "electric_scooter"}, {"fusion_lon": 0.0, "is_reserved": 0, "bike_id": "a26ec525d73e8b0a9400cfe706df502d", "lon": -76.93210283333333, "name": "a26ec525d73e8b0a9400cfe706df502d", "lat": 38.89670616666667, "fusion_lat": 0.0, "rental_uris": {"ios": "https://dc.lft.to/lastmile_qr_scan", "android": "https://dc.lft.to/lastmile_qr_scan"}, "is_disabled": 0, "type": "electric_bike"}, {"fusion_lon": 0.0, "is_reserved": 0, "bike_id": "13efcb97f043c19d7e27b4749f435a3d", "lon": -77.02308933333333, "name": "13efcb97f043c19d7e27b4749f435a3d", "lat": 38.9168195, "fusion_lat": 0.0, "rental_uris": {"ios": "https://dc.lft.to/lastmile_qr_scan", "android": "https://dc.lft.to/lastmile_qr_scan"}, "is_disabled": 0, "type": "electric_scooter"}, {"fusion_lon": 0.0, "is_reserved": 0, "bike_id": "a78120dd2ce876a55ce6ed2b1c182647", "lon": -77.02144516666667, "name": "a78120dd2ce876a55ce6ed2b1c182647", "lat": 38.92138516666667, "fusion_lat": 0.0, "rental_uris": {"ios": "https://dc.lft.to/lastmile_qr_scan", "android": "https://dc.lft.to/lastmile_qr_scan"}, "is_disabled": 0, "type": "electric_scooter"}, {"fusion_lon": 0.0, "is_reserved": 0, "bike_id": "78662ebea4c99f02716310ae3ebb2d9f", "lon": -77.03008383333334, "name": "78662ebea4c99f02716310ae3ebb2d9f", "lat": 38.899025, "fusion_lat": 0.0, "rental_uris": {"ios": "https://dc.lft.to/lastmile_qr_scan", "android": "https://dc.lft.to/lastmile_qr_scan"}, "is_disabled": 0, "type": "electric_scooter"}, {"fusion_lon": 0.0, "is_reserved": 0, "bike_id": "cdacecda8b1dab06ca642881985d0709", "lon": -77.04883983333333, "name": "cdacecda8b1dab06ca642881985d0709", "lat": 38.892307833333334, "fusion_lat": 0.0, "rental_uris": {"ios": "https://dc.lft.to/lastmile_qr_scan", "android": "https://dc.lft.to/lastmile_qr_scan"}, "is_disabled": 0, "type": "electric_scooter"}, {"fusion_lon": 0.0, "is_reserved": 0, "bike_id": "a2464bd5b08d5746d859340de5e86649", "lon": -76.985449, "name": "a2464bd5b08d5746d859340de5e86649", "lat": 38.8799785, "fusion_lat": 0.0, "rental_uris": {"ios": "https://dc.lft.to/lastmile_qr_scan", "android": "https://dc.lft.to/lastmile_qr_scan"}, "is_disabled": 0, "type": "electric_scooter"}, {"fusion_lon": 0.0, "is_reserved": 0, "bike_id": "747a82d053c3780d2ee32f2c868228ca", "lon": -77.0312375, "name": "747a82d053c3780d2ee32f2c868228ca", "lat": 38.9126675, "fusion_lat": 0.0, "rental_uris": {"ios": "https://dc.lft.to/lastmile_qr_scan", "android": "https://dc.lft.to/lastmile_qr_scan"}, "is_disabled": 0, "type": "electric_scooter"}, {"fusion_lon": 0.0, "is_reserved": 0, "bike_id": "821c470cf95c34e224b0c7b8293483f8", "lon": -77.02313133333334, "name": "821c470cf95c34e224b0c7b8293483f8", "lat": 38.9339235, "fusion_lat": 0.0, "rental_uris": {"ios": "https://dc.lft.to/lastmile_qr_scan", "android": "https://dc.lft.to/lastmile_qr_scan"}, "is_disabled": 0, "type": "electric_scooter"}, {"fusion_lon": 0.0, "is_reserved": 0, "bike_id": "cabe8f9872ea37b0afca7b9aefcbc9de", "lon": -77.031447, "name": "cabe8f9872ea37b0afca7b9aefcbc9de", "lat": 38.892222333333336, "fusion_lat": 0.0, "rental_uris": {"ios": "https://dc.lft.to/lastmile_qr_scan", "android": "https://dc.lft.to/lastmile_qr_scan"}, "is_disabled": 0, "type": "electric_scooter"}, {"fusion_lon": 0.0, "is_reserved": 0, "bike_id": "ee1bac34ca4308e4876cc007f2ccb419", "lon": -77.117021, "name": "ee1bac34ca4308e4876cc007f2ccb419", "lat": 38.88546383333333, "fusion_lat": 0.0, "rental_uris": {"ios": "https://dc.lft.to/lastmile_qr_scan", "android": "https://dc.lft.to/lastmile_qr_scan"}, "is_disabled": 0, "type": "electric_bike"}, {"fusion_lon": 0.0, "is_reserved": 0, "bike_id": "5485ad56de3c2d98a75b810c5b735516", "lon": -77.02182266666667, "name": "5485ad56de3c2d98a75b810c5b735516", "lat": 38.9169255, "fusion_lat": 0.0, "rental_uris": {"ios": "https://dc.lft.to/lastmile_qr_scan", "android": "https://dc.lft.to/lastmile_qr_scan"}, "is_disabled": 0, "type": "electric_scooter"}, {"fusion_lon": 0.0, "is_reserved": 0, "bike_id": "76a6535e9b31760ce846d3f1d2abf704", "lon": -77.021888, "name": "76a6535e9b31760ce846d3f1d2abf704", "lat": 38.914844333333335, "fusion_lat": 0.0, "rental_uris": {"ios": "https://dc.lft.to/lastmile_qr_scan", "android": "https://dc.lft.to/lastmile_qr_scan"}, "is_disabled": 0, "type": "electric_scooter"}, {"fusion_lon": 0.0, "is_reserved": 0, "bike_id": "a41d187498e21453c9733edf5b834660", "lon": -77.04161333333333, "name": "a41d187498e21453c9733edf5b834660", "lat": 38.89506183333334, "fusion_lat": 0.0, "rental_uris": {"ios": "https://dc.lft.to/lastmile_qr_scan", "android": "https://dc.lft.to/lastmile_qr_scan"}, "is_disabled": 0, "type": "electric_scooter"}, {"fusion_lon": 0.0, "is_reserved": 0, "bike_id": "090f6a2cd79240160b23371e58927926", "lon": -77.16233316666667, "name": "090f6a2cd79240160b23371e58927926", "lat": 38.886707333333334, "fusion_lat": 0.0, "rental_uris": {"ios": "https://dc.lft.to/lastmile_qr_scan", "android": "https://dc.lft.to/lastmile_qr_scan"}, "is_disabled": 0, "type": "electric_bike"}, {"fusion_lon": 0.0, "is_reserved": 0, "bike_id": "67ec0f2307d38365bc237f94632245e8", "lon": -77.0093965, "name": "67ec0f2307d38365bc237f94632245e8", "lat": 38.8745855, "fusion_lat": 0.0, "rental_uris": {"ios": "https://dc.lft.to/lastmile_qr_scan", "android": "https://dc.lft.to/lastmile_qr_scan"}, "is_disabled": 0, "type": "electric_scooter"}, {"fusion_lon": 0.0, "is_reserved": 0, "bike_id": "a60c1543736121b42a5b9cdb5c1e8d30", "lon": -76.929106, "name": "a60c1543736121b42a5b9cdb5c1e8d30", "lat": 38.882934, "fusion_lat": 0.0, "rental_uris": {"ios": "https://dc.lft.to/lastmile_qr_scan", "android": "https://dc.lft.to/lastmile_qr_scan"}, "is_disabled": 0, "type": "electric_scooter"}, {"fusion_lon": 0.0, "is_reserved": 0, "bike_id": "6d8f0933bc46b7d204b331a7d0ee0c8c", "lon": -77.01592816666667, "name": "6d8f0933bc46b7d204b331a7d0ee0c8c", "lat": 38.89983866666667, "fusion_lat": 0.0, "rental_uris": {"ios": "https://dc.lft.to/lastmile_qr_scan", "android": "https://dc.lft.to/lastmile_qr_scan"}, "is_disabled": 0, "type": "electric_scooter"}, {"fusion_lon": 0.0, "is_reserved": 0, "bike_id": "2ddd49ae7b9318e14e7590cadf3c9147", "lon": -76.92112466666667, "name": "2ddd49ae7b9318e14e7590cadf3c9147", "lat": 38.890047, "fusion_lat": 0.0, "rental_uris": {"ios": "https://dc.lft.to/lastmile_qr_scan", "android": "https://dc.lft.to/lastmile_qr_scan"}, "is_disabled": 0, "type": "electric_scooter"}, {"fusion_lon": 0.0, "is_reserved": 0, "bike_id": "ea56a488dea4c7cae7bbde364b2f1a02", "lon": -76.93175966666666, "name": "ea56a488dea4c7cae7bbde364b2f1a02", "lat": 38.8988545, "fusion_lat": 0.0, "rental_uris": {"ios": "https://dc.lft.to/lastmile_qr_scan", "android": "https://dc.lft.to/lastmile_qr_scan"}, "is_disabled": 0, "type": "electric_scooter"}, {"fusion_lon": 0.0, "is_reserved": 0, "bike_id": "392e718f5d4ad31e6f5849828f6b0bcd", "lon": -76.970766, "name": "392e718f5d4ad31e6f5849828f6b0bcd", "lat": 38.84645016666666, "fusion_lat": 0.0, "rental_uris": {"ios": "https://dc.lft.to/lastmile_qr_scan", "android": "https://dc.lft.to/lastmile_qr_scan"}, "is_disabled": 0, "type": "electric_bike"}, {"fusion_lon": 0.0, "is_reserved": 0, "bike_id": "349e1bea3ad81553d85621120ce707de", "lon": -76.9848055, "name": "349e1bea3ad81553d85621120ce707de", "lat": 38.902555, "fusion_lat": 0.0, "rental_uris": {"ios": "https://dc.lft.to/lastmile_qr_scan", "android": "https://dc.lft.to/lastmile_qr_scan"}, "is_disabled": 0, "type": "electric_scooter"}, {"fusion_lon": 0.0, "is_reserved": 0, "bike_id": "ac5886440b8fef82580a1aa8b451b96c", "lon": -77.031961, "name": "ac5886440b8fef82580a1aa8b451b96c", "lat": 38.90955866666667, "fusion_lat": 0.0, "rental_uris": {"ios": "https://dc.lft.to/lastmile_qr_scan", "android": "https://dc.lft.to/lastmile_qr_scan"}, "is_disabled": 0, "type": "electric_scooter"}, {"fusion_lon": 0.0, "is_reserved": 0, "bike_id": "ecdc8636f90fe58b4e492db5a55630ea", "lon": -77.00662366666667, "name": "ecdc8636f90fe58b4e492db5a55630ea", "lat": 38.8717845, "fusion_lat": 0.0, "rental_uris": {"ios": "https://dc.lft.to/lastmile_qr_scan", "android": "https://dc.lft.to/lastmile_qr_scan"}, "is_disabled": 0, "type": "electric_scooter"}, {"fusion_lon": 0.0, "is_reserved": 0, "bike_id": "8a3bd35aa607be64eb444748726b27e9", "lon": -76.99662983333333, "name": "8a3bd35aa607be64eb444748726b27e9", "lat": 38.878630666666666, "fusion_lat": 0.0, "rental_uris": {"ios": "https://dc.lft.to/lastmile_qr_scan", "android": "https://dc.lft.to/lastmile_qr_scan"}, "is_disabled": 0, "type": "electric_scooter"}, {"fusion_lon": 0.0, "is_reserved": 0, "bike_id": "8e80524b1d9537df9fc08e1115cbe097", "lon": -77.02316283333333, "name": "8e80524b1d9537df9fc08e1115cbe097", "lat": 38.91839816666667, "fusion_lat": 0.0, "rental_uris": {"ios": "https://dc.lft.to/lastmile_qr_scan", "android": "https://dc.lft.to/lastmile_qr_scan"}, "is_disabled": 0, "type": "electric_scooter"}, {"fusion_lon": 0.0, "is_reserved": 0, "bike_id": "bd621139a6448968cc08d83d429ade02", "lon": -77.023226, "name": "bd621139a6448968cc08d83d429ade02", "lat": 38.9178735, "fusion_lat": 0.0, "rental_uris": {"ios": "https://dc.lft.to/lastmile_qr_scan", "android": "https://dc.lft.to/lastmile_qr_scan"}, "is_disabled": 0, "type": "electric_scooter"}, {"fusion_lon": 0.0, "is_reserved": 0, "bike_id": "19d5afe240d09810af3da7a6dfad3e3c", "lon": -76.97391083333333, "name": "19d5afe240d09810af3da7a6dfad3e3c", "lat": 38.9039165, "fusion_lat": 0.0, "rental_uris": {"ios": "https://dc.lft.to/lastmile_qr_scan", "android": "https://dc.lft.to/lastmile_qr_scan"}, "is_disabled": 0, "type": "electric_scooter"}, {"fusion_lon": 0.0, "is_reserved": 0, "bike_id": "837a9345bc3a2e0036541d1c952a9948", "lon": -77.02189683333333, "name": "837a9345bc3a2e0036541d1c952a9948", "lat": 38.896201166666664, "fusion_lat": 0.0, "rental_uris": {"ios": "https://dc.lft.to/lastmile_qr_scan", "android": "https://dc.lft.to/lastmile_qr_scan"}, "is_disabled": 0, "type": "electric_scooter"}, {"fusion_lon": 0.0, "is_reserved": 0, "bike_id": "557f98b609d6c7f9adc68a93f75f62f1", "lon": -76.98626066666667, "name": "557f98b609d6c7f9adc68a93f75f62f1", "lat": 38.85459933333333, "fusion_lat": 0.0, "rental_uris": {"ios": "https://dc.lft.to/lastmile_qr_scan", "android": "https://dc.lft.to/lastmile_qr_scan"}, "is_disabled": 0, "type": "electric_bike"}, {"fusion_lon": 0.0, "is_reserved": 0, "bike_id": "c69199aa01116e1c3a4b15a8affb29e5", "lon": -77.01590666666667, "name": "c69199aa01116e1c3a4b15a8affb29e5", "lat": 38.9300885, "fusion_lat": 0.0, "rental_uris": {"ios": "https://dc.lft.to/lastmile_qr_scan", "android": "https://dc.lft.to/lastmile_qr_scan"}, "is_disabled": 0, "type": "electric_scooter"}, {"fusion_lon": 0.0, "is_reserved": 0, "bike_id": "d6e0adb4e232854ab0714409b49f53a2", "lon": -76.98316116666666, "name": "d6e0adb4e232854ab0714409b49f53a2", "lat": 38.9256035, "fusion_lat": 0.0, "rental_uris": {"ios": "https://dc.lft.to/lastmile_qr_scan", "android": "https://dc.lft.to/lastmile_qr_scan"}, "is_disabled": 0, "type": "electric_scooter"}, {"fusion_lon": 0.0, "is_reserved": 0, "bike_id": "3af219b6394e9810ec30988dc2fb7e7a", "lon": -77.02668633333333, "name": "3af219b6394e9810ec30988dc2fb7e7a", "lat": 38.894640333333335, "fusion_lat": 0.0, "rental_uris": {"ios": "https://dc.lft.to/lastmile_qr_scan", "android": "https://dc.lft.to/lastmile_qr_scan"}, "is_disabled": 0, "type": "electric_scooter"}, {"fusion_lon": 0.0, "is_reserved": 0, "bike_id": "a2e51174bd666ac0c2dbe56a7d9cf244", "lon": -76.98342116666667, "name": "a2e51174bd666ac0c2dbe56a7d9cf244", "lat": 38.88707933333333, "fusion_lat": 0.0, "rental_uris": {"ios": "https://dc.lft.to/lastmile_qr_scan", "android": "https://dc.lft.to/lastmile_qr_scan"}, "is_disabled": 0, "type": "electric_scooter"}, {"fusion_lon": 0.0, "is_reserved": 0, "bike_id": "d2914d788c9a3be513416462da5d165c", "lon": -77.05361333333333, "name": "d2914d788c9a3be513416462da5d165c", "lat": 38.92725216666667, "fusion_lat": 0.0, "rental_uris": {"ios": "https://dc.lft.to/lastmile_qr_scan", "android": "https://dc.lft.to/lastmile_qr_scan"}, "is_disabled": 0, "type": "electric_scooter"}, {"fusion_lon": 0.0, "is_reserved": 0, "bike_id": "b9254bf1ac75c3ef7dac2590d83a0aeb", "lon": -77.02588566666667, "name": "b9254bf1ac75c3ef7dac2590d83a0aeb", "lat": 38.942701166666666, "fusion_lat": 0.0, "rental_uris": {"ios": "https://dc.lft.to/lastmile_qr_scan", "android": "https://dc.lft.to/lastmile_qr_scan"}, "is_disabled": 0, "type": "electric_scooter"}, {"fusion_lon": 0.0, "is_reserved": 0, "bike_id": "c55ad95db9476713ace93940e7c892fe", "lon": -77.00918366666667, "name": "c55ad95db9476713ace93940e7c892fe", "lat": 38.953298, "fusion_lat": 0.0, "rental_uris": {"ios": "https://dc.lft.to/lastmile_qr_scan", "android": "https://dc.lft.to/lastmile_qr_scan"}, "is_disabled": 0, "type": "electric_bike"}, {"fusion_lon": 0.0, "is_reserved": 0, "bike_id": "7179d4ab4a6d3f148061f2ab9407c089", "lon": -77.021697, "name": "7179d4ab4a6d3f148061f2ab9407c089", "lat": 38.92616833333334, "fusion_lat": 0.0, "rental_uris": {"ios": "https://dc.lft.to/lastmile_qr_scan", "android": "https://dc.lft.to/lastmile_qr_scan"}, "is_disabled": 0, "type": "electric_scooter"}, {"fusion_lon": 0.0, "is_reserved": 0, "bike_id": "896893e95b6697e8e2940eab7e2da492", "lon": -77.02762016666667, "name": "896893e95b6697e8e2940eab7e2da492", "lat": 38.925776, "fusion_lat": 0.0, "rental_uris": {"ios": "https://dc.lft.to/lastmile_qr_scan", "android": "https://dc.lft.to/lastmile_qr_scan"}, "is_disabled": 0, "type": "electric_scooter"}, {"fusion_lon": 0.0, "is_reserved": 0, "bike_id": "2a66f6fe23f8b00d2e0f2dfa099bbb8f", "lon": -77.019846, "name": "2a66f6fe23f8b00d2e0f2dfa099bbb8f", "lat": 38.90735383333333, "fusion_lat": 0.0, "rental_uris": {"ios": "https://dc.lft.to/lastmile_qr_scan", "android": "https://dc.lft.to/lastmile_qr_scan"}, "is_disabled": 0, "type": "electric_scooter"}, {"fusion_lon": 0.0, "is_reserved": 0, "bike_id": "2cd49b57223b9c54e0ac550ba67ccc57", "lon": -77.02283683333333, "name": "2cd49b57223b9c54e0ac550ba67ccc57", "lat": 38.925635, "fusion_lat": 0.0, "rental_uris": {"ios": "https://dc.lft.to/lastmile_qr_scan", "android": "https://dc.lft.to/lastmile_qr_scan"}, "is_disabled": 0, "type": "electric_scooter"}, {"fusion_lon": 0.0, "is_reserved": 0, "bike_id": "bdfc4c98fb8c9e37f39e10cb6560616a", "lon": -77.012053, "name": "bdfc4c98fb8c9e37f39e10cb6560616a", "lat": 38.901527333333334, "fusion_lat": 0.0, "rental_uris": {"ios": "https://dc.lft.to/lastmile_qr_scan", "android": "https://dc.lft.to/lastmile_qr_scan"}, "is_disabled": 0, "type": "electric_scooter"}, {"fusion_lon": 0.0, "is_reserved": 0, "bike_id": "b4fa8f36bde4825d5a8b5f5c66f9b5ad", "lon": -77.03645966666667, "name": "b4fa8f36bde4825d5a8b5f5c66f9b5ad", "lat": 38.90377566666667, "fusion_lat": 0.0, "rental_uris": {"ios": "https://dc.lft.to/lastmile_qr_scan", "android": "https://dc.lft.to/lastmile_qr_scan"}, "is_disabled": 0, "type": "electric_scooter"}, {"fusion_lon": 0.0, "is_reserved": 0, "bike_id": "915d178b05f75835e8d53c133668b3dd", "lon": -77.04616516666667, "name": "915d178b05f75835e8d53c133668b3dd", "lat": 38.8982985, "fusion_lat": 0.0, "rental_uris": {"ios": "https://dc.lft.to/lastmile_qr_scan", "android": "https://dc.lft.to/lastmile_qr_scan"}, "is_disabled": 0, "type": "electric_scooter"}, {"fusion_lon": 0.0, "is_reserved": 0, "bike_id": "e9ecc33299dc0d2f837e6e21f630938b", "lon": -77.063378, "name": "e9ecc33299dc0d2f837e6e21f630938b", "lat": 38.8556255, "fusion_lat": 0.0, "rental_uris": {"ios": "https://dc.lft.to/lastmile_qr_scan", "android": "https://dc.lft.to/lastmile_qr_scan"}, "is_disabled": 0, "type": "electric_bike"}, {"fusion_lon": 0.0, "is_reserved": 0, "bike_id": "819271b3bc58ff731bed2a0f09fb9d29", "lon": -77.02583783333333, "name": "819271b3bc58ff731bed2a0f09fb9d29", "lat": 38.9259205, "fusion_lat": 0.0, "rental_uris": {"ios": "https://dc.lft.to/lastmile_qr_scan", "android": "https://dc.lft.to/lastmile_qr_scan"}, "is_disabled": 0, "type": "electric_scooter"}, {"fusion_lon": 0.0, "is_reserved": 0, "bike_id": "ef73b6dec38107a5e92f02093252b3f4", "lon": -76.99380116666667, "name": "ef73b6dec38107a5e92f02093252b3f4", "lat": 38.8521985, "fusion_lat": 0.0, "rental_uris": {"ios": "https://dc.lft.to/lastmile_qr_scan", "android": "https://dc.lft.to/lastmile_qr_scan"}, "is_disabled": 0, "type": "electric_scooter"}, {"fusion_lon": 0.0, "is_reserved": 0, "bike_id": "3242f9f586b1b9fde5d241a7264121ec", "lon": -77.03866583333334, "name": "3242f9f586b1b9fde5d241a7264121ec", "lat": 38.92156166666667, "fusion_lat": 0.0, "rental_uris": {"ios": "https://dc.lft.to/lastmile_qr_scan", "android": "https://dc.lft.to/lastmile_qr_scan"}, "is_disabled": 0, "type": "electric_scooter"}, {"fusion_lon": 0.0, "is_reserved": 0, "bike_id": "650250e787694464f9a6eac8259b550a", "lon": -77.04167366666667, "name": "650250e787694464f9a6eac8259b550a", "lat": 38.894761333333335, "fusion_lat": 0.0, "rental_uris": {"ios": "https://dc.lft.to/lastmile_qr_scan", "android": "https://dc.lft.to/lastmile_qr_scan"}, "is_disabled": 0, "type": "electric_scooter"}, {"fusion_lon": 0.0, "is_reserved": 0, "bike_id": "5f3dd084cc56469fd336a4426508c28a", "lon": -76.94898416666666, "name": "5f3dd084cc56469fd336a4426508c28a", "lat": 38.842228, "fusion_lat": 0.0, "rental_uris": {"ios": "https://dc.lft.to/lastmile_qr_scan", "android": "https://dc.lft.to/lastmile_qr_scan"}, "is_disabled": 0, "type": "electric_bike"}, {"fusion_lon": 0.0, "is_reserved": 0, "bike_id": "9af9aad3a4b93108532294496adb136f", "lon": -77.043485, "name": "9af9aad3a4b93108532294496adb136f", "lat": 38.906395, "fusion_lat": 0.0, "rental_uris": {"ios": "https://dc.lft.to/lastmile_qr_scan", "android": "https://dc.lft.to/lastmile_qr_scan"}, "is_disabled": 0, "type": "electric_scooter"}, {"fusion_lon": 0.0, "is_reserved": 0, "bike_id": "84fe820c5ccce68306e3c2dfaa306500", "lon": -77.056787, "name": "84fe820c5ccce68306e3c2dfaa306500", "lat": 38.923397333333334, "fusion_lat": 0.0, "rental_uris": {"ios": "https://dc.lft.to/lastmile_qr_scan", "android": "https://dc.lft.to/lastmile_qr_scan"}, "is_disabled": 0, "type": "electric_scooter"}, {"fusion_lon": 0.0, "is_reserved": 0, "bike_id": "809efad52a29c89603c80921103a10fd", "lon": -76.98427483333333, "name": "809efad52a29c89603c80921103a10fd", "lat": 38.8605625, "fusion_lat": 0.0, "rental_uris": {"ios": "https://dc.lft.to/lastmile_qr_scan", "android": "https://dc.lft.to/lastmile_qr_scan"}, "is_disabled": 0, "type": "electric_scooter"}, {"fusion_lon": 0.0, "is_reserved": 0, "bike_id": "16df000a4fd49479e0fd1d599d593727", "lon": -77.060499, "name": "16df000a4fd49479e0fd1d599d593727", "lat": 38.905251666666665, "fusion_lat": 0.0, "rental_uris": {"ios": "https://dc.lft.to/lastmile_qr_scan", "android": "https://dc.lft.to/lastmile_qr_scan"}, "is_disabled": 0, "type": "electric_scooter"},