{"data": {"bikes": [{"name": "c81c8222b14a7146e047c1aec52a5f35", "is_reserved": 0, "fusion_lon": 0.0, "bike_id": "c81c8222b14a7146e047c1aec52a5f35", "lat": 38.921403166666664, "is_disabled": 0, "lon": -77.01808633333333, "fusion_lat": 0.0, "rental_uris": {"ios": "https://dc.lft.to/lastmile_qr_scan", "android": "https://dc.lft.to/lastmile_qr_scan"}, "type": "electric_scooter"}, {"name": "3fa40bb3aef6ad1de6d10304c54bbd1a", "is_reserved": 0, "fusion_lon": 0.0, "bike_id": "3fa40bb3aef6ad1de6d10304c54bbd1a", "lat": 38.90037366666667, "is_disabled": 0, "lon": -77.012229, "fusion_lat": 0.0, "rental_uris": {"ios": "https://dc.lft.to/lastmile_qr_scan", "android": "https://dc.lft.to/lastmile_qr_scan"}, "type": "electric_scooter"}, {"name": "115768877a9d4d518e883abe9ae2270d", "is_reserved": 0, "fusion_lon": 0.0, "bike_id": "115768877a9d4d518e883abe9ae2270d", "lat": 38.92329983333333, "is_disabled": 0, "lon": -77.05678933333333, "fusion_lat": 0.0, "rental_uris": {"ios": "https://dc.lft.to/lastmile_qr_scan", "android": "https://dc.lft.to/lastmile_qr_scan"}, "type": "electric_scooter"}, {"name": "3e4e484b074cdf6c6be4bdfc95653f19", "is_reserved": 0, "fusion_lon": 0.0, "bike_id": "3e4e484b074cdf6c6be4bdfc95653f19", "lat": 38.94276466666667, "is_disabled": 0, "lon": -76.97074333333333, "fusion_lat": 0.0, "rental_uris": {"ios": "https://dc.lft.to/lastmile_qr_scan", "android": "https://dc.lft.to/lastmile_qr_scan"}, "type": "electric_bike"}, {"name": "448ef3e71d3e2bcd8e9d6780a9b835ff", "is_reserved": 0, "fusion_lon": 0.0, "bike_id": "448ef3e71d3e2bcd8e9d6780a9b835ff", "lat": 38.82615216666667, "is_disabled": 0, "lon": -76.99517566666667, "fusion_lat": 0.0, "rental_uris": {"ios": "https://dc.lft.to/lastmile_qr_scan", "android": "https://dc.lft.to/lastmile_qr_scan"}, "type": "electric_scooter"}, {"name": "ca5eafaa9cb217b0e361d90cfe6c48d1", "is_reserved": 0, "fusion_lon": 0.0, "bike_id": "ca5eafaa9cb217b0e361d90cfe6c48d1", "lat": 38.921736833333334, "is_disabled": 0, "lon": -77.02106316666666, "fusion_lat": 0.0, "rental_uris": {"ios": "https://dc.lft.to/lastmile_qr_scan", "android": "https://dc.lft.to/lastmile_qr_scan"}, "type": "electric_scooter"}, {"name": "e474618222284c60177509e839855d16", "is_reserved": 0, "fusion_lon": 0.0, "bike_id": "e474618222284c60177509e839855d16", "lat": 38.89613383333333, "is_disabled": 0, "lon": -77.02966016666667, "fusion_lat": 0.0, "rental_uris": {"ios": "https://dc.lft.to/lastmile_qr_scan", "android": "https://dc.lft.to/lastmile_qr_scan"}, "type": "electric_scooter"}, {"name": "d1564733d1e5a2f5aeeb013aa2609134", "is_reserved": 0, "fusion_lon": 0.0, "bike_id": "d1564733d1e5a2f5aeeb013aa2609134", "lat": 38.88723233333333, "is_disabled": 0, "lon": -76.9837405, "fusion_lat": 0.0, "rental_uris": {"ios": "https://dc.lft.to/lastmile_qr_scan", "android": "https://dc.lft.to/lastmile_qr_scan"}, "type": "electric_scooter"}, {"name": "d1478131d236cb320f01594a51321965", "is_reserved": 0, "fusion_lon": 0.0, "bike_id": "d1478131d236cb320f01594a51321965", "lat": 38.9067085, "is_disabled": 0, "lon": -77.00599683333333, "fusion_lat": 0.0, "rental_uris": {"ios": "https://dc.lft.to/lastmile_qr_scan", "android": "https://dc.lft.to/lastmile_qr_scan"}, "type": "electric_scooter"}, {"name": "0d7ca7df646eecdb58290d076eb9d24b", "is_reserved": 0, "fusion_lon": 0.0, "bike_id": "0d7ca7df646eecdb58290d076eb9d24b", "lat": 38.906775, "is_disabled": 0, "lon": -77.06653216666666, "fusion_lat": 0.0, "rental_uris": {"ios": "https://dc.lft.to/lastmile_qr_scan", "android": "https://dc.lft.to/lastmile_qr_scan"}, "type": "electric_scooter"}, {"name": "22c300a7264e65f4a08e07452f58a300", "is_reserved": 0, "fusion_lon": 0.0, "bike_id": "22c300a7264e65f4a08e07452f58a300", "lat": 38.939701166666666, "is_disabled": 0, "lon": -77.02490033333333, "fusion_lat": 0.0, "rental_uris": {"ios": "https://dc.lft.to/lastmile_qr_scan", "android": "https://dc.lft.to/lastmile_qr_scan"}, "type": "electric_scooter"}, {"name": "9df93cfa5e02561c9a813d3cc90957fb", "is_reserved": 0, "fusion_lon": 0.0, "bike_id": "9df93cfa5e02561c9a813d3cc90957fb", "lat": 38.9022115, "is_disabled": 0, "lon": -77.04798483333333, "fusion_lat": 0.0, "rental_uris": {"ios": "https://dc.lft.to/lastmile_qr_scan", "android": "https://dc.lft.to/lastmile_qr_scan"}, "type": "electric_scooter"}, {"name": "dc3b44d4427c250d8ccf561590fa43c3", "is_reserved": 0, "fusion_lon": 0.0, "bike_id": "dc3b44d4427c250d8ccf561590fa43c3", "lat": 38.866797, "is_disabled": 0, "lon": -76.98513566666666, "fusion_lat": 0.0, "rental_uris": {"ios": "https://dc.lft.to/lastmile_qr_scan", "android": "https://dc.lft.to/lastmile_qr_scan"}, "type": "electric_scooter"}, {"name": "d73bedbcafa79297045d056e66a472e3", "is_reserved": 0, "fusion_lon": 0.0, "bike_id": "d73bedbcafa79297045d056e66a472e3", "lat": 38.885056666666664, "is_disabled": 0, "lon": -77.00567333333333, "fusion_lat": 0.0, "rental_uris": {"ios": "https://dc.lft.to/lastmile_qr_scan", "android": "https://dc.lft.to/lastmile_qr_scan"}, "type": "electric_scooter"}, {"name": "77cddffe3cd61d0619f6f1c02d2214d4", "is_reserved": 0, "fusion_lon": 0.0, "bike_id": "77cddffe3cd61d0619f6f1c02d2214d4", "lat": 38.867504333333336, "is_disabled": 0, "lon": -77.00146133333334, "fusion_lat": 0.0, "rental_uris": {"ios": "https://dc.lft.to/lastmile_qr_scan", "android": "https://dc.lft.to/lastmile_qr_scan"}, "type": "electric_scooter"}, {"name": "94ca677015bb6a2633be5ade946af961", "is_reserved": 0, "fusion_lon": 0.0, "bike_id": "94ca677015bb6a2633be5ade946af961", "lat": 38.89241533333333, "is_disabled": 0, "lon": -77.03188833333333, "fusion_lat": 0.0, "rental_uris": {"ios": "https://dc.lft.to/lastmile_qr_scan", "android": "https://dc.lft.to/lastmile_qr_scan"}, "type": "electric_scooter"}, {"name": "28a9fb7ecb1cc089d2336add91c1d972", "is_reserved": 0, "fusion_lon": 0.0, "bike_id": "28a9fb7ecb1cc089d2336add91c1d972", "lat": 39.08513266666667, "is_disabled": 0, "lon": -76.95064533333333, "fusion_lat": 0.0, "rental_uris": {"ios": "https://dc.lft.to/lastmile_qr_scan", "android": "https://dc.lft.to/lastmile_qr_scan"}, "type": "electric_bike"}, {"name": "b3cdfad10c20e3065c137b0142c981ea", "is_reserved": 0, "fusion_lon": 0.0, "bike_id": "b3cdfad10c20e3065c137b0142c981ea", "lat": 38.908754333333334, "is_disabled": 0, "lon": -77.04331033333334, "fusion_lat": 0.0, "rental_uris": {"ios": "https://dc.lft.to/lastmile_qr_scan", "android": "https://dc.lft.to/lastmile_qr_scan"}, "type": "electric_scooter"}, {"name": "681b2debc491adc67cbcf5c0dcb45248", "is_reserved": 0, "fusion_lon": 0.0, "bike_id": "681b2debc491adc67cbcf5c0dcb45248", "lat": 38.91642383333333, "is_disabled": 0, "lon": -77.03212833333333, "fusion_lat": 0.0, "rental_uris": {"ios": "https://dc.lft.to/lastmile_qr_scan", "android": "https://dc.lft.to/lastmile_qr_scan"}, "type": "electric_scooter"}, {"name": "cd4a57db79411522a53bc8e4032efd5e", "is_reserved": 0, "fusion_lon": 0.0, "bike_id": "cd4a57db79411522a53bc8e4032efd5e", "lat": 38.887381166666664, "is_disabled": 0, "lon": -77.0034125, "fusion_lat": 0.0, "rental_uris": {"ios": "https://dc.lft.to/lastmile_qr_scan", "android": "https://dc.lft.to/lastmile_qr_scan"}, "type": "electric_scooter"}, {"name": "fdd350f0e0b2cfeb7f209eaa91313166", "is_reserved": 0, "fusion_lon": 0.0, "bike_id": "fdd350f0e0b2cfeb7f209eaa91313166", "lat": 39.03753016666667, "is_disabled": 0, "lon": -77.04828866666666, "fusion_lat": 0.0, "rental_uris": {"ios": "https://dc.lft.to/lastmile_qr_scan", "android": "https://dc.lft.to/lastmile_qr_scan"}, "type": "electric_bike"}, {"name": "eb080d6d9a70a34713e36ed8ba4d931d", "is_reserved": 0, "fusion_lon": 0.0, "bike_id": "eb080d6d9a70a34713e36ed8ba4d931d", "lat": 38.92471283333333, "is_disabled": 0, "lon": -77.0221505, "fusion_lat": 0.0, "rental_uris": {"ios": "https://dc.lft.to/lastmile_qr_scan", "android": "https://dc.lft.to/lastmile_qr_scan"}, "type": "electric_scooter"}, {"name": "9ca54ee71209915e5c550fcb111dc47f", "is_reserved": 0, "fusion_lon": 0.0, "bike_id": "9ca54ee71209915e5c550fcb111dc47f", "lat": 38.91355683333333, "is_disabled": 0, "lon": -77.044787, "fusion_lat": 0.0, "rental_uris": {"ios": "https://dc.lft.to/lastmile_qr_scan", "android": "https://dc.lft.to/lastmile_qr_scan"}, "type": "electric_scooter"}, {"name": "3445dbdee428fd746b07b1700b4d2efc", "is_reserved": 0, "fusion_lon": 0.0, "bike_id": "3445dbdee428fd746b07b1700b4d2efc", "lat": 38.900220166666664, "is_disabled": 0, "lon": -76.99116433333333, "fusion_lat": 0.0, "rental_uris": {"ios": "https://dc.lft.to/lastmile_qr_scan", "android": "https://dc.lft.to/lastmile_qr_scan"}, "type": "electric_scooter"}, {"name": "9f2f7ee03b430d9f7872b3ee6d7082da", "is_reserved": 0, "fusion_lon": 0.0, "bike_id": "9f2f7ee03b430d9f7872b3ee6d7082da", "lat": 38.93213566666667, "is_disabled": 0, "lon": -77.0327275, "fusion_lat": 0.0, "rental_uris": {"ios": "https://dc.lft.to/lastmile_qr_scan", "android": "https://dc.lft.to/lastmile_qr_scan"}, "type": "electric_scooter"}, {"name": "cd76bce3505cfa0a9f1bda118c67b71e", "is_reserved": 0, "fusion_lon": 0.0, "bike_id": "cd76bce3505cfa0a9f1bda118c67b71e", "lat": 38.923656333333334, "is_disabled": 0, "lon": -77.01949933333333, "fusion_lat": 0.0, "rental_uris": {"ios": "https://dc.lft.to/lastmile_qr_scan", "android": "https://dc.lft.to/lastmile_qr_scan"}, "type": "electric_scooter"}, {"name": "941fe3655370e34117450f9113a531c0", "is_reserved": 0, "fusion_lon": 0.0, "bike_id": "941fe3655370e34117450f9113a531c0", "lat": 38.90776833333334, "is_disabled": 0, "lon": -77.07148983333333, "fusion_lat": 0.0, "rental_uris": {"ios": "https://dc.lft.to/lastmile_qr_scan", "android": "https://dc.lft.to/lastmile_qr_scan"}, "type": "electric_scooter"}, {"name": "fe8421b8d145be6a4edb52b1e14feadd", "is_reserved": 0, "fusion_lon": 0.0, "bike_id": "fe8421b8d145be6a4edb52b1e14feadd", "lat": 38.93538383333333, "is_disabled": 0, "lon": -77.03083916666667, "fusion_lat": 0.0, "rental_uris": {"ios": "https://dc.lft.to/lastmile_qr_scan", "android": "https://dc.lft.to/lastmile_qr_scan"}, "type": "electric_scooter"}, {"name": "dbd1b70119453c7221fc1ebd21fd6e1a", "is_reserved": 0, "fusion_lon": 0.0, "bike_id": "dbd1b70119453c7221fc1ebd21fd6e1a", "lat": 38.908527166666666, "is_disabled": 0, "lon": -77.03864533333333, "fusion_lat": 0.0, "rental_uris": {"ios": "https://dc.lft.to/lastmile_qr_scan", "android": "https://dc.lft.to/lastmile_qr_scan"}, "type": "electric_scooter"}, {"name": "31a9e3bf6ab8da6191fedf6fed31a154", "is_reserved": 0, "fusion_lon": 0.0, "bike_id": "31a9e3bf6ab8da6191fedf6fed31a154", "lat": 38.92289316666667, "is_disabled": 0, "lon": -77.031965, "fusion_lat": 0.0, "rental_uris": {"ios": "https://dc.lft.to/lastmile_qr_scan", "android": "https://dc.lft.to/lastmile_qr_scan"}, "type": "electric_scooter"}, {"name": "f4fbe3e1d5a3b4cc96b45d440945978d", "is_reserved": 0, "fusion_lon": 0.0, "bike_id": "f4fbe3e1d5a3b4cc96b45d440945978d", "lat": 38.9232015, "is_disabled": 0, "lon": -77.03662483333333, "fusion_lat": 0.0, "rental_uris": {"ios": "https://dc.lft.to/lastmile_qr_scan", "android": "https://dc.lft.to/lastmile_qr_scan"}, "type": "electric_scooter"}, {"name": "f6c8764ac07a0a52d8b8be1ae5a883e3", "is_reserved": 0, "fusion_lon": 0.0, "bike_id": "f6c8764ac07a0a52d8b8be1ae5a883e3", "lat": 38.908441333333336, "is_disabled": 0, "lon": -77.02587516666667, "fusion_lat": 0.0, "rental_uris": {"ios": "https://dc.lft.to/lastmile_qr_scan", "android": "https://dc.lft.to/lastmile_qr_scan"}, "type": "electric_scooter"}, {"name": "0179212d502d1d9796a6e38284bbe958", "is_reserved": 0, "fusion_lon": 0.0, "bike_id": "0179212d502d1d9796a6e38284bbe958", "lat": 38.9353775, "is_disabled": 0, "lon": -77.08797233333334, "fusion_lat": 0.0, "rental_uris": {"ios": "https://dc.lft.to/lastmile_qr_scan", "android": "https://dc.lft.to/lastmile_qr_scan"}, "type": "electric_scooter"}, {"name": "92b7894c34c848d9117cd79d0605f39d", "is_reserved": 0, "fusion_lon": 0.0, "bike_id": "92b7894c34c848d9117cd79d0605f39d", "lat": 38.892158333333334, "is_disabled": 0, "lon": -77.00330383333333, "fusion_lat": 0.0, "rental_uris": {"ios": "https://dc.lft.to/lastmile_qr_scan", "android": "https://dc.lft.to/lastmile_qr_scan"}, "type": "electric_scooter"}, {"name": "d7bc9670f055834201146f88797d0658", "is_reserved": 0, "fusion_lon": 0.0, "bike_id": "d7bc9670f055834201146f88797d0658", "lat": 38.913108666666666, "is_disabled": 0, "lon": -77.06219383333334, "fusion_lat": 0.0, "rental_uris": {"ios": "https://dc.lft.to/lastmile_qr_scan", "android": "https://dc.lft.to/lastmile_qr_scan"}, "type": "electric_scooter"}, {"name": "4163ec2d63e538f87b144427b8fe4c4f", "is_reserved": 0, "fusion_lon": 0.0, "bike_id": "4163ec2d63e538f87b144427b8fe4c4f", "lat": 38.92715966666667, "is_disabled": 0, "lon": -77.05985516666667, "fusion_lat": 0.0, "rental_uris": {"ios": "https://dc.lft.to/lastmile_qr_scan", "android": "https://dc.lft.to/lastmile_qr_scan"}, "type": "electric_scooter"}, {"name": "f00dae27ed1dc6e79969cca94ee12263", "is_reserved": 0, "fusion_lon": 0.0, "bike_id": "f00dae27ed1dc6e79969cca94ee12263", "lat": 38.91405066666667, "is_disabled": 0, "lon": -77.028386, "fusion_lat": 0.0, "rental_uris": {"ios": "https://dc.lft.to/lastmile_qr_scan", "android": "https://dc.lft.to/lastmile_qr_scan"}, "type": "electric_bike"}, {"name": "cbf24e3b6c01caeb7af456b318e304a0", "is_reserved": 0, "fusion_lon": 0.0, "bike_id": "cbf24e3b6c01caeb7af456b318e304a0", "lat": 38.924828833333336, "is_disabled": 0, "lon": -77.0298185, "fusion_lat": 0.0, "rental_uris": {"ios": "https://dc.lft.to/lastmile_qr_scan", "android": "https://dc.lft.to/lastmile_qr_scan"}, "type": "electric_scooter"}, {"name": "e47ff3577a31eda013a4f8c85525b4f0", "is_reserved": 0, "fusion_lon": 0.0, "bike_id": "e47ff3577a31eda013a4f8c85525b4f0", "lat": 38.920684, "is_disabled": 0, "lon": -77.041978, "fusion_lat": 0.0, "rental_uris": {"ios": "https://dc.lft.to/lastmile_qr_scan", "android": "https://dc.lft.to/lastmile_qr_scan"}, "type": "electric_scooter"}, {"name": "b0d9ad676230a518774977b0bbfc6f57", "is_reserved": 0, "fusion_lon": 0.0, "bike_id": "b0d9ad676230a518774977b0bbfc6f57", "lat": 38.9441025, "is_disabled": 0, "lon": -77.02181433333334, "fusion_lat": 0.0, "rental_uris": {"ios": "https://dc.lft.to/lastmile_qr_scan", "android": "https://dc.lft.to/lastmile_qr_scan"}, "type": "electric_scooter"}, {"name": "cd0cc106af2368846ad2b2cc3afc4eca", "is_reserved": 0, "fusion_lon": 0.0, "bike_id": "cd0cc106af2368846ad2b2cc3afc4eca", "lat": 38.9744085, "is_disabled": 0, "lon": -77.09613066666667, "fusion_lat": 0.0, "rental_uris": {"ios": "https://dc.lft.to/lastmile_qr_scan", "android": "https://dc.lft.to/lastmile_qr_scan"}, "type": "electric_bike"}, {"name": "0717cf450904e6efab1878d72789321a", "is_reserved": 0, "fusion_lon": 0.0, "bike_id": "0717cf450904e6efab1878d72789321a", "lat": 38.93424783333333, "is_disabled": 0, "lon": -77.0399545, "fusion_lat": 0.0, "rental_uris": {"ios": "https://dc.lft.to/lastmile_qr_scan", "android": "https://dc.lft.to/lastmile_qr_scan"}, "type": "electric_scooter"}, {"name": "32303ee93dfbff41e4a02656fc060437", "is_reserved": 0, "fusion_lon": 0.0, "bike_id": "32303ee93dfbff41e4a02656fc060437", "lat": 38.87187733333333, "is_disabled": 0, "lon": -76.97381683333333, "fusion_lat": 0.0, "rental_uris": {"ios": "https://dc.lft.to/lastmile_qr_scan", "android": "https://dc.lft.to/lastmile_qr_scan"}, "type": "electric_scooter"}, {"name": "f7c8dc585d44a75b72de4bd734e552c7", "is_reserved": 0, "fusion_lon": 0.0, "bike_id": "f7c8dc585d44a75b72de4bd734e552c7", "lat": 38.9187945, "is_disabled": 0, "lon": -77.0091165, "fusion_lat": 0.0, "rental_uris": {"ios": "https://dc.lft.to/lastmile_qr_scan", "android": "https://dc.lft.to/lastmile_qr_scan"}, "type": "electric_scooter"}, {"name": "028e6b2cc0169441103b2e8b429f0898", "is_reserved": 0, "fusion_lon": 0.0, "bike_id": "028e6b2cc0169441103b2e8b429f0898", "lat": 38.89768466666666, "is_disabled": 0, "lon": -77.02706816666667, "fusion_lat": 0.0, "rental_uris": {"ios": "https://dc.lft.to/lastmile_qr_scan", "android": "https://dc.lft.to/lastmile_qr_scan"}, "type": "electric_scooter"}, {"name": "ec7007269e49a42252cb3db1bf35d8ae", "is_reserved": 0, "fusion_lon": 0.0, "bike_id": "ec7007269e49a42252cb3db1bf35d8ae", "lat": 38.87638966666667, "is_disabled": 0, "lon": -77.00367083333333, "fusion_lat": 0.0, "rental_uris": {"ios": "https://dc.lft.to/lastmile_qr_scan", "android": "https://dc.lft.to/lastmile_qr_scan"}, "type": "electric_bike"}, {"name": "5dd4a72daabf0317e645b1a236e4637c", "is_reserved": 0, "fusion_lon": 0.0, "bike_id": "5dd4a72daabf0317e645b1a236e4637c", "lat": 38.89730516666667, "is_disabled": 0, "lon": -76.92585416666667, "fusion_lat": 0.0, "rental_uris": {"ios": "https://dc.lft.to/lastmile_qr_scan", "android": "https://dc.lft.to/lastmile_qr_scan"}, "type": "electric_scooter"}, {"name": "6d9a185f0ff0c8dcbb0b58a5508ab980", "is_reserved": 0, "fusion_lon": 0.0, "bike_id": "6d9a185f0ff0c8dcbb0b58a5508ab980", "lat": 38.8983675, "is_disabled": 0, "lon": -77.048073, "fusion_lat": 0.0, "rental_uris": {"ios": "https://dc.lft.to/lastmile_qr_scan", "android": "https://dc.lft.to/lastmile_qr_scan"}, "type": "electric_scooter"}, {"name": "976539bffd69bb4f35504317abfb226e", "is_reserved": 0, "fusion_lon": 0.0, "bike_id": "976539bffd69bb4f35504317abfb226e", "lat": 38.92335966666667, "is_disabled": 0, "lon": -77.052703, "fusion_lat": 0.0, "rental_uris": {"ios": "https://dc.lft.to/lastmile_qr_scan", "android": "https://dc.lft.to/lastmile_qr_scan"}, "type": "electric_scooter"}, {"name": "2bc90541ea826b6df5c58a0023a28d53", "is_reserved": 0, "fusion_lon": 0.0, "bike_id": "2bc90541ea826b6df5c58a0023a28d53", "lat": 38.96751616666667, "is_disabled": 0, "lon": -77.02791766666667, "fusion_lat": 0.0, "rental_uris": {"ios": "https://dc.lft.to/lastmile_qr_scan", "android": "https://dc.lft.to/lastmile_qr_scan"}, "type": "electric_bike"}, {"name": "452d6e254b58ed9b35fe6ed169f1b189", "is_reserved": 0, "fusion_lon": 0.0, "bike_id": "452d6e254b58ed9b35fe6ed169f1b189", "lat": 38.9007075, "is_disabled": 0, "lon": -77.0277645, "fusion_lat": 0.0, "rental_uris": {"ios": "https://dc.lft.to/lastmile_qr_scan", "android": "https://dc.lft.to/lastmile_qr_scan"}, "type": "electric_scooter"}, {"name": "a407d870d4e25d82f5e0346e4dfd77c1", "is_reserved": 0, "fusion_lon": 0.0, "bike_id": "a407d870d4e25d82f5e0346e4dfd77c1", "lat": 38.92513533333333, "is_disabled": 0, "lon": -77.0235545, "fusion_lat": 0.0, "rental_uris": {"ios": "https://dc.lft.to/lastmile_qr_scan", "android": "https://dc.lft.to/lastmile_qr_scan"}, "type": "electric_scooter"}, {"name": "bfdd1bdc7825e1fe53cad2ea97d7106c", "is_reserved": 0, "fusion_lon": 0.0, "bike_id": "bfdd1bdc7825e1fe53cad2ea97d7106c", "lat": 38.898292833333336, "is_disabled": 0, "lon": -77.04805433333334, "fusion_lat": 0.0, "rental_uris": {"ios": "https://dc.lft.to/lastmile_qr_scan", "android": "https://dc.lft.to/lastmile_qr_scan"}, "type": "electric_scooter"}, {"name": "94251ff3edc911a97d3b46e6bdff40b6", "is_reserved": 0, "fusion_lon": 0.0, "bike_id": "94251ff3edc911a97d3b46e6bdff40b6", "lat": 38.90362566666667, "is_disabled": 0, "lon": -77.01110766666666, "fusion_lat": 0.0, "rental_uris": {"ios": "https://dc.lft.to/lastmile_qr_scan", "android": "https://dc.lft.to/lastmile_qr_scan"}, "type": "electric_scooter"}, {"name": "c68dfce5f81876ffd554616c525e4d7a", "is_reserved": 0, "fusion_lon": 0.0, "bike_id": "c68dfce5f81876ffd554616c525e4d7a", "lat": 38.9192855, "is_disabled": 0, "lon": -77.025208, "fusion_lat": 0.0, "rental_uris": {"ios": "https://dc.lft.to/lastmile_qr_scan", "android": "https://dc.lft.to/lastmile_qr_scan"}, "type": "electric_scooter"}, {"name": "3a088e9d2805331d369e997d671711a2", "is_reserved": 0, "fusion_lon": 0.0, "bike_id": "3a088e9d2805331d369e997d671711a2", "lat": 38.88968583333333, "is_disabled": 0, "lon": -76.92731116666667, "fusion_lat": 0.0, "rental_uris": {"ios": "https://dc.lft.to/lastmile_qr_scan", "android": "https://dc.lft.to/lastmile_qr_scan"}, "type": "electric_scooter"}, {"name": "c886618866d2f9dd12a7598482819100", "is_reserved": 0, "fusion_lon": 0.0, "bike_id": "c886618866d2f9dd12a7598482819100", "lat": 38.8303045, "is_disabled": 0, "lon": -77.00824216666666, "fusion_lat": 0.0, "rental_uris": {"ios": "https://dc.lft.to/lastmile_qr_scan", "android": "https://dc.lft.to/lastmile_qr_scan"}, "type": "electric_bike"}, {"name": "61ecc8338ab3e2b226ca5a904ae56356", "is_reserved": 0, "fusion_lon": 0.0, "bike_id": "61ecc8338ab3e2b226ca5a904ae56356", "lat": 38.902670666666666, "is_disabled": 0, "lon": -76.99517066666667, "fusion_lat": 0.0, "rental_uris": {"ios": "https://dc.lft.to/lastmile_qr_scan", "android": "https://dc.lft.to/lastmile_qr_scan"}, "type": "electric_scooter"}, {"name": "9a824e349035fc56f5a411472574dff5", "is_reserved": 0, "fusion_lon": 0.0, "bike_id": "9a824e349035fc56f5a411472574dff5", "lat": 38.90777833333333, "is_disabled": 0, "lon": -77.07163383333334, "fusion_lat": 0.0, "rental_uris": {"ios": "https://dc.lft.to/lastmile_qr_scan", "android": "https://dc.lft.to/lastmile_qr_scan"}, "type": "electric_scooter"}, {"name": "82a4502a8bfa8b1c7bd6232430849274", "is_reserved": 0, "fusion_lon": 0.0, "bike_id": "82a4502a8bfa8b1c7bd6232430849274", "lat": 38.91561866666667, "is_disabled": 0, "lon": -77.03214366666667, "fusion_lat": 0.0, "rental_uris": {"ios": "https://dc.lft.to/lastmile_qr_scan", "android": "https://dc.lft.to/lastmile_qr_scan"}, "type": "electric_scooter"}, {"name": "a5852af0c5b75e1372b5a5f66d9c63f4", "is_reserved": 0, "fusion_lon": 0.0, "bike_id": "a5852af0c5b75e1372b5a5f66d9c63f4", "lat": 38.921605166666666, "is_disabled": 0, "lon": -77.02517766666666, "fusion_lat": 0.0, "rental_uris": {"ios": "https://dc.lft.to/lastmile_qr_scan", "android": "https://dc.lft.to/lastmile_qr_scan"}, "type": "electric_scooter"}, {"name": "df3c97aadd67d97c8ae6e7f348f90509", "is_reserved": 0, "fusion_lon": 0.0, "bike_id": "df3c97aadd67d97c8ae6e7f348f90509", "lat": 38.91839566666667, "is_disabled": 0, "lon": -77.0416965, "fusion_lat": 0.0, "rental_uris": {"ios": "https://dc.lft.to/lastmile_qr_scan", "android": "https://dc.lft.to/lastmile_qr_scan"}, "type": "electric_scooter"}, {"name": "851189d6e2a30d4d5ad275b72e9433df", "is_reserved": 0, "fusion_lon": 0.0, "bike_id": "851189d6e2a30d4d5ad275b72e9433df", "lat": 38.90250533333333, "is_disabled": 0, "lon": -77.0273325, "fusion_lat": 0.0, "rental_uris": {"ios": "https://dc.lft.to/lastmile_qr_scan", "android": "https://dc.lft.to/lastmile_qr_scan"}, "type": "electric_scooter"}, {"name": "645c8459943509a428a7eb70eb13b9f2", "is_reserved": 0, "fusion_lon": 0.0, "bike_id": "645c8459943509a428a7eb70eb13b9f2", "lat": 38.964731, "is_disabled": 0, "lon": -77.035635, "fusion_lat": 0.0, "rental_uris": {"ios": "https://dc.lft.to/lastmile_qr_scan", "android": "https://dc.lft.to/lastmile_qr_scan"}, "type": "electric_bike"}, {"name": "6f382ddb0bf236bd4e027a20bf4faf2a", "is_reserved": 0, "fusion_lon": 0.0, "bike_id": "6f382ddb0bf236bd4e027a20bf4faf2a", "lat": 38.90654633333333, "is_disabled": 0, "lon": -77.02503933333334, "fusion_lat": 0.0, "rental_uris": {"ios": "https://dc.lft.to/lastmile_qr_scan", "android": "https://dc.lft.to/lastmile_qr_scan"}, "type": "electric_scooter"}, {"name": "39252e1c30d2e47ee4db9f853d836eba", "is_reserved": 0, "fusion_lon": 0.0, "bike_id": "39252e1c30d2e47ee4db9f853d836eba", "lat": 38.92244066666667, "is_disabled": 0, "lon": -77.03660016666667, "fusion_lat": 0.0, "rental_uris": {"ios": "https://dc.lft.to/lastmile_qr_scan", "android": "https://dc.lft.to/lastmile_qr_scan"}, "type": "electric_scooter"}, {"name": "b21eeef028a70a35fc051dd32c82f849", "is_reserved": 0, "fusion_lon": 0.0, "bike_id": "b21eeef028a70a35fc051dd32c82f849", "lat": 38.866234, "is_disabled": 0, "lon": -76.94570083333333, "fusion_lat": 0.0, "rental_uris": {"ios": "https://dc.lft.to/lastmile_qr_scan", "android": "https://dc.lft.to/lastmile_qr_scan"}, "type": "electric_bike"}, {"name": "e1748cc3a365e346b51125fddfe0f472", "is_reserved": 0, "fusion_lon": 0.0, "bike_id": "e1748cc3a365e346b51125fddfe0f472", "lat": 38.95251283333333, "is_disabled": 0, "lon": -77.09621833333334, "fusion_lat": 0.0, "rental_uris": {"ios": "https://dc.lft.to/lastmile_qr_scan", "android": "https://dc.lft.to/lastmile_qr_scan"}, "type": "electric_bike"}, {"name": "45cf19d68fe656b1eecde94d29b8f5ba", "is_reserved": 0, "fusion_lon": 0.0, "bike_id": "45cf19d68fe656b1eecde94d29b8f5ba", "lat": 38.892006333333335, "is_disabled": 0, "lon": -77.033899, "fusion_lat": 0.0, "rental_uris": {"ios": "https://dc.lft.to/lastmile_qr_scan", "android": "https://dc.lft.to/lastmile_qr_scan"}, "type": "electric_bike"}, {"name": "0789e9926949f2f83f03765fa8ba6c01", "is_reserved": 0, "fusion_lon": 0.0, "bike_id": "0789e9926949f2f83f03765fa8ba6c01", "lat": 38.923626, "is_disabled": 0, "lon": -77.05129916666667, "fusion_lat": 0.0, "rental_uris": {"ios": "https://dc.lft.to/lastmile_qr_scan", "android": "https://dc.lft.to/lastmile_qr_scan"}, "type": "electric_scooter"}, {"name": "db7401c4658b0e6e015af403f3f3d88c", "is_reserved": 0, "fusion_lon": 0.0, "bike_id": "db7401c4658b0e6e015af403f3f3d88c", "lat": 38.961260833333334, "is_disabled": 0, "lon": -77.03272666666666, "fusion_lat": 0.0, "rental_uris": {"ios": "https://dc.lft.to/lastmile_qr_scan", "android": "https://dc.lft.to/lastmile_qr_scan"}, "type": "electric_bike"}, {"name": "ce09ceabba2b311f8f370694da116d4f", "is_reserved": 0, "fusion_lon": 0.0, "bike_id": "ce09ceabba2b311f8f370694da116d4f", "lat": 38.92700933333333, "is_disabled": 0, "lon": -77.023852, "fusion_lat": 0.0, "rental_uris": {"ios": "https://dc.lft.to/lastmile_qr_scan", "android": "https://dc.lft.to/lastmile_qr_scan"}, "type": "electric_scooter"}, {"name": "230ec2bc85df2290ad253a206228bf9c", "is_reserved": 0, "fusion_lon": 0.0, "bike_id": "230ec2bc85df2290ad253a206228bf9c", "lat": 38.884333833333336, "is_disabled": 0, "lon": -76.99594316666666, "fusion_lat": 0.0, "rental_uris": {"ios": "https://dc.lft.to/lastmile_qr_scan", "android": "https://dc.lft.to/lastmile_qr_scan"}, "type": "electric_scooter"}, {"name": "4b858509b2c9c98134d51fe50a449aca", "is_reserved": 0, "fusion_lon": 0.0, "bike_id": "4b858509b2c9c98134d51fe50a449aca", "lat": 38.91634916666667, "is_disabled": 0, "lon": -77.03211033333334, "fusion_lat": 0.0, "rental_uris": {"ios": "https://dc.lft.to/lastmile_qr_scan", "android": "https://dc.lft.to/lastmile_qr_scan"}, "type": "electric_scooter"}, {"name": "5091278d844ce91065b34b561a8c896b", "is_reserved": 0, "fusion_lon": 0.0, "bike_id": "5091278d844ce91065b34b561a8c896b", "lat": 38.905178166666666, "is_disabled": 0, "lon": -77.063045, "fusion_lat": 0.0, "rental_uris": {"ios": "https://dc.lft.to/lastmile_qr_scan", "android": "https://dc.lft.to/lastmile_qr_scan"}, "type": "electric_scooter"}, {"name": "2f270bfe0ef5ffcfd6008233b13730b9", "is_reserved": 0, "fusion_lon": 0.0, "bike_id": "2f270bfe0ef5ffcfd6008233b13730b9", "lat": 38.9107835, "is_disabled": 0, "lon": -77.01623933333333, "fusion_lat": 0.0, "rental_uris": {"ios": "https://dc.lft.to/lastmile_qr_scan", "android": "https://dc.lft.to/lastmile_qr_scan"}, "type": "electric_scooter"}, {"name": "06e7509a112644a59d8b8c6a7048d2f7", "is_reserved": 0, "fusion_lon": 0.0, "bike_id": "06e7509a112644a59d8b8c6a7048d2f7", "lat": 38.907802, "is_disabled": 0, "lon": -77.081678, "fusion_lat": 0.0, "rental_uris": {"ios": "https://dc.lft.to/lastmile_qr_scan", "android": "https://dc.lft.to/lastmile_qr_scan"}, "type": "electric_bike"}, {"name": "5f43c4aad77087372eb17dfa28ae96f4", "is_reserved": 0, "fusion_lon": 0.0, "bike_id": "5f43c4aad77087372eb17dfa28ae96f4", "lat": 38.899282666666664, "is_disabled": 0, "lon": -77.00156633333333, "fusion_lat": 0.0, "rental_uris": {"ios": "https://dc.lft.to/lastmile_qr_scan", "android": "https://dc.lft.to/lastmile_qr_scan"}, "type": "electric_bike"}, {"name": "879aa9836f4332217f9d4002090862d9", "is_reserved": 0, "fusion_lon": 0.0, "bike_id": "879aa9836f4332217f9d4002090862d9", "lat": 38.92106483333333, "is_disabled": 0, "lon": -77.0205, "fusion_lat": 0.0, "rental_uris": {"ios": "https://dc.lft.to/lastmile_qr_scan", "android": "https://dc.lft.to/lastmile_qr_scan"}, "type": "electric_scooter"}, {"name": "af0e9cd2ffa0ba7d01786041df3661c8", "is_reserved": 0, "fusion_lon": 0.0, "bike_id": "af0e9cd2ffa0ba7d01786041df3661c8", "lat": 38.923439, "is_disabled": 0, "lon": -77.03484, "fusion_lat": 0.0, "rental_uris": {"ios": "https://dc.lft.to/lastmile_qr_scan", "android": "https://dc.lft.to/lastmile_qr_scan"}, "type": "electric_scooter"}, {"name": "e6b70a9d090dfa6c9b580ec6e7a1daa3", "is_reserved": 0, "fusion_lon": 0.0, "bike_id": "e6b70a9d090dfa6c9b580ec6e7a1daa3", "lat": 38.897450666666664, "is_disabled": 0, "lon": -77.02089166666667, "fusion_lat": 0.0, "rental_uris": {"ios": "https://dc.lft.to/lastmile_qr_scan", "android": "https://dc.lft.to/lastmile_qr_scan"}, "type": "electric_scooter"}, {"name": "a77d8540154860d53476d49533429ae3", "is_reserved": 0, "fusion_lon": 0.0, "bike_id": "a77d8540154860d53476d49533429ae3", "lat": 38.935779333333336, "is_disabled": 0, "lon": -77.03281066666666, "fusion_lat": 0.0, "rental_uris": {"ios": "https://dc.lft.to/lastmile_qr_scan", "android": "https://dc.lft.to/lastmile_qr_scan"}, "type": "electric_scooter"}, {"name": "7a2c084fd50aabde51db158ef53ccf68", "is_reserved": 0, "fusion_lon": 0.0, "bike_id": "7a2c084fd50aabde51db158ef53ccf68", "lat": 38.95739366666667, "is_disabled": 0, "lon": -77.00215183333333, "fusion_lat": 0.0, "rental_uris": {"ios": "https://dc.lft.to/lastmile_qr_scan", "android": "https://dc.lft.to/lastmile_qr_scan"}, "type": "electric_scooter"}, {"name": "33bee1a89f76bdf6ff222e88dffd575c", "is_reserved": 0, "fusion_lon": 0.0, "bike_id": "33bee1a89f76bdf6ff222e88dffd575c", "lat": 38.9251395, "is_disabled": 0, "lon": -77.0122145, "fusion_lat": 0.0, "rental_uris": {"ios": "https://dc.lft.to/lastmile_qr_scan", "android": "https://dc.lft.to/lastmile_qr_scan"}, "type": "electric_scooter"}, {"name": "f0150c67660942bbe49d3af1c49b8015", "is_reserved": 0, "fusion_lon": 0.0, "bike_id": "f0150c67660942bbe49d3af1c49b8015", "lat": 38.943080333333334, "is_disabled": 0, "lon": -77.05925033333334, "fusion_lat": 0.0, "rental_uris": {"ios": "https://dc.lft.to/lastmile_qr_scan", "android": "https://dc.lft.to/lastmile_qr_scan"}, "type": "electric_scooter"}, {"name": "89903ca2cabb26155dab40cbc1616b8c", "is_reserved": 0, "fusion_lon": 0.0, "bike_id": "89903ca2cabb26155dab40cbc1616b8c", "lat": 38.878818333333335, "is_disabled": 0, "lon": -76.96539116666666, "fusion_lat": 0.0, "rental_uris": {"ios": "https://dc.lft.to/lastmile_qr_scan", "android": "https://dc.lft.to/lastmile_qr_scan"}, "type": "electric_scooter"}, {"name": "40997ed3d814c343afaa55e4185cc51b", "is_reserved": 0, "fusion_lon": 0.0, "bike_id": "40997ed3d814c343afaa55e4185cc51b", "lat": 38.922409, "is_disabled": 0, "lon": -77.02812583333333, "fusion_lat": 0.0, "rental_uris": {"ios": "https://dc.lft.to/lastmile_qr_scan", "android": "https://dc.lft.to/lastmile_qr_scan"}, "type": "electric_scooter"}, {"name": "d67dd44e9c2f7603779ee6fbe7034e1b", "is_reserved": 0, "fusion_lon": 0.0, "bike_id": "d67dd44e9c2f7603779ee6fbe7034e1b", "lat": 38.87550916666667, "is_disabled": 0, "lon": -77.00535683333334, "fusion_lat": 0.0, "rental_uris": {"ios": "https://dc.lft.to/lastmile_qr_scan", "android": "https://dc.lft.to/lastmile_qr_scan"}, "type": "electric_scooter"}, {"name": "53bf793d4b61ce5a5fb6abc1082328e6", "is_reserved": 0, "fusion_lon": 0.0, "bike_id": "53bf793d4b61ce5a5fb6abc1082328e6", "lat": 38.92214933333333, "is_disabled": 0, "lon": -77.04239816666667, "fusion_lat": 0.0, "rental_uris": {"ios": "https://dc.lft.to/lastmile_qr_scan", "android": "https://dc.lft.to/lastmile_qr_scan"}, "type": "electric_scooter"}, {"name": "60f3ea2670a5a3bf4b5e150c17e497c1", "is_reserved": 0, "fusion_lon": 0.0, "bike_id": "60f3ea2670a5a3bf4b5e150c17e497c1", "lat": 38.92612616666667, "is_disabled": 0, "lon": -77.02157733333334, "fusion_lat": 0.0, "rental_uris": {"ios": "https://dc.lft.to/lastmile_qr_scan", "android": "https://dc.lft.to/lastmile_qr_scan"}, "type": "electric_scooter"}, {"name": "cc542bd8a3e5fb78f6119600097c8df9", "is_reserved": 0, "fusion_lon": 0.0, "bike_id": "cc542bd8a3e5fb78f6119600097c8df9", "lat": 38.9168805, "is_disabled": 0, "lon": -77.0270695, "fusion_lat": 0.0, "rental_uris": {"ios": "https://dc.lft.to/lastmile_qr_scan", "android": "https://dc.lft.to/lastmile_qr_scan"}, "type": "electric_scooter"}, {"name": "afa5567448b70314e5c08f83a5444a18", "is_reserved": 0, "fusion_lon": 0.0, "bike_id": "afa5567448b70314e5c08f83a5444a18", "lat": 38.9020885, "is_disabled": 0, "lon": -77.04804366666667, "fusion_lat": 0.0, "rental_uris": {"ios": "https://dc.lft.to/lastmile_qr_scan", "android": "https://dc.lft.to/lastmile_qr_scan"}, "type": "electric_scooter"}, {"name": "89922eb65f417954ed6b53470b942b3b", "is_reserved": 0, "fusion_lon": 0.0, "bike_id": "89922eb65f417954ed6b53470b942b3b", "lat": 38.9320465, "is_disabled": 0, "lon": -77.01875466666667, "fusion_lat": 0.0, "rental_uris": {"ios": "https://dc.lft.to/lastmile_qr_scan", "android": "https://dc.lft.to/lastmile_qr_scan"}, "type": "electric_scooter"}, {"name": "c41cd58ced9d1f0fabe289dc1b02105d", "is_reserved": 0, "fusion_lon": 0.0, "bike_id": "c41cd58ced9d1f0fabe289dc1b02105d", "lat": 38.89957666666667, "is_disabled": 0, "lon": -77.02633466666667, "fusion_lat": 0.0, "rental_uris": {"ios": "https://dc.lft.to/lastmile_qr_scan", "android": "https://dc.lft.to/lastmile_qr_scan"}, "type": "electric_scooter"}, {"name": "ad27c0d181982f36772ded853c67bd79", "is_reserved": 0, "fusion_lon": 0.0, "bike_id": "ad27c0d181982f36772ded853c67bd79", "lat": 38.89028916666667, "is_disabled": 0, "lon": -76.94463033333334, "fusion_lat": 0.0, "rental_uris": {"ios": "https://dc.lft.to/lastmile_qr_scan", "android": "https://dc.lft.to/lastmile_qr_scan"}, "type": "electric_scooter"}, {"name": "60ce9942d0bf411d150d32fcc9cb1703", "is_reserved": 0, "fusion_lon": 0.0, "bike_id": "60ce9942d0bf411d150d32fcc9cb1703", "lat": 38.92358316666667, "is_disabled": 0, "lon": -77.02230783333333, "fusion_lat": 0.0, "rental_uris": {"ios": "https://dc.lft.to/lastmile_qr_scan", "android": "https://dc.lft.to/lastmile_qr_scan"}, "type": "electric_scooter"}, {"name": "18b620d97e4d39dc4c32b98b61fcaa12", "is_reserved": 0, "fusion_lon": 0.0, "bike_id": "18b620d97e4d39dc4c32b98b61fcaa12", "lat": 38.90856566666667, "is_disabled": 0, "lon": -77.06378166666667, "fusion_lat": 0.0, "rental_uris": {"ios": "https://dc.lft.to/lastmile_qr_scan", "android": "https://dc.lft.to/lastmile_qr_scan"}, "type": "electric_scooter"}, {"name": "88ab8acdd31251d5eb0a6b06a32133d0", "is_reserved": 0, "fusion_lon": 0.0, "bike_id": "88ab8acdd31251d5eb0a6b06a32133d0", "lat": 38.92123616666667, "is_disabled": 0, "lon": -77.04117633333334, "fusion_lat": 0.0, "rental_uris": {"ios": "https://dc.lft.to/lastmile_qr_scan", "android": "https://dc.lft.to/lastmile_qr_scan"}, "type": "electric_scooter"}, {"name": "f137e34ca05702715ab3b95b10b3a9f7", "is_reserved": 0, "fusion_lon": 0.0, "bike_id": "f137e34ca05702715ab3b95b10b3a9f7", "lat": 38.89635533333333, "is_disabled": 0, "lon": -77.03964316666666, "fusion_lat": 0.0, "rental_uris": {"ios": "https://dc.lft.to/lastmile_qr_scan", "android": "https://dc.lft.to/lastmile_qr_scan"}, "type": "electric_scooter"}, {"name": "f5ced9814320ea3ffc327b2d6fdcb408", "is_reserved": 0, "fusion_lon": 0.0, "bike_id": "f5ced9814320ea3ffc327b2d6fdcb408", "lat": 38.885067, "is_disabled": 0, "lon": -77.02488216666667, "fusion_lat": 0.0, "rental_uris": {"ios": "https://dc.lft.to/lastmile_qr_scan", "android": "https://dc.lft.to/lastmile_qr_scan"}, "type": "electric_scooter"}, {"name": "7f2b752107f9da40129ebf5937e2f5fa", "is_reserved": 0, "fusion_lon": 0.0, "bike_id": "7f2b752107f9da40129ebf5937e2f5fa", "lat": 38.927995833333334, "is_disabled": 0, "lon": -77.0156235, "fusion_lat": 0.0, "rental_uris": {"ios": "https://dc.lft.to/lastmile_qr_scan", "android": "https://dc.lft.to/lastmile_qr_scan"}, "type": "electric_scooter"}, {"name": "55212e100b1672b49160b34f7fa9d0df", "is_reserved": 0, "fusion_lon": 0.0, "bike_id": "55212e100b1672b49160b34f7fa9d0df", "lat": 38.900339, "is_disabled": 0, "lon": -77.01106216666666, "fusion_lat": 0.0, "rental_uris": {"ios": "https://dc.lft.to/lastmile_qr_scan", "android": "https://dc.lft.to/lastmile_qr_scan"}, "type": "electric_scooter"}, {"name": "36daba5531f2ad9a4912f4e77275f72d", "is_reserved": 0, "fusion_lon": 0.0, "bike_id": "36daba5531f2ad9a4912f4e77275f72d", "lat": 38.916172833333334, "is_disabled": 0, "lon": -77.046187, "fusion_lat": 0.0, "rental_uris": {"ios": "https://dc.lft.to/lastmile_qr_scan", "android": "https://dc.lft.to/lastmile_qr_scan"}, "type": "electric_scooter"}, {"name": "b5788dec9eddfa15a40e95d6a2eaf6e1", "is_reserved": 0, "fusion_lon": 0.0, "bike_id": "b5788dec9eddfa15a40e95d6a2eaf6e1", "lat": 38.92341866666666, "is_disabled": 0, "lon": -77.05428666666667, "fusion_lat": 0.0, "rental_uris": {"ios": "https://dc.lft.to/lastmile_qr_scan", "android": "https://dc.lft.to/lastmile_qr_scan"}, "type": "electric_scooter"}, {"name": "8f43d7319ebcbe3ec0bd2708a2ea9edb", "is_reserved": 0, "fusion_lon": 0.0, "bike_id": "8f43d7319ebcbe3ec0bd2708a2ea9edb", "lat": 38.929387, "is_disabled": 0, "lon": -77.01912933333334, "fusion_lat": 0.0, "rental_uris": {"ios": "https://dc.lft.to/lastmile_qr_scan", "android": "https://dc.lft.to/lastmile_qr_scan"}, "type": "electric_scooter"}, {"name": "bb4491e4e0f81d8d656c3ab7d82d42d5", "is_reserved": 0, "fusion_lon": 0.0, "bike_id": "bb4491e4e0f81d8d656c3ab7d82d42d5", "lat": 38.948898166666666, "is_disabled": 0, "lon": -77.018494, "fusion_lat": 0.0, "rental_uris": {"ios": "https://dc.lft.to/lastmile_qr_scan", "android": "https://dc.lft.to/lastmile_qr_scan"}, "type": "electric_scooter"}, {"name": "c1546a0984c5b71a40cce41be97fdb99", "is_reserved": 0, "fusion_lon": 0.0, "bike_id": "c1546a0984c5b71a40cce41be97fdb99", "lat": 38.91641383333334, "is_disabled": 0, "lon": -77.03212266666667, "fusion_lat": 0.0, "rental_uris": {"ios": "https://dc.lft.to/lastmile_qr_scan", "android": "https://dc.lft.to/lastmile_qr_scan"}, "type": "electric_scooter"}, {"name": "ee55c17b163202d6bd12df6092c63ee9", "is_reserved": 0, "fusion_lon": 0.0, "bike_id": "ee55c17b163202d6bd12df6092c63ee9", "lat": 38.86342966666667, "is_disabled": 0, "lon": -76.9872975, "fusion_lat": 0.0, "rental_uris": {"ios": "https://dc.lft.to/lastmile_qr_scan", "android": "https://dc.lft.to/lastmile_qr_scan"}, "type": "electric_bike"}, {"name": "5fb8429b9dce6fc90df135472a1599dc", "is_reserved": 0, "fusion_lon": 0.0, "bike_id": "5fb8429b9dce6fc90df135472a1599dc", "lat": 38.872704666666664, "is_disabled": 0, "lon": -76.97560516666667, "fusion_lat": 0.0, "rental_uris": {"ios": "https://dc.lft.to/lastmile_qr_scan", "android": "https://dc.lft.to/lastmile_qr_scan"}, "type": "electric_bike"}, {"name": "2f1dc79057461763a740c9ed88c7692e", "is_reserved": 0, "fusion_lon": 0.0, "bike_id": "2f1dc79057461763a740c9ed88c7692e", "lat": 38.804825, "is_disabled": 0, "lon": -76.99096466666667, "fusion_lat": 0.0, "rental_uris": {"ios": "https://dc.lft.to/lastmile_qr_scan", "android": "https://dc.lft.to/lastmile_qr_scan"}, "type": "electric_bike"}, {"name": "02e44854f1def04dac65527b8d5866ba", "is_reserved": 0, "fusion_lon": 0.0, "bike_id": "02e44854f1def04dac65527b8d5866ba", "lat": 38.86468566666667, "is_disabled": 0, "lon": -77.01262733333333, "fusion_lat": 0.0, "rental_uris": {"ios": "https://dc.lft.to/lastmile_qr_scan", "android": "https://dc.lft.to/lastmile_qr_scan"}, "type": "electric_scooter"}, {"name": "e81a310a5dcb2bc20720755d664863e8", "is_reserved": 0, "fusion_lon": 0.0, "bike_id": "e81a310a5dcb2bc20720755d664863e8", "lat": 38.917638833333335, "is_disabled": 0, "lon": -77.0035685, "fusion_lat": 0.0, "rental_uris": {"ios": "https://dc.lft.to/lastmile_qr_scan", "android": "https://dc.lft.to/lastmile_qr_scan"}, "type": "electric_scooter"}, {"name": "58f2404162857825c8e47f59c150d56d", "is_reserved": 0, "fusion_lon": 0.0, "bike_id": "58f2404162857825c8e47f59c150d56d", "lat": 38.893414666666665, "is_disabled": 0, "lon": -76.993768, "fusion_lat": 0.0, "rental_uris": {"ios": "https://dc.lft.to/lastmile_qr_scan", "android": "https://dc.lft.to/lastmile_qr_scan"}, "type": "electric_scooter"}, {"name": "9324aaa0711217f489550e6409f39ff2", "is_reserved": 0, "fusion_lon": 0.0, "bike_id": "9324aaa0711217f489550e6409f39ff2", "lat": 38.899589, "is_disabled": 0, "lon": -77.02216916666667, "fusion_lat": 0.0, "rental_uris": {"ios": "https://dc.lft.to/lastmile_qr_scan", "android": "https://dc.lft.to/lastmile_qr_scan"}, "type": "electric_scooter"}, {"name": "0d8513d8328b53505a776a57a6ec8ec8", "is_reserved": 0, "fusion_lon": 0.0, "bike_id": "0d8513d8328b53505a776a57a6ec8ec8", "lat": 38.925529166666664, "is_disabled": 0, "lon": -76.972083, "fusion_lat": 0.0, "rental_uris": {"ios": "https://dc.lft.to/lastmile_qr_scan", "android": "https://dc.lft.to/lastmile_qr_scan"}, "type": "electric_scooter"}, {"name": "350b491aa756892eecd43761e7db0556", "is_reserved": 0, "fusion_lon": 0.0, "bike_id": "350b491aa756892eecd43761e7db0556", "lat": 38.886201166666666, "is_disabled": 0, "lon": -76.9770515, "fusion_lat": 0.0, "rental_uris": {"ios": "https://dc.lft.to/lastmile_qr_scan", "android": "https://dc.lft.to/lastmile_qr_scan"}, "type": "electric_scooter"}, {"name": "f54f7560eac405a19da91be2aebd08ba", "is_reserved": 0, "fusion_lon": 0.0, "bike_id": "f54f7560eac405a19da91be2aebd08ba", "lat": 38.893907666666664, "is_disabled": 0, "lon": -77.02156233333334, "fusion_lat": 0.0, "rental_uris": {"ios": "https://dc.lft.to/lastmile_qr_scan", "android": "https://dc.lft.to/lastmile_qr_scan"}, "type": "electric_scooter"}, {"name": "f087730d1eea0a9745d9ed39540c4298", "is_reserved": 0, "fusion_lon": 0.0, "bike_id": "f087730d1eea0a9745d9ed39540c4298", "lat": 38.830666, "is_disabled": 0, "lon": -77.04075483333334, "fusion_lat": 0.0, "rental_uris": {"ios": "https://dc.lft.to/lastmile_qr_scan", "android": "https://dc.lft.to/lastmile_qr_scan"}, "type": "electric_bike"}, {"name": "04a5ce8b9697ae8b87df28c5826819f5", "is_reserved": 0, "fusion_lon": 0.0, "bike_id": "04a5ce8b9697ae8b87df28c5826819f5", "lat": 38.902202833333334, "is_disabled": 0, "lon": -77.046075, "fusion_lat": 0.0, "rental_uris": {"ios": "https://dc.lft.to/lastmile_qr_scan", "android": "https://dc.lft.to/lastmile_qr_scan"}, "type": "electric_scooter"}, {"name": "27857908fb414ceb470905de6b17b794", "is_reserved": 0, "fusion_lon": 0.0, "bike_id": "27857908fb414ceb470905de6b17b794", "lat": 38.966758166666665, "is_disabled": 0, "lon": -77.02305683333333, "fusion_lat": 0.0, "rental_uris": {"ios": "https://dc.lft.to/lastmile_qr_scan", "android": "https://dc.lft.to/lastmile_qr_scan"}, "type": "electric_bike"}, {"name": "8077319c162727b0c18bbc6791624268", "is_reserved": 0, "fusion_lon": 0.0, "bike_id": "8077319c162727b0c18bbc6791624268", "lat": 38.912606333333336, "is_disabled": 0, "lon": -77.03867483333333, "fusion_lat": 0.0, "rental_uris": {"ios": "https://dc.lft.to/lastmile_qr_scan", "android": "https://dc.lft.to/lastmile_qr_scan"}, "type": "electric_scooter"}, {"name": "421a2813b3c1a8e213e7ef9c8a61fc22", "is_reserved": 0, "fusion_lon": 0.0, "bike_id": "421a2813b3c1a8e213e7ef9c8a61fc22", "lat": 38.89634483333333, "is_disabled": 0, "lon": -77.0218665, "fusion_lat": 0.0, "rental_uris": {"ios": "https://dc.lft.to/lastmile_qr_scan", "android": "https://dc.lft.to/lastmile_qr_scan"}, "type": "electric_scooter"}, {"name": "9a50a8788db7f7bee1ed8450afbcfbde", "is_reserved": 0, "fusion_lon": 0.0, "bike_id": "9a50a8788db7f7bee1ed8450afbcfbde", "lat": 38.88613633333333, "is_disabled": 0, "lon": -76.98544833333334, "fusion_lat": 0.0, "rental_uris": {"ios": "https://dc.lft.to/lastmile_qr_scan", "android": "https://dc.lft.to/lastmile_qr_scan"}, "type": "electric_scooter"}, {"name": "610bac54970df4a0200670feb6b2e92d", "is_reserved": 0, "fusion_lon": 0.0, "bike_id": "610bac54970df4a0200670feb6b2e92d", "lat": 38.920447833333334, "is_disabled": 0, "lon": -77.01677566666666, "fusion_lat": 0.0, "rental_uris": {"ios": "https://dc.lft.to/lastmile_qr_scan", "android": "https://dc.lft.to/lastmile_qr_scan"}, "type": "electric_scooter"}, {"name": "3288877ad0533b9baa09eeaa99c7466c", "is_reserved": 0, "fusion_lon": 0.0, "bike_id": "3288877ad0533b9baa09eeaa99c7466c", "lat": 38.8808025, "is_disabled": 0, "lon": -76.98510533333334, "fusion_lat": 0.0, "rental_uris": {"ios": "https://dc.lft.to/lastmile_qr_scan", "android": "https://dc.lft.to/lastmile_qr_scan"}, "type": "electric_scooter"}, {"name": "92e5bb1bffe3decd7561c84081388280", "is_reserved": 0, "fusion_lon": 0.0, "bike_id": "92e5bb1bffe3decd7561c84081388280", "lat": 38.91421366666667, "is_disabled": 0, "lon": -77.04602366666667, "fusion_lat": 0.0, "rental_uris": {"ios": "https://dc.lft.to/lastmile_qr_scan", "android": "https://dc.lft.to/lastmile_qr_scan"}, "type": "electric_scooter"}, {"name": "32a623cc210e369c7556c3f931fe79a2", "is_reserved": 0, "fusion_lon": 0.0, "bike_id": "32a623cc210e369c7556c3f931fe79a2", "lat": 38.900633, "is_disabled": 0, "lon": -77.04729883333333, "fusion_lat": 0.0, "rental_uris": {"ios": "https://dc.lft.to/lastmile_qr_scan", "android": "https://dc.lft.to/lastmile_qr_scan"}, "type": "electric_scooter"}, {"name": "62095a113e32797cccf7fe280748c10f", "is_reserved": 0, "fusion_lon": 0.0, "bike_id": "62095a113e32797cccf7fe280748c10f", "lat": 38.904152833333335, "is_disabled": 0, "lon": -76.992841, "fusion_lat": 0.0, "rental_uris": {"ios": "https://dc.lft.to/lastmile_qr_scan", "android": "https://dc.lft.to/lastmile_qr_scan"}, "type": "electric_scooter"}, {"name": "6761e8781f1e92dabea983c81f12310c", "is_reserved": 0, "fusion_lon": 0.0, "bike_id": "6761e8781f1e92dabea983c81f12310c", "lat": 38.92168733333333, "is_disabled": 0, "lon": -77.03375916666667, "fusion_lat": 0.0, "rental_uris": {"ios": "https://dc.lft.to/lastmile_qr_scan", "android": "https://dc.lft.to/lastmile_qr_scan"}, "type": "electric_scooter"}, {"name": "43bc5a506f8ae7ac06f3a9c34f0327df", "is_reserved": 0, "fusion_lon": 0.0, "bike_id": "43bc5a506f8ae7ac06f3a9c34f0327df", "lat": 38.90417766666667, "is_disabled": 0, "lon": -77.03835933333333, "fusion_lat": 0.0, "rental_uris": {"ios": "https://dc.lft.to/lastmile_qr_scan", "android": "https://dc.lft.to/lastmile_qr_scan"}, "type": "electric_scooter"}, {"name": "a13ddcc969e279a417fe5190f6ea6e30", "is_reserved": 0, "fusion_lon": 0.0, "bike_id": "a13ddcc969e279a417fe5190f6ea6e30", "lat": 38.9154405, "is_disabled": 0, "lon": -77.0127115, "fusion_lat": 0.0, "rental_uris": {"ios": "https://dc.lft.to/lastmile_qr_scan", "android": "https://dc.lft.to/lastmile_qr_scan"}, "type": "electric_scooter"}, {"name": "26e9176f012116ac75be738f63904d04", "is_reserved": 0, "fusion_lon": 0.0, "bike_id": "26e9176f012116ac75be738f63904d04", "lat": 38.922700666666664, "is_disabled": 0, "lon": -77.01942566666666, "fusion_lat": 0.0, "rental_uris": {"ios": "https://dc.lft.to/lastmile_qr_scan", "android": "https://dc.lft.to/lastmile_qr_scan"}, "type": "electric_scooter"}, {"name": "32817e2e593a59f7e8c0c3fed2fa7ea8", "is_reserved": 0, "fusion_lon": 0.0, "bike_id": "32817e2e593a59f7e8c0c3fed2fa7ea8", "lat": 38.90398966666667, "is_disabled": 0, "lon": -77.06512483333333, "fusion_lat": 0.0, "rental_uris": {"ios": "https://dc.lft.to/lastmile_qr_scan", "android": "https://dc.lft.to/lastmile_qr_scan"}, "type": "electric_scooter"}, {"name": "558596a6bb9b5edee5467c9cd910825c", "is_reserved": 0, "fusion_lon": 0.0, "bike_id": "558596a6bb9b5edee5467c9cd910825c", "lat": 38.8953035, "is_disabled": 0, "lon": -77.002022, "fusion_lat": 0.0, "rental_uris": {"ios": "https://dc.lft.to/lastmile_qr_scan", "android": "https://dc.lft.to/lastmile_qr_scan"}, "type": "electric_scooter"}, {"name": "899c098dbda228853574c62d3001e97d", "is_reserved": 0, "fusion_lon": 0.0, "bike_id": "899c098dbda228853574c62d3001e97d", "lat": 38.88482116666667, "is_disabled": 0, "lon": -77.033492, "fusion_lat": 0.0, "rental_uris": {"ios": "https://dc.lft.to/lastmile_qr_scan", "android": "https://dc.lft.to/lastmile_qr_scan"}, "type": "electric_scooter"}, {"name": "2d353c7810fb86467698eaa49ba05c64", "is_reserved": 0, "fusion_lon": 0.0, "bike_id": "2d353c7810fb86467698eaa49ba05c64", "lat": 38.900266333333335, "is_disabled": 0, "lon": -76.99351533333333, "fusion_lat": 0.0, "rental_uris": {"ios": "https://dc.lft.to/lastmile_qr_scan", "android": "https://dc.lft.to/lastmile_qr_scan"}, "type": "electric_scooter"}, {"name": "45f16a690bd4274514fc8d1746762f55", "is_reserved": 0, "fusion_lon": 0.0, "bike_id": "45f16a690bd4274514fc8d1746762f55", "lat": 38.917582333333335, "is_disabled": 0, "lon": -77.02396383333334, "fusion_lat": 0.0, "rental_uris": {"ios": "https://dc.lft.to/lastmile_qr_scan", "android": "https://dc.lft.to/lastmile_qr_scan"}, "type": "electric_scooter"}, {"name": "9236f9aea865380dd1e21e6659e13abb", "is_reserved": 0, "fusion_lon": 0.0, "bike_id": "9236f9aea865380dd1e21e6659e13abb", "lat": 38.901097, "is_disabled": 0, "lon": -77.03493183333333, "fusion_lat": 0.0, "rental_uris": {"ios": "https://dc.lft.to/lastmile_qr_scan", "android": "https://dc.lft.to/lastmile_qr_scan"}, "type": "electric_scooter"}, {"name": "011a7aa8c92568303c69ddfe9b3f88ce", "is_reserved": 0, "fusion_lon": 0.0, "bike_id": "011a7aa8c92568303c69ddfe9b3f88ce", "lat": 38.921762666666666, "is_disabled": 0, "lon": -77.0191825, "fusion_lat": 0.0, "rental_uris": {"ios": "https://dc.lft.to/lastmile_qr_scan", "android": "https://dc.lft.to/lastmile_qr_scan"}, "type": "electric_scooter"}, {"name": "407ca19780286ca22b6e8a514624efe2", "is_reserved": 0, "fusion_lon": 0.0, "bike_id": "407ca19780286ca22b6e8a514624efe2", "lat": 38.92228216666667, "is_disabled": 0, "lon": -77.02825983333334, "fusion_lat": 0.0, "rental_uris": {"ios": "https://dc.lft.to/lastmile_qr_scan", "android": "https://dc.lft.to/lastmile_qr_scan"}, "type": "electric_scooter"}, {"name": "8368b48f05598b17032228b0e291afe3", "is_reserved": 0, "fusion_lon": 0.0, "bike_id": "8368b48f05598b17032228b0e291afe3", "lat": 38.932773833333336, "is_disabled": 0, "lon": -77.03080966666667, "fusion_lat": 0.0, "rental_uris": {"ios": "https://dc.lft.to/lastmile_qr_scan", "android": "https://dc.lft.to/lastmile_qr_scan"}, "type": "electric_scooter"}, {"name": "14b97581eba3d9316951d10c61962a5b", "is_reserved": 0, "fusion_lon": 0.0, "bike_id": "14b97581eba3d9316951d10c61962a5b", "lat": 38.897354, "is_disabled": 0, "lon": -77.00774966666667, "fusion_lat": 0.0, "rental_uris": {"ios": "https://dc.lft.to/lastmile_qr_scan", "android": "https://dc.lft.to/lastmile_qr_scan"}, "type": "electric_scooter"}, {"name": "dcba51f310ef7480f596152d23cca64f", "is_reserved": 0, "fusion_lon": 0.0, "bike_id": "dcba51f310ef7480f596152d23cca64f", "lat": 38.90023383333333, "is_disabled": 0, "lon": -77.0122485, "fusion_lat": 0.0, "rental_uris": {"ios": "https://dc.lft.to/lastmile_qr_scan", "android": "https://dc.lft.to/lastmile_qr_scan"}, "type": "electric_scooter"}, {"name": "58d7e3b7299e22c87ddc209ad4b4d274", "is_reserved": 0, "fusion_lon": 0.0, "bike_id": "58d7e3b7299e22c87ddc209ad4b4d274", "lat": 38.90882666666667, "is_disabled": 0, "lon": -77.04321583333333, "fusion_lat": 0.0, "rental_uris": {"ios": "https://dc.lft.to/lastmile_qr_scan", "android": "https://dc.lft.to/lastmile_qr_scan"}, "type": "electric_scooter"}, {"name": "86442de898dfc8d6885c321e04b08b1e", "is_reserved": 0, "fusion_lon": 0.0, "bike_id": "86442de898dfc8d6885c321e04b08b1e", "lat": 38.942758, "is_disabled": 0, "lon": -77.02926466666666, "fusion_lat": 0.0, "rental_uris": {"ios": "https://dc.lft.to/lastmile_qr_scan", "android": "https://dc.lft.to/lastmile_qr_scan"}, "type": "electric_scooter"}, {"name": "c929a633e253c2cfce82289d8c1c894f", "is_reserved": 0, "fusion_lon": 0.0, "bike_id": "c929a633e253c2cfce82289d8c1c894f", "lat": 38.95742116666667, "is_disabled": 0, "lon": -77.021651, "fusion_lat": 0.0, "rental_uris": {"ios": "https://dc.lft.to/lastmile_qr_scan", "android": "https://dc.lft.to/lastmile_qr_scan"}, "type": "electric_bike"}, {"name": "fd190d4029d532c0728cdd21d2994862", "is_reserved": 0, "fusion_lon": 0.0, "bike_id": "fd190d4029d532c0728cdd21d2994862", "lat": 38.876411833333336, "is_disabled": 0, "lon": -76.993915, "fusion_lat": 0.0, "rental_uris": {"ios": "https://dc.lft.to/lastmile_qr_scan", "android": "https://dc.lft.to/lastmile_qr_scan"}, "type": "electric_scooter"}, {"name": "0707f00144b8d1d9853b7ef2e8e7eb9f", "is_reserved": 0, "fusion_lon": 0.0, "bike_id": "0707f00144b8d1d9853b7ef2e8e7eb9f", "lat": 38.917383, "is_disabled": 0, "lon": -77.02114266666666, "fusion_lat": 0.0, "rental_uris": {"ios": "https://dc.lft.to/lastmile_qr_scan", "android": "https://dc.lft.to/lastmile_qr_scan"}, "type": "electric_scooter"}, {"name": "9116e56b317ba4e041032e726df6c5a7", "is_reserved": 0, "fusion_lon": 0.0, "bike_id": "9116e56b317ba4e041032e726df6c5a7", "lat": 38.92492983333333, "is_disabled": 0, "lon": -77.0432605, "fusion_lat": 0.0, "rental_uris": {"ios": "https://dc.lft.to/lastmile_qr_scan", "android": "https://dc.lft.to/lastmile_qr_scan"}, "type": "electric_scooter"}, {"name": "5c21143797bfd1fbe35174d9db730a68", "is_reserved": 0, "fusion_lon": 0.0, "bike_id": "5c21143797bfd1fbe35174d9db730a68", "lat": 38.8947015, "is_disabled": 0, "lon": -77.046562, "fusion_lat": 0.0, "rental_uris": {"ios": "https://dc.lft.to/lastmile_qr_scan", "android": "https://dc.lft.to/lastmile_qr_scan"}, "type": "electric_scooter"}, {"name": "25697438bfaec2b147d164d14ada3825", "is_reserved": 0, "fusion_lon": 0.0, "bike_id": "25697438bfaec2b147d164d14ada3825", "lat": 38.9063365, "is_disabled": 0, "lon": -77.031405, "fusion_lat": 0.0, "rental_uris": {"ios": "https://dc.lft.to/lastmile_qr_scan", "android": "https://dc.lft.to/lastmile_qr_scan"}, "type": "electric_scooter"}, {"name": "49387a67622990dadb0c32a29c78c979", "is_reserved": 0, "fusion_lon": 0.0, "bike_id": "49387a67622990dadb0c32a29c78c979", "lat": 38.92363783333333, "is_disabled": 0, "lon": -77.01952716666666, "fusion_lat": 0.0, "rental_uris": {"ios": "https://dc.lft.to/lastmile_qr_scan", "android": "https://dc.lft.to/lastmile_qr_scan"}, "type": "electric_scooter"}, {"name": "64f24ab2e71c4b2e887b0fbee417a4f4", "is_reserved": 0, "fusion_lon": 0.0, "bike_id": "64f24ab2e71c4b2e887b0fbee417a4f4", "lat": 38.92125, "is_disabled": 0, "lon": -77.018402, "fusion_lat": 0.0, "rental_uris": {"ios": "https://dc.lft.to/lastmile_qr_scan", "android": "https://dc.lft.to/lastmile_qr_scan"}, "type": "electric_scooter"}, {"name": "7e442d8527a584e9227f0e3f19425bbb", "is_reserved": 0, "fusion_lon": 0.0, "bike_id": "7e442d8527a584e9227f0e3f19425bbb", "lat": 38.901319, "is_disabled": 0, "lon": -77.04991616666666, "fusion_lat": 0.0, "rental_uris": {"ios": "https://dc.lft.to/lastmile_qr_scan", "android": "https://dc.lft.to/lastmile_qr_scan"}, "type": "electric_scooter"}, {"name": "1b4382c97e46ed943f6417d6cde0fa98", "is_reserved": 0, "fusion_lon": 0.0, "bike_id": "1b4382c97e46ed943f6417d6cde0fa98", "lat": 38.900376666666666, "is_disabled": 0, "lon": -77.0020955, "fusion_lat": 0.0, "rental_uris": {"ios": "https://dc.lft.to/lastmile_qr_scan", "android": "https://dc.lft.to/lastmile_qr_scan"}, "type": "electric_scooter"}, {"name": "228dbd3ebe8480ef1348d835cf721b63", "is_reserved": 0, "fusion_lon": 0.0, "bike_id": "228dbd3ebe8480ef1348d835cf721b63", "lat": 38.919048333333336, "is_disabled": 0, "lon": -77.03096383333333, "fusion_lat": 0.0, "rental_uris": {"ios": "https://dc.lft.to/lastmile_qr_scan", "android": "https://dc.lft.to/lastmile_qr_scan"}, "type": "electric_scooter"}, {"name": "66a758acafccb7a6afec30ad9341db79", "is_reserved": 0, "fusion_lon": 0.0, "bike_id": "66a758acafccb7a6afec30ad9341db79", "lat": 38.89223583333333, "is_disabled": 0, "lon": -77.02532666666667, "fusion_lat": 0.0, "rental_uris": {"ios": "https://dc.lft.to/lastmile_qr_scan", "android": "https://dc.lft.to/lastmile_qr_scan"}, "type": "electric_scooter"}, {"name": "971a720945259e58976e16a7ee3029b1", "is_reserved": 0, "fusion_lon": 0.0, "bike_id": "971a720945259e58976e16a7ee3029b1", "lat": 38.92505833333333, "is_disabled": 0, "lon": -77.0257635, "fusion_lat": 0.0, "rental_uris": {"ios": "https://dc.lft.to/lastmile_qr_scan", "android": "https://dc.lft.to/lastmile_qr_scan"}, "type": "electric_scooter"}, {"name": "15b55d84267aa17bcf880e1ed619aa11", "is_reserved": 0, "fusion_lon": 0.0, "bike_id": "15b55d84267aa17bcf880e1ed619aa11", "lat": 38.904159666666665, "is_disabled": 0, "lon": -77.04033216666667, "fusion_lat": 0.0, "rental_uris": {"ios": "https://dc.lft.to/lastmile_qr_scan", "android": "https://dc.lft.to/lastmile_qr_scan"}, "type": "electric_scooter"}, {"name": "11da549733517a85326dfa121c429061", "is_reserved": 0, "fusion_lon": 0.0, "bike_id": "11da549733517a85326dfa121c429061", "lat": 38.921698, "is_disabled": 0, "lon": -77.026702, "fusion_lat": 0.0, "rental_uris": {"ios": "https://dc.lft.to/lastmile_qr_scan", "android": "https://dc.lft.to/lastmile_qr_scan"}, "type": "electric_scooter"}, {"name": "89a602d5862c436919e4540d00ebd52a", "is_reserved": 0, "fusion_lon": 0.0, "bike_id": "89a602d5862c436919e4540d00ebd52a", "lat": 38.930767, "is_disabled": 0, "lon": -77.03730533333334, "fusion_lat": 0.0, "rental_uris": {"ios": "https://dc.lft.to/lastmile_qr_scan", "android": "https://dc.lft.to/lastmile_qr_scan"}, "type": "electric_scooter"}, {"name": "57e9df7b4ad04863b3b12ef0ee7a4d50", "is_reserved": 0, "fusion_lon": 0.0, "bike_id": "57e9df7b4ad04863b3b12ef0ee7a4d50", "lat": 38.89227133333333, "is_disabled": 0, "lon": -77.04998533333334, "fusion_lat": 0.0, "rental_uris": {"ios": "https://dc.lft.to/lastmile_qr_scan", "android": "https://dc.lft.to/lastmile_qr_scan"}, "type": "electric_scooter"}, {"name": "e6c8b533fd09022d142e932f38cf7312", "is_reserved": 0, "fusion_lon": 0.0, "bike_id": "e6c8b533fd09022d142e932f38cf7312", "lat": 38.911131833333336, "is_disabled": 0, "lon": -77.03827716666666, "fusion_lat": 0.0, "rental_uris": {"ios": "https://dc.lft.to/lastmile_qr_scan", "android": "https://dc.lft.to/lastmile_qr_scan"}, "type": "electric_scooter"}, {"name": "95b880838f275ba225a2d844078df3c4", "is_reserved": 0, "fusion_lon": 0.0, "bike_id": "95b880838f275ba225a2d844078df3c4", "lat": 38.8978545, "is_disabled": 0, "lon": -77.01207066666667, "fusion_lat": 0.0, "rental_uris": {"ios": "https://dc.lft.to/lastmile_qr_scan", "android": "https://dc.lft.to/lastmile_qr_scan"}, "type": "electric_scooter"}, {"name": "33e34fc114357a3f299412e6e3676f20", "is_reserved": 0, "fusion_lon": 0.0, "bike_id": "33e34fc114357a3f299412e6e3676f20", "lat": 38.923356166666665, "is_disabled": 0, "lon": -77.04302883333334, "fusion_lat": 0.0, "rental_uris": {"ios": "https://dc.lft.to/lastmile_qr_scan", "android": "https://dc.lft.to/lastmile_qr_scan"}, "type": "electric_scooter"}, {"name": "dc7304e8f8d3d8ab1f7494853606c4aa", "is_reserved": 0, "fusion_lon": 0.0, "bike_id": "dc7304e8f8d3d8ab1f7494853606c4aa", "lat": 38.9248555, "is_disabled": 0, "lon": -77.05752966666667, "fusion_lat": 0.0, "rental_uris": {"ios": "https://dc.lft.to/lastmile_qr_scan", "android": "https://dc.lft.to/lastmile_qr_scan"}, "type": "electric_scooter"}, {"name": "125b7667f0f2d1b1c403542322f260a9", "is_reserved": 0, "fusion_lon": 0.0, "bike_id": "125b7667f0f2d1b1c403542322f260a9", "lat": 38.90584883333333, "is_disabled": 0, "lon": -77.0217515, "fusion_lat": 0.0, "rental_uris": {"ios": "https://dc.lft.to/lastmile_qr_scan", "android": "https://dc.lft.to/lastmile_qr_scan"}, "type": "electric_scooter"}, {"name": "5d06a801129cb6a3320db81765a488d5", "is_reserved": 0, "fusion_lon": 0.0, "bike_id": "5d06a801129cb6a3320db81765a488d5", "lat": 38.89566283333333, "is_disabled": 0, "lon": -77.03162216666666, "fusion_lat": 0.0, "rental_uris": {"ios": "https://dc.lft.to/lastmile_qr_scan", "android": "https://dc.lft.to/lastmile_qr_scan"}, "type": "electric_scooter"}, {"name": "584bdb8d8ae9abd3d4e983617db9e9e2", "is_reserved": 0, "fusion_lon": 0.0, "bike_id": "584bdb8d8ae9abd3d4e983617db9e9e2", "lat": 38.92416766666667, "is_disabled": 0, "lon": -77.01941483333333, "fusion_lat": 0.0, "rental_uris": {"ios": "https://dc.lft.to/lastmile_qr_scan", "android": "https://dc.lft.to/lastmile_qr_scan"}, "type": "electric_scooter"}, {"name": "fe2c549dd74c071708ce1c27547472c3", "is_reserved": 0, "fusion_lon": 0.0, "bike_id": "fe2c549dd74c071708ce1c27547472c3", "lat": 38.89972983333333, "is_disabled": 0, "lon": -77.02373733333333, "fusion_lat": 0.0, "rental_uris": {"ios": "https://dc.lft.to/lastmile_qr_scan", "android": "https://dc.lft.to/lastmile_qr_scan"}, "type": "electric_scooter"}, {"name": "3afad81c021d54ac5d73263812f26b34", "is_reserved": 0, "fusion_lon": 0.0, "bike_id": "3afad81c021d54ac5d73263812f26b34", "lat": 38.920539166666664, "is_disabled": 0, "lon": -77.0417745, "fusion_lat": 0.0, "rental_uris": {"ios": "https://dc.lft.to/lastmile_qr_scan", "android": "https://dc.lft.to/lastmile_qr_scan"}, "type": "electric_scooter"}, {"name": "d196d8ddfe51ecbb8e7b91f7c304d1a8", "is_reserved": 0, "fusion_lon": 0.0, "bike_id": "d196d8ddfe51ecbb8e7b91f7c304d1a8", "lat": 38.919185166666665, "is_disabled": 0, "lon": -77.03391983333333, "fusion_lat": 0.0, "rental_uris": {"ios": "https://dc.lft.to/lastmile_qr_scan", "android": "https://dc.lft.to/lastmile_qr_scan"}, "type": "electric_scooter"}, {"name": "8b7c3ae9cc83f72e37134b1ce722ccc7", "is_reserved": 0, "fusion_lon": 0.0, "bike_id": "8b7c3ae9cc83f72e37134b1ce722ccc7", "lat": 38.9515115, "is_disabled": 0, "lon": -77.01863633333333, "fusion_lat": 0.0, "rental_uris": {"ios": "https://dc.lft.to/lastmile_qr_scan", "android": "https://dc.lft.to/lastmile_qr_scan"}, "type": "electric_scooter"}, {"name": "18d027d72d822b4072c64dfade5e91e2", "is_reserved": 0, "fusion_lon": 0.0, "bike_id": "18d027d72d822b4072c64dfade5e91e2", "lat": 38.906815, "is_disabled": 0, "lon": -77.02387883333333, "fusion_lat": 0.0, "rental_uris": {"ios": "https://dc.lft.to/lastmile_qr_scan", "android": "https://dc.lft.to/lastmile_qr_scan"}, "type": "electric_scooter"}, {"name": "fe9e0665320f6d3d300b513c79db3cd7", "is_reserved": 0, "fusion_lon": 0.0, "bike_id": "fe9e0665320f6d3d300b513c79db3cd7", "lat": 38.902622, "is_disabled": 0, "lon": -77.04337633333333, "fusion_lat": 0.0, "rental_uris": {"ios": "https://dc.lft.to/lastmile_qr_scan", "android": "https://dc.lft.to/lastmile_qr_scan"}, "type": "electric_scooter"}, {"name": "a3df65772011cc59b439ef4f060bfb2e", "is_reserved": 0, "fusion_lon": 0.0, "bike_id": "a3df65772011cc59b439ef4f060bfb2e", "lat": 38.9289, "is_disabled": 0, "lon": -77.01362033333334, "fusion_lat": 0.0, "rental_uris": {"ios": "https://dc.lft.to/lastmile_qr_scan", "android": "https://dc.lft.to/lastmile_qr_scan"}, "type": "electric_scooter"}, {"name": "2ff5783ebe7686b228b5338a59c0277d", "is_reserved": 0, "fusion_lon": 0.0, "bike_id": "2ff5783ebe7686b228b5338a59c0277d", "lat": 38.9055625, "is_disabled": 0, "lon": -77.0433425, "fusion_lat": 0.0, "rental_uris": {"ios": "https://dc.lft.to/lastmile_qr_scan", "android": "https://dc.lft.to/lastmile_qr_scan"}, "type": "electric_scooter"}, {"name": "782e49c705b8bfd5a6fc344919d7582f", "is_reserved": 0, "fusion_lon": 0.0, "bike_id": "782e49c705b8bfd5a6fc344919d7582f", "lat": 38.9153095, "is_disabled": 0, "lon": -77.04462233333334, "fusion_lat": 0.0, "rental_uris": {"ios": "https://dc.lft.to/lastmile_qr_scan", "android": "https://dc.lft.to/lastmile_qr_scan"}, "type": "electric_scooter"}, {"name": "679e46a03624080813d398d4f5a85a27", "is_reserved": 0, "fusion_lon": 0.0, "bike_id": "679e46a03624080813d398d4f5a85a27", "lat": 38.92611466666666, "is_disabled": 0, "lon": -77.05700666666667, "fusion_lat": 0.0, "rental_uris": {"ios": "https://dc.lft.to/lastmile_qr_scan", "android": "https://dc.lft.to/lastmile_qr_scan"}, "type": "electric_scooter"}, {"name": "1653aa3d61b9c156c83a63359759fd11", "is_reserved": 0, "fusion_lon": 0.0, "bike_id": "1653aa3d61b9c156c83a63359759fd11", "lat": 38.92603966666667, "is_disabled": 0, "lon": -77.0215285, "fusion_lat": 0.0, "rental_uris": {"ios": "https://dc.lft.to/lastmile_qr_scan", "android": "https://dc.lft.to/lastmile_qr_scan"}, "type": "electric_scooter"}, {"name": "18c07d967c3b624c5d0f1d3f3e29baa6", "is_reserved": 0, "fusion_lon": 0.0, "bike_id": "18c07d967c3b624c5d0f1d3f3e29baa6", "lat": 38.8948195, "is_disabled": 0, "lon": -77.02249633333334, "fusion_lat": 0.0, "rental_uris": {"ios": "https://dc.lft.to/lastmile_qr_scan", "android": "https://dc.lft.to/lastmile_qr_scan"}, "type": "electric_scooter"}, {"name": "1254fc377c5e86d62cc437f4e42ca1f0", "is_reserved": 0, "fusion_lon": 0.0, "bike_id": "1254fc377c5e86d62cc437f4e42ca1f0", "lat": 38.89516166666667, "is_disabled": 0, "lon": -77.02418233333333, "fusion_lat": 0.0, "rental_uris": {"ios": "https://dc.lft.to/lastmile_qr_scan", "android": "https://dc.lft.to/lastmile_qr_scan"}, "type": "electric_scooter"}, {"name": "3801af6a90fd7bdfef771716ad93d64e", "is_reserved": 0, "fusion_lon": 0.0, "bike_id": "3801af6a90fd7bdfef771716ad93d64e", "lat": 38.9095705, "is_disabled": 0, "lon": -77.0143315, "fusion_lat": 0.0, "rental_uris": {"ios": "https://dc.lft.to/lastmile_qr_scan", "android": "https://dc.lft.to/lastmile_qr_scan"}, "type": "electric_scooter"}, {"name": "448d4e82969b6361fe3440beea498dc7", "is_reserved": 0, "fusion_lon": 0.0, "bike_id": "448d4e82969b6361fe3440beea498dc7", "lat": 38.912489, "is_disabled": 0, "lon": -77.029676, "fusion_lat": 0.0, "rental_uris": {"ios": "https://dc.lft.to/lastmile_qr_scan", "android": "https://dc.lft.to/lastmile_qr_scan"}, "type": "electric_scooter"}, {"name": "aaf136fd8773efea08a14d81e9f91f0e", "is_reserved": 0, "fusion_lon": 0.0, "bike_id": "aaf136fd8773efea08a14d81e9f91f0e", "lat": 38.940662, "is_disabled": 0, "lon": -77.021215, "fusion_lat": 0.0, "rental_uris": {"ios": "https://dc.lft.to/lastmile_qr_scan", "android": "https://dc.lft.to/lastmile_qr_scan"}, "type": "electric_scooter"}, {"name": "e55163193a9c46ba9f393a395f0bd2b3", "is_reserved": 0, "fusion_lon": 0.0, "bike_id": "e55163193a9c46ba9f393a395f0bd2b3", "lat": 38.90132116666667, "is_disabled": 0, "lon": -77.03947766666667, "fusion_lat": 0.0, "rental_uris": {"ios": "https://dc.lft.to/lastmile_qr_scan", "android": "https://dc.lft.to/lastmile_qr_scan"}, "type": "electric_scooter"}, {"name": "f4c6d2b7c539a1ecd22945ae2d1e23ff", "is_reserved": 0, "fusion_lon": 0.0, "bike_id": "f4c6d2b7c539a1ecd22945ae2d1e23ff", "lat": 38.90841783333333, "is_disabled": 0, "lon": -77.063728, "fusion_lat": 0.0, "rental_uris": {"ios": "https://dc.lft.to/lastmile_qr_scan", "android": "https://dc.lft.to/lastmile_qr_scan"}, "type": "electric_scooter"}, {"name": "7aa5274a4fb739d1c238d609371aa71f", "is_reserved": 0, "fusion_lon": 0.0, "bike_id": "7aa5274a4fb739d1c238d609371aa71f", "lat": 38.90326433333333, "is_disabled": 0, "lon": -77.052619, "fusion_lat": 0.0, "rental_uris": {"ios": "https://dc.lft.to/lastmile_qr_scan", "android": "https://dc.lft.to/lastmile_qr_scan"}, "type": "electric_scooter"}, {"name": "2f6180c6229eb3f7af1f4631548d4b01", "is_reserved": 0, "fusion_lon": 0.0, "bike_id": "2f6180c6229eb3f7af1f4631548d4b01", "lat": 38.88880966666667, "is_disabled": 0, "lon": -76.95701483333333, "fusion_lat": 0.0, "rental_uris": {"ios": "https://dc.lft.to/lastmile_qr_scan", "android": "https://dc.lft.to/lastmile_qr_scan"}, "type": "electric_bike"}, {"name": "0d1a756898d86af68b1e4172a6752ab8", "is_reserved": 0, "fusion_lon": 0.0, "bike_id": "0d1a756898d86af68b1e4172a6752ab8", "lat": 38.882827666666664, "is_disabled": 0, "lon": -76.93240733333333, "fusion_lat": 0.0, "rental_uris": {"ios": "https://dc.lft.to/lastmile_qr_scan", "android": "https://dc.lft.to/lastmile_qr_scan"}, "type": "electric_bike"}, {"name": "8c7a86a01f96300a602b804b95747ad9", "is_reserved": 0, "fusion_lon": 0.0, "bike_id": "8c7a86a01f96300a602b804b95747ad9", "lat": 38.919111, "is_disabled": 0, "lon": -77.04176783333334, "fusion_lat": 0.0, "rental_uris": {"ios": "https://dc.lft.to/lastmile_qr_scan", "android": "https://dc.lft.to/lastmile_qr_scan"}, "type": "electric_scooter"}, {"name": "0e02e62119ec2f77ff5a125edfab6567", "is_reserved": 0, "fusion_lon": 0.0, "bike_id": "0e02e62119ec2f77ff5a125edfab6567", "lat": 38.947203, "is_disabled": 0, "lon": -77.0298035, "fusion_lat": 0.0, "rental_uris": {"ios": "https://dc.lft.to/lastmile_qr_scan", "android": "https://dc.lft.to/lastmile_qr_scan"}, "type": "electric_scooter"}, {"name": "21853626a8b66f0f70d9d0be65f53652", "is_reserved": 0, "fusion_lon": 0.0, "bike_id": "21853626a8b66f0f70d9d0be65f53652", "lat": 38.91046133333333, "is_disabled": 0, "lon": -77.04331816666667, "fusion_lat": 0.0, "rental_uris": {"ios": "https://dc.lft.to/lastmile_qr_scan", "android": "https://dc.lft.to/lastmile_qr_scan"}, "type": "electric_scooter"}, {"name": "6c7402b3618ba41dce9427f3ca6d75c1", "is_reserved": 0, "fusion_lon": 0.0, "bike_id": "6c7402b3618ba41dce9427f3ca6d75c1", "lat": 38.91825133333333, "is_disabled": 0, "lon": -77.0344125, "fusion_lat": 0.0, "rental_uris": {"ios": "https://dc.lft.to/lastmile_qr_scan", "android": "https://dc.lft.to/lastmile_qr_scan"}, "type": "electric_scooter"}, {"name": "672eff03d018f62bc1ee327138ea2a0f", "is_reserved": 0, "fusion_lon": 0.0, "bike_id": "672eff03d018f62bc1ee327138ea2a0f", "lat": 38.926324, "is_disabled": 0, "lon": -77.02151333333333, "fusion_lat": 0.0, "rental_uris": {"ios": "https://dc.lft.to/lastmile_qr_scan", "android": "https://dc.lft.to/lastmile_qr_scan"}, "type": "electric_scooter"}, {"name": "b3ff0757e0d5454cd7ea7e91d98a6f55", "is_reserved": 0, "fusion_lon": 0.0, "bike_id": "b3ff0757e0d5454cd7ea7e91d98a6f55", "lat": 38.9298085, "is_disabled": 0, "lon": -76.98599283333333, "fusion_lat": 0.0, "rental_uris": {"ios": "https://dc.lft.to/lastmile_qr_scan", "android": "https://dc.lft.to/lastmile_qr_scan"}, "type": "electric_bike"}, {"name": "f4109f9875357467632484399bc3d756", "is_reserved": 0, "fusion_lon": 0.0, "bike_id": "f4109f9875357467632484399bc3d756", "lat": 38.924129666666666, "is_disabled": 0, "lon": -77.02262666666667, "fusion_lat": 0.0, "rental_uris": {"ios": "https://dc.lft.to/lastmile_qr_scan", "android": "https://dc.lft.to/lastmile_qr_scan"}, "type": "electric_scooter"}, {"name": "b66030bbb7aa5c9c0a74214d88265756", "is_reserved": 0, "fusion_lon": 0.0, "bike_id": "b66030bbb7aa5c9c0a74214d88265756", "lat": 38.913563, "is_disabled": 0, "lon": -77.04663416666666, "fusion_lat": 0.0, "rental_uris": {"ios": "https://dc.lft.to/lastmile_qr_scan", "android": "https://dc.lft.to/lastmile_qr_scan"}, "type": "electric_scooter"}, {"name": "edd6a50d4fc0a7ec04a7e228ebf5dec6", "is_reserved": 0, "fusion_lon": 0.0, "bike_id": "edd6a50d4fc0a7ec04a7e228ebf5dec6", "lat": 38.892570666666664, "is_disabled": 0, "lon": -77.04653633333334, "fusion_lat": 0.0, "rental_uris": {"ios": "https://dc.lft.to/lastmile_qr_scan", "android": "https://dc.lft.to/lastmile_qr_scan"}, "type": "electric_scooter"}, {"name": "6ac633ed7b0509328960637f7f62469c", "is_reserved": 0, "fusion_lon": 0.0, "bike_id": "6ac633ed7b0509328960637f7f62469c", "lat": 38.91118633333333, "is_disabled": 0, "lon": -77.00606716666667, "fusion_lat": 0.0, "rental_uris": {"ios": "https://dc.lft.to/lastmile_qr_scan", "android": "https://dc.lft.to/lastmile_qr_scan"}, "type": "electric_scooter"}, {"name": "04ec4034f652f1ac88ca8e38d078477a", "is_reserved": 0, "fusion_lon": 0.0, "bike_id": "04ec4034f652f1ac88ca8e38d078477a", "lat": 38.91032916666666, "is_disabled": 0, "lon": -76.99341766666667, "fusion_lat": 0.0, "rental_uris": {"ios": "https://dc.lft.to/lastmile_qr_scan", "android": "https://dc.lft.to/lastmile_qr_scan"}, "type": "electric_scooter"}, {"name": "282d984a995792af91c7221d32f188f4", "is_reserved": 0, "fusion_lon": 0.0, "bike_id": "282d984a995792af91c7221d32f188f4", "lat": 38.8994, "is_disabled": 0, "lon": -77.04717483333333, "fusion_lat": 0.0, "rental_uris": {"ios": "https://dc.lft.to/lastmile_qr_scan", "android": "https://dc.lft.to/lastmile_qr_scan"}, "type": "electric_scooter"}, {"name": "67e7812f2d34c77b77d64d6af1455c4f", "is_reserved": 0, "fusion_lon": 0.0, "bike_id": "67e7812f2d34c77b77d64d6af1455c4f", "lat": 38.923746333333334, "is_disabled": 0, "lon": -77.01946416666667, "fusion_lat": 0.0, "rental_uris": {"ios": "https://dc.lft.to/lastmile_qr_scan", "android": "https://dc.lft.to/lastmile_qr_scan"}, "type": "electric_scooter"}, {"name": "796659f07fc50f0519eb0a76bf8a524d", "is_reserved": 0, "fusion_lon": 0.0, "bike_id": "796659f07fc50f0519eb0a76bf8a524d", "lat": 38.910229666666666, "is_disabled": 0, "lon": -77.04443133333334, "fusion_lat": 0.0, "rental_uris": {"ios": "https://dc.lft.to/lastmile_qr_scan", "android": "https://dc.lft.to/lastmile_qr_scan"}, "type": "electric_scooter"}, {"name": "2398035a6e119ffd8697221281c002a0", "is_reserved": 0, "fusion_lon": 0.0, "bike_id": "2398035a6e119ffd8697221281c002a0", "lat": 38.87839433333333, "is_disabled": 0, "lon": -76.93128783333333, "fusion_lat": 0.0, "rental_uris": {"ios": "https://dc.lft.to/lastmile_qr_scan", "android": "https://dc.lft.to/lastmile_qr_scan"}, "type": "electric_scooter"}, {"name": "c0497b3407755d80e38acfedc293c5c2", "is_reserved": 0, "fusion_lon": 0.0, "bike_id": "c0497b3407755d80e38acfedc293c5c2", "lat": 39.01076533333333, "is_disabled": 0, "lon": -76.91063733333333, "fusion_lat": 0.0, "rental_uris": {"ios": "https://dc.lft.to/lastmile_qr_scan", "android": "https://dc.lft.to/lastmile_qr_scan"}, "type": "electric_bike"}, {"name": "53221fa5488dfc107ade75d28354f65e", "is_reserved": 0, "fusion_lon": 0.0, "bike_id": "53221fa5488dfc107ade75d28354f65e", "lat": 38.8467795, "is_disabled": 0, "lon": -77.1393435, "fusion_lat": 0.0, "rental_uris": {"ios": "https://dc.lft.to/lastmile_qr_scan", "android": "https://dc.lft.to/lastmile_qr_scan"}, "type": "electric_bike"}, {"name": "38c08e9b050e9b5591085865dcf70cbc", "is_reserved": 0, "fusion_lon": 0.0, "bike_id": "38c08e9b050e9b5591085865dcf70cbc", "lat": 38.9241325, "is_disabled": 0, "lon": -77.0212705, "fusion_lat": 0.0, "rental_uris": {"ios": "https://dc.lft.to/lastmile_qr_scan", "android": "https://dc.lft.to/lastmile_qr_scan"}, "type": "electric_scooter"}, {"name": "c3065f93de51e5d6f0feda7972f6f981", "is_reserved": 0, "fusion_lon": 0.0, "bike_id": "c3065f93de51e5d6f0feda7972f6f981", "lat": 38.914688, "is_disabled": 0, "lon": -76.981036, "fusion_lat": 0.0, "rental_uris": {"ios": "https://dc.lft.to/lastmile_qr_scan", "android": "https://dc.lft.to/lastmile_qr_scan"}, "type": "electric_scooter"}, {"name": "2122c948019c76eeda049269e2f606a8", "is_reserved": 0, "fusion_lon": 0.0, "bike_id": "2122c948019c76eeda049269e2f606a8", "lat": 38.893689, "is_disabled": 0, "lon": -77.0395655, "fusion_lat": 0.0, "rental_uris": {"ios": "https://dc.lft.to/lastmile_qr_scan", "android": "https://dc.lft.to/lastmile_qr_scan"}, "type": "electric_scooter"}, {"name": "9f54aa991d9788969175a505da0e565b", "is_reserved": 0, "fusion_lon": 0.0, "bike_id": "9f54aa991d9788969175a505da0e565b", "lat": 38.89367633333333, "is_disabled": 0, "lon": -77.01557416666667, "fusion_lat": 0.0, "rental_uris": {"ios": "https://dc.lft.to/lastmile_qr_scan", "android": "https://dc.lft.to/lastmile_qr_scan"}, "type": "electric_scooter"}, {"name": "3198afc7609c1673f0f7f3003394d2db", "is_reserved": 0, "fusion_lon": 0.0, "bike_id": "3198afc7609c1673f0f7f3003394d2db", "lat": 38.886444166666664, "is_disabled": 0, "lon": -76.982089, "fusion_lat": 0.0, "rental_uris": {"ios": "https://dc.lft.to/lastmile_qr_scan", "android": "https://dc.lft.to/lastmile_qr_scan"}, "type": "electric_scooter"}, {"name": "9559d10e2e41abcf3e24a3b1ffd8028a", "is_reserved": 0, "fusion_lon": 0.0, "bike_id": "9559d10e2e41abcf3e24a3b1ffd8028a", "lat": 38.910041666666665, "is_disabled": 0, "lon": -76.99396616666667, "fusion_lat": 0.0, "rental_uris": {"ios": "https://dc.lft.to/lastmile_qr_scan", "android": "https://dc.lft.to/lastmile_qr_scan"}, "type": "electric_scooter"}, {"name": "b31ac0145d83f48a53049f7b2e9a4355", "is_reserved": 0, "fusion_lon": 0.0, "bike_id": "b31ac0145d83f48a53049f7b2e9a4355", "lat": 38.9025495, "is_disabled": 0, "lon": -77.03972866666666, "fusion_lat": 0.0, "rental_uris": {"ios": "https://dc.lft.to/lastmile_qr_scan", "android": "https://dc.lft.to/lastmile_qr_scan"}, "type": "electric_scooter"}, {"name": "e0413e8f84f04cfa935c1e482b359909", "is_reserved": 0, "fusion_lon": 0.0, "bike_id": "e0413e8f84f04cfa935c1e482b359909", "lat": 38.890999666666666, "is_disabled": 0, "lon": -76.988102, "fusion_lat": 0.0, "rental_uris": {"ios": "https://dc.lft.to/lastmile_qr_scan", "android": "https://dc.lft.to/lastmile_qr_scan"}, "type": "electric_scooter"}, {"name": "bb68c52fa8b6fa10d5d6d5da9e78e6bc", "is_reserved": 0, "fusion_lon": 0.0, "bike_id": "bb68c52fa8b6fa10d5d6d5da9e78e6bc", "lat": 38.924636, "is_disabled": 0, "lon": -77.052307, "fusion_lat": 0.0, "rental_uris": {"ios": "https://dc.lft.to/lastmile_qr_scan", "android": "https://dc.lft.to/lastmile_qr_scan"}, "type": "electric_scooter"}, {"name": "5369307bd83ef0bdd95ce79f6e6b727b", "is_reserved": 0, "fusion_lon": 0.0, "bike_id": "5369307bd83ef0bdd95ce79f6e6b727b", "lat": 38.895302666666666, "is_disabled": 0, "lon": -77.021921, "fusion_lat": 0.0, "rental_uris": {"ios": "https://dc.lft.to/lastmile_qr_scan", "android": "https://dc.lft.to/lastmile_qr_scan"}, "type": "electric_scooter"}, {"name": "bc25483afd2654dba386a5e3c96668c3", "is_reserved": 0, "fusion_lon": 0.0, "bike_id": "bc25483afd2654dba386a5e3c96668c3", "lat": 38.89861033333333, "is_disabled": 0, "lon": -77.020311, "fusion_lat": 0.0, "rental_uris": {"ios": "https://dc.lft.to/lastmile_qr_scan", "android": "https://dc.lft.to/lastmile_qr_scan"}, "type": "electric_scooter"}, {"name": "7b5eed0d01091dc1a9a753fde6044957", "is_reserved": 0, "fusion_lon": 0.0, "bike_id": "7b5eed0d01091dc1a9a753fde6044957", "lat": 38.87666466666667, "is_disabled": 0, "lon": -77.00300316666667, "fusion_lat": 0.0, "rental_uris": {"ios": "https://dc.lft.to/lastmile_qr_scan", "android": "https://dc.lft.to/lastmile_qr_scan"}, "type": "electric_scooter"}, {"name": "655bf202ebffc5022625413f7beea812", "is_reserved": 0, "fusion_lon": 0.0, "bike_id": "655bf202ebffc5022625413f7beea812", "lat": 38.89235733333334, "is_disabled": 0, "lon": -76.98449083333334, "fusion_lat": 0.0, "rental_uris": {"ios": "https://dc.lft.to/lastmile_qr_scan", "android": "https://dc.lft.to/lastmile_qr_scan"}, "type": "electric_scooter"}, {"name": "2c66a92c9b31d777188a0d90e112ab0a", "is_reserved": 0, "fusion_lon": 0.0, "bike_id": "2c66a92c9b31d777188a0d90e112ab0a", "lat": 38.920707166666666, "is_disabled": 0, "lon": -77.04348866666666, "fusion_lat": 0.0, "rental_uris": {"ios": "https://dc.lft.to/lastmile_qr_scan", "android": "https://dc.lft.to/lastmile_qr_scan"}, "type": "electric_scooter"}, {"name": "be6e2d50aa6b72b7940fc3763a170ce0", "is_reserved": 0, "fusion_lon": 0.0, "bike_id": "be6e2d50aa6b72b7940fc3763a170ce0", "lat": 38.91264066666667, "is_disabled": 0, "lon": -77.00493566666667, "fusion_lat": 0.0, "rental_uris": {"ios": "https://dc.lft.to/lastmile_qr_scan", "android": "https://dc.lft.to/lastmile_qr_scan"}, "type": "electric_scooter"}, {"name": "e89d714a8184f212bdee761f2ca49863", "is_reserved": 0, "fusion_lon": 0.0, "bike_id": "e89d714a8184f212bdee761f2ca49863", "lat": 38.892295833333336, "is_disabled": 0, "lon": -77.05000033333333, "fusion_lat": 0.0, "rental_uris": {"ios": "https://dc.lft.to/lastmile_qr_scan", "android": "https://dc.lft.to/lastmile_qr_scan"}, "type": "electric_scooter"}, {"name": "e0adc0197b788dfb77da83c02d2fd899", "is_reserved": 0, "fusion_lon": 0.0, "bike_id": "e0adc0197b788dfb77da83c02d2fd899", "lat": 38.924681, "is_disabled": 0, "lon": -77.022145, "fusion_lat": 0.0, "rental_uris": {"ios": "https://dc.lft.to/lastmile_qr_scan", "android": "https://dc.lft.to/lastmile_qr_scan"}, "type": "electric_scooter"}, {"name": "8428a4d7310f50c7325fe426dac147be", "is_reserved": 0, "fusion_lon": 0.0, "bike_id": "8428a4d7310f50c7325fe426dac147be", "lat": 38.91968816666667, "is_disabled": 0, "lon": -77.02711133333334, "fusion_lat": 0.0, "rental_uris": {"ios": "https://dc.lft.to/lastmile_qr_scan", "android": "https://dc.lft.to/lastmile_qr_scan"}, "type": "electric_scooter"}, {"name": "8c8378c87b5aae55a07b68f44202914e", "is_reserved": 0, "fusion_lon": 0.0, "bike_id": "8c8378c87b5aae55a07b68f44202914e", "lat": 38.905075333333336, "is_disabled": 0, "lon": -77.03010666666667, "fusion_lat": 0.0, "rental_uris": {"ios": "https://dc.lft.to/lastmile_qr_scan", "android": "https://dc.lft.to/lastmile_qr_scan"}, "type": "electric_scooter"}, {"name": "d5757787fc2ba14cd64403c302424d9b", "is_reserved": 0, "fusion_lon": 0.0, "bike_id": "d5757787fc2ba14cd64403c302424d9b", "lat": 38.90605016666667, "is_disabled": 0, "lon": -76.99817566666667, "fusion_lat": 0.0, "rental_uris": {"ios": "https://dc.lft.to/lastmile_qr_scan", "android": "https://dc.lft.to/lastmile_qr_scan"}, "type": "electric_scooter"}, {"name": "d330a04d5e49530edae693873d99da6b", "is_reserved": 0, "fusion_lon": 0.0, "bike_id": "d330a04d5e49530edae693873d99da6b", "lat": 38.8960115, "is_disabled": 0, "lon": -77.02567816666667, "fusion_lat": 0.0, "rental_uris": {"ios": "https://dc.lft.to/lastmile_qr_scan", "android": "https://dc.lft.to/lastmile_qr_scan"}, "type": "electric_scooter"}, {"name": "fcefd5a6316468e5fa2182ef80ca679e", "is_reserved": 0, "fusion_lon": 0.0, "bike_id": "fcefd5a6316468e5fa2182ef80ca679e", "lat": 38.92272066666666, "is_disabled": 0, "lon": -77.01949583333334, "fusion_lat": 0.0, "rental_uris": {"ios": "https://dc.lft.to/lastmile_qr_scan", "android": "https://dc.lft.to/lastmile_qr_scan"}, "type": "electric_scooter"}, {"name": "606ef22004f86f61fbc9d68db22e203a", "is_reserved": 0, "fusion_lon": 0.0, "bike_id": "606ef22004f86f61fbc9d68db22e203a", "lat": 38.90777766666667, "is_disabled": 0, "lon": -77.04496966666666, "fusion_lat": 0.0, "rental_uris": {"ios": "https://dc.lft.to/lastmile_qr_scan", "android": "https://dc.lft.to/lastmile_qr_scan"}, "type": "electric_scooter"}, {"name": "f0c1a39faee0b25b5f574e2ada274dce", "is_reserved": 0, "fusion_lon": 0.0, "bike_id": "f0c1a39faee0b25b5f574e2ada274dce", "lat": 38.931105, "is_disabled": 0, "lon": -77.021174, "fusion_lat": 0.0, "rental_uris": {"ios": "https://dc.lft.to/lastmile_qr_scan", "android": "https://dc.lft.to/lastmile_qr_scan"}, "type": "electric_scooter"}, {"name": "10b277cb3886d4d29c714f5f3f44d5f1", "is_reserved": 0, "fusion_lon": 0.0, "bike_id": "10b277cb3886d4d29c714f5f3f44d5f1", "lat": 38.94631183333333, "is_disabled": 0, "lon": -76.99303866666666, "fusion_lat": 0.0, "rental_uris": {"ios": "https://dc.lft.to/lastmile_qr_scan", "android": "https://dc.lft.to/lastmile_qr_scan"}, "type": "electric_bike"}, {"name": "24a0e0051c61c49f87979244b2d37d53", "is_reserved": 0, "fusion_lon": 0.0, "bike_id": "24a0e0051c61c49f87979244b2d37d53", "lat": 38.897303, "is_disabled": 0, "lon": -77.05518583333334, "fusion_lat": 0.0, "rental_uris": {"ios": "https://dc.lft.to/lastmile_qr_scan", "android": "https://dc.lft.to/lastmile_qr_scan"}, "type": "electric_scooter"}, {"name": "e007d38b79b7e010b92e45b402361bd9", "is_reserved": 0, "fusion_lon": 0.0, "bike_id": "e007d38b79b7e010b92e45b402361bd9", "lat": 38.920578666666664, "is_disabled": 0, "lon": -77.04191483333334, "fusion_lat": 0.0, "rental_uris": {"ios": "https://dc.lft.to/lastmile_qr_scan", "android": "https://dc.lft.to/lastmile_qr_scan"}, "type": "electric_scooter"}, {"name": "47241b5a72efe5de49405448c0c64c12", "is_reserved": 0, "fusion_lon": 0.0, "bike_id": "47241b5a72efe5de49405448c0c64c12", "lat": 38.923678833333334, "is_disabled": 0, "lon": -77.01953816666666, "fusion_lat": 0.0, "rental_uris": {"ios": "https://dc.lft.to/lastmile_qr_scan", "android": "https://dc.lft.to/lastmile_qr_scan"}, "type": "electric_scooter"}, {"name": "8e59ea88e0a9f1160014966eea53bee1", "is_reserved": 0, "fusion_lon": 0.0, "bike_id": "8e59ea88e0a9f1160014966eea53bee1", "lat": 38.92289183333333, "is_disabled": 0, "lon": -77.03194016666667, "fusion_lat": 0.0, "rental_uris": {"ios": "https://dc.lft.to/lastmile_qr_scan", "android": "https://dc.lft.to/lastmile_qr_scan"}, "type": "electric_scooter"}, {"name": "f0e6da5c08c885b7d62a8c9d8ca5342d", "is_reserved": 0, "fusion_lon": 0.0, "bike_id": "f0e6da5c08c885b7d62a8c9d8ca5342d", "lat": 38.87292516666667, "is_disabled": 0, "lon": -77.0098865, "fusion_lat": 0.0, "rental_uris": {"ios": "https://dc.lft.to/lastmile_qr_scan", "android": "https://dc.lft.to/lastmile_qr_scan"}, "type": "electric_scooter"}, {"name": "ea78f35c3e17e696f9ba47c25a28bf1a", "is_reserved": 0, "fusion_lon": 0.0, "bike_id": "ea78f35c3e17e696f9ba47c25a28bf1a", "lat": 38.8044305, "is_disabled": 0, "lon": -77.060818, "fusion_lat": 0.0, "rental_uris": {"ios": "https://dc.lft.to/lastmile_qr_scan", "android": "https://dc.lft.to/lastmile_qr_scan"}, "type": "electric_bike"}, {"name": "8af562dd8789e3fef0f558687886613d", "is_reserved": 0, "fusion_lon": 0.0, "bike_id": "8af562dd8789e3fef0f558687886613d", "lat": 38.924435833333334, "is_disabled": 0, "lon": -77.02969666666667, "fusion_lat": 0.0, "rental_uris": {"ios": "https://dc.lft.to/lastmile_qr_scan", "android": "https://dc.lft.to/lastmile_qr_scan"}, "type": "electric_scooter"}, {"name": "a9af844028cb01a2cc43ace3ad9adc70", "is_reserved": 0, "fusion_lon": 0.0, "bike_id": "a9af844028cb01a2cc43ace3ad9adc70", "lat": 38.9356715, "is_disabled": 0, "lon": -77.03260516666667, "fusion_lat": 0.0, "rental_uris": {"ios": "https://dc.lft.to/lastmile_qr_scan", "android": "https://dc.lft.to/lastmile_qr_scan"}, "type": "electric_scooter"}, {"name": "186a1bb7950d649b370d52522c6dfc32", "is_reserved": 0, "fusion_lon": 0.0, "bike_id": "186a1bb7950d649b370d52522c6dfc32", "lat": 38.8959225, "is_disabled": 0, "lon": -77.02558616666667, "fusion_lat": 0.0, "rental_uris": {"ios": "https://dc.lft.to/lastmile_qr_scan", "android": "https://dc.lft.to/lastmile_qr_scan"}, "type": "electric_scooter"}, {"name": "10f3465def5fdbbcff7b2860b7264554", "is_reserved": 0, "fusion_lon": 0.0, "bike_id": "10f3465def5fdbbcff7b2860b7264554", "lat": 38.89896433333333, "is_disabled": 0, "lon": -77.02796666666667, "fusion_lat": 0.0, "rental_uris": {"ios": "https://dc.lft.to/lastmile_qr_scan", "android": "https://dc.lft.to/lastmile_qr_scan"}, "type": "electric_scooter"}, {"name": "721e758db2eaa8981d55f2051cc8dae8", "is_reserved": 0, "fusion_lon": 0.0, "bike_id": "721e758db2eaa8981d55f2051cc8dae8", "lat": 38.9026975, "is_disabled": 0, "lon": -77.03859183333333, "fusion_lat": 0.0, "rental_uris": {"ios": "https://dc.lft.to/lastmile_qr_scan", "android": "https://dc.lft.to/lastmile_qr_scan"}, "type": "electric_scooter"}, {"name": "0c1054b614c55aea597f55fdfe98b22b", "is_reserved": 0, "fusion_lon": 0.0, "bike_id": "0c1054b614c55aea597f55fdfe98b22b", "lat": 38.9091745, "is_disabled": 0, "lon": -77.07268133333334, "fusion_lat": 0.0, "rental_uris": {"ios": "https://dc.lft.to/lastmile_qr_scan", "android": "https://dc.lft.to/lastmile_qr_scan"}, "type": "electric_scooter"}, {"name": "1eca531581f3cb4e5e892e0522b3db64", "is_reserved": 0, "fusion_lon": 0.0, "bike_id": "1eca531581f3cb4e5e892e0522b3db64", "lat": 38.9325295, "is_disabled": 0, "lon": -77.0327475, "fusion_lat": 0.0, "rental_uris": {"ios": "https://dc.lft.to/lastmile_qr_scan", "android": "https://dc.lft.to/lastmile_qr_scan"}, "type": "electric_scooter"}, {"name": "ac26d825a779ed5e788a8cbda4710cbc", "is_reserved": 0, "fusion_lon": 0.0, "bike_id": "ac26d825a779ed5e788a8cbda4710cbc", "lat": 38.89723716666666, "is_disabled": 0, "lon": -77.0300045, "fusion_lat": 0.0, "rental_uris": {"ios": "https://dc.lft.to/lastmile_qr_scan", "android": "https://dc.lft.to/lastmile_qr_scan"}, "type": "electric_scooter"}, {"name": "e2996dd05b73bdd84b5970c27cc5e7a9", "is_reserved": 0, "fusion_lon": 0.0, "bike_id": "e2996dd05b73bdd84b5970c27cc5e7a9", "lat": 38.902157833333334, "is_disabled": 0, "lon": -77.02828816666667, "fusion_lat": 0.0, "rental_uris": {"ios": "https://dc.lft.to/lastmile_qr_scan", "android": "https://dc.lft.to/lastmile_qr_scan"}, "type": "electric_scooter"}, {"name": "cfc5c79d6dd6af7789ef717fa7837e47", "is_reserved": 0, "fusion_lon": 0.0, "bike_id": "cfc5c79d6dd6af7789ef717fa7837e47", "lat": 38.93069916666666, "is_disabled": 0, "lon": -77.021583, "fusion_lat": 0.0, "rental_uris": {"ios": "https://dc.lft.to/lastmile_qr_scan", "android": "https://dc.lft.to/lastmile_qr_scan"}, "type": "electric_scooter"}, {"name": "4455e51bab268fddb3e455393e6da6c0", "is_reserved": 0, "fusion_lon": 0.0, "bike_id": "4455e51bab268fddb3e455393e6da6c0", "lat": 38.90395016666667, "is_disabled": 0, "lon": -77.04344166666667, "fusion_lat": 0.0, "rental_uris": {"ios": "https://dc.lft.to/lastmile_qr_scan", "android": "https://dc.lft.to/lastmile_qr_scan"}, "type": "electric_scooter"}, {"name": "0d1f076d6dbd76b6fc198bf4134ea152", "is_reserved": 0, "fusion_lon": 0.0, "bike_id": "0d1f076d6dbd76b6fc198bf4134ea152", "lat": 38.8923135, "is_disabled": 0, "lon": -77.031984, "fusion_lat": 0.0, "rental_uris": {"ios": "https://dc.lft.to/lastmile_qr_scan", "android": "https://dc.lft.to/lastmile_qr_scan"}, "type": "electric_scooter"}, {"name": "96dbc5cf83318c16374c7cd56003d2ab", "is_reserved": 0, "fusion_lon": 0.0, "bike_id": "96dbc5cf83318c16374c7cd56003d2ab", "lat": 38.922398, "is_disabled": 0, "lon": -77.02815333333334, "fusion_lat": 0.0, "rental_uris": {"ios": "https://dc.lft.to/lastmile_qr_scan", "android": "https://dc.lft.to/lastmile_qr_scan"}, "type": "electric_scooter"}, {"name": "851207980a7d21d6e0edf035189baf8f", "is_reserved": 0, "fusion_lon": 0.0, "bike_id": "851207980a7d21d6e0edf035189baf8f", "lat": 38.92063483333333, "is_disabled": 0, "lon": -77.04193566666666, "fusion_lat": 0.0, "rental_uris": {"ios": "https://dc.lft.to/lastmile_qr_scan", "android": "https://dc.lft.to/lastmile_qr_scan"}, "type": "electric_scooter"}, {"name": "a7dfb732e298acc7bda1203d3e8f65ae", "is_reserved": 0, "fusion_lon": 0.0, "bike_id": "a7dfb732e298acc7bda1203d3e8f65ae", "lat": 38.92408733333333, "is_disabled": 0, "lon": -77.02023483333333, "fusion_lat": 0.0, "rental_uris": {"ios": "https://dc.lft.to/lastmile_qr_scan", "android": "https://dc.lft.to/lastmile_qr_scan"}, "type": "electric_scooter"}, {"name": "826adba4598be64ce2edadf96758aa7a", "is_reserved": 0, "fusion_lon": 0.0, "bike_id": "826adba4598be64ce2edadf96758aa7a", "lat": 38.92374183333333, "is_disabled": 0, "lon": -77.02131733333333, "fusion_lat": 0.0, "rental_uris": {"ios": "https://dc.lft.to/lastmile_qr_scan", "android": "https://dc.lft.to/lastmile_qr_scan"}, "type": "electric_scooter"}, {"name": "fd5b9f1f05fc50487761f0a58f8bb020", "is_reserved": 0, "fusion_lon": 0.0, "bike_id": "fd5b9f1f05fc50487761f0a58f8bb020", "lat": 39.03420916666666, "is_disabled": 0, "lon": -77.04299466666667, "fusion_lat": 0.0, "rental_uris": {"ios": "https://dc.lft.to/lastmile_qr_scan", "android": "https://dc.lft.to/lastmile_qr_scan"}, "type": "electric_bike"}, {"name": "88ca81fe3f601815db3a3354c6eb505b", "is_reserved": 0, "fusion_lon": 0.0, "bike_id": "88ca81fe3f601815db3a3354c6eb505b", "lat": 38.91928516666667, "is_disabled": 0, "lon": -77.03950133333333, "fusion_lat": 0.0, "rental_uris": {"ios": "https://dc.lft.to/lastmile_qr_scan", "android": "https://dc.lft.to/lastmile_qr_scan"}, "type": "electric_scooter"}, {"name": "c281953f0a26b0729234f5cf7bc57657", "is_reserved": 0, "fusion_lon": 0.0, "bike_id": "c281953f0a26b0729234f5cf7bc57657", "lat": 38.93211083333333, "is_disabled": 0, "lon": -77.0266215, "fusion_lat": 0.0, "rental_uris": {"ios": "https://dc.lft.to/lastmile_qr_scan", "android": "https://dc.lft.to/lastmile_qr_scan"}, "type": "electric_scooter"}, {"name": "088d0d6f3417464d4d9b8a534331e07e", "is_reserved": 0, "fusion_lon": 0.0, "bike_id": "088d0d6f3417464d4d9b8a534331e07e", "lat": 38.898649, "is_disabled": 0, "lon": -77.03949883333334, "fusion_lat": 0.0, "rental_uris": {"ios": "https://dc.lft.to/lastmile_qr_scan", "android": "https://dc.lft.to/lastmile_qr_scan"}, "type": "electric_scooter"}, {"name": "ada8115de7b97295cf8d8bd37cdfa6ec", "is_reserved": 0, "fusion_lon": 0.0, "bike_id": "ada8115de7b97295cf8d8bd37cdfa6ec", "lat": 38.873167, "is_disabled": 0, "lon": -77.010681, "fusion_lat": 0.0, "rental_uris": {"ios": "https://dc.lft.to/lastmile_qr_scan", "android": "https://dc.lft.to/lastmile_qr_scan"}, "type": "electric_scooter"}, {"name": "ec40b4f427efe226a8feaf3b475452ff", "is_reserved": 0, "fusion_lon": 0.0, "bike_id": "ec40b4f427efe226a8feaf3b475452ff", "lat": 38.907089166666665, "is_disabled": 0, "lon": -77.0280685, "fusion_lat": 0.0, "rental_uris": {"ios": "https://dc.lft.to/lastmile_qr_scan", "android": "https://dc.lft.to/lastmile_qr_scan"}, "type": "electric_scooter"}, {"name": "da936567cf424dc02e5222db5e993638", "is_reserved": 0, "fusion_lon": 0.0, "bike_id": "da936567cf424dc02e5222db5e993638", "lat": 38.87791466666667, "is_disabled": 0, "lon": -77.02189783333333, "fusion_lat": 0.0, "rental_uris": {"ios": "https://dc.lft.to/lastmile_qr_scan", "android": "https://dc.lft.to/lastmile_qr_scan"}, "type": "electric_scooter"}, {"name": "c49e55f625398658eb11c7e33ddd56ac", "is_reserved": 0, "fusion_lon": 0.0, "bike_id": "c49e55f625398658eb11c7e33ddd56ac", "lat": 38.92440083333334, "is_disabled": 0, "lon": -77.0520215, "fusion_lat": 0.0, "rental_uris": {"ios": "https://dc.lft.to/lastmile_qr_scan", "android": "https://dc.lft.to/lastmile_qr_scan"}, "type": "electric_scooter"}, {"name": "b1186edc1692ccb151b1570b913a7958", "is_reserved": 0, "fusion_lon": 0.0, "bike_id": "b1186edc1692ccb151b1570b913a7958", "lat": 38.91922016666667, "is_disabled": 0, "lon": -77.033395, "fusion_lat": 0.0, "rental_uris": {"ios": "https://dc.lft.to/lastmile_qr_scan", "android": "https://dc.lft.to/lastmile_qr_scan"}, "type": "electric_scooter"}, {"name": "0aaeaa49a9c2301ea81569f0de5503a7", "is_reserved": 0, "fusion_lon": 0.0, "bike_id": "0aaeaa49a9c2301ea81569f0de5503a7", "lat": 38.89760233333333, "is_disabled": 0, "lon": -77.0549345, "fusion_lat": 0.0, "rental_uris": {"ios": "https://dc.lft.to/lastmile_qr_scan", "android": "https://dc.lft.to/lastmile_qr_scan"}, "type": "electric_scooter"}, {"name": "ddb52cdc78a8ca23194a7f5439b1b6ca", "is_reserved": 0, "fusion_lon": 0.0, "bike_id": "ddb52cdc78a8ca23194a7f5439b1b6ca", "lat": 38.920511833333336, "is_disabled": 0, "lon": -77.02446233333333, "fusion_lat": 0.0, "rental_uris": {"ios": "https://dc.lft.to/lastmile_qr_scan", "android": "https://dc.lft.to/lastmile_qr_scan"}, "type": "electric_scooter"}, {"name": "86fb6e1e5a9a53a000df20f3866d5019", "is_reserved": 0, "fusion_lon": 0.0, "bike_id": "86fb6e1e5a9a53a000df20f3866d5019", "lat": 38.91785766666667, "is_disabled": 0, "lon": -77.0237405, "fusion_lat": 0.0, "rental_uris": {"ios": "https://dc.lft.to/lastmile_qr_scan", "android": "https://dc.lft.to/lastmile_qr_scan"}, "type": "electric_scooter"}, {"name": "1c23be82da027788f3038d175f11718f", "is_reserved": 0, "fusion_lon": 0.0, "bike_id": "1c23be82da027788f3038d175f11718f", "lat": 38.90223666666667, "is_disabled": 0, "lon": -77.03254983333333, "fusion_lat": 0.0, "rental_uris": {"ios": "https://dc.lft.to/lastmile_qr_scan", "android": "https://dc.lft.to/lastmile_qr_scan"}, "type": "electric_scooter"}, {"name": "31cdaddc4f8b5e7f20df6b61eca66595", "is_reserved": 0, "fusion_lon": 0.0, "bike_id": "31cdaddc4f8b5e7f20df6b61eca66595", "lat": 38.91713216666667, "is_disabled": 0, "lon": -77.0921265, "fusion_lat": 0.0, "rental_uris": {"ios": "https://dc.lft.to/lastmile_qr_scan", "android": "https://dc.lft.to/lastmile_qr_scan"}, "type": "electric_scooter"}, {"name": "1fb0a37301678b7656330a16a1bb5bc0", "is_reserved": 0, "fusion_lon": 0.0, "bike_id": "1fb0a37301678b7656330a16a1bb5bc0", "lat": 38.89840516666667, "is_disabled": 0, "lon": -77.04338716666666, "fusion_lat": 0.0, "rental_uris": {"ios": "https://dc.lft.to/lastmile_qr_scan", "android": "https://dc.lft.to/lastmile_qr_scan"}, "type": "electric_bike"}, {"name": "8db9656cb26f8e87905746f99478f253", "is_reserved": 0, "fusion_lon": 0.0, "bike_id": "8db9656cb26f8e87905746f99478f253", "lat": 38.8867635, "is_disabled": 0, "lon": -77.0020895, "fusion_lat": 0.0, "rental_uris": {"ios": "https://dc.lft.to/lastmile_qr_scan", "android": "https://dc.lft.to/lastmile_qr_scan"}, "type": "electric_bike"}, {"name": "4a6d4747221234d1308e4fcc25c4fb4f", "is_reserved": 0, "fusion_lon": 0.0, "bike_id": "4a6d4747221234d1308e4fcc25c4fb4f", "lat": 38.898524, "is_disabled": 0, "lon": -77.03919, "fusion_lat": 0.0, "rental_uris": {"ios": "https://dc.lft.to/lastmile_qr_scan", "android": "https://dc.lft.to/lastmile_qr_scan"}, "type": "electric_scooter"}, {"name": "c08c4225a6fb47714f4d7cfdf9a9208b", "is_reserved": 0, "fusion_lon": 0.0, "bike_id": "c08c4225a6fb47714f4d7cfdf9a9208b", "lat": 38.90291833333333, "is_disabled": 0, "lon": -77.0468935, "fusion_lat": 0.0, "rental_uris": {"ios": "https://dc.lft.to/lastmile_qr_scan", "android": "https://dc.lft.to/lastmile_qr_scan"}, "type": "electric_scooter"}, {"name": "4e4510c3fe995fa0794fa1c4c5628195", "is_reserved": 0, "fusion_lon": 0.0, "bike_id": "4e4510c3fe995fa0794fa1c4c5628195", "lat": 38.95362333333333, "is_disabled": 0, "lon": -76.98091333333333, "fusion_lat": 0.0, "rental_uris": {"ios": "https://dc.lft.to/lastmile_qr_scan", "android": "https://dc.lft.to/lastmile_qr_scan"}, "type": "electric_bike"}, {"name": "4a1a0420e8fc978e38e45940315ccdfe", "is_reserved": 0, "fusion_lon": 0.0, "bike_id": "4a1a0420e8fc978e38e45940315ccdfe", "lat": 38.89503116666667, "is_disabled": 0, "lon": -77.04672416666666, "fusion_lat": 0.0, "rental_uris": {"ios": "https://dc.lft.to/lastmile_qr_scan", "android": "https://dc.lft.to/lastmile_qr_scan"}, "type": "electric_scooter"}, {"name": "d42d2800c4fad83f314be84bdce29097", "is_reserved": 0, "fusion_lon": 0.0, "bike_id": "d42d2800c4fad83f314be84bdce29097", "lat": 38.922474666666666, "is_disabled": 0, "lon": -77.0083035, "fusion_lat": 0.0, "rental_uris": {"ios": "https://dc.lft.to/lastmile_qr_scan", "android": "https://dc.lft.to/lastmile_qr_scan"}, "type": "electric_scooter"}, {"name": "538885d4d556e73f9770c48384e5a6d3", "is_reserved": 0, "fusion_lon": 0.0, "bike_id": "538885d4d556e73f9770c48384e5a6d3", "lat": 38.90860516666667, "is_disabled": 0, "lon": -77.01834, "fusion_lat": 0.0, "rental_uris": {"ios": "https://dc.lft.to/lastmile_qr_scan", "android": "https://dc.lft.to/lastmile_qr_scan"}, "type": "electric_scooter"}, {"name": "389d7e44f45057f90a1914e02b38d26a", "is_reserved": 0, "fusion_lon": 0.0, "bike_id": "389d7e44f45057f90a1914e02b38d26a", "lat": 38.90064683333333, "is_disabled": 0, "lon": -77.0458865, "fusion_lat": 0.0, "rental_uris": {"ios": "https://dc.lft.to/lastmile_qr_scan", "android": "https://dc.lft.to/lastmile_qr_scan"}, "type": "electric_scooter"}, {"name": "75f4c0d74ccd084ae007b8655b09e11f", "is_reserved": 0, "fusion_lon": 0.0, "bike_id": "75f4c0d74ccd084ae007b8655b09e11f", "lat": 38.892397, "is_disabled": 0, "lon": -77.031885, "fusion_lat": 0.0, "rental_uris": {"ios": "https://dc.lft.to/lastmile_qr_scan", "android": "https://dc.lft.to/lastmile_qr_scan"}, "type": "electric_scooter"}, {"name": "b300f47d7b967f51c8898cd7d893cbe8", "is_reserved": 0, "fusion_lon": 0.0, "bike_id": "b300f47d7b967f51c8898cd7d893cbe8", "lat": 38.884344166666665, "is_disabled": 0, "lon": -76.99911633333333, "fusion_lat": 0.0, "rental_uris": {"ios": "https://dc.lft.to/lastmile_qr_scan", "android": "https://dc.lft.to/lastmile_qr_scan"}, "type": "electric_scooter"}, {"name": "04c3f95c03401919849e9e6f375bb8de", "is_reserved": 0, "fusion_lon": 0.0, "bike_id": "04c3f95c03401919849e9e6f375bb8de", "lat": 38.89162233333333, "is_disabled": 0, "lon": -76.991483, "fusion_lat": 0.0, "rental_uris": {"ios": "https://dc.lft.to/lastmile_qr_scan", "android": "https://dc.lft.to/lastmile_qr_scan"}, "type": "electric_scooter"}, {"name": "f5e8ed77766be4330e4184917aeafcb9", "is_reserved": 0, "fusion_lon": 0.0, "bike_id": "f5e8ed77766be4330e4184917aeafcb9", "lat": 38.90015116666667, "is_disabled": 0, "lon": -76.99854083333334, "fusion_lat": 0.0, "rental_uris": {"ios": "https://dc.lft.to/lastmile_qr_scan", "android": "https://dc.lft.to/lastmile_qr_scan"}, "type": "electric_scooter"}, {"name": "d57581eefe71b58dd40314554194784b", "is_reserved": 0, "fusion_lon": 0.0, "bike_id": "d57581eefe71b58dd40314554194784b", "lat": 38.89618466666667, "is_disabled": 0, "lon": -77.02211633333333, "fusion_lat": 0.0, "rental_uris": {"ios": "https://dc.lft.to/lastmile_qr_scan", "android": "https://dc.lft.to/lastmile_qr_scan"}, "type": "electric_scooter"},