{"data": {"bikes": [{"lat": 38.87626216666666, "is_disabled": 0, "type": "electric_scooter", "lon": -76.96520566666666, "bike_id": "4831006996496c6c4258b68290f51e84", "fusion_lat": 0.0, "name": "4831006996496c6c4258b68290f51e84", "is_reserved": 0, "rental_uris": {"android": "https://dc.lft.to/lastmile_qr_scan", "ios": "https://dc.lft.to/lastmile_qr_scan"}, "fusion_lon": 0.0}, {"lat": 38.9183735, "is_disabled": 0, "type": "electric_scooter", "lon": -77.02288333333334, "bike_id": "d9736f2a1cbb5fe45e66012457c280a2", "fusion_lat": 0.0, "name": "d9736f2a1cbb5fe45e66012457c280a2", "is_reserved": 0, "rental_uris": {"android": "https://dc.lft.to/lastmile_qr_scan", "ios": "https://dc.lft.to/lastmile_qr_scan"}, "fusion_lon": 0.0}, {"lat": 38.91839616666667, "is_disabled": 0, "type": "electric_bike", "lon": -77.023013, "bike_id": "835c6d974b1eeecf8cfeef9eafa899dc", "fusion_lat": 0.0, "name": "835c6d974b1eeecf8cfeef9eafa899dc", "is_reserved": 0, "rental_uris": {"android": "https://dc.lft.to/lastmile_qr_scan", "ios": "https://dc.lft.to/lastmile_qr_scan"}, "fusion_lon": 0.0}, {"lat": 38.894863, "is_disabled": 0, "type": "electric_scooter", "lon": -77.02409866666666, "bike_id": "b374e325842cee2f8f9bca63312fd219", "fusion_lat": 0.0, "name": "b374e325842cee2f8f9bca63312fd219", "is_reserved": 0, "rental_uris": {"android": "https://dc.lft.to/lastmile_qr_scan", "ios": "https://dc.lft.to/lastmile_qr_scan"}, "fusion_lon": 0.0}, {"lat": 38.90057816666667, "is_disabled": 0, "type": "electric_scooter", "lon": -77.04418016666666, "bike_id": "b818e8e049fd5f282c25e28cd651df4d", "fusion_lat": 0.0, "name": "b818e8e049fd5f282c25e28cd651df4d", "is_reserved": 0, "rental_uris": {"android": "https://dc.lft.to/lastmile_qr_scan", "ios": "https://dc.lft.to/lastmile_qr_scan"}, "fusion_lon": 0.0}, {"lat": 38.907202, "is_disabled": 0, "type": "electric_scooter", "lon": -77.04780133333334, "bike_id": "87b601d1aa0cfa5e6368a26893e935bc", "fusion_lat": 0.0, "name": "87b601d1aa0cfa5e6368a26893e935bc", "is_reserved": 0, "rental_uris": {"android": "https://dc.lft.to/lastmile_qr_scan", "ios": "https://dc.lft.to/lastmile_qr_scan"}, "fusion_lon": 0.0}, {"lat": 38.941685666666665, "is_disabled": 0, "type": "electric_scooter", "lon": -77.03279766666667, "bike_id": "cb82c1478c339bf6e1eb18bea58dc6b0", "fusion_lat": 0.0, "name": "cb82c1478c339bf6e1eb18bea58dc6b0", "is_reserved": 0, "rental_uris": {"android": "https://dc.lft.to/lastmile_qr_scan", "ios": "https://dc.lft.to/lastmile_qr_scan"}, "fusion_lon": 0.0}, {"lat": 38.902824, "is_disabled": 0, "type": "electric_scooter", "lon": -77.04667566666667, "bike_id": "89943e6e9800eba90a8cf741a7fd5ab6", "fusion_lat": 0.0, "name": "89943e6e9800eba90a8cf741a7fd5ab6", "is_reserved": 0, "rental_uris": {"android": "https://dc.lft.to/lastmile_qr_scan", "ios": "https://dc.lft.to/lastmile_qr_scan"}, "fusion_lon": 0.0}, {"lat": 38.892267, "is_disabled": 0, "type": "electric_scooter", "lon": -77.050014, "bike_id": "1506eb34d2e8ebe6f4671b9e19ba956e", "fusion_lat": 0.0, "name": "1506eb34d2e8ebe6f4671b9e19ba956e", "is_reserved": 0, "rental_uris": {"android": "https://dc.lft.to/lastmile_qr_scan", "ios": "https://dc.lft.to/lastmile_qr_scan"}, "fusion_lon": 0.0}, {"lat": 38.94162, "is_disabled": 0, "type": "electric_scooter", "lon": -77.03298833333334, "bike_id": "551686188b9936802bfde31664c154ed", "fusion_lat": 0.0, "name": "551686188b9936802bfde31664c154ed", "is_reserved": 0, "rental_uris": {"android": "https://dc.lft.to/lastmile_qr_scan", "ios": "https://dc.lft.to/lastmile_qr_scan"}, "fusion_lon": 0.0}, {"lat": 38.873412333333334, "is_disabled": 0, "type": "electric_scooter", "lon": -76.99164333333333, "bike_id": "149ce211a1c088abf8b410c6db637d35", "fusion_lat": 0.0, "name": "149ce211a1c088abf8b410c6db637d35", "is_reserved": 0, "rental_uris": {"android": "https://dc.lft.to/lastmile_qr_scan", "ios": "https://dc.lft.to/lastmile_qr_scan"}, "fusion_lon": 0.0}, {"lat": 38.95085483333333, "is_disabled": 0, "type": "electric_scooter", "lon": -77.0664745, "bike_id": "a8533b05537055a141ca23dd06797a63", "fusion_lat": 0.0, "name": "a8533b05537055a141ca23dd06797a63", "is_reserved": 0, "rental_uris": {"android": "https://dc.lft.to/lastmile_qr_scan", "ios": "https://dc.lft.to/lastmile_qr_scan"}, "fusion_lon": 0.0}, {"lat": 38.93129183333333, "is_disabled": 0, "type": "electric_scooter", "lon": -77.03251266666666, "bike_id": "4e6dd8071d43e862af5ea4cb031eace7", "fusion_lat": 0.0, "name": "4e6dd8071d43e862af5ea4cb031eace7", "is_reserved": 0, "rental_uris": {"android": "https://dc.lft.to/lastmile_qr_scan", "ios": "https://dc.lft.to/lastmile_qr_scan"}, "fusion_lon": 0.0}, {"lat": 38.907400833333334, "is_disabled": 0, "type": "electric_scooter", "lon": -77.04147833333333, "bike_id": "e985a6f58035ed915b1ef06f1df0b67d", "fusion_lat": 0.0, "name": "e985a6f58035ed915b1ef06f1df0b67d", "is_reserved": 0, "rental_uris": {"android": "https://dc.lft.to/lastmile_qr_scan", "ios": "https://dc.lft.to/lastmile_qr_scan"}, "fusion_lon": 0.0}, {"lat": 38.870618, "is_disabled": 0, "type": "electric_scooter", "lon": -77.00843316666666, "bike_id": "ba4e77e1b0ea6f1a1feae4a8d6317bce", "fusion_lat": 0.0, "name": "ba4e77e1b0ea6f1a1feae4a8d6317bce", "is_reserved": 0, "rental_uris": {"android": "https://dc.lft.to/lastmile_qr_scan", "ios": "https://dc.lft.to/lastmile_qr_scan"}, "fusion_lon": 0.0}, {"lat": 38.91888133333333, "is_disabled": 0, "type": "electric_scooter", "lon": -77.04127783333334, "bike_id": "fa9598c6c2506c91f88701773c739520", "fusion_lat": 0.0, "name": "fa9598c6c2506c91f88701773c739520", "is_reserved": 0, "rental_uris": {"android": "https://dc.lft.to/lastmile_qr_scan", "ios": "https://dc.lft.to/lastmile_qr_scan"}, "fusion_lon": 0.0}, {"lat": 38.8998195, "is_disabled": 0, "type": "electric_scooter", "lon": -77.021766, "bike_id": "7e118e354d8a29b14eabb7a854d2821c", "fusion_lat": 0.0, "name": "7e118e354d8a29b14eabb7a854d2821c", "is_reserved": 0, "rental_uris": {"android": "https://dc.lft.to/lastmile_qr_scan", "ios": "https://dc.lft.to/lastmile_qr_scan"}, "fusion_lon": 0.0}, {"lat": 38.893951, "is_disabled": 0, "type": "electric_scooter", "lon": -77.021742, "bike_id": "a182d689f57e493250e98f00df4bba34", "fusion_lat": 0.0, "name": "a182d689f57e493250e98f00df4bba34", "is_reserved": 0, "rental_uris": {"android": "https://dc.lft.to/lastmile_qr_scan", "ios": "https://dc.lft.to/lastmile_qr_scan"}, "fusion_lon": 0.0}, {"lat": 38.88444633333334, "is_disabled": 0, "type": "electric_scooter", "lon": -77.01761166666667, "bike_id": "3e1b1285b8bfda311da4168bfb78ba78", "fusion_lat": 0.0, "name": "3e1b1285b8bfda311da4168bfb78ba78", "is_reserved": 0, "rental_uris": {"android": "https://dc.lft.to/lastmile_qr_scan", "ios": "https://dc.lft.to/lastmile_qr_scan"}, "fusion_lon": 0.0}, {"lat": 38.90982283333334, "is_disabled": 0, "type": "electric_scooter", "lon": -77.02413666666666, "bike_id": "bf529df68d4c7f5ddc37b7c57f585dd0", "fusion_lat": 0.0, "name": "bf529df68d4c7f5ddc37b7c57f585dd0", "is_reserved": 0, "rental_uris": {"android": "https://dc.lft.to/lastmile_qr_scan", "ios": "https://dc.lft.to/lastmile_qr_scan"}, "fusion_lon": 0.0}, {"lat": 38.881343, "is_disabled": 0, "type": "electric_scooter", "lon": -77.02709516666667, "bike_id": "4d50e83f46c36e061939d43552538a32", "fusion_lat": 0.0, "name": "4d50e83f46c36e061939d43552538a32", "is_reserved": 0, "rental_uris": {"android": "https://dc.lft.to/lastmile_qr_scan", "ios": "https://dc.lft.to/lastmile_qr_scan"}, "fusion_lon": 0.0}, {"lat": 38.899667666666666, "is_disabled": 0, "type": "electric_scooter", "lon": -76.92657033333333, "bike_id": "dcdcd46b85e4870b7dfb7f2a98dabfbe", "fusion_lat": 0.0, "name": "dcdcd46b85e4870b7dfb7f2a98dabfbe", "is_reserved": 0, "rental_uris": {"android": "https://dc.lft.to/lastmile_qr_scan", "ios": "https://dc.lft.to/lastmile_qr_scan"}, "fusion_lon": 0.0}, {"lat": 38.90701116666666, "is_disabled": 0, "type": "electric_scooter", "lon": -77.0417505, "bike_id": "0ba0261074a75248a30cfd0db69b837d", "fusion_lat": 0.0, "name": "0ba0261074a75248a30cfd0db69b837d", "is_reserved": 0, "rental_uris": {"android": "https://dc.lft.to/lastmile_qr_scan", "ios": "https://dc.lft.to/lastmile_qr_scan"}, "fusion_lon": 0.0}, {"lat": 38.91268183333333, "is_disabled": 0, "type": "electric_scooter", "lon": -77.037421, "bike_id": "86ccd1ccbd1a8695f5c621b799338924", "fusion_lat": 0.0, "name": "86ccd1ccbd1a8695f5c621b799338924", "is_reserved": 0, "rental_uris": {"android": "https://dc.lft.to/lastmile_qr_scan", "ios": "https://dc.lft.to/lastmile_qr_scan"}, "fusion_lon": 0.0}, {"lat": 38.90008533333334, "is_disabled": 0, "type": "electric_scooter", "lon": -77.04484683333334, "bike_id": "510e516d5f984596df196a8db83c1bdd", "fusion_lat": 0.0, "name": "510e516d5f984596df196a8db83c1bdd", "is_reserved": 0, "rental_uris": {"android": "https://dc.lft.to/lastmile_qr_scan", "ios": "https://dc.lft.to/lastmile_qr_scan"}, "fusion_lon": 0.0}, {"lat": 38.9232045, "is_disabled": 0, "type": "electric_scooter", "lon": -77.027164, "bike_id": "bcb75c70024d4183644a12e73c61f4ec", "fusion_lat": 0.0, "name": "bcb75c70024d4183644a12e73c61f4ec", "is_reserved": 0, "rental_uris": {"android": "https://dc.lft.to/lastmile_qr_scan", "ios": "https://dc.lft.to/lastmile_qr_scan"}, "fusion_lon": 0.0}, {"lat": 38.900602, "is_disabled": 0, "type": "electric_scooter", "lon": -77.02592183333333, "bike_id": "6634f699194669d30750bdbcdd37095b", "fusion_lat": 0.0, "name": "6634f699194669d30750bdbcdd37095b", "is_reserved": 0, "rental_uris": {"android": "https://dc.lft.to/lastmile_qr_scan", "ios": "https://dc.lft.to/lastmile_qr_scan"}, "fusion_lon": 0.0}, {"lat": 39.05194383333333, "is_disabled": 0, "type": "electric_bike", "lon": -77.10917133333334, "bike_id": "52b05dde40c03aa6ae18b981c34884ec", "fusion_lat": 0.0, "name": "52b05dde40c03aa6ae18b981c34884ec", "is_reserved": 0, "rental_uris": {"android": "https://dc.lft.to/lastmile_qr_scan", "ios": "https://dc.lft.to/lastmile_qr_scan"}, "fusion_lon": 0.0}, {"lat": 38.916251333333335, "is_disabled": 0, "type": "electric_scooter", "lon": -77.04154266666667, "bike_id": "5c84054cdf9d60c1b35f2627096a3cc1", "fusion_lat": 0.0, "name": "5c84054cdf9d60c1b35f2627096a3cc1", "is_reserved": 0, "rental_uris": {"android": "https://dc.lft.to/lastmile_qr_scan", "ios": "https://dc.lft.to/lastmile_qr_scan"}, "fusion_lon": 0.0}, {"lat": 38.892252666666664, "is_disabled": 0, "type": "electric_scooter", "lon": -76.93287066666667, "bike_id": "7ee318e26c4631402c0410e7e4b14bac", "fusion_lat": 0.0, "name": "7ee318e26c4631402c0410e7e4b14bac", "is_reserved": 0, "rental_uris": {"android": "https://dc.lft.to/lastmile_qr_scan", "ios": "https://dc.lft.to/lastmile_qr_scan"}, "fusion_lon": 0.0}, {"lat": 38.884358166666665, "is_disabled": 0, "type": "electric_scooter", "lon": -76.95752483333334, "bike_id": "bbe7dc6739455b7291a76dd4f3cf84b0", "fusion_lat": 0.0, "name": "bbe7dc6739455b7291a76dd4f3cf84b0", "is_reserved": 0, "rental_uris": {"android": "https://dc.lft.to/lastmile_qr_scan", "ios": "https://dc.lft.to/lastmile_qr_scan"}, "fusion_lon": 0.0}, {"lat": 38.945162833333335, "is_disabled": 0, "type": "electric_scooter", "lon": -77.02172716666666, "bike_id": "bfcfa6b41a3eed06b95bdba90144753f", "fusion_lat": 0.0, "name": "bfcfa6b41a3eed06b95bdba90144753f", "is_reserved": 0, "rental_uris": {"android": "https://dc.lft.to/lastmile_qr_scan", "ios": "https://dc.lft.to/lastmile_qr_scan"}, "fusion_lon": 0.0}, {"lat": 38.91787633333333, "is_disabled": 0, "type": "electric_scooter", "lon": -77.02299116666667, "bike_id": "fd1ca681686c1aee41933ae9d9611671", "fusion_lat": 0.0, "name": "fd1ca681686c1aee41933ae9d9611671", "is_reserved": 0, "rental_uris": {"android": "https://dc.lft.to/lastmile_qr_scan", "ios": "https://dc.lft.to/lastmile_qr_scan"}, "fusion_lon": 0.0}, {"lat": 38.91175583333333, "is_disabled": 0, "type": "electric_bike", "lon": -77.011433, "bike_id": "f51bbe6f25887c383ddee0d00f2acbfa", "fusion_lat": 0.0, "name": "f51bbe6f25887c383ddee0d00f2acbfa", "is_reserved": 0, "rental_uris": {"android": "https://dc.lft.to/lastmile_qr_scan", "ios": "https://dc.lft.to/lastmile_qr_scan"}, "fusion_lon": 0.0}, {"lat": 38.90404783333334, "is_disabled": 0, "type": "electric_scooter", "lon": -77.02501766666667, "bike_id": "cab4c9bbd7fe4a82b5439b891b65439a", "fusion_lat": 0.0, "name": "cab4c9bbd7fe4a82b5439b891b65439a", "is_reserved": 0, "rental_uris": {"android": "https://dc.lft.to/lastmile_qr_scan", "ios": "https://dc.lft.to/lastmile_qr_scan"}, "fusion_lon": 0.0}, {"lat": 38.89751283333333, "is_disabled": 0, "type": "electric_scooter", "lon": -77.029763, "bike_id": "8eae028a4e59df1e24b9b361b6ab2d0a", "fusion_lat": 0.0, "name": "8eae028a4e59df1e24b9b361b6ab2d0a", "is_reserved": 0, "rental_uris": {"android": "https://dc.lft.to/lastmile_qr_scan", "ios": "https://dc.lft.to/lastmile_qr_scan"}, "fusion_lon": 0.0}, {"lat": 38.873681166666664, "is_disabled": 0, "type": "electric_bike", "lon": -77.0005275, "bike_id": "5995f3c6b1d7abf74bb5ef2fffd19c82", "fusion_lat": 0.0, "name": "5995f3c6b1d7abf74bb5ef2fffd19c82", "is_reserved": 0, "rental_uris": {"android": "https://dc.lft.to/lastmile_qr_scan", "ios": "https://dc.lft.to/lastmile_qr_scan"}, "fusion_lon": 0.0}, {"lat": 38.8983865, "is_disabled": 0, "type": "electric_scooter", "lon": -77.026396, "bike_id": "78eaf36c64c1865a06b2f43967c3e6cc", "fusion_lat": 0.0, "name": "78eaf36c64c1865a06b2f43967c3e6cc", "is_reserved": 0, "rental_uris": {"android": "https://dc.lft.to/lastmile_qr_scan", "ios": "https://dc.lft.to/lastmile_qr_scan"}, "fusion_lon": 0.0}, {"lat": 38.932176166666665, "is_disabled": 0, "type": "electric_scooter", "lon": -77.027295, "bike_id": "fb412cc7b152393bb02a46e67ffe3a0c", "fusion_lat": 0.0, "name": "fb412cc7b152393bb02a46e67ffe3a0c", "is_reserved": 0, "rental_uris": {"android": "https://dc.lft.to/lastmile_qr_scan", "ios": "https://dc.lft.to/lastmile_qr_scan"}, "fusion_lon": 0.0}, {"lat": 38.88972, "is_disabled": 0, "type": "electric_scooter", "lon": -76.93738283333333, "bike_id": "f3c52e52a8bdfadc2d7a3f638d835e85", "fusion_lat": 0.0, "name": "f3c52e52a8bdfadc2d7a3f638d835e85", "is_reserved": 0, "rental_uris": {"android": "https://dc.lft.to/lastmile_qr_scan", "ios": "https://dc.lft.to/lastmile_qr_scan"}, "fusion_lon": 0.0}, {"lat": 38.922414, "is_disabled": 0, "type": "electric_scooter", "lon": -77.04210683333334, "bike_id": "b8a4772c2dcb433204bebc2491e87d8f", "fusion_lat": 0.0, "name": "b8a4772c2dcb433204bebc2491e87d8f", "is_reserved": 0, "rental_uris": {"android": "https://dc.lft.to/lastmile_qr_scan", "ios": "https://dc.lft.to/lastmile_qr_scan"}, "fusion_lon": 0.0}, {"lat": 38.90022883333334, "is_disabled": 0, "type": "electric_scooter", "lon": -77.00021616666666, "bike_id": "cc155920c254861512f4806d496861c8", "fusion_lat": 0.0, "name": "cc155920c254861512f4806d496861c8", "is_reserved": 0, "rental_uris": {"android": "https://dc.lft.to/lastmile_qr_scan", "ios": "https://dc.lft.to/lastmile_qr_scan"}, "fusion_lon": 0.0}, {"lat": 38.93221616666666, "is_disabled": 0, "type": "electric_scooter", "lon": -76.99599983333333, "bike_id": "bca516962546af930c50bf50adbee262", "fusion_lat": 0.0, "name": "bca516962546af930c50bf50adbee262", "is_reserved": 0, "rental_uris": {"android": "https://dc.lft.to/lastmile_qr_scan", "ios": "https://dc.lft.to/lastmile_qr_scan"}, "fusion_lon": 0.0}, {"lat": 38.88490083333333, "is_disabled": 0, "type": "electric_scooter", "lon": -77.00708733333333, "bike_id": "ada2d03c7886070159833ef7c4b0dbfd", "fusion_lat": 0.0, "name": "ada2d03c7886070159833ef7c4b0dbfd", "is_reserved": 0, "rental_uris": {"android": "https://dc.lft.to/lastmile_qr_scan", "ios": "https://dc.lft.to/lastmile_qr_scan"}, "fusion_lon": 0.0}, {"lat": 38.911925333333336, "is_disabled": 0, "type": "electric_scooter", "lon": -77.0021915, "bike_id": "2cef5d4586f469207e1d2443b2c4372d", "fusion_lat": 0.0, "name": "2cef5d4586f469207e1d2443b2c4372d", "is_reserved": 0, "rental_uris": {"android": "https://dc.lft.to/lastmile_qr_scan", "ios": "https://dc.lft.to/lastmile_qr_scan"}, "fusion_lon": 0.0}, {"lat": 38.866251166666665, "is_disabled": 0, "type": "electric_scooter", "lon": -76.98701033333333, "bike_id": "30ec8b56711f94d432e13e36b5f64de6", "fusion_lat": 0.0, "name": "30ec8b56711f94d432e13e36b5f64de6", "is_reserved": 0, "rental_uris": {"android": "https://dc.lft.to/lastmile_qr_scan", "ios": "https://dc.lft.to/lastmile_qr_scan"}, "fusion_lon": 0.0}, {"lat": 38.88763333333333, "is_disabled": 0, "type": "electric_scooter", "lon": -76.955967, "bike_id": "d986259f5c274c3bda84294b4e23f965", "fusion_lat": 0.0, "name": "d986259f5c274c3bda84294b4e23f965", "is_reserved": 0, "rental_uris": {"android": "https://dc.lft.to/lastmile_qr_scan", "ios": "https://dc.lft.to/lastmile_qr_scan"}, "fusion_lon": 0.0}, {"lat": 38.923675833333334, "is_disabled": 0, "type": "electric_scooter", "lon": -77.040345, "bike_id": "d2d9f7018fe2fe87f90c203bb63163e5", "fusion_lat": 0.0, "name": "d2d9f7018fe2fe87f90c203bb63163e5", "is_reserved": 0, "rental_uris": {"android": "https://dc.lft.to/lastmile_qr_scan", "ios": "https://dc.lft.to/lastmile_qr_scan"}, "fusion_lon": 0.0}, {"lat": 38.918403166666664, "is_disabled": 0, "type": "electric_scooter", "lon": -77.0228825, "bike_id": "defd752250f43a786d0120d3d835bda4", "fusion_lat": 0.0, "name": "defd752250f43a786d0120d3d835bda4", "is_reserved": 0, "rental_uris": {"android": "https://dc.lft.to/lastmile_qr_scan", "ios": "https://dc.lft.to/lastmile_qr_scan"}, "fusion_lon": 0.0}, {"lat": 38.842984666666666, "is_disabled": 0, "type": "electric_scooter", "lon": -76.999377, "bike_id": "771be926e1d9469189b1d1805ada8323", "fusion_lat": 0.0, "name": "771be926e1d9469189b1d1805ada8323", "is_reserved": 0, "rental_uris": {"android": "https://dc.lft.to/lastmile_qr_scan", "ios": "https://dc.lft.to/lastmile_qr_scan"}, "fusion_lon": 0.0}, {"lat": 38.857719833333334, "is_disabled": 0, "type": "electric_bike", "lon": -76.98774066666667, "bike_id": "007fc7e256e71338e81ea5952018c1e6", "fusion_lat": 0.0, "name": "007fc7e256e71338e81ea5952018c1e6", "is_reserved": 0, "rental_uris": {"android": "https://dc.lft.to/lastmile_qr_scan", "ios": "https://dc.lft.to/lastmile_qr_scan"}, "fusion_lon": 0.0}, {"lat": 38.92662, "is_disabled": 0, "type": "electric_scooter", "lon": -77.055978, "bike_id": "b875024e8041c104b81eb44b3eaccdbf", "fusion_lat": 0.0, "name": "b875024e8041c104b81eb44b3eaccdbf", "is_reserved": 0, "rental_uris": {"android": "https://dc.lft.to/lastmile_qr_scan", "ios": "https://dc.lft.to/lastmile_qr_scan"}, "fusion_lon": 0.0}, {"lat": 38.91129466666667, "is_disabled": 0, "type": "electric_scooter", "lon": -77.0435285, "bike_id": "86f7952f93ba51213256808f7fca44bc", "fusion_lat": 0.0, "name": "86f7952f93ba51213256808f7fca44bc", "is_reserved": 0, "rental_uris": {"android": "https://dc.lft.to/lastmile_qr_scan", "ios": "https://dc.lft.to/lastmile_qr_scan"}, "fusion_lon": 0.0}, {"lat": 38.920750166666664, "is_disabled": 0, "type": "electric_scooter", "lon": -77.024112, "bike_id": "c9bda1ca3ec0a1f3364f51499b2a5d57", "fusion_lat": 0.0, "name": "c9bda1ca3ec0a1f3364f51499b2a5d57", "is_reserved": 0, "rental_uris": {"android": "https://dc.lft.to/lastmile_qr_scan", "ios": "https://dc.lft.to/lastmile_qr_scan"}, "fusion_lon": 0.0}, {"lat": 38.89546583333333, "is_disabled": 0, "type": "electric_scooter", "lon": -76.93380783333333, "bike_id": "aee8b86dea848b443592ab55af353031", "fusion_lat": 0.0, "name": "aee8b86dea848b443592ab55af353031", "is_reserved": 0, "rental_uris": {"android": "https://dc.lft.to/lastmile_qr_scan", "ios": "https://dc.lft.to/lastmile_qr_scan"}, "fusion_lon": 0.0}, {"lat": 38.89230083333333, "is_disabled": 0, "type": "electric_scooter", "lon": -77.0499685, "bike_id": "4738e06fc67ced7148204a8c3f146a3c", "fusion_lat": 0.0, "name": "4738e06fc67ced7148204a8c3f146a3c", "is_reserved": 0, "rental_uris": {"android": "https://dc.lft.to/lastmile_qr_scan", "ios": "https://dc.lft.to/lastmile_qr_scan"}, "fusion_lon": 0.0}, {"lat": 38.92715883333334, "is_disabled": 0, "type": "electric_scooter", "lon": -77.0367985, "bike_id": "7a150569b91ad1e2fc2604e309056f57", "fusion_lat": 0.0, "name": "7a150569b91ad1e2fc2604e309056f57", "is_reserved": 0, "rental_uris": {"android": "https://dc.lft.to/lastmile_qr_scan", "ios": "https://dc.lft.to/lastmile_qr_scan"}, "fusion_lon": 0.0}, {"lat": 38.918741, "is_disabled": 0, "type": "electric_scooter", "lon": -77.035134, "bike_id": "2570a922a43c09fa07df458df52aeffa", "fusion_lat": 0.0, "name": "2570a922a43c09fa07df458df52aeffa", "is_reserved": 0, "rental_uris": {"android": "https://dc.lft.to/lastmile_qr_scan", "ios": "https://dc.lft.to/lastmile_qr_scan"}, "fusion_lon": 0.0}, {"lat": 38.895881333333335, "is_disabled": 0, "type": "electric_scooter", "lon": -77.04357233333333, "bike_id": "3d2286cb79d31c58a9f7b844b18e1285", "fusion_lat": 0.0, "name": "3d2286cb79d31c58a9f7b844b18e1285", "is_reserved": 0, "rental_uris": {"android": "https://dc.lft.to/lastmile_qr_scan", "ios": "https://dc.lft.to/lastmile_qr_scan"}, "fusion_lon": 0.0}, {"lat": 38.90363466666667, "is_disabled": 0, "type": "electric_scooter", "lon": -76.976533, "bike_id": "d2f624b3d76ee74c5db8f4110b4562ec", "fusion_lat": 0.0, "name": "d2f624b3d76ee74c5db8f4110b4562ec", "is_reserved": 0, "rental_uris": {"android": "https://dc.lft.to/lastmile_qr_scan", "ios": "https://dc.lft.to/lastmile_qr_scan"}, "fusion_lon": 0.0}, {"lat": 38.902034666666665, "is_disabled": 0, "type": "electric_scooter", "lon": -76.9884475, "bike_id": "4db1227b9c92130d8faa83de4f282c7a", "fusion_lat": 0.0, "name": "4db1227b9c92130d8faa83de4f282c7a", "is_reserved": 0, "rental_uris": {"android": "https://dc.lft.to/lastmile_qr_scan", "ios": "https://dc.lft.to/lastmile_qr_scan"}, "fusion_lon": 0.0}, {"lat": 38.92491916666667, "is_disabled": 0, "type": "electric_scooter", "lon": -77.052208, "bike_id": "8607561e868abb7ff16e27f755f31120", "fusion_lat": 0.0, "name": "8607561e868abb7ff16e27f755f31120", "is_reserved": 0, "rental_uris": {"android": "https://dc.lft.to/lastmile_qr_scan", "ios": "https://dc.lft.to/lastmile_qr_scan"}, "fusion_lon": 0.0}, {"lat": 38.94645416666667, "is_disabled": 0, "type": "electric_scooter", "lon": -77.064869, "bike_id": "487f44ba9303e322359398f3cd707d9c", "fusion_lat": 0.0, "name": "487f44ba9303e322359398f3cd707d9c", "is_reserved": 0, "rental_uris": {"android": "https://dc.lft.to/lastmile_qr_scan", "ios": "https://dc.lft.to/lastmile_qr_scan"}, "fusion_lon": 0.0}, {"lat": 38.875327666666664, "is_disabled": 0, "type": "electric_scooter", "lon": -77.005069, "bike_id": "d1c018982a413c82b6cec25d1e24c5da", "fusion_lat": 0.0, "name": "d1c018982a413c82b6cec25d1e24c5da", "is_reserved": 0, "rental_uris": {"android": "https://dc.lft.to/lastmile_qr_scan", "ios": "https://dc.lft.to/lastmile_qr_scan"}, "fusion_lon": 0.0}, {"lat": 38.9191475, "is_disabled": 0, "type": "electric_scooter", "lon": -77.03119633333333, "bike_id": "6d09748aa9d2a9cdda145e62d36797e1", "fusion_lat": 0.0, "name": "6d09748aa9d2a9cdda145e62d36797e1", "is_reserved": 0, "rental_uris": {"android": "https://dc.lft.to/lastmile_qr_scan", "ios": "https://dc.lft.to/lastmile_qr_scan"}, "fusion_lon": 0.0}, {"lat": 38.90773033333333, "is_disabled": 0, "type": "electric_scooter", "lon": -77.03861683333334, "bike_id": "38acec0a87c586b8004147387e77cced", "fusion_lat": 0.0, "name": "38acec0a87c586b8004147387e77cced", "is_reserved": 0, "rental_uris": {"android": "https://dc.lft.to/lastmile_qr_scan", "ios": "https://dc.lft.to/lastmile_qr_scan"}, "fusion_lon": 0.0}, {"lat": 38.920852833333335, "is_disabled": 0, "type": "electric_scooter", "lon": -77.04202116666667, "bike_id": "703bd6a206d938e294f98132ec7efdb4", "fusion_lat": 0.0, "name": "703bd6a206d938e294f98132ec7efdb4", "is_reserved": 0, "rental_uris": {"android": "https://dc.lft.to/lastmile_qr_scan", "ios": "https://dc.lft.to/lastmile_qr_scan"}, "fusion_lon": 0.0}, {"lat": 38.91958783333333, "is_disabled": 0, "type": "electric_scooter", "lon": -77.02506216666667, "bike_id": "b2482a7345e1c7640085b0d88f4bc047", "fusion_lat": 0.0, "name": "b2482a7345e1c7640085b0d88f4bc047", "is_reserved": 0, "rental_uris": {"android": "https://dc.lft.to/lastmile_qr_scan", "ios": "https://dc.lft.to/lastmile_qr_scan"}, "fusion_lon": 0.0}, {"lat": 38.92858533333333, "is_disabled": 0, "type": "electric_scooter", "lon": -77.03439383333334, "bike_id": "0e26b24571c72f9812b5911233d5c53f", "fusion_lat": 0.0, "name": "0e26b24571c72f9812b5911233d5c53f", "is_reserved": 0, "rental_uris": {"android": "https://dc.lft.to/lastmile_qr_scan", "ios": "https://dc.lft.to/lastmile_qr_scan"}, "fusion_lon": 0.0}, {"lat": 38.92180316666666, "is_disabled": 0, "type": "electric_scooter", "lon": -77.04713233333334, "bike_id": "d21b90e6617a9ed18b9d75ec8b338a14", "fusion_lat": 0.0, "name": "d21b90e6617a9ed18b9d75ec8b338a14", "is_reserved": 0, "rental_uris": {"android": "https://dc.lft.to/lastmile_qr_scan", "ios": "https://dc.lft.to/lastmile_qr_scan"}, "fusion_lon": 0.0}, {"lat": 38.92600633333333, "is_disabled": 0, "type": "electric_scooter", "lon": -77.05688683333334, "bike_id": "9d95e259a6ba62d5850d939e1c643fc8", "fusion_lat": 0.0, "name": "9d95e259a6ba62d5850d939e1c643fc8", "is_reserved": 0, "rental_uris": {"android": "https://dc.lft.to/lastmile_qr_scan", "ios": "https://dc.lft.to/lastmile_qr_scan"}, "fusion_lon": 0.0}, {"lat": 38.95401833333333, "is_disabled": 0, "type": "electric_scooter", "lon": -77.02750133333333, "bike_id": "308a5a59ba7da8ef0dd7cb44e86e25e9", "fusion_lat": 0.0, "name": "308a5a59ba7da8ef0dd7cb44e86e25e9", "is_reserved": 0, "rental_uris": {"android": "https://dc.lft.to/lastmile_qr_scan", "ios": "https://dc.lft.to/lastmile_qr_scan"}, "fusion_lon": 0.0}, {"lat": 38.902628166666666, "is_disabled": 0, "type": "electric_scooter", "lon": -77.01796066666667, "bike_id": "f4c734c91b95a4ef09905d53dfbf030e", "fusion_lat": 0.0, "name": "f4c734c91b95a4ef09905d53dfbf030e", "is_reserved": 0, "rental_uris": {"android": "https://dc.lft.to/lastmile_qr_scan", "ios": "https://dc.lft.to/lastmile_qr_scan"}, "fusion_lon": 0.0}, {"lat": 38.9024725, "is_disabled": 0, "type": "electric_scooter", "lon": -77.03195233333334, "bike_id": "1dfa4355916b117f29f9fc22321b431f", "fusion_lat": 0.0, "name": "1dfa4355916b117f29f9fc22321b431f", "is_reserved": 0, "rental_uris": {"android": "https://dc.lft.to/lastmile_qr_scan", "ios": "https://dc.lft.to/lastmile_qr_scan"}, "fusion_lon": 0.0}, {"lat": 38.89743033333333, "is_disabled": 0, "type": "electric_scooter", "lon": -77.01856966666666, "bike_id": "bf17f787a2330783e79ed12035c67041", "fusion_lat": 0.0, "name": "bf17f787a2330783e79ed12035c67041", "is_reserved": 0, "rental_uris": {"android": "https://dc.lft.to/lastmile_qr_scan", "ios": "https://dc.lft.to/lastmile_qr_scan"}, "fusion_lon": 0.0}, {"lat": 38.93729166666667, "is_disabled": 0, "type": "electric_scooter", "lon": -77.03476683333334, "bike_id": "7c861566c91c6be0ddd27ec0f37ca671", "fusion_lat": 0.0, "name": "7c861566c91c6be0ddd27ec0f37ca671", "is_reserved": 0, "rental_uris": {"android": "https://dc.lft.to/lastmile_qr_scan", "ios": "https://dc.lft.to/lastmile_qr_scan"}, "fusion_lon": 0.0}, {"lat": 38.910383, "is_disabled": 0, "type": "electric_scooter", "lon": -77.01405183333334, "bike_id": "1e88153b9a166471d62535ef1c1e8af6", "fusion_lat": 0.0, "name": "1e88153b9a166471d62535ef1c1e8af6", "is_reserved": 0, "rental_uris": {"android": "https://dc.lft.to/lastmile_qr_scan", "ios": "https://dc.lft.to/lastmile_qr_scan"}, "fusion_lon": 0.0}, {"lat": 38.900291, "is_disabled": 0, "type": "electric_scooter", "lon": -77.0019605, "bike_id": "f021fbb57fc731375269e76f28d2b76c", "fusion_lat": 0.0, "name": "f021fbb57fc731375269e76f28d2b76c", "is_reserved": 0, "rental_uris": {"android": "https://dc.lft.to/lastmile_qr_scan", "ios": "https://dc.lft.to/lastmile_qr_scan"}, "fusion_lon": 0.0}, {"lat": 38.92973583333333, "is_disabled": 0, "type": "electric_scooter", "lon": -77.02789183333333, "bike_id": "3f1703e0cd7b39b1cedcfdf28cdf2d8b", "fusion_lat": 0.0, "name": "3f1703e0cd7b39b1cedcfdf28cdf2d8b", "is_reserved": 0, "rental_uris": {"android": "https://dc.lft.to/lastmile_qr_scan", "ios": "https://dc.lft.to/lastmile_qr_scan"}, "fusion_lon": 0.0}, {"lat": 38.900644166666666, "is_disabled": 0, "type": "electric_scooter", "lon": -77.02587966666667, "bike_id": "b9975de9c559e8e8aa624c5034095ec9", "fusion_lat": 0.0, "name": "b9975de9c559e8e8aa624c5034095ec9", "is_reserved": 0, "rental_uris": {"android": "https://dc.lft.to/lastmile_qr_scan", "ios": "https://dc.lft.to/lastmile_qr_scan"}, "fusion_lon": 0.0}, {"lat": 38.939591666666665, "is_disabled": 0, "type": "electric_scooter", "lon": -77.027532, "bike_id": "428b84793a9de8134a8f2ee2f2b943fb", "fusion_lat": 0.0, "name": "428b84793a9de8134a8f2ee2f2b943fb", "is_reserved": 0, "rental_uris": {"android": "https://dc.lft.to/lastmile_qr_scan", "ios": "https://dc.lft.to/lastmile_qr_scan"}, "fusion_lon": 0.0}, {"lat": 38.9206725, "is_disabled": 0, "type": "electric_scooter", "lon": -77.0240715, "bike_id": "52839e5a1f8f1c9c308e8fe7ae8a91af", "fusion_lat": 0.0, "name": "52839e5a1f8f1c9c308e8fe7ae8a91af", "is_reserved": 0, "rental_uris": {"android": "https://dc.lft.to/lastmile_qr_scan", "ios": "https://dc.lft.to/lastmile_qr_scan"}, "fusion_lon": 0.0}, {"lat": 38.927498, "is_disabled": 0, "type": "electric_scooter", "lon": -77.0059355, "bike_id": "237b05776f4c1f19872bc8525cf297ec", "fusion_lat": 0.0, "name": "237b05776f4c1f19872bc8525cf297ec", "is_reserved": 0, "rental_uris": {"android": "https://dc.lft.to/lastmile_qr_scan", "ios": "https://dc.lft.to/lastmile_qr_scan"}, "fusion_lon": 0.0}, {"lat": 38.884932166666665, "is_disabled": 0, "type": "electric_scooter", "lon": -77.00722533333334, "bike_id": "6b0eaa7bafd1fa11dc14c52b36b9607b", "fusion_lat": 0.0, "name": "6b0eaa7bafd1fa11dc14c52b36b9607b", "is_reserved": 0, "rental_uris": {"android": "https://dc.lft.to/lastmile_qr_scan", "ios": "https://dc.lft.to/lastmile_qr_scan"}, "fusion_lon": 0.0}, {"lat": 38.91876, "is_disabled": 0, "type": "electric_scooter", "lon": -77.02434883333333, "bike_id": "1a7dbfe337b00f2fb93082bb69222fef", "fusion_lat": 0.0, "name": "1a7dbfe337b00f2fb93082bb69222fef", "is_reserved": 0, "rental_uris": {"android": "https://dc.lft.to/lastmile_qr_scan", "ios": "https://dc.lft.to/lastmile_qr_scan"}, "fusion_lon": 0.0}, {"lat": 38.90013066666667, "is_disabled": 0, "type": "electric_scooter", "lon": -76.92234133333334, "bike_id": "2cdde0737bc68a57ba760d4047948a0c", "fusion_lat": 0.0, "name": "2cdde0737bc68a57ba760d4047948a0c", "is_reserved": 0, "rental_uris": {"android": "https://dc.lft.to/lastmile_qr_scan", "ios": "https://dc.lft.to/lastmile_qr_scan"}, "fusion_lon": 0.0}, {"lat": 38.89839766666667, "is_disabled": 0, "type": "electric_scooter", "lon": -77.02904133333334, "bike_id": "d1cfe5e6bebcda0ea2be9409036e4bab", "fusion_lat": 0.0, "name": "d1cfe5e6bebcda0ea2be9409036e4bab", "is_reserved": 0, "rental_uris": {"android": "https://dc.lft.to/lastmile_qr_scan", "ios": "https://dc.lft.to/lastmile_qr_scan"}, "fusion_lon": 0.0}, {"lat": 38.93333333333333, "is_disabled": 0, "type": "electric_scooter", "lon": -76.99307783333333, "bike_id": "d67ca68edfb8969af4a6e078cb660cb3", "fusion_lat": 0.0, "name": "d67ca68edfb8969af4a6e078cb660cb3", "is_reserved": 0, "rental_uris": {"android": "https://dc.lft.to/lastmile_qr_scan", "ios": "https://dc.lft.to/lastmile_qr_scan"}, "fusion_lon": 0.0}, {"lat": 38.915535166666665, "is_disabled": 0, "type": "electric_scooter", "lon": -77.0204635, "bike_id": "677c812f180b81d390322ce3b15df02f", "fusion_lat": 0.0, "name": "677c812f180b81d390322ce3b15df02f", "is_reserved": 0, "rental_uris": {"android": "https://dc.lft.to/lastmile_qr_scan", "ios": "https://dc.lft.to/lastmile_qr_scan"}, "fusion_lon": 0.0}, {"lat": 38.92537816666667, "is_disabled": 0, "type": "electric_scooter", "lon": -77.052479, "bike_id": "0302688cf4becb0d514d86c84f4c810c", "fusion_lat": 0.0, "name": "0302688cf4becb0d514d86c84f4c810c", "is_reserved": 0, "rental_uris": {"android": "https://dc.lft.to/lastmile_qr_scan", "ios": "https://dc.lft.to/lastmile_qr_scan"}, "fusion_lon": 0.0}, {"lat": 38.916540833333336, "is_disabled": 0, "type": "electric_scooter", "lon": -77.04391733333334, "bike_id": "7a4b55d999cae1affa8b234a436ee626", "fusion_lat": 0.0, "name": "7a4b55d999cae1affa8b234a436ee626", "is_reserved": 0, "rental_uris": {"android": "https://dc.lft.to/lastmile_qr_scan", "ios": "https://dc.lft.to/lastmile_qr_scan"}, "fusion_lon": 0.0}, {"lat": 38.90103716666667, "is_disabled": 0, "type": "electric_scooter", "lon": -77.05903316666667, "bike_id": "ae0d3691216ce1d0329cc985d0b31914", "fusion_lat": 0.0, "name": "ae0d3691216ce1d0329cc985d0b31914", "is_reserved": 0, "rental_uris": {"android": "https://dc.lft.to/lastmile_qr_scan", "ios": "https://dc.lft.to/lastmile_qr_scan"}, "fusion_lon": 0.0}, {"lat": 38.8989825, "is_disabled": 0, "type": "electric_scooter", "lon": -77.072301, "bike_id": "bc7809ec70f22aeb16ab5fe371e1ba7a", "fusion_lat": 0.0, "name": "bc7809ec70f22aeb16ab5fe371e1ba7a", "is_reserved": 0, "rental_uris": {"android": "https://dc.lft.to/lastmile_qr_scan", "ios": "https://dc.lft.to/lastmile_qr_scan"}, "fusion_lon": 0.0}, {"lat": 38.91264733333333, "is_disabled": 0, "type": "electric_scooter", "lon": -77.0315745, "bike_id": "c1d581d8d4497786623c2caefa8b3b3c", "fusion_lat": 0.0, "name": "c1d581d8d4497786623c2caefa8b3b3c", "is_reserved": 0, "rental_uris": {"android": "https://dc.lft.to/lastmile_qr_scan", "ios": "https://dc.lft.to/lastmile_qr_scan"}, "fusion_lon": 0.0}, {"lat": 38.922998166666666, "is_disabled": 0, "type": "electric_scooter", "lon": -77.0233015, "bike_id": "fa3ea7d768b79efb63914dea09ecbccf", "fusion_lat": 0.0, "name": "fa3ea7d768b79efb63914dea09ecbccf", "is_reserved": 0, "rental_uris": {"android": "https://dc.lft.to/lastmile_qr_scan", "ios": "https://dc.lft.to/lastmile_qr_scan"}, "fusion_lon": 0.0}, {"lat": 38.912417166666664, "is_disabled": 0, "type": "electric_scooter", "lon": -77.04662983333333, "bike_id": "87eab567b041399167da30c98d7a90b8", "fusion_lat": 0.0, "name": "87eab567b041399167da30c98d7a90b8", "is_reserved": 0, "rental_uris": {"android": "https://dc.lft.to/lastmile_qr_scan", "ios": "https://dc.lft.to/lastmile_qr_scan"}, "fusion_lon": 0.0}, {"lat": 38.87639216666667, "is_disabled": 0, "type": "electric_scooter", "lon": -77.00916, "bike_id": "bc4ac8eb98168c1f7a23a920347ee6e1", "fusion_lat": 0.0, "name": "bc4ac8eb98168c1f7a23a920347ee6e1", "is_reserved": 0, "rental_uris": {"android": "https://dc.lft.to/lastmile_qr_scan", "ios": "https://dc.lft.to/lastmile_qr_scan"}, "fusion_lon": 0.0}, {"lat": 38.9169075, "is_disabled": 0, "type": "electric_scooter", "lon": -77.04597366666667, "bike_id": "c89765b218b02a72e901687af0982bff", "fusion_lat": 0.0, "name": "c89765b218b02a72e901687af0982bff", "is_reserved": 0, "rental_uris": {"android": "https://dc.lft.to/lastmile_qr_scan", "ios": "https://dc.lft.to/lastmile_qr_scan"}, "fusion_lon": 0.0}, {"lat": 38.87369266666666, "is_disabled": 0, "type": "electric_bike", "lon": -77.00054333333334, "bike_id": "b44c77c50b131b204d53643549130122", "fusion_lat": 0.0, "name": "b44c77c50b131b204d53643549130122", "is_reserved": 0, "rental_uris": {"android": "https://dc.lft.to/lastmile_qr_scan", "ios": "https://dc.lft.to/lastmile_qr_scan"}, "fusion_lon": 0.0}, {"lat": 38.89335233333333, "is_disabled": 0, "type": "electric_scooter", "lon": -77.04486216666666, "bike_id": "34c89ff190be84c0021a2c06d2ca8750", "fusion_lat": 0.0, "name": "34c89ff190be84c0021a2c06d2ca8750", "is_reserved": 0, "rental_uris": {"android": "https://dc.lft.to/lastmile_qr_scan", "ios": "https://dc.lft.to/lastmile_qr_scan"}, "fusion_lon": 0.0}, {"lat": 38.9035235, "is_disabled": 0, "type": "electric_scooter", "lon": -77.03309916666667, "bike_id": "5ac55a3de517b9a425d4639327d7333a", "fusion_lat": 0.0, "name": "5ac55a3de517b9a425d4639327d7333a", "is_reserved": 0, "rental_uris": {"android": "https://dc.lft.to/lastmile_qr_scan", "ios": "https://dc.lft.to/lastmile_qr_scan"}, "fusion_lon": 0.0}, {"lat": 38.894957833333336, "is_disabled": 0, "type": "electric_scooter", "lon": -77.00214416666667, "bike_id": "cfcb8cabcef20457ff7ec8f4a036f1fe", "fusion_lat": 0.0, "name": "cfcb8cabcef20457ff7ec8f4a036f1fe", "is_reserved": 0, "rental_uris": {"android": "https://dc.lft.to/lastmile_qr_scan", "ios": "https://dc.lft.to/lastmile_qr_scan"}, "fusion_lon": 0.0}, {"lat": 38.91245983333334, "is_disabled": 0, "type": "electric_scooter", "lon": -77.02714633333333, "bike_id": "940822f2a9f7b648a9f1994a32790d20", "fusion_lat": 0.0, "name": "940822f2a9f7b648a9f1994a32790d20", "is_reserved": 0, "rental_uris": {"android": "https://dc.lft.to/lastmile_qr_scan", "ios": "https://dc.lft.to/lastmile_qr_scan"}, "fusion_lon": 0.0}, {"lat": 38.9197585, "is_disabled": 0, "type": "electric_scooter", "lon": -77.02515116666666, "bike_id": "cbddb216cb2e59dcbb9bed2fb371c1cf", "fusion_lat": 0.0, "name": "cbddb216cb2e59dcbb9bed2fb371c1cf", "is_reserved": 0, "rental_uris": {"android": "https://dc.lft.to/lastmile_qr_scan", "ios": "https://dc.lft.to/lastmile_qr_scan"}, "fusion_lon": 0.0}, {"lat": 38.91537833333334, "is_disabled": 0, "type": "electric_scooter", "lon": -77.02962, "bike_id": "134c2ff256b7362dfc181668cbec4bc5", "fusion_lat": 0.0, "name": "134c2ff256b7362dfc181668cbec4bc5", "is_reserved": 0, "rental_uris": {"android": "https://dc.lft.to/lastmile_qr_scan", "ios": "https://dc.lft.to/lastmile_qr_scan"}, "fusion_lon": 0.0}, {"lat": 38.913929833333334, "is_disabled": 0, "type": "electric_scooter", "lon": -77.03181283333333, "bike_id": "661d7949268a0ccdba70b0f51937fd5f", "fusion_lat": 0.0, "name": "661d7949268a0ccdba70b0f51937fd5f", "is_reserved": 0, "rental_uris": {"android": "https://dc.lft.to/lastmile_qr_scan", "ios": "https://dc.lft.to/lastmile_qr_scan"}, "fusion_lon": 0.0}, {"lat": 38.919358, "is_disabled": 0, "type": "electric_scooter", "lon": -77.07084116666667, "bike_id": "0791cb458618f5937412ae19248fd730", "fusion_lat": 0.0, "name": "0791cb458618f5937412ae19248fd730", "is_reserved": 0, "rental_uris": {"android": "https://dc.lft.to/lastmile_qr_scan", "ios": "https://dc.lft.to/lastmile_qr_scan"}, "fusion_lon": 0.0}, {"lat": 38.88261583333333, "is_disabled": 0, "type": "electric_scooter", "lon": -76.988207, "bike_id": "6f296257f880802182240a03ee3d306a", "fusion_lat": 0.0, "name": "6f296257f880802182240a03ee3d306a", "is_reserved": 0, "rental_uris": {"android": "https://dc.lft.to/lastmile_qr_scan", "ios": "https://dc.lft.to/lastmile_qr_scan"}, "fusion_lon": 0.0}, {"lat": 38.895581166666666, "is_disabled": 0, "type": "electric_scooter", "lon": -77.00365283333333, "bike_id": "38e1262620cde07ed8e139d95b599f0d", "fusion_lat": 0.0, "name": "38e1262620cde07ed8e139d95b599f0d", "is_reserved": 0, "rental_uris": {"android": "https://dc.lft.to/lastmile_qr_scan", "ios": "https://dc.lft.to/lastmile_qr_scan"}, "fusion_lon": 0.0}, {"lat": 38.94240816666667, "is_disabled": 0, "type": "electric_scooter", "lon": -77.035819, "bike_id": "2800efd14df3ad0d13a86e676c7aa73d", "fusion_lat": 0.0, "name": "2800efd14df3ad0d13a86e676c7aa73d", "is_reserved": 0, "rental_uris": {"android": "https://dc.lft.to/lastmile_qr_scan", "ios": "https://dc.lft.to/lastmile_qr_scan"}, "fusion_lon": 0.0}, {"lat": 38.89226683333333, "is_disabled": 0, "type": "electric_scooter", "lon": -77.03240566666666, "bike_id": "2736df6caa380627451041e158bb5a2f", "fusion_lat": 0.0, "name": "2736df6caa380627451041e158bb5a2f", "is_reserved": 0, "rental_uris": {"android": "https://dc.lft.to/lastmile_qr_scan", "ios": "https://dc.lft.to/lastmile_qr_scan"}, "fusion_lon": 0.0}, {"lat": 38.90103633333333, "is_disabled": 0, "type": "electric_scooter", "lon": -77.018187, "bike_id": "46b5bf07102be1fc498caa3fb968570a", "fusion_lat": 0.0, "name": "46b5bf07102be1fc498caa3fb968570a", "is_reserved": 0, "rental_uris": {"android": "https://dc.lft.to/lastmile_qr_scan", "ios": "https://dc.lft.to/lastmile_qr_scan"}, "fusion_lon": 0.0}, {"lat": 38.96114166666667, "is_disabled": 0, "type": "electric_scooter", "lon": -77.02811883333334, "bike_id": "185ac913cd140dec077b294afa134fa7", "fusion_lat": 0.0, "name": "185ac913cd140dec077b294afa134fa7", "is_reserved": 0, "rental_uris": {"android": "https://dc.lft.to/lastmile_qr_scan", "ios": "https://dc.lft.to/lastmile_qr_scan"}, "fusion_lon": 0.0}, {"lat": 38.9257525, "is_disabled": 0, "type": "electric_scooter", "lon": -77.05762083333333, "bike_id": "6ff4507ae9cfabea0f74056be6bd6ada", "fusion_lat": 0.0, "name": "6ff4507ae9cfabea0f74056be6bd6ada", "is_reserved": 0, "rental_uris": {"android": "https://dc.lft.to/lastmile_qr_scan", "ios": "https://dc.lft.to/lastmile_qr_scan"}, "fusion_lon": 0.0}, {"lat": 38.929038166666665, "is_disabled": 0, "type": "electric_scooter", "lon": -77.07445266666667, "bike_id": "5741d1933495421d07ea8eb4caff438d", "fusion_lat": 0.0, "name": "5741d1933495421d07ea8eb4caff438d", "is_reserved": 0, "rental_uris": {"android": "https://dc.lft.to/lastmile_qr_scan", "ios": "https://dc.lft.to/lastmile_qr_scan"}, "fusion_lon": 0.0}, {"lat": 38.9287495, "is_disabled": 0, "type": "electric_scooter", "lon": -77.02705566666667, "bike_id": "d309d562e4c460d809d285251d0ffd72", "fusion_lat": 0.0, "name": "d309d562e4c460d809d285251d0ffd72", "is_reserved": 0, "rental_uris": {"android": "https://dc.lft.to/lastmile_qr_scan", "ios": "https://dc.lft.to/lastmile_qr_scan"}, "fusion_lon": 0.0}, {"lat": 38.92585616666667, "is_disabled": 0, "type": "electric_scooter", "lon": -77.02290183333334, "bike_id": "a9b991cfd03323e5b174d67ebcc2aa04", "fusion_lat": 0.0, "name": "a9b991cfd03323e5b174d67ebcc2aa04", "is_reserved": 0, "rental_uris": {"android": "https://dc.lft.to/lastmile_qr_scan", "ios": "https://dc.lft.to/lastmile_qr_scan"}, "fusion_lon": 0.0}, {"lat": 38.911814, "is_disabled": 0, "type": "electric_scooter", "lon": -77.02203133333333, "bike_id": "018d212b694c2ae4a86d0570e272edab", "fusion_lat": 0.0, "name": "018d212b694c2ae4a86d0570e272edab", "is_reserved": 0, "rental_uris": {"android": "https://dc.lft.to/lastmile_qr_scan", "ios": "https://dc.lft.to/lastmile_qr_scan"}, "fusion_lon": 0.0}, {"lat": 38.91783016666667, "is_disabled": 0, "type": "electric_scooter", "lon": -77.02238983333334, "bike_id": "152698f359a28b3b156ee372a8f2e031", "fusion_lat": 0.0, "name": "152698f359a28b3b156ee372a8f2e031", "is_reserved": 0, "rental_uris": {"android": "https://dc.lft.to/lastmile_qr_scan", "ios": "https://dc.lft.to/lastmile_qr_scan"}, "fusion_lon": 0.0}, {"lat": 38.919954, "is_disabled": 0, "type": "electric_scooter", "lon": -77.028042, "bike_id": "ec53aead9dfea1176aa5b0f4f09e1f59", "fusion_lat": 0.0, "name": "ec53aead9dfea1176aa5b0f4f09e1f59", "is_reserved": 0, "rental_uris": {"android": "https://dc.lft.to/lastmile_qr_scan", "ios": "https://dc.lft.to/lastmile_qr_scan"}, "fusion_lon": 0.0}, {"lat": 38.894289666666666, "is_disabled": 0, "type": "electric_scooter", "lon": -77.0209995, "bike_id": "85ff8931012deac1ce8c86a0c010f9e6", "fusion_lat": 0.0, "name": "85ff8931012deac1ce8c86a0c010f9e6", "is_reserved": 0, "rental_uris": {"android": "https://dc.lft.to/lastmile_qr_scan", "ios": "https://dc.lft.to/lastmile_qr_scan"}, "fusion_lon": 0.0}, {"lat": 38.8960745, "is_disabled": 0, "type": "electric_scooter", "lon": -76.955204, "bike_id": "1dace86273a003889824a1f87014007b", "fusion_lat": 0.0, "name": "1dace86273a003889824a1f87014007b", "is_reserved": 0, "rental_uris": {"android": "https://dc.lft.to/lastmile_qr_scan", "ios": "https://dc.lft.to/lastmile_qr_scan"}, "fusion_lon": 0.0}, {"lat": 38.9175815, "is_disabled": 0, "type": "electric_scooter", "lon": -77.03880866666667, "bike_id": "303493f129d191348bf76e3c4f73d027", "fusion_lat": 0.0, "name": "303493f129d191348bf76e3c4f73d027", "is_reserved": 0, "rental_uris": {"android": "https://dc.lft.to/lastmile_qr_scan", "ios": "https://dc.lft.to/lastmile_qr_scan"}, "fusion_lon": 0.0}, {"lat": 38.92563116666667, "is_disabled": 0, "type": "electric_scooter", "lon": -77.028358, "bike_id": "bba271c105ed927f6089eff5b9da8c81", "fusion_lat": 0.0, "name": "bba271c105ed927f6089eff5b9da8c81", "is_reserved": 0, "rental_uris": {"android": "https://dc.lft.to/lastmile_qr_scan", "ios": "https://dc.lft.to/lastmile_qr_scan"}, "fusion_lon": 0.0}, {"lat": 38.884803166666664, "is_disabled": 0, "type": "electric_scooter", "lon": -76.94531516666666, "bike_id": "28eb970864886badd8048de9e6ce738f", "fusion_lat": 0.0, "name": "28eb970864886badd8048de9e6ce738f", "is_reserved": 0, "rental_uris": {"android": "https://dc.lft.to/lastmile_qr_scan", "ios": "https://dc.lft.to/lastmile_qr_scan"}, "fusion_lon": 0.0}, {"lat": 38.916895333333336, "is_disabled": 0, "type": "electric_scooter", "lon": -77.0312385, "bike_id": "b1180f5961d023a711626fd170dbd44a", "fusion_lat": 0.0, "name": "b1180f5961d023a711626fd170dbd44a", "is_reserved": 0, "rental_uris": {"android": "https://dc.lft.to/lastmile_qr_scan", "ios": "https://dc.lft.to/lastmile_qr_scan"}, "fusion_lon": 0.0}, {"lat": 38.93331883333333, "is_disabled": 0, "type": "electric_scooter", "lon": -76.99306383333334, "bike_id": "37f47721f0a3da61dedfda19c8e96892", "fusion_lat": 0.0, "name": "37f47721f0a3da61dedfda19c8e96892", "is_reserved": 0, "rental_uris": {"android": "https://dc.lft.to/lastmile_qr_scan", "ios": "https://dc.lft.to/lastmile_qr_scan"}, "fusion_lon": 0.0}, {"lat": 38.94081533333333, "is_disabled": 0, "type": "electric_scooter", "lon": -77.06132483333333, "bike_id": "e49a26e4ce37454df42fed71d39aad00", "fusion_lat": 0.0, "name": "e49a26e4ce37454df42fed71d39aad00", "is_reserved": 0, "rental_uris": {"android": "https://dc.lft.to/lastmile_qr_scan", "ios": "https://dc.lft.to/lastmile_qr_scan"}, "fusion_lon": 0.0}, {"lat": 38.91533, "is_disabled": 0, "type": "electric_scooter", "lon": -77.0034255, "bike_id": "6ed29a190029012260af66412329b3bd", "fusion_lat": 0.0, "name": "6ed29a190029012260af66412329b3bd", "is_reserved": 0, "rental_uris": {"android": "https://dc.lft.to/lastmile_qr_scan", "ios": "https://dc.lft.to/lastmile_qr_scan"}, "fusion_lon": 0.0}, {"lat": 38.93982666666667, "is_disabled": 0, "type": "electric_scooter", "lon": -77.02879833333333, "bike_id": "2368268a97c919cf606331ebfcce1c1f", "fusion_lat": 0.0, "name": "2368268a97c919cf606331ebfcce1c1f", "is_reserved": 0, "rental_uris": {"android": "https://dc.lft.to/lastmile_qr_scan", "ios": "https://dc.lft.to/lastmile_qr_scan"}, "fusion_lon": 0.0}, {"lat": 38.921537666666666, "is_disabled": 0, "type": "electric_scooter", "lon": -77.0435865, "bike_id": "a39c0ea9d851a3659b9d2c702d1399ac", "fusion_lat": 0.0, "name": "a39c0ea9d851a3659b9d2c702d1399ac", "is_reserved": 0, "rental_uris": {"android": "https://dc.lft.to/lastmile_qr_scan", "ios": "https://dc.lft.to/lastmile_qr_scan"}, "fusion_lon": 0.0}, {"lat": 38.911162833333336, "is_disabled": 0, "type": "electric_scooter", "lon": -77.03232516666667, "bike_id": "f90c3d4325faff8740d1f9259bc20e02", "fusion_lat": 0.0, "name": "f90c3d4325faff8740d1f9259bc20e02", "is_reserved": 0, "rental_uris": {"android": "https://dc.lft.to/lastmile_qr_scan", "ios": "https://dc.lft.to/lastmile_qr_scan"}, "fusion_lon": 0.0}, {"lat": 38.94903683333333, "is_disabled": 0, "type": "electric_bike", "lon": -76.97238516666667, "bike_id": "c7d7e14f6203197e53c3b5f217e1ae28", "fusion_lat": 0.0, "name": "c7d7e14f6203197e53c3b5f217e1ae28", "is_reserved": 0, "rental_uris": {"android": "https://dc.lft.to/lastmile_qr_scan", "ios": "https://dc.lft.to/lastmile_qr_scan"}, "fusion_lon": 0.0}, {"lat": 38.92957366666667, "is_disabled": 0, "type": "electric_scooter", "lon": -77.03078266666667, "bike_id": "1b261a31cce80360c0070a8c340802d8", "fusion_lat": 0.0, "name": "1b261a31cce80360c0070a8c340802d8", "is_reserved": 0, "rental_uris": {"android": "https://dc.lft.to/lastmile_qr_scan", "ios": "https://dc.lft.to/lastmile_qr_scan"}, "fusion_lon": 0.0}, {"lat": 38.91982866666667, "is_disabled": 0, "type": "electric_scooter", "lon": -77.04176033333333, "bike_id": "fdddf4b76886ffc923cb31ef300c6160", "fusion_lat": 0.0, "name": "fdddf4b76886ffc923cb31ef300c6160", "is_reserved": 0, "rental_uris": {"android": "https://dc.lft.to/lastmile_qr_scan", "ios": "https://dc.lft.to/lastmile_qr_scan"}, "fusion_lon": 0.0}, {"lat": 38.94120783333334, "is_disabled": 0, "type": "electric_scooter", "lon": -77.0007875, "bike_id": "276b191b29bd6b028e967c9fc4f53643", "fusion_lat": 0.0, "name": "276b191b29bd6b028e967c9fc4f53643", "is_reserved": 0, "rental_uris": {"android": "https://dc.lft.to/lastmile_qr_scan", "ios": "https://dc.lft.to/lastmile_qr_scan"}, "fusion_lon": 0.0}, {"lat": 38.92648166666667, "is_disabled": 0, "type": "electric_scooter", "lon": -77.0378685, "bike_id": "4b8564336d37e7f9fdcdaea6a87315e7", "fusion_lat": 0.0, "name": "4b8564336d37e7f9fdcdaea6a87315e7", "is_reserved": 0, "rental_uris": {"android": "https://dc.lft.to/lastmile_qr_scan", "ios": "https://dc.lft.to/lastmile_qr_scan"}, "fusion_lon": 0.0}, {"lat": 38.916788333333336, "is_disabled": 0, "type": "electric_scooter", "lon": -77.00195766666667, "bike_id": "04788983e280d5a250ae974918a35b19", "fusion_lat": 0.0, "name": "04788983e280d5a250ae974918a35b19", "is_reserved": 0, "rental_uris": {"android": "https://dc.lft.to/lastmile_qr_scan", "ios": "https://dc.lft.to/lastmile_qr_scan"}, "fusion_lon": 0.0}, {"lat": 38.95886766666667, "is_disabled": 0, "type": "electric_bike", "lon": -76.92484266666666, "bike_id": "8168763de243d319f6ebb7632b2b2c7c", "fusion_lat": 0.0, "name": "8168763de243d319f6ebb7632b2b2c7c", "is_reserved": 0, "rental_uris": {"android": "https://dc.lft.to/lastmile_qr_scan", "ios": "https://dc.lft.to/lastmile_qr_scan"}, "fusion_lon": 0.0}, {"lat": 38.9061705, "is_disabled": 0, "type": "electric_scooter", "lon": -77.0627945, "bike_id": "27fffb9e0febf83c77bff28ccd034b2b", "fusion_lat": 0.0, "name": "27fffb9e0febf83c77bff28ccd034b2b", "is_reserved": 0, "rental_uris": {"android": "https://dc.lft.to/lastmile_qr_scan", "ios": "https://dc.lft.to/lastmile_qr_scan"}, "fusion_lon": 0.0}, {"lat": 38.924778333333336, "is_disabled": 0, "type": "electric_scooter", "lon": -77.0307175, "bike_id": "02bce6deb2f4e19b613eddba01f8459b", "fusion_lat": 0.0, "name": "02bce6deb2f4e19b613eddba01f8459b", "is_reserved": 0, "rental_uris": {"android": "https://dc.lft.to/lastmile_qr_scan", "ios": "https://dc.lft.to/lastmile_qr_scan"}, "fusion_lon": 0.0}, {"lat": 38.8836155, "is_disabled": 0, "type": "electric_scooter", "lon": -76.9415435, "bike_id": "dc6ed21d3fb8e7a4427d0808844bb945", "fusion_lat": 0.0, "name": "dc6ed21d3fb8e7a4427d0808844bb945", "is_reserved": 0, "rental_uris": {"android": "https://dc.lft.to/lastmile_qr_scan", "ios": "https://dc.lft.to/lastmile_qr_scan"}, "fusion_lon": 0.0}, {"lat": 38.90292133333333, "is_disabled": 0, "type": "electric_scooter", "lon": -77.02432916666666, "bike_id": "b307f074e09e5bbd5539df21dbbe1c03", "fusion_lat": 0.0, "name": "b307f074e09e5bbd5539df21dbbe1c03", "is_reserved": 0, "rental_uris": {"android": "https://dc.lft.to/lastmile_qr_scan", "ios": "https://dc.lft.to/lastmile_qr_scan"}, "fusion_lon": 0.0}, {"lat": 38.90563016666667, "is_disabled": 0, "type": "electric_scooter", "lon": -77.00300033333333, "bike_id": "a5c5858bc2423200f3e05abb183d6209", "fusion_lat": 0.0, "name": "a5c5858bc2423200f3e05abb183d6209", "is_reserved": 0, "rental_uris": {"android": "https://dc.lft.to/lastmile_qr_scan", "ios": "https://dc.lft.to/lastmile_qr_scan"}, "fusion_lon": 0.0}, {"lat": 38.988208166666666, "is_disabled": 0, "type": "electric_bike", "lon": -76.9964815, "bike_id": "7eb798575575508806d45d81fd51acc7", "fusion_lat": 0.0, "name": "7eb798575575508806d45d81fd51acc7", "is_reserved": 0, "rental_uris": {"android": "https://dc.lft.to/lastmile_qr_scan", "ios": "https://dc.lft.to/lastmile_qr_scan"}, "fusion_lon": 0.0}, {"lat": 38.917637166666665, "is_disabled": 0, "type": "electric_scooter", "lon": -76.97628683333333, "bike_id": "563d87c47d53791b34e71810e7c9e6ff", "fusion_lat": 0.0, "name": "563d87c47d53791b34e71810e7c9e6ff", "is_reserved": 0, "rental_uris": {"android": "https://dc.lft.to/lastmile_qr_scan", "ios": "https://dc.lft.to/lastmile_qr_scan"}, "fusion_lon": 0.0}, {"lat": 38.905137, "is_disabled": 0, "type": "electric_scooter", "lon": -77.038722, "bike_id": "1d4b2f393966a938b9be763d76441f09", "fusion_lat": 0.0, "name": "1d4b2f393966a938b9be763d76441f09", "is_reserved": 0, "rental_uris": {"android": "https://dc.lft.to/lastmile_qr_scan", "ios": "https://dc.lft.to/lastmile_qr_scan"}, "fusion_lon": 0.0}, {"lat": 38.923077666666664, "is_disabled": 0, "type": "electric_scooter", "lon": -77.03969866666667, "bike_id": "2b17aba96969ae3f71323da5a68d3296", "fusion_lat": 0.0, "name": "2b17aba96969ae3f71323da5a68d3296", "is_reserved": 0, "rental_uris": {"android": "https://dc.lft.to/lastmile_qr_scan", "ios": "https://dc.lft.to/lastmile_qr_scan"}, "fusion_lon": 0.0}, {"lat": 38.91356566666666, "is_disabled": 0, "type": "electric_scooter", "lon": -77.06921383333334, "bike_id": "5138f5e062bebf2a305322df8afb0df7", "fusion_lat": 0.0, "name": "5138f5e062bebf2a305322df8afb0df7", "is_reserved": 0, "rental_uris": {"android": "https://dc.lft.to/lastmile_qr_scan", "ios": "https://dc.lft.to/lastmile_qr_scan"}, "fusion_lon": 0.0}, {"lat": 38.92060466666667, "is_disabled": 0, "type": "electric_scooter", "lon": -77.031938, "bike_id": "2203feac8607bcce9937f418acf2f758", "fusion_lat": 0.0, "name": "2203feac8607bcce9937f418acf2f758", "is_reserved": 0, "rental_uris": {"android": "https://dc.lft.to/lastmile_qr_scan", "ios": "https://dc.lft.to/lastmile_qr_scan"}, "fusion_lon": 0.0}, {"lat": 38.866566, "is_disabled": 0, "type": "electric_scooter", "lon": -76.98881833333333, "bike_id": "dbffec5b5da580c2b21d8f9f1f9d2e62", "fusion_lat": 0.0, "name": "dbffec5b5da580c2b21d8f9f1f9d2e62", "is_reserved": 0, "rental_uris": {"android": "https://dc.lft.to/lastmile_qr_scan", "ios": "https://dc.lft.to/lastmile_qr_scan"}, "fusion_lon": 0.0}, {"lat": 38.95185266666667, "is_disabled": 0, "type": "electric_bike", "lon": -76.9354165, "bike_id": "52ae6780bf999aae79cde2c55df509d4", "fusion_lat": 0.0, "name": "52ae6780bf999aae79cde2c55df509d4", "is_reserved": 0, "rental_uris": {"android": "https://dc.lft.to/lastmile_qr_scan", "ios": "https://dc.lft.to/lastmile_qr_scan"}, "fusion_lon": 0.0}, {"lat": 38.929733666666664, "is_disabled": 0, "type": "electric_scooter", "lon": -77.0282195, "bike_id": "663671b407f05ad3bc2bedf799f30fdc", "fusion_lat": 0.0, "name": "663671b407f05ad3bc2bedf799f30fdc", "is_reserved": 0, "rental_uris": {"android": "https://dc.lft.to/lastmile_qr_scan", "ios": "https://dc.lft.to/lastmile_qr_scan"}, "fusion_lon": 0.0}, {"lat": 38.9205665, "is_disabled": 0, "type": "electric_scooter", "lon": -77.04377433333333, "bike_id": "167b32143287ada4d75a9492d9b71e9f", "fusion_lat": 0.0, "name": "167b32143287ada4d75a9492d9b71e9f", "is_reserved": 0, "rental_uris": {"android": "https://dc.lft.to/lastmile_qr_scan", "ios": "https://dc.lft.to/lastmile_qr_scan"}, "fusion_lon": 0.0}, {"lat": 38.911074166666666, "is_disabled": 0, "type": "electric_scooter", "lon": -77.03632183333333, "bike_id": "c5cd2406b19976aed458546c47b89ecd", "fusion_lat": 0.0, "name": "c5cd2406b19976aed458546c47b89ecd", "is_reserved": 0, "rental_uris": {"android": "https://dc.lft.to/lastmile_qr_scan", "ios": "https://dc.lft.to/lastmile_qr_scan"}, "fusion_lon": 0.0}, {"lat": 38.86254516666666, "is_disabled": 0, "type": "electric_scooter", "lon": -76.98695666666667, "bike_id": "c3f24f48922e3138b8e5f06d58f8cc6d", "fusion_lat": 0.0, "name": "c3f24f48922e3138b8e5f06d58f8cc6d", "is_reserved": 0, "rental_uris": {"android": "https://dc.lft.to/lastmile_qr_scan", "ios": "https://dc.lft.to/lastmile_qr_scan"}, "fusion_lon": 0.0}, {"lat": 38.9204265, "is_disabled": 0, "type": "electric_scooter", "lon": -77.0419855, "bike_id": "c913119c90268324a6626166f534b67c", "fusion_lat": 0.0, "name": "c913119c90268324a6626166f534b67c", "is_reserved": 0, "rental_uris": {"android": "https://dc.lft.to/lastmile_qr_scan", "ios": "https://dc.lft.to/lastmile_qr_scan"}, "fusion_lon": 0.0}, {"lat": 38.877293, "is_disabled": 0, "type": "electric_bike", "lon": -77.11845866666667, "bike_id": "0c290171ced3dfe8a3c6d46f76e1a268", "fusion_lat": 0.0, "name": "0c290171ced3dfe8a3c6d46f76e1a268", "is_reserved": 0, "rental_uris": {"android": "https://dc.lft.to/lastmile_qr_scan", "ios": "https://dc.lft.to/lastmile_qr_scan"}, "fusion_lon": 0.0}, {"lat": 38.91345333333334, "is_disabled": 0, "type": "electric_scooter", "lon": -77.03178866666667, "bike_id": "c7047cc2cfc69492cd9dc1eed73c05d4", "fusion_lat": 0.0, "name": "c7047cc2cfc69492cd9dc1eed73c05d4", "is_reserved": 0, "rental_uris": {"android": "https://dc.lft.to/lastmile_qr_scan", "ios": "https://dc.lft.to/lastmile_qr_scan"}, "fusion_lon": 0.0}, {"lat": 38.870895, "is_disabled": 0, "type": "electric_scooter", "lon": -77.01180583333333, "bike_id": "8349d67f48a5765813ddd73c0fbb3e85", "fusion_lat": 0.0, "name": "8349d67f48a5765813ddd73c0fbb3e85", "is_reserved": 0, "rental_uris": {"android": "https://dc.lft.to/lastmile_qr_scan", "ios": "https://dc.lft.to/lastmile_qr_scan"}, "fusion_lon": 0.0}, {"lat": 38.92110183333333, "is_disabled": 0, "type": "electric_bike", "lon": -76.9857895, "bike_id": "71decadccaa0c7c83fb119e24d8c50f4", "fusion_lat": 0.0, "name": "71decadccaa0c7c83fb119e24d8c50f4", "is_reserved": 0, "rental_uris": {"android": "https://dc.lft.to/lastmile_qr_scan", "ios": "https://dc.lft.to/lastmile_qr_scan"}, "fusion_lon": 0.0}, {"lat": 38.9169645, "is_disabled": 0, "type": "electric_scooter", "lon": -77.02933266666666, "bike_id": "53b0ba553d7bf5f9a064786a8c45e66c", "fusion_lat": 0.0, "name": "53b0ba553d7bf5f9a064786a8c45e66c", "is_reserved": 0, "rental_uris": {"android": "https://dc.lft.to/lastmile_qr_scan", "ios": "https://dc.lft.to/lastmile_qr_scan"}, "fusion_lon": 0.0}, {"lat": 38.9028125, "is_disabled": 0, "type": "electric_scooter", "lon": -77.06359466666666, "bike_id": "ad0364ca81ecaf29470fe02b482e5c09", "fusion_lat": 0.0, "name": "ad0364ca81ecaf29470fe02b482e5c09", "is_reserved": 0, "rental_uris": {"android": "https://dc.lft.to/lastmile_qr_scan", "ios": "https://dc.lft.to/lastmile_qr_scan"}, "fusion_lon": 0.0}, {"lat": 38.940388666666664, "is_disabled": 0, "type": "electric_bike", "lon": -77.051622, "bike_id": "1f5ad5f2e569c4a11b4be814eeb489de", "fusion_lat": 0.0, "name": "1f5ad5f2e569c4a11b4be814eeb489de", "is_reserved": 0, "rental_uris": {"android": "https://dc.lft.to/lastmile_qr_scan", "ios": "https://dc.lft.to/lastmile_qr_scan"}, "fusion_lon": 0.0}, {"lat": 38.85848466666667, "is_disabled": 0, "type": "electric_bike", "lon": -77.09758133333334, "bike_id": "dfc3a3d0de96cac341798f6934b3f2da", "fusion_lat": 0.0, "name": "dfc3a3d0de96cac341798f6934b3f2da", "is_reserved": 0, "rental_uris": {"android": "https://dc.lft.to/lastmile_qr_scan", "ios": "https://dc.lft.to/lastmile_qr_scan"}, "fusion_lon": 0.0}, {"lat": 38.93092933333333, "is_disabled": 0, "type": "electric_scooter", "lon": -77.02494966666667, "bike_id": "6f79a137abc7cd22121b0d2aaa32a6a4", "fusion_lat": 0.0, "name": "6f79a137abc7cd22121b0d2aaa32a6a4", "is_reserved": 0, "rental_uris": {"android": "https://dc.lft.to/lastmile_qr_scan", "ios": "https://dc.lft.to/lastmile_qr_scan"}, "fusion_lon": 0.0}, {"lat": 38.913251, "is_disabled": 0, "type": "electric_scooter", "lon": -77.03179316666667, "bike_id": "6691c3b65706bbef2a3dc640fa1f0de6", "fusion_lat": 0.0, "name": "6691c3b65706bbef2a3dc640fa1f0de6", "is_reserved": 0, "rental_uris": {"android": "https://dc.lft.to/lastmile_qr_scan", "ios": "https://dc.lft.to/lastmile_qr_scan"}, "fusion_lon": 0.0}, {"lat": 38.901654666666666, "is_disabled": 0, "type": "electric_scooter", "lon": -77.02016333333333, "bike_id": "9a429b5956c130b2c2f89d3a1fbaa9b7", "fusion_lat": 0.0, "name": "9a429b5956c130b2c2f89d3a1fbaa9b7", "is_reserved": 0, "rental_uris": {"android": "https://dc.lft.to/lastmile_qr_scan", "ios": "https://dc.lft.to/lastmile_qr_scan"}, "fusion_lon": 0.0}, {"lat": 38.95884016666667, "is_disabled": 0, "type": "electric_bike", "lon": -76.92486466666666, "bike_id": "0af77edf968f2794f6fb140d4d30808a", "fusion_lat": 0.0, "name": "0af77edf968f2794f6fb140d4d30808a", "is_reserved": 0, "rental_uris": {"android": "https://dc.lft.to/lastmile_qr_scan", "ios": "https://dc.lft.to/lastmile_qr_scan"}, "fusion_lon": 0.0}, {"lat": 38.92902133333333, "is_disabled": 0, "type": "electric_scooter", "lon": -77.031836, "bike_id": "5a5f99d6c63a7e4bd1ef98c420fe2894", "fusion_lat": 0.0, "name": "5a5f99d6c63a7e4bd1ef98c420fe2894", "is_reserved": 0, "rental_uris": {"android": "https://dc.lft.to/lastmile_qr_scan", "ios": "https://dc.lft.to/lastmile_qr_scan"}, "fusion_lon": 0.0}, {"lat": 38.890397, "is_disabled": 0, "type": "electric_scooter", "lon": -76.94085333333334, "bike_id": "f525d6c2173ff33dec9a3b2ac92bdfff", "fusion_lat": 0.0, "name": "f525d6c2173ff33dec9a3b2ac92bdfff", "is_reserved": 0, "rental_uris": {"android": "https://dc.lft.to/lastmile_qr_scan", "ios": "https://dc.lft.to/lastmile_qr_scan"}, "fusion_lon": 0.0}, {"lat": 38.89715666666667, "is_disabled": 0, "type": "electric_scooter", "lon": -77.026783, "bike_id": "d8c68f8bbad13e2be02f06f40823bdca", "fusion_lat": 0.0, "name": "d8c68f8bbad13e2be02f06f40823bdca", "is_reserved": 0, "rental_uris": {"android": "https://dc.lft.to/lastmile_qr_scan", "ios": "https://dc.lft.to/lastmile_qr_scan"}, "fusion_lon": 0.0}, {"lat": 38.9178585, "is_disabled": 0, "type": "electric_scooter", "lon": -77.04435916666667, "bike_id": "8adcfabe672e977cdcdbe9c6227b5208", "fusion_lat": 0.0, "name": "8adcfabe672e977cdcdbe9c6227b5208", "is_reserved": 0, "rental_uris": {"android": "https://dc.lft.to/lastmile_qr_scan", "ios": "https://dc.lft.to/lastmile_qr_scan"}, "fusion_lon": 0.0}, {"lat": 38.922259, "is_disabled": 0, "type": "electric_scooter", "lon": -77.03890883333334, "bike_id": "0f92ec098e71bc6fdf3fb4730fc4a0f2", "fusion_lat": 0.0, "name": "0f92ec098e71bc6fdf3fb4730fc4a0f2", "is_reserved": 0, "rental_uris": {"android": "https://dc.lft.to/lastmile_qr_scan", "ios": "https://dc.lft.to/lastmile_qr_scan"}, "fusion_lon": 0.0}, {"lat": 38.89855633333333, "is_disabled": 0, "type": "electric_scooter", "lon": -77.0200645, "bike_id": "933332c1dc2cefe23a50ffe0cedbf255", "fusion_lat": 0.0, "name": "933332c1dc2cefe23a50ffe0cedbf255", "is_reserved": 0, "rental_uris": {"android": "https://dc.lft.to/lastmile_qr_scan", "ios": "https://dc.lft.to/lastmile_qr_scan"}, "fusion_lon": 0.0}, {"lat": 38.881602666666666, "is_disabled": 0, "type": "electric_scooter", "lon": -76.99492483333333, "bike_id": "3675e3a85f2e58db320232abce0c8325", "fusion_lat": 0.0, "name": "3675e3a85f2e58db320232abce0c8325", "is_reserved": 0, "rental_uris": {"android": "https://dc.lft.to/lastmile_qr_scan", "ios": "https://dc.lft.to/lastmile_qr_scan"}, "fusion_lon": 0.0}, {"lat": 38.86671233333333, "is_disabled": 0, "type": "electric_scooter", "lon": -76.98538416666666, "bike_id": "066b1aef5ea0c485bd9bc1af679b3080", "fusion_lat": 0.0, "name": "066b1aef5ea0c485bd9bc1af679b3080", "is_reserved": 0, "rental_uris": {"android": "https://dc.lft.to/lastmile_qr_scan", "ios": "https://dc.lft.to/lastmile_qr_scan"}, "fusion_lon": 0.0}, {"lat": 38.87672333333333, "is_disabled": 0, "type": "electric_scooter", "lon": -77.00805716666666, "bike_id": "88fc233eb07c70a198828f2664a85b32", "fusion_lat": 0.0, "name": "88fc233eb07c70a198828f2664a85b32", "is_reserved": 0, "rental_uris": {"android": "https://dc.lft.to/lastmile_qr_scan", "ios": "https://dc.lft.to/lastmile_qr_scan"}, "fusion_lon": 0.0}, {"lat": 38.92060883333333, "is_disabled": 0, "type": "electric_scooter", "lon": -77.04811666666667, "bike_id": "9b91a457fe20ae67639f203c95a3fffa", "fusion_lat": 0.0, "name": "9b91a457fe20ae67639f203c95a3fffa", "is_reserved": 0, "rental_uris": {"android": "https://dc.lft.to/lastmile_qr_scan", "ios": "https://dc.lft.to/lastmile_qr_scan"}, "fusion_lon": 0.0}, {"lat": 38.877296, "is_disabled": 0, "type": "electric_bike", "lon": -76.98108366666666, "bike_id": "93be45a866aa8e09efa167e74deebf01", "fusion_lat": 0.0, "name": "93be45a866aa8e09efa167e74deebf01", "is_reserved": 0, "rental_uris": {"android": "https://dc.lft.to/lastmile_qr_scan", "ios": "https://dc.lft.to/lastmile_qr_scan"}, "fusion_lon": 0.0}, {"lat": 38.91460333333333, "is_disabled": 0, "type": "electric_scooter", "lon": -77.01798533333333, "bike_id": "8471c12f56645c240c3d595fd5decc3a", "fusion_lat": 0.0, "name": "8471c12f56645c240c3d595fd5decc3a", "is_reserved": 0, "rental_uris": {"android": "https://dc.lft.to/lastmile_qr_scan", "ios": "https://dc.lft.to/lastmile_qr_scan"}, "fusion_lon": 0.0}, {"lat": 38.90007883333333, "is_disabled": 0, "type": "electric_scooter", "lon": -77.0119705, "bike_id": "983094b66eb0ee3e7d2056c2cc09d543", "fusion_lat": 0.0, "name": "983094b66eb0ee3e7d2056c2cc09d543", "is_reserved": 0, "rental_uris": {"android": "https://dc.lft.to/lastmile_qr_scan", "ios": "https://dc.lft.to/lastmile_qr_scan"}, "fusion_lon": 0.0}, {"lat": 38.917731333333336, "is_disabled": 0, "type": "electric_scooter", "lon": -77.041045, "bike_id": "e462a92f81e8faa9e762d4739cd47050", "fusion_lat": 0.0, "name": "e462a92f81e8faa9e762d4739cd47050", "is_reserved": 0, "rental_uris": {"android": "https://dc.lft.to/lastmile_qr_scan", "ios": "https://dc.lft.to/lastmile_qr_scan"}, "fusion_lon": 0.0}, {"lat": 38.926250333333336, "is_disabled": 0, "type": "electric_scooter", "lon": -77.03784883333333, "bike_id": "5972328aed1492a721f0f45afa415eae", "fusion_lat": 0.0, "name": "5972328aed1492a721f0f45afa415eae", "is_reserved": 0, "rental_uris": {"android": "https://dc.lft.to/lastmile_qr_scan", "ios": "https://dc.lft.to/lastmile_qr_scan"}, "fusion_lon": 0.0}, {"lat": 38.874742499999996, "is_disabled": 0, "type": "electric_scooter", "lon": -77.010713, "bike_id": "ae3e6189fe12036af2dc52428c5316c1", "fusion_lat": 0.0, "name": "ae3e6189fe12036af2dc52428c5316c1", "is_reserved": 0, "rental_uris": {"android": "https://dc.lft.to/lastmile_qr_scan", "ios": "https://dc.lft.to/lastmile_qr_scan"}, "fusion_lon": 0.0}, {"lat": 38.909518, "is_disabled": 0, "type": "electric_scooter", "lon": -77.039434, "bike_id": "4e3092ded05a3546c2d1f66ff9a0ab36", "fusion_lat": 0.0, "name": "4e3092ded05a3546c2d1f66ff9a0ab36", "is_reserved": 0, "rental_uris": {"android": "https://dc.lft.to/lastmile_qr_scan", "ios": "https://dc.lft.to/lastmile_qr_scan"}, "fusion_lon": 0.0}, {"lat": 38.878579333333334, "is_disabled": 0, "type": "electric_scooter", "lon": -77.00742066666666, "bike_id": "bbd37f6bb9439a69f4355b80c76de1a0", "fusion_lat": 0.0, "name": "bbd37f6bb9439a69f4355b80c76de1a0", "is_reserved": 0, "rental_uris": {"android": "https://dc.lft.to/lastmile_qr_scan", "ios": "https://dc.lft.to/lastmile_qr_scan"}, "fusion_lon": 0.0}, {"lat": 38.832295, "is_disabled": 0, "type": "electric_bike", "lon": -77.0497215, "bike_id": "43bdea77f9eb7bebfd54665ee7f60bb4", "fusion_lat": 0.0, "name": "43bdea77f9eb7bebfd54665ee7f60bb4", "is_reserved": 0, "rental_uris": {"android": "https://dc.lft.to/lastmile_qr_scan", "ios": "https://dc.lft.to/lastmile_qr_scan"}, "fusion_lon": 0.0}, {"lat": 38.909916, "is_disabled": 0, "type": "electric_scooter", "lon": -77.03208733333334, "bike_id": "225c5bbad3497e5a18f3d002842ccf79", "fusion_lat": 0.0, "name": "225c5bbad3497e5a18f3d002842ccf79", "is_reserved": 0, "rental_uris": {"android": "https://dc.lft.to/lastmile_qr_scan", "ios": "https://dc.lft.to/lastmile_qr_scan"}, "fusion_lon": 0.0}, {"lat": 38.9168365, "is_disabled": 0, "type": "electric_scooter", "lon": -77.02993866666667, "bike_id": "39e53868653fa7e4ab88654d60812acb", "fusion_lat": 0.0, "name": "39e53868653fa7e4ab88654d60812acb", "is_reserved": 0, "rental_uris": {"android": "https://dc.lft.to/lastmile_qr_scan", "ios": "https://dc.lft.to/lastmile_qr_scan"}, "fusion_lon": 0.0}, {"lat": 38.900513333333336, "is_disabled": 0, "type": "electric_scooter", "lon": -77.00210933333334, "bike_id": "f5a0dba2c0233049c9843c6684970470", "fusion_lat": 0.0, "name": "f5a0dba2c0233049c9843c6684970470", "is_reserved": 0, "rental_uris": {"android": "https://dc.lft.to/lastmile_qr_scan", "ios": "https://dc.lft.to/lastmile_qr_scan"}, "fusion_lon": 0.0}, {"lat": 38.92672483333333, "is_disabled": 0, "type": "electric_scooter", "lon": -77.00742433333333, "bike_id": "b46b82c531ea701b1fbf61b3a5fc8f6a", "fusion_lat": 0.0, "name": "b46b82c531ea701b1fbf61b3a5fc8f6a", "is_reserved": 0, "rental_uris": {"android": "https://dc.lft.to/lastmile_qr_scan", "ios": "https://dc.lft.to/lastmile_qr_scan"}, "fusion_lon": 0.0}, {"lat": 38.879122833333334, "is_disabled": 0, "type": "electric_scooter", "lon": -77.022191, "bike_id": "3028b194ad9e0aab8de90bd03ff925e0", "fusion_lat": 0.0, "name": "3028b194ad9e0aab8de90bd03ff925e0", "is_reserved": 0, "rental_uris": {"android": "https://dc.lft.to/lastmile_qr_scan", "ios": "https://dc.lft.to/lastmile_qr_scan"}, "fusion_lon": 0.0}, {"lat": 38.929377833333334, "is_disabled": 0, "type": "electric_scooter", "lon": -77.03252116666667, "bike_id": "859b1cfc7efd2991a307cc3654a27730", "fusion_lat": 0.0, "name": "859b1cfc7efd2991a307cc3654a27730", "is_reserved": 0, "rental_uris": {"android": "https://dc.lft.to/lastmile_qr_scan", "ios": "https://dc.lft.to/lastmile_qr_scan"}, "fusion_lon": 0.0}, {"lat": 38.892219833333336, "is_disabled": 0, "type": "electric_scooter", "lon": -77.03231816666667, "bike_id": "0cb96109bfa8e667c5f78644db93e6c7", "fusion_lat": 0.0, "name": "0cb96109bfa8e667c5f78644db93e6c7", "is_reserved": 0, "rental_uris": {"android": "https://dc.lft.to/lastmile_qr_scan", "ios": "https://dc.lft.to/lastmile_qr_scan"}, "fusion_lon": 0.0}, {"lat": 38.88687516666667, "is_disabled": 0, "type": "electric_scooter", "lon": -77.017681, "bike_id": "25c2fe2d118a209867409579bdd80374", "fusion_lat": 0.0, "name": "25c2fe2d118a209867409579bdd80374", "is_reserved": 0, "rental_uris": {"android": "https://dc.lft.to/lastmile_qr_scan", "ios": "https://dc.lft.to/lastmile_qr_scan"}, "fusion_lon": 0.0}, {"lat": 38.894968, "is_disabled": 0, "type": "electric_scooter", "lon": -77.00221766666667, "bike_id": "d7d2018045267a2c38c9db25b1b5be38", "fusion_lat": 0.0, "name": "d7d2018045267a2c38c9db25b1b5be38", "is_reserved": 0, "rental_uris": {"android": "https://dc.lft.to/lastmile_qr_scan", "ios": "https://dc.lft.to/lastmile_qr_scan"}, "fusion_lon": 0.0}, {"lat": 38.903921, "is_disabled": 0, "type": "electric_scooter", "lon": -76.9846415, "bike_id": "59502b9fc724479c2943f7a74e395217", "fusion_lat": 0.0, "name": "59502b9fc724479c2943f7a74e395217", "is_reserved": 0, "rental_uris": {"android": "https://dc.lft.to/lastmile_qr_scan", "ios": "https://dc.lft.to/lastmile_qr_scan"}, "fusion_lon": 0.0}, {"lat": 38.89216316666667, "is_disabled": 0, "type": "electric_bike", "lon": -77.107834, "bike_id": "f0a01c7b5f328caea79a4f60c923d964", "fusion_lat": 0.0, "name": "f0a01c7b5f328caea79a4f60c923d964", "is_reserved": 0, "rental_uris": {"android": "https://dc.lft.to/lastmile_qr_scan", "ios": "https://dc.lft.to/lastmile_qr_scan"}, "fusion_lon": 0.0}, {"lat": 38.898003833333334, "is_disabled": 0, "type": "electric_bike", "lon": -77.02683183333333, "bike_id": "39aace2c5ecb97a6af5ad01886b9b231", "fusion_lat": 0.0, "name": "39aace2c5ecb97a6af5ad01886b9b231", "is_reserved": 0, "rental_uris": {"android": "https://dc.lft.to/lastmile_qr_scan", "ios": "https://dc.lft.to/lastmile_qr_scan"}, "fusion_lon": 0.0}, {"lat": 38.937489, "is_disabled": 0, "type": "electric_scooter", "lon": -77.03263866666667, "bike_id": "1e17923da0312f3993b174ba20563d0e", "fusion_lat": 0.0, "name": "1e17923da0312f3993b174ba20563d0e", "is_reserved": 0, "rental_uris": {"android": "https://dc.lft.to/lastmile_qr_scan", "ios": "https://dc.lft.to/lastmile_qr_scan"}, "fusion_lon": 0.0}, {"lat": 38.91337866666667, "is_disabled": 0, "type": "electric_scooter", "lon": -77.01266116666666, "bike_id": "ad5f5ea19908366d3cfd80fad27078e7", "fusion_lat": 0.0, "name": "ad5f5ea19908366d3cfd80fad27078e7", "is_reserved": 0, "rental_uris": {"android": "https://dc.lft.to/lastmile_qr_scan", "ios": "https://dc.lft.to/lastmile_qr_scan"}, "fusion_lon": 0.0}, {"lat": 38.85319, "is_disabled": 0, "type": "electric_scooter", "lon": -76.98028183333334, "bike_id": "a904eaf5f24581722c1fd657f063216a", "fusion_lat": 0.0, "name": "a904eaf5f24581722c1fd657f063216a", "is_reserved": 0, "rental_uris": {"android": "https://dc.lft.to/lastmile_qr_scan", "ios": "https://dc.lft.to/lastmile_qr_scan"}, "fusion_lon": 0.0}, {"lat": 38.89609516666667, "is_disabled": 0, "type": "electric_scooter", "lon": -76.9565195, "bike_id": "cb70de95fcc522ccf86a175b4f4bd19a", "fusion_lat": 0.0, "name": "cb70de95fcc522ccf86a175b4f4bd19a", "is_reserved": 0, "rental_uris": {"android": "https://dc.lft.to/lastmile_qr_scan", "ios": "https://dc.lft.to/lastmile_qr_scan"}, "fusion_lon": 0.0}, {"lat": 38.9075175, "is_disabled": 0, "type": "electric_scooter", "lon": -76.99874083333333, "bike_id": "ce278354585201f9b451b22b848692ef", "fusion_lat": 0.0, "name": "ce278354585201f9b451b22b848692ef", "is_reserved": 0, "rental_uris": {"android": "https://dc.lft.to/lastmile_qr_scan", "ios": "https://dc.lft.to/lastmile_qr_scan"}, "fusion_lon": 0.0}, {"lat": 38.8955405, "is_disabled": 0, "type": "electric_scooter", "lon": -77.00365983333333, "bike_id": "f2d9f7d09ec425d7dc205b726195f4b6", "fusion_lat": 0.0, "name": "f2d9f7d09ec425d7dc205b726195f4b6", "is_reserved": 0, "rental_uris": {"android": "https://dc.lft.to/lastmile_qr_scan", "ios": "https://dc.lft.to/lastmile_qr_scan"}, "fusion_lon": 0.0}, {"lat": 38.90011066666667, "is_disabled": 0, "type": "electric_scooter", "lon": -77.0330525, "bike_id": "7ab3f0ba72768c53c31a2292312de20f", "fusion_lat": 0.0, "name": "7ab3f0ba72768c53c31a2292312de20f", "is_reserved": 0, "rental_uris": {"android": "https://dc.lft.to/lastmile_qr_scan", "ios": "https://dc.lft.to/lastmile_qr_scan"}, "fusion_lon": 0.0}, {"lat": 38.912723666666665, "is_disabled": 0, "type": "electric_scooter", "lon": -77.0319305, "bike_id": "e74dc9b3e446979d4f0335802b27c2cf", "fusion_lat": 0.0, "name": "e74dc9b3e446979d4f0335802b27c2cf", "is_reserved": 0, "rental_uris": {"android": "https://dc.lft.to/lastmile_qr_scan", "ios": "https://dc.lft.to/lastmile_qr_scan"}, "fusion_lon": 0.0}, {"lat": 38.91819516666666, "is_disabled": 0, "type": "electric_scooter", "lon": -77.0318945, "bike_id": "2e9865bbe225a0e8be5514d130401028", "fusion_lat": 0.0, "name": "2e9865bbe225a0e8be5514d130401028", "is_reserved": 0, "rental_uris": {"android": "https://dc.lft.to/lastmile_qr_scan", "ios": "https://dc.lft.to/lastmile_qr_scan"}, "fusion_lon": 0.0}, {"lat": 38.892315833333335, "is_disabled": 0, "type": "electric_scooter", "lon": -77.05001883333334, "bike_id": "3e9119560f3566c87e79bb933c2c7330", "fusion_lat": 0.0, "name": "3e9119560f3566c87e79bb933c2c7330", "is_reserved": 0, "rental_uris": {"android": "https://dc.lft.to/lastmile_qr_scan", "ios": "https://dc.lft.to/lastmile_qr_scan"}, "fusion_lon": 0.0}, {"lat": 38.933795833333335, "is_disabled": 0, "type": "electric_scooter", "lon": -76.99515116666667, "bike_id": "1da3d805f32b09fa7c5d73c42d756038", "fusion_lat": 0.0, "name": "1da3d805f32b09fa7c5d73c42d756038", "is_reserved": 0, "rental_uris": {"android": "https://dc.lft.to/lastmile_qr_scan", "ios": "https://dc.lft.to/lastmile_qr_scan"}, "fusion_lon": 0.0}, {"lat": 38.91630216666667, "is_disabled": 0, "type": "electric_scooter", "lon": -77.023995, "bike_id": "6289919df1d5ae56a33bcd1b40ca7196", "fusion_lat": 0.0, "name": "6289919df1d5ae56a33bcd1b40ca7196", "is_reserved": 0, "rental_uris": {"android": "https://dc.lft.to/lastmile_qr_scan", "ios": "https://dc.lft.to/lastmile_qr_scan"}, "fusion_lon": 0.0}, {"lat": 38.938585, "is_disabled": 0, "type": "electric_scooter", "lon": -77.03206116666667, "bike_id": "69df98e2227d1a0967f041731a3656b7", "fusion_lat": 0.0, "name": "69df98e2227d1a0967f041731a3656b7", "is_reserved": 0, "rental_uris": {"android": "https://dc.lft.to/lastmile_qr_scan", "ios": "https://dc.lft.to/lastmile_qr_scan"}, "fusion_lon": 0.0}, {"lat": 38.87400566666667, "is_disabled": 0, "type": "electric_scooter", "lon": -77.01455783333333, "bike_id": "8b511a47026438590ad2175a81288169", "fusion_lat": 0.0, "name": "8b511a47026438590ad2175a81288169", "is_reserved": 0, "rental_uris": {"android": "https://dc.lft.to/lastmile_qr_scan", "ios": "https://dc.lft.to/lastmile_qr_scan"}, "fusion_lon": 0.0}, {"lat": 38.94902966666667, "is_disabled": 0, "type": "electric_scooter", "lon": -77.066298, "bike_id": "350fedb89ae5c96d71e31e4e2d37144f", "fusion_lat": 0.0, "name": "350fedb89ae5c96d71e31e4e2d37144f", "is_reserved": 0, "rental_uris": {"android": "https://dc.lft.to/lastmile_qr_scan", "ios": "https://dc.lft.to/lastmile_qr_scan"}, "fusion_lon": 0.0}, {"lat": 38.90137983333334, "is_disabled": 0, "type": "electric_scooter", "lon": -77.0032045, "bike_id": "3753afaeed61c4d0553f197ebae45119", "fusion_lat": 0.0, "name": "3753afaeed61c4d0553f197ebae45119", "is_reserved": 0, "rental_uris": {"android": "https://dc.lft.to/lastmile_qr_scan", "ios": "https://dc.lft.to/lastmile_qr_scan"}, "fusion_lon": 0.0}, {"lat": 38.886087333333336, "is_disabled": 0, "type": "electric_scooter", "lon": -77.02294883333333, "bike_id": "d4a9f6a4c5e6d48fb9b8d2c628303dc9", "fusion_lat": 0.0, "name": "d4a9f6a4c5e6d48fb9b8d2c628303dc9", "is_reserved": 0, "rental_uris": {"android": "https://dc.lft.to/lastmile_qr_scan", "ios": "https://dc.lft.to/lastmile_qr_scan"}, "fusion_lon": 0.0}, {"lat": 38.872271166666664, "is_disabled": 0, "type": "electric_scooter", "lon": -77.01209766666666, "bike_id": "8badd1fc31e2b375b947e0db33cb1ebd", "fusion_lat": 0.0, "name": "8badd1fc31e2b375b947e0db33cb1ebd", "is_reserved": 0, "rental_uris": {"android": "https://dc.lft.to/lastmile_qr_scan", "ios": "https://dc.lft.to/lastmile_qr_scan"}, "fusion_lon": 0.0}, {"lat": 38.962019166666664, "is_disabled": 0, "type": "electric_bike", "lon": -77.03511966666667, "bike_id": "6f5a9283c697fe9eadda98a9fa1a4d0e", "fusion_lat": 0.0, "name": "6f5a9283c697fe9eadda98a9fa1a4d0e", "is_reserved": 0, "rental_uris": {"android": "https://dc.lft.to/lastmile_qr_scan", "ios": "https://dc.lft.to/lastmile_qr_scan"}, "fusion_lon": 0.0}, {"lat": 38.86660916666666, "is_disabled": 0, "type": "electric_scooter", "lon": -76.98905316666666, "bike_id": "c89427dd63b3d574a4071f140432f774", "fusion_lat": 0.0, "name": "c89427dd63b3d574a4071f140432f774", "is_reserved": 0, "rental_uris": {"android": "https://dc.lft.to/lastmile_qr_scan", "ios": "https://dc.lft.to/lastmile_qr_scan"}, "fusion_lon": 0.0}, {"lat": 38.92438, "is_disabled": 0, "type": "electric_scooter", "lon": -77.03358366666667, "bike_id": "c9b59092af58cdbdec91ff39c647d65c", "fusion_lat": 0.0, "name": "c9b59092af58cdbdec91ff39c647d65c", "is_reserved": 0, "rental_uris": {"android": "https://dc.lft.to/lastmile_qr_scan", "ios": "https://dc.lft.to/lastmile_qr_scan"}, "fusion_lon": 0.0}, {"lat": 38.91466966666667, "is_disabled": 0, "type": "electric_scooter", "lon": -77.06688133333333, "bike_id": "41bf491d75da496f8b15e3aab3bbe39e", "fusion_lat": 0.0, "name": "41bf491d75da496f8b15e3aab3bbe39e", "is_reserved": 0, "rental_uris": {"android": "https://dc.lft.to/lastmile_qr_scan", "ios": "https://dc.lft.to/lastmile_qr_scan"}, "fusion_lon": 0.0}, {"lat": 38.91030116666667, "is_disabled": 0, "type": "electric_scooter", "lon": -77.03194816666667, "bike_id": "047dad38078cb0cabc38f949b8d628ef", "fusion_lat": 0.0, "name": "047dad38078cb0cabc38f949b8d628ef", "is_reserved": 0, "rental_uris": {"android": "https://dc.lft.to/lastmile_qr_scan", "ios": "https://dc.lft.to/lastmile_qr_scan"}, "fusion_lon": 0.0}, {"lat": 38.9099445, "is_disabled": 0, "type": "electric_scooter", "lon": -76.99739533333333, "bike_id": "81bf60b1de518d2def22bb41ac7c71a0", "fusion_lat": 0.0, "name": "81bf60b1de518d2def22bb41ac7c71a0", "is_reserved": 0, "rental_uris": {"android": "https://dc.lft.to/lastmile_qr_scan", "ios": "https://dc.lft.to/lastmile_qr_scan"}, "fusion_lon": 0.0}, {"lat": 38.9234235, "is_disabled": 0, "type": "electric_scooter", "lon": -77.05173466666666, "bike_id": "060c8b2069905a46b211d0811fb9de32", "fusion_lat": 0.0, "name": "060c8b2069905a46b211d0811fb9de32", "is_reserved": 0, "rental_uris": {"android": "https://dc.lft.to/lastmile_qr_scan", "ios": "https://dc.lft.to/lastmile_qr_scan"}, "fusion_lon": 0.0}, {"lat": 38.916882666666666, "is_disabled": 0, "type": "electric_scooter", "lon": -77.0279475, "bike_id": "9e5aa8730c7b61c12f6ae8bdb3b4e398", "fusion_lat": 0.0, "name": "9e5aa8730c7b61c12f6ae8bdb3b4e398", "is_reserved": 0, "rental_uris": {"android": "https://dc.lft.to/lastmile_qr_scan", "ios": "https://dc.lft.to/lastmile_qr_scan"}, "fusion_lon": 0.0}, {"lat": 38.88128583333334, "is_disabled": 0, "type": "electric_scooter", "lon": -76.9872565, "bike_id": "da8ddcce4aa552c6fb9d849096cd9704", "fusion_lat": 0.0, "name": "da8ddcce4aa552c6fb9d849096cd9704", "is_reserved": 0, "rental_uris": {"android": "https://dc.lft.to/lastmile_qr_scan", "ios": "https://dc.lft.to/lastmile_qr_scan"}, "fusion_lon": 0.0}, {"lat": 38.93131233333333, "is_disabled": 0, "type": "electric_scooter", "lon": -77.02150016666667, "bike_id": "479180a468a370c971498576257f0c41", "fusion_lat": 0.0, "name": "479180a468a370c971498576257f0c41", "is_reserved": 0, "rental_uris": {"android": "https://dc.lft.to/lastmile_qr_scan", "ios": "https://dc.lft.to/lastmile_qr_scan"}, "fusion_lon": 0.0}, {"lat": 38.919179666666665, "is_disabled": 0, "type": "electric_scooter", "lon": -77.03120083333333, "bike_id": "8956a90b7e9f26cd2fef3896ad080d4a", "fusion_lat": 0.0, "name": "8956a90b7e9f26cd2fef3896ad080d4a", "is_reserved": 0, "rental_uris": {"android": "https://dc.lft.to/lastmile_qr_scan", "ios": "https://dc.lft.to/lastmile_qr_scan"}, "fusion_lon": 0.0}, {"lat": 38.917103, "is_disabled": 0, "type": "electric_scooter", "lon": -77.02892166666666, "bike_id": "e0a3e1524d19eda7d2b9cc17a0532e75", "fusion_lat": 0.0, "name": "e0a3e1524d19eda7d2b9cc17a0532e75", "is_reserved": 0, "rental_uris": {"android": "https://dc.lft.to/lastmile_qr_scan", "ios": "https://dc.lft.to/lastmile_qr_scan"}, "fusion_lon": 0.0}, {"lat": 38.938708166666665, "is_disabled": 0, "type": "electric_scooter", "lon": -77.0244795, "bike_id": "078390a0a5793805803e73fd0430bd9a", "fusion_lat": 0.0, "name": "078390a0a5793805803e73fd0430bd9a", "is_reserved": 0, "rental_uris": {"android": "https://dc.lft.to/lastmile_qr_scan", "ios": "https://dc.lft.to/lastmile_qr_scan"}, "fusion_lon": 0.0}, {"lat": 38.907975, "is_disabled": 0, "type": "electric_scooter", "lon": -77.06357033333333, "bike_id": "464e155720383cd457055348e5d0fa98", "fusion_lat": 0.0, "name": "464e155720383cd457055348e5d0fa98", "is_reserved": 0, "rental_uris": {"android": "https://dc.lft.to/lastmile_qr_scan", "ios": "https://dc.lft.to/lastmile_qr_scan"}, "fusion_lon": 0.0}, {"lat": 38.884815333333336, "is_disabled": 0, "type": "electric_scooter", "lon": -77.034793, "bike_id": "49131fb37e6947b9746292fd132b0f61", "fusion_lat": 0.0, "name": "49131fb37e6947b9746292fd132b0f61", "is_reserved": 0, "rental_uris": {"android": "https://dc.lft.to/lastmile_qr_scan", "ios": "https://dc.lft.to/lastmile_qr_scan"}, "fusion_lon": 0.0}, {"lat": 38.928468, "is_disabled": 0, "type": "electric_bike", "lon": -77.10676883333333, "bike_id": "c4c3139ae189d103acb195ba6b79d5dd", "fusion_lat": 0.0, "name": "c4c3139ae189d103acb195ba6b79d5dd", "is_reserved": 0, "rental_uris": {"android": "https://dc.lft.to/lastmile_qr_scan", "ios": "https://dc.lft.to/lastmile_qr_scan"}, "fusion_lon": 0.0}, {"lat": 38.937576666666665, "is_disabled": 0, "type": "electric_scooter", "lon": -77.03137066666666, "bike_id": "7fb59d3b24304440a403f198e3e3d476", "fusion_lat": 0.0, "name": "7fb59d3b24304440a403f198e3e3d476", "is_reserved": 0, "rental_uris": {"android": "https://dc.lft.to/lastmile_qr_scan", "ios": "https://dc.lft.to/lastmile_qr_scan"}, "fusion_lon": 0.0}, {"lat": 38.80740083333333, "is_disabled": 0, "type": "electric_bike", "lon": -77.09426516666667, "bike_id": "4fb7bce96380d408e74081a170d4e9fd", "fusion_lat": 0.0, "name": "4fb7bce96380d408e74081a170d4e9fd", "is_reserved": 0, "rental_uris": {"android": "https://dc.lft.to/lastmile_qr_scan", "ios": "https://dc.lft.to/lastmile_qr_scan"}, "fusion_lon": 0.0}, {"lat": 38.91115216666667, "is_disabled": 0, "type": "electric_scooter", "lon": -77.03241816666667, "bike_id": "5a095a0437fffe6699b35ff4a63b8cae", "fusion_lat": 0.0, "name": "5a095a0437fffe6699b35ff4a63b8cae", "is_reserved": 0, "rental_uris": {"android": "https://dc.lft.to/lastmile_qr_scan", "ios": "https://dc.lft.to/lastmile_qr_scan"}, "fusion_lon": 0.0}, {"lat": 38.900283, "is_disabled": 0, "type": "electric_scooter", "lon": -76.99384416666666, "bike_id": "444b26462e1e0503958f8aaea84409cd", "fusion_lat": 0.0, "name": "444b26462e1e0503958f8aaea84409cd", "is_reserved": 0, "rental_uris": {"android": "https://dc.lft.to/lastmile_qr_scan", "ios": "https://dc.lft.to/lastmile_qr_scan"}, "fusion_lon": 0.0}, {"lat": 38.910178, "is_disabled": 0, "type": "electric_scooter", "lon": -77.0385595, "bike_id": "0fff136af193d20579b66a80599e0e19", "fusion_lat": 0.0, "name": "0fff136af193d20579b66a80599e0e19", "is_reserved": 0, "rental_uris": {"android": "https://dc.lft.to/lastmile_qr_scan", "ios": "https://dc.lft.to/lastmile_qr_scan"}, "fusion_lon": 0.0}, {"lat": 38.92057783333333, "is_disabled": 0, "type": "electric_scooter", "lon": -76.97612083333334, "bike_id": "97adba76a14527a666e17991b6c47ffa", "fusion_lat": 0.0, "name": "97adba76a14527a666e17991b6c47ffa", "is_reserved": 0, "rental_uris": {"android": "https://dc.lft.to/lastmile_qr_scan", "ios": "https://dc.lft.to/lastmile_qr_scan"}, "fusion_lon": 0.0}, {"lat": 38.921836, "is_disabled": 0, "type": "electric_scooter", "lon": -77.0413965, "bike_id": "c0b062b3a1423ab36fbe66b4090068e6", "fusion_lat": 0.0, "name": "c0b062b3a1423ab36fbe66b4090068e6", "is_reserved": 0, "rental_uris": {"android": "https://dc.lft.to/lastmile_qr_scan", "ios": "https://dc.lft.to/lastmile_qr_scan"}, "fusion_lon": 0.0}, {"lat": 38.914878, "is_disabled": 0, "type": "electric_scooter", "lon": -77.032641, "bike_id": "3d600ddba2784b3c6bdb24827524ca99", "fusion_lat": 0.0, "name": "3d600ddba2784b3c6bdb24827524ca99", "is_reserved": 0, "rental_uris": {"android": "https://dc.lft.to/lastmile_qr_scan", "ios": "https://dc.lft.to/lastmile_qr_scan"}, "fusion_lon": 0.0}, {"lat": 38.92536033333333, "is_disabled": 0, "type": "electric_scooter", "lon": -77.0443355, "bike_id": "d3725ab29b282ca6a485771650b4edaf", "fusion_lat": 0.0, "name": "d3725ab29b282ca6a485771650b4edaf", "is_reserved": 0, "rental_uris": {"android": "https://dc.lft.to/lastmile_qr_scan", "ios": "https://dc.lft.to/lastmile_qr_scan"}, "fusion_lon": 0.0}, {"lat": 38.88112983333333, "is_disabled": 0, "type": "electric_scooter", "lon": -76.98337983333333, "bike_id": "2f5b362197bfaf6f320a1c14ea41057e", "fusion_lat": 0.0, "name": "2f5b362197bfaf6f320a1c14ea41057e", "is_reserved": 0, "rental_uris": {"android": "https://dc.lft.to/lastmile_qr_scan", "ios": "https://dc.lft.to/lastmile_qr_scan"}, "fusion_lon": 0.0}, {"lat": 38.9028895, "is_disabled": 0, "type": "electric_scooter", "lon": -77.04689333333333, "bike_id": "21a5d6ad758981781f328791e72f646e", "fusion_lat": 0.0, "name": "21a5d6ad758981781f328791e72f646e", "is_reserved": 0, "rental_uris": {"android": "https://dc.lft.to/lastmile_qr_scan", "ios": "https://dc.lft.to/lastmile_qr_scan"}, "fusion_lon": 0.0}, {"lat": 38.9270975, "is_disabled": 0, "type": "electric_scooter", "lon": -77.0209165, "bike_id": "61ec93437f02cdbb40f2090aa146d540", "fusion_lat": 0.0, "name": "61ec93437f02cdbb40f2090aa146d540", "is_reserved": 0, "rental_uris": {"android": "https://dc.lft.to/lastmile_qr_scan", "ios": "https://dc.lft.to/lastmile_qr_scan"}, "fusion_lon": 0.0}, {"lat": 38.87223633333333, "is_disabled": 0, "type": "electric_scooter", "lon": -77.01210866666666, "bike_id": "0875b93e67c0ed3689f9b4ccd51316f7", "fusion_lat": 0.0, "name": "0875b93e67c0ed3689f9b4ccd51316f7", "is_reserved": 0, "rental_uris": {"android": "https://dc.lft.to/lastmile_qr_scan", "ios": "https://dc.lft.to/lastmile_qr_scan"}, "fusion_lon": 0.0}, {"lat": 38.916193666666665, "is_disabled": 0, "type": "electric_scooter", "lon": -77.03276133333334, "bike_id": "6fe9115d328477164aac419869920623", "fusion_lat": 0.0, "name": "6fe9115d328477164aac419869920623", "is_reserved": 0, "rental_uris": {"android": "https://dc.lft.to/lastmile_qr_scan", "ios": "https://dc.lft.to/lastmile_qr_scan"}, "fusion_lon": 0.0}, {"lat": 38.84561733333334, "is_disabled": 0, "type": "electric_bike", "lon": -77.096237, "bike_id": "4f00c7b5c1d8c4ce61f970a710a744c6", "fusion_lat": 0.0, "name": "4f00c7b5c1d8c4ce61f970a710a744c6", "is_reserved": 0, "rental_uris": {"android": "https://dc.lft.to/lastmile_qr_scan", "ios": "https://dc.lft.to/lastmile_qr_scan"}, "fusion_lon": 0.0}, {"lat": 38.905627833333334, "is_disabled": 0, "type": "electric_scooter", "lon": -77.04357383333334, "bike_id": "6d2930d5297ec9c213bfd9091022062a", "fusion_lat": 0.0, "name": "6d2930d5297ec9c213bfd9091022062a", "is_reserved": 0, "rental_uris": {"android": "https://dc.lft.to/lastmile_qr_scan", "ios": "https://dc.lft.to/lastmile_qr_scan"}, "fusion_lon": 0.0}, {"lat": 38.86712166666667, "is_disabled": 0, "type": "electric_scooter", "lon": -76.98718433333333, "bike_id": "1d98d195499b4e6fdce8b6fab7d23964", "fusion_lat": 0.0, "name": "1d98d195499b4e6fdce8b6fab7d23964", "is_reserved": 0, "rental_uris": {"android": "https://dc.lft.to/lastmile_qr_scan", "ios": "https://dc.lft.to/lastmile_qr_scan"}, "fusion_lon": 0.0}, {"lat": 38.871441833333336, "is_disabled": 0, "type": "electric_bike", "lon": -76.93704766666667, "bike_id": "141d2f8fb9d4db369fb3511c3182c46d", "fusion_lat": 0.0, "name": "141d2f8fb9d4db369fb3511c3182c46d", "is_reserved": 0, "rental_uris": {"android": "https://dc.lft.to/lastmile_qr_scan", "ios": "https://dc.lft.to/lastmile_qr_scan"}, "fusion_lon": 0.0}, {"lat": 38.8368985, "is_disabled": 0, "type": "electric_scooter", "lon": -77.10306633333333, "bike_id": "bf0d99b1b089084eaa7f2aa4eea04756", "fusion_lat": 0.0, "name": "bf0d99b1b089084eaa7f2aa4eea04756", "is_reserved": 0, "rental_uris": {"android": "https://dc.lft.to/lastmile_qr_scan", "ios": "https://dc.lft.to/lastmile_qr_scan"}, "fusion_lon": 0.0}, {"lat": 38.930939333333335, "is_disabled": 0, "type": "electric_scooter", "lon": -77.02510233333334, "bike_id": "e97a837526505004e091acb84a99b120", "fusion_lat": 0.0, "name": "e97a837526505004e091acb84a99b120", "is_reserved": 0, "rental_uris": {"android": "https://dc.lft.to/lastmile_qr_scan", "ios": "https://dc.lft.to/lastmile_qr_scan"}, "fusion_lon": 0.0}, {"lat": 38.866534333333334, "is_disabled": 0, "type": "electric_scooter", "lon": -76.98886133333333, "bike_id": "ba2d2fee8f58fe3d7523ded00e9b1043", "fusion_lat": 0.0, "name": "ba2d2fee8f58fe3d7523ded00e9b1043", "is_reserved": 0, "rental_uris": {"android": "https://dc.lft.to/lastmile_qr_scan", "ios": "https://dc.lft.to/lastmile_qr_scan"}, "fusion_lon": 0.0}, {"lat": 38.90862583333333, "is_disabled": 0, "type": "electric_scooter", "lon": -77.042846, "bike_id": "e178c3431ee1442a187ed6d5cdf568a2", "fusion_lat": 0.0, "name": "e178c3431ee1442a187ed6d5cdf568a2", "is_reserved": 0, "rental_uris": {"android": "https://dc.lft.to/lastmile_qr_scan", "ios": "https://dc.lft.to/lastmile_qr_scan"}, "fusion_lon": 0.0}, {"lat": 38.9399545, "is_disabled": 0, "type": "electric_scooter", "lon": -77.071744, "bike_id": "0f1e4c55e6ce207978d5b6f49b77f7aa", "fusion_lat": 0.0, "name": "0f1e4c55e6ce207978d5b6f49b77f7aa", "is_reserved": 0, "rental_uris": {"android": "https://dc.lft.to/lastmile_qr_scan", "ios": "https://dc.lft.to/lastmile_qr_scan"}, "fusion_lon": 0.0}, {"lat": 38.912601333333335, "is_disabled": 0, "type": "electric_scooter", "lon": -77.032147, "bike_id": "117d369ed2d44b7005dba0560c20497d", "fusion_lat": 0.0, "name": "117d369ed2d44b7005dba0560c20497d", "is_reserved": 0, "rental_uris": {"android": "https://dc.lft.to/lastmile_qr_scan", "ios": "https://dc.lft.to/lastmile_qr_scan"}, "fusion_lon": 0.0}, {"lat": 38.92566466666667, "is_disabled": 0, "type": "electric_scooter", "lon": -77.05757616666666, "bike_id": "7d33e7fe7368520b1e458f7d0d4d5d85", "fusion_lat": 0.0, "name": "7d33e7fe7368520b1e458f7d0d4d5d85", "is_reserved": 0, "rental_uris": {"android": "https://dc.lft.to/lastmile_qr_scan", "ios": "https://dc.lft.to/lastmile_qr_scan"}, "fusion_lon": 0.0}, {"lat": 38.908395666666664, "is_disabled": 0, "type": "electric_scooter", "lon": -77.02000283333334, "bike_id": "082efe1a991cb4882d6479e9b7b043d8", "fusion_lat": 0.0, "name": "082efe1a991cb4882d6479e9b7b043d8", "is_reserved": 0, "rental_uris": {"android": "https://dc.lft.to/lastmile_qr_scan", "ios": "https://dc.lft.to/lastmile_qr_scan"}, "fusion_lon": 0.0}, {"lat": 38.89735783333333, "is_disabled": 0, "type": "electric_scooter", "lon": -77.045294, "bike_id": "2aec026eac9cc3a0bbab57d217d7cf11", "fusion_lat": 0.0, "name": "2aec026eac9cc3a0bbab57d217d7cf11", "is_reserved": 0, "rental_uris": {"android": "https://dc.lft.to/lastmile_qr_scan", "ios": "https://dc.lft.to/lastmile_qr_scan"}, "fusion_lon": 0.0}, {"lat": 38.879981, "is_disabled": 0, "type": "electric_scooter", "lon": -76.98540233333334, "bike_id": "19c5c67151c641111b7ec12c10a39560", "fusion_lat": 0.0, "name": "19c5c67151c641111b7ec12c10a39560", "is_reserved": 0, "rental_uris": {"android": "https://dc.lft.to/lastmile_qr_scan", "ios": "https://dc.lft.to/lastmile_qr_scan"}, "fusion_lon": 0.0}, {"lat": 38.921408, "is_disabled": 0, "type": "electric_scooter", "lon": -77.0437005, "bike_id": "bd615595529ccf69292735741534b704", "fusion_lat": 0.0, "name": "bd615595529ccf69292735741534b704", "is_reserved": 0, "rental_uris": {"android": "https://dc.lft.to/lastmile_qr_scan", "ios": "https://dc.lft.to/lastmile_qr_scan"}, "fusion_lon": 0.0}, {"lat": 38.899061833333334, "is_disabled": 0, "type": "electric_scooter", "lon": -76.93350283333334, "bike_id": "15516fc5a40cac0692b363bd0a81abab", "fusion_lat": 0.0, "name": "15516fc5a40cac0692b363bd0a81abab", "is_reserved": 0, "rental_uris": {"android": "https://dc.lft.to/lastmile_qr_scan", "ios": "https://dc.lft.to/lastmile_qr_scan"}, "fusion_lon": 0.0}, {"lat": 38.90407966666667, "is_disabled": 0, "type": "electric_scooter", "lon": -77.0207705, "bike_id": "9f12d4f21641b2de1b5b7516170a7e15", "fusion_lat": 0.0, "name": "9f12d4f21641b2de1b5b7516170a7e15", "is_reserved": 0, "rental_uris": {"android": "https://dc.lft.to/lastmile_qr_scan", "ios": "https://dc.lft.to/lastmile_qr_scan"}, "fusion_lon": 0.0}, {"lat": 38.91453716666667, "is_disabled": 0, "type": "electric_scooter", "lon": -77.0318855, "bike_id": "8a808777901f03eafc6d54fc081f3a67", "fusion_lat": 0.0, "name": "8a808777901f03eafc6d54fc081f3a67", "is_reserved": 0, "rental_uris": {"android": "https://dc.lft.to/lastmile_qr_scan", "ios": "https://dc.lft.to/lastmile_qr_scan"}, "fusion_lon": 0.0}, {"lat": 38.8926055, "is_disabled": 0, "type": "electric_scooter", "lon": -76.9415825, "bike_id": "7b7119bcd1cf868de4a9665f89e131cc", "fusion_lat": 0.0, "name": "7b7119bcd1cf868de4a9665f89e131cc", "is_reserved": 0, "rental_uris": {"android": "https://dc.lft.to/lastmile_qr_scan", "ios": "https://dc.lft.to/lastmile_qr_scan"}, "fusion_lon": 0.0}, {"lat": 38.85801566666667, "is_disabled": 0, "type": "electric_scooter", "lon": -76.989912, "bike_id": "b45b6acfaf49451578080acf28bb901c", "fusion_lat": 0.0, "name": "b45b6acfaf49451578080acf28bb901c", "is_reserved": 0, "rental_uris": {"android": "https://dc.lft.to/lastmile_qr_scan", "ios": "https://dc.lft.to/lastmile_qr_scan"}, "fusion_lon": 0.0}, {"lat": 38.900118666666664, "is_disabled": 0, "type": "electric_scooter", "lon": -76.98801466666667, "bike_id": "2b843777b375ab09d60639ae0d012a2a", "fusion_lat": 0.0, "name": "2b843777b375ab09d60639ae0d012a2a", "is_reserved": 0, "rental_uris": {"android": "https://dc.lft.to/lastmile_qr_scan", "ios": "https://dc.lft.to/lastmile_qr_scan"}, "fusion_lon": 0.0}, {"lat": 38.916759166666665, "is_disabled": 0, "type": "electric_scooter", "lon": -77.029742, "bike_id": "c6ecda735e36c87636f1879c45fddb74", "fusion_lat": 0.0, "name": "c6ecda735e36c87636f1879c45fddb74", "is_reserved": 0, "rental_uris": {"android": "https://dc.lft.to/lastmile_qr_scan", "ios": "https://dc.lft.to/lastmile_qr_scan"}, "fusion_lon": 0.0}, {"lat": 38.88729166666667, "is_disabled": 0, "type": "electric_scooter", "lon": -77.02828183333334, "bike_id": "07ac537cb9151dbfbe6a58edef4d4a00", "fusion_lat": 0.0, "name": "07ac537cb9151dbfbe6a58edef4d4a00", "is_reserved": 0, "rental_uris": {"android": "https://dc.lft.to/lastmile_qr_scan", "ios": "https://dc.lft.to/lastmile_qr_scan"}, "fusion_lon": 0.0}, {"lat": 38.90725833333333, "is_disabled": 0, "type": "electric_scooter", "lon": -77.0415565, "bike_id": "442f73c1657663b516acd4ae2a4106d3", "fusion_lat": 0.0, "name": "442f73c1657663b516acd4ae2a4106d3", "is_reserved": 0, "rental_uris": {"android": "https://dc.lft.to/lastmile_qr_scan", "ios": "https://dc.lft.to/lastmile_qr_scan"}, "fusion_lon": 0.0}, {"lat": 38.93016016666667, "is_disabled": 0, "type": "electric_scooter", "lon": -77.032567, "bike_id": "113d9aea95ab3487005479407de57d9b", "fusion_lat": 0.0, "name": "113d9aea95ab3487005479407de57d9b", "is_reserved": 0, "rental_uris": {"android": "https://dc.lft.to/lastmile_qr_scan", "ios": "https://dc.lft.to/lastmile_qr_scan"}, "fusion_lon": 0.0}, {"lat": 38.920720833333334, "is_disabled": 0, "type": "electric_scooter", "lon": -77.0241275, "bike_id": "384bf13fcf3e842114e989803c846f1c", "fusion_lat": 0.0, "name": "384bf13fcf3e842114e989803c846f1c", "is_reserved": 0, "rental_uris": {"android": "https://dc.lft.to/lastmile_qr_scan", "ios": "https://dc.lft.to/lastmile_qr_scan"}, "fusion_lon": 0.0}, {"lat": 38.916502666666666, "is_disabled": 0, "type": "electric_scooter", "lon": -76.98220866666666, "bike_id": "dd78300b4304dbad685a1dd0a9575643", "fusion_lat": 0.0, "name": "dd78300b4304dbad685a1dd0a9575643", "is_reserved": 0, "rental_uris": {"android": "https://dc.lft.to/lastmile_qr_scan", "ios": "https://dc.lft.to/lastmile_qr_scan"}, "fusion_lon": 0.0}, {"lat": 38.8442975, "is_disabled": 0, "type": "electric_scooter", "lon": -76.99664933333334, "bike_id": "c8c61ca298bf0e9a527aa04219df22fc", "fusion_lat": 0.0, "name": "c8c61ca298bf0e9a527aa04219df22fc", "is_reserved": 0, "rental_uris": {"android": "https://dc.lft.to/lastmile_qr_scan", "ios": "https://dc.lft.to/lastmile_qr_scan"}, "fusion_lon": 0.0}, {"lat": 38.917219333333335, "is_disabled": 0, "type": "electric_scooter", "lon": -77.02908183333334, "bike_id": "1065ea33447bab612795a1583a06018e", "fusion_lat": 0.0, "name": "1065ea33447bab612795a1583a06018e", "is_reserved": 0, "rental_uris": {"android": "https://dc.lft.to/lastmile_qr_scan", "ios": "https://dc.lft.to/lastmile_qr_scan"}, "fusion_lon": 0.0}, {"lat": 38.87665283333333, "is_disabled": 0, "type": "electric_scooter", "lon": -77.00410516666666, "bike_id": "6c394941df8b3aac14ee60f242e10aae", "fusion_lat": 0.0, "name": "6c394941df8b3aac14ee60f242e10aae", "is_reserved": 0, "rental_uris": {"android": "https://dc.lft.to/lastmile_qr_scan", "ios": "https://dc.lft.to/lastmile_qr_scan"}, "fusion_lon": 0.0}, {"lat": 38.900331333333334, "is_disabled": 0, "type": "electric_scooter", "lon": -76.99619216666666, "bike_id": "fbec1aaf21326d5a150e6dc22beee5b8", "fusion_lat": 0.0, "name": "fbec1aaf21326d5a150e6dc22beee5b8", "is_reserved": 0, "rental_uris": {"android": "https://dc.lft.to/lastmile_qr_scan", "ios": "https://dc.lft.to/lastmile_qr_scan"}, "fusion_lon": 0.0}, {"lat": 38.94549383333333, "is_disabled": 0, "type": "electric_bike", "lon": -76.89537433333334, "bike_id": "aee98352c91c1d1fd5d6cf76caec047b", "fusion_lat": 0.0, "name": "aee98352c91c1d1fd5d6cf76caec047b", "is_reserved": 0, "rental_uris": {"android": "https://dc.lft.to/lastmile_qr_scan", "ios": "https://dc.lft.to/lastmile_qr_scan"}, "fusion_lon": 0.0}, {"lat": 38.8973095, "is_disabled": 0, "type": "electric_scooter", "lon": -77.04976016666667, "bike_id": "16ddee074438c6a688d8687af0ccbe94", "fusion_lat": 0.0, "name": "16ddee074438c6a688d8687af0ccbe94", "is_reserved": 0, "rental_uris": {"android": "https://dc.lft.to/lastmile_qr_scan", "ios": "https://dc.lft.to/lastmile_qr_scan"}, "fusion_lon": 0.0}, {"lat": 38.92242, "is_disabled": 0, "type": "electric_scooter", "lon": -77.04269566666666, "bike_id": "2e74d4eb853ad304a8a4be2747d5c288", "fusion_lat": 0.0, "name": "2e74d4eb853ad304a8a4be2747d5c288", "is_reserved": 0, "rental_uris": {"android": "https://dc.lft.to/lastmile_qr_scan", "ios": "https://dc.lft.to/lastmile_qr_scan"}, "fusion_lon": 0.0},