{"data": {"bikes": [{"fusion_lat": 0.0, "type": "electric_scooter", "name": "5ed2bada46a939b0710fdf64c5350b84", "fusion_lon": 0.0, "bike_id": "5ed2bada46a939b0710fdf64c5350b84", "is_reserved": 0, "rental_uris": {"android": "https://dc.lft.to/lastmile_qr_scan", "ios": "https://dc.lft.to/lastmile_qr_scan"}, "lat": 38.92750683333333, "is_disabled": 0, "lon": -77.0363375}, {"fusion_lat": 0.0, "type": "electric_bike", "name": "cecadf02178f6856a35dfe21d7bcb69c", "fusion_lon": 0.0, "bike_id": "cecadf02178f6856a35dfe21d7bcb69c", "is_reserved": 0, "rental_uris": {"android": "https://dc.lft.to/lastmile_qr_scan", "ios": "https://dc.lft.to/lastmile_qr_scan"}, "lat": 38.8527325, "is_disabled": 0, "lon": -76.99580883333333}, {"fusion_lat": 0.0, "type": "electric_bike", "name": "077648b2325913a8807d45e531fe7d70", "fusion_lon": 0.0, "bike_id": "077648b2325913a8807d45e531fe7d70", "is_reserved": 0, "rental_uris": {"android": "https://dc.lft.to/lastmile_qr_scan", "ios": "https://dc.lft.to/lastmile_qr_scan"}, "lat": 38.823830666666666, "is_disabled": 0, "lon": -77.00225783333333}, {"fusion_lat": 0.0, "type": "electric_scooter", "name": "293b1258c5baf023b79e3abf8d038e54", "fusion_lon": 0.0, "bike_id": "293b1258c5baf023b79e3abf8d038e54", "is_reserved": 0, "rental_uris": {"android": "https://dc.lft.to/lastmile_qr_scan", "ios": "https://dc.lft.to/lastmile_qr_scan"}, "lat": 38.91515066666667, "is_disabled": 0, "lon": -77.04332966666666}, {"fusion_lat": 0.0, "type": "electric_scooter", "name": "7d0aa5421c874fb0f97b26b6563386e5", "fusion_lon": 0.0, "bike_id": "7d0aa5421c874fb0f97b26b6563386e5", "is_reserved": 0, "rental_uris": {"android": "https://dc.lft.to/lastmile_qr_scan", "ios": "https://dc.lft.to/lastmile_qr_scan"}, "lat": 38.896089, "is_disabled": 0, "lon": -77.049798}, {"fusion_lat": 0.0, "type": "electric_bike", "name": "1c7017addd32098fdcfe12dcaf4924b4", "fusion_lon": 0.0, "bike_id": "1c7017addd32098fdcfe12dcaf4924b4", "is_reserved": 0, "rental_uris": {"android": "https://dc.lft.to/lastmile_qr_scan", "ios": "https://dc.lft.to/lastmile_qr_scan"}, "lat": 38.962136, "is_disabled": 0, "lon": -76.99377416666667}, {"fusion_lat": 0.0, "type": "electric_scooter", "name": "85b67732f3c1832d8f160531eab988d5", "fusion_lon": 0.0, "bike_id": "85b67732f3c1832d8f160531eab988d5", "is_reserved": 0, "rental_uris": {"android": "https://dc.lft.to/lastmile_qr_scan", "ios": "https://dc.lft.to/lastmile_qr_scan"}, "lat": 38.95071633333333, "is_disabled": 0, "lon": -76.99560783333334}, {"fusion_lat": 0.0, "type": "electric_scooter", "name": "076982ca810342d0664f4c78b5ed2153", "fusion_lon": 0.0, "bike_id": "076982ca810342d0664f4c78b5ed2153", "is_reserved": 0, "rental_uris": {"android": "https://dc.lft.to/lastmile_qr_scan", "ios": "https://dc.lft.to/lastmile_qr_scan"}, "lat": 38.90832616666667, "is_disabled": 0, "lon": -77.074355}, {"fusion_lat": 0.0, "type": "electric_scooter", "name": "4e62a29c0176cf8263fd9accc6114834", "fusion_lon": 0.0, "bike_id": "4e62a29c0176cf8263fd9accc6114834", "is_reserved": 0, "rental_uris": {"android": "https://dc.lft.to/lastmile_qr_scan", "ios": "https://dc.lft.to/lastmile_qr_scan"}, "lat": 38.91849583333333, "is_disabled": 0, "lon": -76.9654875}, {"fusion_lat": 0.0, "type": "electric_scooter", "name": "e754296ec396db42e57c8597f11eee7f", "fusion_lon": 0.0, "bike_id": "e754296ec396db42e57c8597f11eee7f", "is_reserved": 0, "rental_uris": {"android": "https://dc.lft.to/lastmile_qr_scan", "ios": "https://dc.lft.to/lastmile_qr_scan"}, "lat": 38.89356983333333, "is_disabled": 0, "lon": -77.00333933333333}, {"fusion_lat": 0.0, "type": "electric_scooter", "name": "864d67aaadf1c7a11f29e4a33b2f9816", "fusion_lon": 0.0, "bike_id": "864d67aaadf1c7a11f29e4a33b2f9816", "is_reserved": 0, "rental_uris": {"android": "https://dc.lft.to/lastmile_qr_scan", "ios": "https://dc.lft.to/lastmile_qr_scan"}, "lat": 38.907373, "is_disabled": 0, "lon": -77.04511016666666}, {"fusion_lat": 0.0, "type": "electric_scooter", "name": "be283fec24a3b2e32729774d7c6efb22", "fusion_lon": 0.0, "bike_id": "be283fec24a3b2e32729774d7c6efb22", "is_reserved": 0, "rental_uris": {"android": "https://dc.lft.to/lastmile_qr_scan", "ios": "https://dc.lft.to/lastmile_qr_scan"}, "lat": 38.896097833333336, "is_disabled": 0, "lon": -77.04596283333333}, {"fusion_lat": 0.0, "type": "electric_scooter", "name": "88fbcf7a6ccbbe8a1b15167881016f5b", "fusion_lon": 0.0, "bike_id": "88fbcf7a6ccbbe8a1b15167881016f5b", "is_reserved": 0, "rental_uris": {"android": "https://dc.lft.to/lastmile_qr_scan", "ios": "https://dc.lft.to/lastmile_qr_scan"}, "lat": 38.9191515, "is_disabled": 0, "lon": -77.04807116666667}, {"fusion_lat": 0.0, "type": "electric_scooter", "name": "96af08a02bd755f96793fd8aefb66bc7", "fusion_lon": 0.0, "bike_id": "96af08a02bd755f96793fd8aefb66bc7", "is_reserved": 0, "rental_uris": {"android": "https://dc.lft.to/lastmile_qr_scan", "ios": "https://dc.lft.to/lastmile_qr_scan"}, "lat": 38.881201, "is_disabled": 0, "lon": -77.01665066666666}, {"fusion_lat": 0.0, "type": "electric_scooter", "name": "267fccccbe6ee5ecaf3a19123eb6bbda", "fusion_lon": 0.0, "bike_id": "267fccccbe6ee5ecaf3a19123eb6bbda", "is_reserved": 0, "rental_uris": {"android": "https://dc.lft.to/lastmile_qr_scan", "ios": "https://dc.lft.to/lastmile_qr_scan"}, "lat": 38.8954845, "is_disabled": 0, "lon": -77.056624}, {"fusion_lat": 0.0, "type": "electric_scooter", "name": "eea0c3b964c9368409c1950950edc0c8", "fusion_lon": 0.0, "bike_id": "eea0c3b964c9368409c1950950edc0c8", "is_reserved": 0, "rental_uris": {"android": "https://dc.lft.to/lastmile_qr_scan", "ios": "https://dc.lft.to/lastmile_qr_scan"}, "lat": 38.90285, "is_disabled": 0, "lon": -77.03443133333333}, {"fusion_lat": 0.0, "type": "electric_scooter", "name": "7fe6d498f91391c9b36f73f2344e3c75", "fusion_lon": 0.0, "bike_id": "7fe6d498f91391c9b36f73f2344e3c75", "is_reserved": 0, "rental_uris": {"android": "https://dc.lft.to/lastmile_qr_scan", "ios": "https://dc.lft.to/lastmile_qr_scan"}, "lat": 38.9354075, "is_disabled": 0, "lon": -77.05830083333333}, {"fusion_lat": 0.0, "type": "electric_scooter", "name": "80f6a62ccbdae863a183e40f9f4f4f9f", "fusion_lon": 0.0, "bike_id": "80f6a62ccbdae863a183e40f9f4f4f9f", "is_reserved": 0, "rental_uris": {"android": "https://dc.lft.to/lastmile_qr_scan", "ios": "https://dc.lft.to/lastmile_qr_scan"}, "lat": 38.914831, "is_disabled": 0, "lon": -77.0319545}, {"fusion_lat": 0.0, "type": "electric_scooter", "name": "cd7be91f449bb77d0c8f341ef7a69313", "fusion_lon": 0.0, "bike_id": "cd7be91f449bb77d0c8f341ef7a69313", "is_reserved": 0, "rental_uris": {"android": "https://dc.lft.to/lastmile_qr_scan", "ios": "https://dc.lft.to/lastmile_qr_scan"}, "lat": 38.90571583333333, "is_disabled": 0, "lon": -77.0427975}, {"fusion_lat": 0.0, "type": "electric_scooter", "name": "446f09309042caf31096dd6bce9604e7", "fusion_lon": 0.0, "bike_id": "446f09309042caf31096dd6bce9604e7", "is_reserved": 0, "rental_uris": {"android": "https://dc.lft.to/lastmile_qr_scan", "ios": "https://dc.lft.to/lastmile_qr_scan"}, "lat": 38.9233025, "is_disabled": 0, "lon": -77.0195415}, {"fusion_lat": 0.0, "type": "electric_scooter", "name": "e81e1fc73a3cd1f82fa6bdb9efbcdc28", "fusion_lon": 0.0, "bike_id": "e81e1fc73a3cd1f82fa6bdb9efbcdc28", "is_reserved": 0, "rental_uris": {"android": "https://dc.lft.to/lastmile_qr_scan", "ios": "https://dc.lft.to/lastmile_qr_scan"}, "lat": 38.887660833333335, "is_disabled": 0, "lon": -76.95576133333333}, {"fusion_lat": 0.0, "type": "electric_scooter", "name": "ff15ad69b678e2f0d8bfeef9f7272623", "fusion_lon": 0.0, "bike_id": "ff15ad69b678e2f0d8bfeef9f7272623", "is_reserved": 0, "rental_uris": {"android": "https://dc.lft.to/lastmile_qr_scan", "ios": "https://dc.lft.to/lastmile_qr_scan"}, "lat": 38.895027166666665, "is_disabled": 0, "lon": -77.00950066666667}, {"fusion_lat": 0.0, "type": "electric_scooter", "name": "0b41537c79c3ff7106916c67a7a10ce1", "fusion_lon": 0.0, "bike_id": "0b41537c79c3ff7106916c67a7a10ce1", "is_reserved": 0, "rental_uris": {"android": "https://dc.lft.to/lastmile_qr_scan", "ios": "https://dc.lft.to/lastmile_qr_scan"}, "lat": 38.9257585, "is_disabled": 0, "lon": -77.02844366666666}, {"fusion_lat": 0.0, "type": "electric_scooter", "name": "efa1d41a146e9168d43ced87ff96f5c1", "fusion_lon": 0.0, "bike_id": "efa1d41a146e9168d43ced87ff96f5c1", "is_reserved": 0, "rental_uris": {"android": "https://dc.lft.to/lastmile_qr_scan", "ios": "https://dc.lft.to/lastmile_qr_scan"}, "lat": 38.90081333333333, "is_disabled": 0, "lon": -76.99368133333333}, {"fusion_lat": 0.0, "type": "electric_scooter", "name": "fc27e9b1ec4ae860fb7e69817a45099c", "fusion_lon": 0.0, "bike_id": "fc27e9b1ec4ae860fb7e69817a45099c", "is_reserved": 0, "rental_uris": {"android": "https://dc.lft.to/lastmile_qr_scan", "ios": "https://dc.lft.to/lastmile_qr_scan"}, "lat": 38.91724933333333, "is_disabled": 0, "lon": -77.02970116666667}, {"fusion_lat": 0.0, "type": "electric_scooter", "name": "e91887ce66639ad2c015f01526c32043", "fusion_lon": 0.0, "bike_id": "e91887ce66639ad2c015f01526c32043", "is_reserved": 0, "rental_uris": {"android": "https://dc.lft.to/lastmile_qr_scan", "ios": "https://dc.lft.to/lastmile_qr_scan"}, "lat": 38.918092, "is_disabled": 0, "lon": -77.02496966666666}, {"fusion_lat": 0.0, "type": "electric_scooter", "name": "7d02f7d186b7cd4897fd0931e979eb80", "fusion_lon": 0.0, "bike_id": "7d02f7d186b7cd4897fd0931e979eb80", "is_reserved": 0, "rental_uris": {"android": "https://dc.lft.to/lastmile_qr_scan", "ios": "https://dc.lft.to/lastmile_qr_scan"}, "lat": 38.941822333333334, "is_disabled": 0, "lon": -77.02529683333333}, {"fusion_lat": 0.0, "type": "electric_scooter", "name": "a122757af731f6af2dc1a4c510418f62", "fusion_lon": 0.0, "bike_id": "a122757af731f6af2dc1a4c510418f62", "is_reserved": 0, "rental_uris": {"android": "https://dc.lft.to/lastmile_qr_scan", "ios": "https://dc.lft.to/lastmile_qr_scan"}, "lat": 38.9081425, "is_disabled": 0, "lon": -77.0385685}, {"fusion_lat": 0.0, "type": "electric_scooter", "name": "b85f1aaa24087f6419add73e7bfc1667", "fusion_lon": 0.0, "bike_id": "b85f1aaa24087f6419add73e7bfc1667", "is_reserved": 0, "rental_uris": {"android": "https://dc.lft.to/lastmile_qr_scan", "ios": "https://dc.lft.to/lastmile_qr_scan"}, "lat": 38.891985, "is_disabled": 0, "lon": -77.0262535}, {"fusion_lat": 0.0, "type": "electric_scooter", "name": "76158b46566ccb797247fd640c181e8b", "fusion_lon": 0.0, "bike_id": "76158b46566ccb797247fd640c181e8b", "is_reserved": 0, "rental_uris": {"android": "https://dc.lft.to/lastmile_qr_scan", "ios": "https://dc.lft.to/lastmile_qr_scan"}, "lat": 38.923662666666665, "is_disabled": 0, "lon": -77.01922133333333}, {"fusion_lat": 0.0, "type": "electric_scooter", "name": "05451d3c924e3d5e88cbd11e3951b437", "fusion_lon": 0.0, "bike_id": "05451d3c924e3d5e88cbd11e3951b437", "is_reserved": 0, "rental_uris": {"android": "https://dc.lft.to/lastmile_qr_scan", "ios": "https://dc.lft.to/lastmile_qr_scan"}, "lat": 38.90507183333333, "is_disabled": 0, "lon": -77.046587}, {"fusion_lat": 0.0, "type": "electric_scooter", "name": "2f10ee4da148e877e61428e7748cb021", "fusion_lon": 0.0, "bike_id": "2f10ee4da148e877e61428e7748cb021", "is_reserved": 0, "rental_uris": {"android": "https://dc.lft.to/lastmile_qr_scan", "ios": "https://dc.lft.to/lastmile_qr_scan"}, "lat": 38.91404466666667, "is_disabled": 0, "lon": -77.0455135}, {"fusion_lat": 0.0, "type": "electric_scooter", "name": "07ebca53f5e7a5bf553ceee965a4360e", "fusion_lon": 0.0, "bike_id": "07ebca53f5e7a5bf553ceee965a4360e", "is_reserved": 0, "rental_uris": {"android": "https://dc.lft.to/lastmile_qr_scan", "ios": "https://dc.lft.to/lastmile_qr_scan"}, "lat": 38.93616816666667, "is_disabled": 0, "lon": -77.081762}, {"fusion_lat": 0.0, "type": "electric_scooter", "name": "1ed6dfa8badef94d51245c0f078fcf03", "fusion_lon": 0.0, "bike_id": "1ed6dfa8badef94d51245c0f078fcf03", "is_reserved": 0, "rental_uris": {"android": "https://dc.lft.to/lastmile_qr_scan", "ios": "https://dc.lft.to/lastmile_qr_scan"}, "lat": 38.92193866666667, "is_disabled": 0, "lon": -76.988748}, {"fusion_lat": 0.0, "type": "electric_bike", "name": "349f7be7de151c89c9901527183e568a", "fusion_lon": 0.0, "bike_id": "349f7be7de151c89c9901527183e568a", "is_reserved": 0, "rental_uris": {"android": "https://dc.lft.to/lastmile_qr_scan", "ios": "https://dc.lft.to/lastmile_qr_scan"}, "lat": 38.99639116666667, "is_disabled": 0, "lon": -77.03994616666667}, {"fusion_lat": 0.0, "type": "electric_scooter", "name": "e4788d3490b28c4fecc39e8c80fdf702", "fusion_lon": 0.0, "bike_id": "e4788d3490b28c4fecc39e8c80fdf702", "is_reserved": 0, "rental_uris": {"android": "https://dc.lft.to/lastmile_qr_scan", "ios": "https://dc.lft.to/lastmile_qr_scan"}, "lat": 38.90047716666667, "is_disabled": 0, "lon": -76.98829766666667}, {"fusion_lat": 0.0, "type": "electric_scooter", "name": "e7cf0dee82c1b0302e4caadef04e6866", "fusion_lon": 0.0, "bike_id": "e7cf0dee82c1b0302e4caadef04e6866", "is_reserved": 0, "rental_uris": {"android": "https://dc.lft.to/lastmile_qr_scan", "ios": "https://dc.lft.to/lastmile_qr_scan"}, "lat": 38.924474000000004, "is_disabled": 0, "lon": -77.021335}, {"fusion_lat": 0.0, "type": "electric_scooter", "name": "62646d20a5182c4707d3723d22edc8f4", "fusion_lon": 0.0, "bike_id": "62646d20a5182c4707d3723d22edc8f4", "is_reserved": 0, "rental_uris": {"android": "https://dc.lft.to/lastmile_qr_scan", "ios": "https://dc.lft.to/lastmile_qr_scan"}, "lat": 38.897340666666665, "is_disabled": 0, "lon": -77.0307975}, {"fusion_lat": 0.0, "type": "electric_scooter", "name": "0ff183ff2d679725de9e33e26a179ef4", "fusion_lon": 0.0, "bike_id": "0ff183ff2d679725de9e33e26a179ef4", "is_reserved": 0, "rental_uris": {"android": "https://dc.lft.to/lastmile_qr_scan", "ios": "https://dc.lft.to/lastmile_qr_scan"}, "lat": 38.91812483333333, "is_disabled": 0, "lon": -77.03374683333334}, {"fusion_lat": 0.0, "type": "electric_scooter", "name": "22ef2c5bb3f6669e1619234acd5ac0a6", "fusion_lon": 0.0, "bike_id": "22ef2c5bb3f6669e1619234acd5ac0a6", "is_reserved": 0, "rental_uris": {"android": "https://dc.lft.to/lastmile_qr_scan", "ios": "https://dc.lft.to/lastmile_qr_scan"}, "lat": 38.900895, "is_disabled": 0, "lon": -76.9387245}, {"fusion_lat": 0.0, "type": "electric_scooter", "name": "84c6498deb0504b3e0b7720964986d59", "fusion_lon": 0.0, "bike_id": "84c6498deb0504b3e0b7720964986d59", "is_reserved": 0, "rental_uris": {"android": "https://dc.lft.to/lastmile_qr_scan", "ios": "https://dc.lft.to/lastmile_qr_scan"}, "lat": 38.89747533333333, "is_disabled": 0, "lon": -76.9472955}, {"fusion_lat": 0.0, "type": "electric_scooter", "name": "504abfb89125117fa22190f090389812", "fusion_lon": 0.0, "bike_id": "504abfb89125117fa22190f090389812", "is_reserved": 0, "rental_uris": {"android": "https://dc.lft.to/lastmile_qr_scan", "ios": "https://dc.lft.to/lastmile_qr_scan"}, "lat": 38.949579, "is_disabled": 0, "lon": -77.02726383333334}, {"fusion_lat": 0.0, "type": "electric_scooter", "name": "c980352826c35b5ae82c7aa639573ec5", "fusion_lon": 0.0, "bike_id": "c980352826c35b5ae82c7aa639573ec5", "is_reserved": 0, "rental_uris": {"android": "https://dc.lft.to/lastmile_qr_scan", "ios": "https://dc.lft.to/lastmile_qr_scan"}, "lat": 38.908796333333335, "is_disabled": 0, "lon": -77.07172033333333}, {"fusion_lat": 0.0, "type": "electric_scooter", "name": "56fe536dc5f5c7bcaa9bd904b359baea", "fusion_lon": 0.0, "bike_id": "56fe536dc5f5c7bcaa9bd904b359baea", "is_reserved": 0, "rental_uris": {"android": "https://dc.lft.to/lastmile_qr_scan", "ios": "https://dc.lft.to/lastmile_qr_scan"}, "lat": 38.927672666666666, "is_disabled": 0, "lon": -77.02294}, {"fusion_lat": 0.0, "type": "electric_scooter", "name": "88c850b5827f894f4956009cc2d10620", "fusion_lon": 0.0, "bike_id": "88c850b5827f894f4956009cc2d10620", "is_reserved": 0, "rental_uris": {"android": "https://dc.lft.to/lastmile_qr_scan", "ios": "https://dc.lft.to/lastmile_qr_scan"}, "lat": 38.844291, "is_disabled": 0, "lon": -76.99779283333334}, {"fusion_lat": 0.0, "type": "electric_scooter", "name": "4fc0a98f1ba0202c7256bfe71fba35b0", "fusion_lon": 0.0, "bike_id": "4fc0a98f1ba0202c7256bfe71fba35b0", "is_reserved": 0, "rental_uris": {"android": "https://dc.lft.to/lastmile_qr_scan", "ios": "https://dc.lft.to/lastmile_qr_scan"}, "lat": 38.913239, "is_disabled": 0, "lon": -77.015099}, {"fusion_lat": 0.0, "type": "electric_bike", "name": "acc43d3df8948216239f08c021228826", "fusion_lon": 0.0, "bike_id": "acc43d3df8948216239f08c021228826", "is_reserved": 0, "rental_uris": {"android": "https://dc.lft.to/lastmile_qr_scan", "ios": "https://dc.lft.to/lastmile_qr_scan"}, "lat": 38.930611999999996, "is_disabled": 0, "lon": -77.023228}, {"fusion_lat": 0.0, "type": "electric_scooter", "name": "433af82cf3a321e194133b1f1ee56bfb", "fusion_lon": 0.0, "bike_id": "433af82cf3a321e194133b1f1ee56bfb", "is_reserved": 0, "rental_uris": {"android": "https://dc.lft.to/lastmile_qr_scan", "ios": "https://dc.lft.to/lastmile_qr_scan"}, "lat": 38.948424833333334, "is_disabled": 0, "lon": -77.02543533333333}, {"fusion_lat": 0.0, "type": "electric_scooter", "name": "a7a8d48c9c99d321367ca7278d1349d3", "fusion_lon": 0.0, "bike_id": "a7a8d48c9c99d321367ca7278d1349d3", "is_reserved": 0, "rental_uris": {"android": "https://dc.lft.to/lastmile_qr_scan", "ios": "https://dc.lft.to/lastmile_qr_scan"}, "lat": 38.87978583333334, "is_disabled": 0, "lon": -77.0137905}, {"fusion_lat": 0.0, "type": "electric_scooter", "name": "e60c5a0a3d9bb202fe85f51e2e56e421", "fusion_lon": 0.0, "bike_id": "e60c5a0a3d9bb202fe85f51e2e56e421", "is_reserved": 0, "rental_uris": {"android": "https://dc.lft.to/lastmile_qr_scan", "ios": "https://dc.lft.to/lastmile_qr_scan"}, "lat": 38.9110345, "is_disabled": 0, "lon": -77.0466875}, {"fusion_lat": 0.0, "type": "electric_bike", "name": "553d13c96798e0ee5d546037bb342a84", "fusion_lon": 0.0, "bike_id": "553d13c96798e0ee5d546037bb342a84", "is_reserved": 0, "rental_uris": {"android": "https://dc.lft.to/lastmile_qr_scan", "ios": "https://dc.lft.to/lastmile_qr_scan"}, "lat": 38.91385733333333, "is_disabled": 0, "lon": -77.08925016666667}, {"fusion_lat": 0.0, "type": "electric_scooter", "name": "eab4c498204ca0dea96636be76cf4693", "fusion_lon": 0.0, "bike_id": "eab4c498204ca0dea96636be76cf4693", "is_reserved": 0, "rental_uris": {"android": "https://dc.lft.to/lastmile_qr_scan", "ios": "https://dc.lft.to/lastmile_qr_scan"}, "lat": 38.923351833333335, "is_disabled": 0, "lon": -77.036129}, {"fusion_lat": 0.0, "type": "electric_scooter", "name": "51430360994cf828bfd07f8a389598f2", "fusion_lon": 0.0, "bike_id": "51430360994cf828bfd07f8a389598f2", "is_reserved": 0, "rental_uris": {"android": "https://dc.lft.to/lastmile_qr_scan", "ios": "https://dc.lft.to/lastmile_qr_scan"}, "lat": 38.900142, "is_disabled": 0, "lon": -77.0322285}, {"fusion_lat": 0.0, "type": "electric_scooter", "name": "59f18994c5ec503dfe7c59e1c3bb7ebd", "fusion_lon": 0.0, "bike_id": "59f18994c5ec503dfe7c59e1c3bb7ebd", "is_reserved": 0, "rental_uris": {"android": "https://dc.lft.to/lastmile_qr_scan", "ios": "https://dc.lft.to/lastmile_qr_scan"}, "lat": 38.93523016666666, "is_disabled": 0, "lon": -77.0728425}, {"fusion_lat": 0.0, "type": "electric_scooter", "name": "215cee157bd3128c833c735274b91235", "fusion_lon": 0.0, "bike_id": "215cee157bd3128c833c735274b91235", "is_reserved": 0, "rental_uris": {"android": "https://dc.lft.to/lastmile_qr_scan", "ios": "https://dc.lft.to/lastmile_qr_scan"}, "lat": 38.914962333333335, "is_disabled": 0, "lon": -77.04400166666667}, {"fusion_lat": 0.0, "type": "electric_scooter", "name": "1eb020a79798c699791609d6487a09dd", "fusion_lon": 0.0, "bike_id": "1eb020a79798c699791609d6487a09dd", "is_reserved": 0, "rental_uris": {"android": "https://dc.lft.to/lastmile_qr_scan", "ios": "https://dc.lft.to/lastmile_qr_scan"}, "lat": 38.919519666666666, "is_disabled": 0, "lon": -76.9807895}, {"fusion_lat": 0.0, "type": "electric_scooter", "name": "dc1f19347d5d545f259f51205d1a86ce", "fusion_lon": 0.0, "bike_id": "dc1f19347d5d545f259f51205d1a86ce", "is_reserved": 0, "rental_uris": {"android": "https://dc.lft.to/lastmile_qr_scan", "ios": "https://dc.lft.to/lastmile_qr_scan"}, "lat": 38.9062095, "is_disabled": 0, "lon": -77.04160866666666}, {"fusion_lat": 0.0, "type": "electric_scooter", "name": "bc868ad62065532e5419b8ca678669b5", "fusion_lon": 0.0, "bike_id": "bc868ad62065532e5419b8ca678669b5", "is_reserved": 0, "rental_uris": {"android": "https://dc.lft.to/lastmile_qr_scan", "ios": "https://dc.lft.to/lastmile_qr_scan"}, "lat": 38.90561783333333, "is_disabled": 0, "lon": -77.04701833333333}, {"fusion_lat": 0.0, "type": "electric_scooter", "name": "78e966651537199b8719caf57ca01aa4", "fusion_lon": 0.0, "bike_id": "78e966651537199b8719caf57ca01aa4", "is_reserved": 0, "rental_uris": {"android": "https://dc.lft.to/lastmile_qr_scan", "ios": "https://dc.lft.to/lastmile_qr_scan"}, "lat": 38.90866533333333, "is_disabled": 0, "lon": -77.042629}, {"fusion_lat": 0.0, "type": "electric_scooter", "name": "4d5d22beb9ca40a5b883296c59f759d2", "fusion_lon": 0.0, "bike_id": "4d5d22beb9ca40a5b883296c59f759d2", "is_reserved": 0, "rental_uris": {"android": "https://dc.lft.to/lastmile_qr_scan", "ios": "https://dc.lft.to/lastmile_qr_scan"}, "lat": 38.9247435, "is_disabled": 0, "lon": -77.022179}, {"fusion_lat": 0.0, "type": "electric_bike", "name": "5939ae2c820aaad91fdec1de9cd20b3a", "fusion_lon": 0.0, "bike_id": "5939ae2c820aaad91fdec1de9cd20b3a", "is_reserved": 0, "rental_uris": {"android": "https://dc.lft.to/lastmile_qr_scan", "ios": "https://dc.lft.to/lastmile_qr_scan"}, "lat": 38.896513166666665, "is_disabled": 0, "lon": -76.9301605}, {"fusion_lat": 0.0, "type": "electric_scooter", "name": "a7f1999120c89e9da9de2dfcd0152e9a", "fusion_lon": 0.0, "bike_id": "a7f1999120c89e9da9de2dfcd0152e9a", "is_reserved": 0, "rental_uris": {"android": "https://dc.lft.to/lastmile_qr_scan", "ios": "https://dc.lft.to/lastmile_qr_scan"}, "lat": 38.88607566666667, "is_disabled": 0, "lon": -76.99510766666667}, {"fusion_lat": 0.0, "type": "electric_scooter", "name": "d4f907d66e20870d3d41169e56e3e867", "fusion_lon": 0.0, "bike_id": "d4f907d66e20870d3d41169e56e3e867", "is_reserved": 0, "rental_uris": {"android": "https://dc.lft.to/lastmile_qr_scan", "ios": "https://dc.lft.to/lastmile_qr_scan"}, "lat": 38.92439783333333, "is_disabled": 0, "lon": -77.03995483333334}, {"fusion_lat": 0.0, "type": "electric_scooter", "name": "7aea1b16d0be2dc5610492e62dd7f9c1", "fusion_lon": 0.0, "bike_id": "7aea1b16d0be2dc5610492e62dd7f9c1", "is_reserved": 0, "rental_uris": {"android": "https://dc.lft.to/lastmile_qr_scan", "ios": "https://dc.lft.to/lastmile_qr_scan"}, "lat": 38.91845983333333, "is_disabled": 0, "lon": -76.9655255}, {"fusion_lat": 0.0, "type": "electric_scooter", "name": "879d8e7e62e4efc33fe2303eb6421a06", "fusion_lon": 0.0, "bike_id": "879d8e7e62e4efc33fe2303eb6421a06", "is_reserved": 0, "rental_uris": {"android": "https://dc.lft.to/lastmile_qr_scan", "ios": "https://dc.lft.to/lastmile_qr_scan"}, "lat": 38.9082865, "is_disabled": 0, "lon": -77.03955283333333}, {"fusion_lat": 0.0, "type": "electric_scooter", "name": "d7fb563d9095d193ec6a6d78616731ca", "fusion_lon": 0.0, "bike_id": "d7fb563d9095d193ec6a6d78616731ca", "is_reserved": 0, "rental_uris": {"android": "https://dc.lft.to/lastmile_qr_scan", "ios": "https://dc.lft.to/lastmile_qr_scan"}, "lat": 38.92147633333333, "is_disabled": 0, "lon": -77.03377466666667}, {"fusion_lat": 0.0, "type": "electric_scooter", "name": "678e3e54b984dbb1a4a914ef638aa03f", "fusion_lon": 0.0, "bike_id": "678e3e54b984dbb1a4a914ef638aa03f", "is_reserved": 0, "rental_uris": {"android": "https://dc.lft.to/lastmile_qr_scan", "ios": "https://dc.lft.to/lastmile_qr_scan"}, "lat": 38.949891, "is_disabled": 0, "lon": -77.02702466666666}, {"fusion_lat": 0.0, "type": "electric_scooter", "name": "9aaafbfff3d3e24be7e5db9e5c34a8cd", "fusion_lon": 0.0, "bike_id": "9aaafbfff3d3e24be7e5db9e5c34a8cd", "is_reserved": 0, "rental_uris": {"android": "https://dc.lft.to/lastmile_qr_scan", "ios": "https://dc.lft.to/lastmile_qr_scan"}, "lat": 38.88611216666666, "is_disabled": 0, "lon": -77.001394}, {"fusion_lat": 0.0, "type": "electric_scooter", "name": "f3cabbec9c7307834e058c1a64de868e", "fusion_lon": 0.0, "bike_id": "f3cabbec9c7307834e058c1a64de868e", "is_reserved": 0, "rental_uris": {"android": "https://dc.lft.to/lastmile_qr_scan", "ios": "https://dc.lft.to/lastmile_qr_scan"}, "lat": 38.887144166666666, "is_disabled": 0, "lon": -77.02205866666667}, {"fusion_lat": 0.0, "type": "electric_bike", "name": "8a315f17584fe903d266836f12ecaaa0", "fusion_lon": 0.0, "bike_id": "8a315f17584fe903d266836f12ecaaa0", "is_reserved": 0, "rental_uris": {"android": "https://dc.lft.to/lastmile_qr_scan", "ios": "https://dc.lft.to/lastmile_qr_scan"}, "lat": 38.9815575, "is_disabled": 0, "lon": -77.02640366666667}, {"fusion_lat": 0.0, "type": "electric_scooter", "name": "d5e9bfdcdfbb55166915b7481799cfa5", "fusion_lon": 0.0, "bike_id": "d5e9bfdcdfbb55166915b7481799cfa5", "is_reserved": 0, "rental_uris": {"android": "https://dc.lft.to/lastmile_qr_scan", "ios": "https://dc.lft.to/lastmile_qr_scan"}, "lat": 38.86479466666667, "is_disabled": 0, "lon": -76.9822705}, {"fusion_lat": 0.0, "type": "electric_bike", "name": "976220d0da58040c075f01bd90928f14", "fusion_lon": 0.0, "bike_id": "976220d0da58040c075f01bd90928f14", "is_reserved": 0, "rental_uris": {"android": "https://dc.lft.to/lastmile_qr_scan", "ios": "https://dc.lft.to/lastmile_qr_scan"}, "lat": 38.859376833333336, "is_disabled": 0, "lon": -77.11829816666666}, {"fusion_lat": 0.0, "type": "electric_scooter", "name": "7f4edc69f67224723fafc940533dcd1c", "fusion_lon": 0.0, "bike_id": "7f4edc69f67224723fafc940533dcd1c", "is_reserved": 0, "rental_uris": {"android": "https://dc.lft.to/lastmile_qr_scan", "ios": "https://dc.lft.to/lastmile_qr_scan"}, "lat": 38.91365716666667, "is_disabled": 0, "lon": -77.04558916666667}, {"fusion_lat": 0.0, "type": "electric_scooter", "name": "5a34a925851e70fc64a15a136bb63620", "fusion_lon": 0.0, "bike_id": "5a34a925851e70fc64a15a136bb63620", "is_reserved": 0, "rental_uris": {"android": "https://dc.lft.to/lastmile_qr_scan", "ios": "https://dc.lft.to/lastmile_qr_scan"}, "lat": 38.90204466666667, "is_disabled": 0, "lon": -77.041706}, {"fusion_lat": 0.0, "type": "electric_bike", "name": "1cdd46e42318fc54b475ff586645178d", "fusion_lon": 0.0, "bike_id": "1cdd46e42318fc54b475ff586645178d", "is_reserved": 0, "rental_uris": {"android": "https://dc.lft.to/lastmile_qr_scan", "ios": "https://dc.lft.to/lastmile_qr_scan"}, "lat": 38.827861, "is_disabled": 0, "lon": -77.0091615}, {"fusion_lat": 0.0, "type": "electric_scooter", "name": "0f548fb971e3e6cc4d7a70b0a1e5dea2", "fusion_lon": 0.0, "bike_id": "0f548fb971e3e6cc4d7a70b0a1e5dea2", "is_reserved": 0, "rental_uris": {"android": "https://dc.lft.to/lastmile_qr_scan", "ios": "https://dc.lft.to/lastmile_qr_scan"}, "lat": 38.9056395, "is_disabled": 0, "lon": -76.9837935}, {"fusion_lat": 0.0, "type": "electric_scooter", "name": "ca587449d72067ca98acac8fe4883227", "fusion_lon": 0.0, "bike_id": "ca587449d72067ca98acac8fe4883227", "is_reserved": 0, "rental_uris": {"android": "https://dc.lft.to/lastmile_qr_scan", "ios": "https://dc.lft.to/lastmile_qr_scan"}, "lat": 38.885095166666666, "is_disabled": 0, "lon": -77.01584033333333}, {"fusion_lat": 0.0, "type": "electric_scooter", "name": "9ce9694513a59aa11f32ef7e5c6b2d2d", "fusion_lon": 0.0, "bike_id": "9ce9694513a59aa11f32ef7e5c6b2d2d", "is_reserved": 0, "rental_uris": {"android": "https://dc.lft.to/lastmile_qr_scan", "ios": "https://dc.lft.to/lastmile_qr_scan"}, "lat": 38.898895833333334, "is_disabled": 0, "lon": -77.01214633333333}, {"fusion_lat": 0.0, "type": "electric_scooter", "name": "5d65664b3b6168567abe6e4b7ca5b355", "fusion_lon": 0.0, "bike_id": "5d65664b3b6168567abe6e4b7ca5b355", "is_reserved": 0, "rental_uris": {"android": "https://dc.lft.to/lastmile_qr_scan", "ios": "https://dc.lft.to/lastmile_qr_scan"}, "lat": 38.9236685, "is_disabled": 0, "lon": -77.0505125}, {"fusion_lat": 0.0, "type": "electric_scooter", "name": "63867f808b341d92c0d5871f4ff68c36", "fusion_lon": 0.0, "bike_id": "63867f808b341d92c0d5871f4ff68c36", "is_reserved": 0, "rental_uris": {"android": "https://dc.lft.to/lastmile_qr_scan", "ios": "https://dc.lft.to/lastmile_qr_scan"}, "lat": 38.8995565, "is_disabled": 0, "lon": -77.00350583333334}, {"fusion_lat": 0.0, "type": "electric_scooter", "name": "cb00e3e09be3f65636c1b35974ab666c", "fusion_lon": 0.0, "bike_id": "cb00e3e09be3f65636c1b35974ab666c", "is_reserved": 0, "rental_uris": {"android": "https://dc.lft.to/lastmile_qr_scan", "ios": "https://dc.lft.to/lastmile_qr_scan"}, "lat": 38.90037383333333, "is_disabled": 0, "lon": -77.00205666666666}, {"fusion_lat": 0.0, "type": "electric_scooter", "name": "a1044ef74857a442ee6783fbe86b528a", "fusion_lon": 0.0, "bike_id": "a1044ef74857a442ee6783fbe86b528a", "is_reserved": 0, "rental_uris": {"android": "https://dc.lft.to/lastmile_qr_scan", "ios": "https://dc.lft.to/lastmile_qr_scan"}, "lat": 38.92342, "is_disabled": 0, "lon": -77.02148733333334}, {"fusion_lat": 0.0, "type": "electric_scooter", "name": "03097a561b700fcc9d56be34536e8936", "fusion_lon": 0.0, "bike_id": "03097a561b700fcc9d56be34536e8936", "is_reserved": 0, "rental_uris": {"android": "https://dc.lft.to/lastmile_qr_scan", "ios": "https://dc.lft.to/lastmile_qr_scan"}, "lat": 38.937676, "is_disabled": 0, "lon": -77.02198916666667}, {"fusion_lat": 0.0, "type": "electric_scooter", "name": "6c87531045e286495ead2b60f4114760", "fusion_lon": 0.0, "bike_id": "6c87531045e286495ead2b60f4114760", "is_reserved": 0, "rental_uris": {"android": "https://dc.lft.to/lastmile_qr_scan", "ios": "https://dc.lft.to/lastmile_qr_scan"}, "lat": 38.892294, "is_disabled": 0, "lon": -77.02617683333334}, {"fusion_lat": 0.0, "type": "electric_scooter", "name": "0de148f70fa83026705f394f959a5d7c", "fusion_lon": 0.0, "bike_id": "0de148f70fa83026705f394f959a5d7c", "is_reserved": 0, "rental_uris": {"android": "https://dc.lft.to/lastmile_qr_scan", "ios": "https://dc.lft.to/lastmile_qr_scan"}, "lat": 38.92321283333333, "is_disabled": 0, "lon": -77.03406766666667}, {"fusion_lat": 0.0, "type": "electric_scooter", "name": "0b59f3778b44f1fb143651f4618f57e7", "fusion_lon": 0.0, "bike_id": "0b59f3778b44f1fb143651f4618f57e7", "is_reserved": 0, "rental_uris": {"android": "https://dc.lft.to/lastmile_qr_scan", "ios": "https://dc.lft.to/lastmile_qr_scan"}, "lat": 38.9104265, "is_disabled": 0, "lon": -77.03682483333333}, {"fusion_lat": 0.0, "type": "electric_bike", "name": "8bbeea0b9b46aa637833379ee806bccf", "fusion_lon": 0.0, "bike_id": "8bbeea0b9b46aa637833379ee806bccf", "is_reserved": 0, "rental_uris": {"android": "https://dc.lft.to/lastmile_qr_scan", "ios": "https://dc.lft.to/lastmile_qr_scan"}, "lat": 38.887197666666665, "is_disabled": 0, "lon": -77.1330465}, {"fusion_lat": 0.0, "type": "electric_scooter", "name": "dbcf3eae8d11271b12b4009fed2a679a", "fusion_lon": 0.0, "bike_id": "dbcf3eae8d11271b12b4009fed2a679a", "is_reserved": 0, "rental_uris": {"android": "https://dc.lft.to/lastmile_qr_scan", "ios": "https://dc.lft.to/lastmile_qr_scan"}, "lat": 38.90078833333333, "is_disabled": 0, "lon": -77.02540683333334}, {"fusion_lat": 0.0, "type": "electric_scooter", "name": "2a8a4fc95c44de918417ad07d60a9193", "fusion_lon": 0.0, "bike_id": "2a8a4fc95c44de918417ad07d60a9193", "is_reserved": 0, "rental_uris": {"android": "https://dc.lft.to/lastmile_qr_scan", "ios": "https://dc.lft.to/lastmile_qr_scan"}, "lat": 38.9101845, "is_disabled": 0, "lon": -77.0649435}, {"fusion_lat": 0.0, "type": "electric_scooter", "name": "578ecbd7b342700084a59bc11697396a", "fusion_lon": 0.0, "bike_id": "578ecbd7b342700084a59bc11697396a", "is_reserved": 0, "rental_uris": {"android": "https://dc.lft.to/lastmile_qr_scan", "ios": "https://dc.lft.to/lastmile_qr_scan"}, "lat": 38.880285, "is_disabled": 0, "lon": -77.0264805}, {"fusion_lat": 0.0, "type": "electric_scooter", "name": "924d46501dfeb3aa7b8f7baa3d473212", "fusion_lon": 0.0, "bike_id": "924d46501dfeb3aa7b8f7baa3d473212", "is_reserved": 0, "rental_uris": {"android": "https://dc.lft.to/lastmile_qr_scan", "ios": "https://dc.lft.to/lastmile_qr_scan"}, "lat": 38.89239216666667, "is_disabled": 0, "lon": -77.03183916666667}, {"fusion_lat": 0.0, "type": "electric_scooter", "name": "d58566e6be640ada4da2c3018b218686", "fusion_lon": 0.0, "bike_id": "d58566e6be640ada4da2c3018b218686", "is_reserved": 0, "rental_uris": {"android": "https://dc.lft.to/lastmile_qr_scan", "ios": "https://dc.lft.to/lastmile_qr_scan"}, "lat": 38.90519583333333, "is_disabled": 0, "lon": -77.04343166666666}, {"fusion_lat": 0.0, "type": "electric_scooter", "name": "5eda71b63bc18eeef8dc8216fff1b401", "fusion_lon": 0.0, "bike_id": "5eda71b63bc18eeef8dc8216fff1b401", "is_reserved": 0, "rental_uris": {"android": "https://dc.lft.to/lastmile_qr_scan", "ios": "https://dc.lft.to/lastmile_qr_scan"}, "lat": 38.92908966666667, "is_disabled": 0, "lon": -77.03754083333334}, {"fusion_lat": 0.0, "type": "electric_scooter", "name": "f98b67b2407355e8e81242ccc3a1badd", "fusion_lon": 0.0, "bike_id": "f98b67b2407355e8e81242ccc3a1badd", "is_reserved": 0, "rental_uris": {"android": "https://dc.lft.to/lastmile_qr_scan", "ios": "https://dc.lft.to/lastmile_qr_scan"}, "lat": 38.89428633333333, "is_disabled": 0, "lon": -76.948811}, {"fusion_lat": 0.0, "type": "electric_scooter", "name": "6e001c148fc31a94024875191e7cba0c", "fusion_lon": 0.0, "bike_id": "6e001c148fc31a94024875191e7cba0c", "is_reserved": 0, "rental_uris": {"android": "https://dc.lft.to/lastmile_qr_scan", "ios": "https://dc.lft.to/lastmile_qr_scan"}, "lat": 38.91016116666667, "is_disabled": 0, "lon": -76.99390233333334}, {"fusion_lat": 0.0, "type": "electric_scooter", "name": "91be570a5ace3bad4f26471935126244", "fusion_lon": 0.0, "bike_id": "91be570a5ace3bad4f26471935126244", "is_reserved": 0, "rental_uris": {"android": "https://dc.lft.to/lastmile_qr_scan", "ios": "https://dc.lft.to/lastmile_qr_scan"}, "lat": 38.91994833333333, "is_disabled": 0, "lon": -77.02199333333333}, {"fusion_lat": 0.0, "type": "electric_scooter", "name": "562182cb9fd5647c5cfb6ca904ed9ceb", "fusion_lon": 0.0, "bike_id": "562182cb9fd5647c5cfb6ca904ed9ceb", "is_reserved": 0, "rental_uris": {"android": "https://dc.lft.to/lastmile_qr_scan", "ios": "https://dc.lft.to/lastmile_qr_scan"}, "lat": 38.88964266666667, "is_disabled": 0, "lon": -76.93705633333333}, {"fusion_lat": 0.0, "type": "electric_scooter", "name": "fc2ddc2313a7418d4d2728365508ac09", "fusion_lon": 0.0, "bike_id": "fc2ddc2313a7418d4d2728365508ac09", "is_reserved": 0, "rental_uris": {"android": "https://dc.lft.to/lastmile_qr_scan", "ios": "https://dc.lft.to/lastmile_qr_scan"}, "lat": 38.90509616666667, "is_disabled": 0, "lon": -77.0404785}, {"fusion_lat": 0.0, "type": "electric_scooter", "name": "8a6d501ac44f2519ffa2ff1b2740e923", "fusion_lon": 0.0, "bike_id": "8a6d501ac44f2519ffa2ff1b2740e923", "is_reserved": 0, "rental_uris": {"android": "https://dc.lft.to/lastmile_qr_scan", "ios": "https://dc.lft.to/lastmile_qr_scan"}, "lat": 38.93162183333333, "is_disabled": 0, "lon": -77.05610083333333}, {"fusion_lat": 0.0, "type": "electric_scooter", "name": "127f6e02b657b4538b3a4c46e19c77a9", "fusion_lon": 0.0, "bike_id": "127f6e02b657b4538b3a4c46e19c77a9", "is_reserved": 0, "rental_uris": {"android": "https://dc.lft.to/lastmile_qr_scan", "ios": "https://dc.lft.to/lastmile_qr_scan"}, "lat": 38.94100133333333, "is_disabled": 0, "lon": -77.021086}, {"fusion_lat": 0.0, "type": "electric_scooter", "name": "ed6d5e884ec72d6fe28b9e38f3d8606c", "fusion_lon": 0.0, "bike_id": "ed6d5e884ec72d6fe28b9e38f3d8606c", "is_reserved": 0, "rental_uris": {"android": "https://dc.lft.to/lastmile_qr_scan", "ios": "https://dc.lft.to/lastmile_qr_scan"}, "lat": 38.87693566666667, "is_disabled": 0, "lon": -77.01753766666667}, {"fusion_lat": 0.0, "type": "electric_scooter", "name": "ed06a48946f6f6fba3f022b44ddae2f1", "fusion_lon": 0.0, "bike_id": "ed06a48946f6f6fba3f022b44ddae2f1", "is_reserved": 0, "rental_uris": {"android": "https://dc.lft.to/lastmile_qr_scan", "ios": "https://dc.lft.to/lastmile_qr_scan"}, "lat": 38.891016, "is_disabled": 0, "lon": -77.00282666666666}, {"fusion_lat": 0.0, "type": "electric_scooter", "name": "15472930377d036f78f269fe0bc7b85e", "fusion_lon": 0.0, "bike_id": "15472930377d036f78f269fe0bc7b85e", "is_reserved": 0, "rental_uris": {"android": "https://dc.lft.to/lastmile_qr_scan", "ios": "https://dc.lft.to/lastmile_qr_scan"}, "lat": 38.90939483333333, "is_disabled": 0, "lon": -77.0448695}, {"fusion_lat": 0.0, "type": "electric_scooter", "name": "69170cd9505ddbcc7f51e970adb47c39", "fusion_lon": 0.0, "bike_id": "69170cd9505ddbcc7f51e970adb47c39", "is_reserved": 0, "rental_uris": {"android": "https://dc.lft.to/lastmile_qr_scan", "ios": "https://dc.lft.to/lastmile_qr_scan"}, "lat": 38.93406733333333, "is_disabled": 0, "lon": -77.0413035}, {"fusion_lat": 0.0, "type": "electric_bike", "name": "5589b42e0b0252b5ecc2ad990b6b2d7d", "fusion_lon": 0.0, "bike_id": "5589b42e0b0252b5ecc2ad990b6b2d7d", "is_reserved": 0, "rental_uris": {"android": "https://dc.lft.to/lastmile_qr_scan", "ios": "https://dc.lft.to/lastmile_qr_scan"}, "lat": 38.89563, "is_disabled": 0, "lon": -77.12729766666666}, {"fusion_lat": 0.0, "type": "electric_scooter", "name": "cb4d52b1eabf3831f6e7cca737a99d34", "fusion_lon": 0.0, "bike_id": "cb4d52b1eabf3831f6e7cca737a99d34", "is_reserved": 0, "rental_uris": {"android": "https://dc.lft.to/lastmile_qr_scan", "ios": "https://dc.lft.to/lastmile_qr_scan"}, "lat": 38.89221583333333, "is_disabled": 0, "lon": -77.04261966666667}, {"fusion_lat": 0.0, "type": "electric_scooter", "name": "d0392c9803855404f90c5aaca5cf79ab", "fusion_lon": 0.0, "bike_id": "d0392c9803855404f90c5aaca5cf79ab", "is_reserved": 0, "rental_uris": {"android": "https://dc.lft.to/lastmile_qr_scan", "ios": "https://dc.lft.to/lastmile_qr_scan"}, "lat": 38.9014765, "is_disabled": 0, "lon": -77.047292}, {"fusion_lat": 0.0, "type": "electric_scooter", "name": "74f829018183c171ca05cba4349b8b3c", "fusion_lon": 0.0, "bike_id": "74f829018183c171ca05cba4349b8b3c", "is_reserved": 0, "rental_uris": {"android": "https://dc.lft.to/lastmile_qr_scan", "ios": "https://dc.lft.to/lastmile_qr_scan"}, "lat": 38.894573666666666, "is_disabled": 0, "lon": -76.99835966666667}, {"fusion_lat": 0.0, "type": "electric_scooter", "name": "2659d3e59486c9114eb01d74d74d1955", "fusion_lon": 0.0, "bike_id": "2659d3e59486c9114eb01d74d74d1955", "is_reserved": 0, "rental_uris": {"android": "https://dc.lft.to/lastmile_qr_scan", "ios": "https://dc.lft.to/lastmile_qr_scan"}, "lat": 38.922019666666664, "is_disabled": 0, "lon": -77.0423085}, {"fusion_lat": 0.0, "type": "electric_scooter", "name": "71ec78183dd35365ef42761e6c32771a", "fusion_lon": 0.0, "bike_id": "71ec78183dd35365ef42761e6c32771a", "is_reserved": 0, "rental_uris": {"android": "https://dc.lft.to/lastmile_qr_scan", "ios": "https://dc.lft.to/lastmile_qr_scan"}, "lat": 38.91807133333333, "is_disabled": 0, "lon": -77.024949}, {"fusion_lat": 0.0, "type": "electric_scooter", "name": "c7123ec5d66aee2e452b01f604ff7518", "fusion_lon": 0.0, "bike_id": "c7123ec5d66aee2e452b01f604ff7518", "is_reserved": 0, "rental_uris": {"android": "https://dc.lft.to/lastmile_qr_scan", "ios": "https://dc.lft.to/lastmile_qr_scan"}, "lat": 38.92462833333333, "is_disabled": 0, "lon": -77.05761366666667}, {"fusion_lat": 0.0, "type": "electric_scooter", "name": "a4a91419a5bf174cc8da12dd0b94cf07", "fusion_lon": 0.0, "bike_id": "a4a91419a5bf174cc8da12dd0b94cf07", "is_reserved": 0, "rental_uris": {"android": "https://dc.lft.to/lastmile_qr_scan", "ios": "https://dc.lft.to/lastmile_qr_scan"}, "lat": 38.9015905, "is_disabled": 0, "lon": -77.04742233333333}, {"fusion_lat": 0.0, "type": "electric_scooter", "name": "cc9468151af5dd639d59b13bed4e3be5", "fusion_lon": 0.0, "bike_id": "cc9468151af5dd639d59b13bed4e3be5", "is_reserved": 0, "rental_uris": {"android": "https://dc.lft.to/lastmile_qr_scan", "ios": "https://dc.lft.to/lastmile_qr_scan"}, "lat": 38.9202445, "is_disabled": 0, "lon": -77.0190605}, {"fusion_lat": 0.0, "type": "electric_scooter", "name": "a2945ef2e4eca936a4f6b6e6e8e93dc1", "fusion_lon": 0.0, "bike_id": "a2945ef2e4eca936a4f6b6e6e8e93dc1", "is_reserved": 0, "rental_uris": {"android": "https://dc.lft.to/lastmile_qr_scan", "ios": "https://dc.lft.to/lastmile_qr_scan"}, "lat": 38.86383033333333, "is_disabled": 0, "lon": -76.990567}, {"fusion_lat": 0.0, "type": "electric_scooter", "name": "fae6d96808f440937c08a52759c198bf", "fusion_lon": 0.0, "bike_id": "fae6d96808f440937c08a52759c198bf", "is_reserved": 0, "rental_uris": {"android": "https://dc.lft.to/lastmile_qr_scan", "ios": "https://dc.lft.to/lastmile_qr_scan"}, "lat": 38.91478716666667, "is_disabled": 0, "lon": -77.03209933333333}, {"fusion_lat": 0.0, "type": "electric_bike", "name": "f5c7b0bce19214cf0755eb837ea2d0d4", "fusion_lon": 0.0, "bike_id": "f5c7b0bce19214cf0755eb837ea2d0d4", "is_reserved": 0, "rental_uris": {"android": "https://dc.lft.to/lastmile_qr_scan", "ios": "https://dc.lft.to/lastmile_qr_scan"}, "lat": 39.0423745, "is_disabled": 0, "lon": -77.03077533333334}, {"fusion_lat": 0.0, "type": "electric_scooter", "name": "0e03f3e3314a287a17dab3d55e5ccfb5", "fusion_lon": 0.0, "bike_id": "0e03f3e3314a287a17dab3d55e5ccfb5", "is_reserved": 0, "rental_uris": {"android": "https://dc.lft.to/lastmile_qr_scan", "ios": "https://dc.lft.to/lastmile_qr_scan"}, "lat": 38.90971566666666, "is_disabled": 0, "lon": -77.020801}, {"fusion_lat": 0.0, "type": "electric_bike", "name": "245e27517c65e83c2c9163bdc65a921b", "fusion_lon": 0.0, "bike_id": "245e27517c65e83c2c9163bdc65a921b", "is_reserved": 0, "rental_uris": {"android": "https://dc.lft.to/lastmile_qr_scan", "ios": "https://dc.lft.to/lastmile_qr_scan"}, "lat": 38.95508183333333, "is_disabled": 0, "lon": -76.99355333333334}, {"fusion_lat": 0.0, "type": "electric_scooter", "name": "755053fc869d1bda9a2461b89710ac50", "fusion_lon": 0.0, "bike_id": "755053fc869d1bda9a2461b89710ac50", "is_reserved": 0, "rental_uris": {"android": "https://dc.lft.to/lastmile_qr_scan", "ios": "https://dc.lft.to/lastmile_qr_scan"}, "lat": 38.8922375, "is_disabled": 0, "lon": -77.04308016666667}, {"fusion_lat": 0.0, "type": "electric_scooter", "name": "8f3d9bdcda6618132e8369f3a2d3a0b3", "fusion_lon": 0.0, "bike_id": "8f3d9bdcda6618132e8369f3a2d3a0b3", "is_reserved": 0, "rental_uris": {"android": "https://dc.lft.to/lastmile_qr_scan", "ios": "https://dc.lft.to/lastmile_qr_scan"}, "lat": 38.9006565, "is_disabled": 0, "lon": -77.04535033333333}, {"fusion_lat": 0.0, "type": "electric_scooter", "name": "fc09a125099ff60d1c6831c386708d75", "fusion_lon": 0.0, "bike_id": "fc09a125099ff60d1c6831c386708d75", "is_reserved": 0, "rental_uris": {"android": "https://dc.lft.to/lastmile_qr_scan", "ios": "https://dc.lft.to/lastmile_qr_scan"}, "lat": 38.9308485, "is_disabled": 0, "lon": -77.02794283333333}, {"fusion_lat": 0.0, "type": "electric_scooter", "name": "f17a75f63ef064f762edb3e8764dc53f", "fusion_lon": 0.0, "bike_id": "f17a75f63ef064f762edb3e8764dc53f", "is_reserved": 0, "rental_uris": {"android": "https://dc.lft.to/lastmile_qr_scan", "ios": "https://dc.lft.to/lastmile_qr_scan"}, "lat": 38.928484833333336, "is_disabled": 0, "lon": -77.0327585}, {"fusion_lat": 0.0, "type": "electric_scooter", "name": "caa01e72f4ae4ba587e57ecc64346d1a", "fusion_lon": 0.0, "bike_id": "caa01e72f4ae4ba587e57ecc64346d1a", "is_reserved": 0, "rental_uris": {"android": "https://dc.lft.to/lastmile_qr_scan", "ios": "https://dc.lft.to/lastmile_qr_scan"}, "lat": 38.892234333333334, "is_disabled": 0, "lon": -77.02217333333333}, {"fusion_lat": 0.0, "type": "electric_scooter", "name": "d717cd15db268a44aa7eb41d18b176b4", "fusion_lon": 0.0, "bike_id": "d717cd15db268a44aa7eb41d18b176b4", "is_reserved": 0, "rental_uris": {"android": "https://dc.lft.to/lastmile_qr_scan", "ios": "https://dc.lft.to/lastmile_qr_scan"}, "lat": 38.91805016666667, "is_disabled": 0, "lon": -77.0270905}, {"fusion_lat": 0.0, "type": "electric_scooter", "name": "642f93238782655a7938f8abe636abc3", "fusion_lon": 0.0, "bike_id": "642f93238782655a7938f8abe636abc3", "is_reserved": 0, "rental_uris": {"android": "https://dc.lft.to/lastmile_qr_scan", "ios": "https://dc.lft.to/lastmile_qr_scan"}, "lat": 38.8764855, "is_disabled": 0, "lon": -76.96505616666667}, {"fusion_lat": 0.0, "type": "electric_scooter", "name": "35e08d2a52ec7bda58dff696336b5aad", "fusion_lon": 0.0, "bike_id": "35e08d2a52ec7bda58dff696336b5aad", "is_reserved": 0, "rental_uris": {"android": "https://dc.lft.to/lastmile_qr_scan", "ios": "https://dc.lft.to/lastmile_qr_scan"}, "lat": 38.87908683333333, "is_disabled": 0, "lon": -77.01906483333333}, {"fusion_lat": 0.0, "type": "electric_scooter", "name": "1201e6e92e30bd1769a8f3910b7c4c25", "fusion_lon": 0.0, "bike_id": "1201e6e92e30bd1769a8f3910b7c4c25", "is_reserved": 0, "rental_uris": {"android": "https://dc.lft.to/lastmile_qr_scan", "ios": "https://dc.lft.to/lastmile_qr_scan"}, "lat": 38.94207733333333, "is_disabled": 0, "lon": -77.0251395}, {"fusion_lat": 0.0, "type": "electric_scooter", "name": "035e798a80e35765a01706813d93f8fb", "fusion_lon": 0.0, "bike_id": "035e798a80e35765a01706813d93f8fb", "is_reserved": 0, "rental_uris": {"android": "https://dc.lft.to/lastmile_qr_scan", "ios": "https://dc.lft.to/lastmile_qr_scan"}, "lat": 38.958289, "is_disabled": 0, "lon": -77.0151025}, {"fusion_lat": 0.0, "type": "electric_scooter", "name": "814fd01d0865c2ad3ed13598cf10fcc1", "fusion_lon": 0.0, "bike_id": "814fd01d0865c2ad3ed13598cf10fcc1", "is_reserved": 0, "rental_uris": {"android": "https://dc.lft.to/lastmile_qr_scan", "ios": "https://dc.lft.to/lastmile_qr_scan"}, "lat": 38.89752383333333, "is_disabled": 0, "lon": -77.01356066666666}, {"fusion_lat": 0.0, "type": "electric_scooter", "name": "fb4a5d0a7674d817740d6832441f639d", "fusion_lon": 0.0, "bike_id": "fb4a5d0a7674d817740d6832441f639d", "is_reserved": 0, "rental_uris": {"android": "https://dc.lft.to/lastmile_qr_scan", "ios": "https://dc.lft.to/lastmile_qr_scan"}, "lat": 38.92150216666667, "is_disabled": 0, "lon": -77.02693716666667}, {"fusion_lat": 0.0, "type": "electric_scooter", "name": "3b5802163fba9dd951c3f35fa676c65f", "fusion_lon": 0.0, "bike_id": "3b5802163fba9dd951c3f35fa676c65f", "is_reserved": 0, "rental_uris": {"android": "https://dc.lft.to/lastmile_qr_scan", "ios": "https://dc.lft.to/lastmile_qr_scan"}, "lat": 38.9162875, "is_disabled": 0, "lon": -77.0320155}, {"fusion_lat": 0.0, "type": "electric_scooter", "name": "6f65ca4cd52693fb603f15a792ab3dbc", "fusion_lon": 0.0, "bike_id": "6f65ca4cd52693fb603f15a792ab3dbc", "is_reserved": 0, "rental_uris": {"android": "https://dc.lft.to/lastmile_qr_scan", "ios": "https://dc.lft.to/lastmile_qr_scan"}, "lat": 38.91110583333333, "is_disabled": 0, "lon": -77.03325066666666}, {"fusion_lat": 0.0, "type": "electric_scooter", "name": "fb0c344f3b6f59a34f5628506871406a", "fusion_lon": 0.0, "bike_id": "fb0c344f3b6f59a34f5628506871406a", "is_reserved": 0, "rental_uris": {"android": "https://dc.lft.to/lastmile_qr_scan", "ios": "https://dc.lft.to/lastmile_qr_scan"}, "lat": 38.891763, "is_disabled": 0, "lon": -77.0156445}, {"fusion_lat": 0.0, "type": "electric_scooter", "name": "f8bc4b28f69db3a33680212f9ceafd4d", "fusion_lon": 0.0, "bike_id": "f8bc4b28f69db3a33680212f9ceafd4d", "is_reserved": 0, "rental_uris": {"android": "https://dc.lft.to/lastmile_qr_scan", "ios": "https://dc.lft.to/lastmile_qr_scan"}, "lat": 38.91543766666667, "is_disabled": 0, "lon": -77.01222566666667}, {"fusion_lat": 0.0, "type": "electric_scooter", "name": "246b13de2de13df05cb6c70e5f731490", "fusion_lon": 0.0, "bike_id": "246b13de2de13df05cb6c70e5f731490", "is_reserved": 0, "rental_uris": {"android": "https://dc.lft.to/lastmile_qr_scan", "ios": "https://dc.lft.to/lastmile_qr_scan"}, "lat": 38.9177985, "is_disabled": 0, "lon": -77.02316433333333}, {"fusion_lat": 0.0, "type": "electric_scooter", "name": "a4ec4b0a60ee7b597f755ab0e295be64", "fusion_lon": 0.0, "bike_id": "a4ec4b0a60ee7b597f755ab0e295be64", "is_reserved": 0, "rental_uris": {"android": "https://dc.lft.to/lastmile_qr_scan", "ios": "https://dc.lft.to/lastmile_qr_scan"}, "lat": 38.895038166666666, "is_disabled": 0, "lon": -76.93475083333334}, {"fusion_lat": 0.0, "type": "electric_scooter", "name": "f0491f7689bc988a2690fecd3ec2918c", "fusion_lon": 0.0, "bike_id": "f0491f7689bc988a2690fecd3ec2918c", "is_reserved": 0, "rental_uris": {"android": "https://dc.lft.to/lastmile_qr_scan", "ios": "https://dc.lft.to/lastmile_qr_scan"}, "lat": 38.918913, "is_disabled": 0, "lon": -77.029733}, {"fusion_lat": 0.0, "type": "electric_scooter", "name": "134d9dc280e0b7784f415b5989f6f0b5", "fusion_lon": 0.0, "bike_id": "134d9dc280e0b7784f415b5989f6f0b5", "is_reserved": 0, "rental_uris": {"android": "https://dc.lft.to/lastmile_qr_scan", "ios": "https://dc.lft.to/lastmile_qr_scan"}, "lat": 38.90136866666667, "is_disabled": 0, "lon": -77.04972766666667}, {"fusion_lat": 0.0, "type": "electric_scooter", "name": "19279dcd77df991f96edd33a3707e22a", "fusion_lon": 0.0, "bike_id": "19279dcd77df991f96edd33a3707e22a", "is_reserved": 0, "rental_uris": {"android": "https://dc.lft.to/lastmile_qr_scan", "ios": "https://dc.lft.to/lastmile_qr_scan"}, "lat": 38.945129, "is_disabled": 0, "lon": -77.07451716666667}, {"fusion_lat": 0.0, "type": "electric_bike", "name": "148df8f55c63ddd73ed695dd8bbc677d", "fusion_lon": 0.0, "bike_id": "148df8f55c63ddd73ed695dd8bbc677d", "is_reserved": 0, "rental_uris": {"android": "https://dc.lft.to/lastmile_qr_scan", "ios": "https://dc.lft.to/lastmile_qr_scan"}, "lat": 39.05637633333333, "is_disabled": 0, "lon": -77.12528166666667}, {"fusion_lat": 0.0, "type": "electric_scooter", "name": "5349afe121fdfd19ed8610d6b93d844b", "fusion_lon": 0.0, "bike_id": "5349afe121fdfd19ed8610d6b93d844b", "is_reserved": 0, "rental_uris": {"android": "https://dc.lft.to/lastmile_qr_scan", "ios": "https://dc.lft.to/lastmile_qr_scan"}, "lat": 38.84314166666667, "is_disabled": 0, "lon": -76.99931183333334}, {"fusion_lat": 0.0, "type": "electric_scooter", "name": "04cc4aef8a5ab87f1c8955a4d8b83c12", "fusion_lon": 0.0, "bike_id": "04cc4aef8a5ab87f1c8955a4d8b83c12", "is_reserved": 0, "rental_uris": {"android": "https://dc.lft.to/lastmile_qr_scan", "ios": "https://dc.lft.to/lastmile_qr_scan"}, "lat": 38.90512483333333, "is_disabled": 0, "lon": -77.03860966666667}, {"fusion_lat": 0.0, "type": "electric_scooter", "name": "34216808d9c2ac7e70898ae29c4df8c1", "fusion_lon": 0.0, "bike_id": "34216808d9c2ac7e70898ae29c4df8c1", "is_reserved": 0, "rental_uris": {"android": "https://dc.lft.to/lastmile_qr_scan", "ios": "https://dc.lft.to/lastmile_qr_scan"}, "lat": 38.89221716666667, "is_disabled": 0, "lon": -77.022181}, {"fusion_lat": 0.0, "type": "electric_scooter", "name": "57629298b10df77bd0e5cde35a2fd373", "fusion_lon": 0.0, "bike_id": "57629298b10df77bd0e5cde35a2fd373", "is_reserved": 0, "rental_uris": {"android": "https://dc.lft.to/lastmile_qr_scan", "ios": "https://dc.lft.to/lastmile_qr_scan"}, "lat": 38.93102716666667, "is_disabled": 0, "lon": -77.03638366666667}, {"fusion_lat": 0.0, "type": "electric_scooter", "name": "974a845acfa75284d0f8a9e410b3bf86", "fusion_lon": 0.0, "bike_id": "974a845acfa75284d0f8a9e410b3bf86", "is_reserved": 0, "rental_uris": {"android": "https://dc.lft.to/lastmile_qr_scan", "ios": "https://dc.lft.to/lastmile_qr_scan"}, "lat": 38.874740333333335, "is_disabled": 0, "lon": -77.00519183333333}, {"fusion_lat": 0.0, "type": "electric_scooter", "name": "4e8fc9a1229d090e1f8d864ba946a8b1", "fusion_lon": 0.0, "bike_id": "4e8fc9a1229d090e1f8d864ba946a8b1", "is_reserved": 0, "rental_uris": {"android": "https://dc.lft.to/lastmile_qr_scan", "ios": "https://dc.lft.to/lastmile_qr_scan"}, "lat": 38.900586833333335, "is_disabled": 0, "lon": -77.016752}, {"fusion_lat": 0.0, "type": "electric_scooter", "name": "9da4d26df17fd16c6e4a12f863edaa27", "fusion_lon": 0.0, "bike_id": "9da4d26df17fd16c6e4a12f863edaa27", "is_reserved": 0, "rental_uris": {"android": "https://dc.lft.to/lastmile_qr_scan", "ios": "https://dc.lft.to/lastmile_qr_scan"}, "lat": 38.92179433333333, "is_disabled": 0, "lon": -77.04225216666667}, {"fusion_lat": 0.0, "type": "electric_scooter", "name": "6d13cddca7d26a5a24dac1cda2a31444", "fusion_lon": 0.0, "bike_id": "6d13cddca7d26a5a24dac1cda2a31444", "is_reserved": 0, "rental_uris": {"android": "https://dc.lft.to/lastmile_qr_scan", "ios": "https://dc.lft.to/lastmile_qr_scan"}, "lat": 38.9056975, "is_disabled": 0, "lon": -77.0253495}, {"fusion_lat": 0.0, "type": "electric_scooter", "name": "856983aeed1628e624949f9e3f6aca0f", "fusion_lon": 0.0, "bike_id": "856983aeed1628e624949f9e3f6aca0f", "is_reserved": 0, "rental_uris": {"android": "https://dc.lft.to/lastmile_qr_scan", "ios": "https://dc.lft.to/lastmile_qr_scan"}, "lat": 38.86359366666667, "is_disabled": 0, "lon": -76.99068166666666}, {"fusion_lat": 0.0, "type": "electric_scooter", "name": "7c8786d75e783598b86bf0755492acb9", "fusion_lon": 0.0, "bike_id": "7c8786d75e783598b86bf0755492acb9", "is_reserved": 0, "rental_uris": {"android": "https://dc.lft.to/lastmile_qr_scan", "ios": "https://dc.lft.to/lastmile_qr_scan"}, "lat": 38.90319083333333, "is_disabled": 0, "lon": -77.041794}, {"fusion_lat": 0.0, "type": "electric_bike", "name": "3f2b6408c5bb6c626c2ff8db73d2721b", "fusion_lon": 0.0, "bike_id": "3f2b6408c5bb6c626c2ff8db73d2721b", "is_reserved": 0, "rental_uris": {"android": "https://dc.lft.to/lastmile_qr_scan", "ios": "https://dc.lft.to/lastmile_qr_scan"}, "lat": 38.855199166666665, "is_disabled": 0, "lon": -76.98443416666667}, {"fusion_lat": 0.0, "type": "electric_scooter", "name": "28eff9009b8bbbe86195742c909e8c35", "fusion_lon": 0.0, "bike_id": "28eff9009b8bbbe86195742c909e8c35", "is_reserved": 0, "rental_uris": {"android": "https://dc.lft.to/lastmile_qr_scan", "ios": "https://dc.lft.to/lastmile_qr_scan"}, "lat": 38.911109833333335, "is_disabled": 0, "lon": -77.042598}, {"fusion_lat": 0.0, "type": "electric_scooter", "name": "ab1beb292c327c8e8671c600061d3479", "fusion_lon": 0.0, "bike_id": "ab1beb292c327c8e8671c600061d3479", "is_reserved": 0, "rental_uris": {"android": "https://dc.lft.to/lastmile_qr_scan", "ios": "https://dc.lft.to/lastmile_qr_scan"}, "lat": 38.906439666666664, "is_disabled": 0, "lon": -77.03868733333333}, {"fusion_lat": 0.0, "type": "electric_scooter", "name": "93f32de755ad9f5e5d27aa708de46721", "fusion_lon": 0.0, "bike_id": "93f32de755ad9f5e5d27aa708de46721", "is_reserved": 0, "rental_uris": {"android": "https://dc.lft.to/lastmile_qr_scan", "ios": "https://dc.lft.to/lastmile_qr_scan"}, "lat": 38.90373683333333, "is_disabled": 0, "lon": -77.03329133333334}, {"fusion_lat": 0.0, "type": "electric_scooter", "name": "afb86c297d87134f3cd2e52ffb7f8f03", "fusion_lon": 0.0, "bike_id": "afb86c297d87134f3cd2e52ffb7f8f03", "is_reserved": 0, "rental_uris": {"android": "https://dc.lft.to/lastmile_qr_scan", "ios": "https://dc.lft.to/lastmile_qr_scan"}, "lat": 38.898848666666666, "is_disabled": 0, "lon": -77.0259735}, {"fusion_lat": 0.0, "type": "electric_scooter", "name": "3b60b92e899cadab55214208f97410a8", "fusion_lon": 0.0, "bike_id": "3b60b92e899cadab55214208f97410a8", "is_reserved": 0, "rental_uris": {"android": "https://dc.lft.to/lastmile_qr_scan", "ios": "https://dc.lft.to/lastmile_qr_scan"}, "lat": 38.881469, "is_disabled": 0, "lon": -76.9948545}, {"fusion_lat": 0.0, "type": "electric_scooter", "name": "96c26304053819218e2baf0ff6965a4c", "fusion_lon": 0.0, "bike_id": "96c26304053819218e2baf0ff6965a4c", "is_reserved": 0, "rental_uris": {"android": "https://dc.lft.to/lastmile_qr_scan", "ios": "https://dc.lft.to/lastmile_qr_scan"}, "lat": 38.887493166666665, "is_disabled": 0, "lon": -77.01191866666667}, {"fusion_lat": 0.0, "type": "electric_scooter", "name": "d269e10a818fbd7c0fa62cffd4d3d5d1", "fusion_lon": 0.0, "bike_id": "d269e10a818fbd7c0fa62cffd4d3d5d1", "is_reserved": 0, "rental_uris": {"android": "https://dc.lft.to/lastmile_qr_scan", "ios": "https://dc.lft.to/lastmile_qr_scan"}, "lat": 38.93187533333333, "is_disabled": 0, "lon": -77.03655283333333}, {"fusion_lat": 0.0, "type": "electric_scooter", "name": "17916a1064b865c3d489543f70dc9248", "fusion_lon": 0.0, "bike_id": "17916a1064b865c3d489543f70dc9248", "is_reserved": 0, "rental_uris": {"android": "https://dc.lft.to/lastmile_qr_scan", "ios": "https://dc.lft.to/lastmile_qr_scan"}, "lat": 38.92621233333333, "is_disabled": 0, "lon": -77.04320616666666}, {"fusion_lat": 0.0, "type": "electric_scooter", "name": "61f10709f0739ee6c61b9567855d3bcf", "fusion_lon": 0.0, "bike_id": "61f10709f0739ee6c61b9567855d3bcf", "is_reserved": 0, "rental_uris": {"android": "https://dc.lft.to/lastmile_qr_scan", "ios": "https://dc.lft.to/lastmile_qr_scan"}, "lat": 38.897585166666666, "is_disabled": 0, "lon": -77.03065583333333}, {"fusion_lat": 0.0, "type": "electric_bike", "name": "4b7383a853757f8a1411faf719659a0d", "fusion_lon": 0.0, "bike_id": "4b7383a853757f8a1411faf719659a0d", "is_reserved": 0, "rental_uris": {"android": "https://dc.lft.to/lastmile_qr_scan", "ios": "https://dc.lft.to/lastmile_qr_scan"}, "lat": 38.837859, "is_disabled": 0, "lon": -76.99756666666667}, {"fusion_lat": 0.0, "type": "electric_scooter", "name": "5fcd062f2d195e90506f013e8cdc9eff", "fusion_lon": 0.0, "bike_id": "5fcd062f2d195e90506f013e8cdc9eff", "is_reserved": 0, "rental_uris": {"android": "https://dc.lft.to/lastmile_qr_scan", "ios": "https://dc.lft.to/lastmile_qr_scan"}, "lat": 38.89019283333333, "is_disabled": 0, "lon": -76.937332}, {"fusion_lat": 0.0, "type": "electric_scooter", "name": "27aca5d4d0139bfc387393a2c33d6a7f", "fusion_lon": 0.0, "bike_id": "27aca5d4d0139bfc387393a2c33d6a7f", "is_reserved": 0, "rental_uris": {"android": "https://dc.lft.to/lastmile_qr_scan", "ios": "https://dc.lft.to/lastmile_qr_scan"}, "lat": 38.83496566666667, "is_disabled": 0, "lon": -77.00677933333333}, {"fusion_lat": 0.0, "type": "electric_scooter", "name": "af6f74150f3aaa2d4354b63dfdd8bb10", "fusion_lon": 0.0, "bike_id": "af6f74150f3aaa2d4354b63dfdd8bb10", "is_reserved": 0, "rental_uris": {"android": "https://dc.lft.to/lastmile_qr_scan", "ios": "https://dc.lft.to/lastmile_qr_scan"}, "lat": 38.89495133333333, "is_disabled": 0, "lon": -77.01078683333333}, {"fusion_lat": 0.0, "type": "electric_scooter", "name": "cf470265a94fa889942510ddfb1af8f8", "fusion_lon": 0.0, "bike_id": "cf470265a94fa889942510ddfb1af8f8", "is_reserved": 0, "rental_uris": {"android": "https://dc.lft.to/lastmile_qr_scan", "ios": "https://dc.lft.to/lastmile_qr_scan"}, "lat": 38.898492166666664, "is_disabled": 0, "lon": -77.033529}, {"fusion_lat": 0.0, "type": "electric_scooter", "name": "0dc9a1ca155901177f74e6e7dc1b96c8", "fusion_lon": 0.0, "bike_id": "0dc9a1ca155901177f74e6e7dc1b96c8", "is_reserved": 0, "rental_uris": {"android": "https://dc.lft.to/lastmile_qr_scan", "ios": "https://dc.lft.to/lastmile_qr_scan"}, "lat": 38.90268916666667, "is_disabled": 0, "lon": -77.02825216666666}, {"fusion_lat": 0.0, "type": "electric_scooter", "name": "5127c304bc7dd6344c0e478a51086919", "fusion_lon": 0.0, "bike_id": "5127c304bc7dd6344c0e478a51086919", "is_reserved": 0, "rental_uris": {"android": "https://dc.lft.to/lastmile_qr_scan", "ios": "https://dc.lft.to/lastmile_qr_scan"}, "lat": 38.860148833333334, "is_disabled": 0, "lon": -76.98515083333334}, {"fusion_lat": 0.0, "type": "electric_scooter", "name": "14511e019ed34bff306bdffdaaedca74", "fusion_lon": 0.0, "bike_id": "14511e019ed34bff306bdffdaaedca74", "is_reserved": 0, "rental_uris": {"android": "https://dc.lft.to/lastmile_qr_scan", "ios": "https://dc.lft.to/lastmile_qr_scan"}, "lat": 38.900336, "is_disabled": 0, "lon": -77.03193816666666}, {"fusion_lat": 0.0, "type": "electric_scooter", "name": "7d08f839be262486bb734182ba4b82e8", "fusion_lon": 0.0, "bike_id": "7d08f839be262486bb734182ba4b82e8", "is_reserved": 0, "rental_uris": {"android": "https://dc.lft.to/lastmile_qr_scan", "ios": "https://dc.lft.to/lastmile_qr_scan"}, "lat": 38.9003335, "is_disabled": 0, "lon": -77.00690683333333}, {"fusion_lat": 0.0, "type": "electric_scooter", "name": "0b03f39dab4fdb951211b5da8f0156ce", "fusion_lon": 0.0, "bike_id": "0b03f39dab4fdb951211b5da8f0156ce", "is_reserved": 0, "rental_uris": {"android": "https://dc.lft.to/lastmile_qr_scan", "ios": "https://dc.lft.to/lastmile_qr_scan"}, "lat": 38.90504583333333, "is_disabled": 0, "lon": -77.04664516666666}, {"fusion_lat": 0.0, "type": "electric_scooter", "name": "1232988767d4f8f0201a1c5317c08404", "fusion_lon": 0.0, "bike_id": "1232988767d4f8f0201a1c5317c08404", "is_reserved": 0, "rental_uris": {"android": "https://dc.lft.to/lastmile_qr_scan", "ios": "https://dc.lft.to/lastmile_qr_scan"}, "lat": 38.901431, "is_disabled": 0, "lon": -77.02940983333333}, {"fusion_lat": 0.0, "type": "electric_bike", "name": "ee49aeb3f18ee2bec90ea6b5a8b25017", "fusion_lon": 0.0, "bike_id": "ee49aeb3f18ee2bec90ea6b5a8b25017", "is_reserved": 0, "rental_uris": {"android": "https://dc.lft.to/lastmile_qr_scan", "ios": "https://dc.lft.to/lastmile_qr_scan"}, "lat": 38.9785115, "is_disabled": 0, "lon": -77.08980716666667}, {"fusion_lat": 0.0, "type": "electric_scooter", "name": "a4e2e74ce27f2e47cee90d31e383e8ec", "fusion_lon": 0.0, "bike_id": "a4e2e74ce27f2e47cee90d31e383e8ec", "is_reserved": 0, "rental_uris": {"android": "https://dc.lft.to/lastmile_qr_scan", "ios": "https://dc.lft.to/lastmile_qr_scan"}, "lat": 38.938825, "is_disabled": 0, "lon": -77.02461566666666}, {"fusion_lat": 0.0, "type": "electric_bike", "name": "1299068d09b4daa3300585359c5d1316", "fusion_lon": 0.0, "bike_id": "1299068d09b4daa3300585359c5d1316", "is_reserved": 0, "rental_uris": {"android": "https://dc.lft.to/lastmile_qr_scan", "ios": "https://dc.lft.to/lastmile_qr_scan"}, "lat": 38.96962583333333, "is_disabled": 0, "lon": -76.957491}, {"fusion_lat": 0.0, "type": "electric_scooter", "name": "e89abcfef48870ba0d4367efe934106d", "fusion_lon": 0.0, "bike_id": "e89abcfef48870ba0d4367efe934106d", "is_reserved": 0, "rental_uris": {"android": "https://dc.lft.to/lastmile_qr_scan", "ios": "https://dc.lft.to/lastmile_qr_scan"}, "lat": 38.9051765, "is_disabled": 0, "lon": -77.0482705}, {"fusion_lat": 0.0, "type": "electric_scooter", "name": "28f9b85298d6b55758bc61c448169b9c", "fusion_lon": 0.0, "bike_id": "28f9b85298d6b55758bc61c448169b9c", "is_reserved": 0, "rental_uris": {"android": "https://dc.lft.to/lastmile_qr_scan", "ios": "https://dc.lft.to/lastmile_qr_scan"}, "lat": 38.91133766666667, "is_disabled": 0, "lon": -77.0440855}, {"fusion_lat": 0.0, "type": "electric_scooter", "name": "4826c734819e8dbcdfb4021584adc42d", "fusion_lon": 0.0, "bike_id": "4826c734819e8dbcdfb4021584adc42d", "is_reserved": 0, "rental_uris": {"android": "https://dc.lft.to/lastmile_qr_scan", "ios": "https://dc.lft.to/lastmile_qr_scan"}, "lat": 38.89908783333333, "is_disabled": 0, "lon": -77.0329885}, {"fusion_lat": 0.0, "type": "electric_scooter", "name": "eef43e48388b0f151e29b1c49ae8cd2e", "fusion_lon": 0.0, "bike_id": "eef43e48388b0f151e29b1c49ae8cd2e", "is_reserved": 0, "rental_uris": {"android": "https://dc.lft.to/lastmile_qr_scan", "ios": "https://dc.lft.to/lastmile_qr_scan"}, "lat": 38.90534866666667, "is_disabled": 0, "lon": -77.04993316666666}, {"fusion_lat": 0.0, "type": "electric_scooter", "name": "347312207003e9b8d9eb4c98ba1d0291", "fusion_lon": 0.0, "bike_id": "347312207003e9b8d9eb4c98ba1d0291", "is_reserved": 0, "rental_uris": {"android": "https://dc.lft.to/lastmile_qr_scan", "ios": "https://dc.lft.to/lastmile_qr_scan"}, "lat": 38.89687283333333, "is_disabled": 0, "lon": -76.94769816666667}, {"fusion_lat": 0.0, "type": "electric_bike", "name": "2c5e2022580e0902b514585ee07eb6c3", "fusion_lon": 0.0, "bike_id": "2c5e2022580e0902b514585ee07eb6c3", "is_reserved": 0, "rental_uris": {"android": "https://dc.lft.to/lastmile_qr_scan", "ios": "https://dc.lft.to/lastmile_qr_scan"}, "lat": 38.957634666666664, "is_disabled": 0, "lon": -77.00710583333333}, {"fusion_lat": 0.0, "type": "electric_scooter", "name": "aeea85f517477b2b40706c2ea53a1e89", "fusion_lon": 0.0, "bike_id": "aeea85f517477b2b40706c2ea53a1e89", "is_reserved": 0, "rental_uris": {"android": "https://dc.lft.to/lastmile_qr_scan", "ios": "https://dc.lft.to/lastmile_qr_scan"}, "lat": 38.865034666666666, "is_disabled": 0, "lon": -76.99001483333333}, {"fusion_lat": 0.0, "type": "electric_scooter", "name": "3bb397f4bda474f36e46204bb1a25ade", "fusion_lon": 0.0, "bike_id": "3bb397f4bda474f36e46204bb1a25ade", "is_reserved": 0, "rental_uris": {"android": "https://dc.lft.to/lastmile_qr_scan", "ios": "https://dc.lft.to/lastmile_qr_scan"}, "lat": 38.916787166666666, "is_disabled": 0, "lon": -77.02976483333333}, {"fusion_lat": 0.0, "type": "electric_scooter", "name": "d59a81e9f1729b6519d3c5baf17088b3", "fusion_lon": 0.0, "bike_id": "d59a81e9f1729b6519d3c5baf17088b3", "is_reserved": 0, "rental_uris": {"android": "https://dc.lft.to/lastmile_qr_scan", "ios": "https://dc.lft.to/lastmile_qr_scan"}, "lat": 38.89881033333333, "is_disabled": 0, "lon": -76.93187783333333}, {"fusion_lat": 0.0, "type": "electric_scooter", "name": "ab98152fb0e619317aa4dba7ef6c3fe9", "fusion_lon": 0.0, "bike_id": "ab98152fb0e619317aa4dba7ef6c3fe9", "is_reserved": 0, "rental_uris": {"android": "https://dc.lft.to/lastmile_qr_scan", "ios": "https://dc.lft.to/lastmile_qr_scan"}, "lat": 38.92511583333334, "is_disabled": 0, "lon": -77.00225866666666}, {"fusion_lat": 0.0, "type": "electric_scooter", "name": "957290e98dd61d1a02398ad47b887caa", "fusion_lon": 0.0, "bike_id": "957290e98dd61d1a02398ad47b887caa", "is_reserved": 0, "rental_uris": {"android": "https://dc.lft.to/lastmile_qr_scan", "ios": "https://dc.lft.to/lastmile_qr_scan"}, "lat": 38.871905, "is_disabled": 0, "lon": -77.00584116666667}, {"fusion_lat": 0.0, "type": "electric_scooter", "name": "7ee88efd809a9ea4605edacda04b6bfe", "fusion_lon": 0.0, "bike_id": "7ee88efd809a9ea4605edacda04b6bfe", "is_reserved": 0, "rental_uris": {"android": "https://dc.lft.to/lastmile_qr_scan", "ios": "https://dc.lft.to/lastmile_qr_scan"}, "lat": 38.942032, "is_disabled": 0, "lon": -77.0250425}, {"fusion_lat": 0.0, "type": "electric_scooter", "name": "de638b66629152ffabe71ab0f9cceaa4", "fusion_lon": 0.0, "bike_id": "de638b66629152ffabe71ab0f9cceaa4", "is_reserved": 0, "rental_uris": {"android": "https://dc.lft.to/lastmile_qr_scan", "ios": "https://dc.lft.to/lastmile_qr_scan"}, "lat": 38.9499285, "is_disabled": 0, "lon": -77.02700983333334}, {"fusion_lat": 0.0, "type": "electric_scooter", "name": "e5c143adb49b5be6308527a7ec4f564d", "fusion_lon": 0.0, "bike_id": "e5c143adb49b5be6308527a7ec4f564d", "is_reserved": 0, "rental_uris": {"android": "https://dc.lft.to/lastmile_qr_scan", "ios": "https://dc.lft.to/lastmile_qr_scan"}, "lat": 38.93610183333333, "is_disabled": 0, "lon": -77.05896766666666}, {"fusion_lat": 0.0, "type": "electric_scooter", "name": "8ca5d9e232e515bc2e9c745edf1b1078", "fusion_lon": 0.0, "bike_id": "8ca5d9e232e515bc2e9c745edf1b1078", "is_reserved": 0, "rental_uris": {"android": "https://dc.lft.to/lastmile_qr_scan", "ios": "https://dc.lft.to/lastmile_qr_scan"}, "lat": 38.886344, "is_disabled": 0, "lon": -77.0198345}, {"fusion_lat": 0.0, "type": "electric_scooter", "name": "cd5aa8f27309ff703c7cbe32853f8628", "fusion_lon": 0.0, "bike_id": "cd5aa8f27309ff703c7cbe32853f8628", "is_reserved": 0, "rental_uris": {"android": "https://dc.lft.to/lastmile_qr_scan", "ios": "https://dc.lft.to/lastmile_qr_scan"}, "lat": 38.92109516666667, "is_disabled": 0, "lon": -77.03252666666667}, {"fusion_lat": 0.0, "type": "electric_bike", "name": "de329e1943d3412a95c48a3de00ce2e1", "fusion_lon": 0.0, "bike_id": "de329e1943d3412a95c48a3de00ce2e1", "is_reserved": 0, "rental_uris": {"android": "https://dc.lft.to/lastmile_qr_scan", "ios": "https://dc.lft.to/lastmile_qr_scan"}, "lat": 38.947851666666665, "is_disabled": 0, "lon": -76.97209583333333}, {"fusion_lat": 0.0, "type": "electric_scooter", "name": "8dea8bbf1aac821f1b9782b74837394b", "fusion_lon": 0.0, "bike_id": "8dea8bbf1aac821f1b9782b74837394b", "is_reserved": 0, "rental_uris": {"android": "https://dc.lft.to/lastmile_qr_scan", "ios": "https://dc.lft.to/lastmile_qr_scan"}, "lat": 38.8870755, "is_disabled": 0, "lon": -77.0136395}, {"fusion_lat": 0.0, "type": "electric_bike", "name": "55b3cdd708d70edfc572da08c80e9c0d", "fusion_lon": 0.0, "bike_id": "55b3cdd708d70edfc572da08c80e9c0d", "is_reserved": 0, "rental_uris": {"android": "https://dc.lft.to/lastmile_qr_scan", "ios": "https://dc.lft.to/lastmile_qr_scan"}, "lat": 39.024352666666665, "is_disabled": 0, "lon": -77.13101033333334}, {"fusion_lat": 0.0, "type": "electric_scooter", "name": "ff9ea29ab4808c703b30505b0bcff189", "fusion_lon": 0.0, "bike_id": "ff9ea29ab4808c703b30505b0bcff189", "is_reserved": 0, "rental_uris": {"android": "https://dc.lft.to/lastmile_qr_scan", "ios": "https://dc.lft.to/lastmile_qr_scan"}, "lat": 38.903708333333334, "is_disabled": 0, "lon": -77.0449545}, {"fusion_lat": 0.0, "type": "electric_scooter", "name": "519b2e85eb1ca797c226662e255da6a9", "fusion_lon": 0.0, "bike_id": "519b2e85eb1ca797c226662e255da6a9", "is_reserved": 0, "rental_uris": {"android": "https://dc.lft.to/lastmile_qr_scan", "ios": "https://dc.lft.to/lastmile_qr_scan"}, "lat": 38.883215166666666, "is_disabled": 0, "lon": -77.0174145}, {"fusion_lat": 0.0, "type": "electric_scooter", "name": "ee35d13744ee14aa413066cc6cfd1003", "fusion_lon": 0.0, "bike_id": "ee35d13744ee14aa413066cc6cfd1003", "is_reserved": 0, "rental_uris": {"android": "https://dc.lft.to/lastmile_qr_scan", "ios": "https://dc.lft.to/lastmile_qr_scan"}, "lat": 38.91050416666667, "is_disabled": 0, "lon": -77.04341}, {"fusion_lat": 0.0, "type": "electric_scooter", "name": "89eca042ddf576ff270ae0e4c84b0db2", "fusion_lon": 0.0, "bike_id": "89eca042ddf576ff270ae0e4c84b0db2", "is_reserved": 0, "rental_uris": {"android": "https://dc.lft.to/lastmile_qr_scan", "ios": "https://dc.lft.to/lastmile_qr_scan"}, "lat": 38.92233183333333, "is_disabled": 0, "lon": -77.0233165}, {"fusion_lat": 0.0, "type": "electric_scooter", "name": "a93dbedcc0dc2ee6167911df88fd6fb5", "fusion_lon": 0.0, "bike_id": "a93dbedcc0dc2ee6167911df88fd6fb5", "is_reserved": 0, "rental_uris": {"android": "https://dc.lft.to/lastmile_qr_scan", "ios": "https://dc.lft.to/lastmile_qr_scan"}, "lat": 38.862387166666664, "is_disabled": 0, "lon": -76.99486883333333}, {"fusion_lat": 0.0, "type": "electric_scooter", "name": "6388401e335cf7410b7a6b75668d2d3a", "fusion_lon": 0.0, "bike_id": "6388401e335cf7410b7a6b75668d2d3a", "is_reserved": 0, "rental_uris": {"android": "https://dc.lft.to/lastmile_qr_scan", "ios": "https://dc.lft.to/lastmile_qr_scan"}, "lat": 38.911940333333334, "is_disabled": 0, "lon": -77.03816966666666}, {"fusion_lat": 0.0, "type": "electric_scooter", "name": "2e71287cb77e89b2c068e356594b47ec", "fusion_lon": 0.0, "bike_id": "2e71287cb77e89b2c068e356594b47ec", "is_reserved": 0, "rental_uris": {"android": "https://dc.lft.to/lastmile_qr_scan", "ios": "https://dc.lft.to/lastmile_qr_scan"}, "lat": 38.936014, "is_disabled": 0, "lon": -77.0584935}, {"fusion_lat": 0.0, "type": "electric_scooter", "name": "fec4d50c6211c7ca41e65e867e4ebd06", "fusion_lon": 0.0, "bike_id": "fec4d50c6211c7ca41e65e867e4ebd06", "is_reserved": 0, "rental_uris": {"android": "https://dc.lft.to/lastmile_qr_scan", "ios": "https://dc.lft.to/lastmile_qr_scan"}, "lat": 38.93773566666667, "is_disabled": 0, "lon": -77.03262233333334}, {"fusion_lat": 0.0, "type": "electric_scooter", "name": "64cdf3a3b2984deba5a8d713cd9a274d", "fusion_lon": 0.0, "bike_id": "64cdf3a3b2984deba5a8d713cd9a274d", "is_reserved": 0, "rental_uris": {"android": "https://dc.lft.to/lastmile_qr_scan", "ios": "https://dc.lft.to/lastmile_qr_scan"}, "lat": 38.91292216666667, "is_disabled": 0, "lon": -77.0318745}, {"fusion_lat": 0.0, "type": "electric_scooter", "name": "ba832a57e2b5833bb4d16816834dd830", "fusion_lon": 0.0, "bike_id": "ba832a57e2b5833bb4d16816834dd830", "is_reserved": 0, "rental_uris": {"android": "https://dc.lft.to/lastmile_qr_scan", "ios": "https://dc.lft.to/lastmile_qr_scan"}, "lat": 38.9242245, "is_disabled": 0, "lon": -77.02297566666667}, {"fusion_lat": 0.0, "type": "electric_scooter", "name": "a880ce0a1c2676f716b0d664b6c3c616", "fusion_lon": 0.0, "bike_id": "a880ce0a1c2676f716b0d664b6c3c616", "is_reserved": 0, "rental_uris": {"android": "https://dc.lft.to/lastmile_qr_scan", "ios": "https://dc.lft.to/lastmile_qr_scan"}, "lat": 38.86417516666667, "is_disabled": 0, "lon": -76.99136366666667}, {"fusion_lat": 0.0, "type": "electric_scooter", "name": "5f17d6bd2961891667d13d4b1f30daac", "fusion_lon": 0.0, "bike_id": "5f17d6bd2961891667d13d4b1f30daac", "is_reserved": 0, "rental_uris": {"android": "https://dc.lft.to/lastmile_qr_scan", "ios": "https://dc.lft.to/lastmile_qr_scan"}, "lat": 38.8896185, "is_disabled": 0, "lon": -76.93708683333334}, {"fusion_lat": 0.0, "type": "electric_scooter", "name": "7475627b52f8ecc020c962c95d557f87", "fusion_lon": 0.0, "bike_id": "7475627b52f8ecc020c962c95d557f87", "is_reserved": 0, "rental_uris": {"android": "https://dc.lft.to/lastmile_qr_scan", "ios": "https://dc.lft.to/lastmile_qr_scan"}, "lat": 38.91837783333333, "is_disabled": 0, "lon": -77.05949666666666}, {"fusion_lat": 0.0, "type": "electric_scooter", "name": "287d547273fcbb365f979ff985208032", "fusion_lon": 0.0, "bike_id": "287d547273fcbb365f979ff985208032", "is_reserved": 0, "rental_uris": {"android": "https://dc.lft.to/lastmile_qr_scan", "ios": "https://dc.lft.to/lastmile_qr_scan"}, "lat": 38.95201983333333, "is_disabled": 0, "lon": -77.02733783333333}, {"fusion_lat": 0.0, "type": "electric_scooter", "name": "028256da69da45e176457ac2d28185cf", "fusion_lon": 0.0, "bike_id": "028256da69da45e176457ac2d28185cf", "is_reserved": 0, "rental_uris": {"android": "https://dc.lft.to/lastmile_qr_scan", "ios": "https://dc.lft.to/lastmile_qr_scan"}, "lat": 38.88737583333333, "is_disabled": 0, "lon": -77.02579016666667}, {"fusion_lat": 0.0, "type": "electric_scooter", "name": "ce3bbc5dc1e362c6b1614dac7e58b90d", "fusion_lon": 0.0, "bike_id": "ce3bbc5dc1e362c6b1614dac7e58b90d", "is_reserved": 0, "rental_uris": {"android": "https://dc.lft.to/lastmile_qr_scan", "ios": "https://dc.lft.to/lastmile_qr_scan"}, "lat": 38.8922275, "is_disabled": 0, "lon": -77.03154183333334}, {"fusion_lat": 0.0, "type": "electric_scooter", "name": "a24e6f1cdbac24e60164de41f12121af", "fusion_lon": 0.0, "bike_id": "a24e6f1cdbac24e60164de41f12121af", "is_reserved": 0, "rental_uris": {"android": "https://dc.lft.to/lastmile_qr_scan", "ios": "https://dc.lft.to/lastmile_qr_scan"}, "lat": 38.92890416666667, "is_disabled": 0, "lon": -77.03290833333334}, {"fusion_lat": 0.0, "type": "electric_bike", "name": "685a26aca6c7ce0afaff17547e816737", "fusion_lon": 0.0, "bike_id": "685a26aca6c7ce0afaff17547e816737", "is_reserved": 0, "rental_uris": {"android": "https://dc.lft.to/lastmile_qr_scan", "ios": "https://dc.lft.to/lastmile_qr_scan"}, "lat": 38.955698, "is_disabled": 0, "lon": -77.06917583333333}, {"fusion_lat": 0.0, "type": "electric_scooter", "name": "44d430635ebbb7babd0b270ed9fb49e9", "fusion_lon": 0.0, "bike_id": "44d430635ebbb7babd0b270ed9fb49e9", "is_reserved": 0, "rental_uris": {"android": "https://dc.lft.to/lastmile_qr_scan", "ios": "https://dc.lft.to/lastmile_qr_scan"}, "lat": 38.900458666666665, "is_disabled": 0, "lon": -76.99845433333333}, {"fusion_lat": 0.0, "type": "electric_scooter", "name": "41fb4f0861755e1b4d069dc015eadb14", "fusion_lon": 0.0, "bike_id": "41fb4f0861755e1b4d069dc015eadb14", "is_reserved": 0, "rental_uris": {"android": "https://dc.lft.to/lastmile_qr_scan", "ios": "https://dc.lft.to/lastmile_qr_scan"}, "lat": 38.90881316666667, "is_disabled": 0, "lon": -77.037558}, {"fusion_lat": 0.0, "type": "electric_scooter", "name": "19ae37e919102886045b9d8aadd1ed75", "fusion_lon": 0.0, "bike_id": "19ae37e919102886045b9d8aadd1ed75", "is_reserved": 0, "rental_uris": {"android": "https://dc.lft.to/lastmile_qr_scan", "ios": "https://dc.lft.to/lastmile_qr_scan"}, "lat": 38.92223033333333, "is_disabled": 0, "lon": -77.04241083333334}, {"fusion_lat": 0.0, "type": "electric_scooter", "name": "e7ce083deb2b0fd077938b790dc27681", "fusion_lon": 0.0, "bike_id": "e7ce083deb2b0fd077938b790dc27681", "is_reserved": 0, "rental_uris": {"android": "https://dc.lft.to/lastmile_qr_scan", "ios": "https://dc.lft.to/lastmile_qr_scan"}, "lat": 38.91846983333333, "is_disabled": 0, "lon": -76.96547333333334}, {"fusion_lat": 0.0, "type": "electric_scooter", "name": "639c61e07a242f66ebee12b3614d478d", "fusion_lon": 0.0, "bike_id": "639c61e07a242f66ebee12b3614d478d", "is_reserved": 0, "rental_uris": {"android": "https://dc.lft.to/lastmile_qr_scan", "ios": "https://dc.lft.to/lastmile_qr_scan"}, "lat": 38.92503983333334, "is_disabled": 0, "lon": -77.03207116666667}, {"fusion_lat": 0.0, "type": "electric_scooter", "name": "d457581eacd48d7482bd0aecdca5df1c", "fusion_lon": 0.0, "bike_id": "d457581eacd48d7482bd0aecdca5df1c", "is_reserved": 0, "rental_uris": {"android": "https://dc.lft.to/lastmile_qr_scan", "ios": "https://dc.lft.to/lastmile_qr_scan"}, "lat": 38.885581, "is_disabled": 0, "lon": -77.020011}, {"fusion_lat": 0.0, "type": "electric_scooter", "name": "d0111c58a9443dbdabb49437c5e4198a", "fusion_lon": 0.0, "bike_id": "d0111c58a9443dbdabb49437c5e4198a", "is_reserved": 0, "rental_uris": {"android": "https://dc.lft.to/lastmile_qr_scan", "ios": "https://dc.lft.to/lastmile_qr_scan"}, "lat": 38.87189866666667, "is_disabled": 0, "lon": -77.00588133333333}, {"fusion_lat": 0.0, "type": "electric_scooter", "name": "d751a5e5e5d157bcc1afda0f47ccb0bd", "fusion_lon": 0.0, "bike_id": "d751a5e5e5d157bcc1afda0f47ccb0bd", "is_reserved": 0, "rental_uris": {"android": "https://dc.lft.to/lastmile_qr_scan", "ios": "https://dc.lft.to/lastmile_qr_scan"}, "lat": 38.912604333333334, "is_disabled": 0, "lon": -77.02684366666666}, {"fusion_lat": 0.0, "type": "electric_scooter", "name": "3f53f9379a8a292dedcd394a830e61fe", "fusion_lon": 0.0, "bike_id": "3f53f9379a8a292dedcd394a830e61fe", "is_reserved": 0, "rental_uris": {"android": "https://dc.lft.to/lastmile_qr_scan", "ios": "https://dc.lft.to/lastmile_qr_scan"}, "lat": 38.89979266666667, "is_disabled": 0, "lon": -77.03352383333333}, {"fusion_lat": 0.0, "type": "electric_scooter", "name": "050d906998704ff6298fd72c966ca80c", "fusion_lon": 0.0, "bike_id": "050d906998704ff6298fd72c966ca80c", "is_reserved": 0, "rental_uris": {"android": "https://dc.lft.to/lastmile_qr_scan", "ios": "https://dc.lft.to/lastmile_qr_scan"}, "lat": 38.916871, "is_disabled": 0, "lon": -77.029719}, {"fusion_lat": 0.0, "type": "electric_scooter", "name": "dd589d013e340790ffd2ec182f7409de", "fusion_lon": 0.0, "bike_id": "dd589d013e340790ffd2ec182f7409de", "is_reserved": 0, "rental_uris": {"android": "https://dc.lft.to/lastmile_qr_scan", "ios": "https://dc.lft.to/lastmile_qr_scan"}, "lat": 38.89222633333333, "is_disabled": 0, "lon": -77.0431085}, {"fusion_lat": 0.0, "type": "electric_scooter", "name": "f4f5b1fc231a231f8ce702c7e972d337", "fusion_lon": 0.0, "bike_id": "f4f5b1fc231a231f8ce702c7e972d337", "is_reserved": 0, "rental_uris": {"android": "https://dc.lft.to/lastmile_qr_scan", "ios": "https://dc.lft.to/lastmile_qr_scan"}, "lat": 38.91259733333333, "is_disabled": 0, "lon": -77.03071133333333}, {"fusion_lat": 0.0, "type": "electric_scooter", "name": "ba784d0bae1ac15c546bd6de1af211f1", "fusion_lon": 0.0, "bike_id": "ba784d0bae1ac15c546bd6de1af211f1", "is_reserved": 0, "rental_uris": {"android": "https://dc.lft.to/lastmile_qr_scan", "ios": "https://dc.lft.to/lastmile_qr_scan"}, "lat": 38.89223166666667, "is_disabled": 0, "lon": -77.03103983333334}, {"fusion_lat": 0.0, "type": "electric_scooter", "name": "4d283f257790e3f20aa51334488c872f", "fusion_lon": 0.0, "bike_id": "4d283f257790e3f20aa51334488c872f", "is_reserved": 0, "rental_uris": {"android": "https://dc.lft.to/lastmile_qr_scan", "ios": "https://dc.lft.to/lastmile_qr_scan"}, "lat": 38.9490085, "is_disabled": 0, "lon": -77.02070133333334}, {"fusion_lat": 0.0, "type": "electric_bike", "name": "397a6c4517f791cb522e091e35f03784", "fusion_lon": 0.0, "bike_id": "397a6c4517f791cb522e091e35f03784", "is_reserved": 0, "rental_uris": {"android": "https://dc.lft.to/lastmile_qr_scan", "ios": "https://dc.lft.to/lastmile_qr_scan"}, "lat": 38.95442416666667, "is_disabled": 0, "lon": -76.98911333333334}, {"fusion_lat": 0.0, "type": "electric_bike", "name": "eeeed8c527f191bf2b5beb1ee4939f68", "fusion_lon": 0.0, "bike_id": "eeeed8c527f191bf2b5beb1ee4939f68", "is_reserved": 0, "rental_uris": {"android": "https://dc.lft.to/lastmile_qr_scan", "ios": "https://dc.lft.to/lastmile_qr_scan"}, "lat": 38.92965083333333, "is_disabled": 0, "lon": -77.18561333333334}, {"fusion_lat": 0.0, "type": "electric_scooter", "name": "85bc4b3260d81ab776136d344fe8a9f9", "fusion_lon": 0.0, "bike_id": "85bc4b3260d81ab776136d344fe8a9f9", "is_reserved": 0, "rental_uris": {"android": "https://dc.lft.to/lastmile_qr_scan", "ios": "https://dc.lft.to/lastmile_qr_scan"}, "lat": 38.90845866666667, "is_disabled": 0, "lon": -77.026927}, {"fusion_lat": 0.0, "type": "electric_bike", "name": "fc4209d47590c7b153009d6682ca4934", "fusion_lon": 0.0, "bike_id": "fc4209d47590c7b153009d6682ca4934", "is_reserved": 0, "rental_uris": {"android": "https://dc.lft.to/lastmile_qr_scan", "ios": "https://dc.lft.to/lastmile_qr_scan"}, "lat": 39.0550065, "is_disabled": 0, "lon": -77.046507}, {"fusion_lat": 0.0, "type": "electric_scooter", "name": "4a1c350f4272bf92d9bcc484e7b29a98", "fusion_lon": 0.0, "bike_id": "4a1c350f4272bf92d9bcc484e7b29a98", "is_reserved": 0, "rental_uris": {"android": "https://dc.lft.to/lastmile_qr_scan", "ios": "https://dc.lft.to/lastmile_qr_scan"}, "lat": 38.96028, "is_disabled": 0, "lon": -77.0005295}, {"fusion_lat": 0.0, "type": "electric_scooter", "name": "3a8d537851936b51bef651b92ccc2236", "fusion_lon": 0.0, "bike_id": "3a8d537851936b51bef651b92ccc2236", "is_reserved": 0, "rental_uris": {"android": "https://dc.lft.to/lastmile_qr_scan", "ios": "https://dc.lft.to/lastmile_qr_scan"}, "lat": 38.90728816666667, "is_disabled": 0, "lon": -77.0388245}, {"fusion_lat": 0.0, "type": "electric_scooter", "name": "cc6cf114881fb7459ce2796f83ddd9df", "fusion_lon": 0.0, "bike_id": "cc6cf114881fb7459ce2796f83ddd9df", "is_reserved": 0, "rental_uris": {"android": "https://dc.lft.to/lastmile_qr_scan", "ios": "https://dc.lft.to/lastmile_qr_scan"}, "lat": 38.901265333333335, "is_disabled": 0, "lon": -77.0323135}, {"fusion_lat": 0.0, "type": "electric_scooter", "name": "eaecc16bf79e6ea120ba1c1671526a05", "fusion_lon": 0.0, "bike_id": "eaecc16bf79e6ea120ba1c1671526a05", "is_reserved": 0, "rental_uris": {"android": "https://dc.lft.to/lastmile_qr_scan", "ios": "https://dc.lft.to/lastmile_qr_scan"}, "lat": 38.88608833333333, "is_disabled": 0, "lon": -76.99509266666666}, {"fusion_lat": 0.0, "type": "electric_bike", "name": "7fc3333d32332d90d83e7f69c35291fc", "fusion_lon": 0.0, "bike_id": "7fc3333d32332d90d83e7f69c35291fc", "is_reserved": 0, "rental_uris": {"android": "https://dc.lft.to/lastmile_qr_scan", "ios": "https://dc.lft.to/lastmile_qr_scan"}, "lat": 38.931683166666666, "is_disabled": 0, "lon": -76.884011}, {"fusion_lat": 0.0, "type": "electric_bike", "name": "766a0af5b47413298bc36ebb20b41522", "fusion_lon": 0.0, "bike_id": "766a0af5b47413298bc36ebb20b41522", "is_reserved": 0, "rental_uris": {"android": "https://dc.lft.to/lastmile_qr_scan", "ios": "https://dc.lft.to/lastmile_qr_scan"}, "lat": 38.864895, "is_disabled": 0, "lon": -76.97747016666666}, {"fusion_lat": 0.0, "type": "electric_scooter", "name": "64bb54d475f089dc761770b83ad5b7de", "fusion_lon": 0.0, "bike_id": "64bb54d475f089dc761770b83ad5b7de", "is_reserved": 0, "rental_uris": {"android": "https://dc.lft.to/lastmile_qr_scan", "ios": "https://dc.lft.to/lastmile_qr_scan"}, "lat": 38.89730816666667, "is_disabled": 0, "lon": -77.054755}, {"fusion_lat": 0.0, "type": "electric_bike", "name": "087b0d5fd24fcbbbf5523d3d8acb45c0", "fusion_lon": 0.0, "bike_id": "087b0d5fd24fcbbbf5523d3d8acb45c0", "is_reserved": 0, "rental_uris": {"android": "https://dc.lft.to/lastmile_qr_scan", "ios": "https://dc.lft.to/lastmile_qr_scan"}, "lat": 39.057871166666665, "is_disabled": 0, "lon": -77.15018033333334}, {"fusion_lat": 0.0, "type": "electric_scooter", "name": "2e86eef0a30af1a2a6193a42fda9aa73", "fusion_lon": 0.0, "bike_id": "2e86eef0a30af1a2a6193a42fda9aa73", "is_reserved": 0, "rental_uris": {"android": "https://dc.lft.to/lastmile_qr_scan", "ios": "https://dc.lft.to/lastmile_qr_scan"}, "lat": 38.8922255, "is_disabled": 0, "lon": -77.048685}, {"fusion_lat": 0.0, "type": "electric_scooter", "name": "d7832988cf33dc7dc64f149075c0f66e", "fusion_lon": 0.0, "bike_id": "d7832988cf33dc7dc64f149075c0f66e", "is_reserved": 0, "rental_uris": {"android": "https://dc.lft.to/lastmile_qr_scan", "ios": "https://dc.lft.to/lastmile_qr_scan"}, "lat": 38.902716833333336, "is_disabled": 0, "lon": -77.04586416666666}, {"fusion_lat": 0.0, "type": "electric_scooter", "name": "4e88a9d12083fef4d678f9198d9e3cb6", "fusion_lon": 0.0, "bike_id": "4e88a9d12083fef4d678f9198d9e3cb6", "is_reserved": 0, "rental_uris": {"android": "https://dc.lft.to/lastmile_qr_scan", "ios": "https://dc.lft.to/lastmile_qr_scan"}, "lat": 38.9324935, "is_disabled": 0, "lon": -77.029495}, {"fusion_lat": 0.0, "type": "electric_scooter", "name": "3bc1fe1cd6742761ec5e780f0901929b", "fusion_lon": 0.0, "bike_id": "3bc1fe1cd6742761ec5e780f0901929b", "is_reserved": 0, "rental_uris": {"android": "https://dc.lft.to/lastmile_qr_scan", "ios": "https://dc.lft.to/lastmile_qr_scan"}, "lat": 38.908559833333335, "is_disabled": 0, "lon": -77.04270383333333}, {"fusion_lat": 0.0, "type": "electric_scooter", "name": "8823b10ed75c88d73ba427bfd4c8250f", "fusion_lon": 0.0, "bike_id": "8823b10ed75c88d73ba427bfd4c8250f", "is_reserved": 0, "rental_uris": {"android": "https://dc.lft.to/lastmile_qr_scan", "ios": "https://dc.lft.to/lastmile_qr_scan"}, "lat": 38.914448, "is_disabled": 0, "lon": -77.06711533333333}, {"fusion_lat": 0.0, "type": "electric_bike", "name": "7af6fbf1f776cdf7edddb4a7362b06cc", "fusion_lon": 0.0, "bike_id": "7af6fbf1f776cdf7edddb4a7362b06cc", "is_reserved": 0, "rental_uris": {"android": "https://dc.lft.to/lastmile_qr_scan", "ios": "https://dc.lft.to/lastmile_qr_scan"}, "lat": 38.90801066666667, "is_disabled": 0, "lon": -77.07165066666667}, {"fusion_lat": 0.0, "type": "electric_scooter", "name": "79f6af27fa283c107c683ffaf6d8f0e1", "fusion_lon": 0.0, "bike_id": "79f6af27fa283c107c683ffaf6d8f0e1", "is_reserved": 0, "rental_uris": {"android": "https://dc.lft.to/lastmile_qr_scan", "ios": "https://dc.lft.to/lastmile_qr_scan"}, "lat": 38.925111333333334, "is_disabled": 0, "lon": -77.02975916666666}, {"fusion_lat": 0.0, "type": "electric_scooter", "name": "8904bb98b7c72127479b610a08539366", "fusion_lon": 0.0, "bike_id": "8904bb98b7c72127479b610a08539366", "is_reserved": 0, "rental_uris": {"android": "https://dc.lft.to/lastmile_qr_scan", "ios": "https://dc.lft.to/lastmile_qr_scan"}, "lat": 38.911194333333334, "is_disabled": 0, "lon": -77.0436065}, {"fusion_lat": 0.0, "type": "electric_scooter", "name": "5ec09ab6e05b54f2d20b610ed96876af", "fusion_lon": 0.0, "bike_id": "5ec09ab6e05b54f2d20b610ed96876af", "is_reserved": 0, "rental_uris": {"android": "https://dc.lft.to/lastmile_qr_scan", "ios": "https://dc.lft.to/lastmile_qr_scan"}, "lat": 38.90360916666667, "is_disabled": 0, "lon": -77.04326033333334}, {"fusion_lat": 0.0, "type": "electric_scooter", "name": "7c3a4e52cb55a66ad98361b022159459", "fusion_lon": 0.0, "bike_id": "7c3a4e52cb55a66ad98361b022159459", "is_reserved": 0, "rental_uris": {"android": "https://dc.lft.to/lastmile_qr_scan", "ios": "https://dc.lft.to/lastmile_qr_scan"}, "lat": 38.92455266666666, "is_disabled": 0, "lon": -77.05754583333334}, {"fusion_lat": 0.0, "type": "electric_scooter", "name": "a3812532f263f2a4b7f5b6255d5a3943", "fusion_lon": 0.0, "bike_id": "a3812532f263f2a4b7f5b6255d5a3943", "is_reserved": 0, "rental_uris": {"android": "https://dc.lft.to/lastmile_qr_scan", "ios": "https://dc.lft.to/lastmile_qr_scan"}, "lat": 38.9105265, "is_disabled": 0, "lon": -77.04102266666666}, {"fusion_lat": 0.0, "type": "electric_scooter", "name": "7bd369ca5e1d06cb63c0b555a761ae3b", "fusion_lon": 0.0, "bike_id": "7bd369ca5e1d06cb63c0b555a761ae3b", "is_reserved": 0, "rental_uris": {"android": "https://dc.lft.to/lastmile_qr_scan", "ios": "https://dc.lft.to/lastmile_qr_scan"}, "lat": 38.91276033333333, "is_disabled": 0, "lon": -77.04757916666667}, {"fusion_lat": 0.0, "type": "electric_scooter", "name": "349391cde7ded0ef9bc5a9ffbf0898bf", "fusion_lon": 0.0, "bike_id": "349391cde7ded0ef9bc5a9ffbf0898bf", "is_reserved": 0, "rental_uris": {"android": "https://dc.lft.to/lastmile_qr_scan", "ios": "https://dc.lft.to/lastmile_qr_scan"}, "lat": 38.90562766666667, "is_disabled": 0, "lon": -77.00583966666666}, {"fusion_lat": 0.0, "type": "electric_scooter", "name": "737cb00a7378f0b6627f67a52483943a", "fusion_lon": 0.0, "bike_id": "737cb00a7378f0b6627f67a52483943a", "is_reserved": 0, "rental_uris": {"android": "https://dc.lft.to/lastmile_qr_scan", "ios": "https://dc.lft.to/lastmile_qr_scan"}, "lat": 38.9125465, "is_disabled": 0, "lon": -77.0441785}, {"fusion_lat": 0.0, "type": "electric_bike", "name": "28cd0cc6e642addd01c8aee34a6efaee", "fusion_lon": 0.0, "bike_id": "28cd0cc6e642addd01c8aee34a6efaee", "is_reserved": 0, "rental_uris": {"android": "https://dc.lft.to/lastmile_qr_scan", "ios": "https://dc.lft.to/lastmile_qr_scan"}, "lat": 38.854228666666664, "is_disabled": 0, "lon": -77.12074533333333}, {"fusion_lat": 0.0, "type": "electric_scooter", "name": "26d676b9032de9014b7fd4d4ccf9f4c1", "fusion_lon": 0.0, "bike_id": "26d676b9032de9014b7fd4d4ccf9f4c1", "is_reserved": 0, "rental_uris": {"android": "https://dc.lft.to/lastmile_qr_scan", "ios": "https://dc.lft.to/lastmile_qr_scan"}, "lat": 38.90288816666666, "is_disabled": 0, "lon": -77.03449783333333}, {"fusion_lat": 0.0, "type": "electric_bike", "name": "eb5625b519eb06dd5d4f11a33b241dea", "fusion_lon": 0.0, "bike_id": "eb5625b519eb06dd5d4f11a33b241dea", "is_reserved": 0, "rental_uris": {"android": "https://dc.lft.to/lastmile_qr_scan", "ios": "https://dc.lft.to/lastmile_qr_scan"}, "lat": 38.89351333333333, "is_disabled": 0, "lon": -77.18742666666667}, {"fusion_lat": 0.0, "type": "electric_scooter", "name": "495efdec7a8f898a8067eadd66a11ab4", "fusion_lon": 0.0, "bike_id": "495efdec7a8f898a8067eadd66a11ab4", "is_reserved": 0, "rental_uris": {"android": "https://dc.lft.to/lastmile_qr_scan", "ios": "https://dc.lft.to/lastmile_qr_scan"}, "lat": 38.8923255, "is_disabled": 0, "lon": -77.0280035}, {"fusion_lat": 0.0, "type": "electric_scooter", "name": "370102091c1fc277dfb7270163e01115", "fusion_lon": 0.0, "bike_id": "370102091c1fc277dfb7270163e01115", "is_reserved": 0, "rental_uris": {"android": "https://dc.lft.to/lastmile_qr_scan", "ios": "https://dc.lft.to/lastmile_qr_scan"}, "lat": 38.90505683333333, "is_disabled": 0, "lon": -76.97924616666667}, {"fusion_lat": 0.0, "type": "electric_scooter", "name": "a343f9b3cf92e9d9308fdf950947c1ba", "fusion_lon": 0.0, "bike_id": "a343f9b3cf92e9d9308fdf950947c1ba", "is_reserved": 0, "rental_uris": {"android": "https://dc.lft.to/lastmile_qr_scan", "ios": "https://dc.lft.to/lastmile_qr_scan"}, "lat": 38.90559966666667, "is_disabled": 0, "lon": -76.97392866666667}, {"fusion_lat": 0.0, "type": "electric_scooter", "name": "8f1e75a12586fb8172eb6e7d68f4c835", "fusion_lon": 0.0, "bike_id": "8f1e75a12586fb8172eb6e7d68f4c835", "is_reserved": 0, "rental_uris": {"android": "https://dc.lft.to/lastmile_qr_scan", "ios": "https://dc.lft.to/lastmile_qr_scan"}, "lat": 38.92371816666667, "is_disabled": 0, "lon": -77.05047716666667}, {"fusion_lat": 0.0, "type": "electric_scooter", "name": "b3fc85d0952504b336a4efc0501fd5f1", "fusion_lon": 0.0, "bike_id": "b3fc85d0952504b336a4efc0501fd5f1", "is_reserved": 0, "rental_uris": {"android": "https://dc.lft.to/lastmile_qr_scan", "ios": "https://dc.lft.to/lastmile_qr_scan"}, "lat": 38.903811, "is_disabled": 0, "lon": -77.036772}, {"fusion_lat": 0.0, "type": "electric_scooter", "name": "2a780d02fdad373ae13df2cd9e921756", "fusion_lon": 0.0, "bike_id": "2a780d02fdad373ae13df2cd9e921756", "is_reserved": 0, "rental_uris": {"android": "https://dc.lft.to/lastmile_qr_scan", "ios": "https://dc.lft.to/lastmile_qr_scan"}, "lat": 38.8960605, "is_disabled": 0, "lon": -77.054389}, {"fusion_lat": 0.0, "type": "electric_scooter", "name": "466cb403e5f329ba9615ec369e1d8178", "fusion_lon": 0.0, "bike_id": "466cb403e5f329ba9615ec369e1d8178", "is_reserved": 0, "rental_uris": {"android": "https://dc.lft.to/lastmile_qr_scan", "ios": "https://dc.lft.to/lastmile_qr_scan"}, "lat": 38.89555816666667, "is_disabled": 0, "lon": -76.94873766666667}, {"fusion_lat": 0.0, "type": "electric_scooter", "name": "eecf3f1050ec7674a8acfcec5b9eade1", "fusion_lon": 0.0, "bike_id": "eecf3f1050ec7674a8acfcec5b9eade1", "is_reserved": 0, "rental_uris": {"android": "https://dc.lft.to/lastmile_qr_scan", "ios": "https://dc.lft.to/lastmile_qr_scan"}, "lat": 38.90072, "is_disabled": 0, "lon": -77.04878966666666}, {"fusion_lat": 0.0, "type": "electric_scooter", "name": "066ad0305d4916e1207cf152af8553c8", "fusion_lon": 0.0, "bike_id": "066ad0305d4916e1207cf152af8553c8", "is_reserved": 0, "rental_uris": {"android": "https://dc.lft.to/lastmile_qr_scan", "ios": "https://dc.lft.to/lastmile_qr_scan"}, "lat": 38.918538833333336, "is_disabled": 0, "lon": -76.965502}, {"fusion_lat": 0.0, "type": "electric_scooter", "name": "5fdfd98e8a2b23f692f91a1dcc59f376", "fusion_lon": 0.0, "bike_id": "5fdfd98e8a2b23f692f91a1dcc59f376", "is_reserved": 0, "rental_uris": {"android": "https://dc.lft.to/lastmile_qr_scan", "ios": "https://dc.lft.to/lastmile_qr_scan"}, "lat": 38.897310166666664, "is_disabled": 0, "lon": -76.99863016666667}, {"fusion_lat": 0.0, "type": "electric_scooter", "name": "d3e79a13e9059a8116b73d8d8d708e9e", "fusion_lon": 0.0, "bike_id": "d3e79a13e9059a8116b73d8d8d708e9e", "is_reserved": 0, "rental_uris": {"android": "https://dc.lft.to/lastmile_qr_scan", "ios": "https://dc.lft.to/lastmile_qr_scan"}, "lat": 38.90508483333333, "is_disabled": 0, "lon": -76.99430266666667}, {"fusion_lat": 0.0, "type": "electric_scooter", "name": "521b55087116766fd346aad6004cf425", "fusion_lon": 0.0, "bike_id": "521b55087116766fd346aad6004cf425", "is_reserved": 0, "rental_uris": {"android": "https://dc.lft.to/lastmile_qr_scan", "ios": "https://dc.lft.to/lastmile_qr_scan"}, "lat": 38.8992055, "is_disabled": 0, "lon": -76.93381866666667}, {"fusion_lat": 0.0, "type": "electric_scooter", "name": "163546ff4f77ebb908cf823f7b93375d", "fusion_lon": 0.0, "bike_id": "163546ff4f77ebb908cf823f7b93375d", "is_reserved": 0, "rental_uris": {"android": "https://dc.lft.to/lastmile_qr_scan", "ios": "https://dc.lft.to/lastmile_qr_scan"}, "lat": 38.892229, "is_disabled": 0, "lon": -77.04503383333333}, {"fusion_lat": 0.0, "type": "electric_scooter", "name": "0c6c4419457f23260c72bf20840e85eb", "fusion_lon": 0.0, "bike_id": "0c6c4419457f23260c72bf20840e85eb", "is_reserved": 0, "rental_uris": {"android": "https://dc.lft.to/lastmile_qr_scan", "ios": "https://dc.lft.to/lastmile_qr_scan"}, "lat": 38.9123065, "is_disabled": 0, "lon": -77.02269283333334}, {"fusion_lat": 0.0, "type": "electric_scooter", "name": "07a902d458e901da0ec371a3cd8c2af7", "fusion_lon": 0.0, "bike_id": "07a902d458e901da0ec371a3cd8c2af7", "is_reserved": 0, "rental_uris": {"android": "https://dc.lft.to/lastmile_qr_scan", "ios": "https://dc.lft.to/lastmile_qr_scan"}, "lat": 38.87942966666667, "is_disabled": 0, "lon": -77.00917183333334}, {"fusion_lat": 0.0, "type": "electric_scooter", "name": "bf11d82da6f6b5311ccc8ffc1518ec5f", "fusion_lon": 0.0, "bike_id": "bf11d82da6f6b5311ccc8ffc1518ec5f", "is_reserved": 0, "rental_uris": {"android": "https://dc.lft.to/lastmile_qr_scan", "ios": "https://dc.lft.to/lastmile_qr_scan"}, "lat": 38.903137666666666, "is_disabled": 0, "lon": -77.038811}, {"fusion_lat": 0.0, "type": "electric_bike", "name": "9fbc95504500f69e4f955429ac8f3a9d", "fusion_lon": 0.0, "bike_id": "9fbc95504500f69e4f955429ac8f3a9d", "is_reserved": 0, "rental_uris": {"android": "https://dc.lft.to/lastmile_qr_scan", "ios": "https://dc.lft.to/lastmile_qr_scan"}, "lat": 38.9009335, "is_disabled": 0, "lon": -77.03940433333334}, {"fusion_lat": 0.0, "type": "electric_scooter", "name": "0623504ae3b868e4a3f75ccb0d70fb69", "fusion_lon": 0.0, "bike_id": "0623504ae3b868e4a3f75ccb0d70fb69", "is_reserved": 0, "rental_uris": {"android": "https://dc.lft.to/lastmile_qr_scan", "ios": "https://dc.lft.to/lastmile_qr_scan"}, "lat": 38.95733516666667, "is_disabled": 0, "lon": -77.02404633333333}, {"fusion_lat": 0.0, "type": "electric_scooter", "name": "bd398675c776f093ff8869ab5e091077", "fusion_lon": 0.0, "bike_id": "bd398675c776f093ff8869ab5e091077", "is_reserved": 0, "rental_uris": {"android": "https://dc.lft.to/lastmile_qr_scan", "ios": "https://dc.lft.to/lastmile_qr_scan"}, "lat": 38.937042, "is_disabled": 0, "lon": -77.023971}, {"fusion_lat": 0.0, "type": "electric_scooter", "name": "01c88b27fc48dbd1e85f639d9741fb51", "fusion_lon": 0.0, "bike_id": "01c88b27fc48dbd1e85f639d9741fb51", "is_reserved": 0, "rental_uris": {"android": "https://dc.lft.to/lastmile_qr_scan", "ios": "https://dc.lft.to/lastmile_qr_scan"}, "lat": 38.92281333333333, "is_disabled": 0, "lon": -77.03410216666667}, {"fusion_lat": 0.0, "type": "electric_scooter", "name": "c0baf400f882f2d6e6337d44b25328be", "fusion_lon": 0.0, "bike_id": "c0baf400f882f2d6e6337d44b25328be", "is_reserved": 0, "rental_uris": {"android": "https://dc.lft.to/lastmile_qr_scan", "ios": "https://dc.lft.to/lastmile_qr_scan"}, "lat": 38.931859333333335, "is_disabled": 0, "lon": -77.0365475}, {"fusion_lat": 0.0, "type": "electric_scooter", "name": "0659f3e1a381516971c9cb0c0e0e4a2c", "fusion_lon": 0.0, "bike_id": "0659f3e1a381516971c9cb0c0e0e4a2c", "is_reserved": 0, "rental_uris": {"android": "https://dc.lft.to/lastmile_qr_scan", "ios": "https://dc.lft.to/lastmile_qr_scan"}, "lat": 38.929473333333334, "is_disabled": 0, "lon": -77.01641683333334}, {"fusion_lat": 0.0, "type": "electric_scooter", "name": "fff1dc62a9ea00560027560453c7a6fe", "fusion_lon": 0.0, "bike_id": "fff1dc62a9ea00560027560453c7a6fe", "is_reserved": 0, "rental_uris": {"android": "https://dc.lft.to/lastmile_qr_scan", "ios": "https://dc.lft.to/lastmile_qr_scan"}, "lat": 38.893537333333335, "is_disabled": 0, "lon": -77.00334283333333}, {"fusion_lat": 0.0, "type": "electric_bike", "name": "b1fb837b9374d8110962a71de89c8ce7", "fusion_lon": 0.0, "bike_id": "b1fb837b9374d8110962a71de89c8ce7", "is_reserved": 0, "rental_uris": {"android": "https://dc.lft.to/lastmile_qr_scan", "ios": "https://dc.lft.to/lastmile_qr_scan"}, "lat": 38.90381816666667, "is_disabled": 0, "lon": -77.0628005}, {"fusion_lat": 0.0, "type": "electric_scooter", "name": "be218886c2c3b82dece526716ab8f9fb", "fusion_lon": 0.0, "bike_id": "be218886c2c3b82dece526716ab8f9fb", "is_reserved": 0, "rental_uris": {"android": "https://dc.lft.to/lastmile_qr_scan", "ios": "https://dc.lft.to/lastmile_qr_scan"}, "lat": 38.961138166666665, "is_disabled": 0, "lon": -77.009478}, {"fusion_lat": 0.0, "type": "electric_scooter", "name": "9d60a710e29dc3732270669b55b56f96", "fusion_lon": 0.0, "bike_id": "9d60a710e29dc3732270669b55b56f96", "is_reserved": 0, "rental_uris": {"android": "https://dc.lft.to/lastmile_qr_scan", "ios": "https://dc.lft.to/lastmile_qr_scan"}, "lat": 38.89903833333334, "is_disabled": 0, "lon": -77.03983983333333}, {"fusion_lat": 0.0, "type": "electric_scooter", "name": "bcc3b3af94d924c4cf871ffbffe0cc6f", "fusion_lon": 0.0, "bike_id": "bcc3b3af94d924c4cf871ffbffe0cc6f", "is_reserved": 0, "rental_uris": {"android": "https://dc.lft.to/lastmile_qr_scan", "ios": "https://dc.lft.to/lastmile_qr_scan"}, "lat": 38.923312, "is_disabled": 0, "lon": -76.99901716666666}, {"fusion_lat": 0.0, "type": "electric_scooter", "name": "e3bb4f45aba0eb8c00b3125f392dc988", "fusion_lon": 0.0, "bike_id": "e3bb4f45aba0eb8c00b3125f392dc988", "is_reserved": 0, "rental_uris": {"android": "https://dc.lft.to/lastmile_qr_scan", "ios": "https://dc.lft.to/lastmile_qr_scan"}, "lat": 38.90365333333333, "is_disabled": 0, "lon": -76.9360325},