{"data": {"bikes": [{"rental_uris": {"ios": "https://dc.lft.to/lastmile_qr_scan", "android": "https://dc.lft.to/lastmile_qr_scan"}, "type": "electric_scooter", "name": "f7bee54f4c71eabf4245012efa9e6d51", "is_reserved": 0, "lon": -77.007813, "is_disabled": 0, "fusion_lat": 0.0, "lat": 38.9057225, "bike_id": "f7bee54f4c71eabf4245012efa9e6d51", "fusion_lon": 0.0}, {"rental_uris": {"ios": "https://dc.lft.to/lastmile_qr_scan", "android": "https://dc.lft.to/lastmile_qr_scan"}, "type": "electric_scooter", "name": "5299a78102ebdf6697e35a4715695d1d", "is_reserved": 0, "lon": -77.03054916666666, "is_disabled": 0, "fusion_lat": 0.0, "lat": 38.92384166666667, "bike_id": "5299a78102ebdf6697e35a4715695d1d", "fusion_lon": 0.0}, {"rental_uris": {"ios": "https://dc.lft.to/lastmile_qr_scan", "android": "https://dc.lft.to/lastmile_qr_scan"}, "type": "electric_bike", "name": "df7fadf38c0efee204868339b84427eb", "is_reserved": 0, "lon": -76.983503, "is_disabled": 0, "fusion_lat": 0.0, "lat": 38.86260266666667, "bike_id": "df7fadf38c0efee204868339b84427eb", "fusion_lon": 0.0}, {"rental_uris": {"ios": "https://dc.lft.to/lastmile_qr_scan", "android": "https://dc.lft.to/lastmile_qr_scan"}, "type": "electric_scooter", "name": "debd21e3af14c3009f37650d50cb22ee", "is_reserved": 0, "lon": -77.04435733333334, "is_disabled": 0, "fusion_lat": 0.0, "lat": 38.921094, "bike_id": "debd21e3af14c3009f37650d50cb22ee", "fusion_lon": 0.0}, {"rental_uris": {"ios": "https://dc.lft.to/lastmile_qr_scan", "android": "https://dc.lft.to/lastmile_qr_scan"}, "type": "electric_bike", "name": "cd2b6b1be30f6a8921ceb616926bb8ed", "is_reserved": 0, "lon": -77.05093816666667, "is_disabled": 0, "fusion_lat": 0.0, "lat": 38.813356, "bike_id": "cd2b6b1be30f6a8921ceb616926bb8ed", "fusion_lon": 0.0}, {"rental_uris": {"ios": "https://dc.lft.to/lastmile_qr_scan", "android": "https://dc.lft.to/lastmile_qr_scan"}, "type": "electric_scooter", "name": "35e20a81a0d611e8e393cd39f5865077", "is_reserved": 0, "lon": -77.00075266666667, "is_disabled": 0, "fusion_lat": 0.0, "lat": 38.894859333333336, "bike_id": "35e20a81a0d611e8e393cd39f5865077", "fusion_lon": 0.0}, {"rental_uris": {"ios": "https://dc.lft.to/lastmile_qr_scan", "android": "https://dc.lft.to/lastmile_qr_scan"}, "type": "electric_scooter", "name": "fedfc587adb6556b9ae3b68b033d48a6", "is_reserved": 0, "lon": -77.0296305, "is_disabled": 0, "fusion_lat": 0.0, "lat": 38.935600666666666, "bike_id": "fedfc587adb6556b9ae3b68b033d48a6", "fusion_lon": 0.0}, {"rental_uris": {"ios": "https://dc.lft.to/lastmile_qr_scan", "android": "https://dc.lft.to/lastmile_qr_scan"}, "type": "electric_bike", "name": "cbc72bcc678fa8ed22606a5a59eba43c", "is_reserved": 0, "lon": -76.93874816666667, "is_disabled": 0, "fusion_lat": 0.0, "lat": 38.97767666666667, "bike_id": "cbc72bcc678fa8ed22606a5a59eba43c", "fusion_lon": 0.0}, {"rental_uris": {"ios": "https://dc.lft.to/lastmile_qr_scan", "android": "https://dc.lft.to/lastmile_qr_scan"}, "type": "electric_scooter", "name": "93c4c785efcd49267cd8459c57fcde29", "is_reserved": 0, "lon": -76.98078566666666, "is_disabled": 0, "fusion_lat": 0.0, "lat": 38.9016925, "bike_id": "93c4c785efcd49267cd8459c57fcde29", "fusion_lon": 0.0}, {"rental_uris": {"ios": "https://dc.lft.to/lastmile_qr_scan", "android": "https://dc.lft.to/lastmile_qr_scan"}, "type": "electric_scooter", "name": "05f9707472059de4fa62950fdad91d26", "is_reserved": 0, "lon": -77.0328255, "is_disabled": 0, "fusion_lat": 0.0, "lat": 38.911088666666664, "bike_id": "05f9707472059de4fa62950fdad91d26", "fusion_lon": 0.0}, {"rental_uris": {"ios": "https://dc.lft.to/lastmile_qr_scan", "android": "https://dc.lft.to/lastmile_qr_scan"}, "type": "electric_scooter", "name": "d7e889e5b2a237ac8c87b7b6b5b7cb81", "is_reserved": 0, "lon": -77.04125133333334, "is_disabled": 0, "fusion_lat": 0.0, "lat": 38.92107016666667, "bike_id": "d7e889e5b2a237ac8c87b7b6b5b7cb81", "fusion_lon": 0.0}, {"rental_uris": {"ios": "https://dc.lft.to/lastmile_qr_scan", "android": "https://dc.lft.to/lastmile_qr_scan"}, "type": "electric_scooter", "name": "c04fdd7e8781cf59a4295df8aaa34e7a", "is_reserved": 0, "lon": -77.02340833333334, "is_disabled": 0, "fusion_lat": 0.0, "lat": 38.88140283333333, "bike_id": "c04fdd7e8781cf59a4295df8aaa34e7a", "fusion_lon": 0.0}, {"rental_uris": {"ios": "https://dc.lft.to/lastmile_qr_scan", "android": "https://dc.lft.to/lastmile_qr_scan"}, "type": "electric_scooter", "name": "7cfcaae3409583c73c0fae8d0c94d6bb", "is_reserved": 0, "lon": -77.02279816666666, "is_disabled": 0, "fusion_lat": 0.0, "lat": 38.924124166666665, "bike_id": "7cfcaae3409583c73c0fae8d0c94d6bb", "fusion_lon": 0.0}, {"rental_uris": {"ios": "https://dc.lft.to/lastmile_qr_scan", "android": "https://dc.lft.to/lastmile_qr_scan"}, "type": "electric_scooter", "name": "1ab9e8b722f9bdb82025f40ecc89aec6", "is_reserved": 0, "lon": -77.01638533333333, "is_disabled": 0, "fusion_lat": 0.0, "lat": 38.915893833333335, "bike_id": "1ab9e8b722f9bdb82025f40ecc89aec6", "fusion_lon": 0.0}, {"rental_uris": {"ios": "https://dc.lft.to/lastmile_qr_scan", "android": "https://dc.lft.to/lastmile_qr_scan"}, "type": "electric_scooter", "name": "cff81e9a2af12eba6aeaa6dee8e0d0d2", "is_reserved": 0, "lon": -77.07199983333334, "is_disabled": 0, "fusion_lat": 0.0, "lat": 38.912625166666665, "bike_id": "cff81e9a2af12eba6aeaa6dee8e0d0d2", "fusion_lon": 0.0}, {"rental_uris": {"ios": "https://dc.lft.to/lastmile_qr_scan", "android": "https://dc.lft.to/lastmile_qr_scan"}, "type": "electric_scooter", "name": "90a3839fe8b92d0e7bbfdb404b69d8f6", "is_reserved": 0, "lon": -77.008393, "is_disabled": 0, "fusion_lat": 0.0, "lat": 38.9126115, "bike_id": "90a3839fe8b92d0e7bbfdb404b69d8f6", "fusion_lon": 0.0}, {"rental_uris": {"ios": "https://dc.lft.to/lastmile_qr_scan", "android": "https://dc.lft.to/lastmile_qr_scan"}, "type": "electric_scooter", "name": "4704e9875bf190161c799f253d55faf6", "is_reserved": 0, "lon": -77.0680045, "is_disabled": 0, "fusion_lat": 0.0, "lat": 38.9051155, "bike_id": "4704e9875bf190161c799f253d55faf6", "fusion_lon": 0.0}, {"rental_uris": {"ios": "https://dc.lft.to/lastmile_qr_scan", "android": "https://dc.lft.to/lastmile_qr_scan"}, "type": "electric_scooter", "name": "f31b00cd1511b0015ecc600f5f17369d", "is_reserved": 0, "lon": -77.0387075, "is_disabled": 0, "fusion_lat": 0.0, "lat": 38.912684, "bike_id": "f31b00cd1511b0015ecc600f5f17369d", "fusion_lon": 0.0}, {"rental_uris": {"ios": "https://dc.lft.to/lastmile_qr_scan", "android": "https://dc.lft.to/lastmile_qr_scan"}, "type": "electric_scooter", "name": "6581bbd00173fe3b9ab52fa5809905ca", "is_reserved": 0, "lon": -76.95701966666667, "is_disabled": 0, "fusion_lat": 0.0, "lat": 38.892004666666665, "bike_id": "6581bbd00173fe3b9ab52fa5809905ca", "fusion_lon": 0.0}, {"rental_uris": {"ios": "https://dc.lft.to/lastmile_qr_scan", "android": "https://dc.lft.to/lastmile_qr_scan"}, "type": "electric_scooter", "name": "f4890d50218f1a2a73be93702bfd92e6", "is_reserved": 0, "lon": -77.04358316666666, "is_disabled": 0, "fusion_lat": 0.0, "lat": 38.90131516666667, "bike_id": "f4890d50218f1a2a73be93702bfd92e6", "fusion_lon": 0.0}, {"rental_uris": {"ios": "https://dc.lft.to/lastmile_qr_scan", "android": "https://dc.lft.to/lastmile_qr_scan"}, "type": "electric_scooter", "name": "2c08c6cb8e23282a6004f628f99e972d", "is_reserved": 0, "lon": -77.005881, "is_disabled": 0, "fusion_lat": 0.0, "lat": 38.90033066666667, "bike_id": "2c08c6cb8e23282a6004f628f99e972d", "fusion_lon": 0.0}, {"rental_uris": {"ios": "https://dc.lft.to/lastmile_qr_scan", "android": "https://dc.lft.to/lastmile_qr_scan"}, "type": "electric_scooter", "name": "a95ed9e59cf6f439837477e3c3e1b636", "is_reserved": 0, "lon": -77.0277365, "is_disabled": 0, "fusion_lat": 0.0, "lat": 38.88745983333333, "bike_id": "a95ed9e59cf6f439837477e3c3e1b636", "fusion_lon": 0.0}, {"rental_uris": {"ios": "https://dc.lft.to/lastmile_qr_scan", "android": "https://dc.lft.to/lastmile_qr_scan"}, "type": "electric_scooter", "name": "3bb39d183699a753729414c6facee00c", "is_reserved": 0, "lon": -76.99028533333333, "is_disabled": 0, "fusion_lat": 0.0, "lat": 38.88869016666666, "bike_id": "3bb39d183699a753729414c6facee00c", "fusion_lon": 0.0}, {"rental_uris": {"ios": "https://dc.lft.to/lastmile_qr_scan", "android": "https://dc.lft.to/lastmile_qr_scan"}, "type": "electric_scooter", "name": "2ab91cb8feed65b26e2683dc834d6228", "is_reserved": 0, "lon": -77.003979, "is_disabled": 0, "fusion_lat": 0.0, "lat": 38.87460933333333, "bike_id": "2ab91cb8feed65b26e2683dc834d6228", "fusion_lon": 0.0}, {"rental_uris": {"ios": "https://dc.lft.to/lastmile_qr_scan", "android": "https://dc.lft.to/lastmile_qr_scan"}, "type": "electric_scooter", "name": "974e3e82cf834a977d3c6c965c28cb8e", "is_reserved": 0, "lon": -77.04677283333334, "is_disabled": 0, "fusion_lat": 0.0, "lat": 38.907211, "bike_id": "974e3e82cf834a977d3c6c965c28cb8e", "fusion_lon": 0.0}, {"rental_uris": {"ios": "https://dc.lft.to/lastmile_qr_scan", "android": "https://dc.lft.to/lastmile_qr_scan"}, "type": "electric_scooter", "name": "420fe1be336ae4e20a38f3b757eaff27", "is_reserved": 0, "lon": -77.07164683333333, "is_disabled": 0, "fusion_lat": 0.0, "lat": 38.907798166666666, "bike_id": "420fe1be336ae4e20a38f3b757eaff27", "fusion_lon": 0.0}, {"rental_uris": {"ios": "https://dc.lft.to/lastmile_qr_scan", "android": "https://dc.lft.to/lastmile_qr_scan"}, "type": "electric_scooter", "name": "3e04e10668f6806858190db3981a7412", "is_reserved": 0, "lon": -77.03504233333334, "is_disabled": 0, "fusion_lat": 0.0, "lat": 38.915495, "bike_id": "3e04e10668f6806858190db3981a7412", "fusion_lon": 0.0}, {"rental_uris": {"ios": "https://dc.lft.to/lastmile_qr_scan", "android": "https://dc.lft.to/lastmile_qr_scan"}, "type": "electric_scooter", "name": "5fab807c08bf0da85c9e095e2b8b1f2c", "is_reserved": 0, "lon": -77.01774716666667, "is_disabled": 0, "fusion_lat": 0.0, "lat": 38.92037283333333, "bike_id": "5fab807c08bf0da85c9e095e2b8b1f2c", "fusion_lon": 0.0}, {"rental_uris": {"ios": "https://dc.lft.to/lastmile_qr_scan", "android": "https://dc.lft.to/lastmile_qr_scan"}, "type": "electric_scooter", "name": "adce4bd3adac9e44b9ff798fa438b32f", "is_reserved": 0, "lon": -77.0412345, "is_disabled": 0, "fusion_lat": 0.0, "lat": 38.92875333333333, "bike_id": "adce4bd3adac9e44b9ff798fa438b32f", "fusion_lon": 0.0}, {"rental_uris": {"ios": "https://dc.lft.to/lastmile_qr_scan", "android": "https://dc.lft.to/lastmile_qr_scan"}, "type": "electric_scooter", "name": "76595afb198470e30d264ac32ab78dce", "is_reserved": 0, "lon": -76.99963683333333, "is_disabled": 0, "fusion_lat": 0.0, "lat": 38.89197033333333, "bike_id": "76595afb198470e30d264ac32ab78dce", "fusion_lon": 0.0}, {"rental_uris": {"ios": "https://dc.lft.to/lastmile_qr_scan", "android": "https://dc.lft.to/lastmile_qr_scan"}, "type": "electric_scooter", "name": "418e5dc40b248b76fad5eb770f44e7d0", "is_reserved": 0, "lon": -77.05508633333334, "is_disabled": 0, "fusion_lat": 0.0, "lat": 38.928313333333335, "bike_id": "418e5dc40b248b76fad5eb770f44e7d0", "fusion_lon": 0.0}, {"rental_uris": {"ios": "https://dc.lft.to/lastmile_qr_scan", "android": "https://dc.lft.to/lastmile_qr_scan"}, "type": "electric_scooter", "name": "6090c5f3a9699c13409a106bdaa25448", "is_reserved": 0, "lon": -77.04700083333333, "is_disabled": 0, "fusion_lat": 0.0, "lat": 38.92057533333333, "bike_id": "6090c5f3a9699c13409a106bdaa25448", "fusion_lon": 0.0}, {"rental_uris": {"ios": "https://dc.lft.to/lastmile_qr_scan", "android": "https://dc.lft.to/lastmile_qr_scan"}, "type": "electric_scooter", "name": "0932d693c05329edd2c316095264edab", "is_reserved": 0, "lon": -77.02835616666667, "is_disabled": 0, "fusion_lat": 0.0, "lat": 38.93233566666667, "bike_id": "0932d693c05329edd2c316095264edab", "fusion_lon": 0.0}, {"rental_uris": {"ios": "https://dc.lft.to/lastmile_qr_scan", "android": "https://dc.lft.to/lastmile_qr_scan"}, "type": "electric_scooter", "name": "398f358c5ab086c7500023effd648112", "is_reserved": 0, "lon": -76.98732433333333, "is_disabled": 0, "fusion_lat": 0.0, "lat": 38.8422155, "bike_id": "398f358c5ab086c7500023effd648112", "fusion_lon": 0.0}, {"rental_uris": {"ios": "https://dc.lft.to/lastmile_qr_scan", "android": "https://dc.lft.to/lastmile_qr_scan"}, "type": "electric_scooter", "name": "ffdfb500e6db3cba707910ab7ffe244e", "is_reserved": 0, "lon": -77.055193, "is_disabled": 0, "fusion_lat": 0.0, "lat": 38.907729333333336, "bike_id": "ffdfb500e6db3cba707910ab7ffe244e", "fusion_lon": 0.0}, {"rental_uris": {"ios": "https://dc.lft.to/lastmile_qr_scan", "android": "https://dc.lft.to/lastmile_qr_scan"}, "type": "electric_scooter", "name": "4d5147fdcd0242e3122d56048de71807", "is_reserved": 0, "lon": -76.929221, "is_disabled": 0, "fusion_lat": 0.0, "lat": 38.886554333333336, "bike_id": "4d5147fdcd0242e3122d56048de71807", "fusion_lon": 0.0}, {"rental_uris": {"ios": "https://dc.lft.to/lastmile_qr_scan", "android": "https://dc.lft.to/lastmile_qr_scan"}, "type": "electric_scooter", "name": "aa438a9b399fe5af6d6f4b0ac590dd5e", "is_reserved": 0, "lon": -76.97133166666667, "is_disabled": 0, "fusion_lat": 0.0, "lat": 38.87862666666667, "bike_id": "aa438a9b399fe5af6d6f4b0ac590dd5e", "fusion_lon": 0.0}, {"rental_uris": {"ios": "https://dc.lft.to/lastmile_qr_scan", "android": "https://dc.lft.to/lastmile_qr_scan"}, "type": "electric_scooter", "name": "741803332753952159406aae9ac8e2cd", "is_reserved": 0, "lon": -77.03654916666666, "is_disabled": 0, "fusion_lat": 0.0, "lat": 38.954604, "bike_id": "741803332753952159406aae9ac8e2cd", "fusion_lon": 0.0}, {"rental_uris": {"ios": "https://dc.lft.to/lastmile_qr_scan", "android": "https://dc.lft.to/lastmile_qr_scan"}, "type": "electric_scooter", "name": "dd62e27867712d45665c15fcb1121152", "is_reserved": 0, "lon": -77.02216316666667, "is_disabled": 0, "fusion_lat": 0.0, "lat": 38.92469916666667, "bike_id": "dd62e27867712d45665c15fcb1121152", "fusion_lon": 0.0}, {"rental_uris": {"ios": "https://dc.lft.to/lastmile_qr_scan", "android": "https://dc.lft.to/lastmile_qr_scan"}, "type": "electric_scooter", "name": "3f172cda4355da16a842f99cc5893af2", "is_reserved": 0, "lon": -77.04206383333333, "is_disabled": 0, "fusion_lat": 0.0, "lat": 38.906665, "bike_id": "3f172cda4355da16a842f99cc5893af2", "fusion_lon": 0.0}, {"rental_uris": {"ios": "https://dc.lft.to/lastmile_qr_scan", "android": "https://dc.lft.to/lastmile_qr_scan"}, "type": "electric_scooter", "name": "2c8ba16fd6a2a41c0af7f9cade521270", "is_reserved": 0, "lon": -77.04187, "is_disabled": 0, "fusion_lat": 0.0, "lat": 38.921963833333336, "bike_id": "2c8ba16fd6a2a41c0af7f9cade521270", "fusion_lon": 0.0}, {"rental_uris": {"ios": "https://dc.lft.to/lastmile_qr_scan", "android": "https://dc.lft.to/lastmile_qr_scan"}, "type": "electric_scooter", "name": "2b19e4df8dbb305ad6f68ebe4f7d7cf4", "is_reserved": 0, "lon": -77.07287016666666, "is_disabled": 0, "fusion_lat": 0.0, "lat": 38.914414, "bike_id": "2b19e4df8dbb305ad6f68ebe4f7d7cf4", "fusion_lon": 0.0}, {"rental_uris": {"ios": "https://dc.lft.to/lastmile_qr_scan", "android": "https://dc.lft.to/lastmile_qr_scan"}, "type": "electric_scooter", "name": "fe0eb0d86499a7e17286686b3e0fd7b5", "is_reserved": 0, "lon": -77.07090216666667, "is_disabled": 0, "fusion_lat": 0.0, "lat": 38.9532225, "bike_id": "fe0eb0d86499a7e17286686b3e0fd7b5", "fusion_lon": 0.0}, {"rental_uris": {"ios": "https://dc.lft.to/lastmile_qr_scan", "android": "https://dc.lft.to/lastmile_qr_scan"}, "type": "electric_scooter", "name": "7ad3ba79eaf250223df44bc3378ea1d5", "is_reserved": 0, "lon": -77.019772, "is_disabled": 0, "fusion_lat": 0.0, "lat": 38.87607766666667, "bike_id": "7ad3ba79eaf250223df44bc3378ea1d5", "fusion_lon": 0.0}, {"rental_uris": {"ios": "https://dc.lft.to/lastmile_qr_scan", "android": "https://dc.lft.to/lastmile_qr_scan"}, "type": "electric_scooter", "name": "8ef2dc25668f62f3abf881e9868f8b0a", "is_reserved": 0, "lon": -76.99557216666666, "is_disabled": 0, "fusion_lat": 0.0, "lat": 38.926833, "bike_id": "8ef2dc25668f62f3abf881e9868f8b0a", "fusion_lon": 0.0}, {"rental_uris": {"ios": "https://dc.lft.to/lastmile_qr_scan", "android": "https://dc.lft.to/lastmile_qr_scan"}, "type": "electric_scooter", "name": "36563559f0216c22b83e3d365c1b9a3b", "is_reserved": 0, "lon": -77.01233666666667, "is_disabled": 0, "fusion_lat": 0.0, "lat": 38.915792, "bike_id": "36563559f0216c22b83e3d365c1b9a3b", "fusion_lon": 0.0}, {"rental_uris": {"ios": "https://dc.lft.to/lastmile_qr_scan", "android": "https://dc.lft.to/lastmile_qr_scan"}, "type": "electric_scooter", "name": "cdb0e19206169838b54e2e9564f8c4ce", "is_reserved": 0, "lon": -77.02310666666666, "is_disabled": 0, "fusion_lat": 0.0, "lat": 38.9071985, "bike_id": "cdb0e19206169838b54e2e9564f8c4ce", "fusion_lon": 0.0}, {"rental_uris": {"ios": "https://dc.lft.to/lastmile_qr_scan", "android": "https://dc.lft.to/lastmile_qr_scan"}, "type": "electric_scooter", "name": "a91352a0c99086b7d6814f28a363d896", "is_reserved": 0, "lon": -77.0349845, "is_disabled": 0, "fusion_lat": 0.0, "lat": 38.915541, "bike_id": "a91352a0c99086b7d6814f28a363d896", "fusion_lon": 0.0}, {"rental_uris": {"ios": "https://dc.lft.to/lastmile_qr_scan", "android": "https://dc.lft.to/lastmile_qr_scan"}, "type": "electric_scooter", "name": "2aae1204308349360d34993ba46adcc7", "is_reserved": 0, "lon": -77.01020283333334, "is_disabled": 0, "fusion_lat": 0.0, "lat": 38.9126255, "bike_id": "2aae1204308349360d34993ba46adcc7", "fusion_lon": 0.0}, {"rental_uris": {"ios": "https://dc.lft.to/lastmile_qr_scan", "android": "https://dc.lft.to/lastmile_qr_scan"}, "type": "electric_scooter", "name": "ba9bad0fb1b08d1ca47dc95718f3a6eb", "is_reserved": 0, "lon": -77.02690866666667, "is_disabled": 0, "fusion_lat": 0.0, "lat": 38.908402, "bike_id": "ba9bad0fb1b08d1ca47dc95718f3a6eb", "fusion_lon": 0.0}, {"rental_uris": {"ios": "https://dc.lft.to/lastmile_qr_scan", "android": "https://dc.lft.to/lastmile_qr_scan"}, "type": "electric_scooter", "name": "d4ffe38eeb62689e0f5309b7a80a1322", "is_reserved": 0, "lon": -77.04735516666666, "is_disabled": 0, "fusion_lat": 0.0, "lat": 38.895529, "bike_id": "d4ffe38eeb62689e0f5309b7a80a1322", "fusion_lon": 0.0}, {"rental_uris": {"ios": "https://dc.lft.to/lastmile_qr_scan", "android": "https://dc.lft.to/lastmile_qr_scan"}, "type": "electric_scooter", "name": "8e0a2d4282fde4cdc823750e4b3586e0", "is_reserved": 0, "lon": -77.01807633333334, "is_disabled": 0, "fusion_lat": 0.0, "lat": 38.905217, "bike_id": "8e0a2d4282fde4cdc823750e4b3586e0", "fusion_lon": 0.0}, {"rental_uris": {"ios": "https://dc.lft.to/lastmile_qr_scan", "android": "https://dc.lft.to/lastmile_qr_scan"}, "type": "electric_scooter", "name": "26f1e6621203d038f21d9392ea3378a1", "is_reserved": 0, "lon": -77.04124383333334, "is_disabled": 0, "fusion_lat": 0.0, "lat": 38.916841166666664, "bike_id": "26f1e6621203d038f21d9392ea3378a1", "fusion_lon": 0.0}, {"rental_uris": {"ios": "https://dc.lft.to/lastmile_qr_scan", "android": "https://dc.lft.to/lastmile_qr_scan"}, "type": "electric_scooter", "name": "98eb43f7bac1fa3f274abaace20f6787", "is_reserved": 0, "lon": -77.0091865, "is_disabled": 0, "fusion_lat": 0.0, "lat": 38.91237683333333, "bike_id": "98eb43f7bac1fa3f274abaace20f6787", "fusion_lon": 0.0}, {"rental_uris": {"ios": "https://dc.lft.to/lastmile_qr_scan", "android": "https://dc.lft.to/lastmile_qr_scan"}, "type": "electric_bike", "name": "455ec7131eaffa2e6f035ed6f2c3c3ec", "is_reserved": 0, "lon": -76.91721583333333, "is_disabled": 0, "fusion_lat": 0.0, "lat": 38.88028283333333, "bike_id": "455ec7131eaffa2e6f035ed6f2c3c3ec", "fusion_lon": 0.0}, {"rental_uris": {"ios": "https://dc.lft.to/lastmile_qr_scan", "android": "https://dc.lft.to/lastmile_qr_scan"}, "type": "electric_scooter", "name": "ae527fc625c76c3cf374d8a7b519e4f4", "is_reserved": 0, "lon": -77.02512233333333, "is_disabled": 0, "fusion_lat": 0.0, "lat": 38.919448, "bike_id": "ae527fc625c76c3cf374d8a7b519e4f4", "fusion_lon": 0.0}, {"rental_uris": {"ios": "https://dc.lft.to/lastmile_qr_scan", "android": "https://dc.lft.to/lastmile_qr_scan"}, "type": "electric_scooter", "name": "3603953c401c33fecb9a267750056f91", "is_reserved": 0, "lon": -77.03467283333333, "is_disabled": 0, "fusion_lat": 0.0, "lat": 38.925439833333336, "bike_id": "3603953c401c33fecb9a267750056f91", "fusion_lon": 0.0}, {"rental_uris": {"ios": "https://dc.lft.to/lastmile_qr_scan", "android": "https://dc.lft.to/lastmile_qr_scan"}, "type": "electric_scooter", "name": "6e8f2c2791e953f7c88f799539990bb1", "is_reserved": 0, "lon": -77.02333816666666, "is_disabled": 0, "fusion_lat": 0.0, "lat": 38.930525833333334, "bike_id": "6e8f2c2791e953f7c88f799539990bb1", "fusion_lon": 0.0}, {"rental_uris": {"ios": "https://dc.lft.to/lastmile_qr_scan", "android": "https://dc.lft.to/lastmile_qr_scan"}, "type": "electric_scooter", "name": "a5153191e34ba6032e28a2933adf5ed8", "is_reserved": 0, "lon": -76.9903575, "is_disabled": 0, "fusion_lat": 0.0, "lat": 38.8888115, "bike_id": "a5153191e34ba6032e28a2933adf5ed8", "fusion_lon": 0.0}, {"rental_uris": {"ios": "https://dc.lft.to/lastmile_qr_scan", "android": "https://dc.lft.to/lastmile_qr_scan"}, "type": "electric_scooter", "name": "53f8552d212e3b4371343afaec917472", "is_reserved": 0, "lon": -77.01705216666667, "is_disabled": 0, "fusion_lat": 0.0, "lat": 38.91385416666667, "bike_id": "53f8552d212e3b4371343afaec917472", "fusion_lon": 0.0}, {"rental_uris": {"ios": "https://dc.lft.to/lastmile_qr_scan", "android": "https://dc.lft.to/lastmile_qr_scan"}, "type": "electric_scooter", "name": "54588c6509079d3b379aa4106b6bee9b", "is_reserved": 0, "lon": -77.02071433333333, "is_disabled": 0, "fusion_lat": 0.0, "lat": 38.9125735, "bike_id": "54588c6509079d3b379aa4106b6bee9b", "fusion_lon": 0.0}, {"rental_uris": {"ios": "https://dc.lft.to/lastmile_qr_scan", "android": "https://dc.lft.to/lastmile_qr_scan"}, "type": "electric_scooter", "name": "7cb27e256dae26d5255de430c7be04b2", "is_reserved": 0, "lon": -77.0110235, "is_disabled": 0, "fusion_lat": 0.0, "lat": 38.8853855, "bike_id": "7cb27e256dae26d5255de430c7be04b2", "fusion_lon": 0.0}, {"rental_uris": {"ios": "https://dc.lft.to/lastmile_qr_scan", "android": "https://dc.lft.to/lastmile_qr_scan"}, "type": "electric_scooter", "name": "c91458c11bb3a3ee65404c448e7cceaf", "is_reserved": 0, "lon": -77.05869366666667, "is_disabled": 0, "fusion_lat": 0.0, "lat": 38.904243, "bike_id": "c91458c11bb3a3ee65404c448e7cceaf", "fusion_lon": 0.0}, {"rental_uris": {"ios": "https://dc.lft.to/lastmile_qr_scan", "android": "https://dc.lft.to/lastmile_qr_scan"}, "type": "electric_scooter", "name": "bef2a75cb0460bc936ba247f726c8937", "is_reserved": 0, "lon": -77.00775283333333, "is_disabled": 0, "fusion_lat": 0.0, "lat": 38.87847416666666, "bike_id": "bef2a75cb0460bc936ba247f726c8937", "fusion_lon": 0.0}, {"rental_uris": {"ios": "https://dc.lft.to/lastmile_qr_scan", "android": "https://dc.lft.to/lastmile_qr_scan"}, "type": "electric_scooter", "name": "b00d90d017b77de6cbce159492a521c7", "is_reserved": 0, "lon": -76.99036716666667, "is_disabled": 0, "fusion_lat": 0.0, "lat": 38.90275716666667, "bike_id": "b00d90d017b77de6cbce159492a521c7", "fusion_lon": 0.0}, {"rental_uris": {"ios": "https://dc.lft.to/lastmile_qr_scan", "android": "https://dc.lft.to/lastmile_qr_scan"}, "type": "electric_bike", "name": "33dca3bca3569ee23dd3ec09af52dc6d", "is_reserved": 0, "lon": -76.9610315, "is_disabled": 0, "fusion_lat": 0.0, "lat": 38.94962483333333, "bike_id": "33dca3bca3569ee23dd3ec09af52dc6d", "fusion_lon": 0.0}, {"rental_uris": {"ios": "https://dc.lft.to/lastmile_qr_scan", "android": "https://dc.lft.to/lastmile_qr_scan"}, "type": "electric_scooter", "name": "4ad0445bc347e181924bfc2fe2de1828", "is_reserved": 0, "lon": -77.03148683333333, "is_disabled": 0, "fusion_lat": 0.0, "lat": 38.88741266666667, "bike_id": "4ad0445bc347e181924bfc2fe2de1828", "fusion_lon": 0.0}, {"rental_uris": {"ios": "https://dc.lft.to/lastmile_qr_scan", "android": "https://dc.lft.to/lastmile_qr_scan"}, "type": "electric_bike", "name": "a539ecad7a39a73adc264e52b4fb78ce", "is_reserved": 0, "lon": -77.04478266666666, "is_disabled": 0, "fusion_lat": 0.0, "lat": 38.89719233333334, "bike_id": "a539ecad7a39a73adc264e52b4fb78ce", "fusion_lon": 0.0}, {"rental_uris": {"ios": "https://dc.lft.to/lastmile_qr_scan", "android": "https://dc.lft.to/lastmile_qr_scan"}, "type": "electric_scooter", "name": "916f6d86f2bb6b5fca8b686f662c3876", "is_reserved": 0, "lon": -77.03854183333333, "is_disabled": 0, "fusion_lat": 0.0, "lat": 38.911931333333335, "bike_id": "916f6d86f2bb6b5fca8b686f662c3876", "fusion_lon": 0.0}, {"rental_uris": {"ios": "https://dc.lft.to/lastmile_qr_scan", "android": "https://dc.lft.to/lastmile_qr_scan"}, "type": "electric_scooter", "name": "197db5aa7c8b0662431421f5466d1e48", "is_reserved": 0, "lon": -77.0247585, "is_disabled": 0, "fusion_lat": 0.0, "lat": 38.91697166666667, "bike_id": "197db5aa7c8b0662431421f5466d1e48", "fusion_lon": 0.0}, {"rental_uris": {"ios": "https://dc.lft.to/lastmile_qr_scan", "android": "https://dc.lft.to/lastmile_qr_scan"}, "type": "electric_scooter", "name": "44ded10ccad6e3366e35e824e9bdc320", "is_reserved": 0, "lon": -77.04645816666667, "is_disabled": 0, "fusion_lat": 0.0, "lat": 38.90065083333333, "bike_id": "44ded10ccad6e3366e35e824e9bdc320", "fusion_lon": 0.0}, {"rental_uris": {"ios": "https://dc.lft.to/lastmile_qr_scan", "android": "https://dc.lft.to/lastmile_qr_scan"}, "type": "electric_scooter", "name": "3b152ef59bfa107d7816e009897be5cd", "is_reserved": 0, "lon": -77.0020515, "is_disabled": 0, "fusion_lat": 0.0, "lat": 38.90162566666667, "bike_id": "3b152ef59bfa107d7816e009897be5cd", "fusion_lon": 0.0}, {"rental_uris": {"ios": "https://dc.lft.to/lastmile_qr_scan", "android": "https://dc.lft.to/lastmile_qr_scan"}, "type": "electric_scooter", "name": "63b7533da4d1a9da9fb1115d70eb61e6", "is_reserved": 0, "lon": -77.03979333333334, "is_disabled": 0, "fusion_lat": 0.0, "lat": 38.9096025, "bike_id": "63b7533da4d1a9da9fb1115d70eb61e6", "fusion_lon": 0.0}, {"rental_uris": {"ios": "https://dc.lft.to/lastmile_qr_scan", "android": "https://dc.lft.to/lastmile_qr_scan"}, "type": "electric_scooter", "name": "978904b1d679ea046d8a5abfb7e1e00f", "is_reserved": 0, "lon": -77.06821483333333, "is_disabled": 0, "fusion_lat": 0.0, "lat": 38.952111333333335, "bike_id": "978904b1d679ea046d8a5abfb7e1e00f", "fusion_lon": 0.0}, {"rental_uris": {"ios": "https://dc.lft.to/lastmile_qr_scan", "android": "https://dc.lft.to/lastmile_qr_scan"}, "type": "electric_bike", "name": "4896f27c326d0f04b4c4e739bd38e468", "is_reserved": 0, "lon": -77.01849816666666, "is_disabled": 0, "fusion_lat": 0.0, "lat": 38.931066333333334, "bike_id": "4896f27c326d0f04b4c4e739bd38e468", "fusion_lon": 0.0}, {"rental_uris": {"ios": "https://dc.lft.to/lastmile_qr_scan", "android": "https://dc.lft.to/lastmile_qr_scan"}, "type": "electric_bike", "name": "4ec897d351e60cb0ed55a853622091f7", "is_reserved": 0, "lon": -76.975501, "is_disabled": 0, "fusion_lat": 0.0, "lat": 38.90427566666666, "bike_id": "4ec897d351e60cb0ed55a853622091f7", "fusion_lon": 0.0}, {"rental_uris": {"ios": "https://dc.lft.to/lastmile_qr_scan", "android": "https://dc.lft.to/lastmile_qr_scan"}, "type": "electric_scooter", "name": "ea9ca6cf226853b7a670099439b7c26f", "is_reserved": 0, "lon": -77.019526, "is_disabled": 0, "fusion_lat": 0.0, "lat": 38.95041966666667, "bike_id": "ea9ca6cf226853b7a670099439b7c26f", "fusion_lon": 0.0}, {"rental_uris": {"ios": "https://dc.lft.to/lastmile_qr_scan", "android": "https://dc.lft.to/lastmile_qr_scan"}, "type": "electric_scooter", "name": "35410f42af2d34ec309588f4b710e495", "is_reserved": 0, "lon": -77.047001, "is_disabled": 0, "fusion_lat": 0.0, "lat": 38.92058466666667, "bike_id": "35410f42af2d34ec309588f4b710e495", "fusion_lon": 0.0}, {"rental_uris": {"ios": "https://dc.lft.to/lastmile_qr_scan", "android": "https://dc.lft.to/lastmile_qr_scan"}, "type": "electric_scooter", "name": "6e7484bc9c9e06af551d15b93216b4c5", "is_reserved": 0, "lon": -77.042262, "is_disabled": 0, "fusion_lat": 0.0, "lat": 38.92285483333333, "bike_id": "6e7484bc9c9e06af551d15b93216b4c5", "fusion_lon": 0.0}, {"rental_uris": {"ios": "https://dc.lft.to/lastmile_qr_scan", "android": "https://dc.lft.to/lastmile_qr_scan"}, "type": "electric_scooter", "name": "844c57a775455f9c8cdc39f10b30416d", "is_reserved": 0, "lon": -77.0223095, "is_disabled": 0, "fusion_lat": 0.0, "lat": 38.891962166666666, "bike_id": "844c57a775455f9c8cdc39f10b30416d", "fusion_lon": 0.0}, {"rental_uris": {"ios": "https://dc.lft.to/lastmile_qr_scan", "android": "https://dc.lft.to/lastmile_qr_scan"}, "type": "electric_scooter", "name": "c7f60b0a59f13e9504af5e5148925ab6", "is_reserved": 0, "lon": -77.01181016666666, "is_disabled": 0, "fusion_lat": 0.0, "lat": 38.9515275, "bike_id": "c7f60b0a59f13e9504af5e5148925ab6", "fusion_lon": 0.0}, {"rental_uris": {"ios": "https://dc.lft.to/lastmile_qr_scan", "android": "https://dc.lft.to/lastmile_qr_scan"}, "type": "electric_scooter", "name": "f141b5e4f522e2b57fa383a1bfef5fd4", "is_reserved": 0, "lon": -77.0347535, "is_disabled": 0, "fusion_lat": 0.0, "lat": 38.9353095, "bike_id": "f141b5e4f522e2b57fa383a1bfef5fd4", "fusion_lon": 0.0}, {"rental_uris": {"ios": "https://dc.lft.to/lastmile_qr_scan", "android": "https://dc.lft.to/lastmile_qr_scan"}, "type": "electric_bike", "name": "ec756102fe1f50fbbc6ce1987b3619ed", "is_reserved": 0, "lon": -76.95159533333333, "is_disabled": 0, "fusion_lat": 0.0, "lat": 39.084370666666665, "bike_id": "ec756102fe1f50fbbc6ce1987b3619ed", "fusion_lon": 0.0}, {"rental_uris": {"ios": "https://dc.lft.to/lastmile_qr_scan", "android": "https://dc.lft.to/lastmile_qr_scan"}, "type": "electric_scooter", "name": "a378f7dd49be2e43045da3855e743889", "is_reserved": 0, "lon": -77.032739, "is_disabled": 0, "fusion_lat": 0.0, "lat": 38.932476, "bike_id": "a378f7dd49be2e43045da3855e743889", "fusion_lon": 0.0}, {"rental_uris": {"ios": "https://dc.lft.to/lastmile_qr_scan", "android": "https://dc.lft.to/lastmile_qr_scan"}, "type": "electric_scooter", "name": "f62aa2d081fa7bd9ceccee7633f76dd9", "is_reserved": 0, "lon": -77.0203185, "is_disabled": 0, "fusion_lat": 0.0, "lat": 38.894424666666666, "bike_id": "f62aa2d081fa7bd9ceccee7633f76dd9", "fusion_lon": 0.0}, {"rental_uris": {"ios": "https://dc.lft.to/lastmile_qr_scan", "android": "https://dc.lft.to/lastmile_qr_scan"}, "type": "electric_scooter", "name": "a1e137870b9428df2dda544fe74b8b79", "is_reserved": 0, "lon": -77.0134205, "is_disabled": 0, "fusion_lat": 0.0, "lat": 38.91916633333334, "bike_id": "a1e137870b9428df2dda544fe74b8b79", "fusion_lon": 0.0}, {"rental_uris": {"ios": "https://dc.lft.to/lastmile_qr_scan", "android": "https://dc.lft.to/lastmile_qr_scan"}, "type": "electric_scooter", "name": "8137c532406249bf84150a2580ed23c4", "is_reserved": 0, "lon": -77.001582, "is_disabled": 0, "fusion_lat": 0.0, "lat": 38.821339, "bike_id": "8137c532406249bf84150a2580ed23c4", "fusion_lon": 0.0}, {"rental_uris": {"ios": "https://dc.lft.to/lastmile_qr_scan", "android": "https://dc.lft.to/lastmile_qr_scan"}, "type": "electric_scooter", "name": "4f54ddf64d8cb9252fec839e5641a324", "is_reserved": 0, "lon": -77.075648, "is_disabled": 0, "fusion_lat": 0.0, "lat": 38.90646783333333, "bike_id": "4f54ddf64d8cb9252fec839e5641a324", "fusion_lon": 0.0}, {"rental_uris": {"ios": "https://dc.lft.to/lastmile_qr_scan", "android": "https://dc.lft.to/lastmile_qr_scan"}, "type": "electric_scooter", "name": "6293037ed1734a2a91661ab2b7a6f77a", "is_reserved": 0, "lon": -77.03828166666666, "is_disabled": 0, "fusion_lat": 0.0, "lat": 38.9111215, "bike_id": "6293037ed1734a2a91661ab2b7a6f77a", "fusion_lon": 0.0}, {"rental_uris": {"ios": "https://dc.lft.to/lastmile_qr_scan", "android": "https://dc.lft.to/lastmile_qr_scan"}, "type": "electric_scooter", "name": "63e18ec8083e3300cef41fc58a01568b", "is_reserved": 0, "lon": -77.03635516666667, "is_disabled": 0, "fusion_lat": 0.0, "lat": 38.924097, "bike_id": "63e18ec8083e3300cef41fc58a01568b", "fusion_lon": 0.0}, {"rental_uris": {"ios": "https://dc.lft.to/lastmile_qr_scan", "android": "https://dc.lft.to/lastmile_qr_scan"}, "type": "electric_scooter", "name": "45c603f63e7ce57bfce3877a92d93d45", "is_reserved": 0, "lon": -76.9889255, "is_disabled": 0, "fusion_lat": 0.0, "lat": 38.9064865, "bike_id": "45c603f63e7ce57bfce3877a92d93d45", "fusion_lon": 0.0}, {"rental_uris": {"ios": "https://dc.lft.to/lastmile_qr_scan", "android": "https://dc.lft.to/lastmile_qr_scan"}, "type": "electric_scooter", "name": "db063093e70789e3a854cb6e903499d3", "is_reserved": 0, "lon": -77.00245866666667, "is_disabled": 0, "fusion_lat": 0.0, "lat": 38.90016983333334, "bike_id": "db063093e70789e3a854cb6e903499d3", "fusion_lon": 0.0}, {"rental_uris": {"ios": "https://dc.lft.to/lastmile_qr_scan", "android": "https://dc.lft.to/lastmile_qr_scan"}, "type": "electric_scooter", "name": "ac5e8db7bae4cd5266fec5783029ef9d", "is_reserved": 0, "lon": -77.02048733333334, "is_disabled": 0, "fusion_lat": 0.0, "lat": 38.92923966666667, "bike_id": "ac5e8db7bae4cd5266fec5783029ef9d", "fusion_lon": 0.0}, {"rental_uris": {"ios": "https://dc.lft.to/lastmile_qr_scan", "android": "https://dc.lft.to/lastmile_qr_scan"}, "type": "electric_scooter", "name": "f426a66ebac93e1256dbff3adf700e6d", "is_reserved": 0, "lon": -77.023429, "is_disabled": 0, "fusion_lat": 0.0, "lat": 38.93177283333333, "bike_id": "f426a66ebac93e1256dbff3adf700e6d", "fusion_lon": 0.0}, {"rental_uris": {"ios": "https://dc.lft.to/lastmile_qr_scan", "android": "https://dc.lft.to/lastmile_qr_scan"}, "type": "electric_scooter", "name": "a602d768c7743c4f40061bd260e3e6c2", "is_reserved": 0, "lon": -77.03188333333334, "is_disabled": 0, "fusion_lat": 0.0, "lat": 38.91625416666667, "bike_id": "a602d768c7743c4f40061bd260e3e6c2", "fusion_lon": 0.0}, {"rental_uris": {"ios": "https://dc.lft.to/lastmile_qr_scan", "android": "https://dc.lft.to/lastmile_qr_scan"}, "type": "electric_bike", "name": "ad6ea5b7400ecf61f877c3415c904bbd", "is_reserved": 0, "lon": -76.99442783333333, "is_disabled": 0, "fusion_lat": 0.0, "lat": 38.831043, "bike_id": "ad6ea5b7400ecf61f877c3415c904bbd", "fusion_lon": 0.0}, {"rental_uris": {"ios": "https://dc.lft.to/lastmile_qr_scan", "android": "https://dc.lft.to/lastmile_qr_scan"}, "type": "electric_scooter", "name": "675f3f05743e711f7fccb78d8f78065b", "is_reserved": 0, "lon": -77.043522, "is_disabled": 0, "fusion_lat": 0.0, "lat": 38.9104865, "bike_id": "675f3f05743e711f7fccb78d8f78065b", "fusion_lon": 0.0}, {"rental_uris": {"ios": "https://dc.lft.to/lastmile_qr_scan", "android": "https://dc.lft.to/lastmile_qr_scan"}, "type": "electric_scooter", "name": "1f121c0ac8858a4918334f282dcea6df", "is_reserved": 0, "lon": -77.04396933333334, "is_disabled": 0, "fusion_lat": 0.0, "lat": 38.92042583333333, "bike_id": "1f121c0ac8858a4918334f282dcea6df", "fusion_lon": 0.0}, {"rental_uris": {"ios": "https://dc.lft.to/lastmile_qr_scan", "android": "https://dc.lft.to/lastmile_qr_scan"}, "type": "electric_scooter", "name": "d9242159ab70fdba3558f905c35b04b8", "is_reserved": 0, "lon": -77.04857683333333, "is_disabled": 0, "fusion_lat": 0.0, "lat": 38.912660333333335, "bike_id": "d9242159ab70fdba3558f905c35b04b8", "fusion_lon": 0.0}, {"rental_uris": {"ios": "https://dc.lft.to/lastmile_qr_scan", "android": "https://dc.lft.to/lastmile_qr_scan"}, "type": "electric_scooter", "name": "c88d5ead094dc882f3e2f4ac6237ccb5", "is_reserved": 0, "lon": -77.03666916666667, "is_disabled": 0, "fusion_lat": 0.0, "lat": 38.92118333333333, "bike_id": "c88d5ead094dc882f3e2f4ac6237ccb5", "fusion_lon": 0.0}, {"rental_uris": {"ios": "https://dc.lft.to/lastmile_qr_scan", "android": "https://dc.lft.to/lastmile_qr_scan"}, "type": "electric_scooter", "name": "fa37fdb82feebcc4263fa712e7f18e0c", "is_reserved": 0, "lon": -77.02536066666667, "is_disabled": 0, "fusion_lat": 0.0, "lat": 38.945313166666665, "bike_id": "fa37fdb82feebcc4263fa712e7f18e0c", "fusion_lon": 0.0}, {"rental_uris": {"ios": "https://dc.lft.to/lastmile_qr_scan", "android": "https://dc.lft.to/lastmile_qr_scan"}, "type": "electric_scooter", "name": "1632a6106621f255380d5019a35eddb4", "is_reserved": 0, "lon": -76.93373333333334, "is_disabled": 0, "fusion_lat": 0.0, "lat": 38.898664833333335, "bike_id": "1632a6106621f255380d5019a35eddb4", "fusion_lon": 0.0}, {"rental_uris": {"ios": "https://dc.lft.to/lastmile_qr_scan", "android": "https://dc.lft.to/lastmile_qr_scan"}, "type": "electric_scooter", "name": "9432fc63978fff5542e1837c146e432a", "is_reserved": 0, "lon": -77.0215295, "is_disabled": 0, "fusion_lat": 0.0, "lat": 38.88741866666667, "bike_id": "9432fc63978fff5542e1837c146e432a", "fusion_lon": 0.0}, {"rental_uris": {"ios": "https://dc.lft.to/lastmile_qr_scan", "android": "https://dc.lft.to/lastmile_qr_scan"}, "type": "electric_scooter", "name": "8cb537f5694e27f0f0bbc14dd137ab06", "is_reserved": 0, "lon": -77.02359316666667, "is_disabled": 0, "fusion_lat": 0.0, "lat": 38.935300166666664, "bike_id": "8cb537f5694e27f0f0bbc14dd137ab06", "fusion_lon": 0.0}, {"rental_uris": {"ios": "https://dc.lft.to/lastmile_qr_scan", "android": "https://dc.lft.to/lastmile_qr_scan"}, "type": "electric_bike", "name": "ac2299c9938b7962590be54fad1bf370", "is_reserved": 0, "lon": -76.98685566666667, "is_disabled": 0, "fusion_lat": 0.0, "lat": 38.944764166666666, "bike_id": "ac2299c9938b7962590be54fad1bf370", "fusion_lon": 0.0}, {"rental_uris": {"ios": "https://dc.lft.to/lastmile_qr_scan", "android": "https://dc.lft.to/lastmile_qr_scan"}, "type": "electric_scooter", "name": "d13a782d680f331f276363cc1580391e", "is_reserved": 0, "lon": -76.99905816666667, "is_disabled": 0, "fusion_lat": 0.0, "lat": 38.937491, "bike_id": "d13a782d680f331f276363cc1580391e", "fusion_lon": 0.0}, {"rental_uris": {"ios": "https://dc.lft.to/lastmile_qr_scan", "android": "https://dc.lft.to/lastmile_qr_scan"}, "type": "electric_scooter", "name": "58af0cfc44baa5cd2f7e572d55ac80f9", "is_reserved": 0, "lon": -77.04241216666667, "is_disabled": 0, "fusion_lat": 0.0, "lat": 38.92180966666667, "bike_id": "58af0cfc44baa5cd2f7e572d55ac80f9", "fusion_lon": 0.0}, {"rental_uris": {"ios": "https://dc.lft.to/lastmile_qr_scan", "android": "https://dc.lft.to/lastmile_qr_scan"}, "type": "electric_scooter", "name": "b5cd9d2e1c01de39a2a6a0a8b0edc25d", "is_reserved": 0, "lon": -77.024033, "is_disabled": 0, "fusion_lat": 0.0, "lat": 38.93384733333333, "bike_id": "b5cd9d2e1c01de39a2a6a0a8b0edc25d", "fusion_lon": 0.0}, {"rental_uris": {"ios": "https://dc.lft.to/lastmile_qr_scan", "android": "https://dc.lft.to/lastmile_qr_scan"}, "type": "electric_scooter", "name": "58d99ebe22a59231715a942033681bc2", "is_reserved": 0, "lon": -77.0129465, "is_disabled": 0, "fusion_lat": 0.0, "lat": 38.9018085, "bike_id": "58d99ebe22a59231715a942033681bc2", "fusion_lon": 0.0}, {"rental_uris": {"ios": "https://dc.lft.to/lastmile_qr_scan", "android": "https://dc.lft.to/lastmile_qr_scan"}, "type": "electric_scooter", "name": "0eaf674bd88cea6c1b7e5ad565c78a4a", "is_reserved": 0, "lon": -77.03868716666666, "is_disabled": 0, "fusion_lat": 0.0, "lat": 38.9117295, "bike_id": "0eaf674bd88cea6c1b7e5ad565c78a4a", "fusion_lon": 0.0}, {"rental_uris": {"ios": "https://dc.lft.to/lastmile_qr_scan", "android": "https://dc.lft.to/lastmile_qr_scan"}, "type": "electric_bike", "name": "b6fe9dbce7b946ada23417679335d9a7", "is_reserved": 0, "lon": -77.08141416666666, "is_disabled": 0, "fusion_lat": 0.0, "lat": 38.82296516666667, "bike_id": "b6fe9dbce7b946ada23417679335d9a7", "fusion_lon": 0.0}, {"rental_uris": {"ios": "https://dc.lft.to/lastmile_qr_scan", "android": "https://dc.lft.to/lastmile_qr_scan"}, "type": "electric_scooter", "name": "f05a651f646bbc379c2d95a976ecd5a9", "is_reserved": 0, "lon": -77.03504383333333, "is_disabled": 0, "fusion_lat": 0.0, "lat": 38.9215975, "bike_id": "f05a651f646bbc379c2d95a976ecd5a9", "fusion_lon": 0.0}, {"rental_uris": {"ios": "https://dc.lft.to/lastmile_qr_scan", "android": "https://dc.lft.to/lastmile_qr_scan"}, "type": "electric_bike", "name": "cb96212c68ea3909f45be95b048abc0b", "is_reserved": 0, "lon": -77.0037815, "is_disabled": 0, "fusion_lat": 0.0, "lat": 38.836039666666665, "bike_id": "cb96212c68ea3909f45be95b048abc0b", "fusion_lon": 0.0}, {"rental_uris": {"ios": "https://dc.lft.to/lastmile_qr_scan", "android": "https://dc.lft.to/lastmile_qr_scan"}, "type": "electric_scooter", "name": "ab866ab8fd896bde6672e20cbc156c31", "is_reserved": 0, "lon": -77.01637866666667, "is_disabled": 0, "fusion_lat": 0.0, "lat": 38.90246916666667, "bike_id": "ab866ab8fd896bde6672e20cbc156c31", "fusion_lon": 0.0}, {"rental_uris": {"ios": "https://dc.lft.to/lastmile_qr_scan", "android": "https://dc.lft.to/lastmile_qr_scan"}, "type": "electric_scooter", "name": "ac0c30b2364c85ada7eddffa2beaabce", "is_reserved": 0, "lon": -77.020735, "is_disabled": 0, "fusion_lat": 0.0, "lat": 38.930206166666665, "bike_id": "ac0c30b2364c85ada7eddffa2beaabce", "fusion_lon": 0.0}, {"rental_uris": {"ios": "https://dc.lft.to/lastmile_qr_scan", "android": "https://dc.lft.to/lastmile_qr_scan"}, "type": "electric_scooter", "name": "314c2404964d7f6d66bc2731b110e550", "is_reserved": 0, "lon": -77.02728933333333, "is_disabled": 0, "fusion_lat": 0.0, "lat": 38.91700133333333, "bike_id": "314c2404964d7f6d66bc2731b110e550", "fusion_lon": 0.0}, {"rental_uris": {"ios": "https://dc.lft.to/lastmile_qr_scan", "android": "https://dc.lft.to/lastmile_qr_scan"}, "type": "electric_scooter", "name": "ebf06d33a495172fd780c4153c8ba397", "is_reserved": 0, "lon": -77.03838966666666, "is_disabled": 0, "fusion_lat": 0.0, "lat": 38.90838816666667, "bike_id": "ebf06d33a495172fd780c4153c8ba397", "fusion_lon": 0.0}, {"rental_uris": {"ios": "https://dc.lft.to/lastmile_qr_scan", "android": "https://dc.lft.to/lastmile_qr_scan"}, "type": "electric_scooter", "name": "a172a7e5e232164d52977ef18f90a4d4", "is_reserved": 0, "lon": -77.02093483333333, "is_disabled": 0, "fusion_lat": 0.0, "lat": 38.9311495, "bike_id": "a172a7e5e232164d52977ef18f90a4d4", "fusion_lon": 0.0}, {"rental_uris": {"ios": "https://dc.lft.to/lastmile_qr_scan", "android": "https://dc.lft.to/lastmile_qr_scan"}, "type": "electric_bike", "name": "e14b6d645420d09bf99e9779bd3e89e8", "is_reserved": 0, "lon": -76.96319166666666, "is_disabled": 0, "fusion_lat": 0.0, "lat": 38.938997, "bike_id": "e14b6d645420d09bf99e9779bd3e89e8", "fusion_lon": 0.0}, {"rental_uris": {"ios": "https://dc.lft.to/lastmile_qr_scan", "android": "https://dc.lft.to/lastmile_qr_scan"}, "type": "electric_scooter", "name": "fac46e5923864a3c61b8bd4b5dcbeb57", "is_reserved": 0, "lon": -77.00171966666667, "is_disabled": 0, "fusion_lat": 0.0, "lat": 38.90760066666667, "bike_id": "fac46e5923864a3c61b8bd4b5dcbeb57", "fusion_lon": 0.0}, {"rental_uris": {"ios": "https://dc.lft.to/lastmile_qr_scan", "android": "https://dc.lft.to/lastmile_qr_scan"}, "type": "electric_scooter", "name": "4952f64e13e261cda532b910476d77e0", "is_reserved": 0, "lon": -77.01060566666666, "is_disabled": 0, "fusion_lat": 0.0, "lat": 38.9119235, "bike_id": "4952f64e13e261cda532b910476d77e0", "fusion_lon": 0.0}, {"rental_uris": {"ios": "https://dc.lft.to/lastmile_qr_scan", "android": "https://dc.lft.to/lastmile_qr_scan"}, "type": "electric_scooter", "name": "68883f2dd303105bcec5e039f1f07c4e", "is_reserved": 0, "lon": -77.0333455, "is_disabled": 0, "fusion_lat": 0.0, "lat": 38.92883616666667, "bike_id": "68883f2dd303105bcec5e039f1f07c4e", "fusion_lon": 0.0}, {"rental_uris": {"ios": "https://dc.lft.to/lastmile_qr_scan", "android": "https://dc.lft.to/lastmile_qr_scan"}, "type": "electric_bike", "name": "c3a1e6317e54f56b92f8c7b4f2482dac", "is_reserved": 0, "lon": -77.061631, "is_disabled": 0, "fusion_lat": 0.0, "lat": 38.929107, "bike_id": "c3a1e6317e54f56b92f8c7b4f2482dac", "fusion_lon": 0.0}, {"rental_uris": {"ios": "https://dc.lft.to/lastmile_qr_scan", "android": "https://dc.lft.to/lastmile_qr_scan"}, "type": "electric_scooter", "name": "714079ba7c314419daa6a4bc491697ca", "is_reserved": 0, "lon": -77.02019766666666, "is_disabled": 0, "fusion_lat": 0.0, "lat": 38.9232295, "bike_id": "714079ba7c314419daa6a4bc491697ca", "fusion_lon": 0.0}, {"rental_uris": {"ios": "https://dc.lft.to/lastmile_qr_scan", "android": "https://dc.lft.to/lastmile_qr_scan"}, "type": "electric_scooter", "name": "52e9eab43faaedf079ee5e9cc13205f7", "is_reserved": 0, "lon": -77.03640433333334, "is_disabled": 0, "fusion_lat": 0.0, "lat": 38.924837333333336, "bike_id": "52e9eab43faaedf079ee5e9cc13205f7", "fusion_lon": 0.0}, {"rental_uris": {"ios": "https://dc.lft.to/lastmile_qr_scan", "android": "https://dc.lft.to/lastmile_qr_scan"}, "type": "electric_scooter", "name": "108223473fc8939d3b0928ff339c6160", "is_reserved": 0, "lon": -77.00556466666667, "is_disabled": 0, "fusion_lat": 0.0, "lat": 38.91180933333333, "bike_id": "108223473fc8939d3b0928ff339c6160", "fusion_lon": 0.0}, {"rental_uris": {"ios": "https://dc.lft.to/lastmile_qr_scan", "android": "https://dc.lft.to/lastmile_qr_scan"}, "type": "electric_scooter", "name": "bf7104d2a40fd023fe64d3da2a2e8a8c", "is_reserved": 0, "lon": -77.00301583333334, "is_disabled": 0, "fusion_lat": 0.0, "lat": 38.908962833333334, "bike_id": "bf7104d2a40fd023fe64d3da2a2e8a8c", "fusion_lon": 0.0}, {"rental_uris": {"ios": "https://dc.lft.to/lastmile_qr_scan", "android": "https://dc.lft.to/lastmile_qr_scan"}, "type": "electric_bike", "name": "4f2f4ddd6430b34a67d14fd65aa02cf3", "is_reserved": 0, "lon": -77.042977, "is_disabled": 0, "fusion_lat": 0.0, "lat": 39.034231, "bike_id": "4f2f4ddd6430b34a67d14fd65aa02cf3", "fusion_lon": 0.0}, {"rental_uris": {"ios": "https://dc.lft.to/lastmile_qr_scan", "android": "https://dc.lft.to/lastmile_qr_scan"}, "type": "electric_scooter", "name": "937bb5f7acd97bcd19acc06f1c246029", "is_reserved": 0, "lon": -77.00524633333333, "is_disabled": 0, "fusion_lat": 0.0, "lat": 38.87920366666667, "bike_id": "937bb5f7acd97bcd19acc06f1c246029", "fusion_lon": 0.0}, {"rental_uris": {"ios": "https://dc.lft.to/lastmile_qr_scan", "android": "https://dc.lft.to/lastmile_qr_scan"}, "type": "electric_scooter", "name": "117943d6fddf0a7afb13f5225dd5cdec", "is_reserved": 0, "lon": -76.9312985, "is_disabled": 0, "fusion_lat": 0.0, "lat": 38.876417833333335, "bike_id": "117943d6fddf0a7afb13f5225dd5cdec", "fusion_lon": 0.0}, {"rental_uris": {"ios": "https://dc.lft.to/lastmile_qr_scan", "android": "https://dc.lft.to/lastmile_qr_scan"}, "type": "electric_scooter", "name": "358e60a60fd1123c9267aaba3c8fac68", "is_reserved": 0, "lon": -77.03304083333333, "is_disabled": 0, "fusion_lat": 0.0, "lat": 38.92650016666666, "bike_id": "358e60a60fd1123c9267aaba3c8fac68", "fusion_lon": 0.0}, {"rental_uris": {"ios": "https://dc.lft.to/lastmile_qr_scan", "android": "https://dc.lft.to/lastmile_qr_scan"}, "type": "electric_scooter", "name": "bf249ac65f5bdbf3731bd09930754deb", "is_reserved": 0, "lon": -76.9963245, "is_disabled": 0, "fusion_lat": 0.0, "lat": 38.87736316666667, "bike_id": "bf249ac65f5bdbf3731bd09930754deb", "fusion_lon": 0.0}, {"rental_uris": {"ios": "https://dc.lft.to/lastmile_qr_scan", "android": "https://dc.lft.to/lastmile_qr_scan"}, "type": "electric_scooter", "name": "f1f91c0b419992d4339b90691c0e05fd", "is_reserved": 0, "lon": -77.002184, "is_disabled": 0, "fusion_lat": 0.0, "lat": 38.914432166666664, "bike_id": "f1f91c0b419992d4339b90691c0e05fd", "fusion_lon": 0.0}, {"rental_uris": {"ios": "https://dc.lft.to/lastmile_qr_scan", "android": "https://dc.lft.to/lastmile_qr_scan"}, "type": "electric_scooter", "name": "32158d2f7d15b7382fb0546589794254", "is_reserved": 0, "lon": -77.04518566666667, "is_disabled": 0, "fusion_lat": 0.0, "lat": 38.907943, "bike_id": "32158d2f7d15b7382fb0546589794254", "fusion_lon": 0.0}, {"rental_uris": {"ios": "https://dc.lft.to/lastmile_qr_scan", "android": "https://dc.lft.to/lastmile_qr_scan"}, "type": "electric_scooter", "name": "02b87c24cea3d39b336821b2e64f67c5", "is_reserved": 0, "lon": -77.07456233333333, "is_disabled": 0, "fusion_lat": 0.0, "lat": 38.93778116666667, "bike_id": "02b87c24cea3d39b336821b2e64f67c5", "fusion_lon": 0.0}, {"rental_uris": {"ios": "https://dc.lft.to/lastmile_qr_scan", "android": "https://dc.lft.to/lastmile_qr_scan"}, "type": "electric_scooter", "name": "8dc0acb1c4c5f6048b3b176ede2b5baa", "is_reserved": 0, "lon": -77.01763033333333, "is_disabled": 0, "fusion_lat": 0.0, "lat": 38.9004435, "bike_id": "8dc0acb1c4c5f6048b3b176ede2b5baa", "fusion_lon": 0.0}, {"rental_uris": {"ios": "https://dc.lft.to/lastmile_qr_scan", "android": "https://dc.lft.to/lastmile_qr_scan"}, "type": "electric_scooter", "name": "3a5e1224b8e087a4df06a4d0588f80db", "is_reserved": 0, "lon": -76.98103283333333, "is_disabled": 0, "fusion_lat": 0.0, "lat": 38.9024855, "bike_id": "3a5e1224b8e087a4df06a4d0588f80db", "fusion_lon": 0.0}, {"rental_uris": {"ios": "https://dc.lft.to/lastmile_qr_scan", "android": "https://dc.lft.to/lastmile_qr_scan"}, "type": "electric_scooter", "name": "b160684b180ff18c368373a8d30d406d", "is_reserved": 0, "lon": -77.01023533333333, "is_disabled": 0, "fusion_lat": 0.0, "lat": 38.90621066666667, "bike_id": "b160684b180ff18c368373a8d30d406d", "fusion_lon": 0.0}, {"rental_uris": {"ios": "https://dc.lft.to/lastmile_qr_scan", "android": "https://dc.lft.to/lastmile_qr_scan"}, "type": "electric_scooter", "name": "49ca982ff409b8c532e8772506e4fb71", "is_reserved": 0, "lon": -76.99346, "is_disabled": 0, "fusion_lat": 0.0, "lat": 38.87690166666667, "bike_id": "49ca982ff409b8c532e8772506e4fb71", "fusion_lon": 0.0}, {"rental_uris": {"ios": "https://dc.lft.to/lastmile_qr_scan", "android": "https://dc.lft.to/lastmile_qr_scan"}, "type": "electric_bike", "name": "3c1151dd0b3a1171eb507bb597e2fdca", "is_reserved": 0, "lon": -77.11351216666667, "is_disabled": 0, "fusion_lat": 0.0, "lat": 38.84194683333333, "bike_id": "3c1151dd0b3a1171eb507bb597e2fdca", "fusion_lon": 0.0}, {"rental_uris": {"ios": "https://dc.lft.to/lastmile_qr_scan", "android": "https://dc.lft.to/lastmile_qr_scan"}, "type": "electric_scooter", "name": "ae78d7f7616bfdc90bdb421ed8afe4ef", "is_reserved": 0, "lon": -77.03202466666667, "is_disabled": 0, "fusion_lat": 0.0, "lat": 38.91815883333334, "bike_id": "ae78d7f7616bfdc90bdb421ed8afe4ef", "fusion_lon": 0.0}, {"rental_uris": {"ios": "https://dc.lft.to/lastmile_qr_scan", "android": "https://dc.lft.to/lastmile_qr_scan"}, "type": "electric_scooter", "name": "104174cdd053e8b460b3eef367852dd5", "is_reserved": 0, "lon": -77.0316545, "is_disabled": 0, "fusion_lat": 0.0, "lat": 38.91410533333333, "bike_id": "104174cdd053e8b460b3eef367852dd5", "fusion_lon": 0.0}, {"rental_uris": {"ios": "https://dc.lft.to/lastmile_qr_scan", "android": "https://dc.lft.to/lastmile_qr_scan"}, "type": "electric_scooter", "name": "74db511340bb0e6cc0dc15cee0b02216", "is_reserved": 0, "lon": -77.04253466666667, "is_disabled": 0, "fusion_lat": 0.0, "lat": 38.9229175, "bike_id": "74db511340bb0e6cc0dc15cee0b02216", "fusion_lon": 0.0}, {"rental_uris": {"ios": "https://dc.lft.to/lastmile_qr_scan", "android": "https://dc.lft.to/lastmile_qr_scan"}, "type": "electric_scooter", "name": "236b5f04cc3c01691baf24753ff29f72", "is_reserved": 0, "lon": -77.02191233333333, "is_disabled": 0, "fusion_lat": 0.0, "lat": 38.90971666666667, "bike_id": "236b5f04cc3c01691baf24753ff29f72", "fusion_lon": 0.0}, {"rental_uris": {"ios": "https://dc.lft.to/lastmile_qr_scan", "android": "https://dc.lft.to/lastmile_qr_scan"}, "type": "electric_scooter", "name": "f4bc1f00b8b63d05ad2a68e695467a8d", "is_reserved": 0, "lon": -77.00087033333334, "is_disabled": 0, "fusion_lat": 0.0, "lat": 38.908424833333335, "bike_id": "f4bc1f00b8b63d05ad2a68e695467a8d", "fusion_lon": 0.0}, {"rental_uris": {"ios": "https://dc.lft.to/lastmile_qr_scan", "android": "https://dc.lft.to/lastmile_qr_scan"}, "type": "electric_scooter", "name": "fd8da7930609a06c443d938c62485cb5", "is_reserved": 0, "lon": -77.0606475, "is_disabled": 0, "fusion_lat": 0.0, "lat": 38.8860905, "bike_id": "fd8da7930609a06c443d938c62485cb5", "fusion_lon": 0.0}, {"rental_uris": {"ios": "https://dc.lft.to/lastmile_qr_scan", "android": "https://dc.lft.to/lastmile_qr_scan"}, "type": "electric_bike", "name": "c67a49f2bc9ca21096553150f06fdfaf", "is_reserved": 0, "lon": -77.03882133333333, "is_disabled": 0, "fusion_lat": 0.0, "lat": 39.02635866666667, "bike_id": "c67a49f2bc9ca21096553150f06fdfaf", "fusion_lon": 0.0}, {"rental_uris": {"ios": "https://dc.lft.to/lastmile_qr_scan", "android": "https://dc.lft.to/lastmile_qr_scan"}, "type": "electric_scooter", "name": "0496e8a88ba518cfb8ecd05f5f905e48", "is_reserved": 0, "lon": -77.029385, "is_disabled": 0, "fusion_lat": 0.0, "lat": 38.91689733333333, "bike_id": "0496e8a88ba518cfb8ecd05f5f905e48", "fusion_lon": 0.0}, {"rental_uris": {"ios": "https://dc.lft.to/lastmile_qr_scan", "android": "https://dc.lft.to/lastmile_qr_scan"}, "type": "electric_bike", "name": "2cda2d0cba00c0a0c8fabc680696b991", "is_reserved": 0, "lon": -77.0962675, "is_disabled": 0, "fusion_lat": 0.0, "lat": 38.9524505, "bike_id": "2cda2d0cba00c0a0c8fabc680696b991", "fusion_lon": 0.0}, {"rental_uris": {"ios": "https://dc.lft.to/lastmile_qr_scan", "android": "https://dc.lft.to/lastmile_qr_scan"}, "type": "electric_scooter", "name": "482e6b9753d5f00ee881193a02ee48ae", "is_reserved": 0, "lon": -77.02097866666666, "is_disabled": 0, "fusion_lat": 0.0, "lat": 38.92705016666667, "bike_id": "482e6b9753d5f00ee881193a02ee48ae", "fusion_lon": 0.0}, {"rental_uris": {"ios": "https://dc.lft.to/lastmile_qr_scan", "android": "https://dc.lft.to/lastmile_qr_scan"}, "type": "electric_bike", "name": "068a42aef2af3da9cd84a548b4d032b2", "is_reserved": 0, "lon": -77.12736133333334, "is_disabled": 0, "fusion_lat": 0.0, "lat": 38.89566533333333, "bike_id": "068a42aef2af3da9cd84a548b4d032b2", "fusion_lon": 0.0}, {"rental_uris": {"ios": "https://dc.lft.to/lastmile_qr_scan", "android": "https://dc.lft.to/lastmile_qr_scan"}, "type": "electric_bike", "name": "05b5a2d1a9efb5119ec494327e7f62d7", "is_reserved": 0, "lon": -76.98018583333334, "is_disabled": 0, "fusion_lat": 0.0, "lat": 38.8531695, "bike_id": "05b5a2d1a9efb5119ec494327e7f62d7", "fusion_lon": 0.0}, {"rental_uris": {"ios": "https://dc.lft.to/lastmile_qr_scan", "android": "https://dc.lft.to/lastmile_qr_scan"}, "type": "electric_scooter", "name": "32489f65796851caa6175fff4b6c43f4", "is_reserved": 0, "lon": -77.01961983333334, "is_disabled": 0, "fusion_lat": 0.0, "lat": 38.92322866666667, "bike_id": "32489f65796851caa6175fff4b6c43f4", "fusion_lon": 0.0}, {"rental_uris": {"ios": "https://dc.lft.to/lastmile_qr_scan", "android": "https://dc.lft.to/lastmile_qr_scan"}, "type": "electric_scooter", "name": "53c69e5864a052462ac8af1e394280a5", "is_reserved": 0, "lon": -76.98161366666666, "is_disabled": 0, "fusion_lat": 0.0, "lat": 38.8993485, "bike_id": "53c69e5864a052462ac8af1e394280a5", "fusion_lon": 0.0}, {"rental_uris": {"ios": "https://dc.lft.to/lastmile_qr_scan", "android": "https://dc.lft.to/lastmile_qr_scan"}, "type": "electric_scooter", "name": "08c71a771b1bb12f2be419b83d20272f", "is_reserved": 0, "lon": -77.04080166666667, "is_disabled": 0, "fusion_lat": 0.0, "lat": 38.947889833333335, "bike_id": "08c71a771b1bb12f2be419b83d20272f", "fusion_lon": 0.0}, {"rental_uris": {"ios": "https://dc.lft.to/lastmile_qr_scan", "android": "https://dc.lft.to/lastmile_qr_scan"}, "type": "electric_bike", "name": "c7629512513f21c4e2bf6c9eed7bf207", "is_reserved": 0, "lon": -76.98244016666666, "is_disabled": 0, "fusion_lat": 0.0, "lat": 38.95244, "bike_id": "c7629512513f21c4e2bf6c9eed7bf207", "fusion_lon": 0.0}, {"rental_uris": {"ios": "https://dc.lft.to/lastmile_qr_scan", "android": "https://dc.lft.to/lastmile_qr_scan"}, "type": "electric_scooter", "name": "4894f99aa800daba4c2a656fcd33e896", "is_reserved": 0, "lon": -77.00571083333334, "is_disabled": 0, "fusion_lat": 0.0, "lat": 38.878352166666666, "bike_id": "4894f99aa800daba4c2a656fcd33e896", "fusion_lon": 0.0}, {"rental_uris": {"ios": "https://dc.lft.to/lastmile_qr_scan", "android": "https://dc.lft.to/lastmile_qr_scan"}, "type": "electric_scooter", "name": "ede2a940790140d498c24242a441725d", "is_reserved": 0, "lon": -77.02387283333333, "is_disabled": 0, "fusion_lat": 0.0, "lat": 38.9208315, "bike_id": "ede2a940790140d498c24242a441725d", "fusion_lon": 0.0}, {"rental_uris": {"ios": "https://dc.lft.to/lastmile_qr_scan", "android": "https://dc.lft.to/lastmile_qr_scan"}, "type": "electric_scooter", "name": "f519db00733bbd60a0d1176033cb2071", "is_reserved": 0, "lon": -77.03322083333333, "is_disabled": 0, "fusion_lat": 0.0, "lat": 38.9180225, "bike_id": "f519db00733bbd60a0d1176033cb2071", "fusion_lon": 0.0}, {"rental_uris": {"ios": "https://dc.lft.to/lastmile_qr_scan", "android": "https://dc.lft.to/lastmile_qr_scan"}, "type": "electric_scooter", "name": "8aff9c95cc86eeddadb4f871ac0ab6f6", "is_reserved": 0, "lon": -77.045695, "is_disabled": 0, "fusion_lat": 0.0, "lat": 38.92072233333333, "bike_id": "8aff9c95cc86eeddadb4f871ac0ab6f6", "fusion_lon": 0.0}, {"rental_uris": {"ios": "https://dc.lft.to/lastmile_qr_scan", "android": "https://dc.lft.to/lastmile_qr_scan"}, "type": "electric_scooter", "name": "12dffef302a7af50c0c90700543f242d", "is_reserved": 0, "lon": -77.04174116666667, "is_disabled": 0, "fusion_lat": 0.0, "lat": 38.916074333333334, "bike_id": "12dffef302a7af50c0c90700543f242d", "fusion_lon": 0.0}, {"rental_uris": {"ios": "https://dc.lft.to/lastmile_qr_scan", "android": "https://dc.lft.to/lastmile_qr_scan"}, "type": "electric_scooter", "name": "ea23ad09f507c56304e4755f45acc705", "is_reserved": 0, "lon": -77.04173766666666, "is_disabled": 0, "fusion_lat": 0.0, "lat": 38.919697666666664, "bike_id": "ea23ad09f507c56304e4755f45acc705", "fusion_lon": 0.0}, {"rental_uris": {"ios": "https://dc.lft.to/lastmile_qr_scan", "android": "https://dc.lft.to/lastmile_qr_scan"}, "type": "electric_scooter", "name": "464e4229ef866ec91a1f4e5a77759056", "is_reserved": 0, "lon": -77.01581266666666, "is_disabled": 0, "fusion_lat": 0.0, "lat": 38.91679283333333, "bike_id": "464e4229ef866ec91a1f4e5a77759056", "fusion_lon": 0.0}, {"rental_uris": {"ios": "https://dc.lft.to/lastmile_qr_scan", "android": "https://dc.lft.to/lastmile_qr_scan"}, "type": "electric_scooter", "name": "c087734395ffec32cff7f88270d514f1", "is_reserved": 0, "lon": -77.03902216666667, "is_disabled": 0, "fusion_lat": 0.0, "lat": 38.931403833333334, "bike_id": "c087734395ffec32cff7f88270d514f1", "fusion_lon": 0.0}, {"rental_uris": {"ios": "https://dc.lft.to/lastmile_qr_scan", "android": "https://dc.lft.to/lastmile_qr_scan"}, "type": "electric_bike", "name": "6239c546d54c4539dc08b7a5a406214c", "is_reserved": 0, "lon": -77.12939516666667, "is_disabled": 0, "fusion_lat": 0.0, "lat": 38.865934, "bike_id": "6239c546d54c4539dc08b7a5a406214c", "fusion_lon": 0.0}, {"rental_uris": {"ios": "https://dc.lft.to/lastmile_qr_scan", "android": "https://dc.lft.to/lastmile_qr_scan"}, "type": "electric_scooter", "name": "4f711417616d03066d34caccc1161ab8", "is_reserved": 0, "lon": -76.99010716666666, "is_disabled": 0, "fusion_lat": 0.0, "lat": 38.8642115, "bike_id": "4f711417616d03066d34caccc1161ab8", "fusion_lon": 0.0}, {"rental_uris": {"ios": "https://dc.lft.to/lastmile_qr_scan", "android": "https://dc.lft.to/lastmile_qr_scan"}, "type": "electric_scooter", "name": "9522c9367e128d7231632e94488975e9", "is_reserved": 0, "lon": -77.02301933333334, "is_disabled": 0, "fusion_lat": 0.0, "lat": 38.917893666666664, "bike_id": "9522c9367e128d7231632e94488975e9", "fusion_lon": 0.0}, {"rental_uris": {"ios": "https://dc.lft.to/lastmile_qr_scan", "android": "https://dc.lft.to/lastmile_qr_scan"}, "type": "electric_scooter", "name": "fa47b3440927f74706d5958d329c4162", "is_reserved": 0, "lon": -76.99919866666667, "is_disabled": 0, "fusion_lat": 0.0, "lat": 38.90050733333333, "bike_id": "fa47b3440927f74706d5958d329c4162", "fusion_lon": 0.0}, {"rental_uris": {"ios": "https://dc.lft.to/lastmile_qr_scan", "android": "https://dc.lft.to/lastmile_qr_scan"}, "type": "electric_scooter", "name": "3c7d4471d61f864742c2774215a15067", "is_reserved": 0, "lon": -77.03827983333333, "is_disabled": 0, "fusion_lat": 0.0, "lat": 38.962648, "bike_id": "3c7d4471d61f864742c2774215a15067", "fusion_lon": 0.0}, {"rental_uris": {"ios": "https://dc.lft.to/lastmile_qr_scan", "android": "https://dc.lft.to/lastmile_qr_scan"}, "type": "electric_scooter", "name": "eda4964d583b5b6c6d79ba13fc502bca", "is_reserved": 0, "lon": -77.07013583333334, "is_disabled": 0, "fusion_lat": 0.0, "lat": 38.893396333333335, "bike_id": "eda4964d583b5b6c6d79ba13fc502bca", "fusion_lon": 0.0}, {"rental_uris": {"ios": "https://dc.lft.to/lastmile_qr_scan", "android": "https://dc.lft.to/lastmile_qr_scan"}, "type": "electric_scooter", "name": "24b3d562c81495077ab9f61cbf712f9a", "is_reserved": 0, "lon": -76.93183083333334, "is_disabled": 0, "fusion_lat": 0.0, "lat": 38.89876533333333, "bike_id": "24b3d562c81495077ab9f61cbf712f9a", "fusion_lon": 0.0}, {"rental_uris": {"ios": "https://dc.lft.to/lastmile_qr_scan", "android": "https://dc.lft.to/lastmile_qr_scan"}, "type": "electric_bike", "name": "82b52600817a1f88e74045c2185c3283", "is_reserved": 0, "lon": -76.941532, "is_disabled": 0, "fusion_lat": 0.0, "lat": 38.8901745, "bike_id": "82b52600817a1f88e74045c2185c3283", "fusion_lon": 0.0}, {"rental_uris": {"ios": "https://dc.lft.to/lastmile_qr_scan", "android": "https://dc.lft.to/lastmile_qr_scan"}, "type": "electric_scooter", "name": "d63082005c80bee50d07a2c5315da152", "is_reserved": 0, "lon": -77.02506033333333, "is_disabled": 0, "fusion_lat": 0.0, "lat": 38.932858833333334, "bike_id": "d63082005c80bee50d07a2c5315da152", "fusion_lon": 0.0}, {"rental_uris": {"ios": "https://dc.lft.to/lastmile_qr_scan", "android": "https://dc.lft.to/lastmile_qr_scan"}, "type": "electric_scooter", "name": "dc7045eca1ac6b947f79fab0bbe207a2", "is_reserved": 0, "lon": -77.000361, "is_disabled": 0, "fusion_lat": 0.0, "lat": 38.874414333333334, "bike_id": "dc7045eca1ac6b947f79fab0bbe207a2", "fusion_lon": 0.0}, {"rental_uris": {"ios": "https://dc.lft.to/lastmile_qr_scan", "android": "https://dc.lft.to/lastmile_qr_scan"}, "type": "electric_scooter", "name": "f8d23eee66a0336cf4e57a4281fdcfae", "is_reserved": 0, "lon": -77.009547, "is_disabled": 0, "fusion_lat": 0.0, "lat": 38.91913383333333, "bike_id": "f8d23eee66a0336cf4e57a4281fdcfae", "fusion_lon": 0.0}, {"rental_uris": {"ios": "https://dc.lft.to/lastmile_qr_scan", "android": "https://dc.lft.to/lastmile_qr_scan"}, "type": "electric_scooter", "name": "499e4f923b0050e09dc512b02ee789d4", "is_reserved": 0, "lon": -77.03640366666667, "is_disabled": 0, "fusion_lat": 0.0, "lat": 38.918956666666666, "bike_id": "499e4f923b0050e09dc512b02ee789d4", "fusion_lon": 0.0}, {"rental_uris": {"ios": "https://dc.lft.to/lastmile_qr_scan", "android": "https://dc.lft.to/lastmile_qr_scan"}, "type": "electric_scooter", "name": "2d82a7beb8fd75c46a9f3a0616981668", "is_reserved": 0, "lon": -77.04564416666666, "is_disabled": 0, "fusion_lat": 0.0, "lat": 38.9095005, "bike_id": "2d82a7beb8fd75c46a9f3a0616981668", "fusion_lon": 0.0}, {"rental_uris": {"ios": "https://dc.lft.to/lastmile_qr_scan", "android": "https://dc.lft.to/lastmile_qr_scan"}, "type": "electric_scooter", "name": "005a7db4d2d1a22131dd70f17c2472bc", "is_reserved": 0, "lon": -77.05527216666667, "is_disabled": 0, "fusion_lat": 0.0, "lat": 38.909994, "bike_id": "005a7db4d2d1a22131dd70f17c2472bc", "fusion_lon": 0.0}, {"rental_uris": {"ios": "https://dc.lft.to/lastmile_qr_scan", "android": "https://dc.lft.to/lastmile_qr_scan"}, "type": "electric_scooter", "name": "c02cb9fe8eff9aacdc6d0d9dc354d35a", "is_reserved": 0, "lon": -77.00207416666667, "is_disabled": 0, "fusion_lat": 0.0, "lat": 38.9119055, "bike_id": "c02cb9fe8eff9aacdc6d0d9dc354d35a", "fusion_lon": 0.0}, {"rental_uris": {"ios": "https://dc.lft.to/lastmile_qr_scan", "android": "https://dc.lft.to/lastmile_qr_scan"}, "type": "electric_bike", "name": "b9c8fced8bc75cd1935a4f6288b0d839", "is_reserved": 0, "lon": -76.9574315, "is_disabled": 0, "fusion_lat": 0.0, "lat": 38.88860283333333, "bike_id": "b9c8fced8bc75cd1935a4f6288b0d839", "fusion_lon": 0.0}, {"rental_uris": {"ios": "https://dc.lft.to/lastmile_qr_scan", "android": "https://dc.lft.to/lastmile_qr_scan"}, "type": "electric_scooter", "name": "78befd9b6e3387959815939f42919797", "is_reserved": 0, "lon": -77.0296645, "is_disabled": 0, "fusion_lat": 0.0, "lat": 38.90488233333333, "bike_id": "78befd9b6e3387959815939f42919797", "fusion_lon": 0.0}, {"rental_uris": {"ios": "https://dc.lft.to/lastmile_qr_scan", "android": "https://dc.lft.to/lastmile_qr_scan"}, "type": "electric_scooter", "name": "a379a1e0d1542b64d9ef1192c1247575", "is_reserved": 0, "lon": -76.94718783333333, "is_disabled": 0, "fusion_lat": 0.0, "lat": 38.890834, "bike_id": "a379a1e0d1542b64d9ef1192c1247575", "fusion_lon": 0.0}, {"rental_uris": {"ios": "https://dc.lft.to/lastmile_qr_scan", "android": "https://dc.lft.to/lastmile_qr_scan"}, "type": "electric_scooter", "name": "a890639767583a720ebd0c330edbdec4", "is_reserved": 0, "lon": -77.016315, "is_disabled": 0, "fusion_lat": 0.0, "lat": 38.903628499999996, "bike_id": "a890639767583a720ebd0c330edbdec4", "fusion_lon": 0.0}, {"rental_uris": {"ios": "https://dc.lft.to/lastmile_qr_scan", "android": "https://dc.lft.to/lastmile_qr_scan"}, "type": "electric_scooter", "name": "aa7bfad2506b592e5f8ea458e2ef2a96", "is_reserved": 0, "lon": -77.04348816666666, "is_disabled": 0, "fusion_lat": 0.0, "lat": 38.911145166666664, "bike_id": "aa7bfad2506b592e5f8ea458e2ef2a96", "fusion_lon": 0.0}, {"rental_uris": {"ios": "https://dc.lft.to/lastmile_qr_scan", "android": "https://dc.lft.to/lastmile_qr_scan"}, "type": "electric_scooter", "name": "642b3d181793b7eaee9e644160922b57", "is_reserved": 0, "lon": -77.02667966666667, "is_disabled": 0, "fusion_lat": 0.0, "lat": 38.88488383333333, "bike_id": "642b3d181793b7eaee9e644160922b57", "fusion_lon": 0.0}, {"rental_uris": {"ios": "https://dc.lft.to/lastmile_qr_scan", "android": "https://dc.lft.to/lastmile_qr_scan"}, "type": "electric_scooter", "name": "8b7de15f62ba443e3ea6a31430e55669", "is_reserved": 0, "lon": -77.00242033333333, "is_disabled": 0, "fusion_lat": 0.0, "lat": 38.907858166666664, "bike_id": "8b7de15f62ba443e3ea6a31430e55669", "fusion_lon": 0.0}, {"rental_uris": {"ios": "https://dc.lft.to/lastmile_qr_scan", "android": "https://dc.lft.to/lastmile_qr_scan"}, "type": "electric_scooter", "name": "3a1073301d34332f2752187ca8da9b8b", "is_reserved": 0, "lon": -77.00192183333333, "is_disabled": 0, "fusion_lat": 0.0, "lat": 38.900333333333336, "bike_id": "3a1073301d34332f2752187ca8da9b8b", "fusion_lon": 0.0}, {"rental_uris": {"ios": "https://dc.lft.to/lastmile_qr_scan", "android": "https://dc.lft.to/lastmile_qr_scan"}, "type": "electric_scooter", "name": "fa0b64bfca29063419b08b911d208a97", "is_reserved": 0, "lon": -77.03357433333333, "is_disabled": 0, "fusion_lat": 0.0, "lat": 38.90019933333333, "bike_id": "fa0b64bfca29063419b08b911d208a97", "fusion_lon": 0.0}, {"rental_uris": {"ios": "https://dc.lft.to/lastmile_qr_scan", "android": "https://dc.lft.to/lastmile_qr_scan"}, "type": "electric_bike", "name": "80a1aa8eec1964b7e79b802b0dcd1d9f", "is_reserved": 0, "lon": -77.051442, "is_disabled": 0, "fusion_lat": 0.0, "lat": 38.8592395, "bike_id": "80a1aa8eec1964b7e79b802b0dcd1d9f", "fusion_lon": 0.0}, {"rental_uris": {"ios": "https://dc.lft.to/lastmile_qr_scan", "android": "https://dc.lft.to/lastmile_qr_scan"}, "type": "electric_scooter", "name": "735db63d22e2a8953dcf1aae3b51b2a4", "is_reserved": 0, "lon": -77.0198035, "is_disabled": 0, "fusion_lat": 0.0, "lat": 38.915273166666665, "bike_id": "735db63d22e2a8953dcf1aae3b51b2a4", "fusion_lon": 0.0}, {"rental_uris": {"ios": "https://dc.lft.to/lastmile_qr_scan", "android": "https://dc.lft.to/lastmile_qr_scan"}, "type": "electric_scooter", "name": "6e733f45686405291f02dec356f8b78a", "is_reserved": 0, "lon": -77.03163016666667, "is_disabled": 0, "fusion_lat": 0.0, "lat": 38.90626116666667, "bike_id": "6e733f45686405291f02dec356f8b78a", "fusion_lon": 0.0}, {"rental_uris": {"ios": "https://dc.lft.to/lastmile_qr_scan", "android": "https://dc.lft.to/lastmile_qr_scan"}, "type": "electric_scooter", "name": "f07e65113c1e42a0604984c20c3fb00b", "is_reserved": 0, "lon": -77.02494666666666, "is_disabled": 0, "fusion_lat": 0.0, "lat": 38.903504166666664, "bike_id": "f07e65113c1e42a0604984c20c3fb00b", "fusion_lon": 0.0}, {"rental_uris": {"ios": "https://dc.lft.to/lastmile_qr_scan", "android": "https://dc.lft.to/lastmile_qr_scan"}, "type": "electric_bike", "name": "d242015ce5a318c88ee98c03b0704328", "is_reserved": 0, "lon": -77.23409383333333, "is_disabled": 0, "fusion_lat": 0.0, "lat": 38.875787833333334, "bike_id": "d242015ce5a318c88ee98c03b0704328", "fusion_lon": 0.0}, {"rental_uris": {"ios": "https://dc.lft.to/lastmile_qr_scan", "android": "https://dc.lft.to/lastmile_qr_scan"}, "type": "electric_scooter", "name": "b0e9bb2e49b3b6ecf70b5a0fcff052e2", "is_reserved": 0, "lon": -77.01423416666667, "is_disabled": 0, "fusion_lat": 0.0, "lat": 38.91433116666666, "bike_id": "b0e9bb2e49b3b6ecf70b5a0fcff052e2", "fusion_lon": 0.0}, {"rental_uris": {"ios": "https://dc.lft.to/lastmile_qr_scan", "android": "https://dc.lft.to/lastmile_qr_scan"}, "type": "electric_scooter", "name": "7c242e0f9654b99fe608e52bb774b02d", "is_reserved": 0, "lon": -77.07343, "is_disabled": 0, "fusion_lat": 0.0, "lat": 38.9432345, "bike_id": "7c242e0f9654b99fe608e52bb774b02d", "fusion_lon": 0.0}, {"rental_uris": {"ios": "https://dc.lft.to/lastmile_qr_scan", "android": "https://dc.lft.to/lastmile_qr_scan"}, "type": "electric_scooter", "name": "8820951c720d46fc88dba5558f9d1ca1", "is_reserved": 0, "lon": -76.976291, "is_disabled": 0, "fusion_lat": 0.0, "lat": 38.90568533333333, "bike_id": "8820951c720d46fc88dba5558f9d1ca1", "fusion_lon": 0.0}, {"rental_uris": {"ios": "https://dc.lft.to/lastmile_qr_scan", "android": "https://dc.lft.to/lastmile_qr_scan"}, "type": "electric_scooter", "name": "799f44083a7e3abb722145fc2252130b", "is_reserved": 0, "lon": -77.07338016666667, "is_disabled": 0, "fusion_lat": 0.0, "lat": 38.96091916666666, "bike_id": "799f44083a7e3abb722145fc2252130b", "fusion_lon": 0.0}, {"rental_uris": {"ios": "https://dc.lft.to/lastmile_qr_scan", "android": "https://dc.lft.to/lastmile_qr_scan"}, "type": "electric_scooter", "name": "57c1686a42a4efd70aa5dc26b6fcc1bf", "is_reserved": 0, "lon": -77.04698383333333, "is_disabled": 0, "fusion_lat": 0.0, "lat": 38.91701616666667, "bike_id": "57c1686a42a4efd70aa5dc26b6fcc1bf", "fusion_lon": 0.0}, {"rental_uris": {"ios": "https://dc.lft.to/lastmile_qr_scan", "android": "https://dc.lft.to/lastmile_qr_scan"}, "type": "electric_scooter", "name": "d299af61843bec4eab52e80dd56f66c4", "is_reserved": 0, "lon": -77.0261375, "is_disabled": 0, "fusion_lat": 0.0, "lat": 38.89847866666667, "bike_id": "d299af61843bec4eab52e80dd56f66c4", "fusion_lon": 0.0}, {"rental_uris": {"ios": "https://dc.lft.to/lastmile_qr_scan", "android": "https://dc.lft.to/lastmile_qr_scan"}, "type": "electric_scooter", "name": "4aa4e419ce23e98d0185e89bb506eea0", "is_reserved": 0, "lon": -77.049457, "is_disabled": 0, "fusion_lat": 0.0, "lat": 38.920200666666666, "bike_id": "4aa4e419ce23e98d0185e89bb506eea0", "fusion_lon": 0.0}, {"rental_uris": {"ios": "https://dc.lft.to/lastmile_qr_scan", "android": "https://dc.lft.to/lastmile_qr_scan"}, "type": "electric_scooter", "name": "15ece9c431c4952852631d02bdccf59e", "is_reserved": 0, "lon": -77.068436, "is_disabled": 0, "fusion_lat": 0.0, "lat": 38.917275833333335, "bike_id": "15ece9c431c4952852631d02bdccf59e", "fusion_lon": 0.0}, {"rental_uris": {"ios": "https://dc.lft.to/lastmile_qr_scan", "android": "https://dc.lft.to/lastmile_qr_scan"}, "type": "electric_scooter", "name": "d4b6388b154a2a2be60904899276e499", "is_reserved": 0, "lon": -77.02481416666667, "is_disabled": 0, "fusion_lat": 0.0, "lat": 38.931030166666666, "bike_id": "d4b6388b154a2a2be60904899276e499", "fusion_lon": 0.0}, {"rental_uris": {"ios": "https://dc.lft.to/lastmile_qr_scan", "android": "https://dc.lft.to/lastmile_qr_scan"}, "type": "electric_scooter", "name": "b6c34242e87ea9534282d39b5862c1e4", "is_reserved": 0, "lon": -77.03101616666666, "is_disabled": 0, "fusion_lat": 0.0, "lat": 38.9247955, "bike_id": "b6c34242e87ea9534282d39b5862c1e4", "fusion_lon": 0.0}, {"rental_uris": {"ios": "https://dc.lft.to/lastmile_qr_scan", "android": "https://dc.lft.to/lastmile_qr_scan"}, "type": "electric_scooter", "name": "c5d63662ecbc28a78509da27ce02047e", "is_reserved": 0, "lon": -77.0530455, "is_disabled": 0, "fusion_lat": 0.0, "lat": 38.92549283333334, "bike_id": "c5d63662ecbc28a78509da27ce02047e", "fusion_lon": 0.0}, {"rental_uris": {"ios": "https://dc.lft.to/lastmile_qr_scan", "android": "https://dc.lft.to/lastmile_qr_scan"}, "type": "electric_scooter", "name": "77a95eb7a18e47f334fef81112cb8ec9", "is_reserved": 0, "lon": -77.06098233333333, "is_disabled": 0, "fusion_lat": 0.0, "lat": 38.93979933333333, "bike_id": "77a95eb7a18e47f334fef81112cb8ec9", "fusion_lon": 0.0}, {"rental_uris": {"ios": "https://dc.lft.to/lastmile_qr_scan", "android": "https://dc.lft.to/lastmile_qr_scan"}, "type": "electric_bike", "name": "f416da80c0cc0af626ab5462a3c99ea9", "is_reserved": 0, "lon": -76.95794233333334, "is_disabled": 0, "fusion_lat": 0.0, "lat": 38.9804085, "bike_id": "f416da80c0cc0af626ab5462a3c99ea9", "fusion_lon": 0.0}, {"rental_uris": {"ios": "https://dc.lft.to/lastmile_qr_scan", "android": "https://dc.lft.to/lastmile_qr_scan"}, "type": "electric_bike", "name": "5068958e14c2284c0b558fe295be3626", "is_reserved": 0, "lon": -77.04014816666667, "is_disabled": 0, "fusion_lat": 0.0, "lat": 38.901362166666665, "bike_id": "5068958e14c2284c0b558fe295be3626", "fusion_lon": 0.0}, {"rental_uris": {"ios": "https://dc.lft.to/lastmile_qr_scan", "android": "https://dc.lft.to/lastmile_qr_scan"}, "type": "electric_scooter", "name": "e39350e2045b80bffced56f18d57c0c9", "is_reserved": 0, "lon": -77.05673966666667, "is_disabled": 0, "fusion_lat": 0.0, "lat": 38.9061285, "bike_id": "e39350e2045b80bffced56f18d57c0c9", "fusion_lon": 0.0}, {"rental_uris": {"ios": "https://dc.lft.to/lastmile_qr_scan", "android": "https://dc.lft.to/lastmile_qr_scan"}, "type": "electric_scooter", "name": "6c86c05ca73d2fe6180724c923977e8d", "is_reserved": 0, "lon": -77.07336716666667, "is_disabled": 0, "fusion_lat": 0.0, "lat": 38.9608665, "bike_id": "6c86c05ca73d2fe6180724c923977e8d", "fusion_lon": 0.0}, {"rental_uris": {"ios": "https://dc.lft.to/lastmile_qr_scan", "android": "https://dc.lft.to/lastmile_qr_scan"}, "type": "electric_scooter", "name": "0bf37a090c9e0b3f1ee95e6a05c20824", "is_reserved": 0, "lon": -77.0238035, "is_disabled": 0, "fusion_lat": 0.0, "lat": 38.935241500000004, "bike_id": "0bf37a090c9e0b3f1ee95e6a05c20824", "fusion_lon": 0.0}, {"rental_uris": {"ios": "https://dc.lft.to/lastmile_qr_scan", "android": "https://dc.lft.to/lastmile_qr_scan"}, "type": "electric_scooter", "name": "c5cbdeddbc50bc93fffed201a55e119c", "is_reserved": 0, "lon": -76.975634, "is_disabled": 0, "fusion_lat": 0.0, "lat": 38.9441905, "bike_id": "c5cbdeddbc50bc93fffed201a55e119c", "fusion_lon": 0.0}, {"rental_uris": {"ios": "https://dc.lft.to/lastmile_qr_scan", "android": "https://dc.lft.to/lastmile_qr_scan"}, "type": "electric_scooter", "name": "186afc0e9d2b444e5a3fdfc007d366f2", "is_reserved": 0, "lon": -77.05510266666667, "is_disabled": 0, "fusion_lat": 0.0, "lat": 38.92829733333333, "bike_id": "186afc0e9d2b444e5a3fdfc007d366f2", "fusion_lon": 0.0}, {"rental_uris": {"ios": "https://dc.lft.to/lastmile_qr_scan", "android": "https://dc.lft.to/lastmile_qr_scan"}, "type": "electric_bike", "name": "14207d174b9e82832ee5f7cea50f63c3", "is_reserved": 0, "lon": -76.9923975, "is_disabled": 0, "fusion_lat": 0.0, "lat": 38.96073766666667, "bike_id": "14207d174b9e82832ee5f7cea50f63c3", "fusion_lon": 0.0}, {"rental_uris": {"ios": "https://dc.lft.to/lastmile_qr_scan", "android": "https://dc.lft.to/lastmile_qr_scan"}, "type": "electric_bike", "name": "30de479c11834934f8c54f7e1358948c", "is_reserved": 0, "lon": -77.0013505, "is_disabled": 0, "fusion_lat": 0.0, "lat": 38.995004333333334, "bike_id": "30de479c11834934f8c54f7e1358948c", "fusion_lon": 0.0}, {"rental_uris": {"ios": "https://dc.lft.to/lastmile_qr_scan", "android": "https://dc.lft.to/lastmile_qr_scan"}, "type": "electric_scooter", "name": "afe559d673a5caa5ac3f5e34e0dc47b7", "is_reserved": 0, "lon": -76.99791366666666, "is_disabled": 0, "fusion_lat": 0.0, "lat": 38.87632416666667, "bike_id": "afe559d673a5caa5ac3f5e34e0dc47b7", "fusion_lon": 0.0}, {"rental_uris": {"ios": "https://dc.lft.to/lastmile_qr_scan", "android": "https://dc.lft.to/lastmile_qr_scan"}, "type": "electric_scooter", "name": "fcd069e8199cb3d29a2c859cb0f3972b", "is_reserved": 0, "lon": -77.04862666666666, "is_disabled": 0, "fusion_lat": 0.0, "lat": 38.90640366666667, "bike_id": "fcd069e8199cb3d29a2c859cb0f3972b", "fusion_lon": 0.0}, {"rental_uris": {"ios": "https://dc.lft.to/lastmile_qr_scan", "android": "https://dc.lft.to/lastmile_qr_scan"}, "type": "electric_scooter", "name": "893f672e7c191b9637c1047ae19ad4dc", "is_reserved": 0, "lon": -77.0236885, "is_disabled": 0, "fusion_lat": 0.0, "lat": 38.9021185, "bike_id": "893f672e7c191b9637c1047ae19ad4dc", "fusion_lon": 0.0}, {"rental_uris": {"ios": "https://dc.lft.to/lastmile_qr_scan", "android": "https://dc.lft.to/lastmile_qr_scan"}, "type": "electric_scooter", "name": "eec5439416600701da66fb9c51f5e59b", "is_reserved": 0, "lon": -77.02718016666667, "is_disabled": 0, "fusion_lat": 0.0, "lat": 38.89570166666667, "bike_id": "eec5439416600701da66fb9c51f5e59b", "fusion_lon": 0.0}, {"rental_uris": {"ios": "https://dc.lft.to/lastmile_qr_scan", "android": "https://dc.lft.to/lastmile_qr_scan"}, "type": "electric_bike", "name": "1dd55fc6ae65ac5d43772b138e99f965", "is_reserved": 0, "lon": -76.987703, "is_disabled": 0, "fusion_lat": 0.0, "lat": 38.857722333333335, "bike_id": "1dd55fc6ae65ac5d43772b138e99f965", "fusion_lon": 0.0}, {"rental_uris": {"ios": "https://dc.lft.to/lastmile_qr_scan", "android": "https://dc.lft.to/lastmile_qr_scan"}, "type": "electric_scooter", "name": "a82d2e27dee457381a1e4db4da1b6d80", "is_reserved": 0, "lon": -77.044525, "is_disabled": 0, "fusion_lat": 0.0, "lat": 38.92466266666667, "bike_id": "a82d2e27dee457381a1e4db4da1b6d80", "fusion_lon": 0.0}, {"rental_uris": {"ios": "https://dc.lft.to/lastmile_qr_scan", "android": "https://dc.lft.to/lastmile_qr_scan"}, "type": "electric_bike", "name": "cef04087b946e2c0f7c6e3b39d8cde42", "is_reserved": 0, "lon": -76.94533633333333, "is_disabled": 0, "fusion_lat": 0.0, "lat": 38.86755983333333, "bike_id": "cef04087b946e2c0f7c6e3b39d8cde42", "fusion_lon": 0.0}, {"rental_uris": {"ios": "https://dc.lft.to/lastmile_qr_scan", "android": "https://dc.lft.to/lastmile_qr_scan"}, "type": "electric_bike", "name": "a675ad67c2c812ad4846c5de6a31a6b3", "is_reserved": 0, "lon": -77.01742316666666, "is_disabled": 0, "fusion_lat": 0.0, "lat": 38.94603083333333, "bike_id": "a675ad67c2c812ad4846c5de6a31a6b3", "fusion_lon": 0.0}, {"rental_uris": {"ios": "https://dc.lft.to/lastmile_qr_scan", "android": "https://dc.lft.to/lastmile_qr_scan"}, "type": "electric_scooter", "name": "b6306f96bc98234abf447015a8b53c66", "is_reserved": 0, "lon": -76.99941616666666, "is_disabled": 0, "fusion_lat": 0.0, "lat": 38.891662, "bike_id": "b6306f96bc98234abf447015a8b53c66", "fusion_lon": 0.0}, {"rental_uris": {"ios": "https://dc.lft.to/lastmile_qr_scan", "android": "https://dc.lft.to/lastmile_qr_scan"}, "type": "electric_scooter", "name": "c8e87b9156f7475f8428cba2806cb6c3", "is_reserved": 0, "lon": -77.04490133333333, "is_disabled": 0, "fusion_lat": 0.0, "lat": 38.918839, "bike_id": "c8e87b9156f7475f8428cba2806cb6c3", "fusion_lon": 0.0}, {"rental_uris": {"ios": "https://dc.lft.to/lastmile_qr_scan", "android": "https://dc.lft.to/lastmile_qr_scan"}, "type": "electric_scooter", "name": "0fa7477cb18252a309904b24d86f3d51", "is_reserved": 0, "lon": -77.02556866666667, "is_disabled": 0, "fusion_lat": 0.0, "lat": 38.930875, "bike_id": "0fa7477cb18252a309904b24d86f3d51", "fusion_lon": 0.0}, {"rental_uris": {"ios": "https://dc.lft.to/lastmile_qr_scan", "android": "https://dc.lft.to/lastmile_qr_scan"}, "type": "electric_bike", "name": "bd66c41a77a5b2457e26b8f91c229186", "is_reserved": 0, "lon": -77.00408433333334, "is_disabled": 0, "fusion_lat": 0.0, "lat": 38.98543033333333, "bike_id": "bd66c41a77a5b2457e26b8f91c229186", "fusion_lon": 0.0}, {"rental_uris": {"ios": "https://dc.lft.to/lastmile_qr_scan", "android": "https://dc.lft.to/lastmile_qr_scan"}, "type": "electric_bike", "name": "635deb37f55acfbc649a7c8adfa3c2d9", "is_reserved": 0, "lon": -77.04027866666667, "is_disabled": 0, "fusion_lat": 0.0, "lat": 38.9118905, "bike_id": "635deb37f55acfbc649a7c8adfa3c2d9", "fusion_lon": 0.0}, {"rental_uris": {"ios": "https://dc.lft.to/lastmile_qr_scan", "android": "https://dc.lft.to/lastmile_qr_scan"}, "type": "electric_scooter", "name": "d11400a4fdfb6ca8302826230f36c8eb", "is_reserved": 0, "lon": -77.044008, "is_disabled": 0, "fusion_lat": 0.0, "lat": 38.92950783333333, "bike_id": "d11400a4fdfb6ca8302826230f36c8eb", "fusion_lon": 0.0}, {"rental_uris": {"ios": "https://dc.lft.to/lastmile_qr_scan", "android": "https://dc.lft.to/lastmile_qr_scan"}, "type": "electric_scooter", "name": "f6b766ed4cdacc209f555b51298185e8", "is_reserved": 0, "lon": -76.93210133333334, "is_disabled": 0, "fusion_lat": 0.0, "lat": 38.89665033333333, "bike_id": "f6b766ed4cdacc209f555b51298185e8", "fusion_lon": 0.0}, {"rental_uris": {"ios": "https://dc.lft.to/lastmile_qr_scan", "android": "https://dc.lft.to/lastmile_qr_scan"}, "type": "electric_bike", "name": "4abe515e61431127407f38d60e171415", "is_reserved": 0, "lon": -77.09817083333333, "is_disabled": 0, "fusion_lat": 0.0, "lat": 38.85019916666667, "bike_id": "4abe515e61431127407f38d60e171415", "fusion_lon": 0.0}, {"rental_uris": {"ios": "https://dc.lft.to/lastmile_qr_scan", "android": "https://dc.lft.to/lastmile_qr_scan"}, "type": "electric_scooter", "name": "2f40f89f64b0c084d2bdc56733346058", "is_reserved": 0, "lon": -77.04264033333334, "is_disabled": 0, "fusion_lat": 0.0, "lat": 38.904416166666664, "bike_id": "2f40f89f64b0c084d2bdc56733346058", "fusion_lon": 0.0}, {"rental_uris": {"ios": "https://dc.lft.to/lastmile_qr_scan", "android": "https://dc.lft.to/lastmile_qr_scan"}, "type": "electric_scooter", "name": "3e40ee0e57e3cf44bda9debb4ed9bce7", "is_reserved": 0, "lon": -77.01347183333333, "is_disabled": 0, "fusion_lat": 0.0, "lat": 38.89614266666667, "bike_id": "3e40ee0e57e3cf44bda9debb4ed9bce7", "fusion_lon": 0.0}, {"rental_uris": {"ios": "https://dc.lft.to/lastmile_qr_scan", "android": "https://dc.lft.to/lastmile_qr_scan"}, "type": "electric_scooter", "name": "20d8c7fbf87359378cf726f509c3bc93", "is_reserved": 0, "lon": -77.05783916666667, "is_disabled": 0, "fusion_lat": 0.0, "lat": 38.90097433333333, "bike_id": "20d8c7fbf87359378cf726f509c3bc93", "fusion_lon": 0.0}, {"rental_uris": {"ios": "https://dc.lft.to/lastmile_qr_scan", "android": "https://dc.lft.to/lastmile_qr_scan"}, "type": "electric_scooter", "name": "b33930b9cb1d00380e71733580597b2e", "is_reserved": 0, "lon": -77.0208595, "is_disabled": 0, "fusion_lat": 0.0, "lat": 38.88187033333333, "bike_id": "b33930b9cb1d00380e71733580597b2e", "fusion_lon": 0.0}, {"rental_uris": {"ios": "https://dc.lft.to/lastmile_qr_scan", "android": "https://dc.lft.to/lastmile_qr_scan"}, "type": "electric_scooter", "name": "988d99464c59fe3da11933a77f336de2", "is_reserved": 0, "lon": -77.00333533333334, "is_disabled": 0, "fusion_lat": 0.0, "lat": 38.91340316666667, "bike_id": "988d99464c59fe3da11933a77f336de2", "fusion_lon": 0.0}, {"rental_uris": {"ios": "https://dc.lft.to/lastmile_qr_scan", "android": "https://dc.lft.to/lastmile_qr_scan"}, "type": "electric_scooter", "name": "a3f09f802ca1bdff3cc9b07f383a75a6", "is_reserved": 0, "lon": -77.00919766666667, "is_disabled": 0, "fusion_lat": 0.0, "lat": 38.8819035, "bike_id": "a3f09f802ca1bdff3cc9b07f383a75a6", "fusion_lon": 0.0}, {"rental_uris": {"ios": "https://dc.lft.to/lastmile_qr_scan", "android": "https://dc.lft.to/lastmile_qr_scan"}, "type": "electric_scooter", "name": "f6597594b78a3603fab282617dfb0efd", "is_reserved": 0, "lon": -77.02255816666667, "is_disabled": 0, "fusion_lat": 0.0, "lat": 38.928236166666665, "bike_id": "f6597594b78a3603fab282617dfb0efd", "fusion_lon": 0.0}, {"rental_uris": {"ios": "https://dc.lft.to/lastmile_qr_scan", "android": "https://dc.lft.to/lastmile_qr_scan"}, "type": "electric_scooter", "name": "7f153cac6ca848ff1c7c81aebe347b4c", "is_reserved": 0, "lon": -77.02077683333333, "is_disabled": 0, "fusion_lat": 0.0, "lat": 38.92698583333333, "bike_id": "7f153cac6ca848ff1c7c81aebe347b4c", "fusion_lon": 0.0}, {"rental_uris": {"ios": "https://dc.lft.to/lastmile_qr_scan", "android": "https://dc.lft.to/lastmile_qr_scan"}, "type": "electric_bike", "name": "a25d21399575c24af7b47015f897dda7", "is_reserved": 0, "lon": -77.00758283333333, "is_disabled": 0, "fusion_lat": 0.0, "lat": 38.997824666666666, "bike_id": "a25d21399575c24af7b47015f897dda7", "fusion_lon": 0.0}, {"rental_uris": {"ios": "https://dc.lft.to/lastmile_qr_scan", "android": "https://dc.lft.to/lastmile_qr_scan"}, "type": "electric_scooter", "name": "39bd1f513b93718f520f73c95c509c05", "is_reserved": 0, "lon": -77.084057, "is_disabled": 0, "fusion_lat": 0.0, "lat": 38.908064, "bike_id": "39bd1f513b93718f520f73c95c509c05", "fusion_lon": 0.0}, {"rental_uris": {"ios": "https://dc.lft.to/lastmile_qr_scan", "android": "https://dc.lft.to/lastmile_qr_scan"}, "type": "electric_bike", "name": "aa929a437d8fa28b4a63a942b8d276e0", "is_reserved": 0, "lon": -76.95244466666666, "is_disabled": 0, "fusion_lat": 0.0, "lat": 38.884678666666666, "bike_id": "aa929a437d8fa28b4a63a942b8d276e0", "fusion_lon": 0.0}, {"rental_uris": {"ios": "https://dc.lft.to/lastmile_qr_scan", "android": "https://dc.lft.to/lastmile_qr_scan"}, "type": "electric_scooter", "name": "86c5470b28aea3bc81f571d72957830d", "is_reserved": 0, "lon": -77.00067216666666, "is_disabled": 0, "fusion_lat": 0.0, "lat": 38.87687, "bike_id": "86c5470b28aea3bc81f571d72957830d", "fusion_lon": 0.0}, {"rental_uris": {"ios": "https://dc.lft.to/lastmile_qr_scan", "android": "https://dc.lft.to/lastmile_qr_scan"}, "type": "electric_scooter", "name": "7a77ba2d11c8cfff699ea194333854b7", "is_reserved": 0, "lon": -77.0392215, "is_disabled": 0, "fusion_lat": 0.0, "lat": 38.9223435, "bike_id": "7a77ba2d11c8cfff699ea194333854b7", "fusion_lon": 0.0}, {"rental_uris": {"ios": "https://dc.lft.to/lastmile_qr_scan", "android": "https://dc.lft.to/lastmile_qr_scan"}, "type": "electric_bike", "name": "e889a10c1702b48d2dbe1a9a73309ab1", "is_reserved": 0, "lon": -76.94544766666667, "is_disabled": 0, "fusion_lat": 0.0, "lat": 38.983097666666666, "bike_id": "e889a10c1702b48d2dbe1a9a73309ab1", "fusion_lon": 0.0}, {"rental_uris": {"ios": "https://dc.lft.to/lastmile_qr_scan", "android": "https://dc.lft.to/lastmile_qr_scan"}, "type": "electric_scooter", "name": "646b93307073a4d08fe4f7d3679e6bed", "is_reserved": 0, "lon": -77.03357866666667, "is_disabled": 0, "fusion_lat": 0.0, "lat": 38.89953766666667, "bike_id": "646b93307073a4d08fe4f7d3679e6bed", "fusion_lon": 0.0}, {"rental_uris": {"ios": "https://dc.lft.to/lastmile_qr_scan", "android": "https://dc.lft.to/lastmile_qr_scan"}, "type": "electric_scooter", "name": "6870891265b5d5e092255911a39c26b5", "is_reserved": 0, "lon": -77.04611916666667, "is_disabled": 0, "fusion_lat": 0.0, "lat": 38.92053133333334, "bike_id": "6870891265b5d5e092255911a39c26b5", "fusion_lon": 0.0}, {"rental_uris": {"ios": "https://dc.lft.to/lastmile_qr_scan", "android": "https://dc.lft.to/lastmile_qr_scan"}, "type": "electric_scooter", "name": "399d507a9a76c5e710e1bdec200a69f8", "is_reserved": 0, "lon": -77.00362383333334, "is_disabled": 0, "fusion_lat": 0.0, "lat": 38.87698366666667, "bike_id": "399d507a9a76c5e710e1bdec200a69f8", "fusion_lon": 0.0}, {"rental_uris": {"ios": "https://dc.lft.to/lastmile_qr_scan", "android": "https://dc.lft.to/lastmile_qr_scan"}, "type": "electric_scooter", "name": "385dbac87bc5bfd0b47358ad01afe4fb", "is_reserved": 0, "lon": -77.04603233333333, "is_disabled": 0, "fusion_lat": 0.0, "lat": 38.90669716666667, "bike_id": "385dbac87bc5bfd0b47358ad01afe4fb", "fusion_lon": 0.0}, {"rental_uris": {"ios": "https://dc.lft.to/lastmile_qr_scan", "android": "https://dc.lft.to/lastmile_qr_scan"}, "type": "electric_scooter", "name": "d1c29aedecdb3393ed82e0d1fb44e35c", "is_reserved": 0, "lon": -77.04989383333333, "is_disabled": 0, "fusion_lat": 0.0, "lat": 38.907962, "bike_id": "d1c29aedecdb3393ed82e0d1fb44e35c", "fusion_lon": 0.0}, {"rental_uris": {"ios": "https://dc.lft.to/lastmile_qr_scan", "android": "https://dc.lft.to/lastmile_qr_scan"}, "type": "electric_scooter", "name": "e638af3147ef0c6346ab532a55e66d29", "is_reserved": 0, "lon": -77.0365765, "is_disabled": 0, "fusion_lat": 0.0, "lat": 38.9238565, "bike_id": "e638af3147ef0c6346ab532a55e66d29", "fusion_lon": 0.0}, {"rental_uris": {"ios": "https://dc.lft.to/lastmile_qr_scan", "android": "https://dc.lft.to/lastmile_qr_scan"}, "type": "electric_scooter", "name": "7c04a917fe18e7d7aa9adc94a159a546", "is_reserved": 0, "lon": -77.05125266666667, "is_disabled": 0, "fusion_lat": 0.0, "lat": 38.923447333333336, "bike_id": "7c04a917fe18e7d7aa9adc94a159a546", "fusion_lon": 0.0}, {"rental_uris": {"ios": "https://dc.lft.to/lastmile_qr_scan", "android": "https://dc.lft.to/lastmile_qr_scan"}, "type": "electric_scooter", "name": "afb24748e2131dd9bea9e159c387f736", "is_reserved": 0, "lon": -77.0270875, "is_disabled": 0, "fusion_lat": 0.0, "lat": 38.902464, "bike_id": "afb24748e2131dd9bea9e159c387f736", "fusion_lon": 0.0}, {"rental_uris": {"ios": "https://dc.lft.to/lastmile_qr_scan", "android": "https://dc.lft.to/lastmile_qr_scan"}, "type": "electric_bike", "name": "5ffbaf35a26b57523f5311a998f3eb13", "is_reserved": 0, "lon": -77.00157666666667, "is_disabled": 0, "fusion_lat": 0.0, "lat": 38.94167383333333, "bike_id": "5ffbaf35a26b57523f5311a998f3eb13", "fusion_lon": 0.0}, {"rental_uris": {"ios": "https://dc.lft.to/lastmile_qr_scan", "android": "https://dc.lft.to/lastmile_qr_scan"}, "type": "electric_scooter", "name": "a900db323b2120788fdbefc5de34dfc0", "is_reserved": 0, "lon": -76.92633, "is_disabled": 0, "fusion_lat": 0.0, "lat": 38.9019185, "bike_id": "a900db323b2120788fdbefc5de34dfc0", "fusion_lon": 0.0}, {"rental_uris": {"ios": "https://dc.lft.to/lastmile_qr_scan", "android": "https://dc.lft.to/lastmile_qr_scan"}, "type": "electric_scooter", "name": "2e3e100831038c54b5e84427a2018978", "is_reserved": 0, "lon": -76.98331916666666, "is_disabled": 0, "fusion_lat": 0.0, "lat": 38.900927, "bike_id": "2e3e100831038c54b5e84427a2018978", "fusion_lon": 0.0}, {"rental_uris": {"ios": "https://dc.lft.to/lastmile_qr_scan", "android": "https://dc.lft.to/lastmile_qr_scan"}, "type": "electric_scooter", "name": "af67c1693bd43677a62f9e35964185d4", "is_reserved": 0, "lon": -77.03402216666667, "is_disabled": 0, "fusion_lat": 0.0, "lat": 38.89971233333333, "bike_id": "af67c1693bd43677a62f9e35964185d4", "fusion_lon": 0.0}, {"rental_uris": {"ios": "https://dc.lft.to/lastmile_qr_scan", "android": "https://dc.lft.to/lastmile_qr_scan"}, "type": "electric_scooter", "name": "157a4c67dc642d178d1b1b74e5cc3c57", "is_reserved": 0, "lon": -77.02333866666666, "is_disabled": 0, "fusion_lat": 0.0, "lat": 38.92936383333333, "bike_id": "157a4c67dc642d178d1b1b74e5cc3c57", "fusion_lon": 0.0}, {"rental_uris": {"ios": "https://dc.lft.to/lastmile_qr_scan", "android": "https://dc.lft.to/lastmile_qr_scan"}, "type": "electric_scooter", "name": "cd0219ed810d43f5d5083557669c29c4", "is_reserved": 0, "lon": -77.03301783333333, "is_disabled": 0, "fusion_lat": 0.0, "lat": 38.917036, "bike_id": "cd0219ed810d43f5d5083557669c29c4", "fusion_lon": 0.0}, {"rental_uris": {"ios": "https://dc.lft.to/lastmile_qr_scan", "android": "https://dc.lft.to/lastmile_qr_scan"}, "type": "electric_scooter", "name": "2fe62f94fdaf7c668473134d6c55ebf8", "is_reserved": 0, "lon": -77.04382083333333, "is_disabled": 0, "fusion_lat": 0.0, "lat": 38.93420166666667, "bike_id": "2fe62f94fdaf7c668473134d6c55ebf8", "fusion_lon": 0.0}, {"rental_uris": {"ios": "https://dc.lft.to/lastmile_qr_scan", "android": "https://dc.lft.to/lastmile_qr_scan"}, "type": "electric_scooter", "name": "cdcac81cb9a583fc70dca05e2ee602f4", "is_reserved": 0, "lon": -77.03158666666667, "is_disabled": 0, "fusion_lat": 0.0, "lat": 38.959332833333335, "bike_id": "cdcac81cb9a583fc70dca05e2ee602f4", "fusion_lon": 0.0}, {"rental_uris": {"ios": "https://dc.lft.to/lastmile_qr_scan", "android": "https://dc.lft.to/lastmile_qr_scan"}, "type": "electric_bike", "name": "70992927290dc53226ca6f09654050ee", "is_reserved": 0, "lon": -77.007704, "is_disabled": 0, "fusion_lat": 0.0, "lat": 38.98128666666667, "bike_id": "70992927290dc53226ca6f09654050ee", "fusion_lon": 0.0}, {"rental_uris": {"ios": "https://dc.lft.to/lastmile_qr_scan", "android": "https://dc.lft.to/lastmile_qr_scan"}, "type": "electric_scooter", "name": "fdd650b6816304d30522227179c3b7f6", "is_reserved": 0, "lon": -77.033475, "is_disabled": 0, "fusion_lat": 0.0, "lat": 38.895284, "bike_id": "fdd650b6816304d30522227179c3b7f6", "fusion_lon": 0.0}, {"rental_uris": {"ios": "https://dc.lft.to/lastmile_qr_scan", "android": "https://dc.lft.to/lastmile_qr_scan"}, "type": "electric_scooter", "name": "2d774dcae9ac414218c11273ec05ca96", "is_reserved": 0, "lon": -76.99065733333333, "is_disabled": 0, "fusion_lat": 0.0, "lat": 38.90422083333333, "bike_id": "2d774dcae9ac414218c11273ec05ca96", "fusion_lon": 0.0}, {"rental_uris": {"ios": "https://dc.lft.to/lastmile_qr_scan", "android": "https://dc.lft.to/lastmile_qr_scan"}, "type": "electric_scooter", "name": "431de8aec6fef79a6b5400b1894d103c", "is_reserved": 0, "lon": -77.0123355, "is_disabled": 0, "fusion_lat": 0.0, "lat": 38.91578883333333, "bike_id": "431de8aec6fef79a6b5400b1894d103c", "fusion_lon": 0.0}, {"rental_uris": {"ios": "https://dc.lft.to/lastmile_qr_scan", "android": "https://dc.lft.to/lastmile_qr_scan"}, "type": "electric_scooter", "name": "7ae10296553d3a56602d0a832767f25f", "is_reserved": 0, "lon": -77.01540833333334, "is_disabled": 0, "fusion_lat": 0.0, "lat": 38.902578, "bike_id": "7ae10296553d3a56602d0a832767f25f", "fusion_lon": 0.0}, {"rental_uris": {"ios": "https://dc.lft.to/lastmile_qr_scan", "android": "https://dc.lft.to/lastmile_qr_scan"}, "type": "electric_scooter", "name": "ff7cbcc7ef4d74d2fd5aef106bd3449f", "is_reserved": 0, "lon": -77.044361, "is_disabled": 0, "fusion_lat": 0.0, "lat": 38.912561, "bike_id": "ff7cbcc7ef4d74d2fd5aef106bd3449f", "fusion_lon": 0.0}, {"rental_uris": {"ios": "https://dc.lft.to/lastmile_qr_scan", "android": "https://dc.lft.to/lastmile_qr_scan"}, "type": "electric_scooter", "name": "7d379176f46e427b9b2a5837220993a9", "is_reserved": 0, "lon": -77.02836066666667, "is_disabled": 0, "fusion_lat": 0.0, "lat": 38.95726, "bike_id": "7d379176f46e427b9b2a5837220993a9", "fusion_lon": 0.0}, {"rental_uris": {"ios": "https://dc.lft.to/lastmile_qr_scan", "android": "https://dc.lft.to/lastmile_qr_scan"}, "type": "electric_scooter", "name": "b0232700ff77426cf2ad627c25e98c2e", "is_reserved": 0, "lon": -76.9837405, "is_disabled": 0, "fusion_lat": 0.0, "lat": 38.891382, "bike_id": "b0232700ff77426cf2ad627c25e98c2e", "fusion_lon": 0.0}, {"rental_uris": {"ios": "https://dc.lft.to/lastmile_qr_scan", "android": "https://dc.lft.to/lastmile_qr_scan"}, "type": "electric_scooter", "name": "54f3ed681a9a26f7dfe4ca4961664d41", "is_reserved": 0, "lon": -77.03267383333333, "is_disabled": 0, "fusion_lat": 0.0, "lat": 38.904131, "bike_id": "54f3ed681a9a26f7dfe4ca4961664d41", "fusion_lon": 0.0}, {"rental_uris": {"ios": "https://dc.lft.to/lastmile_qr_scan", "android": "https://dc.lft.to/lastmile_qr_scan"}, "type": "electric_scooter", "name": "5a113c6f0e8c22355f2237df39b8425b", "is_reserved": 0, "lon": -77.01621616666667, "is_disabled": 0, "fusion_lat": 0.0, "lat": 38.89802866666667, "bike_id": "5a113c6f0e8c22355f2237df39b8425b", "fusion_lon": 0.0}, {"rental_uris": {"ios": "https://dc.lft.to/lastmile_qr_scan", "android": "https://dc.lft.to/lastmile_qr_scan"}, "type": "electric_scooter", "name": "866129aa0b948facfb776e0bd88e800d", "is_reserved": 0, "lon": -77.04763016666666, "is_disabled": 0, "fusion_lat": 0.0, "lat": 38.90075616666667, "bike_id": "866129aa0b948facfb776e0bd88e800d", "fusion_lon": 0.0}, {"rental_uris": {"ios": "https://dc.lft.to/lastmile_qr_scan", "android": "https://dc.lft.to/lastmile_qr_scan"}, "type": "electric_bike", "name": "8c9f09a0294bd4a2d9ed27af3aac016d", "is_reserved": 0, "lon": -76.98931433333334, "is_disabled": 0, "fusion_lat": 0.0, "lat": 38.88206616666667, "bike_id": "8c9f09a0294bd4a2d9ed27af3aac016d", "fusion_lon": 0.0}, {"rental_uris": {"ios": "https://dc.lft.to/lastmile_qr_scan", "android": "https://dc.lft.to/lastmile_qr_scan"}, "type": "electric_scooter", "name": "10763d46e1b0a7a237ec58501666a23f", "is_reserved": 0, "lon": -76.98442483333334, "is_disabled": 0, "fusion_lat": 0.0, "lat": 38.91457583333333, "bike_id": "10763d46e1b0a7a237ec58501666a23f", "fusion_lon": 0.0}, {"rental_uris": {"ios": "https://dc.lft.to/lastmile_qr_scan", "android": "https://dc.lft.to/lastmile_qr_scan"}, "type": "electric_scooter", "name": "a9185f0ce2059f23defed8ccdfb21537", "is_reserved": 0, "lon": -77.04056616666666, "is_disabled": 0, "fusion_lat": 0.0, "lat": 38.90587283333333, "bike_id": "a9185f0ce2059f23defed8ccdfb21537", "fusion_lon": 0.0}, {"rental_uris": {"ios": "https://dc.lft.to/lastmile_qr_scan", "android": "https://dc.lft.to/lastmile_qr_scan"}, "type": "electric_scooter", "name": "25b4d5153924ba4715fd91eb21477f7f", "is_reserved": 0, "lon": -77.04710533333333, "is_disabled": 0, "fusion_lat": 0.0, "lat": 38.91263683333333, "bike_id": "25b4d5153924ba4715fd91eb21477f7f", "fusion_lon": 0.0}, {"rental_uris": {"ios": "https://dc.lft.to/lastmile_qr_scan", "android": "https://dc.lft.to/lastmile_qr_scan"}, "type": "electric_scooter", "name": "b33eaef0ebdd1c0985da7125dbd0a25f", "is_reserved": 0, "lon": -77.0684475, "is_disabled": 0, "fusion_lat": 0.0, "lat": 38.917347666666664, "bike_id": "b33eaef0ebdd1c0985da7125dbd0a25f", "fusion_lon": 0.0}, {"rental_uris": {"ios": "https://dc.lft.to/lastmile_qr_scan", "android": "https://dc.lft.to/lastmile_qr_scan"}, "type": "electric_scooter", "name": "88c6fba9ba2208e12a2b3a9cf51b0b3f", "is_reserved": 0, "lon": -77.0406025, "is_disabled": 0, "fusion_lat": 0.0, "lat": 38.925417, "bike_id": "88c6fba9ba2208e12a2b3a9cf51b0b3f", "fusion_lon": 0.0}, {"rental_uris": {"ios": "https://dc.lft.to/lastmile_qr_scan", "android": "https://dc.lft.to/lastmile_qr_scan"}, "type": "electric_bike", "name": "fb49aaa5e09852c9a2d4df378e483845", "is_reserved": 0, "lon": -77.11406116666667, "is_disabled": 0, "fusion_lat": 0.0, "lat": 38.873165166666666, "bike_id": "fb49aaa5e09852c9a2d4df378e483845", "fusion_lon": 0.0}, {"rental_uris": {"ios": "https://dc.lft.to/lastmile_qr_scan", "android": "https://dc.lft.to/lastmile_qr_scan"}, "type": "electric_scooter", "name": "dbe86a0be8c1ff9ba9ad4d6445a5af8c", "is_reserved": 0, "lon": -77.0432705, "is_disabled": 0, "fusion_lat": 0.0, "lat": 38.9342395, "bike_id": "dbe86a0be8c1ff9ba9ad4d6445a5af8c", "fusion_lon": 0.0}, {"rental_uris": {"ios": "https://dc.lft.to/lastmile_qr_scan", "android": "https://dc.lft.to/lastmile_qr_scan"}, "type": "electric_scooter", "name": "f5394fb859b4c95a9f2d0a2b08a155bd", "is_reserved": 0, "lon": -77.048555, "is_disabled": 0, "fusion_lat": 0.0, "lat": 38.91268783333334, "bike_id": "f5394fb859b4c95a9f2d0a2b08a155bd", "fusion_lon": 0.0}, {"rental_uris": {"ios": "https://dc.lft.to/lastmile_qr_scan", "android": "https://dc.lft.to/lastmile_qr_scan"}, "type": "electric_scooter", "name": "c1930a259dc692f3adfa4304a9c832df", "is_reserved": 0, "lon": -77.0216515, "is_disabled": 0, "fusion_lat": 0.0, "lat": 38.91622916666667, "bike_id": "c1930a259dc692f3adfa4304a9c832df", "fusion_lon": 0.0}, {"rental_uris": {"ios": "https://dc.lft.to/lastmile_qr_scan", "android": "https://dc.lft.to/lastmile_qr_scan"}, "type": "electric_scooter", "name": "bd0b1d3b61323e45007cf9f936144f67", "is_reserved": 0, "lon": -77.08779533333333, "is_disabled": 0, "fusion_lat": 0.0, "lat": 38.935606666666665, "bike_id": "bd0b1d3b61323e45007cf9f936144f67", "fusion_lon": 0.0}, {"rental_uris": {"ios": "https://dc.lft.to/lastmile_qr_scan", "android": "https://dc.lft.to/lastmile_qr_scan"},