{"data": {"bikes": [{"type": "electric_scooter", "rental_uris": {"ios": "https://dc.lft.to/lastmile_qr_scan", "android": "https://dc.lft.to/lastmile_qr_scan"}, "lon": -77.02182866666666, "fusion_lon": 0.0, "is_disabled": 0, "lat": 38.915679, "bike_id": "9e53762ace1354a67aea07bacf934d10", "name": "9e53762ace1354a67aea07bacf934d10", "is_reserved": 0, "fusion_lat": 0.0}, {"type": "electric_scooter", "rental_uris": {"ios": "https://dc.lft.to/lastmile_qr_scan", "android": "https://dc.lft.to/lastmile_qr_scan"}, "lon": -76.93526683333333, "fusion_lon": 0.0, "is_disabled": 0, "lat": 38.87895866666667, "bike_id": "9dff31e426fa2b1d6410a6b862f644fb", "name": "9dff31e426fa2b1d6410a6b862f644fb", "is_reserved": 0, "fusion_lat": 0.0}, {"type": "electric_scooter", "rental_uris": {"ios": "https://dc.lft.to/lastmile_qr_scan", "android": "https://dc.lft.to/lastmile_qr_scan"}, "lon": -77.036375, "fusion_lon": 0.0, "is_disabled": 0, "lat": 38.932833333333335, "bike_id": "f52738ce9313968ac2cb24c6997a99e1", "name": "f52738ce9313968ac2cb24c6997a99e1", "is_reserved": 0, "fusion_lat": 0.0}, {"type": "electric_scooter", "rental_uris": {"ios": "https://dc.lft.to/lastmile_qr_scan", "android": "https://dc.lft.to/lastmile_qr_scan"}, "lon": -77.03261233333333, "fusion_lon": 0.0, "is_disabled": 0, "lat": 38.89917966666667, "bike_id": "2286f3d96b38ed540b170543533c9e90", "name": "2286f3d96b38ed540b170543533c9e90", "is_reserved": 0, "fusion_lat": 0.0}, {"type": "electric_scooter", "rental_uris": {"ios": "https://dc.lft.to/lastmile_qr_scan", "android": "https://dc.lft.to/lastmile_qr_scan"}, "lon": -77.03525883333333, "fusion_lon": 0.0, "is_disabled": 0, "lat": 38.9182295, "bike_id": "19cc1b1edb82223973d60f137946d6bb", "name": "19cc1b1edb82223973d60f137946d6bb", "is_reserved": 0, "fusion_lat": 0.0}, {"type": "electric_scooter", "rental_uris": {"ios": "https://dc.lft.to/lastmile_qr_scan", "android": "https://dc.lft.to/lastmile_qr_scan"}, "lon": -77.03857766666667, "fusion_lon": 0.0, "is_disabled": 0, "lat": 38.916831333333334, "bike_id": "b0867317d3c0f17bbb56129db464e22d", "name": "b0867317d3c0f17bbb56129db464e22d", "is_reserved": 0, "fusion_lat": 0.0}, {"type": "electric_scooter", "rental_uris": {"ios": "https://dc.lft.to/lastmile_qr_scan", "android": "https://dc.lft.to/lastmile_qr_scan"}, "lon": -77.03680183333333, "fusion_lon": 0.0, "is_disabled": 0, "lat": 38.919122, "bike_id": "06ecaa6a7f03f3d14d3fd624c2bd8775", "name": "06ecaa6a7f03f3d14d3fd624c2bd8775", "is_reserved": 0, "fusion_lat": 0.0}, {"type": "electric_scooter", "rental_uris": {"ios": "https://dc.lft.to/lastmile_qr_scan", "android": "https://dc.lft.to/lastmile_qr_scan"}, "lon": -77.04196016666667, "fusion_lon": 0.0, "is_disabled": 0, "lat": 38.89222433333333, "bike_id": "e2855b2484e56b7e3dbe1eb9719658d2", "name": "e2855b2484e56b7e3dbe1eb9719658d2", "is_reserved": 0, "fusion_lat": 0.0}, {"type": "electric_scooter", "rental_uris": {"ios": "https://dc.lft.to/lastmile_qr_scan", "android": "https://dc.lft.to/lastmile_qr_scan"}, "lon": -77.03647, "fusion_lon": 0.0, "is_disabled": 0, "lat": 38.92079733333333, "bike_id": "f627a4bd60751f9e741a3ed5b2f4283f", "name": "f627a4bd60751f9e741a3ed5b2f4283f", "is_reserved": 0, "fusion_lat": 0.0}, {"type": "electric_scooter", "rental_uris": {"ios": "https://dc.lft.to/lastmile_qr_scan", "android": "https://dc.lft.to/lastmile_qr_scan"}, "lon": -76.993895, "fusion_lon": 0.0, "is_disabled": 0, "lat": 38.91012833333333, "bike_id": "9e5a58d24f30a72522acdc858e299509", "name": "9e5a58d24f30a72522acdc858e299509", "is_reserved": 0, "fusion_lat": 0.0}, {"type": "electric_scooter", "rental_uris": {"ios": "https://dc.lft.to/lastmile_qr_scan", "android": "https://dc.lft.to/lastmile_qr_scan"}, "lon": -77.01740516666666, "fusion_lon": 0.0, "is_disabled": 0, "lat": 38.92103983333333, "bike_id": "26a295e80628753a9200d3fef5affa5b", "name": "26a295e80628753a9200d3fef5affa5b", "is_reserved": 0, "fusion_lat": 0.0}, {"type": "electric_scooter", "rental_uris": {"ios": "https://dc.lft.to/lastmile_qr_scan", "android": "https://dc.lft.to/lastmile_qr_scan"}, "lon": -77.06890916666667, "fusion_lon": 0.0, "is_disabled": 0, "lat": 38.904182, "bike_id": "1712b1c1e2887456c4af70b1d0619355", "name": "1712b1c1e2887456c4af70b1d0619355", "is_reserved": 0, "fusion_lat": 0.0}, {"type": "electric_scooter", "rental_uris": {"ios": "https://dc.lft.to/lastmile_qr_scan", "android": "https://dc.lft.to/lastmile_qr_scan"}, "lon": -76.996021, "fusion_lon": 0.0, "is_disabled": 0, "lat": 38.926111666666664, "bike_id": "4034b7d1d73fef0286564efd0e1502bb", "name": "4034b7d1d73fef0286564efd0e1502bb", "is_reserved": 0, "fusion_lat": 0.0}, {"type": "electric_scooter", "rental_uris": {"ios": "https://dc.lft.to/lastmile_qr_scan", "android": "https://dc.lft.to/lastmile_qr_scan"}, "lon": -77.03210266666666, "fusion_lon": 0.0, "is_disabled": 0, "lat": 38.909478666666665, "bike_id": "b86265b32c1ba2d798b20f60724c46b5", "name": "b86265b32c1ba2d798b20f60724c46b5", "is_reserved": 0, "fusion_lat": 0.0}, {"type": "electric_scooter", "rental_uris": {"ios": "https://dc.lft.to/lastmile_qr_scan", "android": "https://dc.lft.to/lastmile_qr_scan"}, "lon": -77.02817516666667, "fusion_lon": 0.0, "is_disabled": 0, "lat": 38.899208, "bike_id": "97d661cd1a5ff147cb95eb60f4838129", "name": "97d661cd1a5ff147cb95eb60f4838129", "is_reserved": 0, "fusion_lat": 0.0}, {"type": "electric_scooter", "rental_uris": {"ios": "https://dc.lft.to/lastmile_qr_scan", "android": "https://dc.lft.to/lastmile_qr_scan"}, "lon": -77.041407, "fusion_lon": 0.0, "is_disabled": 0, "lat": 38.916823666666666, "bike_id": "a286b0c6bd2461de59865bcf2a88ce79", "name": "a286b0c6bd2461de59865bcf2a88ce79", "is_reserved": 0, "fusion_lat": 0.0}, {"type": "electric_scooter", "rental_uris": {"ios": "https://dc.lft.to/lastmile_qr_scan", "android": "https://dc.lft.to/lastmile_qr_scan"}, "lon": -76.986945, "fusion_lon": 0.0, "is_disabled": 0, "lat": 38.866255, "bike_id": "7fd6577ed0a6f7c7cc04fff9c3a869d2", "name": "7fd6577ed0a6f7c7cc04fff9c3a869d2", "is_reserved": 0, "fusion_lat": 0.0}, {"type": "electric_scooter", "rental_uris": {"ios": "https://dc.lft.to/lastmile_qr_scan", "android": "https://dc.lft.to/lastmile_qr_scan"}, "lon": -77.0437055, "fusion_lon": 0.0, "is_disabled": 0, "lat": 38.905165333333336, "bike_id": "72d81d61cf6f6a1ad548172a900ceeb4", "name": "72d81d61cf6f6a1ad548172a900ceeb4", "is_reserved": 0, "fusion_lat": 0.0}, {"type": "electric_scooter", "rental_uris": {"ios": "https://dc.lft.to/lastmile_qr_scan", "android": "https://dc.lft.to/lastmile_qr_scan"}, "lon": -77.03191233333334, "fusion_lon": 0.0, "is_disabled": 0, "lat": 38.91630266666667, "bike_id": "3a2583997fd6d3586a40698b78bd07a7", "name": "3a2583997fd6d3586a40698b78bd07a7", "is_reserved": 0, "fusion_lat": 0.0}, {"type": "electric_scooter", "rental_uris": {"ios": "https://dc.lft.to/lastmile_qr_scan", "android": "https://dc.lft.to/lastmile_qr_scan"}, "lon": -77.04185583333333, "fusion_lon": 0.0, "is_disabled": 0, "lat": 38.90529, "bike_id": "45330056b6ff4268909476fbef49fa2c", "name": "45330056b6ff4268909476fbef49fa2c", "is_reserved": 0, "fusion_lat": 0.0}, {"type": "electric_bike", "rental_uris": {"ios": "https://dc.lft.to/lastmile_qr_scan", "android": "https://dc.lft.to/lastmile_qr_scan"}, "lon": -76.98843733333334, "fusion_lon": 0.0, "is_disabled": 0, "lat": 38.84273266666667, "bike_id": "bf31fe2fefb5accffec525f622e220d2", "name": "bf31fe2fefb5accffec525f622e220d2", "is_reserved": 0, "fusion_lat": 0.0}, {"type": "electric_scooter", "rental_uris": {"ios": "https://dc.lft.to/lastmile_qr_scan", "android": "https://dc.lft.to/lastmile_qr_scan"}, "lon": -77.041996, "fusion_lon": 0.0, "is_disabled": 0, "lat": 38.90524633333333, "bike_id": "4fadf532af6178d455b9ca53abcb846a", "name": "4fadf532af6178d455b9ca53abcb846a", "is_reserved": 0, "fusion_lat": 0.0}, {"type": "electric_scooter", "rental_uris": {"ios": "https://dc.lft.to/lastmile_qr_scan", "android": "https://dc.lft.to/lastmile_qr_scan"}, "lon": -76.9541925, "fusion_lon": 0.0, "is_disabled": 0, "lat": 38.8898705, "bike_id": "3c0bcd7f2bce138f905094339b4c6977", "name": "3c0bcd7f2bce138f905094339b4c6977", "is_reserved": 0, "fusion_lat": 0.0}, {"type": "electric_scooter", "rental_uris": {"ios": "https://dc.lft.to/lastmile_qr_scan", "android": "https://dc.lft.to/lastmile_qr_scan"}, "lon": -77.00375283333334, "fusion_lon": 0.0, "is_disabled": 0, "lat": 38.882644166666665, "bike_id": "a332843eb379faa83ca60061e5983a7e", "name": "a332843eb379faa83ca60061e5983a7e", "is_reserved": 0, "fusion_lat": 0.0}, {"type": "electric_scooter", "rental_uris": {"ios": "https://dc.lft.to/lastmile_qr_scan", "android": "https://dc.lft.to/lastmile_qr_scan"}, "lon": -77.04003616666667, "fusion_lon": 0.0, "is_disabled": 0, "lat": 38.91567116666667, "bike_id": "a8b85b05304e3571aaa202fdb6c4c914", "name": "a8b85b05304e3571aaa202fdb6c4c914", "is_reserved": 0, "fusion_lat": 0.0}, {"type": "electric_scooter", "rental_uris": {"ios": "https://dc.lft.to/lastmile_qr_scan", "android": "https://dc.lft.to/lastmile_qr_scan"}, "lon": -77.01943016666667, "fusion_lon": 0.0, "is_disabled": 0, "lat": 38.949237833333335, "bike_id": "ffc093c548dbcbcc218f4829cdbe75cb", "name": "ffc093c548dbcbcc218f4829cdbe75cb", "is_reserved": 0, "fusion_lat": 0.0}, {"type": "electric_scooter", "rental_uris": {"ios": "https://dc.lft.to/lastmile_qr_scan", "android": "https://dc.lft.to/lastmile_qr_scan"}, "lon": -77.02167966666667, "fusion_lon": 0.0, "is_disabled": 0, "lat": 38.897357166666666, "bike_id": "f2a75c3bbd63ff22a0559d99add20684", "name": "f2a75c3bbd63ff22a0559d99add20684", "is_reserved": 0, "fusion_lat": 0.0}, {"type": "electric_scooter", "rental_uris": {"ios": "https://dc.lft.to/lastmile_qr_scan", "android": "https://dc.lft.to/lastmile_qr_scan"}, "lon": -77.03663666666667, "fusion_lon": 0.0, "is_disabled": 0, "lat": 38.91733966666666, "bike_id": "802938e6a6f29eb8b72189d79738819a", "name": "802938e6a6f29eb8b72189d79738819a", "is_reserved": 0, "fusion_lat": 0.0}, {"type": "electric_scooter", "rental_uris": {"ios": "https://dc.lft.to/lastmile_qr_scan", "android": "https://dc.lft.to/lastmile_qr_scan"}, "lon": -77.037748, "fusion_lon": 0.0, "is_disabled": 0, "lat": 38.92930166666667, "bike_id": "6707ae986356f8e6590f689684208671", "name": "6707ae986356f8e6590f689684208671", "is_reserved": 0, "fusion_lat": 0.0}, {"type": "electric_scooter", "rental_uris": {"ios": "https://dc.lft.to/lastmile_qr_scan", "android": "https://dc.lft.to/lastmile_qr_scan"}, "lon": -77.01965783333333, "fusion_lon": 0.0, "is_disabled": 0, "lat": 38.929998166666664, "bike_id": "155d0d3b226cb6c27ed43f1e6c189c1c", "name": "155d0d3b226cb6c27ed43f1e6c189c1c", "is_reserved": 0, "fusion_lat": 0.0}, {"type": "electric_bike", "rental_uris": {"ios": "https://dc.lft.to/lastmile_qr_scan", "android": "https://dc.lft.to/lastmile_qr_scan"}, "lon": -77.05644733333334, "fusion_lon": 0.0, "is_disabled": 0, "lat": 38.936911, "bike_id": "5b5b8fc067ca6831fbd8a8f1d0e27c03", "name": "5b5b8fc067ca6831fbd8a8f1d0e27c03", "is_reserved": 0, "fusion_lat": 0.0}, {"type": "electric_scooter", "rental_uris": {"ios": "https://dc.lft.to/lastmile_qr_scan", "android": "https://dc.lft.to/lastmile_qr_scan"}, "lon": -76.98188766666667, "fusion_lon": 0.0, "is_disabled": 0, "lat": 38.8566955, "bike_id": "44bb10b33e35d2ac9678f851907be22f", "name": "44bb10b33e35d2ac9678f851907be22f", "is_reserved": 0, "fusion_lat": 0.0}, {"type": "electric_scooter", "rental_uris": {"ios": "https://dc.lft.to/lastmile_qr_scan", "android": "https://dc.lft.to/lastmile_qr_scan"}, "lon": -77.00221816666667, "fusion_lon": 0.0, "is_disabled": 0, "lat": 38.88496416666667, "bike_id": "2cdc3684c34d1be5034a16608a273002", "name": "2cdc3684c34d1be5034a16608a273002", "is_reserved": 0, "fusion_lat": 0.0}, {"type": "electric_bike", "rental_uris": {"ios": "https://dc.lft.to/lastmile_qr_scan", "android": "https://dc.lft.to/lastmile_qr_scan"}, "lon": -76.99774716666667, "fusion_lon": 0.0, "is_disabled": 0, "lat": 38.83733316666667, "bike_id": "da4d84bafea77ce3c10f3d136d264a82", "name": "da4d84bafea77ce3c10f3d136d264a82", "is_reserved": 0, "fusion_lat": 0.0}, {"type": "electric_scooter", "rental_uris": {"ios": "https://dc.lft.to/lastmile_qr_scan", "android": "https://dc.lft.to/lastmile_qr_scan"}, "lon": -77.02720966666666, "fusion_lon": 0.0, "is_disabled": 0, "lat": 38.90683716666667, "bike_id": "b9f8ee022a2b24934b2005154bf557ff", "name": "b9f8ee022a2b24934b2005154bf557ff", "is_reserved": 0, "fusion_lat": 0.0}, {"type": "electric_scooter", "rental_uris": {"ios": "https://dc.lft.to/lastmile_qr_scan", "android": "https://dc.lft.to/lastmile_qr_scan"}, "lon": -77.072703, "fusion_lon": 0.0, "is_disabled": 0, "lat": 38.9348615, "bike_id": "d68bc0cfd95354ecf6506db44be48f9b", "name": "d68bc0cfd95354ecf6506db44be48f9b", "is_reserved": 0, "fusion_lat": 0.0}, {"type": "electric_scooter", "rental_uris": {"ios": "https://dc.lft.to/lastmile_qr_scan", "android": "https://dc.lft.to/lastmile_qr_scan"}, "lon": -77.04297766666667, "fusion_lon": 0.0, "is_disabled": 0, "lat": 38.901516, "bike_id": "a2576ef31b3210215213ea15262ba4f9", "name": "a2576ef31b3210215213ea15262ba4f9", "is_reserved": 0, "fusion_lat": 0.0}, {"type": "electric_bike", "rental_uris": {"ios": "https://dc.lft.to/lastmile_qr_scan", "android": "https://dc.lft.to/lastmile_qr_scan"}, "lon": -76.99136416666667, "fusion_lon": 0.0, "is_disabled": 0, "lat": 38.846328666666665, "bike_id": "b9568275428776cf5f1e8a5c5d9eb7ab", "name": "b9568275428776cf5f1e8a5c5d9eb7ab", "is_reserved": 0, "fusion_lat": 0.0}, {"type": "electric_scooter", "rental_uris": {"ios": "https://dc.lft.to/lastmile_qr_scan", "android": "https://dc.lft.to/lastmile_qr_scan"}, "lon": -77.04174433333333, "fusion_lon": 0.0, "is_disabled": 0, "lat": 38.918106333333334, "bike_id": "861463a0a7ae308d87546e665b8a606c", "name": "861463a0a7ae308d87546e665b8a606c", "is_reserved": 0, "fusion_lat": 0.0}, {"type": "electric_scooter", "rental_uris": {"ios": "https://dc.lft.to/lastmile_qr_scan", "android": "https://dc.lft.to/lastmile_qr_scan"}, "lon": -77.02224533333333, "fusion_lon": 0.0, "is_disabled": 0, "lat": 38.89219333333333, "bike_id": "495ca95dab2f93e7124eae4aa0ffc731", "name": "495ca95dab2f93e7124eae4aa0ffc731", "is_reserved": 0, "fusion_lat": 0.0}, {"type": "electric_scooter", "rental_uris": {"ios": "https://dc.lft.to/lastmile_qr_scan", "android": "https://dc.lft.to/lastmile_qr_scan"}, "lon": -77.02784966666667, "fusion_lon": 0.0, "is_disabled": 0, "lat": 38.930745333333334, "bike_id": "54c8e5de07d44702203f0e8fbded2204", "name": "54c8e5de07d44702203f0e8fbded2204", "is_reserved": 0, "fusion_lat": 0.0}, {"type": "electric_scooter", "rental_uris": {"ios": "https://dc.lft.to/lastmile_qr_scan", "android": "https://dc.lft.to/lastmile_qr_scan"}, "lon": -77.02283816666667, "fusion_lon": 0.0, "is_disabled": 0, "lat": 38.91680266666667, "bike_id": "b3d6436da43486bc539d2eb0ed7fb0f0", "name": "b3d6436da43486bc539d2eb0ed7fb0f0", "is_reserved": 0, "fusion_lat": 0.0}, {"type": "electric_scooter", "rental_uris": {"ios": "https://dc.lft.to/lastmile_qr_scan", "android": "https://dc.lft.to/lastmile_qr_scan"}, "lon": -77.0270255, "fusion_lon": 0.0, "is_disabled": 0, "lat": 38.897521166666664, "bike_id": "c122624a4014be6cbf8cf12b1fb4783d", "name": "c122624a4014be6cbf8cf12b1fb4783d", "is_reserved": 0, "fusion_lat": 0.0}, {"type": "electric_scooter", "rental_uris": {"ios": "https://dc.lft.to/lastmile_qr_scan", "android": "https://dc.lft.to/lastmile_qr_scan"}, "lon": -77.04017066666667, "fusion_lon": 0.0, "is_disabled": 0, "lat": 38.92214033333333, "bike_id": "2b7a32d176cd301122908d4ba3baa769", "name": "2b7a32d176cd301122908d4ba3baa769", "is_reserved": 0, "fusion_lat": 0.0}, {"type": "electric_scooter", "rental_uris": {"ios": "https://dc.lft.to/lastmile_qr_scan", "android": "https://dc.lft.to/lastmile_qr_scan"}, "lon": -77.02488, "fusion_lon": 0.0, "is_disabled": 0, "lat": 38.93878, "bike_id": "abf09798a2f335a3af00bd650a74b6d8", "name": "abf09798a2f335a3af00bd650a74b6d8", "is_reserved": 0, "fusion_lat": 0.0}, {"type": "electric_scooter", "rental_uris": {"ios": "https://dc.lft.to/lastmile_qr_scan", "android": "https://dc.lft.to/lastmile_qr_scan"}, "lon": -77.04520116666667, "fusion_lon": 0.0, "is_disabled": 0, "lat": 38.93313783333333, "bike_id": "08560fe01db8277e71b5d73a48622971", "name": "08560fe01db8277e71b5d73a48622971", "is_reserved": 0, "fusion_lat": 0.0}, {"type": "electric_scooter", "rental_uris": {"ios": "https://dc.lft.to/lastmile_qr_scan", "android": "https://dc.lft.to/lastmile_qr_scan"}, "lon": -77.03171983333333, "fusion_lon": 0.0, "is_disabled": 0, "lat": 38.8920535, "bike_id": "d72aa9f5ccb539c046cbcd01a82544ef", "name": "d72aa9f5ccb539c046cbcd01a82544ef", "is_reserved": 0, "fusion_lat": 0.0}, {"type": "electric_scooter", "rental_uris": {"ios": "https://dc.lft.to/lastmile_qr_scan", "android": "https://dc.lft.to/lastmile_qr_scan"}, "lon": -77.0059875, "fusion_lon": 0.0, "is_disabled": 0, "lat": 38.90587216666667, "bike_id": "66c21ea22c404580e4b6faa6a31008d0", "name": "66c21ea22c404580e4b6faa6a31008d0", "is_reserved": 0, "fusion_lat": 0.0}, {"type": "electric_bike", "rental_uris": {"ios": "https://dc.lft.to/lastmile_qr_scan", "android": "https://dc.lft.to/lastmile_qr_scan"}, "lon": -76.98107366666666, "fusion_lon": 0.0, "is_disabled": 0, "lat": 38.87729083333333, "bike_id": "84ff82894789074539fe8a476f3255d4", "name": "84ff82894789074539fe8a476f3255d4", "is_reserved": 0, "fusion_lat": 0.0}, {"type": "electric_scooter", "rental_uris": {"ios": "https://dc.lft.to/lastmile_qr_scan", "android": "https://dc.lft.to/lastmile_qr_scan"}, "lon": -77.02015366666667, "fusion_lon": 0.0, "is_disabled": 0, "lat": 38.8988175, "bike_id": "ad92caeb49516536097862219b211030", "name": "ad92caeb49516536097862219b211030", "is_reserved": 0, "fusion_lat": 0.0}, {"type": "electric_scooter", "rental_uris": {"ios": "https://dc.lft.to/lastmile_qr_scan", "android": "https://dc.lft.to/lastmile_qr_scan"}, "lon": -77.04159483333333, "fusion_lon": 0.0, "is_disabled": 0, "lat": 38.91516766666667, "bike_id": "17d9e8914348c8f888470a110d4b73ab", "name": "17d9e8914348c8f888470a110d4b73ab", "is_reserved": 0, "fusion_lat": 0.0}, {"type": "electric_scooter", "rental_uris": {"ios": "https://dc.lft.to/lastmile_qr_scan", "android": "https://dc.lft.to/lastmile_qr_scan"}, "lon": -77.0077135, "fusion_lon": 0.0, "is_disabled": 0, "lat": 38.906022666666665, "bike_id": "ecea947d78e422262ab33f29ac9c2d2a", "name": "ecea947d78e422262ab33f29ac9c2d2a", "is_reserved": 0, "fusion_lat": 0.0}, {"type": "electric_scooter", "rental_uris": {"ios": "https://dc.lft.to/lastmile_qr_scan", "android": "https://dc.lft.to/lastmile_qr_scan"}, "lon": -77.01616416666667, "fusion_lon": 0.0, "is_disabled": 0, "lat": 38.898172833333334, "bike_id": "c10a9f9e188c4b5eca6c9f673c7904fb", "name": "c10a9f9e188c4b5eca6c9f673c7904fb", "is_reserved": 0, "fusion_lat": 0.0}, {"type": "electric_scooter", "rental_uris": {"ios": "https://dc.lft.to/lastmile_qr_scan", "android": "https://dc.lft.to/lastmile_qr_scan"}, "lon": -77.025917, "fusion_lon": 0.0, "is_disabled": 0, "lat": 38.941971, "bike_id": "b4679dcb1107c3df26901cfa47d9ca91", "name": "b4679dcb1107c3df26901cfa47d9ca91", "is_reserved": 0, "fusion_lat": 0.0}, {"type": "electric_scooter", "rental_uris": {"ios": "https://dc.lft.to/lastmile_qr_scan", "android": "https://dc.lft.to/lastmile_qr_scan"}, "lon": -77.02293216666666, "fusion_lon": 0.0, "is_disabled": 0, "lat": 38.91609316666667, "bike_id": "870a03f4f46e191124a87ca71530a545", "name": "870a03f4f46e191124a87ca71530a545", "is_reserved": 0, "fusion_lat": 0.0}, {"type": "electric_scooter", "rental_uris": {"ios": "https://dc.lft.to/lastmile_qr_scan", "android": "https://dc.lft.to/lastmile_qr_scan"}, "lon": -76.98543033333333, "fusion_lon": 0.0, "is_disabled": 0, "lat": 38.8666925, "bike_id": "a63e4d736b59bc663f13008715e1aab0", "name": "a63e4d736b59bc663f13008715e1aab0", "is_reserved": 0, "fusion_lat": 0.0}, {"type": "electric_scooter", "rental_uris": {"ios": "https://dc.lft.to/lastmile_qr_scan", "android": "https://dc.lft.to/lastmile_qr_scan"}, "lon": -77.04870766666667, "fusion_lon": 0.0, "is_disabled": 0, "lat": 38.909783166666664, "bike_id": "72f0dc0521aac6cff6c1b765667c0865", "name": "72f0dc0521aac6cff6c1b765667c0865", "is_reserved": 0, "fusion_lat": 0.0}, {"type": "electric_scooter", "rental_uris": {"ios": "https://dc.lft.to/lastmile_qr_scan", "android": "https://dc.lft.to/lastmile_qr_scan"}, "lon": -76.99004183333334, "fusion_lon": 0.0, "is_disabled": 0, "lat": 38.900109, "bike_id": "ccda7f3cf0f39f5d63949009702feb26", "name": "ccda7f3cf0f39f5d63949009702feb26", "is_reserved": 0, "fusion_lat": 0.0}, {"type": "electric_scooter", "rental_uris": {"ios": "https://dc.lft.to/lastmile_qr_scan", "android": "https://dc.lft.to/lastmile_qr_scan"}, "lon": -77.004138, "fusion_lon": 0.0, "is_disabled": 0, "lat": 38.876659, "bike_id": "4984ac8ac8be1949c302b60c6b5cdb15", "name": "4984ac8ac8be1949c302b60c6b5cdb15", "is_reserved": 0, "fusion_lat": 0.0}, {"type": "electric_bike", "rental_uris": {"ios": "https://dc.lft.to/lastmile_qr_scan", "android": "https://dc.lft.to/lastmile_qr_scan"}, "lon": -76.972043, "fusion_lon": 0.0, "is_disabled": 0, "lat": 38.917704666666666, "bike_id": "0c9cbc3cc401f3ca820fd3ef170a37fd", "name": "0c9cbc3cc401f3ca820fd3ef170a37fd", "is_reserved": 0, "fusion_lat": 0.0}, {"type": "electric_scooter", "rental_uris": {"ios": "https://dc.lft.to/lastmile_qr_scan", "android": "https://dc.lft.to/lastmile_qr_scan"}, "lon": -77.03200983333333, "fusion_lon": 0.0, "is_disabled": 0, "lat": 38.912166666666664, "bike_id": "39fb9a762786daaeb54ca8ac98276d7b", "name": "39fb9a762786daaeb54ca8ac98276d7b", "is_reserved": 0, "fusion_lat": 0.0}, {"type": "electric_scooter", "rental_uris": {"ios": "https://dc.lft.to/lastmile_qr_scan", "android": "https://dc.lft.to/lastmile_qr_scan"}, "lon": -77.04213933333334, "fusion_lon": 0.0, "is_disabled": 0, "lat": 38.92450866666667, "bike_id": "c69399c9154bd74d78217c6c6d12c17d", "name": "c69399c9154bd74d78217c6c6d12c17d", "is_reserved": 0, "fusion_lat": 0.0}, {"type": "electric_scooter", "rental_uris": {"ios": "https://dc.lft.to/lastmile_qr_scan", "android": "https://dc.lft.to/lastmile_qr_scan"}, "lon": -77.0327095, "fusion_lon": 0.0, "is_disabled": 0, "lat": 38.9197665, "bike_id": "caff4360e66621cb7ad3e70e2d346808", "name": "caff4360e66621cb7ad3e70e2d346808", "is_reserved": 0, "fusion_lat": 0.0}, {"type": "electric_scooter", "rental_uris": {"ios": "https://dc.lft.to/lastmile_qr_scan", "android": "https://dc.lft.to/lastmile_qr_scan"}, "lon": -77.04325116666666, "fusion_lon": 0.0, "is_disabled": 0, "lat": 38.892269166666665, "bike_id": "c4cde6dd926bf6353c320c6bcac49538", "name": "c4cde6dd926bf6353c320c6bcac49538", "is_reserved": 0, "fusion_lat": 0.0}, {"type": "electric_scooter", "rental_uris": {"ios": "https://dc.lft.to/lastmile_qr_scan", "android": "https://dc.lft.to/lastmile_qr_scan"}, "lon": -77.04329, "fusion_lon": 0.0, "is_disabled": 0, "lat": 38.89225183333333, "bike_id": "612df0a663c6f136594d67b2724e6c8a", "name": "612df0a663c6f136594d67b2724e6c8a", "is_reserved": 0, "fusion_lat": 0.0}, {"type": "electric_scooter", "rental_uris": {"ios": "https://dc.lft.to/lastmile_qr_scan", "android": "https://dc.lft.to/lastmile_qr_scan"}, "lon": -77.039806, "fusion_lon": 0.0, "is_disabled": 0, "lat": 38.902527, "bike_id": "e97a2c4c859c200fdf08c9be7ee26aea", "name": "e97a2c4c859c200fdf08c9be7ee26aea", "is_reserved": 0, "fusion_lat": 0.0}, {"type": "electric_scooter", "rental_uris": {"ios": "https://dc.lft.to/lastmile_qr_scan", "android": "https://dc.lft.to/lastmile_qr_scan"}, "lon": -77.03456616666666, "fusion_lon": 0.0, "is_disabled": 0, "lat": 38.918195833333336, "bike_id": "3a7cc2dfc60007ed5a452e7e40fc6348", "name": "3a7cc2dfc60007ed5a452e7e40fc6348", "is_reserved": 0, "fusion_lat": 0.0}, {"type": "electric_scooter", "rental_uris": {"ios": "https://dc.lft.to/lastmile_qr_scan", "android": "https://dc.lft.to/lastmile_qr_scan"}, "lon": -77.02460616666667, "fusion_lon": 0.0, "is_disabled": 0, "lat": 38.91836683333333, "bike_id": "bf8f55ce97f152ddd336bfcbb15b492a", "name": "bf8f55ce97f152ddd336bfcbb15b492a", "is_reserved": 0, "fusion_lat": 0.0}, {"type": "electric_scooter", "rental_uris": {"ios": "https://dc.lft.to/lastmile_qr_scan", "android": "https://dc.lft.to/lastmile_qr_scan"}, "lon": -77.02711633333334, "fusion_lon": 0.0, "is_disabled": 0, "lat": 38.90450966666667, "bike_id": "b64039118637773cdc82e6e34d47a8a7", "name": "b64039118637773cdc82e6e34d47a8a7", "is_reserved": 0, "fusion_lat": 0.0}, {"type": "electric_scooter", "rental_uris": {"ios": "https://dc.lft.to/lastmile_qr_scan", "android": "https://dc.lft.to/lastmile_qr_scan"}, "lon": -77.04175083333334, "fusion_lon": 0.0, "is_disabled": 0, "lat": 38.9180545, "bike_id": "614d970b4243ea0e49ecfd49dbae1d9e", "name": "614d970b4243ea0e49ecfd49dbae1d9e", "is_reserved": 0, "fusion_lat": 0.0}, {"type": "electric_bike", "rental_uris": {"ios": "https://dc.lft.to/lastmile_qr_scan", "android": "https://dc.lft.to/lastmile_qr_scan"}, "lon": -77.03814933333334, "fusion_lon": 0.0, "is_disabled": 0, "lat": 38.914134833333335, "bike_id": "def570758727317e6e73b3362b6fc955", "name": "def570758727317e6e73b3362b6fc955", "is_reserved": 0, "fusion_lat": 0.0}, {"type": "electric_scooter", "rental_uris": {"ios": "https://dc.lft.to/lastmile_qr_scan", "android": "https://dc.lft.to/lastmile_qr_scan"}, "lon": -77.03702916666667, "fusion_lon": 0.0, "is_disabled": 0, "lat": 38.9264315, "bike_id": "5b789a84adc0cfca31a3a024be965473", "name": "5b789a84adc0cfca31a3a024be965473", "is_reserved": 0, "fusion_lat": 0.0}, {"type": "electric_scooter", "rental_uris": {"ios": "https://dc.lft.to/lastmile_qr_scan", "android": "https://dc.lft.to/lastmile_qr_scan"}, "lon": -76.99273316666667, "fusion_lon": 0.0, "is_disabled": 0, "lat": 38.902074666666664, "bike_id": "5c9177370cbb0dce0de1a6aa6f227779", "name": "5c9177370cbb0dce0de1a6aa6f227779", "is_reserved": 0, "fusion_lat": 0.0}, {"type": "electric_scooter", "rental_uris": {"ios": "https://dc.lft.to/lastmile_qr_scan", "android": "https://dc.lft.to/lastmile_qr_scan"}, "lon": -76.99209266666666, "fusion_lon": 0.0, "is_disabled": 0, "lat": 38.89519283333333, "bike_id": "d698cb196f006bb83c9c66e1d74de53f", "name": "d698cb196f006bb83c9c66e1d74de53f", "is_reserved": 0, "fusion_lat": 0.0}, {"type": "electric_scooter", "rental_uris": {"ios": "https://dc.lft.to/lastmile_qr_scan", "android": "https://dc.lft.to/lastmile_qr_scan"}, "lon": -76.99726066666666, "fusion_lon": 0.0, "is_disabled": 0, "lat": 38.898993833333336, "bike_id": "d4a4c25a89fd4ca742fe4be32f75ed2e", "name": "d4a4c25a89fd4ca742fe4be32f75ed2e", "is_reserved": 0, "fusion_lat": 0.0}, {"type": "electric_scooter", "rental_uris": {"ios": "https://dc.lft.to/lastmile_qr_scan", "android": "https://dc.lft.to/lastmile_qr_scan"}, "lon": -77.07984616666667, "fusion_lon": 0.0, "is_disabled": 0, "lat": 38.9194975, "bike_id": "4fbea7d307e775a27e6956055968b9af", "name": "4fbea7d307e775a27e6956055968b9af", "is_reserved": 0, "fusion_lat": 0.0}, {"type": "electric_scooter", "rental_uris": {"ios": "https://dc.lft.to/lastmile_qr_scan", "android": "https://dc.lft.to/lastmile_qr_scan"}, "lon": -77.021809, "fusion_lon": 0.0, "is_disabled": 0, "lat": 38.909766833333336, "bike_id": "7514802d6667656c7ed4e3bc989dcfff", "name": "7514802d6667656c7ed4e3bc989dcfff", "is_reserved": 0, "fusion_lat": 0.0}, {"type": "electric_scooter", "rental_uris": {"ios": "https://dc.lft.to/lastmile_qr_scan", "android": "https://dc.lft.to/lastmile_qr_scan"}, "lon": -76.93176183333334, "fusion_lon": 0.0, "is_disabled": 0, "lat": 38.89880516666667, "bike_id": "7fa78f334cc069cb3fbf4f25ec928cfd", "name": "7fa78f334cc069cb3fbf4f25ec928cfd", "is_reserved": 0, "fusion_lat": 0.0}, {"type": "electric_scooter", "rental_uris": {"ios": "https://dc.lft.to/lastmile_qr_scan", "android": "https://dc.lft.to/lastmile_qr_scan"}, "lon": -77.02992133333333, "fusion_lon": 0.0, "is_disabled": 0, "lat": 38.92046366666667, "bike_id": "bb8c4bda2c1f85cfe8192d773845e699", "name": "bb8c4bda2c1f85cfe8192d773845e699", "is_reserved": 0, "fusion_lat": 0.0}, {"type": "electric_scooter", "rental_uris": {"ios": "https://dc.lft.to/lastmile_qr_scan", "android": "https://dc.lft.to/lastmile_qr_scan"}, "lon": -77.0276305, "fusion_lon": 0.0, "is_disabled": 0, "lat": 38.956110333333335, "bike_id": "6aa718dc118e915404eece846e413126", "name": "6aa718dc118e915404eece846e413126", "is_reserved": 0, "fusion_lat": 0.0}, {"type": "electric_scooter", "rental_uris": {"ios": "https://dc.lft.to/lastmile_qr_scan", "android": "https://dc.lft.to/lastmile_qr_scan"}, "lon": -77.02196333333333, "fusion_lon": 0.0, "is_disabled": 0, "lat": 38.911257, "bike_id": "f386035a27bd740b2b1b96d4713bc64a", "name": "f386035a27bd740b2b1b96d4713bc64a", "is_reserved": 0, "fusion_lat": 0.0}, {"type": "electric_scooter", "rental_uris": {"ios": "https://dc.lft.to/lastmile_qr_scan", "android": "https://dc.lft.to/lastmile_qr_scan"}, "lon": -76.99503566666667, "fusion_lon": 0.0, "is_disabled": 0, "lat": 38.881315666666666, "bike_id": "a2920302f015faaf341358918dd45556", "name": "a2920302f015faaf341358918dd45556", "is_reserved": 0, "fusion_lat": 0.0}, {"type": "electric_scooter", "rental_uris": {"ios": "https://dc.lft.to/lastmile_qr_scan", "android": "https://dc.lft.to/lastmile_qr_scan"}, "lon": -77.03207333333333, "fusion_lon": 0.0, "is_disabled": 0, "lat": 38.92474883333333, "bike_id": "ea2eea84406cbb9c3cc3fc6c1d595155", "name": "ea2eea84406cbb9c3cc3fc6c1d595155", "is_reserved": 0, "fusion_lat": 0.0}, {"type": "electric_scooter", "rental_uris": {"ios": "https://dc.lft.to/lastmile_qr_scan", "android": "https://dc.lft.to/lastmile_qr_scan"}, "lon": -77.0282175, "fusion_lon": 0.0, "is_disabled": 0, "lat": 38.899057666666664, "bike_id": "608a9634130ea78a80f524e42c23695c", "name": "608a9634130ea78a80f524e42c23695c", "is_reserved": 0, "fusion_lat": 0.0}, {"type": "electric_scooter", "rental_uris": {"ios": "https://dc.lft.to/lastmile_qr_scan", "android": "https://dc.lft.to/lastmile_qr_scan"}, "lon": -77.04400766666667, "fusion_lon": 0.0, "is_disabled": 0, "lat": 38.91266516666666, "bike_id": "c59eedbf81162bab7b869e0e982f9f81", "name": "c59eedbf81162bab7b869e0e982f9f81", "is_reserved": 0, "fusion_lat": 0.0}, {"type": "electric_scooter", "rental_uris": {"ios": "https://dc.lft.to/lastmile_qr_scan", "android": "https://dc.lft.to/lastmile_qr_scan"}, "lon": -76.98312766666666, "fusion_lon": 0.0, "is_disabled": 0, "lat": 38.86890233333333, "bike_id": "cf411e913c56f1619ee4809a3f610c90", "name": "cf411e913c56f1619ee4809a3f610c90", "is_reserved": 0, "fusion_lat": 0.0}, {"type": "electric_bike", "rental_uris": {"ios": "https://dc.lft.to/lastmile_qr_scan", "android": "https://dc.lft.to/lastmile_qr_scan"}, "lon": -76.99797183333334, "fusion_lon": 0.0, "is_disabled": 0, "lat": 38.956385166666664, "bike_id": "bfa1bb4df9dd22a0e113b3a0e3a73d7d", "name": "bfa1bb4df9dd22a0e113b3a0e3a73d7d", "is_reserved": 0, "fusion_lat": 0.0}, {"type": "electric_bike", "rental_uris": {"ios": "https://dc.lft.to/lastmile_qr_scan", "android": "https://dc.lft.to/lastmile_qr_scan"}, "lon": -77.11225433333334, "fusion_lon": 0.0, "is_disabled": 0, "lat": 38.82869183333333, "bike_id": "389ab8821122d94c1511590bb24114a4", "name": "389ab8821122d94c1511590bb24114a4", "is_reserved": 0, "fusion_lat": 0.0}, {"type": "electric_scooter", "rental_uris": {"ios": "https://dc.lft.to/lastmile_qr_scan", "android": "https://dc.lft.to/lastmile_qr_scan"}, "lon": -77.044515, "fusion_lon": 0.0, "is_disabled": 0, "lat": 38.9301615, "bike_id": "378e73b91317af43a94ed35ac906f821", "name": "378e73b91317af43a94ed35ac906f821", "is_reserved": 0, "fusion_lat": 0.0}, {"type": "electric_scooter", "rental_uris": {"ios": "https://dc.lft.to/lastmile_qr_scan", "android": "https://dc.lft.to/lastmile_qr_scan"}, "lon": -77.06407033333333, "fusion_lon": 0.0, "is_disabled": 0, "lat": 38.94434, "bike_id": "452663e7e6533eca5b90af18a38ef841", "name": "452663e7e6533eca5b90af18a38ef841", "is_reserved": 0, "fusion_lat": 0.0}, {"type": "electric_scooter", "rental_uris": {"ios": "https://dc.lft.to/lastmile_qr_scan", "android": "https://dc.lft.to/lastmile_qr_scan"}, "lon": -77.03162433333334, "fusion_lon": 0.0, "is_disabled": 0, "lat": 38.89222766666666, "bike_id": "6f8687dfcbf17ef7aae3c5d3d2e9ea39", "name": "6f8687dfcbf17ef7aae3c5d3d2e9ea39", "is_reserved": 0, "fusion_lat": 0.0}, {"type": "electric_scooter", "rental_uris": {"ios": "https://dc.lft.to/lastmile_qr_scan", "android": "https://dc.lft.to/lastmile_qr_scan"}, "lon": -76.9317855, "fusion_lon": 0.0, "is_disabled": 0, "lat": 38.89881066666667, "bike_id": "7d56ba5e408d15153dab08568b3505eb", "name": "7d56ba5e408d15153dab08568b3505eb", "is_reserved": 0, "fusion_lat": 0.0}, {"type": "electric_scooter", "rental_uris": {"ios": "https://dc.lft.to/lastmile_qr_scan", "android": "https://dc.lft.to/lastmile_qr_scan"}, "lon": -77.03692716666667, "fusion_lon": 0.0, "is_disabled": 0, "lat": 38.9306215, "bike_id": "d39210361886e8690ad796cd5c24a405", "name": "d39210361886e8690ad796cd5c24a405", "is_reserved": 0, "fusion_lat": 0.0}, {"type": "electric_bike", "rental_uris": {"ios": "https://dc.lft.to/lastmile_qr_scan", "android": "https://dc.lft.to/lastmile_qr_scan"}, "lon": -76.90135966666666, "fusion_lon": 0.0, "is_disabled": 0, "lat": 39.004792, "bike_id": "c5ba8dd23a27ffcbc34268092c8576e1", "name": "c5ba8dd23a27ffcbc34268092c8576e1", "is_reserved": 0, "fusion_lat": 0.0}, {"type": "electric_scooter", "rental_uris": {"ios": "https://dc.lft.to/lastmile_qr_scan", "android": "https://dc.lft.to/lastmile_qr_scan"}, "lon": -77.03162916666666, "fusion_lon": 0.0, "is_disabled": 0, "lat": 38.89219033333333, "bike_id": "dc913b645fda096ea39d1fc6cefc0177", "name": "dc913b645fda096ea39d1fc6cefc0177", "is_reserved": 0, "fusion_lat": 0.0}, {"type": "electric_scooter", "rental_uris": {"ios": "https://dc.lft.to/lastmile_qr_scan", "android": "https://dc.lft.to/lastmile_qr_scan"}, "lon": -77.07296716666667, "fusion_lon": 0.0, "is_disabled": 0, "lat": 38.921494, "bike_id": "f9dc6284149d8468cbdccde3f2ae2e5d", "name": "f9dc6284149d8468cbdccde3f2ae2e5d", "is_reserved": 0, "fusion_lat": 0.0}, {"type": "electric_scooter", "rental_uris": {"ios": "https://dc.lft.to/lastmile_qr_scan", "android": "https://dc.lft.to/lastmile_qr_scan"}, "lon": -77.04884283333334, "fusion_lon": 0.0, "is_disabled": 0, "lat": 38.91336583333333, "bike_id": "b1d4de68ab08c1d628269aca32a77512", "name": "b1d4de68ab08c1d628269aca32a77512", "is_reserved": 0, "fusion_lat": 0.0}, {"type": "electric_bike", "rental_uris": {"ios": "https://dc.lft.to/lastmile_qr_scan", "android": "https://dc.lft.to/lastmile_qr_scan"}, "lon": -77.09483166666666, "fusion_lon": 0.0, "is_disabled": 0, "lat": 39.030457166666665, "bike_id": "6b6dba75cd338f11d1c445cef614abb0", "name": "6b6dba75cd338f11d1c445cef614abb0", "is_reserved": 0, "fusion_lat": 0.0}, {"type": "electric_scooter", "rental_uris": {"ios": "https://dc.lft.to/lastmile_qr_scan", "android": "https://dc.lft.to/lastmile_qr_scan"}, "lon": -77.04744066666666, "fusion_lon": 0.0, "is_disabled": 0, "lat": 38.9020995, "bike_id": "30b76ac9a04141531d5bf0be9378bba9", "name": "30b76ac9a04141531d5bf0be9378bba9", "is_reserved": 0, "fusion_lat": 0.0}, {"type": "electric_scooter", "rental_uris": {"ios": "https://dc.lft.to/lastmile_qr_scan", "android": "https://dc.lft.to/lastmile_qr_scan"}, "lon": -77.04462116666667, "fusion_lon": 0.0, "is_disabled": 0, "lat": 38.91117033333333, "bike_id": "49d9100d7a8edd564c37350930814c76", "name": "49d9100d7a8edd564c37350930814c76", "is_reserved": 0, "fusion_lat": 0.0}, {"type": "electric_scooter", "rental_uris": {"ios": "https://dc.lft.to/lastmile_qr_scan", "android": "https://dc.lft.to/lastmile_qr_scan"}, "lon": -76.97243116666667, "fusion_lon": 0.0, "is_disabled": 0, "lat": 38.85453583333334, "bike_id": "5c627ab1357a50d47ea858d1599104c0", "name": "5c627ab1357a50d47ea858d1599104c0", "is_reserved": 0, "fusion_lat": 0.0}, {"type": "electric_scooter", "rental_uris": {"ios": "https://dc.lft.to/lastmile_qr_scan", "android": "https://dc.lft.to/lastmile_qr_scan"}, "lon": -77.050296, "fusion_lon": 0.0, "is_disabled": 0, "lat": 38.903112666666665, "bike_id": "3d836bd48615b5cdd75d749a3956958f", "name": "3d836bd48615b5cdd75d749a3956958f", "is_reserved": 0, "fusion_lat": 0.0}, {"type": "electric_scooter", "rental_uris": {"ios": "https://dc.lft.to/lastmile_qr_scan", "android": "https://dc.lft.to/lastmile_qr_scan"}, "lon": -76.97328, "fusion_lon": 0.0, "is_disabled": 0, "lat": 38.904070833333336, "bike_id": "b7519eeda84f236a269d4aae2886611d", "name": "b7519eeda84f236a269d4aae2886611d", "is_reserved": 0, "fusion_lat": 0.0}, {"type": "electric_scooter", "rental_uris": {"ios": "https://dc.lft.to/lastmile_qr_scan", "android": "https://dc.lft.to/lastmile_qr_scan"}, "lon": -77.0006355, "fusion_lon": 0.0, "is_disabled": 0, "lat": 38.905683333333336, "bike_id": "627eff8b2cbc503a6b11621112572989", "name": "627eff8b2cbc503a6b11621112572989", "is_reserved": 0, "fusion_lat": 0.0}, {"type": "electric_scooter", "rental_uris": {"ios": "https://dc.lft.to/lastmile_qr_scan", "android": "https://dc.lft.to/lastmile_qr_scan"}, "lon": -77.04041833333333, "fusion_lon": 0.0, "is_disabled": 0, "lat": 38.9040435, "bike_id": "70c8f7832321962f3634a0979c39aa9f", "name": "70c8f7832321962f3634a0979c39aa9f", "is_reserved": 0, "fusion_lat": 0.0}, {"type": "electric_scooter", "rental_uris": {"ios": "https://dc.lft.to/lastmile_qr_scan", "android": "https://dc.lft.to/lastmile_qr_scan"}, "lon": -77.04362283333333, "fusion_lon": 0.0, "is_disabled": 0, "lat": 38.90226066666666, "bike_id": "454fa982404032e89bfa0e8cc190780d", "name": "454fa982404032e89bfa0e8cc190780d", "is_reserved": 0, "fusion_lat": 0.0}, {"type": "electric_scooter", "rental_uris": {"ios": "https://dc.lft.to/lastmile_qr_scan", "android": "https://dc.lft.to/lastmile_qr_scan"}, "lon": -77.00680033333333, "fusion_lon": 0.0, "is_disabled": 0, "lat": 38.88511416666667, "bike_id": "9028a68b80ffad80a77232dc57e1606e", "name": "9028a68b80ffad80a77232dc57e1606e", "is_reserved": 0, "fusion_lat": 0.0}, {"type": "electric_scooter", "rental_uris": {"ios": "https://dc.lft.to/lastmile_qr_scan", "android": "https://dc.lft.to/lastmile_qr_scan"}, "lon": -77.02097016666667, "fusion_lon": 0.0, "is_disabled": 0, "lat": 38.87571666666667, "bike_id": "088b9d70562db25d06af1005bdf92845", "name": "088b9d70562db25d06af1005bdf92845", "is_reserved": 0, "fusion_lat": 0.0}, {"type": "electric_scooter", "rental_uris": {"ios": "https://dc.lft.to/lastmile_qr_scan", "android": "https://dc.lft.to/lastmile_qr_scan"}, "lon": -77.036454, "fusion_lon": 0.0, "is_disabled": 0, "lat": 38.9176065, "bike_id": "57f397cade453669a0964f27ef1559f6", "name": "57f397cade453669a0964f27ef1559f6", "is_reserved": 0, "fusion_lat": 0.0}, {"type": "electric_scooter", "rental_uris": {"ios": "https://dc.lft.to/lastmile_qr_scan", "android": "https://dc.lft.to/lastmile_qr_scan"}, "lon": -77.03092933333333, "fusion_lon": 0.0, "is_disabled": 0, "lat": 38.898255, "bike_id": "49b65f99a35a8c9e9a3f14ab6c6bff5e", "name": "49b65f99a35a8c9e9a3f14ab6c6bff5e", "is_reserved": 0, "fusion_lat": 0.0}, {"type": "electric_bike", "rental_uris": {"ios": "https://dc.lft.to/lastmile_qr_scan", "android": "https://dc.lft.to/lastmile_qr_scan"}, "lon": -77.12527966666667, "fusion_lon": 0.0, "is_disabled": 0, "lat": 39.05636066666667, "bike_id": "99cb84e63520373aaf7fe886706946d1", "name": "99cb84e63520373aaf7fe886706946d1", "is_reserved": 0, "fusion_lat": 0.0}, {"type": "electric_scooter", "rental_uris": {"ios": "https://dc.lft.to/lastmile_qr_scan", "android": "https://dc.lft.to/lastmile_qr_scan"}, "lon": -77.03793133333333, "fusion_lon": 0.0, "is_disabled": 0, "lat": 38.91119, "bike_id": "9d33385a5600fcdf2a88f32e8f8b42ef", "name": "9d33385a5600fcdf2a88f32e8f8b42ef", "is_reserved": 0, "fusion_lat": 0.0}, {"type": "electric_scooter", "rental_uris": {"ios": "https://dc.lft.to/lastmile_qr_scan", "android": "https://dc.lft.to/lastmile_qr_scan"}, "lon": -77.03439266666666, "fusion_lon": 0.0, "is_disabled": 0, "lat": 38.91795716666667, "bike_id": "99bdbcb53d67f1993b72f371698ef4a4", "name": "99bdbcb53d67f1993b72f371698ef4a4", "is_reserved": 0, "fusion_lat": 0.0}, {"type": "electric_scooter", "rental_uris": {"ios": "https://dc.lft.to/lastmile_qr_scan", "android": "https://dc.lft.to/lastmile_qr_scan"}, "lon": -77.01175433333333, "fusion_lon": 0.0, "is_disabled": 0, "lat": 38.915653166666665, "bike_id": "dd6b51cb07ab6b22fcd53ed07c0f314c", "name": "dd6b51cb07ab6b22fcd53ed07c0f314c", "is_reserved": 0, "fusion_lat": 0.0}, {"type": "electric_scooter", "rental_uris": {"ios": "https://dc.lft.to/lastmile_qr_scan", "android": "https://dc.lft.to/lastmile_qr_scan"}, "lon": -76.94652616666667, "fusion_lon": 0.0, "is_disabled": 0, "lat": 38.89823483333333, "bike_id": "7f0266b5762fcd7371663db2fe4dac03", "name": "7f0266b5762fcd7371663db2fe4dac03", "is_reserved": 0, "fusion_lat": 0.0}, {"type": "electric_scooter", "rental_uris": {"ios": "https://dc.lft.to/lastmile_qr_scan", "android": "https://dc.lft.to/lastmile_qr_scan"}, "lon": -77.043692, "fusion_lon": 0.0, "is_disabled": 0, "lat": 38.902866833333334, "bike_id": "08b534b76a7928ceecbe975a67446eb3", "name": "08b534b76a7928ceecbe975a67446eb3", "is_reserved": 0, "fusion_lat": 0.0}, {"type": "electric_scooter", "rental_uris": {"ios": "https://dc.lft.to/lastmile_qr_scan", "android": "https://dc.lft.to/lastmile_qr_scan"}, "lon": -77.01535566666666, "fusion_lon": 0.0, "is_disabled": 0, "lat": 38.887374, "bike_id": "0510784e26ca40a5c46d9901d301627c", "name": "0510784e26ca40a5c46d9901d301627c", "is_reserved": 0, "fusion_lat": 0.0}, {"type": "electric_scooter", "rental_uris": {"ios": "https://dc.lft.to/lastmile_qr_scan", "android": "https://dc.lft.to/lastmile_qr_scan"}, "lon": -77.04569983333333, "fusion_lon": 0.0, "is_disabled": 0, "lat": 38.919417833333334, "bike_id": "8694b83e7471ea278718f040edac6962", "name": "8694b83e7471ea278718f040edac6962", "is_reserved": 0, "fusion_lat": 0.0}, {"type": "electric_scooter", "rental_uris": {"ios": "https://dc.lft.to/lastmile_qr_scan", "android": "https://dc.lft.to/lastmile_qr_scan"}, "lon": -77.03169916666667, "fusion_lon": 0.0, "is_disabled": 0, "lat": 38.918698666666664, "bike_id": "483e9736c63e205c6c550c2080528391", "name": "483e9736c63e205c6c550c2080528391", "is_reserved": 0, "fusion_lat": 0.0}, {"type": "electric_scooter", "rental_uris": {"ios": "https://dc.lft.to/lastmile_qr_scan", "android": "https://dc.lft.to/lastmile_qr_scan"}, "lon": -77.02225816666666, "fusion_lon": 0.0, "is_disabled": 0, "lat": 38.892164333333334, "bike_id": "1e1b023c55c02394fe3e127644e99fe0", "name": "1e1b023c55c02394fe3e127644e99fe0", "is_reserved": 0, "fusion_lat": 0.0}, {"type": "electric_scooter", "rental_uris": {"ios": "https://dc.lft.to/lastmile_qr_scan", "android": "https://dc.lft.to/lastmile_qr_scan"}, "lon": -76.98541416666667, "fusion_lon": 0.0, "is_disabled": 0, "lat": 38.866773, "bike_id": "bbf6cb1bdae1f58e680ddaad7fad8a57", "name": "bbf6cb1bdae1f58e680ddaad7fad8a57", "is_reserved": 0, "fusion_lat": 0.0}, {"type": "electric_scooter", "rental_uris": {"ios": "https://dc.lft.to/lastmile_qr_scan", "android": "https://dc.lft.to/lastmile_qr_scan"}, "lon": -76.93174083333334, "fusion_lon": 0.0, "is_disabled": 0, "lat": 38.898815666666664, "bike_id": "925407502667a76457fafb3525634e84", "name": "925407502667a76457fafb3525634e84", "is_reserved": 0, "fusion_lat": 0.0}, {"type": "electric_scooter", "rental_uris": {"ios": "https://dc.lft.to/lastmile_qr_scan", "android": "https://dc.lft.to/lastmile_qr_scan"}, "lon": -77.0211535, "fusion_lon": 0.0, "is_disabled": 0, "lat": 38.909364333333336, "bike_id": "7865fec56e1d319fb6ec22841ba5067c", "name": "7865fec56e1d319fb6ec22841ba5067c", "is_reserved": 0, "fusion_lat": 0.0}, {"type": "electric_scooter", "rental_uris": {"ios": "https://dc.lft.to/lastmile_qr_scan", "android": "https://dc.lft.to/lastmile_qr_scan"}, "lon": -77.028766, "fusion_lon": 0.0, "is_disabled": 0, "lat": 38.928192833333334, "bike_id": "98e4525dc3c619bad4bf48bcc5e67328", "name": "98e4525dc3c619bad4bf48bcc5e67328", "is_reserved": 0, "fusion_lat": 0.0}, {"type": "electric_scooter", "rental_uris": {"ios": "https://dc.lft.to/lastmile_qr_scan", "android": "https://dc.lft.to/lastmile_qr_scan"}, "lon": -77.02721116666666, "fusion_lon": 0.0, "is_disabled": 0, "lat": 38.9170415, "bike_id": "4fa08558f561dc43061559179c16cc75", "name": "4fa08558f561dc43061559179c16cc75", "is_reserved": 0, "fusion_lat": 0.0}, {"type": "electric_scooter", "rental_uris": {"ios": "https://dc.lft.to/lastmile_qr_scan", "android": "https://dc.lft.to/lastmile_qr_scan"}, "lon": -77.03100383333333, "fusion_lon": 0.0, "is_disabled": 0, "lat": 38.9285925, "bike_id": "03416dc671134542a595aaa50e9fa9f5", "name": "03416dc671134542a595aaa50e9fa9f5", "is_reserved": 0, "fusion_lat": 0.0}, {"type": "electric_scooter", "rental_uris": {"ios": "https://dc.lft.to/lastmile_qr_scan", "android": "https://dc.lft.to/lastmile_qr_scan"}, "lon": -76.99882683333334, "fusion_lon": 0.0, "is_disabled": 0, "lat": 38.90750766666667, "bike_id": "b0d468cc1531eb4eb74c60f41980eb94", "name": "b0d468cc1531eb4eb74c60f41980eb94", "is_reserved": 0, "fusion_lat": 0.0}, {"type": "electric_scooter", "rental_uris": {"ios": "https://dc.lft.to/lastmile_qr_scan", "android": "https://dc.lft.to/lastmile_qr_scan"}, "lon": -77.03843883333333, "fusion_lon": 0.0, "is_disabled": 0, "lat": 38.915419, "bike_id": "283cf6e21256ab64c7fbb426285c2685", "name": "283cf6e21256ab64c7fbb426285c2685", "is_reserved": 0, "fusion_lat": 0.0}, {"type": "electric_scooter", "rental_uris": {"ios": "https://dc.lft.to/lastmile_qr_scan", "android": "https://dc.lft.to/lastmile_qr_scan"}, "lon": -77.04003766666666, "fusion_lon": 0.0, "is_disabled": 0, "lat": 38.900479833333335, "bike_id": "64d8c708b185ebf4d425aae06b328892", "name": "64d8c708b185ebf4d425aae06b328892", "is_reserved": 0, "fusion_lat": 0.0}, {"type": "electric_scooter", "rental_uris": {"ios": "https://dc.lft.to/lastmile_qr_scan", "android": "https://dc.lft.to/lastmile_qr_scan"}, "lon": -77.00840966666667, "fusion_lon": 0.0, "is_disabled": 0, "lat": 38.8706385, "bike_id": "5aa260b19c7772b481d2cc488dd92462", "name": "5aa260b19c7772b481d2cc488dd92462", "is_reserved": 0, "fusion_lat": 0.0}, {"type": "electric_scooter", "rental_uris": {"ios": "https://dc.lft.to/lastmile_qr_scan", "android": "https://dc.lft.to/lastmile_qr_scan"}, "lon": -77.04871316666667, "fusion_lon": 0.0, "is_disabled": 0, "lat": 38.89223066666667, "bike_id": "00dd1ee5711d2ac75502cb81f6ada706", "name": "00dd1ee5711d2ac75502cb81f6ada706", "is_reserved": 0, "fusion_lat": 0.0}, {"type": "electric_scooter", "rental_uris": {"ios": "https://dc.lft.to/lastmile_qr_scan", "android": "https://dc.lft.to/lastmile_qr_scan"}, "lon": -77.05937516666667, "fusion_lon": 0.0, "is_disabled": 0, "lat": 38.942986166666664, "bike_id": "30c341e4fe51c77c22c8ef2f4e1773a6", "name": "30c341e4fe51c77c22c8ef2f4e1773a6", "is_reserved": 0, "fusion_lat": 0.0}, {"type": "electric_scooter", "rental_uris": {"ios": "https://dc.lft.to/lastmile_qr_scan", "android": "https://dc.lft.to/lastmile_qr_scan"}, "lon": -77.02369583333333, "fusion_lon": 0.0, "is_disabled": 0, "lat": 38.892180833333335, "bike_id": "3a950087c7b57b14f848b5865124de1b", "name": "3a950087c7b57b14f848b5865124de1b", "is_reserved": 0, "fusion_lat": 0.0}, {"type": "electric_bike", "rental_uris": {"ios": "https://dc.lft.to/lastmile_qr_scan", "android": "https://dc.lft.to/lastmile_qr_scan"}, "lon": -76.997793, "fusion_lon": 0.0, "is_disabled": 0, "lat": 38.86208666666667, "bike_id": "b4c5d87a705d6194e1bbb91d9c8b3783", "name": "b4c5d87a705d6194e1bbb91d9c8b3783", "is_reserved": 0, "fusion_lat": 0.0}, {"type": "electric_bike", "rental_uris": {"ios": "https://dc.lft.to/lastmile_qr_scan", "android": "https://dc.lft.to/lastmile_qr_scan"}, "lon": -76.947931, "fusion_lon": 0.0, "is_disabled": 0, "lat": 38.89400466666667, "bike_id": "5b3ce280ffaf577202de3ce9dfba31f8", "name": "5b3ce280ffaf577202de3ce9dfba31f8", "is_reserved": 0, "fusion_lat": 0.0}, {"type": "electric_scooter", "rental_uris": {"ios": "https://dc.lft.to/lastmile_qr_scan", "android": "https://dc.lft.to/lastmile_qr_scan"}, "lon": -76.9541375, "fusion_lon": 0.0, "is_disabled": 0, "lat": 38.89065433333333, "bike_id": "9543d4c9c7e16f1e42700445bdcd540c", "name": "9543d4c9c7e16f1e42700445bdcd540c", "is_reserved": 0, "fusion_lat": 0.0}, {"type": "electric_bike", "rental_uris": {"ios": "https://dc.lft.to/lastmile_qr_scan", "android": "https://dc.lft.to/lastmile_qr_scan"}, "lon": -76.97832216666667, "fusion_lon": 0.0, "is_disabled": 0, "lat": 38.8707245, "bike_id": "1457cc70034e6c57f7699f64c2d4e85a", "name": "1457cc70034e6c57f7699f64c2d4e85a", "is_reserved": 0, "fusion_lat": 0.0}, {"type": "electric_scooter", "rental_uris": {"ios": "https://dc.lft.to/lastmile_qr_scan", "android": "https://dc.lft.to/lastmile_qr_scan"}, "lon": -77.03428616666666, "fusion_lon": 0.0, "is_disabled": 0, "lat": 38.907273333333336, "bike_id": "0599c9289f238218155fd37c85c6e321", "name": "0599c9289f238218155fd37c85c6e321", "is_reserved": 0, "fusion_lat": 0.0}, {"type": "electric_scooter", "rental_uris": {"ios": "https://dc.lft.to/lastmile_qr_scan", "android": "https://dc.lft.to/lastmile_qr_scan"}, "lon": -77.038056, "fusion_lon": 0.0, "is_disabled": 0, "lat": 38.90672566666667, "bike_id": "9d037803924a0af415093db092427ffd", "name": "9d037803924a0af415093db092427ffd", "is_reserved": 0, "fusion_lat": 0.0}, {"type": "electric_scooter", "rental_uris": {"ios": "https://dc.lft.to/lastmile_qr_scan", "android": "https://dc.lft.to/lastmile_qr_scan"}, "lon": -77.01433583333333, "fusion_lon": 0.0, "is_disabled": 0, "lat": 38.914584166666664, "bike_id": "84fd9916bed3810924b0b7bdcee307ff", "name": "84fd9916bed3810924b0b7bdcee307ff", "is_reserved": 0, "fusion_lat": 0.0}, {"type": "electric_bike", "rental_uris": {"ios": "https://dc.lft.to/lastmile_qr_scan", "android": "https://dc.lft.to/lastmile_qr_scan"}, "lon": -76.99017966666666, "fusion_lon": 0.0, "is_disabled": 0, "lat": 38.954765333333334, "bike_id": "50e032c7b653c1bd9bfa86b5a1845ad8", "name": "50e032c7b653c1bd9bfa86b5a1845ad8", "is_reserved": 0, "fusion_lat": 0.0}, {"type": "electric_scooter", "rental_uris": {"ios": "https://dc.lft.to/lastmile_qr_scan", "android": "https://dc.lft.to/lastmile_qr_scan"}, "lon": -77.02226233333333, "fusion_lon": 0.0, "is_disabled": 0, "lat": 38.91257433333333, "bike_id": "dceab25da9a6693c96ca1552375008c4", "name": "dceab25da9a6693c96ca1552375008c4", "is_reserved": 0, "fusion_lat": 0.0}, {"type": "electric_scooter", "rental_uris": {"ios": "https://dc.lft.to/lastmile_qr_scan", "android": "https://dc.lft.to/lastmile_qr_scan"}, "lon": -77.03967616666667, "fusion_lon": 0.0, "is_disabled": 0, "lat": 38.89633166666667, "bike_id": "ab1b28508e82433c13f0208b8aae2f88", "name": "ab1b28508e82433c13f0208b8aae2f88", "is_reserved": 0, "fusion_lat": 0.0}, {"type": "electric_bike", "rental_uris": {"ios": "https://dc.lft.to/lastmile_qr_scan", "android": "https://dc.lft.to/lastmile_qr_scan"}, "lon": -76.9626135, "fusion_lon": 0.0, "is_disabled": 0, "lat": 38.882445, "bike_id": "0474fab6b09ff5c9f29debde966f52c2", "name": "0474fab6b09ff5c9f29debde966f52c2", "is_reserved": 0, "fusion_lat": 0.0}, {"type": "electric_scooter", "rental_uris": {"ios": "https://dc.lft.to/lastmile_qr_scan", "android": "https://dc.lft.to/lastmile_qr_scan"}, "lon": -77.02963133333333, "fusion_lon": 0.0, "is_disabled": 0, "lat": 38.9258825, "bike_id": "e08d694f52c66b77971a7f5df1d72ebc", "name": "e08d694f52c66b77971a7f5df1d72ebc", "is_reserved": 0, "fusion_lat": 0.0}, {"type": "electric_scooter", "rental_uris": {"ios": "https://dc.lft.to/lastmile_qr_scan", "android": "https://dc.lft.to/lastmile_qr_scan"}, "lon": -76.98700183333334, "fusion_lon": 0.0, "is_disabled": 0, "lat": 38.90699633333333, "bike_id": "7894251ade526785e1461ed2afbb68c2", "name": "7894251ade526785e1461ed2afbb68c2", "is_reserved": 0, "fusion_lat": 0.0}, {"type": "electric_scooter", "rental_uris": {"ios": "https://dc.lft.to/lastmile_qr_scan", "android": "https://dc.lft.to/lastmile_qr_scan"}, "lon": -77.04392016666667, "fusion_lon": 0.0, "is_disabled": 0, "lat": 38.910738333333335, "bike_id": "3956430f7cd5e1f6fde41d4012a92a64", "name": "3956430f7cd5e1f6fde41d4012a92a64", "is_reserved": 0, "fusion_lat": 0.0}, {"type": "electric_scooter", "rental_uris": {"ios": "https://dc.lft.to/lastmile_qr_scan", "android": "https://dc.lft.to/lastmile_qr_scan"}, "lon": -77.02402666666667, "fusion_lon": 0.0, "is_disabled": 0, "lat": 38.897363, "bike_id": "428534dfe687c6984ae474627cb5b1fd", "name": "428534dfe687c6984ae474627cb5b1fd", "is_reserved": 0, "fusion_lat": 0.0}, {"type": "electric_scooter", "rental_uris": {"ios": "https://dc.lft.to/lastmile_qr_scan", "android": "https://dc.lft.to/lastmile_qr_scan"}, "lon": -76.9990455, "fusion_lon": 0.0, "is_disabled": 0, "lat": 38.90752233333333, "bike_id": "f96c272d047d97f5fdf8d596049d1fcf", "name": "f96c272d047d97f5fdf8d596049d1fcf", "is_reserved": 0, "fusion_lat": 0.0}, {"type": "electric_scooter", "rental_uris": {"ios": "https://dc.lft.to/lastmile_qr_scan", "android": "https://dc.lft.to/lastmile_qr_scan"}, "lon": -77.00088683333334, "fusion_lon": 0.0, "is_disabled": 0, "lat": 38.9123905, "bike_id": "e938f129b13285b2b0f913393c1702e6", "name": "e938f129b13285b2b0f913393c1702e6", "is_reserved": 0, "fusion_lat": 0.0}, {"type": "electric_scooter", "rental_uris": {"ios": "https://dc.lft.to/lastmile_qr_scan", "android": "https://dc.lft.to/lastmile_qr_scan"}, "lon": -77.03855216666666, "fusion_lon": 0.0, "is_disabled": 0, "lat": 38.932322166666665, "bike_id": "64c508f08d4f909ee75b1f97a2048774", "name": "64c508f08d4f909ee75b1f97a2048774", "is_reserved": 0, "fusion_lat": 0.0}, {"type": "electric_scooter", "rental_uris": {"ios": "https://dc.lft.to/lastmile_qr_scan", "android": "https://dc.lft.to/lastmile_qr_scan"}, "lon": -77.06249816666667, "fusion_lon": 0.0, "is_disabled": 0, "lat": 38.94423033333333, "bike_id": "86f838ca3f69ac310479ed85f29ff34b", "name": "86f838ca3f69ac310479ed85f29ff34b", "is_reserved": 0, "fusion_lat": 0.0}, {"type": "electric_scooter", "rental_uris": {"ios": "https://dc.lft.to/lastmile_qr_scan", "android": "https://dc.lft.to/lastmile_qr_scan"}, "lon": -77.03067383333334, "fusion_lon": 0.0, "is_disabled": 0, "lat": 38.905719833333336, "bike_id": "a335928891330337383bf4c7d7a6e124", "name": "a335928891330337383bf4c7d7a6e124", "is_reserved": 0, "fusion_lat": 0.0}, {"type": "electric_scooter", "rental_uris": {"ios": "https://dc.lft.to/lastmile_qr_scan", "android": "https://dc.lft.to/lastmile_qr_scan"}, "lon": -77.03330433333333, "fusion_lon": 0.0, "is_disabled": 0, "lat": 38.916962833333336, "bike_id": "fe724d503359bfcdb8fd26288e24bcc1", "name": "fe724d503359bfcdb8fd26288e24bcc1", "is_reserved": 0, "fusion_lat": 0.0}, {"type": "electric_scooter", "rental_uris": {"ios": "https://dc.lft.to/lastmile_qr_scan", "android": "https://dc.lft.to/lastmile_qr_scan"}, "lon": -77.02493616666666, "fusion_lon": 0.0, "is_disabled": 0, "lat": 38.930871333333336, "bike_id": "c0c40c99c3366d6cf0e6cc9df9dc0feb", "name": "c0c40c99c3366d6cf0e6cc9df9dc0feb", "is_reserved": 0, "fusion_lat": 0.0}, {"type": "electric_scooter", "rental_uris": {"ios": "https://dc.lft.to/lastmile_qr_scan", "android": "https://dc.lft.to/lastmile_qr_scan"}, "lon": -77.0269805, "fusion_lon": 0.0, "is_disabled": 0, "lat": 38.90678616666667, "bike_id": "8e7e787355bac3a29f05dea527f64cd9", "name": "8e7e787355bac3a29f05dea527f64cd9", "is_reserved": 0, "fusion_lat": 0.0}, {"type": "electric_scooter", "rental_uris": {"ios": "https://dc.lft.to/lastmile_qr_scan", "android": "https://dc.lft.to/lastmile_qr_scan"}, "lon": -77.02972883333334, "fusion_lon": 0.0, "is_disabled": 0, "lat": 38.916839333333336, "bike_id": "67ab43ffbfa970a14e688a912b0b4608", "name": "67ab43ffbfa970a14e688a912b0b4608", "is_reserved": 0, "fusion_lat": 0.0}, {"type": "electric_scooter", "rental_uris": {"ios": "https://dc.lft.to/lastmile_qr_scan", "android": "https://dc.lft.to/lastmile_qr_scan"}, "lon": -77.01224, "fusion_lon": 0.0, "is_disabled": 0, "lat": 38.919713333333334, "bike_id": "e2fc4eb70022217d17b69bf7c53a5bd9", "name": "e2fc4eb70022217d17b69bf7c53a5bd9", "is_reserved": 0, "fusion_lat": 0.0}, {"type": "electric_scooter", "rental_uris": {"ios": "https://dc.lft.to/lastmile_qr_scan", "android": "https://dc.lft.to/lastmile_qr_scan"}, "lon": -77.0326975, "fusion_lon": 0.0, "is_disabled": 0, "lat": 38.9339775, "bike_id": "e112e9fba4fc008c27a9a86e69f5c4ca", "name": "e112e9fba4fc008c27a9a86e69f5c4ca", "is_reserved": 0, "fusion_lat": 0.0}, {"type": "electric_scooter", "rental_uris": {"ios": "https://dc.lft.to/lastmile_qr_scan", "android": "https://dc.lft.to/lastmile_qr_scan"}, "lon": -77.00209966666667, "fusion_lon": 0.0, "is_disabled": 0, "lat": 38.89496316666666, "bike_id": "2a5231d478b7fe39dab3ef004c7d030c", "name": "2a5231d478b7fe39dab3ef004c7d030c", "is_reserved": 0, "fusion_lat": 0.0}, {"type": "electric_scooter", "rental_uris": {"ios": "https://dc.lft.to/lastmile_qr_scan", "android": "https://dc.lft.to/lastmile_qr_scan"}, "lon": -77.03449716666667, "fusion_lon": 0.0, "is_disabled": 0, "lat": 38.93748333333333, "bike_id": "33c704439073a17e6347a2c05089a36c", "name": "33c704439073a17e6347a2c05089a36c", "is_reserved": 0, "fusion_lat": 0.0}, {"type": "electric_bike", "rental_uris": {"ios": "https://dc.lft.to/lastmile_qr_scan", "android": "https://dc.lft.to/lastmile_qr_scan"}, "lon": -77.002169, "fusion_lon": 0.0, "is_disabled": 0, "lat": 38.92848883333333, "bike_id": "853bbfd780b508a186d1ed5781e340e2", "name": "853bbfd780b508a186d1ed5781e340e2", "is_reserved": 0, "fusion_lat": 0.0}, {"type": "electric_scooter", "rental_uris": {"ios": "https://dc.lft.to/lastmile_qr_scan", "android": "https://dc.lft.to/lastmile_qr_scan"}, "lon": -77.03148083333333, "fusion_lon": 0.0, "is_disabled": 0, "lat": 38.887350833333336, "bike_id": "dd53f777fc191085f8fb47af7349461f", "name": "dd53f777fc191085f8fb47af7349461f", "is_reserved": 0, "fusion_lat": 0.0}, {"type": "electric_scooter", "rental_uris": {"ios": "https://dc.lft.to/lastmile_qr_scan", "android": "https://dc.lft.to/lastmile_qr_scan"}, "lon": -77.04432416666667, "fusion_lon": 0.0, "is_disabled": 0, "lat": 38.91102516666667, "bike_id": "120f0105fdc443d7001c1d5f59329363", "name": "120f0105fdc443d7001c1d5f59329363", "is_reserved": 0, "fusion_lat": 0.0}, {"type": "electric_scooter", "rental_uris": {"ios": "https://dc.lft.to/lastmile_qr_scan", "android": "https://dc.lft.to/lastmile_qr_scan"}, "lon": -76.99089166666667, "fusion_lon": 0.0, "is_disabled": 0, "lat": 38.92952533333333, "bike_id": "c2119002c746e34389d854cae6de8cac", "name": "c2119002c746e34389d854cae6de8cac", "is_reserved": 0, "fusion_lat": 0.0}, {"type": "electric_scooter", "rental_uris": {"ios": "https://dc.lft.to/lastmile_qr_scan", "android": "https://dc.lft.to/lastmile_qr_scan"}, "lon": -76.95849316666667, "fusion_lon": 0.0, "is_disabled": 0, "lat": 38.892824, "bike_id": "ef6b8b3d19b7ea0e67c554654014abb3", "name": "ef6b8b3d19b7ea0e67c554654014abb3", "is_reserved": 0, "fusion_lat": 0.0}, {"type": "electric_scooter", "rental_uris": {"ios": "https://dc.lft.to/lastmile_qr_scan", "android": "https://dc.lft.to/lastmile_qr_scan"}, "lon": -77.02212283333333, "fusion_lon": 0.0, "is_disabled": 0, "lat": 38.898542166666665, "bike_id": "ff5dfd9f40977e73e009b93d6f66c2b4", "name": "ff5dfd9f40977e73e009b93d6f66c2b4", "is_reserved": 0, "fusion_lat": 0.0}, {"type": "electric_scooter", "rental_uris": {"ios": "https://dc.lft.to/lastmile_qr_scan", "android": "https://dc.lft.to/lastmile_qr_scan"}, "lon": -76.94635866666667, "fusion_lon": 0.0, "is_disabled": 0, "lat": 38.89842433333333, "bike_id": "779d8831810e6e4554c4764380a37f33", "name": "779d8831810e6e4554c4764380a37f33", "is_reserved": 0, "fusion_lat": 0.0}, {"type": "electric_scooter", "rental_uris": {"ios": "https://dc.lft.to/lastmile_qr_scan", "android": "https://dc.lft.to/lastmile_qr_scan"}, "lon": -77.0070135, "fusion_lon": 0.0, "is_disabled": 0, "lat": 38.90575916666667, "bike_id": "9e95a6bfbdc9ddd362227defeb039c9d", "name": "9e95a6bfbdc9ddd362227defeb039c9d", "is_reserved": 0, "fusion_lat": 0.0}, {"type": "electric_scooter", "rental_uris": {"ios": "https://dc.lft.to/lastmile_qr_scan", "android": "https://dc.lft.to/lastmile_qr_scan"}, "lon": -76.996052, "fusion_lon": 0.0, "is_disabled": 0, "lat": 38.909648833333335, "bike_id": "90511bdc0a83a5eaa674fb634a239dfe", "name": "90511bdc0a83a5eaa674fb634a239dfe", "is_reserved": 0, "fusion_lat": 0.0}, {"type": "electric_scooter", "rental_uris": {"ios": "https://dc.lft.to/lastmile_qr_scan", "android": "https://dc.lft.to/lastmile_qr_scan"}, "lon": -77.01176733333334, "fusion_lon": 0.0, "is_disabled": 0, "lat": 38.91564233333333, "bike_id": "2d66e4b2b1cf75f3c662c76f4502fb5e", "name": "2d66e4b2b1cf75f3c662c76f4502fb5e", "is_reserved": 0, "fusion_lat": 0.0}, {"type": "electric_scooter", "rental_uris": {"ios": "https://dc.lft.to/lastmile_qr_scan", "android": "https://dc.lft.to/lastmile_qr_scan"}, "lon": -77.03199583333334, "fusion_lon": 0.0, "is_disabled": 0, "lat": 38.9109275, "bike_id": "07bed33c21ae825187f17da1a0b4a9f0", "name": "07bed33c21ae825187f17da1a0b4a9f0", "is_reserved": 0, "fusion_lat": 0.0}, {"type": "electric_scooter", "rental_uris": {"ios": "https://dc.lft.to/lastmile_qr_scan", "android": "https://dc.lft.to/lastmile_qr_scan"}, "lon": -77.02173833333333, "fusion_lon": 0.0, "is_disabled": 0, "lat": 38.9155955, "bike_id": "5d8be617f577e53cadf13d9c87e7a0d9", "name": "5d8be617f577e53cadf13d9c87e7a0d9", "is_reserved": 0, "fusion_lat": 0.0}, {"type": "electric_scooter", "rental_uris": {"ios": "https://dc.lft.to/lastmile_qr_scan", "android": "https://dc.lft.to/lastmile_qr_scan"}, "lon": -76.9961295, "fusion_lon": 0.0, "is_disabled": 0, "lat": 38.887201166666664, "bike_id": "edded464bcfe979091029d04ac7104be", "name": "edded464bcfe979091029d04ac7104be", "is_reserved": 0, "fusion_lat": 0.0}, {"type": "electric_scooter", "rental_uris": {"ios": "https://dc.lft.to/lastmile_qr_scan", "android": "https://dc.lft.to/lastmile_qr_scan"}, "lon": -77.06009666666667, "fusion_lon": 0.0, "is_disabled": 0, "lat": 38.902369, "bike_id": "4b240ef0f2cd985e11b3d8af1c810dab", "name": "4b240ef0f2cd985e11b3d8af1c810dab", "is_reserved": 0, "fusion_lat": 0.0}, {"type": "electric_scooter", "rental_uris": {"ios": "https://dc.lft.to/lastmile_qr_scan", "android": "https://dc.lft.to/lastmile_qr_scan"}, "lon": -77.03194366666666, "fusion_lon": 0.0, "is_disabled": 0, "lat": 38.9181505, "bike_id": "a6cc603b74c181f3feb09a6a7a1156fb", "name": "a6cc603b74c181f3feb09a6a7a1156fb", "is_reserved": 0, "fusion_lat": 0.0}, {"type": "electric_scooter", "rental_uris": {"ios": "https://dc.lft.to/lastmile_qr_scan", "android": "https://dc.lft.to/lastmile_qr_scan"}, "lon": -77.00416383333334, "fusion_lon": 0.0, "is_disabled": 0, "lat": 38.876528, "bike_id": "99d5cf2cb49ded1f68d18a5212111f6d", "name": "99d5cf2cb49ded1f68d18a5212111f6d", "is_reserved": 0, "fusion_lat": 0.0}, {"type": "electric_scooter", "rental_uris": {"ios": "https://dc.lft.to/lastmile_qr_scan", "android": "https://dc.lft.to/lastmile_qr_scan"}, "lon": -77.02184766666667, "fusion_lon": 0.0, "is_disabled": 0, "lat": 38.91395766666667, "bike_id": "2a39ba13427ea591eac35bc962ecdc86", "name": "2a39ba13427ea591eac35bc962ecdc86", "is_reserved": 0, "fusion_lat": 0.0}, {"type": "electric_scooter", "rental_uris": {"ios": "https://dc.lft.to/lastmile_qr_scan", "android": "https://dc.lft.to/lastmile_qr_scan"}, "lon": -77.00602, "fusion_lon": 0.0, "is_disabled": 0, "lat": 38.90207183333333, "bike_id": "576002dedfe19e93e179e969698fa870", "name": "576002dedfe19e93e179e969698fa870", "is_reserved": 0, "fusion_lat": 0.0}, {"type": "electric_scooter", "rental_uris": {"ios": "https://dc.lft.to/lastmile_qr_scan", "android": "https://dc.lft.to/lastmile_qr_scan"}, "lon": -77.02013583333333, "fusion_lon": 0.0, "is_disabled": 0, "lat": 38.8974915, "bike_id": "fe934ba24ab1231203008ea4ea87a6e9", "name": "fe934ba24ab1231203008ea4ea87a6e9", "is_reserved": 0, "fusion_lat": 0.0}, {"type": "electric_scooter", "rental_uris": {"ios": "https://dc.lft.to/lastmile_qr_scan", "android": "https://dc.lft.to/lastmile_qr_scan"}, "lon": -77.03966233333334, "fusion_lon": 0.0, "is_disabled": 0, "lat": 38.913623333333334, "bike_id": "6ab6e6c006c6c7a4be02858c6e3cef67", "name": "6ab6e6c006c6c7a4be02858c6e3cef67", "is_reserved": 0, "fusion_lat": 0.0}, {"type": "electric_scooter", "rental_uris": {"ios": "https://dc.lft.to/lastmile_qr_scan", "android": "https://dc.lft.to/lastmile_qr_scan"}, "lon": -77.028346, "fusion_lon": 0.0, "is_disabled": 0, "lat": 38.93185966666667, "bike_id": "64711e8e3e9d31e408cb1769c12f87fa", "name": "64711e8e3e9d31e408cb1769c12f87fa", "is_reserved": 0, "fusion_lat": 0.0}, {"type": "electric_scooter", "rental_uris": {"ios": "https://dc.lft.to/lastmile_qr_scan", "android": "https://dc.lft.to/lastmile_qr_scan"}, "lon": -77.03659283333333, "fusion_lon": 0.0, "is_disabled": 0, "lat": 38.922838666666664, "bike_id": "1a13322fcf368cbf7f596658b11b2fd9", "name": "1a13322fcf368cbf7f596658b11b2fd9", "is_reserved": 0, "fusion_lat": 0.0}, {"type": "electric_scooter", "rental_uris": {"ios": "https://dc.lft.to/lastmile_qr_scan", "android": "https://dc.lft.to/lastmile_qr_scan"}, "lon": -77.03075883333334, "fusion_lon": 0.0, "is_disabled": 0, "lat": 38.92247733333333, "bike_id": "56ffffc564db6f2aaee0a183db03bf21", "name": "56ffffc564db6f2aaee0a183db03bf21", "is_reserved": 0, "fusion_lat": 0.0}, {"type": "electric_scooter", "rental_uris": {"ios": "https://dc.lft.to/lastmile_qr_scan", "android": "https://dc.lft.to/lastmile_qr_scan"}, "lon": -77.03245866666667, "fusion_lon": 0.0, "is_disabled": 0, "lat": 38.92798, "bike_id": "cfb1403498bfd9473254b7830da15fcb", "name": "cfb1403498bfd9473254b7830da15fcb", "is_reserved": 0, "fusion_lat": 0.0}, {"type": "electric_scooter", "rental_uris": {"ios": "https://dc.lft.to/lastmile_qr_scan", "android": "https://dc.lft.to/lastmile_qr_scan"}, "lon": -77.03126116666667, "fusion_lon": 0.0, "is_disabled": 0, "lat": 38.91923533333333, "bike_id": "c726afcd0aa57f59ed850c0d6739562f", "name": "c726afcd0aa57f59ed850c0d6739562f", "is_reserved": 0, "fusion_lat": 0.0}, {"type": "electric_scooter", "rental_uris": {"ios": "https://dc.lft.to/lastmile_qr_scan", "android": "https://dc.lft.to/lastmile_qr_scan"}, "lon": -77.02661366666666, "fusion_lon": 0.0, "is_disabled": 0, "lat": 38.91692, "bike_id": "3ed17ad33711d680180690a7874d31d2", "name": "3ed17ad33711d680180690a7874d31d2", "is_reserved": 0, "fusion_lat": 0.0}, {"type": "electric_scooter", "rental_uris": {"ios": "https://dc.lft.to/lastmile_qr_scan", "android": "https://dc.lft.to/lastmile_qr_scan"}, "lon": -77.01117466666666, "fusion_lon": 0.0, "is_disabled": 0, "lat": 38.920296, "bike_id": "90b9916077368b710f3264a8ecca252b", "name": "90b9916077368b710f3264a8ecca252b", "is_reserved": 0, "fusion_lat": 0.0}, {"type": "electric_scooter", "rental_uris": {"ios": "https://dc.lft.to/lastmile_qr_scan", "android": "https://dc.lft.to/lastmile_qr_scan"}, "lon": -76.94214116666667, "fusion_lon": 0.0, "is_disabled": 0, "lat": 38.884157, "bike_id": "b4768aa93e30fbb44fab56f8a677e1ea", "name": "b4768aa93e30fbb44fab56f8a677e1ea", "is_reserved": 0, "fusion_lat": 0.0}, {"type": "electric_bike", "rental_uris": {"ios": "https://dc.lft.to/lastmile_qr_scan", "android": "https://dc.lft.to/lastmile_qr_scan"}, "lon": -77.22343066666667, "fusion_lon": 0.0, "is_disabled": 0, "lat": 38.917995833333336, "bike_id": "d41ab622f3d8c3e4b6c850d7f2f2dda1", "name": "d41ab622f3d8c3e4b6c850d7f2f2dda1", "is_reserved": 0, "fusion_lat": 0.0}, {"type": "electric_scooter", "rental_uris": {"ios": "https://dc.lft.to/lastmile_qr_scan", "android": "https://dc.lft.to/lastmile_qr_scan"}, "lon": -77.03840716666667, "fusion_lon": 0.0, "is_disabled": 0, "lat": 38.93112, "bike_id": "e3282eb1cc93441e45afff4f96bbc3fa", "name": "e3282eb1cc93441e45afff4f96bbc3fa", "is_reserved": 0, "fusion_lat": 0.0}, {"type": "electric_scooter", "rental_uris": {"ios": "https://dc.lft.to/lastmile_qr_scan", "android": "https://dc.lft.to/lastmile_qr_scan"}, "lon": -77.0398325, "fusion_lon": 0.0, "is_disabled": 0, "lat": 38.899049833333336, "bike_id": "ca5b138b434383e2704f49ece62c3319", "name": "ca5b138b434383e2704f49ece62c3319", "is_reserved": 0, "fusion_lat": 0.0}, {"type": "electric_scooter", "rental_uris": {"ios": "https://dc.lft.to/lastmile_qr_scan", "android": "https://dc.lft.to/lastmile_qr_scan"}, "lon": -77.04421216666667, "fusion_lon": 0.0, "is_disabled": 0, "lat": 38.92127283333333, "bike_id": "d68a9e8f0d9f197937c93e004afb216b", "name": "d68a9e8f0d9f197937c93e004afb216b", "is_reserved": 0, "fusion_lat": 0.0}, {"type": "electric_scooter", "rental_uris": {"ios": "https://dc.lft.to/lastmile_qr_scan", "android": "https://dc.lft.to/lastmile_qr_scan"}, "lon": -77.02703283333334, "fusion_lon": 0.0, "is_disabled": 0, "lat": 38.906023166666664, "bike_id": "64f24ae94fbd4092263c86957e594e96", "name": "64f24ae94fbd4092263c86957e594e96", "is_reserved": 0, "fusion_lat": 0.0}, {"type": "electric_scooter", "rental_uris": {"ios": "https://dc.lft.to/lastmile_qr_scan", "android": "https://dc.lft.to/lastmile_qr_scan"}, "lon": -77.04612716666666, "fusion_lon": 0.0, "is_disabled": 0, "lat": 38.9028565, "bike_id": "8375c0a2eaeae1889d9bdd05b2add0a1", "name": "8375c0a2eaeae1889d9bdd05b2add0a1", "is_reserved": 0, "fusion_lat": 0.0}, {"type": "electric_bike", "rental_uris": {"ios": "https://dc.lft.to/lastmile_qr_scan", "android": "https://dc.lft.to/lastmile_qr_scan"}, "lon": -77.03698366666667, "fusion_lon": 0.0, "is_disabled": 0, "lat": 38.93561866666667, "bike_id": "52f79fb4a60698a221d5cdaa267e9e45", "name": "52f79fb4a60698a221d5cdaa267e9e45", "is_reserved": 0, "fusion_lat": 0.0}, {"type": "electric_bike", "rental_uris": {"ios": "https://dc.lft.to/lastmile_qr_scan", "android": "https://dc.lft.to/lastmile_qr_scan"}, "lon": -77.049308, "fusion_lon": 0.0, "is_disabled": 0, "lat": 39.0293225, "bike_id": "ea44e6000ea9a2464ad1398f6335d438", "name": "ea44e6000ea9a2464ad1398f6335d438", "is_reserved": 0, "fusion_lat": 0.0}, {"type": "electric_scooter", "rental_uris": {"ios": "https://dc.lft.to/lastmile_qr_scan", "android": "https://dc.lft.to/lastmile_qr_scan"}, "lon": -77.04355833333334, "fusion_lon": 0.0, "is_disabled": 0, "lat": 38.91345583333333, "bike_id": "e75a62aa97c1234af25889a0037c39bd", "name": "e75a62aa97c1234af25889a0037c39bd", "is_reserved": 0, "fusion_lat": 0.0}, {"type": "electric_scooter", "rental_uris": {"ios": "https://dc.lft.to/lastmile_qr_scan", "android": "https://dc.lft.to/lastmile_qr_scan"}, "lon": -77.07883666666666, "fusion_lon": 0.0, "is_disabled": 0, "lat": 38.92066366666667, "bike_id": "af71400798dfb8e23046ebe1063ccb9f", "name": "af71400798dfb8e23046ebe1063ccb9f", "is_reserved": 0, "fusion_lat": 0.0}, {"type": "electric_scooter", "rental_uris": {"ios": "https://dc.lft.to/lastmile_qr_scan", "android": "https://dc.lft.to/lastmile_qr_scan"}, "lon": -77.05859283333334, "fusion_lon": 0.0, "is_disabled": 0, "lat": 38.93605616666667, "bike_id": "78d3a34f404584b212baecbe1c761396", "name": "78d3a34f404584b212baecbe1c761396", "is_reserved": 0, "fusion_lat": 0.0}, {"type": "electric_scooter", "rental_uris": {"ios": "https://dc.lft.to/lastmile_qr_scan", "android": "https://dc.lft.to/lastmile_qr_scan"}, "lon": -77.02627183333334, "fusion_lon": 0.0, "is_disabled": 0, "lat": 38.925438, "bike_id": "565e285cd6ad79f281512406a162903c", "name": "565e285cd6ad79f281512406a162903c", "is_reserved": 0, "fusion_lat": 0.0}, {"type": "electric_bike", "rental_uris": {"ios": "https://dc.lft.to/lastmile_qr_scan", "android": "https://dc.lft.to/lastmile_qr_scan"}, "lon": -76.92491116666666, "fusion_lon": 0.0, "is_disabled": 0, "lat": 38.958765666666665, "bike_id": "d244406183694523bfe33437d40e2591", "name": "d244406183694523bfe33437d40e2591", "is_reserved": 0, "fusion_lat": 0.0}, {"type": "electric_scooter", "rental_uris": {"ios": "https://dc.lft.to/lastmile_qr_scan", "android": "https://dc.lft.to/lastmile_qr_scan"}, "lon": -76.995148, "fusion_lon": 0.0, "is_disabled": 0, "lat": 38.883618166666665, "bike_id": "016ccbd621c98a54b948c56a55cf9c33", "name": "016ccbd621c98a54b948c56a55cf9c33", "is_reserved": 0, "fusion_lat": 0.0}, {"type": "electric_scooter", "rental_uris": {"ios": "https://dc.lft.to/lastmile_qr_scan", "android": "https://dc.lft.to/lastmile_qr_scan"}, "lon": -76.9653005, "fusion_lon": 0.0, "is_disabled": 0, "lat": 38.87627033333333, "bike_id": "250b6a47ef8330c0bf829e46ce2b36be", "name": "250b6a47ef8330c0bf829e46ce2b36be", "is_reserved": 0, "fusion_lat": 0.0}, {"type": "electric_scooter", "rental_uris": {"ios": "https://dc.lft.to/lastmile_qr_scan", "android": "https://dc.lft.to/lastmile_qr_scan"}, "lon": -76.94156383333333, "fusion_lon": 0.0, "is_disabled": 0, "lat": 38.88363666666667, "bike_id": "518fc4d300b8f59ea5ed8bec31938a85", "name": "518fc4d300b8f59ea5ed8bec31938a85", "is_reserved": 0, "fusion_lat": 0.0}, {"type": "electric_scooter", "rental_uris": {"ios": "https://dc.lft.to/lastmile_qr_scan", "android": "https://dc.lft.to/lastmile_qr_scan"}, "lon": -76.99025533333334, "fusion_lon": 0.0, "is_disabled": 0, "lat": 38.86528233333333, "bike_id": "47c4bde74c084bcbffa17ab94b5a0ffc", "name": "47c4bde74c084bcbffa17ab94b5a0ffc", "is_reserved": 0, "fusion_lat": 0.0}, {"type": "electric_scooter", "rental_uris": {"ios": "https://dc.lft.to/lastmile_qr_scan", "android": "https://dc.lft.to/lastmile_qr_scan"}, "lon": -77.0317035, "fusion_lon": 0.0, "is_disabled": 0, "lat": 38.91914933333334, "bike_id": "674f5a28213a927c08c1c89533ffbd95", "name": "674f5a28213a927c08c1c89533ffbd95", "is_reserved": 0, "fusion_lat": 0.0}, {"type": "electric_scooter", "rental_uris": {"ios": "https://dc.lft.to/lastmile_qr_scan", "android": "https://dc.lft.to/lastmile_qr_scan"}, "lon": -77.03180233333333, "fusion_lon": 0.0, "is_disabled": 0, "lat": 38.913943, "bike_id": "99890026242c565063c80642ac177949", "name": "99890026242c565063c80642ac177949", "is_reserved": 0, "fusion_lat": 0.0}, {"type": "electric_scooter", "rental_uris": {"ios": "https://dc.lft.to/lastmile_qr_scan", "android": "https://dc.lft.to/lastmile_qr_scan"}, "lon": -77.014834, "fusion_lon": 0.0, "is_disabled": 0, "lat": 38.87627916666667, "bike_id": "1ce0fe99d074072d5757b303e93fcadc", "name": "1ce0fe99d074072d5757b303e93fcadc", "is_reserved": 0, "fusion_lat": 0.0}, {"type": "electric_scooter", "rental_uris": {"ios": "https://dc.lft.to/lastmile_qr_scan", "android": "https://dc.lft.to/lastmile_qr_scan"}, "lon": -77.03843833333333, "fusion_lon": 0.0, "is_disabled": 0, "lat": 38.91604683333333, "bike_id": "de69a3d251326ed91634213fe7ee4eb4", "name": "de69a3d251326ed91634213fe7ee4eb4", "is_reserved": 0, "fusion_lat": 0.0}, {"type": "electric_bike", "rental_uris": {"ios": "https://dc.lft.to/lastmile_qr_scan", "android": "https://dc.lft.to/lastmile_qr_scan"}, "lon": -77.09477216666667, "fusion_lon": 0.0, "is_disabled": 0, "lat": 38.807513666666665, "bike_id": "1adbfef06b78f03fc5f3b50bead0f0d0", "name": "1adbfef06b78f03fc5f3b50bead0f0d0", "is_reserved": 0, "fusion_lat": 0.0}, {"type": "electric_scooter", "rental_uris": {"ios": "https://dc.lft.to/lastmile_qr_scan", "android": "https://dc.lft.to/lastmile_qr_scan"}, "lon": -77.02622533333333, "fusion_lon": 0.0, "is_disabled": 0, "lat": 38.8921855, "bike_id": "0daadc5063780ec5f01c1bbade605430", "name": "0daadc5063780ec5f01c1bbade605430", "is_reserved": 0, "fusion_lat": 0.0}, {"type": "electric_bike", "rental_uris": {"ios": "https://dc.lft.to/lastmile_qr_scan", "android": "https://dc.lft.to/lastmile_qr_scan"}, "lon": -77.12963166666667, "fusion_lon": 0.0, "is_disabled": 0, "lat": 38.852181333333334, "bike_id": "b4af62a4eca5f496738bdd77331eb60e", "name": "b4af62a4eca5f496738bdd77331eb60e", "is_reserved": 0, "fusion_lat": 0.0}, {"type": "electric_scooter", "rental_uris": {"ios": "https://dc.lft.to/lastmile_qr_scan", "android": "https://dc.lft.to/lastmile_qr_scan"}, "lon": -77.046171, "fusion_lon": 0.0, "is_disabled": 0, "lat": 38.915515, "bike_id": "5d2e01bbdf101803fbcd22d8c864004a", "name": "5d2e01bbdf101803fbcd22d8c864004a", "is_reserved": 0, "fusion_lat": 0.0}, {"type": "electric_scooter", "rental_uris": {"ios": "https://dc.lft.to/lastmile_qr_scan", "android": "https://dc.lft.to/lastmile_qr_scan"}, "lon": -77.0021055, "fusion_lon": 0.0, "is_disabled": 0, "lat": 38.904974833333334, "bike_id": "efebff7d7bdc5c55ed7d094f78519fc0", "name": "efebff7d7bdc5c55ed7d094f78519fc0", "is_reserved": 0, "fusion_lat": 0.0}, {"type": "electric_bike", "rental_uris": {"ios": "https://dc.lft.to/lastmile_qr_scan", "android": "https://dc.lft.to/lastmile_qr_scan"}, "lon": -76.93228633333334, "fusion_lon": 0.0, "is_disabled": 0, "lat": 38.86595366666667, "bike_id": "10919620e96ff28c7055077508ed9d81", "name": "10919620e96ff28c7055077508ed9d81", "is_reserved": 0, "fusion_lat": 0.0}, {"type": "electric_scooter", "rental_uris": {"ios": "https://dc.lft.to/lastmile_qr_scan", "android": "https://dc.lft.to/lastmile_qr_scan"}, "lon": -77.04009983333333, "fusion_lon": 0.0, "is_disabled": 0, "lat": 38.910014833333335, "bike_id": "d204fb165504eb383599c86712792efa", "name": "d204fb165504eb383599c86712792efa", "is_reserved": 0, "fusion_lat": 0.0}, {"type": "electric_scooter", "rental_uris": {"ios": "https://dc.lft.to/lastmile_qr_scan", "android": "https://dc.lft.to/lastmile_qr_scan"}, "lon": -77.04014716666667, "fusion_lon": 0.0, "is_disabled": 0, "lat": 38.903774, "bike_id": "da2e4ff7eaa24014ef5c884b04c07428", "name": "da2e4ff7eaa24014ef5c884b04c07428", "is_reserved": 0, "fusion_lat": 0.0}, {"type": "electric_scooter", "rental_uris": {"ios": "https://dc.lft.to/lastmile_qr_scan", "android": "https://dc.lft.to/lastmile_qr_scan"}, "lon": -77.04380316666666, "fusion_lon": 0.0, "is_disabled": 0, "lat": 38.933285166666664, "bike_id": "98aa48a879871f3aa34553c95bca6366", "name": "98aa48a879871f3aa34553c95bca6366", "is_reserved": 0, "fusion_lat": 0.0}, {"type": "electric_bike", "rental_uris": {"ios": "https://dc.lft.to/lastmile_qr_scan", "android": "https://dc.lft.to/lastmile_qr_scan"}, "lon": -76.98103783333333, "fusion_lon": 0.0, "is_disabled": 0, "lat": 38.953532333333335, "bike_id": "341aac2523d945a84a08b7603e8b2232", "name": "341aac2523d945a84a08b7603e8b2232", "is_reserved": 0, "fusion_lat": 0.0}, {"type": "electric_scooter", "rental_uris": {"ios": "https://dc.lft.to/lastmile_qr_scan", "android": "https://dc.lft.to/lastmile_qr_scan"}, "lon": -77.04362766666667, "fusion_lon": 0.0, "is_disabled": 0, "lat": 38.904236166666664, "bike_id": "1e8d9ad18161424d84fd949138e34e6e", "name": "1e8d9ad18161424d84fd949138e34e6e", "is_reserved": 0, "fusion_lat": 0.0}, {"type": "electric_scooter", "rental_uris": {"ios": "https://dc.lft.to/lastmile_qr_scan", "android": "https://dc.lft.to/lastmile_qr_scan"}, "lon": -77.03191683333333, "fusion_lon": 0.0, "is_disabled": 0, "lat": 38.90975566666667, "bike_id": "6510e0ae70d9281fb34ca31188200cba", "name": "6510e0ae70d9281fb34ca31188200cba", "is_reserved": 0, "fusion_lat": 0.0}, {"type": "electric_scooter", "rental_uris": {"ios": "https://dc.lft.to/lastmile_qr_scan", "android": "https://dc.lft.to/lastmile_qr_scan"}, "lon": -77.02004416666666, "fusion_lon": 0.0, "is_disabled": 0, "lat": 38.87672766666667, "bike_id": "c04c111d60ca8725ffe4c1aee6adcbea", "name": "c04c111d60ca8725ffe4c1aee6adcbea", "is_reserved": 0, "fusion_lat": 0.0}, {"type": "electric_scooter", "rental_uris": {"ios": "https://dc.lft.to/lastmile_qr_scan", "android": "https://dc.lft.to/lastmile_qr_scan"}, "lon": -77.04021233333333, "fusion_lon": 0.0, "is_disabled": 0, "lat": 38.924492666666666, "bike_id": "1844acdd00f5264b801a5f6dbbd1d065", "name": "1844acdd00f5264b801a5f6dbbd1d065", "is_reserved": 0, "fusion_lat": 0.0}, {"type": "electric_scooter", "rental_uris": {"ios": "https://dc.lft.to/lastmile_qr_scan", "android": "https://dc.lft.to/lastmile_qr_scan"}, "lon": -77.02838616666666, "fusion_lon": 0.0, "is_disabled": 0, "lat": 38.93186, "bike_id": "60b3aaa4d9e53b8c77fd6d9ee7f11fe0", "name": "60b3aaa4d9e53b8c77fd6d9ee7f11fe0", "is_reserved": 0, "fusion_lat": 0.0}, {"type": "electric_scooter", "rental_uris": {"ios": "https://dc.lft.to/lastmile_qr_scan", "android": "https://dc.lft.to/lastmile_qr_scan"}, "lon": -77.03444133333333, "fusion_lon": 0.0, "is_disabled": 0, "lat": 38.90741516666667, "bike_id": "ddd9c6ec5001b28339e9033804cf64f3", "name": "ddd9c6ec5001b28339e9033804cf64f3", "is_reserved": 0, "fusion_lat": 0.0}, {"type": "electric_scooter", "rental_uris": {"ios": "https://dc.lft.to/lastmile_qr_scan", "android": "https://dc.lft.to/lastmile_qr_scan"}, "lon": -77.04282766666667, "fusion_lon": 0.0, "is_disabled": 0, "lat": 38.903825833333336, "bike_id": "5302ac3647d49b855ac687de97f935af", "name": "5302ac3647d49b855ac687de97f935af", "is_reserved": 0, "fusion_lat": 0.0}, {"type": "electric_scooter", "rental_uris": {"ios": "https://dc.lft.to/lastmile_qr_scan", "android": "https://dc.lft.to/lastmile_qr_scan"}, "lon": -77.01207066666667, "fusion_lon": 0.0, "is_disabled": 0, "lat": 38.89329566666667, "bike_id": "e3d13181e47dee02d3281684dcb477bd", "name": "e3d13181e47dee02d3281684dcb477bd", "is_reserved": 0, "fusion_lat": 0.0}, {"type": "electric_scooter", "rental_uris": {"ios": "https://dc.lft.to/lastmile_qr_scan", "android": "https://dc.lft.to/lastmile_qr_scan"}, "lon": -77.02138766666667, "fusion_lon": 0.0, "is_disabled": 0, "lat": 38.90404733333333, "bike_id": "6dbb071b04d75a06e1f5dceb302409ac", "name": "6dbb071b04d75a06e1f5dceb302409ac", "is_reserved": 0, "fusion_lat": 0.0}, {"type": "electric_scooter", "rental_uris": {"ios": "https://dc.lft.to/lastmile_qr_scan", "android": "https://dc.lft.to/lastmile_qr_scan"}, "lon": -77.03838333333333, "fusion_lon": 0.0, "is_disabled": 0, "lat": 38.9232205, "bike_id": "d373f420d536dc65f527c2c22dfaec3d", "name": "d373f420d536dc65f527c2c22dfaec3d", "is_reserved": 0, "fusion_lat": 0.0}, {"type": "electric_scooter", "rental_uris": {"ios": "https://dc.lft.to/lastmile_qr_scan", "android": "https://dc.lft.to/lastmile_qr_scan"}, "lon": -77.04150033333333, "fusion_lon": 0.0, "is_disabled": 0, "lat": 38.92648583333333, "bike_id": "5828cc4cbc3831a50e7a82d42acfee0d", "name": "5828cc4cbc3831a50e7a82d42acfee0d", "is_reserved": 0, "fusion_lat": 0.0}, {"type": "electric_scooter", "rental_uris": {"ios": "https://dc.lft.to/lastmile_qr_scan", "android": "https://dc.lft.to/lastmile_qr_scan"}, "lon": -77.0513355, "fusion_lon": 0.0, "is_disabled": 0, "lat": 38.92361916666667, "bike_id": "ae4f80459316f02761431425e666410a", "name": "ae4f80459316f02761431425e666410a", "is_reserved": 0, "fusion_lat": 0.0}, {"type": "electric_bike", "rental_uris": {"ios": "https://dc.lft.to/lastmile_qr_scan", "android": "https://dc.lft.to/lastmile_qr_scan"}, "lon": -77.09965416666667, "fusion_lon": 0.0, "is_disabled": 0, "lat": 38.9335705, "bike_id": "dc46dedb320618693934f0d25f410236", "name": "dc46dedb320618693934f0d25f410236", "is_reserved": 0, "fusion_lat": 0.0}, {"type": "electric_scooter", "rental_uris": {"ios": "https://dc.lft.to/lastmile_qr_scan", "android": "https://dc.lft.to/lastmile_qr_scan"}, "lon": -76.987831, "fusion_lon": 0.0, "is_disabled": 0, "lat": 38.898222, "bike_id": "d0cbf17b441da1a5f7b825dd62b0757c", "name": "d0cbf17b441da1a5f7b825dd62b0757c", "is_reserved": 0, "fusion_lat": 0.0}, {"type": "electric_scooter", "rental_uris": {"ios": "https://dc.lft.to/lastmile_qr_scan", "android": "https://dc.lft.to/lastmile_qr_scan"}, "lon": -77.02201483333333, "fusion_lon": 0.0, "is_disabled": 0, "lat": 38.91008633333333, "bike_id": "467a32f2b5068ae8fd95f3279bafe011", "name": "467a32f2b5068ae8fd95f3279bafe011", "is_reserved": 0, "fusion_lat": 0.0}, {"type": "electric_scooter", "rental_uris": {"ios": "https://dc.lft.to/lastmile_qr_scan", "android": "https://dc.lft.to/lastmile_qr_scan"}, "lon": -77.04257866666667, "fusion_lon": 0.0, "is_disabled": 0, "lat": 38.921954166666666, "bike_id": "4a8aa212989e5b919c8f2cba0b5969d1", "name": "4a8aa212989e5b919c8f2cba0b5969d1", "is_reserved": 0, "fusion_lat": 0.0}, {"type": "electric_scooter", "rental_uris": {"ios": "https://dc.lft.to/lastmile_qr_scan", "android": "https://dc.lft.to/lastmile_qr_scan"}, "lon": -77.03182983333333, "fusion_lon": 0.0, "is_disabled": 0, "lat": 38.9192775, "bike_id": "6e25f9576998c2a7c9b3717f72f21ffc", "name": "6e25f9576998c2a7c9b3717f72f21ffc", "is_reserved": 0, "fusion_lat": 0.0}, {"type": "electric_scooter", "rental_uris": {"ios": "https://dc.lft.to/lastmile_qr_scan", "android": "https://dc.lft.to/lastmile_qr_scan"}, "lon": -77.03441766666667, "fusion_lon": 0.0, "is_disabled": 0, "lat": 38.91838283333333, "bike_id": "cef848700f2b26541f7ef301ec00a8e1", "name": "cef848700f2b26541f7ef301ec00a8e1", "is_reserved": 0, "fusion_lat": 0.0}, {"type": "electric_bike", "rental_uris": {"ios": "https://dc.lft.to/lastmile_qr_scan", "android": "https://dc.lft.to/lastmile_qr_scan"}, "lon": -76.92332116666667, "fusion_lon": 0.0, "is_disabled": 0, "lat": 38.87105666666667, "bike_id": "d3fb8942d5e2728b6f7926d3adcf7161", "name": "d3fb8942d5e2728b6f7926d3adcf7161", "is_reserved": 0, "fusion_lat": 0.0}, {"type": "electric_scooter", "rental_uris": {"ios": "https://dc.lft.to/lastmile_qr_scan", "android": "https://dc.lft.to/lastmile_qr_scan"}, "lon": -77.0240505, "fusion_lon": 0.0, "is_disabled": 0, "lat": 38.9174685, "bike_id": "658a6a0d9b356b109b2c73a51ca962f0", "name": "658a6a0d9b356b109b2c73a51ca962f0", "is_reserved": 0, "fusion_lat": 0.0}, {"type": "electric_scooter", "rental_uris": {"ios": "https://dc.lft.to/lastmile_qr_scan", "android": "https://dc.lft.to/lastmile_qr_scan"}, "lon": -77.03143883333334, "fusion_lon": 0.0, "is_disabled": 0, "lat": 38.887334, "bike_id": "18da82bc49e9f766bcb69dd75ca8fabe", "name": "18da82bc49e9f766bcb69dd75ca8fabe", "is_reserved": 0, "fusion_lat": 0.0}, {"type": "electric_bike", "rental_uris": {"ios": "https://dc.lft.to/lastmile_qr_scan", "android": "https://dc.lft.to/lastmile_qr_scan"}, "lon": -77.03655916666666, "fusion_lon": 0.0, "is_disabled": 0, "lat": 38.95570083333333, "bike_id": "1b9fe0b0c81464ce78699d4739eeae6c", "name": "1b9fe0b0c81464ce78699d4739eeae6c", "is_reserved": 0, "fusion_lat": 0.0}, {"type": "electric_bike", "rental_uris": {"ios": "https://dc.lft.to/lastmile_qr_scan", "android": "https://dc.lft.to/lastmile_qr_scan"}, "lon": -76.93543816666667, "fusion_lon": 0.0, "is_disabled": 0, "lat": 38.95554383333333, "bike_id": "c28147e8a980ebccd03d288220d4fea6", "name": "c28147e8a980ebccd03d288220d4fea6", "is_reserved": 0, "fusion_lat": 0.0}, {"type": "electric_scooter", "rental_uris": {"ios": "https://dc.lft.to/lastmile_qr_scan", "android": "https://dc.lft.to/lastmile_qr_scan"}, "lon": -77.02969616666667, "fusion_lon": 0.0, "is_disabled": 0, "lat": 38.92278816666666, "bike_id": "e3b22398543c52abf474434917d9b00e", "name": "e3b22398543c52abf474434917d9b00e", "is_reserved": 0, "fusion_lat": 0.0}, {"type": "electric_scooter", "rental_uris": {"ios": "https://dc.lft.to/lastmile_qr_scan", "android": "https://dc.lft.to/lastmile_qr_scan"}, "lon": -77.0332215, "fusion_lon": 0.0, "is_disabled": 0, "lat": 38.912663333333334, "bike_id": "aa87b124c9acee42cee13ed12620fc2d", "name": "aa87b124c9acee42cee13ed12620fc2d", "is_reserved": 0, "fusion_lat": 0.0}, {"type": "electric_bike", "rental_uris": {"ios": "https://dc.lft.to/lastmile_qr_scan", "android": "https://dc.lft.to/lastmile_qr_scan"}, "lon": -77.06923633333334, "fusion_lon": 0.0, "is_disabled": 0, "lat": 38.95550866666667, "bike_id": "dfc548281ec312d805a1fcff18017158", "name": "dfc548281ec312d805a1fcff18017158", "is_reserved": 0, "fusion_lat": 0.0}, {"type": "electric_scooter", "rental_uris": {"ios": "https://dc.lft.to/lastmile_qr_scan", "android": "https://dc.lft.to/lastmile_qr_scan"}, "lon": -76.99001816666667, "fusion_lon": 0.0, "is_disabled": 0, "lat": 38.86344416666667, "bike_id": "b2addf6fc4e213ce0b71a7fb45486c1f", "name": "b2addf6fc4e213ce0b71a7fb45486c1f", "is_reserved": 0, "fusion_lat": 0.0}, {"type": "electric_scooter", "rental_uris": {"ios": "https://dc.lft.to/lastmile_qr_scan", "android": "https://dc.lft.to/lastmile_qr_scan"}, "lon": -76.9337305, "fusion_lon": 0.0, "is_disabled": 0, "lat": 38.89924283333333, "bike_id": "ee30e90ef57dee5e7b33c66ff6a47030", "name": "ee30e90ef57dee5e7b33c66ff6a47030", "is_reserved": 0, "fusion_lat": 0.0}, {"type": "electric_scooter", "rental_uris": {"ios": "https://dc.lft.to/lastmile_qr_scan", "android": "https://dc.lft.to/lastmile_qr_scan"}, "lon": -77.0178025, "fusion_lon": 0.0, "is_disabled": 0, "lat": 38.88718133333333, "bike_id": "aa31c397ff7f26819b2fb5e2dea3783c", "name": "aa31c397ff7f26819b2fb5e2dea3783c", "is_reserved": 0, "fusion_lat": 0.0}, {"type": "electric_scooter", "rental_uris": {"ios": "https://dc.lft.to/lastmile_qr_scan", "android": "https://dc.lft.to/lastmile_qr_scan"}, "lon": -77.02710666666667, "fusion_lon": 0.0, "is_disabled": 0, "lat": 38.906746166666665, "bike_id": "0e04b7e9d2327c8bb1247e394f4c933d", "name": "0e04b7e9d2327c8bb1247e394f4c933d", "is_reserved": 0, "fusion_lat": 0.0}, {"type": "electric_scooter", "rental_uris": {"ios": "https://dc.lft.to/lastmile_qr_scan", "android": "https://dc.lft.to/lastmile_qr_scan"}, "lon": -77.03447583333333, "fusion_lon": 0.0, "is_disabled": 0, "lat": 38.918468833333336, "bike_id": "623139a293685a83f43e232dc0972cdc", "name": "623139a293685a83f43e232dc0972cdc", "is_reserved": 0, "fusion_lat": 0.0}, {"type": "electric_bike", "rental_uris": {"ios": "https://dc.lft.to/lastmile_qr_scan", "android": "https://dc.lft.to/lastmile_qr_scan"}, "lon": -77.081561, "fusion_lon": 0.0, "is_disabled": 0, "lat": 38.888814833333335, "bike_id": "243f19b992ef9a7a171763b1a6a298ec", "name": "243f19b992ef9a7a171763b1a6a298ec", "is_reserved": 0, "fusion_lat": 0.0}, {"type": "electric_scooter", "rental_uris": {"ios": "https://dc.lft.to/lastmile_qr_scan", "android": "https://dc.lft.to/lastmile_qr_scan"}, "lon": -77.005606, "fusion_lon": 0.0, "is_disabled": 0, "lat": 38.9056655, "bike_id": "2d61d1c5cef54810390978187c50f098", "name": "2d61d1c5cef54810390978187c50f098", "is_reserved": 0, "fusion_lat": 0.0}, {"type": "electric_scooter", "rental_uris": {"ios": "https://dc.lft.to/lastmile_qr_scan", "android": "https://dc.lft.to/lastmile_qr_scan"}, "lon": -77.03409383333333, "fusion_lon": 0.0, "is_disabled": 0, "lat": 38.92748383333333, "bike_id": "19e7319c894a2fd2915af2b046a84ca9", "name": "19e7319c894a2fd2915af2b046a84ca9", "is_reserved": 0, "fusion_lat": 0.0}, {"type": "electric_scooter", "rental_uris": {"ios": "https://dc.lft.to/lastmile_qr_scan", "android": "https://dc.lft.to/lastmile_qr_scan"}, "lon": -77.06559783333333, "fusion_lon": 0.0, "is_disabled": 0, "lat": 38.95488683333333, "bike_id": "62ec705ddf432f42393cfef63d426149", "name": "62ec705ddf432f42393cfef63d426149", "is_reserved": 0, "fusion_lat": 0.0}, {"type": "electric_scooter", "rental_uris": {"ios": "https://dc.lft.to/lastmile_qr_scan", "android": "https://dc.lft.to/lastmile_qr_scan"}, "lon": -77.01864633333334, "fusion_lon": 0.0, "is_disabled": 0, "lat": 38.9515145, "bike_id": "c955d8824e09e3316f16f70070c85df1", "name": "c955d8824e09e3316f16f70070c85df1", "is_reserved": 0, "fusion_lat": 0.0}, {"type": "electric_scooter", "rental_uris": {"ios": "https://dc.lft.to/lastmile_qr_scan", "android": "https://dc.lft.to/lastmile_qr_scan"}, "lon": -77.04665733333333, "fusion_lon": 0.0, "is_disabled": 0, "lat": 38.909422166666666, "bike_id": "beeb233d5eaca041bd250679c56d419e", "name": "beeb233d5eaca041bd250679c56d419e", "is_reserved": 0, "fusion_lat": 0.0}, {"type": "electric_scooter", "rental_uris": {"ios": "https://dc.lft.to/lastmile_qr_scan", "android": "https://dc.lft.to/lastmile_qr_scan"}, "lon": -77.0374185, "fusion_lon": 0.0, "is_disabled": 0, "lat": 38.930897, "bike_id": "6da5cef10219cdfbe98cb8eefb40f711", "name": "6da5cef10219cdfbe98cb8eefb40f711", "is_reserved": 0, "fusion_lat": 0.0}, {"type": "electric_scooter", "rental_uris": {"ios": "https://dc.lft.to/lastmile_qr_scan", "android": "https://dc.lft.to/lastmile_qr_scan"}, "lon": -77.03180066666667, "fusion_lon": 0.0, "is_disabled": 0, "lat": 38.9186745, "bike_id": "8370f121fc5a3c60fb6871a44e9efc5f", "name": "8370f121fc5a3c60fb6871a44e9efc5f", "is_reserved": 0, "fusion_lat": 0.0}, {"type": "electric_scooter", "rental_uris": {"ios": "https://dc.lft.to/lastmile_qr_scan", "android": "https://dc.lft.to/lastmile_qr_scan"}, "lon": -77.04888416666667, "fusion_lon": 0.0, "is_disabled": 0, "lat": 38.90540383333333, "bike_id": "b459490d6208754f8bf5dc1e568f80e3", "name": "b459490d6208754f8bf5dc1e568f80e3", "is_reserved": 0, "fusion_lat": 0.0}, {"type": "electric_scooter", "rental_uris": {"ios": "https://dc.lft.to/lastmile_qr_scan", "android": "https://dc.lft.to/lastmile_qr_scan"}, "lon": -77.03164766666667, "fusion_lon": 0.0, "is_disabled": 0, "lat": 38.892180833333335, "bike_id": "dc68feda0e04b31a286fb0a7a584776d", "name": "dc68feda0e04b31a286fb0a7a584776d", "is_reserved": 0, "fusion_lat": 0.0}, {"type": "electric_scooter", "rental_uris": {"ios": "https://dc.lft.to/lastmile_qr_scan", "android": "https://dc.lft.to/lastmile_qr_scan"}, "lon": -77.04512683333333, "fusion_lon": 0.0, "is_disabled": 0, "lat": 38.907788833333335, "bike_id": "be30697441cf791931c2bd5070ad404c", "name": "be30697441cf791931c2bd5070ad404c", "is_reserved": 0, "fusion_lat": 0.0}, {"type": "electric_scooter", "rental_uris": {"ios": "https://dc.lft.to/lastmile_qr_scan", "android": "https://dc.lft.to/lastmile_qr_scan"}, "lon": -77.02143816666667, "fusion_lon": 0.0, "is_disabled": 0, "lat": 38.925914, "bike_id": "20b7af1d091007775ab561f529ea8aa5", "name": "20b7af1d091007775ab561f529ea8aa5", "is_reserved": 0, "fusion_lat": 0.0}, {"type": "electric_bike", "rental_uris": {"ios": "https://dc.lft.to/lastmile_qr_scan", "android": "https://dc.lft.to/lastmile_qr_scan"}, "lon": -77.03218616666666, "fusion_lon": 0.0, "is_disabled": 0, "lat": 38.91552683333333, "bike_id": "759dfd118ecf38d15ad294d8fc91cb42", "name": "759dfd118ecf38d15ad294d8fc91cb42", "is_reserved": 0, "fusion_lat": 0.0}, {"type": "electric_scooter", "rental_uris": {"ios": "https://dc.lft.to/lastmile_qr_scan", "android": "https://dc.lft.to/lastmile_qr_scan"}, "lon": -77.03253633333334, "fusion_lon": 0.0, "is_disabled": 0, "lat": 38.92779216666667, "bike_id": "80c51091221c5717fe3e9b3b147bcfc5", "name": "80c51091221c5717fe3e9b3b147bcfc5", "is_reserved": 0, "fusion_lat": 0.0}, {"type": "electric_scooter", "rental_uris": {"ios": "https://dc.lft.to/lastmile_qr_scan", "android": "https://dc.lft.to/lastmile_qr_scan"}, "lon": -77.04847683333334, "fusion_lon": 0.0, "is_disabled": 0, "lat": 38.902237666666664, "bike_id": "1b48190c62e89c0460ece0699c7fc2ce", "name": "1b48190c62e89c0460ece0699c7fc2ce", "is_reserved": 0, "fusion_lat": 0.0}, {"type": "electric_scooter", "rental_uris": {"ios": "https://dc.lft.to/lastmile_qr_scan", "android": "https://dc.lft.to/lastmile_qr_scan"}, "lon": -77.0412555, "fusion_lon": 0.0, "is_disabled": 0, "lat": 38.93398116666667, "bike_id": "eea240c006e8ba96cfe8aa6b417df5dc", "name": "eea240c006e8ba96cfe8aa6b417df5dc", "is_reserved": 0, "fusion_lat": 0.0}, {"type": "electric_scooter", "rental_uris": {"ios": "https://dc.lft.to/lastmile_qr_scan", "android": "https://dc.lft.to/lastmile_qr_scan"}, "lon": -77.072709, "fusion_lon": 0.0, "is_disabled": 0, "lat": 38.934923, "bike_id": "3a012b74bd4dff03897993b2fb9a490e", "name": "3a012b74bd4dff03897993b2fb9a490e", "is_reserved": 0, "fusion_lat": 0.0}, {"type": "electric_scooter", "rental_uris": {"ios": "https://dc.lft.to/lastmile_qr_scan", "android": "https://dc.lft.to/lastmile_qr_scan"}, "lon": -77.03833133333333, "fusion_lon": 0.0, "is_disabled": 0, "lat": 38.90963083333333, "bike_id": "1c393fb0526678cd4c8c217fcb6fc45f", "name": "1c393fb0526678cd4c8c217fcb6fc45f", "is_reserved": 0, "fusion_lat": 0.0}, {"type": "electric_bike", "rental_uris": {"ios": "https://dc.lft.to/lastmile_qr_scan", "android": "https://dc.lft.to/lastmile_qr_scan"}, "lon": -77.04491916666667, "fusion_lon": 0.0, "is_disabled": 0, "lat": 38.84291433333333, "bike_id": "f05fda16d0e9c9be04ca06d41e933693", "name": "f05fda16d0e9c9be04ca06d41e933693", "is_reserved": 0, "fusion_lat": 0.0}, {"type": "electric_scooter", "rental_uris": {"ios": "https://dc.lft.to/lastmile_qr_scan", "android": "https://dc.lft.to/lastmile_qr_scan"}, "lon": -77.0398255, "fusion_lon": 0.0, "is_disabled": 0, "lat": 38.8986705, "bike_id": "6de6d84cc98124ae68b705280a0311bd", "name": "6de6d84cc98124ae68b705280a0311bd", "is_reserved": 0, "fusion_lat": 0.0}, {"type": "electric_scooter", "rental_uris": {"ios": "https://dc.lft.to/lastmile_qr_scan", "android": "https://dc.lft.to/lastmile_qr_scan"}, "lon": -77.0828525, "fusion_lon": 0.0, "is_disabled": 0, "lat": 38.960958833333336, "bike_id": "8038ab9af51f3c735917773d0fa5b514", "name": "8038ab9af51f3c735917773d0fa5b514", "is_reserved": 0, "fusion_lat": 0.0}, {"type": "electric_scooter", "rental_uris": {"ios": "https://dc.lft.to/lastmile_qr_scan", "android": "https://dc.lft.to/lastmile_qr_scan"}, "lon": -77.03323116666667, "fusion_lon": 0.0, "is_disabled": 0, "lat": 38.9032345, "bike_id": "24d78a520a4996572a47656090f61bfd", "name": "24d78a520a4996572a47656090f61bfd", "is_reserved": 0, "fusion_lat": 0.0}, {"type": "electric_scooter", "rental_uris": {"ios": "https://dc.lft.to/lastmile_qr_scan", "android": "https://dc.lft.to/lastmile_qr_scan"}, "lon": -76.99848933333334, "fusion_lon": 0.0, "is_disabled": 0, "lat": 38.90000533333333, "bike_id": "9dbe8d4358113a53ab983e93632d96cc", "name": "9dbe8d4358113a53ab983e93632d96cc", "is_reserved": 0, "fusion_lat": 0.0}, {"type": "electric_scooter", "rental_uris": {"ios": "https://dc.lft.to/lastmile_qr_scan", "android": "https://dc.lft.to/lastmile_qr_scan"}, "lon": -77.02694666666666, "fusion_lon": 0.0, "is_disabled": 0, "lat": 38.91122883333333, "bike_id": "7accba234884cd9d5bd85c14f2b3afd7", "name": "7accba234884cd9d5bd85c14f2b3afd7", "is_reserved": 0, "fusion_lat": 0.0}, {"type": "electric_scooter", "rental_uris": {"ios": "https://dc.lft.to/lastmile_qr_scan", "android": "https://dc.lft.to/lastmile_qr_scan"}, "lon": -77.03161933333334, "fusion_lon": 0.0, "is_disabled": 0, "lat": 38.9155485, "bike_id": "f131ffdfbd36300cd02ced06eb3138c2", "name": "f131ffdfbd36300cd02ced06eb3138c2", "is_reserved": 0, "fusion_lat": 0.0}, {"type": "electric_scooter", "rental_uris": {"ios": "https://dc.lft.to/lastmile_qr_scan", "android": "https://dc.lft.to/lastmile_qr_scan"}, "lon": -77.03674283333334, "fusion_lon": 0.0, "is_disabled": 0, "lat": 38.9180605, "bike_id": "0958cd7b0f178d95b522d7db37114881", "name": "0958cd7b0f178d95b522d7db37114881", "is_reserved": 0, "fusion_lat": 0.0}, {"type": "electric_scooter", "rental_uris": {"ios": "https://dc.lft.to/lastmile_qr_scan", "android": "https://dc.lft.to/lastmile_qr_scan"}, "lon": -77.03785016666667, "fusion_lon": 0.0, "is_disabled": 0, "lat": 38.93025333333333, "bike_id": "01599463e9591133313c65ed801dec0a", "name": "01599463e9591133313c65ed801dec0a", "is_reserved": 0, "fusion_lat": 0.0}, {"type": "electric_scooter", "rental_uris": {"ios": "https://dc.lft.to/lastmile_qr_scan", "android": "https://dc.lft.to/lastmile_qr_scan"}, "lon": -77.02762933333334, "fusion_lon": 0.0, "is_disabled": 0, "lat": 38.90728166666667, "bike_id": "8552774c29d77b439d197b896036d304", "name": "8552774c29d77b439d197b896036d304", "is_reserved": 0, "fusion_lat": 0.0}, {"type": "electric_scooter", "rental_uris": {"ios": "https://dc.lft.to/lastmile_qr_scan", "android": "https://dc.lft.to/lastmile_qr_scan"}, "lon": -76.99748016666666, "fusion_lon": 0.0, "is_disabled": 0, "lat": 38.921833, "bike_id": "6825585a1fdb4eb811fb88880ef3953c", "name": "6825585a1fdb4eb811fb88880ef3953c", "is_reserved": 0, "fusion_lat": 0.0}, {"type": "electric_scooter", "rental_uris": {"ios": "https://dc.lft.to/lastmile_qr_scan", "android": "https://dc.lft.to/lastmile_qr_scan"}, "lon": -77.02244583333334, "fusion_lon": 0.0, "is_disabled": 0, "lat": 38.920671, "bike_id": "6425dfe42e94d1a25efbb1df98731035", "name": "6425dfe42e94d1a25efbb1df98731035", "is_reserved": 0, "fusion_lat": 0.0}, {"type": "electric_scooter", "rental_uris": {"ios": "https://dc.lft.to/lastmile_qr_scan", "android": "https://dc.lft.to/lastmile_qr_scan"},