{"data": {"bikes": [{"rental_uris": {"ios": "https://dc.lft.to/lastmile_qr_scan", "android": "https://dc.lft.to/lastmile_qr_scan"}, "type": "electric_bike", "name": "0506c7b231a62a8a34adb738b2b01892", "is_reserved": 0, "lon": -76.96262866666666, "is_disabled": 0, "fusion_lat": 0.0, "lat": 38.967831333333336, "bike_id": "0506c7b231a62a8a34adb738b2b01892", "fusion_lon": 0.0}, {"rental_uris": {"ios": "https://dc.lft.to/lastmile_qr_scan", "android": "https://dc.lft.to/lastmile_qr_scan"}, "type": "electric_scooter", "name": "cca6397c2cce19c76814ce7be7af3500", "is_reserved": 0, "lon": -77.01211666666667, "is_disabled": 0, "fusion_lat": 0.0, "lat": 38.92120833333333, "bike_id": "cca6397c2cce19c76814ce7be7af3500", "fusion_lon": 0.0}, {"rental_uris": {"ios": "https://dc.lft.to/lastmile_qr_scan", "android": "https://dc.lft.to/lastmile_qr_scan"}, "type": "electric_scooter", "name": "f42b1a5726b39e221ed0be75ebd41d60", "is_reserved": 0, "lon": -77.04649883333333, "is_disabled": 0, "fusion_lat": 0.0, "lat": 38.90255766666667, "bike_id": "f42b1a5726b39e221ed0be75ebd41d60", "fusion_lon": 0.0}, {"rental_uris": {"ios": "https://dc.lft.to/lastmile_qr_scan", "android": "https://dc.lft.to/lastmile_qr_scan"}, "type": "electric_scooter", "name": "0bbc465d7381c378ab8b5a4b730b9a2e", "is_reserved": 0, "lon": -77.04508983333334, "is_disabled": 0, "fusion_lat": 0.0, "lat": 38.9038155, "bike_id": "0bbc465d7381c378ab8b5a4b730b9a2e", "fusion_lon": 0.0}, {"rental_uris": {"ios": "https://dc.lft.to/lastmile_qr_scan", "android": "https://dc.lft.to/lastmile_qr_scan"}, "type": "electric_bike", "name": "1304f953f1a877f5a86c3a99c69921f0", "is_reserved": 0, "lon": -76.986891, "is_disabled": 0, "fusion_lat": 0.0, "lat": 38.944746333333335, "bike_id": "1304f953f1a877f5a86c3a99c69921f0", "fusion_lon": 0.0}, {"rental_uris": {"ios": "https://dc.lft.to/lastmile_qr_scan", "android": "https://dc.lft.to/lastmile_qr_scan"}, "type": "electric_bike", "name": "851be94f80ad61db7920ec4270dafb67", "is_reserved": 0, "lon": -76.93666016666667, "is_disabled": 0, "fusion_lat": 0.0, "lat": 38.894605, "bike_id": "851be94f80ad61db7920ec4270dafb67", "fusion_lon": 0.0}, {"rental_uris": {"ios": "https://dc.lft.to/lastmile_qr_scan", "android": "https://dc.lft.to/lastmile_qr_scan"}, "type": "electric_scooter", "name": "6926610477ffdbee659e1b2a8d29968a", "is_reserved": 0, "lon": -77.02781116666667, "is_disabled": 0, "fusion_lat": 0.0, "lat": 38.962434333333334, "bike_id": "6926610477ffdbee659e1b2a8d29968a", "fusion_lon": 0.0}, {"rental_uris": {"ios": "https://dc.lft.to/lastmile_qr_scan", "android": "https://dc.lft.to/lastmile_qr_scan"}, "type": "electric_scooter", "name": "39e29e61984e31b41b4a5572f0e7e4d6", "is_reserved": 0, "lon": -77.012079, "is_disabled": 0, "fusion_lat": 0.0, "lat": 38.91196583333333, "bike_id": "39e29e61984e31b41b4a5572f0e7e4d6", "fusion_lon": 0.0}, {"rental_uris": {"ios": "https://dc.lft.to/lastmile_qr_scan", "android": "https://dc.lft.to/lastmile_qr_scan"}, "type": "electric_scooter", "name": "02fc008f6927446554ac21932b39b3a6", "is_reserved": 0, "lon": -76.9849505, "is_disabled": 0, "fusion_lat": 0.0, "lat": 38.87996116666667, "bike_id": "02fc008f6927446554ac21932b39b3a6", "fusion_lon": 0.0}, {"rental_uris": {"ios": "https://dc.lft.to/lastmile_qr_scan", "android": "https://dc.lft.to/lastmile_qr_scan"}, "type": "electric_scooter", "name": "5febdb7b62be7750970291c4441dda7c", "is_reserved": 0, "lon": -77.01574166666667, "is_disabled": 0, "fusion_lat": 0.0, "lat": 38.916790166666665, "bike_id": "5febdb7b62be7750970291c4441dda7c", "fusion_lon": 0.0}, {"rental_uris": {"ios": "https://dc.lft.to/lastmile_qr_scan", "android": "https://dc.lft.to/lastmile_qr_scan"}, "type": "electric_scooter", "name": "36be8a3167e0b50d298d147e8797d746", "is_reserved": 0, "lon": -77.00216166666667, "is_disabled": 0, "fusion_lat": 0.0, "lat": 38.91107783333333, "bike_id": "36be8a3167e0b50d298d147e8797d746", "fusion_lon": 0.0}, {"rental_uris": {"ios": "https://dc.lft.to/lastmile_qr_scan", "android": "https://dc.lft.to/lastmile_qr_scan"}, "type": "electric_scooter", "name": "ec4992cb61c391672e6d3809aed72603", "is_reserved": 0, "lon": -77.04625566666667, "is_disabled": 0, "fusion_lat": 0.0, "lat": 38.919324833333334, "bike_id": "ec4992cb61c391672e6d3809aed72603", "fusion_lon": 0.0}, {"rental_uris": {"ios": "https://dc.lft.to/lastmile_qr_scan", "android": "https://dc.lft.to/lastmile_qr_scan"}, "type": "electric_scooter", "name": "ec764ff87dbf1f18a39943c50f7a5c52", "is_reserved": 0, "lon": -77.035891, "is_disabled": 0, "fusion_lat": 0.0, "lat": 38.9061505, "bike_id": "ec764ff87dbf1f18a39943c50f7a5c52", "fusion_lon": 0.0}, {"rental_uris": {"ios": "https://dc.lft.to/lastmile_qr_scan", "android": "https://dc.lft.to/lastmile_qr_scan"}, "type": "electric_bike", "name": "cecd413c6f332becbe08caf64192457c", "is_reserved": 0, "lon": -76.96102383333333, "is_disabled": 0, "fusion_lat": 0.0, "lat": 38.949614, "bike_id": "cecd413c6f332becbe08caf64192457c", "fusion_lon": 0.0}, {"rental_uris": {"ios": "https://dc.lft.to/lastmile_qr_scan", "android": "https://dc.lft.to/lastmile_qr_scan"}, "type": "electric_scooter", "name": "c98b178b96375f1606190ed229cbf704", "is_reserved": 0, "lon": -77.0053115, "is_disabled": 0, "fusion_lat": 0.0, "lat": 38.88513966666667, "bike_id": "c98b178b96375f1606190ed229cbf704", "fusion_lon": 0.0}, {"rental_uris": {"ios": "https://dc.lft.to/lastmile_qr_scan", "android": "https://dc.lft.to/lastmile_qr_scan"}, "type": "electric_scooter", "name": "1811d22a892b0fe57da9d5640294f9ed", "is_reserved": 0, "lon": -77.021751, "is_disabled": 0, "fusion_lat": 0.0, "lat": 38.902296, "bike_id": "1811d22a892b0fe57da9d5640294f9ed", "fusion_lon": 0.0}, {"rental_uris": {"ios": "https://dc.lft.to/lastmile_qr_scan", "android": "https://dc.lft.to/lastmile_qr_scan"}, "type": "electric_scooter", "name": "33a144873199ccbdd93f25472c85c3d2", "is_reserved": 0, "lon": -77.0091675, "is_disabled": 0, "fusion_lat": 0.0, "lat": 38.918357666666665, "bike_id": "33a144873199ccbdd93f25472c85c3d2", "fusion_lon": 0.0}, {"rental_uris": {"ios": "https://dc.lft.to/lastmile_qr_scan", "android": "https://dc.lft.to/lastmile_qr_scan"}, "type": "electric_scooter", "name": "b3aeeaa3d04b55452badee225db25877", "is_reserved": 0, "lon": -77.01220016666667, "is_disabled": 0, "fusion_lat": 0.0, "lat": 38.920357333333335, "bike_id": "b3aeeaa3d04b55452badee225db25877", "fusion_lon": 0.0}, {"rental_uris": {"ios": "https://dc.lft.to/lastmile_qr_scan", "android": "https://dc.lft.to/lastmile_qr_scan"}, "type": "electric_scooter", "name": "6e38d7bfb3c1357ad79810ccf9297001", "is_reserved": 0, "lon": -77.0390785, "is_disabled": 0, "fusion_lat": 0.0, "lat": 38.9082245, "bike_id": "6e38d7bfb3c1357ad79810ccf9297001", "fusion_lon": 0.0}, {"rental_uris": {"ios": "https://dc.lft.to/lastmile_qr_scan", "android": "https://dc.lft.to/lastmile_qr_scan"}, "type": "electric_scooter", "name": "9cc254bec7dda7a52752438f4d7bd2ab", "is_reserved": 0, "lon": -77.01101716666666, "is_disabled": 0, "fusion_lat": 0.0, "lat": 38.8853995, "bike_id": "9cc254bec7dda7a52752438f4d7bd2ab", "fusion_lon": 0.0}, {"rental_uris": {"ios": "https://dc.lft.to/lastmile_qr_scan", "android": "https://dc.lft.to/lastmile_qr_scan"}, "type": "electric_scooter", "name": "9d3479046ced25c846a43c7d3db2efb5", "is_reserved": 0, "lon": -77.02947966666666, "is_disabled": 0, "fusion_lat": 0.0, "lat": 38.88397333333333, "bike_id": "9d3479046ced25c846a43c7d3db2efb5", "fusion_lon": 0.0}, {"rental_uris": {"ios": "https://dc.lft.to/lastmile_qr_scan", "android": "https://dc.lft.to/lastmile_qr_scan"}, "type": "electric_scooter", "name": "6c0d74e5cf3b9f230f7f1211d26dfe2c", "is_reserved": 0, "lon": -77.03790783333334, "is_disabled": 0, "fusion_lat": 0.0, "lat": 38.91537983333333, "bike_id": "6c0d74e5cf3b9f230f7f1211d26dfe2c", "fusion_lon": 0.0}, {"rental_uris": {"ios": "https://dc.lft.to/lastmile_qr_scan", "android": "https://dc.lft.to/lastmile_qr_scan"}, "type": "electric_scooter", "name": "64b36dd982fc9e0cdfad9f38f78928db", "is_reserved": 0, "lon": -77.0067095, "is_disabled": 0, "fusion_lat": 0.0, "lat": 38.877205000000004, "bike_id": "64b36dd982fc9e0cdfad9f38f78928db", "fusion_lon": 0.0}, {"rental_uris": {"ios": "https://dc.lft.to/lastmile_qr_scan", "android": "https://dc.lft.to/lastmile_qr_scan"}, "type": "electric_scooter", "name": "f5155c8aa3d904a44e8efee0c880eb5f", "is_reserved": 0, "lon": -76.98061133333333, "is_disabled": 0, "fusion_lat": 0.0, "lat": 38.90161283333333, "bike_id": "f5155c8aa3d904a44e8efee0c880eb5f", "fusion_lon": 0.0}, {"rental_uris": {"ios": "https://dc.lft.to/lastmile_qr_scan", "android": "https://dc.lft.to/lastmile_qr_scan"}, "type": "electric_scooter", "name": "e390fab986289e70bbce08065b4ee61d", "is_reserved": 0, "lon": -77.0071795, "is_disabled": 0, "fusion_lat": 0.0, "lat": 38.879606333333335, "bike_id": "e390fab986289e70bbce08065b4ee61d", "fusion_lon": 0.0}, {"rental_uris": {"ios": "https://dc.lft.to/lastmile_qr_scan", "android": "https://dc.lft.to/lastmile_qr_scan"}, "type": "electric_scooter", "name": "401fd9f3bf57d279e45764a0173a466b", "is_reserved": 0, "lon": -76.9883185, "is_disabled": 0, "fusion_lat": 0.0, "lat": 38.89496783333333, "bike_id": "401fd9f3bf57d279e45764a0173a466b", "fusion_lon": 0.0}, {"rental_uris": {"ios": "https://dc.lft.to/lastmile_qr_scan", "android": "https://dc.lft.to/lastmile_qr_scan"}, "type": "electric_scooter", "name": "54c92889206ec7f3e9130a4a33c8b2cb", "is_reserved": 0, "lon": -77.02415383333333, "is_disabled": 0, "fusion_lat": 0.0, "lat": 38.899115, "bike_id": "54c92889206ec7f3e9130a4a33c8b2cb", "fusion_lon": 0.0}, {"rental_uris": {"ios": "https://dc.lft.to/lastmile_qr_scan", "android": "https://dc.lft.to/lastmile_qr_scan"}, "type": "electric_scooter", "name": "17e9b736a273b1fce298a4c311ea6fa3", "is_reserved": 0, "lon": -77.01774466666667, "is_disabled": 0, "fusion_lat": 0.0, "lat": 38.88332666666667, "bike_id": "17e9b736a273b1fce298a4c311ea6fa3", "fusion_lon": 0.0}, {"rental_uris": {"ios": "https://dc.lft.to/lastmile_qr_scan", "android": "https://dc.lft.to/lastmile_qr_scan"}, "type": "electric_scooter", "name": "0ddf6ae8fcff81eadd7c66834dc14341", "is_reserved": 0, "lon": -77.03356066666667, "is_disabled": 0, "fusion_lat": 0.0, "lat": 38.922323666666664, "bike_id": "0ddf6ae8fcff81eadd7c66834dc14341", "fusion_lon": 0.0}, {"rental_uris": {"ios": "https://dc.lft.to/lastmile_qr_scan", "android": "https://dc.lft.to/lastmile_qr_scan"}, "type": "electric_scooter", "name": "75c5ef9b1fce2578934802810ee28f3c", "is_reserved": 0, "lon": -77.03453133333333, "is_disabled": 0, "fusion_lat": 0.0, "lat": 38.905798833333336, "bike_id": "75c5ef9b1fce2578934802810ee28f3c", "fusion_lon": 0.0}, {"rental_uris": {"ios": "https://dc.lft.to/lastmile_qr_scan", "android": "https://dc.lft.to/lastmile_qr_scan"}, "type": "electric_scooter", "name": "bb984499a13ce143ae5d01ce01063f10", "is_reserved": 0, "lon": -77.02267116666667, "is_disabled": 0, "fusion_lat": 0.0, "lat": 38.92737916666667, "bike_id": "bb984499a13ce143ae5d01ce01063f10", "fusion_lon": 0.0}, {"rental_uris": {"ios": "https://dc.lft.to/lastmile_qr_scan", "android": "https://dc.lft.to/lastmile_qr_scan"}, "type": "electric_bike", "name": "b9f9b0aa5a919d1758a2750bb8426ba9", "is_reserved": 0, "lon": -76.98770266666666, "is_disabled": 0, "fusion_lat": 0.0, "lat": 38.857721, "bike_id": "b9f9b0aa5a919d1758a2750bb8426ba9", "fusion_lon": 0.0}, {"rental_uris": {"ios": "https://dc.lft.to/lastmile_qr_scan", "android": "https://dc.lft.to/lastmile_qr_scan"}, "type": "electric_scooter", "name": "93e7a3160f6b9728af9e9acef683648e", "is_reserved": 0, "lon": -77.03662666666666, "is_disabled": 0, "fusion_lat": 0.0, "lat": 38.93635866666666, "bike_id": "93e7a3160f6b9728af9e9acef683648e", "fusion_lon": 0.0}, {"rental_uris": {"ios": "https://dc.lft.to/lastmile_qr_scan", "android": "https://dc.lft.to/lastmile_qr_scan"}, "type": "electric_bike", "name": "086db32e15d277efb7f0800a5fe6164d", "is_reserved": 0, "lon": -76.9375015, "is_disabled": 0, "fusion_lat": 0.0, "lat": 38.87147216666666, "bike_id": "086db32e15d277efb7f0800a5fe6164d", "fusion_lon": 0.0}, {"rental_uris": {"ios": "https://dc.lft.to/lastmile_qr_scan", "android": "https://dc.lft.to/lastmile_qr_scan"}, "type": "electric_scooter", "name": "dd5c1d26ea2d7893c06db2d24c1cd6f1", "is_reserved": 0, "lon": -77.03219866666667, "is_disabled": 0, "fusion_lat": 0.0, "lat": 38.92070416666667, "bike_id": "dd5c1d26ea2d7893c06db2d24c1cd6f1", "fusion_lon": 0.0}, {"rental_uris": {"ios": "https://dc.lft.to/lastmile_qr_scan", "android": "https://dc.lft.to/lastmile_qr_scan"}, "type": "electric_scooter", "name": "a021b9808d1da00d6446b3465f88f3b6", "is_reserved": 0, "lon": -77.04277166666667, "is_disabled": 0, "fusion_lat": 0.0, "lat": 38.90421716666667, "bike_id": "a021b9808d1da00d6446b3465f88f3b6", "fusion_lon": 0.0}, {"rental_uris": {"ios": "https://dc.lft.to/lastmile_qr_scan", "android": "https://dc.lft.to/lastmile_qr_scan"}, "type": "electric_scooter", "name": "333dff22d750bf4ef2e644d28a498caa", "is_reserved": 0, "lon": -77.0136155, "is_disabled": 0, "fusion_lat": 0.0, "lat": 38.8958655, "bike_id": "333dff22d750bf4ef2e644d28a498caa", "fusion_lon": 0.0}, {"rental_uris": {"ios": "https://dc.lft.to/lastmile_qr_scan", "android": "https://dc.lft.to/lastmile_qr_scan"}, "type": "electric_scooter", "name": "4ef29ecbefa7248d9aa09a208b508d3e", "is_reserved": 0, "lon": -77.0305665, "is_disabled": 0, "fusion_lat": 0.0, "lat": 38.924671333333336, "bike_id": "4ef29ecbefa7248d9aa09a208b508d3e", "fusion_lon": 0.0}, {"rental_uris": {"ios": "https://dc.lft.to/lastmile_qr_scan", "android": "https://dc.lft.to/lastmile_qr_scan"}, "type": "electric_scooter", "name": "c240d781f8a09812980553195e9cb0c1", "is_reserved": 0, "lon": -77.046535, "is_disabled": 0, "fusion_lat": 0.0, "lat": 38.911941, "bike_id": "c240d781f8a09812980553195e9cb0c1", "fusion_lon": 0.0}, {"rental_uris": {"ios": "https://dc.lft.to/lastmile_qr_scan", "android": "https://dc.lft.to/lastmile_qr_scan"}, "type": "electric_scooter", "name": "8aeda359a52a64841e24379e52c107b9", "is_reserved": 0, "lon": -77.0182335, "is_disabled": 0, "fusion_lat": 0.0, "lat": 38.919733666666666, "bike_id": "8aeda359a52a64841e24379e52c107b9", "fusion_lon": 0.0}, {"rental_uris": {"ios": "https://dc.lft.to/lastmile_qr_scan", "android": "https://dc.lft.to/lastmile_qr_scan"}, "type": "electric_scooter", "name": "a89c5134638102bff4cebaed2de2a3dc", "is_reserved": 0, "lon": -77.0551985, "is_disabled": 0, "fusion_lat": 0.0, "lat": 38.899587333333336, "bike_id": "a89c5134638102bff4cebaed2de2a3dc", "fusion_lon": 0.0}, {"rental_uris": {"ios": "https://dc.lft.to/lastmile_qr_scan", "android": "https://dc.lft.to/lastmile_qr_scan"}, "type": "electric_scooter", "name": "cc6485ee7c3aa361720ea88dc8105fcb", "is_reserved": 0, "lon": -76.95203933333333, "is_disabled": 0, "fusion_lat": 0.0, "lat": 38.90513766666667, "bike_id": "cc6485ee7c3aa361720ea88dc8105fcb", "fusion_lon": 0.0}, {"rental_uris": {"ios": "https://dc.lft.to/lastmile_qr_scan", "android": "https://dc.lft.to/lastmile_qr_scan"}, "type": "electric_scooter", "name": "7d9bf52821807fdd07da6786f0185b0b", "is_reserved": 0, "lon": -76.99929033333333, "is_disabled": 0, "fusion_lat": 0.0, "lat": 38.957604, "bike_id": "7d9bf52821807fdd07da6786f0185b0b", "fusion_lon": 0.0}, {"rental_uris": {"ios": "https://dc.lft.to/lastmile_qr_scan", "android": "https://dc.lft.to/lastmile_qr_scan"}, "type": "electric_scooter", "name": "1d1d7d8a7e4b61a8227db14f29ae16e0", "is_reserved": 0, "lon": -77.0328565, "is_disabled": 0, "fusion_lat": 0.0, "lat": 38.90424733333333, "bike_id": "1d1d7d8a7e4b61a8227db14f29ae16e0", "fusion_lon": 0.0}, {"rental_uris": {"ios": "https://dc.lft.to/lastmile_qr_scan", "android": "https://dc.lft.to/lastmile_qr_scan"}, "type": "electric_scooter", "name": "56386f8a2a00ec62b7f236c7edb20437", "is_reserved": 0, "lon": -77.007787, "is_disabled": 0, "fusion_lat": 0.0, "lat": 38.89735816666666, "bike_id": "56386f8a2a00ec62b7f236c7edb20437", "fusion_lon": 0.0}, {"rental_uris": {"ios": "https://dc.lft.to/lastmile_qr_scan", "android": "https://dc.lft.to/lastmile_qr_scan"}, "type": "electric_scooter", "name": "308185f49815298c131eb9b61549b2f9", "is_reserved": 0, "lon": -77.02781416666667, "is_disabled": 0, "fusion_lat": 0.0, "lat": 38.96241333333333, "bike_id": "308185f49815298c131eb9b61549b2f9", "fusion_lon": 0.0}, {"rental_uris": {"ios": "https://dc.lft.to/lastmile_qr_scan", "android": "https://dc.lft.to/lastmile_qr_scan"}, "type": "electric_scooter", "name": "78b0cd32eef109ff4502838b8840ecd4", "is_reserved": 0, "lon": -77.0038335, "is_disabled": 0, "fusion_lat": 0.0, "lat": 38.940633166666665, "bike_id": "78b0cd32eef109ff4502838b8840ecd4", "fusion_lon": 0.0}, {"rental_uris": {"ios": "https://dc.lft.to/lastmile_qr_scan", "android": "https://dc.lft.to/lastmile_qr_scan"}, "type": "electric_scooter", "name": "3bf094c48d69d59990ebca49c1300aae", "is_reserved": 0, "lon": -77.05117583333333, "is_disabled": 0, "fusion_lat": 0.0, "lat": 38.92524316666667, "bike_id": "3bf094c48d69d59990ebca49c1300aae", "fusion_lon": 0.0}, {"rental_uris": {"ios": "https://dc.lft.to/lastmile_qr_scan", "android": "https://dc.lft.to/lastmile_qr_scan"}, "type": "electric_scooter", "name": "fdb3a6368c537bdc75639ee5c71c5142", "is_reserved": 0, "lon": -77.046845, "is_disabled": 0, "fusion_lat": 0.0, "lat": 38.8922275, "bike_id": "fdb3a6368c537bdc75639ee5c71c5142", "fusion_lon": 0.0}, {"rental_uris": {"ios": "https://dc.lft.to/lastmile_qr_scan", "android": "https://dc.lft.to/lastmile_qr_scan"}, "type": "electric_bike", "name": "073941474b0e92582beed4d89af8bf2a", "is_reserved": 0, "lon": -76.99920766666666, "is_disabled": 0, "fusion_lat": 0.0, "lat": 38.9947135, "bike_id": "073941474b0e92582beed4d89af8bf2a", "fusion_lon": 0.0}, {"rental_uris": {"ios": "https://dc.lft.to/lastmile_qr_scan", "android": "https://dc.lft.to/lastmile_qr_scan"}, "type": "electric_scooter", "name": "4ac732ca451617dfde36239a19a13d90", "is_reserved": 0, "lon": -77.04671783333333, "is_disabled": 0, "fusion_lat": 0.0, "lat": 38.892800333333334, "bike_id": "4ac732ca451617dfde36239a19a13d90", "fusion_lon": 0.0}, {"rental_uris": {"ios": "https://dc.lft.to/lastmile_qr_scan", "android": "https://dc.lft.to/lastmile_qr_scan"}, "type": "electric_scooter", "name": "81997d69342f8671a1dd24f8de40f495", "is_reserved": 0, "lon": -77.0344155, "is_disabled": 0, "fusion_lat": 0.0, "lat": 38.917951, "bike_id": "81997d69342f8671a1dd24f8de40f495", "fusion_lon": 0.0}, {"rental_uris": {"ios": "https://dc.lft.to/lastmile_qr_scan", "android": "https://dc.lft.to/lastmile_qr_scan"}, "type": "electric_scooter", "name": "2f392770a88e5d67ace5750462124205", "is_reserved": 0, "lon": -77.03957183333333, "is_disabled": 0, "fusion_lat": 0.0, "lat": 38.89243533333333, "bike_id": "2f392770a88e5d67ace5750462124205", "fusion_lon": 0.0}, {"rental_uris": {"ios": "https://dc.lft.to/lastmile_qr_scan", "android": "https://dc.lft.to/lastmile_qr_scan"}, "type": "electric_scooter", "name": "5c77a250dcb0305e55715d28f8e2ff76", "is_reserved": 0, "lon": -77.02929233333333, "is_disabled": 0, "fusion_lat": 0.0, "lat": 38.90722183333333, "bike_id": "5c77a250dcb0305e55715d28f8e2ff76", "fusion_lon": 0.0}, {"rental_uris": {"ios": "https://dc.lft.to/lastmile_qr_scan", "android": "https://dc.lft.to/lastmile_qr_scan"}, "type": "electric_scooter", "name": "e342a8cd8e18971c6b2f6dc3b51e4133", "is_reserved": 0, "lon": -77.04470466666666, "is_disabled": 0, "fusion_lat": 0.0, "lat": 38.922832, "bike_id": "e342a8cd8e18971c6b2f6dc3b51e4133", "fusion_lon": 0.0}, {"rental_uris": {"ios": "https://dc.lft.to/lastmile_qr_scan", "android": "https://dc.lft.to/lastmile_qr_scan"}, "type": "electric_bike", "name": "adbd36db8cb0a69bf22bb2311665b82c", "is_reserved": 0, "lon": -77.05516816666666, "is_disabled": 0, "fusion_lat": 0.0, "lat": 38.94409916666667, "bike_id": "adbd36db8cb0a69bf22bb2311665b82c", "fusion_lon": 0.0}, {"rental_uris": {"ios": "https://dc.lft.to/lastmile_qr_scan", "android": "https://dc.lft.to/lastmile_qr_scan"}, "type": "electric_scooter", "name": "119b8573f57f237bb665ff239a1292f0", "is_reserved": 0, "lon": -77.06608666666666, "is_disabled": 0, "fusion_lat": 0.0, "lat": 38.9111075, "bike_id": "119b8573f57f237bb665ff239a1292f0", "fusion_lon": 0.0}, {"rental_uris": {"ios": "https://dc.lft.to/lastmile_qr_scan", "android": "https://dc.lft.to/lastmile_qr_scan"}, "type": "electric_scooter", "name": "3d058b47000284624a764773b485dce1", "is_reserved": 0, "lon": -77.04147133333333, "is_disabled": 0, "fusion_lat": 0.0, "lat": 38.923049666666664, "bike_id": "3d058b47000284624a764773b485dce1", "fusion_lon": 0.0}, {"rental_uris": {"ios": "https://dc.lft.to/lastmile_qr_scan", "android": "https://dc.lft.to/lastmile_qr_scan"}, "type": "electric_scooter", "name": "8124fa28ac13a177d9f25ff0a384e541", "is_reserved": 0, "lon": -77.00454266666667, "is_disabled": 0, "fusion_lat": 0.0, "lat": 38.837929333333335, "bike_id": "8124fa28ac13a177d9f25ff0a384e541", "fusion_lon": 0.0}, {"rental_uris": {"ios": "https://dc.lft.to/lastmile_qr_scan", "android": "https://dc.lft.to/lastmile_qr_scan"}, "type": "electric_scooter", "name": "464912b25d770f7d9dad3fbfd0560970", "is_reserved": 0, "lon": -77.02980366666667, "is_disabled": 0, "fusion_lat": 0.0, "lat": 38.923169666666666, "bike_id": "464912b25d770f7d9dad3fbfd0560970", "fusion_lon": 0.0}, {"rental_uris": {"ios": "https://dc.lft.to/lastmile_qr_scan", "android": "https://dc.lft.to/lastmile_qr_scan"}, "type": "electric_scooter", "name": "ada978c77ca8d32c6633d602396ca85f", "is_reserved": 0, "lon": -76.9963305, "is_disabled": 0, "fusion_lat": 0.0, "lat": 38.877383, "bike_id": "ada978c77ca8d32c6633d602396ca85f", "fusion_lon": 0.0}, {"rental_uris": {"ios": "https://dc.lft.to/lastmile_qr_scan", "android": "https://dc.lft.to/lastmile_qr_scan"}, "type": "electric_scooter", "name": "c6c77529aa4debc443220eb418d1b476", "is_reserved": 0, "lon": -77.0401205, "is_disabled": 0, "fusion_lat": 0.0, "lat": 38.922512, "bike_id": "c6c77529aa4debc443220eb418d1b476", "fusion_lon": 0.0}, {"rental_uris": {"ios": "https://dc.lft.to/lastmile_qr_scan", "android": "https://dc.lft.to/lastmile_qr_scan"}, "type": "electric_bike", "name": "f38e73a28a94cae25b904fb9d81b1302", "is_reserved": 0, "lon": -76.933305, "is_disabled": 0, "fusion_lat": 0.0, "lat": 38.9515505, "bike_id": "f38e73a28a94cae25b904fb9d81b1302", "fusion_lon": 0.0}, {"rental_uris": {"ios": "https://dc.lft.to/lastmile_qr_scan", "android": "https://dc.lft.to/lastmile_qr_scan"}, "type": "electric_scooter", "name": "3de93c3b2478259382e183733b2b01ed", "is_reserved": 0, "lon": -77.01087533333333, "is_disabled": 0, "fusion_lat": 0.0, "lat": 38.894945, "bike_id": "3de93c3b2478259382e183733b2b01ed", "fusion_lon": 0.0}, {"rental_uris": {"ios": "https://dc.lft.to/lastmile_qr_scan", "android": "https://dc.lft.to/lastmile_qr_scan"}, "type": "electric_scooter", "name": "1d502145c97e12deb5e216bc37322e26", "is_reserved": 0, "lon": -77.02265616666666, "is_disabled": 0, "fusion_lat": 0.0, "lat": 38.87872933333333, "bike_id": "1d502145c97e12deb5e216bc37322e26", "fusion_lon": 0.0}, {"rental_uris": {"ios": "https://dc.lft.to/lastmile_qr_scan", "android": "https://dc.lft.to/lastmile_qr_scan"}, "type": "electric_scooter", "name": "645e91a0d2bcc06317a53a99a29c0f0f", "is_reserved": 0, "lon": -77.00580566666666, "is_disabled": 0, "fusion_lat": 0.0, "lat": 38.874477, "bike_id": "645e91a0d2bcc06317a53a99a29c0f0f", "fusion_lon": 0.0}, {"rental_uris": {"ios": "https://dc.lft.to/lastmile_qr_scan", "android": "https://dc.lft.to/lastmile_qr_scan"}, "type": "electric_scooter", "name": "f29fbda80e74a3e71c46d300892293d3", "is_reserved": 0, "lon": -77.0033715, "is_disabled": 0, "fusion_lat": 0.0, "lat": 38.897311, "bike_id": "f29fbda80e74a3e71c46d300892293d3", "fusion_lon": 0.0}, {"rental_uris": {"ios": "https://dc.lft.to/lastmile_qr_scan", "android": "https://dc.lft.to/lastmile_qr_scan"}, "type": "electric_scooter", "name": "dbd7bfa3ed1da97f6c94447a6de8aa1e", "is_reserved": 0, "lon": -77.033908, "is_disabled": 0, "fusion_lat": 0.0, "lat": 38.9026935, "bike_id": "dbd7bfa3ed1da97f6c94447a6de8aa1e", "fusion_lon": 0.0}, {"rental_uris": {"ios": "https://dc.lft.to/lastmile_qr_scan", "android": "https://dc.lft.to/lastmile_qr_scan"}, "type": "electric_scooter", "name": "1b19adbe8e4d7b65384dca9185716488", "is_reserved": 0, "lon": -77.01580733333333, "is_disabled": 0, "fusion_lat": 0.0, "lat": 38.916722666666665, "bike_id": "1b19adbe8e4d7b65384dca9185716488", "fusion_lon": 0.0}, {"rental_uris": {"ios": "https://dc.lft.to/lastmile_qr_scan", "android": "https://dc.lft.to/lastmile_qr_scan"}, "type": "electric_scooter", "name": "7fa0a2b9414339a6de8d65699f944637", "is_reserved": 0, "lon": -76.98001066666667, "is_disabled": 0, "fusion_lat": 0.0, "lat": 38.906769833333335, "bike_id": "7fa0a2b9414339a6de8d65699f944637", "fusion_lon": 0.0}, {"rental_uris": {"ios": "https://dc.lft.to/lastmile_qr_scan", "android": "https://dc.lft.to/lastmile_qr_scan"}, "type": "electric_scooter", "name": "fed9e1fc350a60c95673289f0c0ae4ec", "is_reserved": 0, "lon": -77.0227765, "is_disabled": 0, "fusion_lat": 0.0, "lat": 38.909542333333334, "bike_id": "fed9e1fc350a60c95673289f0c0ae4ec", "fusion_lon": 0.0}, {"rental_uris": {"ios": "https://dc.lft.to/lastmile_qr_scan", "android": "https://dc.lft.to/lastmile_qr_scan"}, "type": "electric_scooter", "name": "515c7965b5ef56d4e01a10e10c35cc72", "is_reserved": 0, "lon": -76.99179316666667, "is_disabled": 0, "fusion_lat": 0.0, "lat": 38.889306, "bike_id": "515c7965b5ef56d4e01a10e10c35cc72", "fusion_lon": 0.0}, {"rental_uris": {"ios": "https://dc.lft.to/lastmile_qr_scan", "android": "https://dc.lft.to/lastmile_qr_scan"}, "type": "electric_scooter", "name": "6ed5974e7fbac8d3718c70b377e16019", "is_reserved": 0, "lon": -76.9876665, "is_disabled": 0, "fusion_lat": 0.0, "lat": 38.91197316666667, "bike_id": "6ed5974e7fbac8d3718c70b377e16019", "fusion_lon": 0.0}, {"rental_uris": {"ios": "https://dc.lft.to/lastmile_qr_scan", "android": "https://dc.lft.to/lastmile_qr_scan"}, "type": "electric_bike", "name": "1b83669dc88d36bb796c1e121b8015ea", "is_reserved": 0, "lon": -77.09962583333333, "is_disabled": 0, "fusion_lat": 0.0, "lat": 38.8579175, "bike_id": "1b83669dc88d36bb796c1e121b8015ea", "fusion_lon": 0.0}, {"rental_uris": {"ios": "https://dc.lft.to/lastmile_qr_scan", "android": "https://dc.lft.to/lastmile_qr_scan"}, "type": "electric_scooter", "name": "bf5b1c12825bd686a644254337ec06ea", "is_reserved": 0, "lon": -77.03511616666667, "is_disabled": 0, "fusion_lat": 0.0, "lat": 38.92210766666667, "bike_id": "bf5b1c12825bd686a644254337ec06ea", "fusion_lon": 0.0}, {"rental_uris": {"ios": "https://dc.lft.to/lastmile_qr_scan", "android": "https://dc.lft.to/lastmile_qr_scan"}, "type": "electric_scooter", "name": "d1058b7891b15cffe9ffcc62c80fed70", "is_reserved": 0, "lon": -77.01158716666667, "is_disabled": 0, "fusion_lat": 0.0, "lat": 38.91416616666667, "bike_id": "d1058b7891b15cffe9ffcc62c80fed70", "fusion_lon": 0.0}, {"rental_uris": {"ios": "https://dc.lft.to/lastmile_qr_scan", "android": "https://dc.lft.to/lastmile_qr_scan"}, "type": "electric_scooter", "name": "fd60b03b57bf75068789ad1293c9d143", "is_reserved": 0, "lon": -77.024216, "is_disabled": 0, "fusion_lat": 0.0, "lat": 38.9030225, "bike_id": "fd60b03b57bf75068789ad1293c9d143", "fusion_lon": 0.0}, {"rental_uris": {"ios": "https://dc.lft.to/lastmile_qr_scan", "android": "https://dc.lft.to/lastmile_qr_scan"}, "type": "electric_scooter", "name": "0d1556937db9c7f939b577d27a898334", "is_reserved": 0, "lon": -77.040841, "is_disabled": 0, "fusion_lat": 0.0, "lat": 38.947914833333336, "bike_id": "0d1556937db9c7f939b577d27a898334", "fusion_lon": 0.0}, {"rental_uris": {"ios": "https://dc.lft.to/lastmile_qr_scan", "android": "https://dc.lft.to/lastmile_qr_scan"}, "type": "electric_scooter", "name": "556e4cded5a9b0aecb1c75bbeada2a85", "is_reserved": 0, "lon": -77.03409883333333, "is_disabled": 0, "fusion_lat": 0.0, "lat": 38.923954, "bike_id": "556e4cded5a9b0aecb1c75bbeada2a85", "fusion_lon": 0.0}, {"rental_uris": {"ios": "https://dc.lft.to/lastmile_qr_scan", "android": "https://dc.lft.to/lastmile_qr_scan"}, "type": "electric_scooter", "name": "53b3d8dbc569f1b62a656d4b6adabfb5", "is_reserved": 0, "lon": -77.04374183333333, "is_disabled": 0, "fusion_lat": 0.0, "lat": 38.897559666666666, "bike_id": "53b3d8dbc569f1b62a656d4b6adabfb5", "fusion_lon": 0.0}, {"rental_uris": {"ios": "https://dc.lft.to/lastmile_qr_scan", "android": "https://dc.lft.to/lastmile_qr_scan"}, "type": "electric_scooter", "name": "d0ec7dc43288d2b284cb559f90a0e1b3", "is_reserved": 0, "lon": -77.02446383333333, "is_disabled": 0, "fusion_lat": 0.0, "lat": 38.920465, "bike_id": "d0ec7dc43288d2b284cb559f90a0e1b3", "fusion_lon": 0.0}, {"rental_uris": {"ios": "https://dc.lft.to/lastmile_qr_scan", "android": "https://dc.lft.to/lastmile_qr_scan"}, "type": "electric_scooter", "name": "0bcf798d6b317cf95ad229445b922021", "is_reserved": 0, "lon": -77.02259883333333, "is_disabled": 0, "fusion_lat": 0.0, "lat": 38.92821416666666, "bike_id": "0bcf798d6b317cf95ad229445b922021", "fusion_lon": 0.0}, {"rental_uris": {"ios": "https://dc.lft.to/lastmile_qr_scan", "android": "https://dc.lft.to/lastmile_qr_scan"}, "type": "electric_scooter", "name": "75b5686dda644cadfd369ef4bd017abc", "is_reserved": 0, "lon": -77.024822, "is_disabled": 0, "fusion_lat": 0.0, "lat": 38.935129333333336, "bike_id": "75b5686dda644cadfd369ef4bd017abc", "fusion_lon": 0.0}, {"rental_uris": {"ios": "https://dc.lft.to/lastmile_qr_scan", "android": "https://dc.lft.to/lastmile_qr_scan"}, "type": "electric_scooter", "name": "6e082faa7da16d3a33787e3433cf8142", "is_reserved": 0, "lon": -77.00751933333333, "is_disabled": 0, "fusion_lat": 0.0, "lat": 38.911047833333335, "bike_id": "6e082faa7da16d3a33787e3433cf8142", "fusion_lon": 0.0}, {"rental_uris": {"ios": "https://dc.lft.to/lastmile_qr_scan", "android": "https://dc.lft.to/lastmile_qr_scan"}, "type": "electric_scooter", "name": "aead62143e0a73f7e51c4db31716c7d0", "is_reserved": 0, "lon": -77.034521, "is_disabled": 0, "fusion_lat": 0.0, "lat": 38.905729, "bike_id": "aead62143e0a73f7e51c4db31716c7d0", "fusion_lon": 0.0}, {"rental_uris": {"ios": "https://dc.lft.to/lastmile_qr_scan", "android": "https://dc.lft.to/lastmile_qr_scan"}, "type": "electric_scooter", "name": "9ee6ccdbfb0a59108bb1bc3413816a00", "is_reserved": 0, "lon": -77.04013983333333, "is_disabled": 0, "fusion_lat": 0.0, "lat": 38.92160633333334, "bike_id": "9ee6ccdbfb0a59108bb1bc3413816a00", "fusion_lon": 0.0}, {"rental_uris": {"ios": "https://dc.lft.to/lastmile_qr_scan", "android": "https://dc.lft.to/lastmile_qr_scan"}, "type": "electric_bike", "name": "9932542d96c0327b2c4428af079ca367", "is_reserved": 0, "lon": -76.98022266666666, "is_disabled": 0, "fusion_lat": 0.0, "lat": 38.853176166666664, "bike_id": "9932542d96c0327b2c4428af079ca367", "fusion_lon": 0.0}, {"rental_uris": {"ios": "https://dc.lft.to/lastmile_qr_scan", "android": "https://dc.lft.to/lastmile_qr_scan"}, "type": "electric_scooter", "name": "e0f5fd400688de50ba82057dafefc6b9", "is_reserved": 0, "lon": -77.02560766666667, "is_disabled": 0, "fusion_lat": 0.0, "lat": 38.8841415, "bike_id": "e0f5fd400688de50ba82057dafefc6b9", "fusion_lon": 0.0}, {"rental_uris": {"ios": "https://dc.lft.to/lastmile_qr_scan", "android": "https://dc.lft.to/lastmile_qr_scan"}, "type": "electric_bike", "name": "f35ba4cd58a986f5291ac0d9c041b669", "is_reserved": 0, "lon": -77.10626633333334, "is_disabled": 0, "fusion_lat": 0.0, "lat": 38.873239166666664, "bike_id": "f35ba4cd58a986f5291ac0d9c041b669", "fusion_lon": 0.0}, {"rental_uris": {"ios": "https://dc.lft.to/lastmile_qr_scan", "android": "https://dc.lft.to/lastmile_qr_scan"}, "type": "electric_scooter", "name": "1dd5f45a7826a1d60bff0a8fcbb6a324", "is_reserved": 0, "lon": -76.99013083333334, "is_disabled": 0, "fusion_lat": 0.0, "lat": 38.89885, "bike_id": "1dd5f45a7826a1d60bff0a8fcbb6a324", "fusion_lon": 0.0}, {"rental_uris": {"ios": "https://dc.lft.to/lastmile_qr_scan", "android": "https://dc.lft.to/lastmile_qr_scan"}, "type": "electric_scooter", "name": "2bf1892e3e7aca13c9dd46913888768e", "is_reserved": 0, "lon": -77.02463766666666, "is_disabled": 0, "fusion_lat": 0.0, "lat": 38.899968666666666, "bike_id": "2bf1892e3e7aca13c9dd46913888768e", "fusion_lon": 0.0}, {"rental_uris": {"ios": "https://dc.lft.to/lastmile_qr_scan", "android": "https://dc.lft.to/lastmile_qr_scan"}, "type": "electric_scooter", "name": "6925e9da07e2837d9b63c32be53bf793", "is_reserved": 0, "lon": -77.02508483333334, "is_disabled": 0, "fusion_lat": 0.0, "lat": 38.9042235, "bike_id": "6925e9da07e2837d9b63c32be53bf793", "fusion_lon": 0.0}, {"rental_uris": {"ios": "https://dc.lft.to/lastmile_qr_scan", "android": "https://dc.lft.to/lastmile_qr_scan"}, "type": "electric_scooter", "name": "258af0dd47b1498d4e4aea60333d1007", "is_reserved": 0, "lon": -76.9865065, "is_disabled": 0, "fusion_lat": 0.0, "lat": 38.9054245, "bike_id": "258af0dd47b1498d4e4aea60333d1007", "fusion_lon": 0.0}, {"rental_uris": {"ios": "https://dc.lft.to/lastmile_qr_scan", "android": "https://dc.lft.to/lastmile_qr_scan"}, "type": "electric_bike", "name": "0cb7300cefcf9e4a5b41632e29819a0b", "is_reserved": 0, "lon": -77.07385483333333, "is_disabled": 0, "fusion_lat": 0.0, "lat": 38.91441533333333, "bike_id": "0cb7300cefcf9e4a5b41632e29819a0b", "fusion_lon": 0.0}, {"rental_uris": {"ios": "https://dc.lft.to/lastmile_qr_scan", "android": "https://dc.lft.to/lastmile_qr_scan"}, "type": "electric_scooter", "name": "c630319cc7ecaa414334ebc719485c20", "is_reserved": 0, "lon": -77.02380083333334, "is_disabled": 0, "fusion_lat": 0.0, "lat": 38.93392633333333, "bike_id": "c630319cc7ecaa414334ebc719485c20", "fusion_lon": 0.0}, {"rental_uris": {"ios": "https://dc.lft.to/lastmile_qr_scan", "android": "https://dc.lft.to/lastmile_qr_scan"}, "type": "electric_scooter", "name": "2b284e43d18bc700a2dac893a32b4daf", "is_reserved": 0, "lon": -77.04772816666667, "is_disabled": 0, "fusion_lat": 0.0, "lat": 38.9009765, "bike_id": "2b284e43d18bc700a2dac893a32b4daf", "fusion_lon": 0.0}, {"rental_uris": {"ios": "https://dc.lft.to/lastmile_qr_scan", "android": "https://dc.lft.to/lastmile_qr_scan"}, "type": "electric_bike", "name": "62612bef66ea7faceaca94ce6599b796", "is_reserved": 0, "lon": -77.07330433333334, "is_disabled": 0, "fusion_lat": 0.0, "lat": 38.9250605, "bike_id": "62612bef66ea7faceaca94ce6599b796", "fusion_lon": 0.0}, {"rental_uris": {"ios": "https://dc.lft.to/lastmile_qr_scan", "android": "https://dc.lft.to/lastmile_qr_scan"}, "type": "electric_scooter", "name": "ca6823771a5e7a74454e0258d6bf7084", "is_reserved": 0, "lon": -77.00407183333333, "is_disabled": 0, "fusion_lat": 0.0, "lat": 38.87939566666667, "bike_id": "ca6823771a5e7a74454e0258d6bf7084", "fusion_lon": 0.0}, {"rental_uris": {"ios": "https://dc.lft.to/lastmile_qr_scan", "android": "https://dc.lft.to/lastmile_qr_scan"}, "type": "electric_scooter", "name": "d9be1a4ce05f4913f41e00084113c5e6", "is_reserved": 0, "lon": -76.92302583333333, "is_disabled": 0, "fusion_lat": 0.0, "lat": 38.89385133333333, "bike_id": "d9be1a4ce05f4913f41e00084113c5e6", "fusion_lon": 0.0}, {"rental_uris": {"ios": "https://dc.lft.to/lastmile_qr_scan", "android": "https://dc.lft.to/lastmile_qr_scan"}, "type": "electric_scooter", "name": "94d1dad64508fa24a8b8e767ed5ac441", "is_reserved": 0, "lon": -77.026988, "is_disabled": 0, "fusion_lat": 0.0, "lat": 38.9053115, "bike_id": "94d1dad64508fa24a8b8e767ed5ac441", "fusion_lon": 0.0}, {"rental_uris": {"ios": "https://dc.lft.to/lastmile_qr_scan", "android": "https://dc.lft.to/lastmile_qr_scan"}, "type": "electric_scooter", "name": "9db1856486474d9b34baee524e9603ca", "is_reserved": 0, "lon": -77.03832333333334, "is_disabled": 0, "fusion_lat": 0.0, "lat": 38.91033566666667, "bike_id": "9db1856486474d9b34baee524e9603ca", "fusion_lon": 0.0}, {"rental_uris": {"ios": "https://dc.lft.to/lastmile_qr_scan", "android": "https://dc.lft.to/lastmile_qr_scan"}, "type": "electric_bike", "name": "449d456351c4cad2f95ded64f7d2670e", "is_reserved": 0, "lon": -77.07646183333334, "is_disabled": 0, "fusion_lat": 0.0, "lat": 38.84530183333333, "bike_id": "449d456351c4cad2f95ded64f7d2670e", "fusion_lon": 0.0}, {"rental_uris": {"ios": "https://dc.lft.to/lastmile_qr_scan", "android": "https://dc.lft.to/lastmile_qr_scan"}, "type": "electric_bike", "name": "d8918bf8836620b9f7a8c6747f849292", "is_reserved": 0, "lon": -77.06574866666666, "is_disabled": 0, "fusion_lat": 0.0, "lat": 38.911295333333335, "bike_id": "d8918bf8836620b9f7a8c6747f849292", "fusion_lon": 0.0}, {"rental_uris": {"ios": "https://dc.lft.to/lastmile_qr_scan", "android": "https://dc.lft.to/lastmile_qr_scan"}, "type": "electric_scooter", "name": "f998abe95669ea9c4bf58d45695bed78", "is_reserved": 0, "lon": -77.02665816666666, "is_disabled": 0, "fusion_lat": 0.0, "lat": 38.938566333333334, "bike_id": "f998abe95669ea9c4bf58d45695bed78", "fusion_lon": 0.0}, {"rental_uris": {"ios": "https://dc.lft.to/lastmile_qr_scan", "android": "https://dc.lft.to/lastmile_qr_scan"}, "type": "electric_scooter", "name": "aaf1c962663616ce199a2e097c367568", "is_reserved": 0, "lon": -77.02468466666667, "is_disabled": 0, "fusion_lat": 0.0, "lat": 38.957804333333335, "bike_id": "aaf1c962663616ce199a2e097c367568", "fusion_lon": 0.0}, {"rental_uris": {"ios": "https://dc.lft.to/lastmile_qr_scan", "android": "https://dc.lft.to/lastmile_qr_scan"}, "type": "electric_scooter", "name": "d296a1a7004b9a31133dd7e0dacdee12", "is_reserved": 0, "lon": -77.02034166666667, "is_disabled": 0, "fusion_lat": 0.0, "lat": 38.92434166666666, "bike_id": "d296a1a7004b9a31133dd7e0dacdee12", "fusion_lon": 0.0}, {"rental_uris": {"ios": "https://dc.lft.to/lastmile_qr_scan", "android": "https://dc.lft.to/lastmile_qr_scan"}, "type": "electric_scooter", "name": "3f89c6fdb5ed8e3a8cac69f9d71c3a00", "is_reserved": 0, "lon": -77.07406733333333, "is_disabled": 0, "fusion_lat": 0.0, "lat": 38.89725333333333, "bike_id": "3f89c6fdb5ed8e3a8cac69f9d71c3a00", "fusion_lon": 0.0}, {"rental_uris": {"ios": "https://dc.lft.to/lastmile_qr_scan", "android": "https://dc.lft.to/lastmile_qr_scan"}, "type": "electric_scooter", "name": "16e951e075ae2f6affa9cddeaa674eb3", "is_reserved": 0, "lon": -77.02443966666667, "is_disabled": 0, "fusion_lat": 0.0, "lat": 38.9497385, "bike_id": "16e951e075ae2f6affa9cddeaa674eb3", "fusion_lon": 0.0}, {"rental_uris": {"ios": "https://dc.lft.to/lastmile_qr_scan", "android": "https://dc.lft.to/lastmile_qr_scan"}, "type": "electric_scooter", "name": "8d167263e1b3851803a78200acb53da1", "is_reserved": 0, "lon": -76.98863566666667, "is_disabled": 0, "fusion_lat": 0.0, "lat": 38.9002835, "bike_id": "8d167263e1b3851803a78200acb53da1", "fusion_lon": 0.0}, {"rental_uris": {"ios": "https://dc.lft.to/lastmile_qr_scan", "android": "https://dc.lft.to/lastmile_qr_scan"}, "type": "electric_scooter", "name": "240fe5238d62789b69c75a7b2fb961e2", "is_reserved": 0, "lon": -77.03494733333333, "is_disabled": 0, "fusion_lat": 0.0, "lat": 38.93275116666667, "bike_id": "240fe5238d62789b69c75a7b2fb961e2", "fusion_lon": 0.0}, {"rental_uris": {"ios": "https://dc.lft.to/lastmile_qr_scan", "android": "https://dc.lft.to/lastmile_qr_scan"}, "type": "electric_bike", "name": "be3a65621e464795d60512c936bfe568", "is_reserved": 0, "lon": -76.995717, "is_disabled": 0, "fusion_lat": 0.0, "lat": 38.831565833333336, "bike_id": "be3a65621e464795d60512c936bfe568", "fusion_lon": 0.0}, {"rental_uris": {"ios": "https://dc.lft.to/lastmile_qr_scan", "android": "https://dc.lft.to/lastmile_qr_scan"}, "type": "electric_scooter", "name": "cec7395b037085154fa010b067298d3e", "is_reserved": 0, "lon": -76.99717566666666, "is_disabled": 0, "fusion_lat": 0.0, "lat": 38.897423, "bike_id": "cec7395b037085154fa010b067298d3e", "fusion_lon": 0.0}, {"rental_uris": {"ios": "https://dc.lft.to/lastmile_qr_scan", "android": "https://dc.lft.to/lastmile_qr_scan"}, "type": "electric_scooter", "name": "7567774dec46d9a8a9156a1dc056c081", "is_reserved": 0, "lon": -76.99663683333333, "is_disabled": 0, "fusion_lat": 0.0, "lat": 38.89233616666667, "bike_id": "7567774dec46d9a8a9156a1dc056c081", "fusion_lon": 0.0}, {"rental_uris": {"ios": "https://dc.lft.to/lastmile_qr_scan", "android": "https://dc.lft.to/lastmile_qr_scan"}, "type": "electric_scooter", "name": "d0a8122df5193dc942668f5dd53d941a", "is_reserved": 0, "lon": -77.002475, "is_disabled": 0, "fusion_lat": 0.0, "lat": 38.908409166666665, "bike_id": "d0a8122df5193dc942668f5dd53d941a", "fusion_lon": 0.0}, {"rental_uris": {"ios": "https://dc.lft.to/lastmile_qr_scan", "android": "https://dc.lft.to/lastmile_qr_scan"}, "type": "electric_scooter", "name": "77e5acce334c9cebe8818aaf891f538e", "is_reserved": 0, "lon": -77.03140633333334, "is_disabled": 0, "fusion_lat": 0.0, "lat": 38.887480833333335, "bike_id": "77e5acce334c9cebe8818aaf891f538e", "fusion_lon": 0.0}, {"rental_uris": {"ios": "https://dc.lft.to/lastmile_qr_scan", "android": "https://dc.lft.to/lastmile_qr_scan"}, "type": "electric_scooter", "name": "6ac9b9ade4f5041fa81fcd05308f05aa", "is_reserved": 0, "lon": -77.02527716666667, "is_disabled": 0, "fusion_lat": 0.0, "lat": 38.945334, "bike_id": "6ac9b9ade4f5041fa81fcd05308f05aa", "fusion_lon": 0.0}, {"rental_uris": {"ios": "https://dc.lft.to/lastmile_qr_scan", "android": "https://dc.lft.to/lastmile_qr_scan"}, "type": "electric_scooter", "name": "4c3d9fd8a046f231e1d657ff35737c1d", "is_reserved": 0, "lon": -77.01223383333334, "is_disabled": 0, "fusion_lat": 0.0, "lat": 38.91666083333333, "bike_id": "4c3d9fd8a046f231e1d657ff35737c1d", "fusion_lon": 0.0}, {"rental_uris": {"ios": "https://dc.lft.to/lastmile_qr_scan", "android": "https://dc.lft.to/lastmile_qr_scan"}, "type": "electric_scooter", "name": "d2cf8625f95b9b16e44a20f3caf67bb1", "is_reserved": 0, "lon": -77.01781983333333, "is_disabled": 0, "fusion_lat": 0.0, "lat": 38.8747525, "bike_id": "d2cf8625f95b9b16e44a20f3caf67bb1", "fusion_lon": 0.0}, {"rental_uris": {"ios": "https://dc.lft.to/lastmile_qr_scan", "android": "https://dc.lft.to/lastmile_qr_scan"}, "type": "electric_scooter", "name": "ac2f3c20d44ba6c54aeda519e61e47d4", "is_reserved": 0, "lon": -76.9950955, "is_disabled": 0, "fusion_lat": 0.0, "lat": 38.9033155, "bike_id": "ac2f3c20d44ba6c54aeda519e61e47d4", "fusion_lon": 0.0}, {"rental_uris": {"ios": "https://dc.lft.to/lastmile_qr_scan", "android": "https://dc.lft.to/lastmile_qr_scan"}, "type": "electric_scooter", "name": "b88ddafe3a7da397c0df42f06a2c16df", "is_reserved": 0, "lon": -77.04160433333334, "is_disabled": 0, "fusion_lat": 0.0, "lat": 38.905651, "bike_id": "b88ddafe3a7da397c0df42f06a2c16df", "fusion_lon": 0.0}, {"rental_uris": {"ios": "https://dc.lft.to/lastmile_qr_scan", "android": "https://dc.lft.to/lastmile_qr_scan"}, "type": "electric_scooter", "name": "f8e8f7de5fa4ecc56ddfd3b17fbf87ff", "is_reserved": 0, "lon": -77.04512516666666, "is_disabled": 0, "fusion_lat": 0.0, "lat": 38.91423866666667, "bike_id": "f8e8f7de5fa4ecc56ddfd3b17fbf87ff", "fusion_lon": 0.0}, {"rental_uris": {"ios": "https://dc.lft.to/lastmile_qr_scan", "android": "https://dc.lft.to/lastmile_qr_scan"}, "type": "electric_scooter", "name": "83c9588f548888e88ffc5bba4d6fbb71", "is_reserved": 0, "lon": -77.02547716666666, "is_disabled": 0, "fusion_lat": 0.0, "lat": 38.951744, "bike_id": "83c9588f548888e88ffc5bba4d6fbb71", "fusion_lon": 0.0}, {"rental_uris": {"ios": "https://dc.lft.to/lastmile_qr_scan", "android": "https://dc.lft.to/lastmile_qr_scan"}, "type": "electric_scooter", "name": "8f7fe175de2f93b25241ef55ad7a5aee", "is_reserved": 0, "lon": -77.034671, "is_disabled": 0, "fusion_lat": 0.0, "lat": 38.907311666666665, "bike_id": "8f7fe175de2f93b25241ef55ad7a5aee", "fusion_lon": 0.0}, {"rental_uris": {"ios": "https://dc.lft.to/lastmile_qr_scan", "android": "https://dc.lft.to/lastmile_qr_scan"}, "type": "electric_scooter", "name": "f501e72b99dce7027cc3399281e20a6c", "is_reserved": 0, "lon": -77.04881433333334, "is_disabled": 0, "fusion_lat": 0.0, "lat": 38.910205166666664, "bike_id": "f501e72b99dce7027cc3399281e20a6c", "fusion_lon": 0.0}, {"rental_uris": {"ios": "https://dc.lft.to/lastmile_qr_scan", "android": "https://dc.lft.to/lastmile_qr_scan"}, "type": "electric_scooter", "name": "bea2fa76907208350bae2b1fb4b60a56", "is_reserved": 0, "lon": -77.02210966666667, "is_disabled": 0, "fusion_lat": 0.0, "lat": 38.924636666666665, "bike_id": "bea2fa76907208350bae2b1fb4b60a56", "fusion_lon": 0.0}, {"rental_uris": {"ios": "https://dc.lft.to/lastmile_qr_scan", "android": "https://dc.lft.to/lastmile_qr_scan"}, "type": "electric_scooter", "name": "1a34ed99ac6275bfa4b47811b9850e19", "is_reserved": 0, "lon": -77.0404745, "is_disabled": 0, "fusion_lat": 0.0, "lat": 38.930117, "bike_id": "1a34ed99ac6275bfa4b47811b9850e19", "fusion_lon": 0.0}, {"rental_uris": {"ios": "https://dc.lft.to/lastmile_qr_scan", "android": "https://dc.lft.to/lastmile_qr_scan"}, "type": "electric_scooter", "name": "0d863d0906ac132f855d45ebe58fb857", "is_reserved": 0, "lon": -77.0247575, "is_disabled": 0, "fusion_lat": 0.0, "lat": 38.8973815, "bike_id": "0d863d0906ac132f855d45ebe58fb857", "fusion_lon": 0.0}, {"rental_uris": {"ios": "https://dc.lft.to/lastmile_qr_scan", "android": "https://dc.lft.to/lastmile_qr_scan"}, "type": "electric_scooter", "name": "f90d1eec8ce846debf6b0b09db188395", "is_reserved": 0, "lon": -77.02835266666666, "is_disabled": 0, "fusion_lat": 0.0, "lat": 38.914056333333335, "bike_id": "f90d1eec8ce846debf6b0b09db188395", "fusion_lon": 0.0}, {"rental_uris": {"ios": "https://dc.lft.to/lastmile_qr_scan", "android": "https://dc.lft.to/lastmile_qr_scan"}, "type": "electric_scooter", "name": "4116c638b39d333ac673e78c566eef0a", "is_reserved": 0, "lon": -77.03561433333333, "is_disabled": 0, "fusion_lat": 0.0, "lat": 38.904739666666664, "bike_id": "4116c638b39d333ac673e78c566eef0a", "fusion_lon": 0.0}, {"rental_uris": {"ios": "https://dc.lft.to/lastmile_qr_scan", "android": "https://dc.lft.to/lastmile_qr_scan"}, "type": "electric_bike", "name": "3e3053687e829572743868227680d208", "is_reserved": 0, "lon": -77.01449233333334, "is_disabled": 0, "fusion_lat": 0.0, "lat": 38.876753, "bike_id": "3e3053687e829572743868227680d208", "fusion_lon": 0.0}, {"rental_uris": {"ios": "https://dc.lft.to/lastmile_qr_scan", "android": "https://dc.lft.to/lastmile_qr_scan"}, "type": "electric_bike", "name": "ba4bba79f635409a3400fda7b1a386e2", "is_reserved": 0, "lon": -76.95156433333334, "is_disabled": 0, "fusion_lat": 0.0, "lat": 39.08435633333333, "bike_id": "ba4bba79f635409a3400fda7b1a386e2", "fusion_lon": 0.0}, {"rental_uris": {"ios": "https://dc.lft.to/lastmile_qr_scan", "android": "https://dc.lft.to/lastmile_qr_scan"}, "type": "electric_scooter", "name": "686604b1855433d298c2215b27fe234d", "is_reserved": 0, "lon": -77.01340516666667, "is_disabled": 0, "fusion_lat": 0.0, "lat": 38.91909616666667, "bike_id": "686604b1855433d298c2215b27fe234d", "fusion_lon": 0.0}, {"rental_uris": {"ios": "https://dc.lft.to/lastmile_qr_scan", "android": "https://dc.lft.to/lastmile_qr_scan"}, "type": "electric_scooter", "name": "724b74d0b4592a2e8bb39d2199dc0a40", "is_reserved": 0, "lon": -77.04944983333333, "is_disabled": 0, "fusion_lat": 0.0, "lat": 38.920182, "bike_id": "724b74d0b4592a2e8bb39d2199dc0a40", "fusion_lon": 0.0}, {"rental_uris": {"ios": "https://dc.lft.to/lastmile_qr_scan", "android": "https://dc.lft.to/lastmile_qr_scan"}, "type": "electric_scooter", "name": "f9fa953f32776c9c51c648555e899858", "is_reserved": 0, "lon": -77.01845333333333, "is_disabled": 0, "fusion_lat": 0.0, "lat": 38.90067966666667, "bike_id": "f9fa953f32776c9c51c648555e899858", "fusion_lon": 0.0}, {"rental_uris": {"ios": "https://dc.lft.to/lastmile_qr_scan", "android": "https://dc.lft.to/lastmile_qr_scan"}, "type": "electric_scooter", "name": "26957d9518efd9172b4bb64b18f01f4f", "is_reserved": 0, "lon": -77.00156866666667, "is_disabled": 0, "fusion_lat": 0.0, "lat": 38.821350333333335, "bike_id": "26957d9518efd9172b4bb64b18f01f4f", "fusion_lon": 0.0}, {"rental_uris": {"ios": "https://dc.lft.to/lastmile_qr_scan", "android": "https://dc.lft.to/lastmile_qr_scan"}, "type": "electric_bike", "name": "e63b544a10ef9c8dec1ff5e229300d4b", "is_reserved": 0, "lon": -77.22823333333334, "is_disabled": 0, "fusion_lat": 0.0, "lat": 38.88266333333333, "bike_id": "e63b544a10ef9c8dec1ff5e229300d4b", "fusion_lon": 0.0}, {"rental_uris": {"ios": "https://dc.lft.to/lastmile_qr_scan", "android": "https://dc.lft.to/lastmile_qr_scan"}, "type": "electric_scooter", "name": "2349e4246d0b175070f849405d121bb3", "is_reserved": 0, "lon": -76.93040433333333, "is_disabled": 0, "fusion_lat": 0.0, "lat": 38.8839775, "bike_id": "2349e4246d0b175070f849405d121bb3", "fusion_lon": 0.0}, {"rental_uris": {"ios": "https://dc.lft.to/lastmile_qr_scan", "android": "https://dc.lft.to/lastmile_qr_scan"}, "type": "electric_scooter", "name": "73ad67a842c003ff47f07181a3daa086", "is_reserved": 0, "lon": -76.94827383333333, "is_disabled": 0, "fusion_lat": 0.0, "lat": 38.88519633333333, "bike_id": "73ad67a842c003ff47f07181a3daa086", "fusion_lon": 0.0}, {"rental_uris": {"ios": "https://dc.lft.to/lastmile_qr_scan", "android": "https://dc.lft.to/lastmile_qr_scan"}, "type": "electric_scooter", "name": "c7aba4d74f3ec35420e47fb883b5ecc1", "is_reserved": 0, "lon": -77.01942083333333, "is_disabled": 0, "fusion_lat": 0.0, "lat": 38.947002833333336, "bike_id": "c7aba4d74f3ec35420e47fb883b5ecc1", "fusion_lon": 0.0}, {"rental_uris": {"ios": "https://dc.lft.to/lastmile_qr_scan", "android": "https://dc.lft.to/lastmile_qr_scan"}, "type": "electric_scooter", "name": "a5608b63baae701d68ad1d2f97500588", "is_reserved": 0, "lon": -77.03866633333334, "is_disabled": 0, "fusion_lat": 0.0, "lat": 38.906670166666665, "bike_id": "a5608b63baae701d68ad1d2f97500588", "fusion_lon": 0.0}, {"rental_uris": {"ios": "https://dc.lft.to/lastmile_qr_scan", "android": "https://dc.lft.to/lastmile_qr_scan"}, "type": "electric_scooter", "name": "a82510a32471d9484b1c6379e227fa47", "is_reserved": 0, "lon": -77.01833566666667, "is_disabled": 0, "fusion_lat": 0.0, "lat": 38.9007865, "bike_id": "a82510a32471d9484b1c6379e227fa47", "fusion_lon": 0.0}, {"rental_uris": {"ios": "https://dc.lft.to/lastmile_qr_scan", "android": "https://dc.lft.to/lastmile_qr_scan"}, "type": "electric_scooter", "name": "ed9f7be16cefbfa8e14acebf7a132213", "is_reserved": 0, "lon": -77.04334083333333, "is_disabled": 0, "fusion_lat": 0.0, "lat": 38.892230166666664, "bike_id": "ed9f7be16cefbfa8e14acebf7a132213", "fusion_lon": 0.0}, {"rental_uris": {"ios": "https://dc.lft.to/lastmile_qr_scan", "android": "https://dc.lft.to/lastmile_qr_scan"}, "type": "electric_scooter", "name": "2834495ef6b794d0c95843aa46c456a2", "is_reserved": 0, "lon": -77.02602733333333, "is_disabled": 0, "fusion_lat": 0.0, "lat": 38.905001666666664, "bike_id": "2834495ef6b794d0c95843aa46c456a2", "fusion_lon": 0.0}, {"rental_uris": {"ios": "https://dc.lft.to/lastmile_qr_scan", "android": "https://dc.lft.to/lastmile_qr_scan"}, "type": "electric_scooter", "name": "101cd6aa64dca7affa053ce2d6fa06dc", "is_reserved": 0, "lon": -77.03083433333333, "is_disabled": 0, "fusion_lat": 0.0, "lat": 38.9329925, "bike_id": "101cd6aa64dca7affa053ce2d6fa06dc", "fusion_lon": 0.0}, {"rental_uris": {"ios": "https://dc.lft.to/lastmile_qr_scan", "android": "https://dc.lft.to/lastmile_qr_scan"}, "type": "electric_scooter", "name": "f53f45f66ac05a88382b70da35954b69", "is_reserved": 0, "lon": -77.00776033333334, "is_disabled": 0, "fusion_lat": 0.0, "lat": 38.9524555, "bike_id": "f53f45f66ac05a88382b70da35954b69", "fusion_lon": 0.0}, {"rental_uris": {"ios": "https://dc.lft.to/lastmile_qr_scan", "android": "https://dc.lft.to/lastmile_qr_scan"}, "type": "electric_bike", "name": "e4e22865e8f93edad9936ad4b58af4aa", "is_reserved": 0, "lon": -76.97558683333334, "is_disabled": 0, "fusion_lat": 0.0, "lat": 38.904425833333335, "bike_id": "e4e22865e8f93edad9936ad4b58af4aa", "fusion_lon": 0.0}, {"rental_uris": {"ios": "https://dc.lft.to/lastmile_qr_scan", "android": "https://dc.lft.to/lastmile_qr_scan"}, "type": "electric_scooter", "name": "43e09a57b2accf6fc66861c95019d371", "is_reserved": 0, "lon": -77.0231165, "is_disabled": 0, "fusion_lat": 0.0, "lat": 38.911089, "bike_id": "43e09a57b2accf6fc66861c95019d371", "fusion_lon": 0.0}, {"rental_uris": {"ios": "https://dc.lft.to/lastmile_qr_scan", "android": "https://dc.lft.to/lastmile_qr_scan"}, "type": "electric_scooter", "name": "e38e1b724f3a54547094639cca8b117b", "is_reserved": 0, "lon": -77.0383015, "is_disabled": 0, "fusion_lat": 0.0, "lat": 38.9126775, "bike_id": "e38e1b724f3a54547094639cca8b117b", "fusion_lon": 0.0}, {"rental_uris": {"ios": "https://dc.lft.to/lastmile_qr_scan", "android": "https://dc.lft.to/lastmile_qr_scan"}, "type": "electric_scooter", "name": "c747ac0c28ad18f8fc5ad5288a24622f", "is_reserved": 0, "lon": -77.04155483333334, "is_disabled": 0, "fusion_lat": 0.0, "lat": 38.91111183333334, "bike_id": "c747ac0c28ad18f8fc5ad5288a24622f", "fusion_lon": 0.0}, {"rental_uris": {"ios": "https://dc.lft.to/lastmile_qr_scan", "android": "https://dc.lft.to/lastmile_qr_scan"}, "type": "electric_bike", "name": "9185f3ff137f1eebe5c8d0e629f6fd96", "is_reserved": 0, "lon": -76.99914983333333, "is_disabled": 0, "fusion_lat": 0.0, "lat": 38.864495, "bike_id": "9185f3ff137f1eebe5c8d0e629f6fd96", "fusion_lon": 0.0}, {"rental_uris": {"ios": "https://dc.lft.to/lastmile_qr_scan", "android": "https://dc.lft.to/lastmile_qr_scan"}, "type": "electric_scooter", "name": "20df3dd34a048a665a2841cb905446cc", "is_reserved": 0, "lon": -77.0407635, "is_disabled": 0, "fusion_lat": 0.0, "lat": 38.947739166666665, "bike_id": "20df3dd34a048a665a2841cb905446cc", "fusion_lon": 0.0}, {"rental_uris": {"ios": "https://dc.lft.to/lastmile_qr_scan", "android": "https://dc.lft.to/lastmile_qr_scan"}, "type": "electric_scooter", "name": "c1d4b0bcfdd2fd7ba2ecdaab5a7513a2", "is_reserved": 0, "lon": -77.03959383333333, "is_disabled": 0, "fusion_lat": 0.0, "lat": 38.892498, "bike_id": "c1d4b0bcfdd2fd7ba2ecdaab5a7513a2", "fusion_lon": 0.0}, {"rental_uris": {"ios": "https://dc.lft.to/lastmile_qr_scan", "android": "https://dc.lft.to/lastmile_qr_scan"}, "type": "electric_scooter", "name": "5a96a683844f5dfd2382b12fa62981e4", "is_reserved": 0, "lon": -77.04948633333333, "is_disabled": 0, "fusion_lat": 0.0, "lat": 38.90075383333333, "bike_id": "5a96a683844f5dfd2382b12fa62981e4", "fusion_lon": 0.0}, {"rental_uris": {"ios": "https://dc.lft.to/lastmile_qr_scan", "android": "https://dc.lft.to/lastmile_qr_scan"}, "type": "electric_scooter", "name": "2289f8688c0763e8361056009e44cf7d", "is_reserved": 0, "lon": -77.00725816666667, "is_disabled": 0, "fusion_lat": 0.0, "lat": 38.8970685, "bike_id": "2289f8688c0763e8361056009e44cf7d", "fusion_lon": 0.0}, {"rental_uris": {"ios": "https://dc.lft.to/lastmile_qr_scan", "android": "https://dc.lft.to/lastmile_qr_scan"}, "type": "electric_scooter", "name": "37fcaf0325174d03a4a77486f71f9149", "is_reserved": 0, "lon": -77.031766, "is_disabled": 0, "fusion_lat": 0.0, "lat": 38.92105216666667, "bike_id": "37fcaf0325174d03a4a77486f71f9149", "fusion_lon": 0.0}, {"rental_uris": {"ios": "https://dc.lft.to/lastmile_qr_scan", "android": "https://dc.lft.to/lastmile_qr_scan"}, "type": "electric_scooter", "name": "f4da692cc4520819954bc48ab9c8cb79", "is_reserved": 0, "lon": -77.03458533333334, "is_disabled": 0, "fusion_lat": 0.0, "lat": 38.90582033333333, "bike_id": "f4da692cc4520819954bc48ab9c8cb79", "fusion_lon": 0.0}, {"rental_uris": {"ios": "https://dc.lft.to/lastmile_qr_scan", "android": "https://dc.lft.to/lastmile_qr_scan"}, "type": "electric_scooter", "name": "4414df5c21ebaabc043f4017fd8cfd5b", "is_reserved": 0, "lon": -77.019705, "is_disabled": 0, "fusion_lat": 0.0, "lat": 38.9565215, "bike_id": "4414df5c21ebaabc043f4017fd8cfd5b", "fusion_lon": 0.0}, {"rental_uris": {"ios": "https://dc.lft.to/lastmile_qr_scan", "android": "https://dc.lft.to/lastmile_qr_scan"}, "type": "electric_bike", "name": "d9af4fd207ef5bd2d8815fb090d06918", "is_reserved": 0, "lon": -77.0258165, "is_disabled": 0, "fusion_lat": 0.0, "lat": 38.978728333333336, "bike_id": "d9af4fd207ef5bd2d8815fb090d06918", "fusion_lon": 0.0}, {"rental_uris": {"ios": "https://dc.lft.to/lastmile_qr_scan", "android": "https://dc.lft.to/lastmile_qr_scan"}, "type": "electric_scooter", "name": "4efca171f685e375664e4253c4f8b9e4", "is_reserved": 0, "lon": -77.0068385, "is_disabled": 0, "fusion_lat": 0.0, "lat": 38.871627333333336, "bike_id": "4efca171f685e375664e4253c4f8b9e4", "fusion_lon": 0.0}, {"rental_uris": {"ios": "https://dc.lft.to/lastmile_qr_scan", "android": "https://dc.lft.to/lastmile_qr_scan"}, "type": "electric_scooter", "name": "fe36a5f087f78c7514bda5780724ca17", "is_reserved": 0, "lon": -76.978325, "is_disabled": 0, "fusion_lat": 0.0, "lat": 38.87206066666667, "bike_id": "fe36a5f087f78c7514bda5780724ca17", "fusion_lon": 0.0}, {"rental_uris": {"ios": "https://dc.lft.to/lastmile_qr_scan", "android": "https://dc.lft.to/lastmile_qr_scan"}, "type": "electric_scooter", "name": "3283117f7436ada48ba2c698162df0fa", "is_reserved": 0, "lon": -77.00417683333333, "is_disabled": 0, "fusion_lat": 0.0, "lat": 38.905660166666664, "bike_id": "3283117f7436ada48ba2c698162df0fa", "fusion_lon": 0.0}, {"rental_uris": {"ios": "https://dc.lft.to/lastmile_qr_scan", "android": "https://dc.lft.to/lastmile_qr_scan"}, "type": "electric_scooter", "name": "6304f9ec5d42e4b16d4462c206a60b85", "is_reserved": 0, "lon": -76.97938233333333, "is_disabled": 0, "fusion_lat": 0.0, "lat": 38.9066055, "bike_id": "6304f9ec5d42e4b16d4462c206a60b85", "fusion_lon": 0.0}, {"rental_uris": {"ios": "https://dc.lft.to/lastmile_qr_scan", "android": "https://dc.lft.to/lastmile_qr_scan"}, "type": "electric_bike", "name": "bfa27e99baaeb8aeab48c641c421e1cb", "is_reserved": 0, "lon": -77.00140816666666, "is_disabled": 0, "fusion_lat": 0.0, "lat": 38.995044, "bike_id": "bfa27e99baaeb8aeab48c641c421e1cb", "fusion_lon": 0.0}, {"rental_uris": {"ios": "https://dc.lft.to/lastmile_qr_scan", "android": "https://dc.lft.to/lastmile_qr_scan"}, "type": "electric_scooter", "name": "b3d9a723aae947ddc8c261eea20920a0", "is_reserved": 0, "lon": -77.05224766666667, "is_disabled": 0, "fusion_lat": 0.0, "lat": 38.90025283333333, "bike_id": "b3d9a723aae947ddc8c261eea20920a0", "fusion_lon": 0.0}, {"rental_uris": {"ios": "https://dc.lft.to/lastmile_qr_scan", "android": "https://dc.lft.to/lastmile_qr_scan"}, "type": "electric_scooter", "name": "e1dae2080983b38342c9ddf64654d035", "is_reserved": 0, "lon": -77.03331916666667, "is_disabled": 0, "fusion_lat": 0.0, "lat": 38.9133045, "bike_id": "e1dae2080983b38342c9ddf64654d035", "fusion_lon": 0.0}, {"rental_uris": {"ios": "https://dc.lft.to/lastmile_qr_scan", "android": "https://dc.lft.to/lastmile_qr_scan"}, "type": "electric_scooter", "name": "2cd9e94db3bdccd1e4722bc7c92b7de5", "is_reserved": 0, "lon": -77.007587, "is_disabled": 0, "fusion_lat": 0.0, "lat": 38.925283666666665, "bike_id": "2cd9e94db3bdccd1e4722bc7c92b7de5", "fusion_lon": 0.0}, {"rental_uris": {"ios": "https://dc.lft.to/lastmile_qr_scan", "android": "https://dc.lft.to/lastmile_qr_scan"}, "type": "electric_scooter", "name": "8c825fa217ce34432e5f65c18d19e055", "is_reserved": 0, "lon": -77.06477216666667, "is_disabled": 0, "fusion_lat": 0.0, "lat": 38.91023833333333, "bike_id": "8c825fa217ce34432e5f65c18d19e055", "fusion_lon": 0.0}, {"rental_uris": {"ios": "https://dc.lft.to/lastmile_qr_scan", "android": "https://dc.lft.to/lastmile_qr_scan"}, "type": "electric_scooter", "name": "afaf05b88a71b3179ab50f26695da57d", "is_reserved": 0, "lon": -77.00890816666667, "is_disabled": 0, "fusion_lat": 0.0, "lat": 38.89886533333333, "bike_id": "afaf05b88a71b3179ab50f26695da57d", "fusion_lon": 0.0}, {"rental_uris": {"ios": "https://dc.lft.to/lastmile_qr_scan", "android": "https://dc.lft.to/lastmile_qr_scan"}, "type": "electric_scooter", "name": "355ed8abb42e3c12631a700290d69833", "is_reserved": 0, "lon": -77.04738766666667, "is_disabled": 0, "fusion_lat": 0.0, "lat": 38.90857333333334, "bike_id": "355ed8abb42e3c12631a700290d69833", "fusion_lon": 0.0}, {"rental_uris": {"ios": "https://dc.lft.to/lastmile_qr_scan", "android": "https://dc.lft.to/lastmile_qr_scan"}, "type": "electric_scooter", "name": "4da936adee8820fe07ee6acfff5bf371", "is_reserved": 0, "lon": -77.03440066666667, "is_disabled": 0, "fusion_lat": 0.0, "lat": 38.934377833333336, "bike_id": "4da936adee8820fe07ee6acfff5bf371", "fusion_lon": 0.0}, {"rental_uris": {"ios": "https://dc.lft.to/lastmile_qr_scan", "android": "https://dc.lft.to/lastmile_qr_scan"}, "type": "electric_scooter", "name": "7a5ceef9f5b8e82604ef6785f987b052", "is_reserved": 0, "lon": -76.99388766666667, "is_disabled": 0, "fusion_lat": 0.0, "lat": 38.91012883333333, "bike_id": "7a5ceef9f5b8e82604ef6785f987b052", "fusion_lon": 0.0}, {"rental_uris": {"ios": "https://dc.lft.to/lastmile_qr_scan", "android": "https://dc.lft.to/lastmile_qr_scan"}, "type": "electric_scooter", "name": "8739cc9a3b450fa72819b8e990bf4a5c", "is_reserved": 0, "lon": -77.05688033333334, "is_disabled": 0, "fusion_lat": 0.0, "lat": 38.9339045, "bike_id": "8739cc9a3b450fa72819b8e990bf4a5c", "fusion_lon": 0.0}, {"rental_uris": {"ios": "https://dc.lft.to/lastmile_qr_scan", "android": "https://dc.lft.to/lastmile_qr_scan"}, "type": "electric_scooter", "name": "3c15636e829f0621f0da25c7dda2d1a8", "is_reserved": 0, "lon": -77.02627766666667, "is_disabled": 0, "fusion_lat": 0.0, "lat": 38.892227, "bike_id": "3c15636e829f0621f0da25c7dda2d1a8", "fusion_lon": 0.0}, {"rental_uris": {"ios": "https://dc.lft.to/lastmile_qr_scan", "android": "https://dc.lft.to/lastmile_qr_scan"}, "type": "electric_scooter", "name": "cb42f09ea8d1df9e8326a53afb9f82b1", "is_reserved": 0, "lon": -77.02268416666666, "is_disabled": 0, "fusion_lat": 0.0, "lat": 38.927387833333334, "bike_id": "cb42f09ea8d1df9e8326a53afb9f82b1", "fusion_lon": 0.0}, {"rental_uris": {"ios": "https://dc.lft.to/lastmile_qr_scan", "android": "https://dc.lft.to/lastmile_qr_scan"}, "type": "electric_scooter", "name": "760246b5d6fe387511a4cbeffc6dbb08", "is_reserved": 0, "lon": -77.05010016666667, "is_disabled": 0, "fusion_lat": 0.0, "lat": 38.90546833333333, "bike_id": "760246b5d6fe387511a4cbeffc6dbb08", "fusion_lon": 0.0}, {"rental_uris": {"ios": "https://dc.lft.to/lastmile_qr_scan", "android": "https://dc.lft.to/lastmile_qr_scan"}, "type": "electric_scooter", "name": "e619902d01bed0ea1434efdebd9fea1c", "is_reserved": 0, "lon": -77.03088166666667, "is_disabled": 0, "fusion_lat": 0.0, "lat": 38.93878433333333, "bike_id": "e619902d01bed0ea1434efdebd9fea1c", "fusion_lon": 0.0}, {"rental_uris": {"ios": "https://dc.lft.to/lastmile_qr_scan", "android": "https://dc.lft.to/lastmile_qr_scan"}, "type": "electric_bike", "name": "46767b7ed4c934a85d10e4f940431f3c", "is_reserved": 0, "lon": -76.9753185, "is_disabled": 0, "fusion_lat": 0.0, "lat": 38.9033155, "bike_id": "46767b7ed4c934a85d10e4f940431f3c", "fusion_lon": 0.0}, {"rental_uris": {"ios": "https://dc.lft.to/lastmile_qr_scan", "android": "https://dc.lft.to/lastmile_qr_scan"}, "type": "electric_scooter", "name": "02856dee5a27d35373ec924f020293c5", "is_reserved": 0, "lon": -76.99746016666667, "is_disabled": 0, "fusion_lat": 0.0, "lat": 38.900486, "bike_id": "02856dee5a27d35373ec924f020293c5", "fusion_lon": 0.0}, {"rental_uris": {"ios": "https://dc.lft.to/lastmile_qr_scan", "android": "https://dc.lft.to/lastmile_qr_scan"}, "type": "electric_scooter", "name": "e5e650bf8f21c66e5b95055ee87cb3cb", "is_reserved": 0, "lon": -76.99889483333334, "is_disabled": 0, "fusion_lat": 0.0, "lat": 38.92054733333333, "bike_id": "e5e650bf8f21c66e5b95055ee87cb3cb", "fusion_lon": 0.0}, {"rental_uris": {"ios": "https://dc.lft.to/lastmile_qr_scan", "android": "https://dc.lft.to/lastmile_qr_scan"}, "type": "electric_scooter", "name": "ae4456a12ea5c3bbc354df25497c2da1", "is_reserved": 0, "lon": -77.07725933333333, "is_disabled": 0, "fusion_lat": 0.0, "lat": 38.942966, "bike_id": "ae4456a12ea5c3bbc354df25497c2da1", "fusion_lon": 0.0}, {"rental_uris": {"ios": "https://dc.lft.to/lastmile_qr_scan", "android": "https://dc.lft.to/lastmile_qr_scan"}, "type": "electric_scooter", "name": "67cb0ef3d665553a0eda8c12f52167c0", "is_reserved": 0, "lon": -77.02209383333333, "is_disabled": 0, "fusion_lat": 0.0, "lat": 38.8873685, "bike_id": "67cb0ef3d665553a0eda8c12f52167c0", "fusion_lon": 0.0}, {"rental_uris": {"ios": "https://dc.lft.to/lastmile_qr_scan", "android": "https://dc.lft.to/lastmile_qr_scan"}, "type": "electric_scooter", "name": "5fa28f5be07c4f123a7f43c95a2f5ab4", "is_reserved": 0, "lon": -77.0486705, "is_disabled": 0, "fusion_lat": 0.0, "lat": 38.89894983333333, "bike_id": "5fa28f5be07c4f123a7f43c95a2f5ab4", "fusion_lon": 0.0}, {"rental_uris": {"ios": "https://dc.lft.to/lastmile_qr_scan", "android": "https://dc.lft.to/lastmile_qr_scan"}, "type": "electric_scooter", "name": "430fde7657ca18d59143a447ad90df12", "is_reserved": 0, "lon": -77.01827066666667, "is_disabled": 0, "fusion_lat": 0.0, "lat": 38.911083166666664, "bike_id": "430fde7657ca18d59143a447ad90df12", "fusion_lon": 0.0}, {"rental_uris": {"ios": "https://dc.lft.to/lastmile_qr_scan", "android": "https://dc.lft.to/lastmile_qr_scan"}, "type": "electric_scooter", "name": "81d6e3bce4b26a0083e7f6c56b6031c0", "is_reserved": 0, "lon": -77.03144416666666, "is_disabled": 0, "fusion_lat": 0.0, "lat": 38.912699, "bike_id": "81d6e3bce4b26a0083e7f6c56b6031c0", "fusion_lon": 0.0}, {"rental_uris": {"ios": "https://dc.lft.to/lastmile_qr_scan", "android": "https://dc.lft.to/lastmile_qr_scan"}, "type": "electric_bike", "name": "8a1ff1a5569563a648262b8b6cd69912", "is_reserved": 0, "lon": -76.97421916666667, "is_disabled": 0, "fusion_lat": 0.0, "lat": 38.93237083333333, "bike_id": "8a1ff1a5569563a648262b8b6cd69912", "fusion_lon": 0.0}, {"rental_uris": {"ios": "https://dc.lft.to/lastmile_qr_scan", "android": "https://dc.lft.to/lastmile_qr_scan"}, "type": "electric_scooter", "name": "fad6ebaf8989c7f48b5f2cc59702d599", "is_reserved": 0, "lon": -77.04479733333334, "is_disabled": 0, "fusion_lat": 0.0, "lat": 38.914422333333334, "bike_id": "fad6ebaf8989c7f48b5f2cc59702d599", "fusion_lon": 0.0}, {"rental_uris": {"ios": "https://dc.lft.to/lastmile_qr_scan", "android": "https://dc.lft.to/lastmile_qr_scan"}, "type": "electric_scooter", "name": "d863adc523ed39bbee8a263e32e42c1b", "is_reserved": 0, "lon": -77.0319425, "is_disabled": 0, "fusion_lat": 0.0, "lat": 38.920161, "bike_id": "d863adc523ed39bbee8a263e32e42c1b", "fusion_lon": 0.0}, {"rental_uris": {"ios": "https://dc.lft.to/lastmile_qr_scan", "android": "https://dc.lft.to/lastmile_qr_scan"}, "type": "electric_scooter", "name": "d8370ce2914d9b9a8a4f2642693c8889", "is_reserved": 0, "lon": -77.0197415, "is_disabled": 0, "fusion_lat": 0.0, "lat": 38.88720816666667, "bike_id": "d8370ce2914d9b9a8a4f2642693c8889", "fusion_lon": 0.0}, {"rental_uris": {"ios": "https://dc.lft.to/lastmile_qr_scan", "android": "https://dc.lft.to/lastmile_qr_scan"}, "type": "electric_scooter", "name": "af000bbfbb366a013c41399a298e1ef3", "is_reserved": 0, "lon": -77.03584966666666, "is_disabled": 0, "fusion_lat": 0.0, "lat": 38.91876833333333, "bike_id": "af000bbfbb366a013c41399a298e1ef3", "fusion_lon": 0.0}, {"rental_uris": {"ios": "https://dc.lft.to/lastmile_qr_scan", "android": "https://dc.lft.to/lastmile_qr_scan"}, "type": "electric_scooter", "name": "af544112914ae919e5853d14fc246e6f", "is_reserved": 0, "lon": -77.02814766666667, "is_disabled": 0, "fusion_lat": 0.0, "lat": 38.8995645, "bike_id": "af544112914ae919e5853d14fc246e6f", "fusion_lon": 0.0}, {"rental_uris": {"ios": "https://dc.lft.to/lastmile_qr_scan", "android": "https://dc.lft.to/lastmile_qr_scan"}, "type": "electric_scooter", "name": "efab178b3bf30167e21905849d6fe6f5", "is_reserved": 0, "lon": -77.03906116666667, "is_disabled": 0, "fusion_lat": 0.0, "lat": 38.912629333333335, "bike_id": "efab178b3bf30167e21905849d6fe6f5", "fusion_lon": 0.0}, {"rental_uris": {"ios": "https://dc.lft.to/lastmile_qr_scan", "android": "https://dc.lft.to/lastmile_qr_scan"}, "type": "electric_scooter", "name": "3acb71b31107493de7a7a0425957b921", "is_reserved": 0, "lon": -77.02704383333334, "is_disabled": 0, "fusion_lat": 0.0, "lat": 38.9045665, "bike_id": "3acb71b31107493de7a7a0425957b921", "fusion_lon": 0.0}, {"rental_uris": {"ios": "https://dc.lft.to/lastmile_qr_scan", "android": "https://dc.lft.to/lastmile_qr_scan"}, "type": "electric_scooter", "name": "d898539f90e9ff09b61f6f18da6640d5", "is_reserved": 0, "lon": -77.04546883333333, "is_disabled": 0, "fusion_lat": 0.0, "lat": 38.9338835, "bike_id": "d898539f90e9ff09b61f6f18da6640d5", "fusion_lon": 0.0}, {"rental_uris": {"ios": "https://dc.lft.to/lastmile_qr_scan", "android": "https://dc.lft.to/lastmile_qr_scan"}, "type": "electric_scooter", "name": "fe441f2acff573e9d0d228941ca9bcf7", "is_reserved": 0, "lon": -76.99305816666667, "is_disabled": 0, "fusion_lat": 0.0, "lat": 38.93570283333333, "bike_id": "fe441f2acff573e9d0d228941ca9bcf7", "fusion_lon": 0.0}, {"rental_uris": {"ios": "https://dc.lft.to/lastmile_qr_scan", "android": "https://dc.lft.to/lastmile_qr_scan"}, "type": "electric_scooter", "name": "60e47e03a3f14b05a289ed7bc3101e3c", "is_reserved": 0, "lon": -77.00578983333334, "is_disabled": 0, "fusion_lat": 0.0, "lat": 38.905599333333335, "bike_id": "60e47e03a3f14b05a289ed7bc3101e3c", "fusion_lon": 0.0}, {"rental_uris": {"ios": "https://dc.lft.to/lastmile_qr_scan", "android": "https://dc.lft.to/lastmile_qr_scan"}, "type": "electric_scooter", "name": "269436a560878a0c927a2c797f226e79", "is_reserved": 0, "lon": -77.04503716666666, "is_disabled": 0, "fusion_lat": 0.0, "lat": 38.91419583333333, "bike_id": "269436a560878a0c927a2c797f226e79", "fusion_lon": 0.0}, {"rental_uris": {"ios": "https://dc.lft.to/lastmile_qr_scan", "android": "https://dc.lft.to/lastmile_qr_scan"}, "type": "electric_scooter", "name": "39b6f8301c8935b4331583152f10b5b8", "is_reserved": 0, "lon": -76.92985866666666, "is_disabled": 0, "fusion_lat": 0.0, "lat": 38.8929185, "bike_id": "39b6f8301c8935b4331583152f10b5b8", "fusion_lon": 0.0}, {"rental_uris": {"ios": "https://dc.lft.to/lastmile_qr_scan", "android": "https://dc.lft.to/lastmile_qr_scan"}, "type": "electric_scooter", "name": "2982642ed923397e291304b8c397df21", "is_reserved": 0, "lon": -77.02222083333334, "is_disabled": 0, "fusion_lat": 0.0, "lat": 38.9247255, "bike_id": "2982642ed923397e291304b8c397df21", "fusion_lon": 0.0}, {"rental_uris": {"ios": "https://dc.lft.to/lastmile_qr_scan", "android": "https://dc.lft.to/lastmile_qr_scan"}, "type": "electric_scooter", "name": "963c413bcd254ed731a9fd686a582690", "is_reserved": 0, "lon": -77.0505655, "is_disabled": 0, "fusion_lat": 0.0, "lat": 38.925845333333335, "bike_id": "963c413bcd254ed731a9fd686a582690", "fusion_lon": 0.0}, {"rental_uris": {"ios": "https://dc.lft.to/lastmile_qr_scan", "android": "https://dc.lft.to/lastmile_qr_scan"}, "type": "electric_scooter", "name": "eadf275a4e2e6dc92416affbbc5cc78b", "is_reserved": 0, "lon": -77.0065885, "is_disabled": 0, "fusion_lat": 0.0, "lat": 38.899954, "bike_id": "eadf275a4e2e6dc92416affbbc5cc78b", "fusion_lon": 0.0}, {"rental_uris": {"ios": "https://dc.lft.to/lastmile_qr_scan", "android": "https://dc.lft.to/lastmile_qr_scan"}, "type": "electric_scooter", "name": "1f0f16887140d5ad8e93c69bc5c6b1f4", "is_reserved": 0, "lon": -77.03634366666667, "is_disabled": 0, "fusion_lat": 0.0, "lat": 38.92431533333333, "bike_id": "1f0f16887140d5ad8e93c69bc5c6b1f4", "fusion_lon": 0.0}, {"rental_uris": {"ios": "https://dc.lft.to/lastmile_qr_scan", "android": "https://dc.lft.to/lastmile_qr_scan"}, "type": "electric_scooter", "name": "f1c1c6b0583628433d095378fe819dde", "is_reserved": 0, "lon": -77.0406335, "is_disabled": 0, "fusion_lat": 0.0, "lat": 38.92770066666667, "bike_id": "f1c1c6b0583628433d095378fe819dde", "fusion_lon": 0.0}, {"rental_uris": {"ios": "https://dc.lft.to/lastmile_qr_scan", "android": "https://dc.lft.to/lastmile_qr_scan"}, "type": "electric_scooter", "name": "2a62444980c657dee2e0751298f2cb40", "is_reserved": 0, "lon": -77.03950033333334, "is_disabled": 0, "fusion_lat": 0.0, "lat": 38.9081625, "bike_id": "2a62444980c657dee2e0751298f2cb40", "fusion_lon": 0.0}, {"rental_uris": {"ios": "https://dc.lft.to/lastmile_qr_scan", "android": "https://dc.lft.to/lastmile_qr_scan"}, "type": "electric_scooter", "name": "cde22d41390dad07a0ab1dbd69790893", "is_reserved": 0, "lon": -76.97408533333333, "is_disabled": 0, "fusion_lat": 0.0, "lat": 38.901406333333334, "bike_id": "cde22d41390dad07a0ab1dbd69790893", "fusion_lon": 0.0}, {"rental_uris": {"ios": "https://dc.lft.to/lastmile_qr_scan", "android": "https://dc.lft.to/lastmile_qr_scan"}, "type": "electric_scooter", "name": "a7eaefa82c70820242fe5dd2fb5f8807", "is_reserved": 0, "lon": -76.96568466666666, "is_disabled": 0, "fusion_lat": 0.0, "lat": 38.876114, "bike_id": "a7eaefa82c70820242fe5dd2fb5f8807", "fusion_lon": 0.0}, {"rental_uris": {"ios": "https://dc.lft.to/lastmile_qr_scan", "android": "https://dc.lft.to/lastmile_qr_scan"}, "type": "electric_scooter", "name": "6d44a8f6c38e5eb0e7f1eb8e74f2acfd", "is_reserved": 0, "lon": -77.0440875, "is_disabled": 0, "fusion_lat": 0.0, "lat": 38.929476, "bike_id": "6d44a8f6c38e5eb0e7f1eb8e74f2acfd", "fusion_lon": 0.0}, {"rental_uris": {"ios": "https://dc.lft.to/lastmile_qr_scan", "android": "https://dc.lft.to/lastmile_qr_scan"}, "type": "electric_scooter", "name": "3a8c0ac9262705adfa136e40678a694b", "is_reserved": 0, "lon": -76.9438315, "is_disabled": 0, "fusion_lat": 0.0, "lat": 38.8911665, "bike_id": "3a8c0ac9262705adfa136e40678a694b", "fusion_lon": 0.0}, {"rental_uris": {"ios": "https://dc.lft.to/lastmile_qr_scan", "android": "https://dc.lft.to/lastmile_qr_scan"}, "type": "electric_bike", "name": "d22175a8e4edb61968f99b1b394efec2", "is_reserved": 0, "lon": -77.0701405, "is_disabled": 0, "fusion_lat": 0.0, "lat": 38.841088, "bike_id": "d22175a8e4edb61968f99b1b394efec2", "fusion_lon": 0.0}, {"rental_uris": {"ios": "https://dc.lft.to/lastmile_qr_scan", "android": "https://dc.lft.to/lastmile_qr_scan"}, "type": "electric_scooter", "name": "c7f6249fc6d60b0b694ee9594ec95088", "is_reserved": 0, "lon": -76.965055, "is_disabled": 0, "fusion_lat": 0.0, "lat": 38.876467, "bike_id": "c7f6249fc6d60b0b694ee9594ec95088", "fusion_lon": 0.0}, {"rental_uris": {"ios": "https://dc.lft.to/lastmile_qr_scan", "android": "https://dc.lft.to/lastmile_qr_scan"}, "type": "electric_scooter", "name": "8676863a04e90c9093904b5390ae4e32", "is_reserved": 0, "lon": -77.0381945, "is_disabled": 0, "fusion_lat": 0.0, "lat": 38.91549966666667, "bike_id": "8676863a04e90c9093904b5390ae4e32", "fusion_lon": 0.0}, {"rental_uris": {"ios": "https://dc.lft.to/lastmile_qr_scan", "android": "https://dc.lft.to/lastmile_qr_scan"}, "type": "electric_scooter", "name": "b4918fbea4d3f0935ab25e42eea05057", "is_reserved": 0, "lon": -77.07070483333334, "is_disabled": 0, "fusion_lat": 0.0, "lat": 38.897097333333335, "bike_id": "b4918fbea4d3f0935ab25e42eea05057", "fusion_lon": 0.0}, {"rental_uris": {"ios": "https://dc.lft.to/lastmile_qr_scan", "android": "https://dc.lft.to/lastmile_qr_scan"}, "type": "electric_scooter", "name": "c6dae2c3baa03946c59b51365279aee1", "is_reserved": 0, "lon": -77.00552283333333, "is_disabled": 0, "fusion_lat": 0.0, "lat": 38.8753365, "bike_id": "c6dae2c3baa03946c59b51365279aee1", "fusion_lon": 0.0}, {"rental_uris": {"ios": "https://dc.lft.to/lastmile_qr_scan", "android": "https://dc.lft.to/lastmile_qr_scan"}, "type": "electric_scooter", "name": "34a36effce74195cef328c23667252d8", "is_reserved": 0, "lon": -77.01808316666667, "is_disabled": 0, "fusion_lat": 0.0, "lat": 38.88639883333333, "bike_id": "34a36effce74195cef328c23667252d8", "fusion_lon": 0.0}, {"rental_uris": {"ios": "https://dc.lft.to/lastmile_qr_scan", "android": "https://dc.lft.to/lastmile_qr_scan"}, "type": "electric_scooter", "name": "0d7ad7b83515fe03a323673ca3b14b16", "is_reserved": 0, "lon": -76.9330195, "is_disabled": 0, "fusion_lat": 0.0, "lat": 38.896873166666666, "bike_id": "0d7ad7b83515fe03a323673ca3b14b16", "fusion_lon": 0.0}, {"rental_uris": {"ios": "https://dc.lft.to/lastmile_qr_scan", "android": "https://dc.lft.to/lastmile_qr_scan"}, "type": "electric_bike", "name": "3e3dafbd603416f5da8772481b402136", "is_reserved": 0, "lon": -77.12975, "is_disabled": 0, "fusion_lat": 0.0, "lat": 38.799849333333334, "bike_id": "3e3dafbd603416f5da8772481b402136", "fusion_lon": 0.0}, {"rental_uris": {"ios": "https://dc.lft.to/lastmile_qr_scan", "android": "https://dc.lft.to/lastmile_qr_scan"}, "type": "electric_scooter", "name": "35d1dc054f7b7230b4adcc3b66a3317a", "is_reserved": 0, "lon": -76.99959416666667, "is_disabled": 0, "fusion_lat": 0.0, "lat": 38.8942235, "bike_id": "35d1dc054f7b7230b4adcc3b66a3317a", "fusion_lon": 0.0}, {"rental_uris": {"ios": "https://dc.lft.to/lastmile_qr_scan", "android": "https://dc.lft.to/lastmile_qr_scan"}, "type": "electric_bike", "name": "b908f09807212e8cba312236899272fe", "is_reserved": 0, "lon": -76.98346633333334, "is_disabled": 0, "fusion_lat": 0.0, "lat": 38.86260883333333, "bike_id": "b908f09807212e8cba312236899272fe", "fusion_lon": 0.0}, {"rental_uris": {"ios": "https://dc.lft.to/lastmile_qr_scan", "android": "https://dc.lft.to/lastmile_qr_scan"}, "type": "electric_bike", "name": "756ec510f10ce69910df5575ecd8a50f", "is_reserved": 0, "lon": -76.9180465, "is_disabled": 0, "fusion_lat": 0.0, "lat": 39.000013833333334, "bike_id": "756ec510f10ce69910df5575ecd8a50f", "fusion_lon": 0.0}, {"rental_uris": {"ios": "https://dc.lft.to/lastmile_qr_scan", "android": "https://dc.lft.to/lastmile_qr_scan"}, "type": "electric_scooter", "name": "3853c96e4535317b9946ab2be155565f", "is_reserved": 0, "lon": -77.02688183333333, "is_disabled": 0, "fusion_lat": 0.0, "lat": 38.90873833333333, "bike_id": "3853c96e4535317b9946ab2be155565f", "fusion_lon": 0.0}, {"rental_uris": {"ios": "https://dc.lft.to/lastmile_qr_scan", "android": "https://dc.lft.to/lastmile_qr_scan"}, "type": "electric_scooter", "name": "ed0ef5ea824dce42a780f2b751a08a5f", "is_reserved": 0, "lon": -76.9888255, "is_disabled": 0, "fusion_lat": 0.0, "lat": 38.86653233333333, "bike_id": "ed0ef5ea824dce42a780f2b751a08a5f", "fusion_lon": 0.0}, {"rental_uris": {"ios": "https://dc.lft.to/lastmile_qr_scan", "android": "https://dc.lft.to/lastmile_qr_scan"}, "type": "electric_scooter", "name": "7cba308fcb389d999d9bba8a23f0778b", "is_reserved": 0, "lon": -77.03618883333333, "is_disabled": 0, "fusion_lat": 0.0, "lat": 38.923398666666664, "bike_id": "7cba308fcb389d999d9bba8a23f0778b", "fusion_lon": 0.0}, {"rental_uris": {"ios": "https://dc.lft.to/lastmile_qr_scan", "android": "https://dc.lft.to/lastmile_qr_scan"}, "type": "electric_scooter", "name": "8f13705b4a3db4f013b38b3ddf598f70", "is_reserved": 0, "lon": -77.01780216666667, "is_disabled": 0, "fusion_lat": 0.0, "lat": 38.94416733333333, "bike_id": "8f13705b4a3db4f013b38b3ddf598f70", "fusion_lon": 0.0}, {"rental_uris": {"ios": "https://dc.lft.to/lastmile_qr_scan", "android": "https://dc.lft.to/lastmile_qr_scan"}, "type": "electric_scooter", "name": "b7b91b63c3bba557747bb2ddf9f3bb92", "is_reserved": 0, "lon": -77.02924333333333, "is_disabled": 0, "fusion_lat": 0.0, "lat": 38.90034466666667, "bike_id": "b7b91b63c3bba557747bb2ddf9f3bb92", "fusion_lon": 0.0}, {"rental_uris": {"ios": "https://dc.lft.to/lastmile_qr_scan", "android": "https://dc.lft.to/lastmile_qr_scan"}, "type": "electric_scooter", "name": "399bd63c9927543d86214ea891f9d795", "is_reserved": 0, "lon": -77.04563066666667, "is_disabled": 0, "fusion_lat": 0.0, "lat": 38.909823833333334, "bike_id": "399bd63c9927543d86214ea891f9d795", "fusion_lon": 0.0}, {"rental_uris": {"ios": "https://dc.lft.to/lastmile_qr_scan", "android": "https://dc.lft.to/lastmile_qr_scan"}, "type": "electric_scooter", "name": "5d7d44ab759c29f645078165e49ed415", "is_reserved": 0, "lon": -77.06777933333333, "is_disabled": 0, "fusion_lat": 0.0, "lat": 38.90877733333333, "bike_id": "5d7d44ab759c29f645078165e49ed415", "fusion_lon": 0.0}, {"rental_uris": {"ios": "https://dc.lft.to/lastmile_qr_scan", "android": "https://dc.lft.to/lastmile_qr_scan"}, "type": "electric_scooter", "name": "37dd32970e1adb39f0effd322003ba49", "is_reserved": 0, "lon": -77.04394316666666, "is_disabled": 0, "fusion_lat": 0.0, "lat": 38.91700616666667, "bike_id": "37dd32970e1adb39f0effd322003ba49", "fusion_lon": 0.0}, {"rental_uris": {"ios": "https://dc.lft.to/lastmile_qr_scan", "android": "https://dc.lft.to/lastmile_qr_scan"}, "type": "electric_scooter", "name": "61c3b31270fce04cbf3ab23b9a4e0ba2", "is_reserved": 0, "lon": -77.02787866666667, "is_disabled": 0, "fusion_lat": 0.0, "lat": 38.927713833333335, "bike_id": "61c3b31270fce04cbf3ab23b9a4e0ba2", "fusion_lon": 0.0}, {"rental_uris": {"ios": "https://dc.lft.to/lastmile_qr_scan", "android": "https://dc.lft.to/lastmile_qr_scan"}, "type": "electric_bike", "name": "02fc3a25062ef75b8a736c5d81e99ae4", "is_reserved": 0, "lon": -76.9574235, "is_disabled": 0, "fusion_lat": 0.0, "lat": 38.888565, "bike_id": "02fc3a25062ef75b8a736c5d81e99ae4", "fusion_lon": 0.0}, {"rental_uris": {"ios": "https://dc.lft.to/lastmile_qr_scan", "android": "https://dc.lft.to/lastmile_qr_scan"}, "type": "electric_scooter", "name": "845cc7151ad8499bb9731c8a1b8b8749", "is_reserved": 0, "lon": -77.03866166666667, "is_disabled": 0, "fusion_lat": 0.0, "lat": 38.911086833333336, "bike_id": "845cc7151ad8499bb9731c8a1b8b8749", "fusion_lon": 0.0}, {"rental_uris": {"ios": "https://dc.lft.to/lastmile_qr_scan", "android": "https://dc.lft.to/lastmile_qr_scan"}, "type": "electric_scooter", "name": "b1cdba3403486619e0d34fb536a1b3a3", "is_reserved": 0, "lon": -77.0314, "is_disabled": 0, "fusion_lat": 0.0, "lat": 38.918090666666664, "bike_id": "b1cdba3403486619e0d34fb536a1b3a3", "fusion_lon": 0.0}, {"rental_uris": {"ios": "https://dc.lft.to/lastmile_qr_scan", "android": "https://dc.lft.to/lastmile_qr_scan"}, "type": "electric_scooter", "name": "b3923f26bdd8f6789e8a891be465c534", "is_reserved": 0, "lon": -77.03346683333334, "is_disabled": 0, "fusion_lat": 0.0, "lat": 38.89762116666667, "bike_id": "b3923f26bdd8f6789e8a891be465c534", "fusion_lon": 0.0}, {"rental_uris": {"ios": "https://dc.lft.to/lastmile_qr_scan", "android": "https://dc.lft.to/lastmile_qr_scan"}, "type": "electric_scooter", "name": "9908c8677ab6ffe7e350a97b35d495dd", "is_reserved": 0, "lon": -77.045591, "is_disabled": 0, "fusion_lat": 0.0, "lat": 38.909699333333336, "bike_id": "9908c8677ab6ffe7e350a97b35d495dd", "fusion_lon": 0.0}, {"rental_uris": {"ios": "https://dc.lft.to/lastmile_qr_scan", "android": "https://dc.lft.to/lastmile_qr_scan"}, "type": "electric_scooter", "name": "7eda0b892849e89db906356c1aafeedd", "is_reserved": 0, "lon": -77.0395265, "is_disabled": 0, "fusion_lat": 0.0, "lat": 38.8925085, "bike_id": "7eda0b892849e89db906356c1aafeedd", "fusion_lon": 0.0}, {"rental_uris": {"ios": "https://dc.lft.to/lastmile_qr_scan", "android": "https://dc.lft.to/lastmile_qr_scan"}, "type": "electric_scooter", "name": "28df87ec7647da19340dd81b04eb9112", "is_reserved": 0, "lon": -76.9471595, "is_disabled": 0, "fusion_lat": 0.0, "lat": 38.89078383333333, "bike_id": "28df87ec7647da19340dd81b04eb9112", "fusion_lon": 0.0}, {"rental_uris": {"ios": "https://dc.lft.to/lastmile_qr_scan", "android": "https://dc.lft.to/lastmile_qr_scan"}, "type": "electric_scooter", "name": "57f3694e4ed228f09e55c5d8d8419d87", "is_reserved": 0, "lon": -77.03745366666666, "is_disabled": 0, "fusion_lat": 0.0, "lat": 38.93200483333333, "bike_id": "57f3694e4ed228f09e55c5d8d8419d87", "fusion_lon": 0.0}, {"rental_uris": {"ios": "https://dc.lft.to/lastmile_qr_scan", "android": "https://dc.lft.to/lastmile_qr_scan"}, "type": "electric_scooter", "name": "f99dcd6d452f0f38c871fb2d456c5cd8", "is_reserved": 0, "lon": -77.02695633333333, "is_disabled": 0, "fusion_lat": 0.0, "lat": 38.949797833333335, "bike_id": "f99dcd6d452f0f38c871fb2d456c5cd8", "fusion_lon": 0.0}, {"rental_uris": {"ios": "https://dc.lft.to/lastmile_qr_scan", "android": "https://dc.lft.to/lastmile_qr_scan"}, "type": "electric_scooter", "name": "d7d06d7d4b32842ce769a4430ac168c5", "is_reserved": 0, "lon": -77.04211966666666, "is_disabled": 0, "fusion_lat": 0.0, "lat": 38.92512883333333, "bike_id": "d7d06d7d4b32842ce769a4430ac168c5", "fusion_lon": 0.0}, {"rental_uris": {"ios": "https://dc.lft.to/lastmile_qr_scan", "android": "https://dc.lft.to/lastmile_qr_scan"}, "type": "electric_scooter", "name": "8effd900d1631c0d7378e108d6305067", "is_reserved": 0, "lon": -76.93424316666666, "is_disabled": 0, "fusion_lat": 0.0, "lat": 38.8933905, "bike_id": "8effd900d1631c0d7378e108d6305067", "fusion_lon": 0.0}, {"rental_uris": {"ios": "https://dc.lft.to/lastmile_qr_scan", "android": "https://dc.lft.to/lastmile_qr_scan"}, "type": "electric_scooter", "name": "c726373a9fed92f6bdeb1fc216b5b71f", "is_reserved": 0, "lon": -77.03193133333333, "is_disabled": 0, "fusion_lat": 0.0, "lat": 38.92114266666667, "bike_id": "c726373a9fed92f6bdeb1fc216b5b71f", "fusion_lon": 0.0}, {"rental_uris": {"ios": "https://dc.lft.to/lastmile_qr_scan", "android": "https://dc.lft.to/lastmile_qr_scan"}, "type": "electric_scooter", "name": "36afa38636a4cfdc57af74901e5eb6c6", "is_reserved": 0, "lon": -77.0087095, "is_disabled": 0, "fusion_lat": 0.0, "lat": 38.897479, "bike_id": "36afa38636a4cfdc57af74901e5eb6c6", "fusion_lon": 0.0}, {"rental_uris": {"ios": "https://dc.lft.to/lastmile_qr_scan", "android": "https://dc.lft.to/lastmile_qr_scan"}, "type": "electric_bike", "name": "ee380aee5325379f2f3c12c09e903a16", "is_reserved": 0, "lon": -77.01226783333334, "is_disabled": 0, "fusion_lat": 0.0, "lat": 38.950823666666665, "bike_id": "ee380aee5325379f2f3c12c09e903a16", "fusion_lon": 0.0}, {"rental_uris": {"ios": "https://dc.lft.to/lastmile_qr_scan", "android": "https://dc.lft.to/lastmile_qr_scan"}, "type": "electric_scooter", "name": "c0365f79a4cdbf97f0e900a9db391e30", "is_reserved": 0, "lon": -76.9527605, "is_disabled": 0, "fusion_lat": 0.0, "lat": 38.89189416666667, "bike_id": "c0365f79a4cdbf97f0e900a9db391e30", "fusion_lon": 0.0}, {"rental_uris": {"ios": "https://dc.lft.to/lastmile_qr_scan", "android": "https://dc.lft.to/lastmile_qr_scan"}, "type": "electric_scooter", "name": "34dd472f6d0cce451b8ea9234dc7aeb7", "is_reserved": 0, "lon": -77.034343, "is_disabled": 0, "fusion_lat": 0.0, "lat": 38.91793083333334, "bike_id": "34dd472f6d0cce451b8ea9234dc7aeb7", "fusion_lon": 0.0}, {"rental_uris": {"ios": "https://dc.lft.to/lastmile_qr_scan", "android": "https://dc.lft.to/lastmile_qr_scan"}, "type": "electric_bike", "name": "10a1160d40d04e8b97835e2605cd332f", "is_reserved": 0, "lon": -76.99682216666666, "is_disabled": 0, "fusion_lat": 0.0, "lat": 38.8381715, "bike_id": "10a1160d40d04e8b97835e2605cd332f", "fusion_lon": 0.0}, {"rental_uris": {"ios": "https://dc.lft.to/lastmile_qr_scan", "android": "https://dc.lft.to/lastmile_qr_scan"}, "type": "electric_scooter", "name": "c9f56a77c49f826f19611bde59713e09", "is_reserved": 0, "lon": -77.03278333333333, "is_disabled": 0, "fusion_lat": 0.0, "lat": 38.93247783333333, "bike_id": "c9f56a77c49f826f19611bde59713e09", "fusion_lon": 0.0}, {"rental_uris": {"ios": "https://dc.lft.to/lastmile_qr_scan", "android": "https://dc.lft.to/lastmile_qr_scan"}, "type": "electric_scooter", "name": "b95dc90718ead298f5bfa551f3814ab2", "is_reserved": 0, "lon": -77.03027033333333, "is_disabled": 0, "fusion_lat": 0.0, "lat": 38.9224665, "bike_id": "b95dc90718ead298f5bfa551f3814ab2", "fusion_lon": 0.0}, {"rental_uris": {"ios": "https://dc.lft.to/lastmile_qr_scan", "android": "https://dc.lft.to/lastmile_qr_scan"}, "type": "electric_scooter", "name": "6f7682ca2ac8dfb09d09786fbe5cb8c5", "is_reserved": 0, "lon": -76.98378516666666, "is_disabled": 0, "fusion_lat": 0.0, "lat": 38.866964833333334, "bike_id": "6f7682ca2ac8dfb09d09786fbe5cb8c5", "fusion_lon": 0.0}, {"rental_uris": {"ios": "https://dc.lft.to/lastmile_qr_scan", "android": "https://dc.lft.to/lastmile_qr_scan"}, "type": "electric_scooter", "name": "0ad76d5e5ad335ef868f4b4bc5a27980", "is_reserved": 0, "lon": -77.009468, "is_disabled": 0, "fusion_lat": 0.0, "lat": 38.89493733333333, "bike_id": "0ad76d5e5ad335ef868f4b4bc5a27980", "fusion_lon": 0.0}, {"rental_uris": {"ios": "https://dc.lft.to/lastmile_qr_scan", "android": "https://dc.lft.to/lastmile_qr_scan"}, "type": "electric_scooter", "name": "2112c90514547b7b07c1e9e2e8adf114", "is_reserved": 0, "lon": -77.02260633333333, "is_disabled": 0, "fusion_lat": 0.0, "lat": 38.92823966666667, "bike_id": "2112c90514547b7b07c1e9e2e8adf114", "fusion_lon": 0.0}, {"rental_uris": {"ios": "https://dc.lft.to/lastmile_qr_scan", "android": "https://dc.lft.to/lastmile_qr_scan"}, "type": "electric_scooter", "name": "d42f5e10711d39c519aeb29713e1b875", "is_reserved": 0, "lon": -77.02729016666666, "is_disabled": 0, "fusion_lat": 0.0, "lat": 38.90553766666667, "bike_id": "d42f5e10711d39c519aeb29713e1b875", "fusion_lon": 0.0}, {"rental_uris": {"ios": "https://dc.lft.to/lastmile_qr_scan", "android": "https://dc.lft.to/lastmile_qr_scan"}, "type": "electric_scooter", "name": "7064c33e484ccf64cebfe152d275f663", "is_reserved": 0, "lon": -77.02972683333333, "is_disabled": 0, "fusion_lat": 0.0, "lat": 38.917251666666665, "bike_id": "7064c33e484ccf64cebfe152d275f663", "fusion_lon": 0.0}, {"rental_uris": {"ios": "https://dc.lft.to/lastmile_qr_scan", "android": "https://dc.lft.to/lastmile_qr_scan"}, "type": "electric_scooter", "name": "1fdf26fcdd67470f4b716b3964821f48", "is_reserved": 0, "lon": -77.02194833333333, "is_disabled": 0, "fusion_lat": 0.0, "lat": 38.914693, "bike_id": "1fdf26fcdd67470f4b716b3964821f48", "fusion_lon": 0.0}, {"rental_uris": {"ios": "https://dc.lft.to/lastmile_qr_scan", "android": "https://dc.lft.to/lastmile_qr_scan"}, "type": "electric_scooter", "name": "6fff8bd8d2863ad4b86a9c1839569062", "is_reserved": 0, "lon": -77.0112595, "is_disabled": 0, "fusion_lat": 0.0, "lat": 38.916206833333334, "bike_id": "6fff8bd8d2863ad4b86a9c1839569062", "fusion_lon": 0.0}, {"rental_uris": {"ios": "https://dc.lft.to/lastmile_qr_scan", "android": "https://dc.lft.to/lastmile_qr_scan"}, "type": "electric_scooter", "name": "1e78c41a71f37506c3ad9bdc5d543a81", "is_reserved": 0, "lon": -77.05478766666667, "is_disabled": 0, "fusion_lat": 0.0, "lat": 38.8973195, "bike_id": "1e78c41a71f37506c3ad9bdc5d543a81", "fusion_lon": 0.0}, {"rental_uris": {"ios": "https://dc.lft.to/lastmile_qr_scan", "android": "https://dc.lft.to/lastmile_qr_scan"}, "type": "electric_scooter", "name": "9187818cfbc10463cfe4d77dd5436f5c", "is_reserved": 0, "lon": -77.03469983333333, "is_disabled": 0, "fusion_lat": 0.0, "lat": 38.91267166666667, "bike_id": "9187818cfbc10463cfe4d77dd5436f5c", "fusion_lon": 0.0}, {"rental_uris": {"ios": "https://dc.lft.to/lastmile_qr_scan", "android": "https://dc.lft.to/lastmile_qr_scan"}, "type": "electric_scooter", "name": "978d0ca6f69760563e556664c6d49f14", "is_reserved": 0, "lon": -77.03128116666667, "is_disabled": 0, "fusion_lat": 0.0, "lat": 38.92376133333333, "bike_id": "978d0ca6f69760563e556664c6d49f14", "fusion_lon": 0.0}, {"rental_uris": {"ios": "https://dc.lft.to/lastmile_qr_scan", "android": "https://dc.lft.to/lastmile_qr_scan"}, "type": "electric_scooter", "name": "6f0d2c4025ac68bddee9f0b9b9d61a7c", "is_reserved": 0, "lon": -77.036592, "is_disabled": 0, "fusion_lat": 0.0, "lat": 38.91005233333333, "bike_id": "6f0d2c4025ac68bddee9f0b9b9d61a7c", "fusion_lon": 0.0}, {"rental_uris": {"ios": "https://dc.lft.to/lastmile_qr_scan", "android": "https://dc.lft.to/lastmile_qr_scan"}, "type": "electric_scooter", "name": "9f61822634a125b887325d98b5b6598b", "is_reserved": 0, "lon": -77.04495933333334, "is_disabled": 0, "fusion_lat": 0.0, "lat": 38.915209, "bike_id": "9f61822634a125b887325d98b5b6598b", "fusion_lon": 0.0}, {"rental_uris": {"ios": "https://dc.lft.to/lastmile_qr_scan", "android": "https://dc.lft.to/lastmile_qr_scan"}, "type": "electric_scooter", "name": "51c3ed2f3676f156f68e84e5c1935dcf", "is_reserved": 0, "lon": -77.033058, "is_disabled": 0, "fusion_lat": 0.0, "lat": 38.924566666666664, "bike_id": "51c3ed2f3676f156f68e84e5c1935dcf", "fusion_lon": 0.0}, {"rental_uris": {"ios": "https://dc.lft.to/lastmile_qr_scan", "android": "https://dc.lft.to/lastmile_qr_scan"}, "type": "electric_scooter", "name": "1aaf971c4c9c85938b44994a34781d35", "is_reserved": 0, "lon": -77.03888483333333, "is_disabled": 0, "fusion_lat": 0.0, "lat": 38.922405166666664, "bike_id": "1aaf971c4c9c85938b44994a34781d35", "fusion_lon": 0.0}, {"rental_uris": {"ios": "https://dc.lft.to/lastmile_qr_scan", "android": "https://dc.lft.to/lastmile_qr_scan"}, "type": "electric_scooter", "name": "23b6c12450a94f0e8fe4b937a3f26863", "is_reserved": 0, "lon": -77.01356166666666, "is_disabled": 0, "fusion_lat": 0.0, "lat": 38.91937333333333, "bike_id": "23b6c12450a94f0e8fe4b937a3f26863", "fusion_lon": 0.0}, {"rental_uris": {"ios": "https://dc.lft.to/lastmile_qr_scan", "android": "https://dc.lft.to/lastmile_qr_scan"}, "type": "electric_scooter", "name": "c3e68ea1cb4b0bb8366d48e9f965bf88", "is_reserved": 0, "lon": -77.03696716666667, "is_disabled": 0, "fusion_lat": 0.0, "lat": 38.932811, "bike_id": "c3e68ea1cb4b0bb8366d48e9f965bf88", "fusion_lon": 0.0}, {"rental_uris": {"ios": "https://dc.lft.to/lastmile_qr_scan", "android": "https://dc.lft.to/lastmile_qr_scan"}, "type": "electric_scooter", "name": "3b68076a69f61a1df710b6b8b795da6a", "is_reserved": 0, "lon": -77.023534, "is_disabled": 0, "fusion_lat": 0.0, "lat": 38.935374833333334, "bike_id": "3b68076a69f61a1df710b6b8b795da6a", "fusion_lon": 0.0}, {"rental_uris": {"ios": "https://dc.lft.to/lastmile_qr_scan", "android": "https://dc.lft.to/lastmile_qr_scan"}, "type": "electric_scooter", "name": "05e5ecb6c36995a25b79b3d68932adcf", "is_reserved": 0, "lon": -77.03192116666666, "is_disabled": 0, "fusion_lat": 0.0, "lat": 38.908624, "bike_id": "05e5ecb6c36995a25b79b3d68932adcf", "fusion_lon": 0.0}, {"rental_uris": {"ios": "https://dc.lft.to/lastmile_qr_scan", "android": "https://dc.lft.to/lastmile_qr_scan"}, "type": "electric_scooter", "name": "bd7499631a8a6e6b9d977e24c29f194b", "is_reserved": 0, "lon": -77.0101765, "is_disabled": 0, "fusion_lat": 0.0, "lat": 38.914024833333336, "bike_id": "bd7499631a8a6e6b9d977e24c29f194b", "fusion_lon": 0.0}, {"rental_uris": {"ios": "https://dc.lft.to/lastmile_qr_scan", "android": "https://dc.lft.to/lastmile_qr_scan"}, "type": "electric_scooter", "name": "f224a455d7b0cd07230438d1cbc734d1", "is_reserved": 0, "lon": -77.0651995, "is_disabled": 0, "fusion_lat": 0.0, "lat": 38.9058165, "bike_id": "f224a455d7b0cd07230438d1cbc734d1", "fusion_lon": 0.0}, {"rental_uris": {"ios": "https://dc.lft.to/lastmile_qr_scan", "android": "https://dc.lft.to/lastmile_qr_scan"}, "type": "electric_scooter", "name": "a883abfe9ba787256a09cb9450338808", "is_reserved": 0, "lon": -77.04246033333334, "is_disabled": 0, "fusion_lat": 0.0, "lat": 38.92198416666667, "bike_id": "a883abfe9ba787256a09cb9450338808", "fusion_lon": 0.0}, {"rental_uris": {"ios": "https://dc.lft.to/lastmile_qr_scan", "android": "https://dc.lft.to/lastmile_qr_scan"}, "type": "electric_scooter", "name": "9c71b57d230839a9e5240ad4d20cd2ac", "is_reserved": 0, "lon": -77.02270716666666, "is_disabled": 0, "fusion_lat": 0.0, "lat": 38.92427466666667, "bike_id": "9c71b57d230839a9e5240ad4d20cd2ac", "fusion_lon": 0.0}, {"rental_uris": {"ios": "https://dc.lft.to/lastmile_qr_scan", "android": "https://dc.lft.to/lastmile_qr_scan"}, "type": "electric_scooter", "name": "939dc5758321981c7b9d0e758d8ce1ec", "is_reserved": 0, "lon": -77.021289, "is_disabled": 0, "fusion_lat": 0.0, "lat": 38.913176666666665, "bike_id": "939dc5758321981c7b9d0e758d8ce1ec", "fusion_lon": 0.0}, {"rental_uris": {"ios": "https://dc.lft.to/lastmile_qr_scan", "android": "https://dc.lft.to/lastmile_qr_scan"}, "type": "electric_scooter", "name": "25cc57b405ef2bacb7bf4ccaee56045b", "is_reserved": 0, "lon": -77.00554, "is_disabled": 0, "fusion_lat": 0.0, "lat": 38.874697833333336, "bike_id": "25cc57b405ef2bacb7bf4ccaee56045b", "fusion_lon": 0.0}, {"rental_uris": {"ios": "https://dc.lft.to/lastmile_qr_scan", "android": "https://dc.lft.to/lastmile_qr_scan"}, "type": "electric_scooter", "name": "f54ce5aac4c19b0ceeae066306f3a722", "is_reserved": 0, "lon": -77.009878, "is_disabled": 0, "fusion_lat": 0.0, "lat": 38.90562933333333, "bike_id": "f54ce5aac4c19b0ceeae066306f3a722", "fusion_lon": 0.0}, {"rental_uris": {"ios": "https://dc.lft.to/lastmile_qr_scan", "android": "https://dc.lft.to/lastmile_qr_scan"}, "type": "electric_scooter", "name": "26df92e3dc5ccaf18da3cb694ef7b0f7", "is_reserved": 0, "lon": -77.02474183333334, "is_disabled": 0, "fusion_lat": 0.0, "lat": 38.918169, "bike_id": "26df92e3dc5ccaf18da3cb694ef7b0f7", "fusion_lon": 0.0}, {"rental_uris": {"ios": "https://dc.lft.to/lastmile_qr_scan", "android": "https://dc.lft.to/lastmile_qr_scan"}, "type": "electric_scooter", "name": "8145af792eeaa2b34de7cba74bf9256d", "is_reserved": 0, "lon": -77.03177683333334, "is_disabled": 0, "fusion_lat": 0.0, "lat": 38.915510166666664, "bike_id": "8145af792eeaa2b34de7cba74bf9256d", "fusion_lon": 0.0}, {"rental_uris": {"ios": "https://dc.lft.to/lastmile_qr_scan", "android": "https://dc.lft.to/lastmile_qr_scan"}, "type": "electric_scooter", "name": "8eb7abfed606aa5737844a5ca150fb17", "is_reserved": 0, "lon": -77.00886816666667, "is_disabled": 0, "fusion_lat": 0.0, "lat": 38.9171255, "bike_id": "8eb7abfed606aa5737844a5ca150fb17", "fusion_lon": 0.0}, {"rental_uris": {"ios": "https://dc.lft.to/lastmile_qr_scan", "android": "https://dc.lft.to/lastmile_qr_scan"}, "type": "electric_scooter", "name": "56f017a07a57a586792be3ec46c5f0ac", "is_reserved": 0, "lon": -76.93699366666667, "is_disabled": 0, "fusion_lat": 0.0, "lat": 38.890225, "bike_id": "56f017a07a57a586792be3ec46c5f0ac", "fusion_lon": 0.0}, {"rental_uris": {"ios": "https://dc.lft.to/lastmile_qr_scan", "android": "https://dc.lft.to/lastmile_qr_scan"}, "type": "electric_scooter", "name": "4720f5d02b1784cb3a4da9a684314fa9", "is_reserved": 0, "lon": -77.02225183333333, "is_disabled": 0, "fusion_lat": 0.0, "lat": 38.920910666666664, "bike_id": "4720f5d02b1784cb3a4da9a684314fa9", "fusion_lon": 0.0}, {"rental_uris": {"ios": "https://dc.lft.to/lastmile_qr_scan", "android": "https://dc.lft.to/lastmile_qr_scan"}, "type": "electric_scooter", "name": "e29f642f9179527cf730129dc4b5e468", "is_reserved": 0, "lon": -77.032006, "is_disabled": 0, "fusion_lat": 0.0, "lat": 38.908356, "bike_id": "e29f642f9179527cf730129dc4b5e468", "fusion_lon": 0.0}, {"rental_uris": {"ios": "https://dc.lft.to/lastmile_qr_scan", "android": "https://dc.lft.to/lastmile_qr_scan"}, "type": "electric_scooter", "name": "f7fa63c1637acd33e5374c00fa8358b7", "is_reserved": 0, "lon": -77.03065733333334, "is_disabled": 0, "fusion_lat": 0.0, "lat": 38.934496833333334, "bike_id": "f7fa63c1637acd33e5374c00fa8358b7", "fusion_lon": 0.0}, {"rental_uris": {"ios": "https://dc.lft.to/lastmile_qr_scan", "android": "https://dc.lft.to/lastmile_qr_scan"}, "type": "electric_scooter", "name": "5a39acc266a646a09df03503b29153ee", "is_reserved": 0, "lon": -77.0207, "is_disabled": 0, "fusion_lat": 0.0, "lat": 38.931106666666665, "bike_id": "5a39acc266a646a09df03503b29153ee", "fusion_lon": 0.0}, {"rental_uris": {"ios": "https://dc.lft.to/lastmile_qr_scan", "android": "https://dc.lft.to/lastmile_qr_scan"}, "type": "electric_scooter", "name": "fa35e979d123c7296dca97f595e169dd", "is_reserved": 0, "lon": -77.064185, "is_disabled": 0, "fusion_lat": 0.0, "lat": 38.913943333333336, "bike_id": "fa35e979d123c7296dca97f595e169dd", "fusion_lon": 0.0}, {"rental_uris": {"ios": "https://dc.lft.to/lastmile_qr_scan", "android": "https://dc.lft.to/lastmile_qr_scan"}, "type": "electric_scooter", "name": "3805b8c9cc81b87a628c4c2eedfa8e84", "is_reserved": 0, "lon": -77.024619, "is_disabled": 0, "fusion_lat": 0.0, "lat": 38.93900433333334, "bike_id": "3805b8c9cc81b87a628c4c2eedfa8e84", "fusion_lon": 0.0}, {"rental_uris": {"ios": "https://dc.lft.to/lastmile_qr_scan", "android": "https://dc.lft.to/lastmile_qr_scan"}, "type": "electric_scooter", "name": "a0af4db3748af8667f6a830c41753ed9", "is_reserved": 0, "lon": -77.00875416666666, "is_disabled": 0, "fusion_lat": 0.0, "lat": 38.92246883333333, "bike_id": "a0af4db3748af8667f6a830c41753ed9", "fusion_lon": 0.0}, {"rental_uris": {"ios": "https://dc.lft.to/lastmile_qr_scan", "android": "https://dc.lft.to/lastmile_qr_scan"},