{"data": {"bikes": [{"name": "b6b21213afe925596e0132a95b81bea6", "fusion_lon": 0.0, "lat": 38.900222666666664, "is_reserved": 0, "type": "electric_scooter", "bike_id": "b6b21213afe925596e0132a95b81bea6", "is_disabled": 0, "rental_uris": {"android": "https://dc.lft.to/lastmile_qr_scan", "ios": "https://dc.lft.to/lastmile_qr_scan"}, "lon": -77.00215866666667, "fusion_lat": 0.0}, {"name": "dcbbfc48803f76eff36a5dd323fa47a0", "fusion_lon": 0.0, "lat": 38.922556, "is_reserved": 0, "type": "electric_scooter", "bike_id": "dcbbfc48803f76eff36a5dd323fa47a0", "is_disabled": 0, "rental_uris": {"android": "https://dc.lft.to/lastmile_qr_scan", "ios": "https://dc.lft.to/lastmile_qr_scan"}, "lon": -77.03026233333334, "fusion_lat": 0.0}, {"name": "0b6aebde0d5829a1c09745677e41ae2c", "fusion_lon": 0.0, "lat": 38.89843066666667, "is_reserved": 0, "type": "electric_scooter", "bike_id": "0b6aebde0d5829a1c09745677e41ae2c", "is_disabled": 0, "rental_uris": {"android": "https://dc.lft.to/lastmile_qr_scan", "ios": "https://dc.lft.to/lastmile_qr_scan"}, "lon": -77.02368133333333, "fusion_lat": 0.0}, {"name": "7ffe79eed22c197d12cbcac11c569796", "fusion_lon": 0.0, "lat": 38.9155045, "is_reserved": 0, "type": "electric_scooter", "bike_id": "7ffe79eed22c197d12cbcac11c569796", "is_disabled": 0, "rental_uris": {"android": "https://dc.lft.to/lastmile_qr_scan", "ios": "https://dc.lft.to/lastmile_qr_scan"}, "lon": -77.04177416666667, "fusion_lat": 0.0}, {"name": "d077e74b46b7575fd32c70c0a18d6c89", "fusion_lon": 0.0, "lat": 38.916381333333334, "is_reserved": 0, "type": "electric_scooter", "bike_id": "d077e74b46b7575fd32c70c0a18d6c89", "is_disabled": 0, "rental_uris": {"android": "https://dc.lft.to/lastmile_qr_scan", "ios": "https://dc.lft.to/lastmile_qr_scan"}, "lon": -77.02392316666666, "fusion_lat": 0.0}, {"name": "6725f7e9cceb4b81b6b4b672dea7a5d9", "fusion_lon": 0.0, "lat": 38.91990883333333, "is_reserved": 0, "type": "electric_scooter", "bike_id": "6725f7e9cceb4b81b6b4b672dea7a5d9", "is_disabled": 0, "rental_uris": {"android": "https://dc.lft.to/lastmile_qr_scan", "ios": "https://dc.lft.to/lastmile_qr_scan"}, "lon": -77.03214883333334, "fusion_lat": 0.0}, {"name": "58ec3b2f9e503224daf849ce7940d9d9", "fusion_lon": 0.0, "lat": 38.8970045, "is_reserved": 0, "type": "electric_scooter", "bike_id": "58ec3b2f9e503224daf849ce7940d9d9", "is_disabled": 0, "rental_uris": {"android": "https://dc.lft.to/lastmile_qr_scan", "ios": "https://dc.lft.to/lastmile_qr_scan"}, "lon": -76.9300075, "fusion_lat": 0.0}, {"name": "8313aa71d2d4bf20043259f0bf854796", "fusion_lon": 0.0, "lat": 38.86621366666667, "is_reserved": 0, "type": "electric_scooter", "bike_id": "8313aa71d2d4bf20043259f0bf854796", "is_disabled": 0, "rental_uris": {"android": "https://dc.lft.to/lastmile_qr_scan", "ios": "https://dc.lft.to/lastmile_qr_scan"}, "lon": -76.98898066666666, "fusion_lat": 0.0}, {"name": "a0b04718d9ebdf2cb3b36b99a1500dec", "fusion_lon": 0.0, "lat": 38.89924583333333, "is_reserved": 0, "type": "electric_scooter", "bike_id": "a0b04718d9ebdf2cb3b36b99a1500dec", "is_disabled": 0, "rental_uris": {"android": "https://dc.lft.to/lastmile_qr_scan", "ios": "https://dc.lft.to/lastmile_qr_scan"}, "lon": -77.070547, "fusion_lat": 0.0}, {"name": "96daf915b4c5580d13d4237aeca3151b", "fusion_lon": 0.0, "lat": 38.923724166666666, "is_reserved": 0, "type": "electric_scooter", "bike_id": "96daf915b4c5580d13d4237aeca3151b", "is_disabled": 0, "rental_uris": {"android": "https://dc.lft.to/lastmile_qr_scan", "ios": "https://dc.lft.to/lastmile_qr_scan"}, "lon": -77.03086516666667, "fusion_lat": 0.0}, {"name": "d8d83e9b35cdad635a78294a3c7b37c1", "fusion_lon": 0.0, "lat": 38.90374533333333, "is_reserved": 0, "type": "electric_scooter", "bike_id": "d8d83e9b35cdad635a78294a3c7b37c1", "is_disabled": 0, "rental_uris": {"android": "https://dc.lft.to/lastmile_qr_scan", "ios": "https://dc.lft.to/lastmile_qr_scan"}, "lon": -77.045105, "fusion_lat": 0.0}, {"name": "bfaea9ac95fe650a26f3a10b715c544a", "fusion_lon": 0.0, "lat": 38.92686916666667, "is_reserved": 0, "type": "electric_scooter", "bike_id": "bfaea9ac95fe650a26f3a10b715c544a", "is_disabled": 0, "rental_uris": {"android": "https://dc.lft.to/lastmile_qr_scan", "ios": "https://dc.lft.to/lastmile_qr_scan"}, "lon": -77.0151795, "fusion_lat": 0.0}, {"name": "77c1a6c3b4a44db19355f21f23ec18fb", "fusion_lon": 0.0, "lat": 38.89956383333333, "is_reserved": 0, "type": "electric_bike", "bike_id": "77c1a6c3b4a44db19355f21f23ec18fb", "is_disabled": 0, "rental_uris": {"android": "https://dc.lft.to/lastmile_qr_scan", "ios": "https://dc.lft.to/lastmile_qr_scan"}, "lon": -76.985548, "fusion_lat": 0.0}, {"name": "387e252480541c68ead3578b17ce3b27", "fusion_lon": 0.0, "lat": 38.91559616666667, "is_reserved": 0, "type": "electric_scooter", "bike_id": "387e252480541c68ead3578b17ce3b27", "is_disabled": 0, "rental_uris": {"android": "https://dc.lft.to/lastmile_qr_scan", "ios": "https://dc.lft.to/lastmile_qr_scan"}, "lon": -77.010429, "fusion_lat": 0.0}, {"name": "734da1bc23a3c30cae5dddd9d83a5f66", "fusion_lon": 0.0, "lat": 38.893449333333336, "is_reserved": 0, "type": "electric_scooter", "bike_id": "734da1bc23a3c30cae5dddd9d83a5f66", "is_disabled": 0, "rental_uris": {"android": "https://dc.lft.to/lastmile_qr_scan", "ios": "https://dc.lft.to/lastmile_qr_scan"}, "lon": -77.0121795, "fusion_lat": 0.0}, {"name": "8b88ca27afb9036387a8299ae821515d", "fusion_lon": 0.0, "lat": 38.88203816666667, "is_reserved": 0, "type": "electric_scooter", "bike_id": "8b88ca27afb9036387a8299ae821515d", "is_disabled": 0, "rental_uris": {"android": "https://dc.lft.to/lastmile_qr_scan", "ios": "https://dc.lft.to/lastmile_qr_scan"}, "lon": -76.98918966666666, "fusion_lat": 0.0}, {"name": "4aa00c02955f06ec2da57415b3af350d", "fusion_lon": 0.0, "lat": 38.91843566666667, "is_reserved": 0, "type": "electric_scooter", "bike_id": "4aa00c02955f06ec2da57415b3af350d", "is_disabled": 0, "rental_uris": {"android": "https://dc.lft.to/lastmile_qr_scan", "ios": "https://dc.lft.to/lastmile_qr_scan"}, "lon": -77.0234595, "fusion_lat": 0.0}, {"name": "a8a4664ef05f4b1e385fb0dc999797ea", "fusion_lon": 0.0, "lat": 38.87703666666667, "is_reserved": 0, "type": "electric_scooter", "bike_id": "a8a4664ef05f4b1e385fb0dc999797ea", "is_disabled": 0, "rental_uris": {"android": "https://dc.lft.to/lastmile_qr_scan", "ios": "https://dc.lft.to/lastmile_qr_scan"}, "lon": -77.004066, "fusion_lat": 0.0}, {"name": "05fcc8f5df2b329c57d2eaea97fdb141", "fusion_lon": 0.0, "lat": 38.900976166666666, "is_reserved": 0, "type": "electric_scooter", "bike_id": "05fcc8f5df2b329c57d2eaea97fdb141", "is_disabled": 0, "rental_uris": {"android": "https://dc.lft.to/lastmile_qr_scan", "ios": "https://dc.lft.to/lastmile_qr_scan"}, "lon": -76.97639783333334, "fusion_lat": 0.0}, {"name": "995125892910e000207edc2d6e22a373", "fusion_lon": 0.0, "lat": 38.899137333333336, "is_reserved": 0, "type": "electric_scooter", "bike_id": "995125892910e000207edc2d6e22a373", "is_disabled": 0, "rental_uris": {"android": "https://dc.lft.to/lastmile_qr_scan", "ios": "https://dc.lft.to/lastmile_qr_scan"}, "lon": -76.9337485, "fusion_lat": 0.0}, {"name": "8f38bc3f6dd1545fe2c564ac31087500", "fusion_lon": 0.0, "lat": 38.865001166666666, "is_reserved": 0, "type": "electric_scooter", "bike_id": "8f38bc3f6dd1545fe2c564ac31087500", "is_disabled": 0, "rental_uris": {"android": "https://dc.lft.to/lastmile_qr_scan", "ios": "https://dc.lft.to/lastmile_qr_scan"}, "lon": -76.98997783333333, "fusion_lat": 0.0}, {"name": "dcfda919039c0f7081e7bbf5339149af", "fusion_lon": 0.0, "lat": 38.924868833333335, "is_reserved": 0, "type": "electric_scooter", "bike_id": "dcfda919039c0f7081e7bbf5339149af", "is_disabled": 0, "rental_uris": {"android": "https://dc.lft.to/lastmile_qr_scan", "ios": "https://dc.lft.to/lastmile_qr_scan"}, "lon": -77.02134166666667, "fusion_lat": 0.0}, {"name": "7601d6290dd5a85e57cc0cdf53b48d39", "fusion_lon": 0.0, "lat": 38.900434, "is_reserved": 0, "type": "electric_scooter", "bike_id": "7601d6290dd5a85e57cc0cdf53b48d39", "is_disabled": 0, "rental_uris": {"android": "https://dc.lft.to/lastmile_qr_scan", "ios": "https://dc.lft.to/lastmile_qr_scan"}, "lon": -76.988257, "fusion_lat": 0.0}, {"name": "b4040a74a8604f9a6c13bd7ad3f57c94", "fusion_lon": 0.0, "lat": 38.92888716666667, "is_reserved": 0, "type": "electric_bike", "bike_id": "b4040a74a8604f9a6c13bd7ad3f57c94", "is_disabled": 0, "rental_uris": {"android": "https://dc.lft.to/lastmile_qr_scan", "ios": "https://dc.lft.to/lastmile_qr_scan"}, "lon": -77.0839845, "fusion_lat": 0.0}, {"name": "0e259202e00f80d03f531de16045d90e", "fusion_lon": 0.0, "lat": 38.94600633333334, "is_reserved": 0, "type": "electric_bike", "bike_id": "0e259202e00f80d03f531de16045d90e", "is_disabled": 0, "rental_uris": {"android": "https://dc.lft.to/lastmile_qr_scan", "ios": "https://dc.lft.to/lastmile_qr_scan"}, "lon": -77.0070905, "fusion_lat": 0.0}, {"name": "34907f55c0a53501254255270a37e6c4", "fusion_lon": 0.0, "lat": 38.918852666666666, "is_reserved": 0, "type": "electric_scooter", "bike_id": "34907f55c0a53501254255270a37e6c4", "is_disabled": 0, "rental_uris": {"android": "https://dc.lft.to/lastmile_qr_scan", "ios": "https://dc.lft.to/lastmile_qr_scan"}, "lon": -77.04825616666666, "fusion_lat": 0.0}, {"name": "8665fe974d9c66752be8095199a87a99", "fusion_lon": 0.0, "lat": 38.893930833333336, "is_reserved": 0, "type": "electric_scooter", "bike_id": "8665fe974d9c66752be8095199a87a99", "is_disabled": 0, "rental_uris": {"android": "https://dc.lft.to/lastmile_qr_scan", "ios": "https://dc.lft.to/lastmile_qr_scan"}, "lon": -77.01952766666666, "fusion_lat": 0.0}, {"name": "8d6492ae6076c3e42db1ff1138d7f764", "fusion_lon": 0.0, "lat": 38.902040166666666, "is_reserved": 0, "type": "electric_scooter", "bike_id": "8d6492ae6076c3e42db1ff1138d7f764", "is_disabled": 0, "rental_uris": {"android": "https://dc.lft.to/lastmile_qr_scan", "ios": "https://dc.lft.to/lastmile_qr_scan"}, "lon": -77.023661, "fusion_lat": 0.0}, {"name": "920e295deea791e9f212ad09d0d3602a", "fusion_lon": 0.0, "lat": 38.92239216666667, "is_reserved": 0, "type": "electric_scooter", "bike_id": "920e295deea791e9f212ad09d0d3602a", "is_disabled": 0, "rental_uris": {"android": "https://dc.lft.to/lastmile_qr_scan", "ios": "https://dc.lft.to/lastmile_qr_scan"}, "lon": -77.02232083333334, "fusion_lat": 0.0}, {"name": "3e1967bccc8a0a996ec05117622967d7", "fusion_lon": 0.0, "lat": 38.952453166666665, "is_reserved": 0, "type": "electric_bike", "bike_id": "3e1967bccc8a0a996ec05117622967d7", "is_disabled": 0, "rental_uris": {"android": "https://dc.lft.to/lastmile_qr_scan", "ios": "https://dc.lft.to/lastmile_qr_scan"}, "lon": -76.97665916666666, "fusion_lat": 0.0}, {"name": "0130244c1774d3bc17b2de722890e4da", "fusion_lon": 0.0, "lat": 38.92700583333333, "is_reserved": 0, "type": "electric_scooter", "bike_id": "0130244c1774d3bc17b2de722890e4da", "is_disabled": 0, "rental_uris": {"android": "https://dc.lft.to/lastmile_qr_scan", "ios": "https://dc.lft.to/lastmile_qr_scan"}, "lon": -77.02068216666666, "fusion_lat": 0.0}, {"name": "66359e9a5a8c4c8fa9aeed28847fd8e1", "fusion_lon": 0.0, "lat": 38.9063565, "is_reserved": 0, "type": "electric_scooter", "bike_id": "66359e9a5a8c4c8fa9aeed28847fd8e1", "is_disabled": 0, "rental_uris": {"android": "https://dc.lft.to/lastmile_qr_scan", "ios": "https://dc.lft.to/lastmile_qr_scan"}, "lon": -77.01012016666667, "fusion_lat": 0.0}, {"name": "da74587c442c5e5a062579c624c2b1f6", "fusion_lon": 0.0, "lat": 38.90287283333333, "is_reserved": 0, "type": "electric_scooter", "bike_id": "da74587c442c5e5a062579c624c2b1f6", "is_disabled": 0, "rental_uris": {"android": "https://dc.lft.to/lastmile_qr_scan", "ios": "https://dc.lft.to/lastmile_qr_scan"}, "lon": -77.0580455, "fusion_lat": 0.0}, {"name": "9325293a067919ce377336df9351e37d", "fusion_lon": 0.0, "lat": 38.83731066666667, "is_reserved": 0, "type": "electric_bike", "bike_id": "9325293a067919ce377336df9351e37d", "is_disabled": 0, "rental_uris": {"android": "https://dc.lft.to/lastmile_qr_scan", "ios": "https://dc.lft.to/lastmile_qr_scan"}, "lon": -77.0954645, "fusion_lat": 0.0}, {"name": "91b5d78c63104421a8c3eb8ef814eb2b", "fusion_lon": 0.0, "lat": 38.921280333333335, "is_reserved": 0, "type": "electric_scooter", "bike_id": "91b5d78c63104421a8c3eb8ef814eb2b", "is_disabled": 0, "rental_uris": {"android": "https://dc.lft.to/lastmile_qr_scan", "ios": "https://dc.lft.to/lastmile_qr_scan"}, "lon": -77.04429266666666, "fusion_lat": 0.0}, {"name": "648373cc99c36835758fc1800b0c3c1d", "fusion_lon": 0.0, "lat": 38.9232305, "is_reserved": 0, "type": "electric_scooter", "bike_id": "648373cc99c36835758fc1800b0c3c1d", "is_disabled": 0, "rental_uris": {"android": "https://dc.lft.to/lastmile_qr_scan", "ios": "https://dc.lft.to/lastmile_qr_scan"}, "lon": -77.021205, "fusion_lat": 0.0}, {"name": "01f66cf861697624f228568c81883247", "fusion_lon": 0.0, "lat": 38.93677533333333, "is_reserved": 0, "type": "electric_scooter", "bike_id": "01f66cf861697624f228568c81883247", "is_disabled": 0, "rental_uris": {"android": "https://dc.lft.to/lastmile_qr_scan", "ios": "https://dc.lft.to/lastmile_qr_scan"}, "lon": -77.03281133333333, "fusion_lat": 0.0}, {"name": "52d8bf379bc03e5901f192a2d892c261", "fusion_lon": 0.0, "lat": 38.9005795, "is_reserved": 0, "type": "electric_scooter", "bike_id": "52d8bf379bc03e5901f192a2d892c261", "is_disabled": 0, "rental_uris": {"android": "https://dc.lft.to/lastmile_qr_scan", "ios": "https://dc.lft.to/lastmile_qr_scan"}, "lon": -76.93473833333333, "fusion_lat": 0.0}, {"name": "2b384db433423d114e9a262947846d32", "fusion_lon": 0.0, "lat": 38.93009933333333, "is_reserved": 0, "type": "electric_scooter", "bike_id": "2b384db433423d114e9a262947846d32", "is_disabled": 0, "rental_uris": {"android": "https://dc.lft.to/lastmile_qr_scan", "ios": "https://dc.lft.to/lastmile_qr_scan"}, "lon": -77.01430183333333, "fusion_lat": 0.0}, {"name": "7e13ceeacbe652490dd2d8505cb71ec3", "fusion_lon": 0.0, "lat": 38.8569025, "is_reserved": 0, "type": "electric_scooter", "bike_id": "7e13ceeacbe652490dd2d8505cb71ec3", "is_disabled": 0, "rental_uris": {"android": "https://dc.lft.to/lastmile_qr_scan", "ios": "https://dc.lft.to/lastmile_qr_scan"}, "lon": -76.98966866666666, "fusion_lat": 0.0}, {"name": "a0d04fe3a208fd529018920823ad0a06", "fusion_lon": 0.0, "lat": 38.9206195, "is_reserved": 0, "type": "electric_scooter", "bike_id": "a0d04fe3a208fd529018920823ad0a06", "is_disabled": 0, "rental_uris": {"android": "https://dc.lft.to/lastmile_qr_scan", "ios": "https://dc.lft.to/lastmile_qr_scan"}, "lon": -77.024129, "fusion_lat": 0.0}, {"name": "80e2b96c228b1650b77a5b1d7ebbb484", "fusion_lon": 0.0, "lat": 38.84423816666666, "is_reserved": 0, "type": "electric_scooter", "bike_id": "80e2b96c228b1650b77a5b1d7ebbb484", "is_disabled": 0, "rental_uris": {"android": "https://dc.lft.to/lastmile_qr_scan", "ios": "https://dc.lft.to/lastmile_qr_scan"}, "lon": -76.99778716666667, "fusion_lat": 0.0}, {"name": "4230622e378c4c5081a9f84356cd3f39", "fusion_lon": 0.0, "lat": 39.057799, "is_reserved": 0, "type": "electric_bike", "bike_id": "4230622e378c4c5081a9f84356cd3f39", "is_disabled": 0, "rental_uris": {"android": "https://dc.lft.to/lastmile_qr_scan", "ios": "https://dc.lft.to/lastmile_qr_scan"}, "lon": -77.150169, "fusion_lat": 0.0}, {"name": "4e5cd754d5dc79a26176ea1ad08b0a49", "fusion_lon": 0.0, "lat": 38.90891366666666, "is_reserved": 0, "type": "electric_scooter", "bike_id": "4e5cd754d5dc79a26176ea1ad08b0a49", "is_disabled": 0, "rental_uris": {"android": "https://dc.lft.to/lastmile_qr_scan", "ios": "https://dc.lft.to/lastmile_qr_scan"}, "lon": -77.07267383333334, "fusion_lat": 0.0}, {"name": "c62de6e4ae718f04064766ac12f81342", "fusion_lon": 0.0, "lat": 38.90574216666667, "is_reserved": 0, "type": "electric_scooter", "bike_id": "c62de6e4ae718f04064766ac12f81342", "is_disabled": 0, "rental_uris": {"android": "https://dc.lft.to/lastmile_qr_scan", "ios": "https://dc.lft.to/lastmile_qr_scan"}, "lon": -77.02756783333334, "fusion_lat": 0.0}, {"name": "b4137481c9987383b3f9cd379f3c7c7c", "fusion_lon": 0.0, "lat": 38.863717333333334, "is_reserved": 0, "type": "electric_scooter", "bike_id": "b4137481c9987383b3f9cd379f3c7c7c", "is_disabled": 0, "rental_uris": {"android": "https://dc.lft.to/lastmile_qr_scan", "ios": "https://dc.lft.to/lastmile_qr_scan"}, "lon": -76.99054633333333, "fusion_lat": 0.0}, {"name": "b8768bb1cba42590b702d593775df006", "fusion_lon": 0.0, "lat": 38.9119505, "is_reserved": 0, "type": "electric_scooter", "bike_id": "b8768bb1cba42590b702d593775df006", "is_disabled": 0, "rental_uris": {"android": "https://dc.lft.to/lastmile_qr_scan", "ios": "https://dc.lft.to/lastmile_qr_scan"}, "lon": -77.038353, "fusion_lat": 0.0}, {"name": "2be18aac0f669c8499d47fe5a34e3646", "fusion_lon": 0.0, "lat": 38.9116215, "is_reserved": 0, "type": "electric_scooter", "bike_id": "2be18aac0f669c8499d47fe5a34e3646", "is_disabled": 0, "rental_uris": {"android": "https://dc.lft.to/lastmile_qr_scan", "ios": "https://dc.lft.to/lastmile_qr_scan"}, "lon": -77.0111585, "fusion_lat": 0.0}, {"name": "199622aa728bd8626bd792b2bb2c1dbf", "fusion_lon": 0.0, "lat": 38.888719, "is_reserved": 0, "type": "electric_scooter", "bike_id": "199622aa728bd8626bd792b2bb2c1dbf", "is_disabled": 0, "rental_uris": {"android": "https://dc.lft.to/lastmile_qr_scan", "ios": "https://dc.lft.to/lastmile_qr_scan"}, "lon": -76.99028066666666, "fusion_lat": 0.0}, {"name": "7104126597f350b47106f72d0b3f21b5", "fusion_lon": 0.0, "lat": 38.9417965, "is_reserved": 0, "type": "electric_scooter", "bike_id": "7104126597f350b47106f72d0b3f21b5", "is_disabled": 0, "rental_uris": {"android": "https://dc.lft.to/lastmile_qr_scan", "ios": "https://dc.lft.to/lastmile_qr_scan"}, "lon": -77.0255205, "fusion_lat": 0.0}, {"name": "5c4bb5a990025e838b6385c0be74e467", "fusion_lon": 0.0, "lat": 38.913099333333335, "is_reserved": 0, "type": "electric_bike", "bike_id": "5c4bb5a990025e838b6385c0be74e467", "is_disabled": 0, "rental_uris": {"android": "https://dc.lft.to/lastmile_qr_scan", "ios": "https://dc.lft.to/lastmile_qr_scan"}, "lon": -77.222987, "fusion_lat": 0.0}, {"name": "d7fc83d45b546c2de1ee620dcbcb71ed", "fusion_lon": 0.0, "lat": 38.919222, "is_reserved": 0, "type": "electric_scooter", "bike_id": "d7fc83d45b546c2de1ee620dcbcb71ed", "is_disabled": 0, "rental_uris": {"android": "https://dc.lft.to/lastmile_qr_scan", "ios": "https://dc.lft.to/lastmile_qr_scan"}, "lon": -77.04254883333333, "fusion_lat": 0.0}, {"name": "ce50b2d6347659e9121c58904178d1e3", "fusion_lon": 0.0, "lat": 38.9047715, "is_reserved": 0, "type": "electric_scooter", "bike_id": "ce50b2d6347659e9121c58904178d1e3", "is_disabled": 0, "rental_uris": {"android": "https://dc.lft.to/lastmile_qr_scan", "ios": "https://dc.lft.to/lastmile_qr_scan"}, "lon": -77.0484945, "fusion_lat": 0.0}, {"name": "b834a369f60aa9a6df36f1fbd5ac6415", "fusion_lon": 0.0, "lat": 38.931845333333335, "is_reserved": 0, "type": "electric_scooter", "bike_id": "b834a369f60aa9a6df36f1fbd5ac6415", "is_disabled": 0, "rental_uris": {"android": "https://dc.lft.to/lastmile_qr_scan", "ios": "https://dc.lft.to/lastmile_qr_scan"}, "lon": -77.038717, "fusion_lat": 0.0}, {"name": "e5676f44d05fef91e3e6c2d6af0ada81", "fusion_lon": 0.0, "lat": 38.8668355, "is_reserved": 0, "type": "electric_scooter", "bike_id": "e5676f44d05fef91e3e6c2d6af0ada81", "is_disabled": 0, "rental_uris": {"android": "https://dc.lft.to/lastmile_qr_scan", "ios": "https://dc.lft.to/lastmile_qr_scan"}, "lon": -76.98564083333333, "fusion_lat": 0.0}, {"name": "b2eba8cd9d6210d1c8b9c3a748d5f924", "fusion_lon": 0.0, "lat": 38.91458316666667, "is_reserved": 0, "type": "electric_scooter", "bike_id": "b2eba8cd9d6210d1c8b9c3a748d5f924", "is_disabled": 0, "rental_uris": {"android": "https://dc.lft.to/lastmile_qr_scan", "ios": "https://dc.lft.to/lastmile_qr_scan"}, "lon": -77.0447185, "fusion_lat": 0.0}, {"name": "12b431c6f0a8dc6aef8b861a4181e8f1", "fusion_lon": 0.0, "lat": 38.907189833333334, "is_reserved": 0, "type": "electric_scooter", "bike_id": "12b431c6f0a8dc6aef8b861a4181e8f1", "is_disabled": 0, "rental_uris": {"android": "https://dc.lft.to/lastmile_qr_scan", "ios": "https://dc.lft.to/lastmile_qr_scan"}, "lon": -77.01825766666667, "fusion_lat": 0.0}, {"name": "43f20fed01ac1a5074581ef088f34442", "fusion_lon": 0.0, "lat": 38.912708333333335, "is_reserved": 0, "type": "electric_scooter", "bike_id": "43f20fed01ac1a5074581ef088f34442", "is_disabled": 0, "rental_uris": {"android": "https://dc.lft.to/lastmile_qr_scan", "ios": "https://dc.lft.to/lastmile_qr_scan"}, "lon": -77.02226366666666, "fusion_lat": 0.0}, {"name": "173aa687b425356bd0cfff6b16fc7d64", "fusion_lon": 0.0, "lat": 38.914891, "is_reserved": 0, "type": "electric_scooter", "bike_id": "173aa687b425356bd0cfff6b16fc7d64", "is_disabled": 0, "rental_uris": {"android": "https://dc.lft.to/lastmile_qr_scan", "ios": "https://dc.lft.to/lastmile_qr_scan"}, "lon": -77.0672475, "fusion_lat": 0.0}, {"name": "256e6a0fbe46a1ae735fa182b2c160bf", "fusion_lon": 0.0, "lat": 38.9252855, "is_reserved": 0, "type": "electric_scooter", "bike_id": "256e6a0fbe46a1ae735fa182b2c160bf", "is_disabled": 0, "rental_uris": {"android": "https://dc.lft.to/lastmile_qr_scan", "ios": "https://dc.lft.to/lastmile_qr_scan"}, "lon": -77.07688516666667, "fusion_lat": 0.0}, {"name": "0e8b619b77edf13fb3be4d7c206c3d13", "fusion_lon": 0.0, "lat": 38.98135116666667, "is_reserved": 0, "type": "electric_scooter", "bike_id": "0e8b619b77edf13fb3be4d7c206c3d13", "is_disabled": 0, "rental_uris": {"android": "https://dc.lft.to/lastmile_qr_scan", "ios": "https://dc.lft.to/lastmile_qr_scan"}, "lon": -77.022288, "fusion_lat": 0.0}, {"name": "f7bd9f1934aaaf84b816e19b25c40168", "fusion_lon": 0.0, "lat": 38.92240533333333, "is_reserved": 0, "type": "electric_scooter", "bike_id": "f7bd9f1934aaaf84b816e19b25c40168", "is_disabled": 0, "rental_uris": {"android": "https://dc.lft.to/lastmile_qr_scan", "ios": "https://dc.lft.to/lastmile_qr_scan"}, "lon": -77.01834166666667, "fusion_lat": 0.0}, {"name": "9090af1c540fcbd342843bc6a1fd2649", "fusion_lon": 0.0, "lat": 38.8951995, "is_reserved": 0, "type": "electric_scooter", "bike_id": "9090af1c540fcbd342843bc6a1fd2649", "is_disabled": 0, "rental_uris": {"android": "https://dc.lft.to/lastmile_qr_scan", "ios": "https://dc.lft.to/lastmile_qr_scan"}, "lon": -77.0286045, "fusion_lat": 0.0}, {"name": "f3f2b2b59ef05c1f033cdea5777e65f0", "fusion_lon": 0.0, "lat": 38.929628666666666, "is_reserved": 0, "type": "electric_scooter", "bike_id": "f3f2b2b59ef05c1f033cdea5777e65f0", "is_disabled": 0, "rental_uris": {"android": "https://dc.lft.to/lastmile_qr_scan", "ios": "https://dc.lft.to/lastmile_qr_scan"}, "lon": -77.0312125, "fusion_lat": 0.0}, {"name": "9e215ec10d96dbb6ddb347904ef8fc71", "fusion_lon": 0.0, "lat": 38.949596166666666, "is_reserved": 0, "type": "electric_bike", "bike_id": "9e215ec10d96dbb6ddb347904ef8fc71", "is_disabled": 0, "rental_uris": {"android": "https://dc.lft.to/lastmile_qr_scan", "ios": "https://dc.lft.to/lastmile_qr_scan"}, "lon": -77.02736133333333, "fusion_lat": 0.0}, {"name": "0f0b88e377771fad89aec8b0f99cc034", "fusion_lon": 0.0, "lat": 38.936711, "is_reserved": 0, "type": "electric_scooter", "bike_id": "0f0b88e377771fad89aec8b0f99cc034", "is_disabled": 0, "rental_uris": {"android": "https://dc.lft.to/lastmile_qr_scan", "ios": "https://dc.lft.to/lastmile_qr_scan"}, "lon": -77.03619083333334, "fusion_lat": 0.0}, {"name": "5da032805a9e8b9b30fd25894b700c2d", "fusion_lon": 0.0, "lat": 38.860904166666664, "is_reserved": 0, "type": "electric_bike", "bike_id": "5da032805a9e8b9b30fd25894b700c2d", "is_disabled": 0, "rental_uris": {"android": "https://dc.lft.to/lastmile_qr_scan", "ios": "https://dc.lft.to/lastmile_qr_scan"}, "lon": -77.095863, "fusion_lat": 0.0}, {"name": "2445c40839bd2fffdbaaef80e397ec4d", "fusion_lon": 0.0, "lat": 38.918251, "is_reserved": 0, "type": "electric_scooter", "bike_id": "2445c40839bd2fffdbaaef80e397ec4d", "is_disabled": 0, "rental_uris": {"android": "https://dc.lft.to/lastmile_qr_scan", "ios": "https://dc.lft.to/lastmile_qr_scan"}, "lon": -77.03166916666666, "fusion_lat": 0.0}, {"name": "d1535493446e5655f853af6858b67fb7", "fusion_lon": 0.0, "lat": 38.888128, "is_reserved": 0, "type": "electric_scooter", "bike_id": "d1535493446e5655f853af6858b67fb7", "is_disabled": 0, "rental_uris": {"android": "https://dc.lft.to/lastmile_qr_scan", "ios": "https://dc.lft.to/lastmile_qr_scan"}, "lon": -76.93343116666667, "fusion_lat": 0.0}, {"name": "ac39eb2306c4b580432f3dc6d3e32185", "fusion_lon": 0.0, "lat": 38.881198499999996, "is_reserved": 0, "type": "electric_scooter", "bike_id": "ac39eb2306c4b580432f3dc6d3e32185", "is_disabled": 0, "rental_uris": {"android": "https://dc.lft.to/lastmile_qr_scan", "ios": "https://dc.lft.to/lastmile_qr_scan"}, "lon": -77.01659483333333, "fusion_lat": 0.0}, {"name": "008f5582f77fd6a8b04523eac214e093", "fusion_lon": 0.0, "lat": 38.91100683333333, "is_reserved": 0, "type": "electric_scooter", "bike_id": "008f5582f77fd6a8b04523eac214e093", "is_disabled": 0, "rental_uris": {"android": "https://dc.lft.to/lastmile_qr_scan", "ios": "https://dc.lft.to/lastmile_qr_scan"}, "lon": -77.04471833333334, "fusion_lat": 0.0}, {"name": "a91d5222ff2e313f0f774204b7fa4c4a", "fusion_lon": 0.0, "lat": 38.9162, "is_reserved": 0, "type": "electric_scooter", "bike_id": "a91d5222ff2e313f0f774204b7fa4c4a", "is_disabled": 0, "rental_uris": {"android": "https://dc.lft.to/lastmile_qr_scan", "ios": "https://dc.lft.to/lastmile_qr_scan"}, "lon": -77.03178133333333, "fusion_lat": 0.0}, {"name": "7d2b2749cccdf8e3b212589de623ba35", "fusion_lon": 0.0, "lat": 38.9246655, "is_reserved": 0, "type": "electric_scooter", "bike_id": "7d2b2749cccdf8e3b212589de623ba35", "is_disabled": 0, "rental_uris": {"android": "https://dc.lft.to/lastmile_qr_scan", "ios": "https://dc.lft.to/lastmile_qr_scan"}, "lon": -77.02202783333334, "fusion_lat": 0.0}, {"name": "2610a0d1095347da3b74cfc4189328fc", "fusion_lon": 0.0, "lat": 38.9163565, "is_reserved": 0, "type": "electric_scooter", "bike_id": "2610a0d1095347da3b74cfc4189328fc", "is_disabled": 0, "rental_uris": {"android": "https://dc.lft.to/lastmile_qr_scan", "ios": "https://dc.lft.to/lastmile_qr_scan"}, "lon": -77.00194866666666, "fusion_lat": 0.0}, {"name": "c23f8957f067d94eb7f9d4d62b4ae012", "fusion_lon": 0.0, "lat": 38.91430666666667, "is_reserved": 0, "type": "electric_scooter", "bike_id": "c23f8957f067d94eb7f9d4d62b4ae012", "is_disabled": 0, "rental_uris": {"android": "https://dc.lft.to/lastmile_qr_scan", "ios": "https://dc.lft.to/lastmile_qr_scan"}, "lon": -77.02158583333333, "fusion_lat": 0.0}, {"name": "c9469e30dab797297a77b4363fcc6dec", "fusion_lon": 0.0, "lat": 38.9209135, "is_reserved": 0, "type": "electric_scooter", "bike_id": "c9469e30dab797297a77b4363fcc6dec", "is_disabled": 0, "rental_uris": {"android": "https://dc.lft.to/lastmile_qr_scan", "ios": "https://dc.lft.to/lastmile_qr_scan"}, "lon": -77.00417366666667, "fusion_lat": 0.0}, {"name": "ee96b56948b31765e062c822851a3489", "fusion_lon": 0.0, "lat": 38.90254516666667, "is_reserved": 0, "type": "electric_scooter", "bike_id": "ee96b56948b31765e062c822851a3489", "is_disabled": 0, "rental_uris": {"android": "https://dc.lft.to/lastmile_qr_scan", "ios": "https://dc.lft.to/lastmile_qr_scan"}, "lon": -77.039598, "fusion_lat": 0.0}, {"name": "cfc29b540c1ecd5641d4879a9f61d4f3", "fusion_lon": 0.0, "lat": 38.92212033333333, "is_reserved": 0, "type": "electric_bike", "bike_id": "cfc29b540c1ecd5641d4879a9f61d4f3", "is_disabled": 0, "rental_uris": {"android": "https://dc.lft.to/lastmile_qr_scan", "ios": "https://dc.lft.to/lastmile_qr_scan"}, "lon": -76.98793666666667, "fusion_lat": 0.0}, {"name": "f68584a4ab7f874e24e617185f1d62b6", "fusion_lon": 0.0, "lat": 38.9119595, "is_reserved": 0, "type": "electric_scooter", "bike_id": "f68584a4ab7f874e24e617185f1d62b6", "is_disabled": 0, "rental_uris": {"android": "https://dc.lft.to/lastmile_qr_scan", "ios": "https://dc.lft.to/lastmile_qr_scan"}, "lon": -77.03838516666667, "fusion_lat": 0.0}, {"name": "f0799d3e25fbcfcff5e141c9805c9af5", "fusion_lon": 0.0, "lat": 38.9070815, "is_reserved": 0, "type": "electric_scooter", "bike_id": "f0799d3e25fbcfcff5e141c9805c9af5", "is_disabled": 0, "rental_uris": {"android": "https://dc.lft.to/lastmile_qr_scan", "ios": "https://dc.lft.to/lastmile_qr_scan"}, "lon": -77.0344355, "fusion_lat": 0.0}, {"name": "264f4d7b7573c9088dd6f3a592efbd0c", "fusion_lon": 0.0, "lat": 38.918151333333334, "is_reserved": 0, "type": "electric_scooter", "bike_id": "264f4d7b7573c9088dd6f3a592efbd0c", "is_disabled": 0, "rental_uris": {"android": "https://dc.lft.to/lastmile_qr_scan", "ios": "https://dc.lft.to/lastmile_qr_scan"}, "lon": -77.0250795, "fusion_lat": 0.0}, {"name": "31c560139a78d014928808a7fa46a9a7", "fusion_lon": 0.0, "lat": 38.907141833333334, "is_reserved": 0, "type": "electric_scooter", "bike_id": "31c560139a78d014928808a7fa46a9a7", "is_disabled": 0, "rental_uris": {"android": "https://dc.lft.to/lastmile_qr_scan", "ios": "https://dc.lft.to/lastmile_qr_scan"}, "lon": -77.01012483333334, "fusion_lat": 0.0}, {"name": "0d02e704d7f09d85d52dc05fe2cd41d3", "fusion_lon": 0.0, "lat": 38.919062, "is_reserved": 0, "type": "electric_scooter", "bike_id": "0d02e704d7f09d85d52dc05fe2cd41d3", "is_disabled": 0, "rental_uris": {"android": "https://dc.lft.to/lastmile_qr_scan", "ios": "https://dc.lft.to/lastmile_qr_scan"}, "lon": -77.025128, "fusion_lat": 0.0}, {"name": "5cdd637cca8d2b5c57b1f3b4a4533099", "fusion_lon": 0.0, "lat": 38.905613833333334, "is_reserved": 0, "type": "electric_scooter", "bike_id": "5cdd637cca8d2b5c57b1f3b4a4533099", "is_disabled": 0, "rental_uris": {"android": "https://dc.lft.to/lastmile_qr_scan", "ios": "https://dc.lft.to/lastmile_qr_scan"}, "lon": -77.04360416666667, "fusion_lat": 0.0}, {"name": "723652cce3a447827068970d80c731c5", "fusion_lon": 0.0, "lat": 38.90042283333333, "is_reserved": 0, "type": "electric_scooter", "bike_id": "723652cce3a447827068970d80c731c5", "is_disabled": 0, "rental_uris": {"android": "https://dc.lft.to/lastmile_qr_scan", "ios": "https://dc.lft.to/lastmile_qr_scan"}, "lon": -76.98815633333334, "fusion_lat": 0.0}, {"name": "320a9bdb373b6f2e10fbba810b68a7f8", "fusion_lon": 0.0, "lat": 38.92826183333333, "is_reserved": 0, "type": "electric_scooter", "bike_id": "320a9bdb373b6f2e10fbba810b68a7f8", "is_disabled": 0, "rental_uris": {"android": "https://dc.lft.to/lastmile_qr_scan", "ios": "https://dc.lft.to/lastmile_qr_scan"}, "lon": -77.026194, "fusion_lat": 0.0}, {"name": "36d9a64b89c1e8d2cba35dfce4905832", "fusion_lon": 0.0, "lat": 38.903488833333334, "is_reserved": 0, "type": "electric_scooter", "bike_id": "36d9a64b89c1e8d2cba35dfce4905832", "is_disabled": 0, "rental_uris": {"android": "https://dc.lft.to/lastmile_qr_scan", "ios": "https://dc.lft.to/lastmile_qr_scan"}, "lon": -76.97478933333333, "fusion_lat": 0.0}, {"name": "3cd6a40d940e8f480682b27b891246b0", "fusion_lon": 0.0, "lat": 38.921202666666666, "is_reserved": 0, "type": "electric_scooter", "bike_id": "3cd6a40d940e8f480682b27b891246b0", "is_disabled": 0, "rental_uris": {"android": "https://dc.lft.to/lastmile_qr_scan", "ios": "https://dc.lft.to/lastmile_qr_scan"}, "lon": -77.04562433333334, "fusion_lat": 0.0}, {"name": "4ff3538dc068dd38f74e7c096458174a", "fusion_lon": 0.0, "lat": 38.90051, "is_reserved": 0, "type": "electric_scooter", "bike_id": "4ff3538dc068dd38f74e7c096458174a", "is_disabled": 0, "rental_uris": {"android": "https://dc.lft.to/lastmile_qr_scan", "ios": "https://dc.lft.to/lastmile_qr_scan"}, "lon": -77.02910783333333, "fusion_lat": 0.0}, {"name": "357e52a2bf66a9c8d4ea823378115a3b", "fusion_lon": 0.0, "lat": 38.925118166666664, "is_reserved": 0, "type": "electric_scooter", "bike_id": "357e52a2bf66a9c8d4ea823378115a3b", "is_disabled": 0, "rental_uris": {"android": "https://dc.lft.to/lastmile_qr_scan", "ios": "https://dc.lft.to/lastmile_qr_scan"}, "lon": -77.052537, "fusion_lat": 0.0}, {"name": "2df0a876bb3679fd7348ff2d6d02b5b8", "fusion_lon": 0.0, "lat": 38.87099933333333, "is_reserved": 0, "type": "electric_scooter", "bike_id": "2df0a876bb3679fd7348ff2d6d02b5b8", "is_disabled": 0, "rental_uris": {"android": "https://dc.lft.to/lastmile_qr_scan", "ios": "https://dc.lft.to/lastmile_qr_scan"}, "lon": -76.9656625, "fusion_lat": 0.0}, {"name": "80592d99fa2a4ef346c6bf07bbcf5ef2", "fusion_lon": 0.0, "lat": 38.878234166666665, "is_reserved": 0, "type": "electric_scooter", "bike_id": "80592d99fa2a4ef346c6bf07bbcf5ef2", "is_disabled": 0, "rental_uris": {"android": "https://dc.lft.to/lastmile_qr_scan", "ios": "https://dc.lft.to/lastmile_qr_scan"}, "lon": -76.96302583333333, "fusion_lat": 0.0}, {"name": "147471d97508d9a35f9fa1c9ceadf296", "fusion_lon": 0.0, "lat": 38.900377666666664, "is_reserved": 0, "type": "electric_scooter", "bike_id": "147471d97508d9a35f9fa1c9ceadf296", "is_disabled": 0, "rental_uris": {"android": "https://dc.lft.to/lastmile_qr_scan", "ios": "https://dc.lft.to/lastmile_qr_scan"}, "lon": -77.00190733333334, "fusion_lat": 0.0}, {"name": "749d2b126139cc15b59e68710a46ad94", "fusion_lon": 0.0, "lat": 38.86697766666666, "is_reserved": 0, "type": "electric_scooter", "bike_id": "749d2b126139cc15b59e68710a46ad94", "is_disabled": 0, "rental_uris": {"android": "https://dc.lft.to/lastmile_qr_scan", "ios": "https://dc.lft.to/lastmile_qr_scan"}, "lon": -76.9871115, "fusion_lat": 0.0}, {"name": "e10842a60a9314929ff725c69c25193e", "fusion_lon": 0.0, "lat": 38.91465, "is_reserved": 0, "type": "electric_scooter", "bike_id": "e10842a60a9314929ff725c69c25193e", "is_disabled": 0, "rental_uris": {"android": "https://dc.lft.to/lastmile_qr_scan", "ios": "https://dc.lft.to/lastmile_qr_scan"}, "lon": -76.9840785, "fusion_lat": 0.0}, {"name": "5530fad26a8113f625875c70c0fcbcda", "fusion_lon": 0.0, "lat": 38.918194166666666, "is_reserved": 0, "type": "electric_scooter", "bike_id": "5530fad26a8113f625875c70c0fcbcda", "is_disabled": 0, "rental_uris": {"android": "https://dc.lft.to/lastmile_qr_scan", "ios": "https://dc.lft.to/lastmile_qr_scan"}, "lon": -77.03165583333333, "fusion_lat": 0.0}, {"name": "655dccdfe4339f189df81ce14d10b97f", "fusion_lon": 0.0, "lat": 38.947873666666666, "is_reserved": 0, "type": "electric_scooter", "bike_id": "655dccdfe4339f189df81ce14d10b97f", "is_disabled": 0, "rental_uris": {"android": "https://dc.lft.to/lastmile_qr_scan", "ios": "https://dc.lft.to/lastmile_qr_scan"}, "lon": -77.08016483333333, "fusion_lat": 0.0}, {"name": "59c73cab087eba1d99ce007a7bdf485d", "fusion_lon": 0.0, "lat": 38.919070166666664, "is_reserved": 0, "type": "electric_scooter", "bike_id": "59c73cab087eba1d99ce007a7bdf485d", "is_disabled": 0, "rental_uris": {"android": "https://dc.lft.to/lastmile_qr_scan", "ios": "https://dc.lft.to/lastmile_qr_scan"}, "lon": -77.00212316666666, "fusion_lat": 0.0}, {"name": "f8dc0d005d9c118c0450789e8aa88000", "fusion_lon": 0.0, "lat": 38.89951083333333, "is_reserved": 0, "type": "electric_scooter", "bike_id": "f8dc0d005d9c118c0450789e8aa88000", "is_disabled": 0, "rental_uris": {"android": "https://dc.lft.to/lastmile_qr_scan", "ios": "https://dc.lft.to/lastmile_qr_scan"}, "lon": -77.0160585, "fusion_lat": 0.0}, {"name": "0363e7a38ca115970d6b218190358b04", "fusion_lon": 0.0, "lat": 38.91593983333333, "is_reserved": 0, "type": "electric_scooter", "bike_id": "0363e7a38ca115970d6b218190358b04", "is_disabled": 0, "rental_uris": {"android": "https://dc.lft.to/lastmile_qr_scan", "ios": "https://dc.lft.to/lastmile_qr_scan"}, "lon": -76.98371883333333, "fusion_lat": 0.0}, {"name": "97d6fde67d40028530ac25322b2634ae", "fusion_lon": 0.0, "lat": 38.86991316666666, "is_reserved": 0, "type": "electric_scooter", "bike_id": "97d6fde67d40028530ac25322b2634ae", "is_disabled": 0, "rental_uris": {"android": "https://dc.lft.to/lastmile_qr_scan", "ios": "https://dc.lft.to/lastmile_qr_scan"}, "lon": -76.97589, "fusion_lat": 0.0}, {"name": "3fbad13520d0c01a7a5acf150a761328", "fusion_lon": 0.0, "lat": 38.8665495, "is_reserved": 0, "type": "electric_scooter", "bike_id": "3fbad13520d0c01a7a5acf150a761328", "is_disabled": 0, "rental_uris": {"android": "https://dc.lft.to/lastmile_qr_scan", "ios": "https://dc.lft.to/lastmile_qr_scan"}, "lon": -76.9888865, "fusion_lat": 0.0}, {"name": "ac297f5e108840a194ff55ff71de6ed1", "fusion_lon": 0.0, "lat": 38.92958766666667, "is_reserved": 0, "type": "electric_scooter", "bike_id": "ac297f5e108840a194ff55ff71de6ed1", "is_disabled": 0, "rental_uris": {"android": "https://dc.lft.to/lastmile_qr_scan", "ios": "https://dc.lft.to/lastmile_qr_scan"}, "lon": -77.027463, "fusion_lat": 0.0}, {"name": "e0351d8b3ad3ab313e660a08e4f605f4", "fusion_lon": 0.0, "lat": 38.9360265, "is_reserved": 0, "type": "electric_scooter", "bike_id": "e0351d8b3ad3ab313e660a08e4f605f4", "is_disabled": 0, "rental_uris": {"android": "https://dc.lft.to/lastmile_qr_scan", "ios": "https://dc.lft.to/lastmile_qr_scan"}, "lon": -77.03534583333334, "fusion_lat": 0.0}, {"name": "2af4e2b655b8f55d6da1c4acffc0cf06", "fusion_lon": 0.0, "lat": 39.052799666666665, "is_reserved": 0, "type": "electric_bike", "bike_id": "2af4e2b655b8f55d6da1c4acffc0cf06", "is_disabled": 0, "rental_uris": {"android": "https://dc.lft.to/lastmile_qr_scan", "ios": "https://dc.lft.to/lastmile_qr_scan"}, "lon": -77.08063566666667, "fusion_lat": 0.0}, {"name": "2f21164c7c8ab82af509abc8579e1c2e", "fusion_lon": 0.0, "lat": 38.887293166666666, "is_reserved": 0, "type": "electric_scooter", "bike_id": "2f21164c7c8ab82af509abc8579e1c2e", "is_disabled": 0, "rental_uris": {"android": "https://dc.lft.to/lastmile_qr_scan", "ios": "https://dc.lft.to/lastmile_qr_scan"}, "lon": -77.02824083333333, "fusion_lat": 0.0}, {"name": "339a9cb440f5bd31b2a7de4974b0a6ff", "fusion_lon": 0.0, "lat": 38.92433883333333, "is_reserved": 0, "type": "electric_scooter", "bike_id": "339a9cb440f5bd31b2a7de4974b0a6ff", "is_disabled": 0, "rental_uris": {"android": "https://dc.lft.to/lastmile_qr_scan", "ios": "https://dc.lft.to/lastmile_qr_scan"}, "lon": -77.04248616666666, "fusion_lat": 0.0}, {"name": "b706d12758a43b67f47bec3573cf81da", "fusion_lon": 0.0, "lat": 38.904679333333334, "is_reserved": 0, "type": "electric_scooter", "bike_id": "b706d12758a43b67f47bec3573cf81da", "is_disabled": 0, "rental_uris": {"android": "https://dc.lft.to/lastmile_qr_scan", "ios": "https://dc.lft.to/lastmile_qr_scan"}, "lon": -77.02690133333333, "fusion_lat": 0.0}, {"name": "ae3925a03282387024b8155674957cf7", "fusion_lon": 0.0, "lat": 38.90015433333333, "is_reserved": 0, "type": "electric_scooter", "bike_id": "ae3925a03282387024b8155674957cf7", "is_disabled": 0, "rental_uris": {"android": "https://dc.lft.to/lastmile_qr_scan", "ios": "https://dc.lft.to/lastmile_qr_scan"}, "lon": -76.99341816666667, "fusion_lat": 0.0}, {"name": "edf1670c8e0ea53cc6e1743b6406ea61", "fusion_lon": 0.0, "lat": 38.8845865, "is_reserved": 0, "type": "electric_scooter", "bike_id": "edf1670c8e0ea53cc6e1743b6406ea61", "is_disabled": 0, "rental_uris": {"android": "https://dc.lft.to/lastmile_qr_scan", "ios": "https://dc.lft.to/lastmile_qr_scan"}, "lon": -76.95742633333333, "fusion_lat": 0.0}, {"name": "3ba7931429041def52d5d0e3fd37491d", "fusion_lon": 0.0, "lat": 38.926588, "is_reserved": 0, "type": "electric_scooter", "bike_id": "3ba7931429041def52d5d0e3fd37491d", "is_disabled": 0, "rental_uris": {"android": "https://dc.lft.to/lastmile_qr_scan", "ios": "https://dc.lft.to/lastmile_qr_scan"}, "lon": -77.00867333333333, "fusion_lat": 0.0}, {"name": "3d0acae8d34230ef6dd55d377b4bc652", "fusion_lon": 0.0, "lat": 39.03428016666667, "is_reserved": 0, "type": "electric_bike", "bike_id": "3d0acae8d34230ef6dd55d377b4bc652", "is_disabled": 0, "rental_uris": {"android": "https://dc.lft.to/lastmile_qr_scan", "ios": "https://dc.lft.to/lastmile_qr_scan"}, "lon": -77.04241616666667, "fusion_lat": 0.0}, {"name": "6ddbd44ced2956fbb8b4a1bebb9d3f05", "fusion_lon": 0.0, "lat": 38.9140605, "is_reserved": 0, "type": "electric_scooter", "bike_id": "6ddbd44ced2956fbb8b4a1bebb9d3f05", "is_disabled": 0, "rental_uris": {"android": "https://dc.lft.to/lastmile_qr_scan", "ios": "https://dc.lft.to/lastmile_qr_scan"}, "lon": -77.032215, "fusion_lat": 0.0}, {"name": "2bb9e81aadfc64874f8c23fb3d52a41b", "fusion_lon": 0.0, "lat": 38.881323333333334, "is_reserved": 0, "type": "electric_scooter", "bike_id": "2bb9e81aadfc64874f8c23fb3d52a41b", "is_disabled": 0, "rental_uris": {"android": "https://dc.lft.to/lastmile_qr_scan", "ios": "https://dc.lft.to/lastmile_qr_scan"}, "lon": -76.99570633333333, "fusion_lat": 0.0}, {"name": "2aad4239cf049e65e28be22b0e34fb4f", "fusion_lon": 0.0, "lat": 38.87966516666667, "is_reserved": 0, "type": "electric_bike", "bike_id": "2aad4239cf049e65e28be22b0e34fb4f", "is_disabled": 0, "rental_uris": {"android": "https://dc.lft.to/lastmile_qr_scan", "ios": "https://dc.lft.to/lastmile_qr_scan"}, "lon": -76.91602966666666, "fusion_lat": 0.0}, {"name": "bf88016108ab5295c8342243acc76dfe", "fusion_lon": 0.0, "lat": 38.9241165, "is_reserved": 0, "type": "electric_scooter", "bike_id": "bf88016108ab5295c8342243acc76dfe", "is_disabled": 0, "rental_uris": {"android": "https://dc.lft.to/lastmile_qr_scan", "ios": "https://dc.lft.to/lastmile_qr_scan"}, "lon": -77.022708, "fusion_lat": 0.0}, {"name": "17dae72fe27eafa974a007af8e2f755d", "fusion_lon": 0.0, "lat": 39.05495466666667, "is_reserved": 0, "type": "electric_bike", "bike_id": "17dae72fe27eafa974a007af8e2f755d", "is_disabled": 0, "rental_uris": {"android": "https://dc.lft.to/lastmile_qr_scan", "ios": "https://dc.lft.to/lastmile_qr_scan"}, "lon": -77.1178755, "fusion_lat": 0.0}, {"name": "d79c1af5849b80050f3ab1e2924aee4d", "fusion_lon": 0.0, "lat": 38.912544833333335, "is_reserved": 0, "type": "electric_scooter", "bike_id": "d79c1af5849b80050f3ab1e2924aee4d", "is_disabled": 0, "rental_uris": {"android": "https://dc.lft.to/lastmile_qr_scan", "ios": "https://dc.lft.to/lastmile_qr_scan"}, "lon": -77.03401816666667, "fusion_lat": 0.0}, {"name": "c8be31cd68925cac2acb3ecccff43f0c", "fusion_lon": 0.0, "lat": 38.904853, "is_reserved": 0, "type": "electric_scooter", "bike_id": "c8be31cd68925cac2acb3ecccff43f0c", "is_disabled": 0, "rental_uris": {"android": "https://dc.lft.to/lastmile_qr_scan", "ios": "https://dc.lft.to/lastmile_qr_scan"}, "lon": -77.03842083333333, "fusion_lat": 0.0}, {"name": "e0a15e06e72cbd031f05daa40f4091a8", "fusion_lon": 0.0, "lat": 38.915578333333336, "is_reserved": 0, "type": "electric_scooter", "bike_id": "e0a15e06e72cbd031f05daa40f4091a8", "is_disabled": 0, "rental_uris": {"android": "https://dc.lft.to/lastmile_qr_scan", "ios": "https://dc.lft.to/lastmile_qr_scan"}, "lon": -77.02552683333333, "fusion_lat": 0.0}, {"name": "4737bc593e7c8e4df004c42ac2b6b449", "fusion_lon": 0.0, "lat": 38.90745483333333, "is_reserved": 0, "type": "electric_scooter", "bike_id": "4737bc593e7c8e4df004c42ac2b6b449", "is_disabled": 0, "rental_uris": {"android": "https://dc.lft.to/lastmile_qr_scan", "ios": "https://dc.lft.to/lastmile_qr_scan"}, "lon": -77.0432785, "fusion_lat": 0.0}, {"name": "dae9eb531a160272f70ab83939002bcc", "fusion_lon": 0.0, "lat": 38.920622333333334, "is_reserved": 0, "type": "electric_scooter", "bike_id": "dae9eb531a160272f70ab83939002bcc", "is_disabled": 0, "rental_uris": {"android": "https://dc.lft.to/lastmile_qr_scan", "ios": "https://dc.lft.to/lastmile_qr_scan"}, "lon": -77.03209066666666, "fusion_lat": 0.0}, {"name": "a9431e39fc51d811547d83712b408750", "fusion_lon": 0.0, "lat": 38.896261, "is_reserved": 0, "type": "electric_scooter", "bike_id": "a9431e39fc51d811547d83712b408750", "is_disabled": 0, "rental_uris": {"android": "https://dc.lft.to/lastmile_qr_scan", "ios": "https://dc.lft.to/lastmile_qr_scan"}, "lon": -77.025786, "fusion_lat": 0.0}, {"name": "cd6f5d54a09b6b393e48db5cbf5e65e0", "fusion_lon": 0.0, "lat": 38.913608833333335, "is_reserved": 0, "type": "electric_scooter", "bike_id": "cd6f5d54a09b6b393e48db5cbf5e65e0", "is_disabled": 0, "rental_uris": {"android": "https://dc.lft.to/lastmile_qr_scan", "ios": "https://dc.lft.to/lastmile_qr_scan"}, "lon": -77.06933083333334, "fusion_lat": 0.0}, {"name": "0bed2d775617e6c0f1be05845a17d676", "fusion_lon": 0.0, "lat": 38.917023, "is_reserved": 0, "type": "electric_scooter", "bike_id": "0bed2d775617e6c0f1be05845a17d676", "is_disabled": 0, "rental_uris": {"android": "https://dc.lft.to/lastmile_qr_scan", "ios": "https://dc.lft.to/lastmile_qr_scan"}, "lon": -77.02168883333333, "fusion_lat": 0.0}, {"name": "1642395366a23e0f664e96980c95f34c", "fusion_lon": 0.0, "lat": 38.931165, "is_reserved": 0, "type": "electric_scooter", "bike_id": "1642395366a23e0f664e96980c95f34c", "is_disabled": 0, "rental_uris": {"android": "https://dc.lft.to/lastmile_qr_scan", "ios": "https://dc.lft.to/lastmile_qr_scan"}, "lon": -77.0302925, "fusion_lat": 0.0}, {"name": "a4dd5a8d130f24811ae175b2363528dc", "fusion_lon": 0.0, "lat": 38.916567, "is_reserved": 0, "type": "electric_scooter", "bike_id": "a4dd5a8d130f24811ae175b2363528dc", "is_disabled": 0, "rental_uris": {"android": "https://dc.lft.to/lastmile_qr_scan", "ios": "https://dc.lft.to/lastmile_qr_scan"}, "lon": -77.02006083333333, "fusion_lat": 0.0}, {"name": "ce870631789a2ba26f9f6042778024ea", "fusion_lon": 0.0, "lat": 38.865053833333334, "is_reserved": 0, "type": "electric_scooter", "bike_id": "ce870631789a2ba26f9f6042778024ea", "is_disabled": 0, "rental_uris": {"android": "https://dc.lft.to/lastmile_qr_scan", "ios": "https://dc.lft.to/lastmile_qr_scan"}, "lon": -76.98998983333334, "fusion_lat": 0.0}, {"name": "c5a99b58664d4116018e0499c16c3b41", "fusion_lon": 0.0, "lat": 38.92822683333333, "is_reserved": 0, "type": "electric_scooter", "bike_id": "c5a99b58664d4116018e0499c16c3b41", "is_disabled": 0, "rental_uris": {"android": "https://dc.lft.to/lastmile_qr_scan", "ios": "https://dc.lft.to/lastmile_qr_scan"}, "lon": -77.0372135, "fusion_lat": 0.0}, {"name": "0f589187fba4e759e1064c671d061563", "fusion_lon": 0.0, "lat": 38.90041866666667, "is_reserved": 0, "type": "electric_scooter", "bike_id": "0f589187fba4e759e1064c671d061563", "is_disabled": 0, "rental_uris": {"android": "https://dc.lft.to/lastmile_qr_scan", "ios": "https://dc.lft.to/lastmile_qr_scan"}, "lon": -76.98818583333333, "fusion_lat": 0.0}, {"name": "a4034c709b333caf62cda2da620802ca", "fusion_lon": 0.0, "lat": 38.932756833333336, "is_reserved": 0, "type": "electric_scooter", "bike_id": "a4034c709b333caf62cda2da620802ca", "is_disabled": 0, "rental_uris": {"android": "https://dc.lft.to/lastmile_qr_scan", "ios": "https://dc.lft.to/lastmile_qr_scan"}, "lon": -77.045376, "fusion_lat": 0.0}, {"name": "85ed62b8b58bcde762efcc8962d878c1", "fusion_lon": 0.0, "lat": 38.906414166666664, "is_reserved": 0, "type": "electric_scooter", "bike_id": "85ed62b8b58bcde762efcc8962d878c1", "is_disabled": 0, "rental_uris": {"android": "https://dc.lft.to/lastmile_qr_scan", "ios": "https://dc.lft.to/lastmile_qr_scan"}, "lon": -77.00174616666666, "fusion_lat": 0.0}, {"name": "13d3a7ee90ee67e8cbe6f995a7ad282a", "fusion_lon": 0.0, "lat": 38.91105816666666, "is_reserved": 0, "type": "electric_scooter", "bike_id": "13d3a7ee90ee67e8cbe6f995a7ad282a", "is_disabled": 0, "rental_uris": {"android": "https://dc.lft.to/lastmile_qr_scan", "ios": "https://dc.lft.to/lastmile_qr_scan"}, "lon": -77.048264, "fusion_lat": 0.0}, {"name": "0fef4fb3d1be4e720c237a5d96af0c61", "fusion_lon": 0.0, "lat": 38.86385416666667, "is_reserved": 0, "type": "electric_scooter", "bike_id": "0fef4fb3d1be4e720c237a5d96af0c61", "is_disabled": 0, "rental_uris": {"android": "https://dc.lft.to/lastmile_qr_scan", "ios": "https://dc.lft.to/lastmile_qr_scan"}, "lon": -76.99042416666667, "fusion_lat": 0.0}, {"name": "f7e4fde396d86139ea1b38a364373543", "fusion_lon": 0.0, "lat": 38.90391316666667, "is_reserved": 0, "type": "electric_scooter", "bike_id": "f7e4fde396d86139ea1b38a364373543", "is_disabled": 0, "rental_uris": {"android": "https://dc.lft.to/lastmile_qr_scan", "ios": "https://dc.lft.to/lastmile_qr_scan"}, "lon": -77.0677585, "fusion_lat": 0.0}, {"name": "36e417ea332d4c4ab1da138c4f857d3b", "fusion_lon": 0.0, "lat": 38.90239483333333, "is_reserved": 0, "type": "electric_scooter", "bike_id": "36e417ea332d4c4ab1da138c4f857d3b", "is_disabled": 0, "rental_uris": {"android": "https://dc.lft.to/lastmile_qr_scan", "ios": "https://dc.lft.to/lastmile_qr_scan"}, "lon": -77.00192866666667, "fusion_lat": 0.0}, {"name": "37b301e2425383ac6edcc6bdbd590b33", "fusion_lon": 0.0, "lat": 38.938640166666666, "is_reserved": 0, "type": "electric_scooter", "bike_id": "37b301e2425383ac6edcc6bdbd590b33", "is_disabled": 0, "rental_uris": {"android": "https://dc.lft.to/lastmile_qr_scan", "ios": "https://dc.lft.to/lastmile_qr_scan"}, "lon": -77.03081116666667, "fusion_lat": 0.0}, {"name": "ca09f8caa0d5e1ff435e925141d14914", "fusion_lon": 0.0, "lat": 38.908417666666665, "is_reserved": 0, "type": "electric_scooter", "bike_id": "ca09f8caa0d5e1ff435e925141d14914", "is_disabled": 0, "rental_uris": {"android": "https://dc.lft.to/lastmile_qr_scan", "ios": "https://dc.lft.to/lastmile_qr_scan"}, "lon": -77.03651916666666, "fusion_lat": 0.0}, {"name": "123451ca0b66d67734179a31c186e918", "fusion_lon": 0.0, "lat": 38.9308835, "is_reserved": 0, "type": "electric_scooter", "bike_id": "123451ca0b66d67734179a31c186e918", "is_disabled": 0, "rental_uris": {"android": "https://dc.lft.to/lastmile_qr_scan", "ios": "https://dc.lft.to/lastmile_qr_scan"}, "lon": -77.02564266666667, "fusion_lat": 0.0}, {"name": "1e070b0ccc577d9ce3028fb3efaf93ef", "fusion_lon": 0.0, "lat": 38.9434185, "is_reserved": 0, "type": "electric_scooter", "bike_id": "1e070b0ccc577d9ce3028fb3efaf93ef", "is_disabled": 0, "rental_uris": {"android": "https://dc.lft.to/lastmile_qr_scan", "ios": "https://dc.lft.to/lastmile_qr_scan"}, "lon": -77.06127933333333, "fusion_lat": 0.0}, {"name": "8cc93cf84c0cbc3e19de3678823c1639", "fusion_lon": 0.0, "lat": 38.94199733333333, "is_reserved": 0, "type": "electric_scooter", "bike_id": "8cc93cf84c0cbc3e19de3678823c1639", "is_disabled": 0, "rental_uris": {"android": "https://dc.lft.to/lastmile_qr_scan", "ios": "https://dc.lft.to/lastmile_qr_scan"}, "lon": -77.0251535, "fusion_lat": 0.0}, {"name": "37f44efbe5adac7b114b34b7b76f4cf8", "fusion_lon": 0.0, "lat": 38.8720645, "is_reserved": 0, "type": "electric_scooter", "bike_id": "37f44efbe5adac7b114b34b7b76f4cf8", "is_disabled": 0, "rental_uris": {"android": "https://dc.lft.to/lastmile_qr_scan", "ios": "https://dc.lft.to/lastmile_qr_scan"}, "lon": -76.97831766666667, "fusion_lat": 0.0}, {"name": "69c077557c177c18e838dbb5493224de", "fusion_lon": 0.0, "lat": 38.898351166666664, "is_reserved": 0, "type": "electric_scooter", "bike_id": "69c077557c177c18e838dbb5493224de", "is_disabled": 0, "rental_uris": {"android": "https://dc.lft.to/lastmile_qr_scan", "ios": "https://dc.lft.to/lastmile_qr_scan"}, "lon": -77.03367866666666, "fusion_lat": 0.0}, {"name": "4c2ca72d9a861f211fb74e738589e64c", "fusion_lon": 0.0, "lat": 38.898678333333336, "is_reserved": 0, "type": "electric_scooter", "bike_id": "4c2ca72d9a861f211fb74e738589e64c", "is_disabled": 0, "rental_uris": {"android": "https://dc.lft.to/lastmile_qr_scan", "ios": "https://dc.lft.to/lastmile_qr_scan"}, "lon": -76.94660366666666, "fusion_lat": 0.0}, {"name": "bb0ba3cab2d20a3cf0fd18216594fb5f", "fusion_lon": 0.0, "lat": 38.88503083333333, "is_reserved": 0, "type": "electric_scooter", "bike_id": "bb0ba3cab2d20a3cf0fd18216594fb5f", "is_disabled": 0, "rental_uris": {"android": "https://dc.lft.to/lastmile_qr_scan", "ios": "https://dc.lft.to/lastmile_qr_scan"}, "lon": -76.99835433333334, "fusion_lat": 0.0}, {"name": "afbe7d15f81702ba45b37063f4cbc6bf", "fusion_lon": 0.0, "lat": 38.92318066666667, "is_reserved": 0, "type": "electric_scooter", "bike_id": "afbe7d15f81702ba45b37063f4cbc6bf", "is_disabled": 0, "rental_uris": {"android": "https://dc.lft.to/lastmile_qr_scan", "ios": "https://dc.lft.to/lastmile_qr_scan"}, "lon": -77.03566516666666, "fusion_lat": 0.0}, {"name": "f3540e48a675f06a04cc68c636ce59c7", "fusion_lon": 0.0, "lat": 38.855126, "is_reserved": 0, "type": "electric_bike", "bike_id": "f3540e48a675f06a04cc68c636ce59c7", "is_disabled": 0, "rental_uris": {"android": "https://dc.lft.to/lastmile_qr_scan", "ios": "https://dc.lft.to/lastmile_qr_scan"}, "lon": -76.98423716666667, "fusion_lat": 0.0}, {"name": "7e2a0119c9d914fae189a36bbc50fdb1", "fusion_lon": 0.0, "lat": 38.91261933333333, "is_reserved": 0, "type": "electric_scooter", "bike_id": "7e2a0119c9d914fae189a36bbc50fdb1", "is_disabled": 0, "rental_uris": {"android": "https://dc.lft.to/lastmile_qr_scan", "ios": "https://dc.lft.to/lastmile_qr_scan"}, "lon": -77.04440433333333, "fusion_lat": 0.0}, {"name": "ee1c1c45f5274610156e89f48d9b739b", "fusion_lon": 0.0, "lat": 38.9018045, "is_reserved": 0, "type": "electric_scooter", "bike_id": "ee1c1c45f5274610156e89f48d9b739b", "is_disabled": 0, "rental_uris": {"android": "https://dc.lft.to/lastmile_qr_scan", "ios": "https://dc.lft.to/lastmile_qr_scan"}, "lon": -77.01315316666667, "fusion_lat": 0.0}, {"name": "687cd9f8389953de54f2f767b8816d1f", "fusion_lon": 0.0, "lat": 38.9361105, "is_reserved": 0, "type": "electric_scooter", "bike_id": "687cd9f8389953de54f2f767b8816d1f", "is_disabled": 0, "rental_uris": {"android": "https://dc.lft.to/lastmile_qr_scan", "ios": "https://dc.lft.to/lastmile_qr_scan"}, "lon": -77.03649333333334, "fusion_lat": 0.0}, {"name": "febb7000b5ef9ea24f6b17c3b151b044", "fusion_lon": 0.0, "lat": 38.8792505, "is_reserved": 0, "type": "electric_scooter", "bike_id": "febb7000b5ef9ea24f6b17c3b151b044", "is_disabled": 0, "rental_uris": {"android": "https://dc.lft.to/lastmile_qr_scan", "ios": "https://dc.lft.to/lastmile_qr_scan"}, "lon": -77.00415016666666, "fusion_lat": 0.0}, {"name": "f6cca5b6f4f91946b16d8d4e58621c06", "fusion_lon": 0.0, "lat": 38.9003865, "is_reserved": 0, "type": "electric_scooter", "bike_id": "f6cca5b6f4f91946b16d8d4e58621c06", "is_disabled": 0, "rental_uris": {"android": "https://dc.lft.to/lastmile_qr_scan", "ios": "https://dc.lft.to/lastmile_qr_scan"}, "lon": -76.91914683333333, "fusion_lat": 0.0}, {"name": "a23afa2ac951c0d9edeac4eb66c05046", "fusion_lon": 0.0, "lat": 38.902527166666665, "is_reserved": 0, "type": "electric_scooter", "bike_id": "a23afa2ac951c0d9edeac4eb66c05046", "is_disabled": 0, "rental_uris": {"android": "https://dc.lft.to/lastmile_qr_scan", "ios": "https://dc.lft.to/lastmile_qr_scan"}, "lon": -77.00586566666666, "fusion_lat": 0.0}, {"name": "6217a7df83550b156295ff6beb973bdd", "fusion_lon": 0.0, "lat": 38.88310633333333, "is_reserved": 0, "type": "electric_scooter", "bike_id": "6217a7df83550b156295ff6beb973bdd", "is_disabled": 0, "rental_uris": {"android": "https://dc.lft.to/lastmile_qr_scan", "ios": "https://dc.lft.to/lastmile_qr_scan"}, "lon": -77.00046933333333, "fusion_lat": 0.0}, {"name": "d8aa6f0675c88ee0fb9d8558bb82a2e4", "fusion_lon": 0.0, "lat": 38.87465983333333, "is_reserved": 0, "type": "electric_scooter", "bike_id": "d8aa6f0675c88ee0fb9d8558bb82a2e4", "is_disabled": 0, "rental_uris": {"android": "https://dc.lft.to/lastmile_qr_scan", "ios": "https://dc.lft.to/lastmile_qr_scan"}, "lon": -77.00940733333333, "fusion_lat": 0.0}, {"name": "a3defcc4bd6c9739af8054bef18dab13", "fusion_lon": 0.0, "lat": 38.8431225, "is_reserved": 0, "type": "electric_scooter", "bike_id": "a3defcc4bd6c9739af8054bef18dab13", "is_disabled": 0, "rental_uris": {"android": "https://dc.lft.to/lastmile_qr_scan", "ios": "https://dc.lft.to/lastmile_qr_scan"}, "lon": -76.999265, "fusion_lat": 0.0}, {"name": "2f0c3c6d86691c51c8162b014b681d09", "fusion_lon": 0.0, "lat": 38.920425333333334, "is_reserved": 0, "type": "electric_scooter", "bike_id": "2f0c3c6d86691c51c8162b014b681d09", "is_disabled": 0, "rental_uris": {"android": "https://dc.lft.to/lastmile_qr_scan", "ios": "https://dc.lft.to/lastmile_qr_scan"}, "lon": -77.02579016666667, "fusion_lat": 0.0}, {"name": "b2374fd0f3b243dfd3c6a3537d3b919b", "fusion_lon": 0.0, "lat": 38.91206833333333, "is_reserved": 0, "type": "electric_scooter", "bike_id": "b2374fd0f3b243dfd3c6a3537d3b919b", "is_disabled": 0, "rental_uris": {"android": "https://dc.lft.to/lastmile_qr_scan", "ios": "https://dc.lft.to/lastmile_qr_scan"}, "lon": -77.03836866666667, "fusion_lat": 0.0}, {"name": "695883af5eff1102defc49991cc94971", "fusion_lon": 0.0, "lat": 38.9076685, "is_reserved": 0, "type": "electric_scooter", "bike_id": "695883af5eff1102defc49991cc94971", "is_disabled": 0, "rental_uris": {"android": "https://dc.lft.to/lastmile_qr_scan", "ios": "https://dc.lft.to/lastmile_qr_scan"}, "lon": -77.0120165, "fusion_lat": 0.0}, {"name": "00639eb267eefe38be27b0fdbbe9c538", "fusion_lon": 0.0, "lat": 38.905777666666665, "is_reserved": 0, "type": "electric_scooter", "bike_id": "00639eb267eefe38be27b0fdbbe9c538", "is_disabled": 0, "rental_uris": {"android": "https://dc.lft.to/lastmile_qr_scan", "ios": "https://dc.lft.to/lastmile_qr_scan"}, "lon": -77.04339433333334, "fusion_lat": 0.0}, {"name": "1a9f0df5d745f701e172e9d64f337dff", "fusion_lon": 0.0, "lat": 38.908143833333334, "is_reserved": 0, "type": "electric_scooter", "bike_id": "1a9f0df5d745f701e172e9d64f337dff", "is_disabled": 0, "rental_uris": {"android": "https://dc.lft.to/lastmile_qr_scan", "ios": "https://dc.lft.to/lastmile_qr_scan"}, "lon": -77.084256, "fusion_lat": 0.0}, {"name": "cae18282efa977a1fa2d2d421bc48925", "fusion_lon": 0.0, "lat": 38.926929333333334, "is_reserved": 0, "type": "electric_scooter", "bike_id": "cae18282efa977a1fa2d2d421bc48925", "is_disabled": 0, "rental_uris": {"android": "https://dc.lft.to/lastmile_qr_scan", "ios": "https://dc.lft.to/lastmile_qr_scan"}, "lon": -77.02128816666666, "fusion_lat": 0.0}, {"name": "9c305d8459c40af56c6700ba438865dc", "fusion_lon": 0.0, "lat": 38.90354283333333, "is_reserved": 0, "type": "electric_scooter", "bike_id": "9c305d8459c40af56c6700ba438865dc", "is_disabled": 0, "rental_uris": {"android": "https://dc.lft.to/lastmile_qr_scan", "ios": "https://dc.lft.to/lastmile_qr_scan"}, "lon": -77.0398105, "fusion_lat": 0.0}, {"name": "1cd700bcca8406e170922080a5330059", "fusion_lon": 0.0, "lat": 38.85920383333333, "is_reserved": 0, "type": "electric_scooter", "bike_id": "1cd700bcca8406e170922080a5330059", "is_disabled": 0, "rental_uris": {"android": "https://dc.lft.to/lastmile_qr_scan", "ios": "https://dc.lft.to/lastmile_qr_scan"}, "lon": -76.98971716666667, "fusion_lat": 0.0}, {"name": "53f3588a6fc3e7d286f19e31242e5220", "fusion_lon": 0.0, "lat": 38.92047983333333, "is_reserved": 0, "type": "electric_scooter", "bike_id": "53f3588a6fc3e7d286f19e31242e5220", "is_disabled": 0, "rental_uris": {"android": "https://dc.lft.to/lastmile_qr_scan", "ios": "https://dc.lft.to/lastmile_qr_scan"}, "lon": -76.98939366666667, "fusion_lat": 0.0}, {"name": "a12540da6fe20f12be9aa2c4686ec776", "fusion_lon": 0.0, "lat": 38.92144433333333, "is_reserved": 0, "type": "electric_scooter", "bike_id": "a12540da6fe20f12be9aa2c4686ec776", "is_disabled": 0, "rental_uris": {"android": "https://dc.lft.to/lastmile_qr_scan", "ios": "https://dc.lft.to/lastmile_qr_scan"}, "lon": -77.0435045, "fusion_lat": 0.0}, {"name": "9df068ef4a4aca0d17d3c050b0f25d12", "fusion_lon": 0.0, "lat": 38.918164, "is_reserved": 0, "type": "electric_scooter", "bike_id": "9df068ef4a4aca0d17d3c050b0f25d12", "is_disabled": 0, "rental_uris": {"android": "https://dc.lft.to/lastmile_qr_scan", "ios": "https://dc.lft.to/lastmile_qr_scan"}, "lon": -77.04009766666667, "fusion_lat": 0.0}, {"name": "e0a4a92550647df1500876407de62e53", "fusion_lon": 0.0, "lat": 38.82952183333333, "is_reserved": 0, "type": "electric_bike", "bike_id": "e0a4a92550647df1500876407de62e53", "is_disabled": 0, "rental_uris": {"android": "https://dc.lft.to/lastmile_qr_scan", "ios": "https://dc.lft.to/lastmile_qr_scan"}, "lon": -77.12355616666666, "fusion_lat": 0.0}, {"name": "539645b414e6fbda1dc481ef1b4ce36e", "fusion_lon": 0.0, "lat": 38.83147616666667, "is_reserved": 0, "type": "electric_scooter", "bike_id": "539645b414e6fbda1dc481ef1b4ce36e", "is_disabled": 0, "rental_uris": {"android": "https://dc.lft.to/lastmile_qr_scan", "ios": "https://dc.lft.to/lastmile_qr_scan"}, "lon": -77.05131766666666, "fusion_lat": 0.0}, {"name": "d3e93eed02ceabaa33b2b774a00d6d28", "fusion_lon": 0.0, "lat": 38.93632066666667, "is_reserved": 0, "type": "electric_bike", "bike_id": "d3e93eed02ceabaa33b2b774a00d6d28", "is_disabled": 0, "rental_uris": {"android": "https://dc.lft.to/lastmile_qr_scan", "ios": "https://dc.lft.to/lastmile_qr_scan"}, "lon": -77.08997616666667, "fusion_lat": 0.0}, {"name": "1bf4122470af542d4540aad25c5ff6fb", "fusion_lon": 0.0, "lat": 38.928064666666664, "is_reserved": 0, "type": "electric_scooter", "bike_id": "1bf4122470af542d4540aad25c5ff6fb", "is_disabled": 0, "rental_uris": {"android": "https://dc.lft.to/lastmile_qr_scan", "ios": "https://dc.lft.to/lastmile_qr_scan"}, "lon": -77.01412516666667, "fusion_lat": 0.0}, {"name": "b7b9a0a7980ba01816191a6a7ccb0135", "fusion_lon": 0.0, "lat": 38.92897216666667, "is_reserved": 0, "type": "electric_scooter", "bike_id": "b7b9a0a7980ba01816191a6a7ccb0135", "is_disabled": 0, "rental_uris": {"android": "https://dc.lft.to/lastmile_qr_scan", "ios": "https://dc.lft.to/lastmile_qr_scan"}, "lon": -77.0261645, "fusion_lat": 0.0}, {"name": "bab5d46c07fcb07d6487685981820e52", "fusion_lon": 0.0, "lat": 38.945062, "is_reserved": 0, "type": "electric_bike", "bike_id": "bab5d46c07fcb07d6487685981820e52", "is_disabled": 0, "rental_uris": {"android": "https://dc.lft.to/lastmile_qr_scan", "ios": "https://dc.lft.to/lastmile_qr_scan"}, "lon": -77.006672, "fusion_lat": 0.0}, {"name": "8a03b4a1db27176a826963d503ba0a2d", "fusion_lon": 0.0, "lat": 38.8791645, "is_reserved": 0, "type": "electric_scooter", "bike_id": "8a03b4a1db27176a826963d503ba0a2d", "is_disabled": 0, "rental_uris": {"android": "https://dc.lft.to/lastmile_qr_scan", "ios": "https://dc.lft.to/lastmile_qr_scan"}, "lon": -77.0053305, "fusion_lat": 0.0}, {"name": "9da53d97e93198fb26b5288cded1d2fa", "fusion_lon": 0.0, "lat": 38.915459, "is_reserved": 0, "type": "electric_scooter", "bike_id": "9da53d97e93198fb26b5288cded1d2fa", "is_disabled": 0, "rental_uris": {"android": "https://dc.lft.to/lastmile_qr_scan", "ios": "https://dc.lft.to/lastmile_qr_scan"}, "lon": -77.03850533333333, "fusion_lat": 0.0}, {"name": "6c85132ad79a0032a32b59e9becbb2b2", "fusion_lon": 0.0, "lat": 38.879387333333334, "is_reserved": 0, "type": "electric_scooter", "bike_id": "6c85132ad79a0032a32b59e9becbb2b2", "is_disabled": 0, "rental_uris": {"android": "https://dc.lft.to/lastmile_qr_scan", "ios": "https://dc.lft.to/lastmile_qr_scan"}, "lon": -77.000622, "fusion_lat": 0.0}, {"name": "4fc114d3a4ea372e1d749dabb01565ec", "fusion_lon": 0.0, "lat": 38.905802666666666, "is_reserved": 0, "type": "electric_scooter", "bike_id": "4fc114d3a4ea372e1d749dabb01565ec", "is_disabled": 0, "rental_uris": {"android": "https://dc.lft.to/lastmile_qr_scan", "ios": "https://dc.lft.to/lastmile_qr_scan"}, "lon": -77.041052, "fusion_lat": 0.0}, {"name": "7b73c481712d883e524ea59c02595e0b", "fusion_lon": 0.0, "lat": 38.901445833333334, "is_reserved": 0, "type": "electric_scooter", "bike_id": "7b73c481712d883e524ea59c02595e0b", "is_disabled": 0, "rental_uris": {"android": "https://dc.lft.to/lastmile_qr_scan", "ios": "https://dc.lft.to/lastmile_qr_scan"}, "lon": -77.04189666666667, "fusion_lat": 0.0}, {"name": "08a663986bee86e7e6bc60db1e5a5985", "fusion_lon": 0.0, "lat": 38.90959616666667, "is_reserved": 0, "type": "electric_scooter", "bike_id": "08a663986bee86e7e6bc60db1e5a5985", "is_disabled": 0, "rental_uris": {"android": "https://dc.lft.to/lastmile_qr_scan", "ios": "https://dc.lft.to/lastmile_qr_scan"}, "lon": -77.026861, "fusion_lat": 0.0}, {"name": "7ff8324fa31b55de62bf93378904b078", "fusion_lon": 0.0, "lat": 38.86386383333333, "is_reserved": 0, "type": "electric_scooter", "bike_id": "7ff8324fa31b55de62bf93378904b078", "is_disabled": 0, "rental_uris": {"android": "https://dc.lft.to/lastmile_qr_scan", "ios": "https://dc.lft.to/lastmile_qr_scan"}, "lon": -76.99042283333333, "fusion_lat": 0.0}, {"name": "02c1d5d97f1b153121ac4e3df0a135ff", "fusion_lon": 0.0, "lat": 38.801214, "is_reserved": 0, "type": "electric_bike", "bike_id": "02c1d5d97f1b153121ac4e3df0a135ff", "is_disabled": 0, "rental_uris": {"android": "https://dc.lft.to/lastmile_qr_scan", "ios": "https://dc.lft.to/lastmile_qr_scan"}, "lon": -77.0704205, "fusion_lat": 0.0}, {"name": "85a98e8b1f07cc68834b172e1865899e", "fusion_lon": 0.0, "lat": 38.903737166666666, "is_reserved": 0, "type": "electric_scooter", "bike_id": "85a98e8b1f07cc68834b172e1865899e", "is_disabled": 0, "rental_uris": {"android": "https://dc.lft.to/lastmile_qr_scan", "ios": "https://dc.lft.to/lastmile_qr_scan"}, "lon": -77.036603, "fusion_lat": 0.0}, {"name": "485109a6aab1c117ea9af57ede5f8b71", "fusion_lon": 0.0, "lat": 38.92765683333333, "is_reserved": 0, "type": "electric_bike", "bike_id": "485109a6aab1c117ea9af57ede5f8b71", "is_disabled": 0, "rental_uris": {"android": "https://dc.lft.to/lastmile_qr_scan", "ios": "https://dc.lft.to/lastmile_qr_scan"}, "lon": -77.07009233333333, "fusion_lat": 0.0}, {"name": "be2b1fade699c283c70498687d652e92", "fusion_lon": 0.0, "lat": 38.883881, "is_reserved": 0, "type": "electric_scooter", "bike_id": "be2b1fade699c283c70498687d652e92", "is_disabled": 0, "rental_uris": {"android": "https://dc.lft.to/lastmile_qr_scan", "ios": "https://dc.lft.to/lastmile_qr_scan"}, "lon": -76.930438, "fusion_lat": 0.0}, {"name": "01d86aaa5bcaee7f4a5a183ef7045cc9", "fusion_lon": 0.0, "lat": 38.91083783333333, "is_reserved": 0, "type": "electric_scooter", "bike_id": "01d86aaa5bcaee7f4a5a183ef7045cc9", "is_disabled": 0, "rental_uris": {"android": "https://dc.lft.to/lastmile_qr_scan", "ios": "https://dc.lft.to/lastmile_qr_scan"}, "lon": -76.99267666666667, "fusion_lat": 0.0}, {"name": "72dd76404b6b407dcd30d6234c5eb741", "fusion_lon": 0.0, "lat": 38.90324583333334, "is_reserved": 0, "type": "electric_scooter", "bike_id": "72dd76404b6b407dcd30d6234c5eb741", "is_disabled": 0, "rental_uris": {"android": "https://dc.lft.to/lastmile_qr_scan", "ios": "https://dc.lft.to/lastmile_qr_scan"}, "lon": -77.010987, "fusion_lat": 0.0}, {"name": "b8d83c161c574f23cee02b4f9d4cf703", "fusion_lon": 0.0, "lat": 38.90776283333334, "is_reserved": 0, "type": "electric_scooter", "bike_id": "b8d83c161c574f23cee02b4f9d4cf703", "is_disabled": 0, "rental_uris": {"android": "https://dc.lft.to/lastmile_qr_scan", "ios": "https://dc.lft.to/lastmile_qr_scan"}, "lon": -77.03826883333333, "fusion_lat": 0.0}, {"name": "63eabeef3870e215bf6827a035677502", "fusion_lon": 0.0, "lat": 38.883859, "is_reserved": 0, "type": "electric_scooter", "bike_id": "63eabeef3870e215bf6827a035677502", "is_disabled": 0, "rental_uris": {"android": "https://dc.lft.to/lastmile_qr_scan", "ios": "https://dc.lft.to/lastmile_qr_scan"}, "lon": -76.95442666666666, "fusion_lat": 0.0}, {"name": "43ffb92c6c6c84ddfd38ae4c261638a8", "fusion_lon": 0.0, "lat": 38.90314633333333, "is_reserved": 0, "type": "electric_scooter", "bike_id": "43ffb92c6c6c84ddfd38ae4c261638a8", "is_disabled": 0, "rental_uris": {"android": "https://dc.lft.to/lastmile_qr_scan", "ios": "https://dc.lft.to/lastmile_qr_scan"}, "lon": -77.0188255, "fusion_lat": 0.0}, {"name": "1224c43f176246592433f5596354007d", "fusion_lon": 0.0, "lat": 38.903976166666666, "is_reserved": 0, "type": "electric_scooter", "bike_id": "1224c43f176246592433f5596354007d", "is_disabled": 0, "rental_uris": {"android": "https://dc.lft.to/lastmile_qr_scan", "ios": "https://dc.lft.to/lastmile_qr_scan"}, "lon": -77.042066, "fusion_lat": 0.0}, {"name": "0eb69b239be89a1bc5586074d413375c", "fusion_lon": 0.0, "lat": 38.90641133333333, "is_reserved": 0, "type": "electric_scooter", "bike_id": "0eb69b239be89a1bc5586074d413375c", "is_disabled": 0, "rental_uris": {"android": "https://dc.lft.to/lastmile_qr_scan", "ios": "https://dc.lft.to/lastmile_qr_scan"}, "lon": -77.0485795, "fusion_lat": 0.0}, {"name": "9d0fd884784a7fed1bba2ff1cc161705", "fusion_lon": 0.0, "lat": 38.91810616666667, "is_reserved": 0, "type": "electric_scooter", "bike_id": "9d0fd884784a7fed1bba2ff1cc161705", "is_disabled": 0, "rental_uris": {"android": "https://dc.lft.to/lastmile_qr_scan", "ios": "https://dc.lft.to/lastmile_qr_scan"}, "lon": -77.03664866666666, "fusion_lat": 0.0}, {"name": "8234cb1c18d8e2d3d0100df1969872d1", "fusion_lon": 0.0, "lat": 38.908635833333335, "is_reserved": 0, "type": "electric_scooter", "bike_id": "8234cb1c18d8e2d3d0100df1969872d1", "is_disabled": 0, "rental_uris": {"android": "https://dc.lft.to/lastmile_qr_scan", "ios": "https://dc.lft.to/lastmile_qr_scan"}, "lon": -76.99945366666667, "fusion_lat": 0.0}, {"name": "953a83cdb398cd754c547822d2e10d0d", "fusion_lon": 0.0, "lat": 38.905521, "is_reserved": 0, "type": "electric_scooter", "bike_id": "953a83cdb398cd754c547822d2e10d0d", "is_disabled": 0, "rental_uris": {"android": "https://dc.lft.to/lastmile_qr_scan", "ios": "https://dc.lft.to/lastmile_qr_scan"}, "lon": -77.03437766666667, "fusion_lat": 0.0}, {"name": "2e680e5d07cb76d158734d1591a0e8ca", "fusion_lon": 0.0, "lat": 38.88468433333333, "is_reserved": 0, "type": "electric_scooter", "bike_id": "2e680e5d07cb76d158734d1591a0e8ca", "is_disabled": 0, "rental_uris": {"android": "https://dc.lft.to/lastmile_qr_scan", "ios": "https://dc.lft.to/lastmile_qr_scan"}, "lon": -77.02650383333334, "fusion_lat": 0.0}, {"name": "49aab4cb0ace99e908ad6ebfb48f0767", "fusion_lon": 0.0, "lat": 38.95188433333333, "is_reserved": 0, "type": "electric_scooter", "bike_id": "49aab4cb0ace99e908ad6ebfb48f0767", "is_disabled": 0, "rental_uris": {"android": "https://dc.lft.to/lastmile_qr_scan", "ios": "https://dc.lft.to/lastmile_qr_scan"}, "lon": -77.02609116666666, "fusion_lat": 0.0}, {"name": "8961465186b20f7b1d5a1903b8793b12", "fusion_lon": 0.0, "lat": 38.93481216666667, "is_reserved": 0, "type": "electric_scooter", "bike_id": "8961465186b20f7b1d5a1903b8793b12", "is_disabled": 0, "rental_uris": {"android": "https://dc.lft.to/lastmile_qr_scan", "ios": "https://dc.lft.to/lastmile_qr_scan"}, "lon": -77.0360595, "fusion_lat": 0.0}, {"name": "39aa923e0fd3b4b330172bcb46bf0513", "fusion_lon": 0.0, "lat": 38.92504983333333, "is_reserved": 0, "type": "electric_scooter", "bike_id": "39aa923e0fd3b4b330172bcb46bf0513", "is_disabled": 0, "rental_uris": {"android": "https://dc.lft.to/lastmile_qr_scan", "ios": "https://dc.lft.to/lastmile_qr_scan"}, "lon": -77.02349433333333, "fusion_lat": 0.0}, {"name": "f2006b709d77433228a4ed762e6d7844", "fusion_lon": 0.0, "lat": 38.91265683333334, "is_reserved": 0, "type": "electric_scooter", "bike_id": "f2006b709d77433228a4ed762e6d7844", "is_disabled": 0, "rental_uris": {"android": "https://dc.lft.to/lastmile_qr_scan", "ios": "https://dc.lft.to/lastmile_qr_scan"}, "lon": -77.0185165, "fusion_lat": 0.0}, {"name": "6f6b295adc93747446475ed1dfe3c6c1", "fusion_lon": 0.0, "lat": 38.9147445, "is_reserved": 0, "type": "electric_scooter", "bike_id": "6f6b295adc93747446475ed1dfe3c6c1", "is_disabled": 0, "rental_uris": {"android": "https://dc.lft.to/lastmile_qr_scan", "ios": "https://dc.lft.to/lastmile_qr_scan"}, "lon": -77.03172416666666, "fusion_lat": 0.0}, {"name": "2240385a89819cc7b352a656c9083039", "fusion_lon": 0.0, "lat": 38.896176, "is_reserved": 0, "type": "electric_scooter", "bike_id": "2240385a89819cc7b352a656c9083039", "is_disabled": 0, "rental_uris": {"android": "https://dc.lft.to/lastmile_qr_scan", "ios": "https://dc.lft.to/lastmile_qr_scan"}, "lon": -76.98161733333333, "fusion_lat": 0.0}, {"name": "6a083d4dc12654d7e5df27f7f2de7c34", "fusion_lon": 0.0, "lat": 38.93413316666667, "is_reserved": 0, "type": "electric_bike", "bike_id": "6a083d4dc12654d7e5df27f7f2de7c34", "is_disabled": 0, "rental_uris": {"android": "https://dc.lft.to/lastmile_qr_scan", "ios": "https://dc.lft.to/lastmile_qr_scan"}, "lon": -77.02893433333334, "fusion_lat": 0.0}, {"name": "e42d0a8785f649fb84cb9698a7cbeeee", "fusion_lon": 0.0, "lat": 38.92875183333334, "is_reserved": 0, "type": "electric_scooter", "bike_id": "e42d0a8785f649fb84cb9698a7cbeeee", "is_disabled": 0, "rental_uris": {"android": "https://dc.lft.to/lastmile_qr_scan", "ios": "https://dc.lft.to/lastmile_qr_scan"}, "lon": -77.04039966666667, "fusion_lat": 0.0}, {"name": "637bb8023d7ff89f1eee4075db9a69e6", "fusion_lon": 0.0, "lat": 38.92859816666667, "is_reserved": 0, "type": "electric_scooter", "bike_id": "637bb8023d7ff89f1eee4075db9a69e6", "is_disabled": 0, "rental_uris": {"android": "https://dc.lft.to/lastmile_qr_scan", "ios": "https://dc.lft.to/lastmile_qr_scan"}, "lon": -77.03184833333333, "fusion_lat": 0.0}, {"name": "5763b44f5164b2b8668268efe208a799", "fusion_lon": 0.0, "lat": 38.9345195, "is_reserved": 0, "type": "electric_scooter", "bike_id": "5763b44f5164b2b8668268efe208a799", "is_disabled": 0, "rental_uris": {"android": "https://dc.lft.to/lastmile_qr_scan", "ios": "https://dc.lft.to/lastmile_qr_scan"}, "lon": -77.02720583333333, "fusion_lat": 0.0}, {"name": "921ae0426c59b8db3995b2514490690e", "fusion_lon": 0.0, "lat": 38.85064933333334, "is_reserved": 0, "type": "electric_scooter", "bike_id": "921ae0426c59b8db3995b2514490690e", "is_disabled": 0, "rental_uris": {"android": "https://dc.lft.to/lastmile_qr_scan", "ios": "https://dc.lft.to/lastmile_qr_scan"}, "lon": -76.9700915, "fusion_lat": 0.0}, {"name": "d19168eb85963abeab0e07c2b6a2bc3e", "fusion_lon": 0.0, "lat": 38.90448683333334, "is_reserved": 0, "type": "electric_scooter", "bike_id": "d19168eb85963abeab0e07c2b6a2bc3e", "is_disabled": 0, "rental_uris": {"android": "https://dc.lft.to/lastmile_qr_scan", "ios": "https://dc.lft.to/lastmile_qr_scan"}, "lon": -77.06287816666666, "fusion_lat": 0.0}, {"name": "7e98fe989ba39d267364dc4111fe54ca", "fusion_lon": 0.0, "lat": 38.893068166666666, "is_reserved": 0, "type": "electric_scooter", "bike_id": "7e98fe989ba39d267364dc4111fe54ca", "is_disabled": 0, "rental_uris": {"android": "https://dc.lft.to/lastmile_qr_scan", "ios": "https://dc.lft.to/lastmile_qr_scan"}, "lon": -76.9394905, "fusion_lat": 0.0}, {"name": "21bc2d17600ce89416be015d7f96b948", "fusion_lon": 0.0, "lat": 38.93417983333333, "is_reserved": 0, "type": "electric_scooter", "bike_id": "21bc2d17600ce89416be015d7f96b948", "is_disabled": 0, "rental_uris": {"android": "https://dc.lft.to/lastmile_qr_scan", "ios": "https://dc.lft.to/lastmile_qr_scan"}, "lon": -77.04248033333333, "fusion_lat": 0.0}, {"name": "38f60b6f344c68610ca1c85c5d780342", "fusion_lon": 0.0, "lat": 38.928770166666666, "is_reserved": 0, "type": "electric_scooter", "bike_id": "38f60b6f344c68610ca1c85c5d780342", "is_disabled": 0, "rental_uris": {"android": "https://dc.lft.to/lastmile_qr_scan", "ios": "https://dc.lft.to/lastmile_qr_scan"}, "lon": -77.033163, "fusion_lat": 0.0}, {"name": "b8fb43ef147ed3207151451b0d25fca9", "fusion_lon": 0.0, "lat": 38.9013245, "is_reserved": 0, "type": "electric_scooter", "bike_id": "b8fb43ef147ed3207151451b0d25fca9", "is_disabled": 0, "rental_uris": {"android": "https://dc.lft.to/lastmile_qr_scan", "ios": "https://dc.lft.to/lastmile_qr_scan"}, "lon": -77.013199, "fusion_lat": 0.0}, {"name": "ebde697ddc0c6eef89ec84aea4d26777", "fusion_lon": 0.0, "lat": 38.90082816666666, "is_reserved": 0, "type": "electric_scooter", "bike_id": "ebde697ddc0c6eef89ec84aea4d26777", "is_disabled": 0, "rental_uris": {"android": "https://dc.lft.to/lastmile_qr_scan", "ios": "https://dc.lft.to/lastmile_qr_scan"}, "lon": -76.93017783333333, "fusion_lat": 0.0}, {"name": "1010e97f61d8fc85600fb3d5c5103dce", "fusion_lon": 0.0, "lat": 38.956505, "is_reserved": 0, "type": "electric_bike", "bike_id": "1010e97f61d8fc85600fb3d5c5103dce", "is_disabled": 0, "rental_uris": {"android": "https://dc.lft.to/lastmile_qr_scan", "ios": "https://dc.lft.to/lastmile_qr_scan"}, "lon": -77.01271133333333, "fusion_lat": 0.0}, {"name": "2d21632ce361051fba46decf71052ccd", "fusion_lon": 0.0, "lat": 38.92647433333333, "is_reserved": 0, "type": "electric_scooter", "bike_id": "2d21632ce361051fba46decf71052ccd", "is_disabled": 0, "rental_uris": {"android": "https://dc.lft.to/lastmile_qr_scan", "ios": "https://dc.lft.to/lastmile_qr_scan"}, "lon": -77.03702383333334, "fusion_lat": 0.0}, {"name": "7872c953a15cf7056b16d4f7d231913c", "fusion_lon": 0.0, "lat": 38.90017616666667, "is_reserved": 0, "type": "electric_scooter", "bike_id": "7872c953a15cf7056b16d4f7d231913c", "is_disabled": 0, "rental_uris": {"android": "https://dc.lft.to/lastmile_qr_scan", "ios": "https://dc.lft.to/lastmile_qr_scan"}, "lon": -77.00200816666667, "fusion_lat": 0.0}, {"name": "38688f13620342260e610dbe036b57de", "fusion_lon": 0.0, "lat": 38.918135666666664, "is_reserved": 0, "type": "electric_scooter", "bike_id": "38688f13620342260e610dbe036b57de", "is_disabled": 0, "rental_uris": {"android": "https://dc.lft.to/lastmile_qr_scan", "ios": "https://dc.lft.to/lastmile_qr_scan"}, "lon": -77.0366855, "fusion_lat": 0.0}, {"name": "cdfd68486adb96892e95d07a31b59ad9", "fusion_lon": 0.0, "lat": 38.89859966666667, "is_reserved": 0, "type": "electric_scooter", "bike_id": "cdfd68486adb96892e95d07a31b59ad9", "is_disabled": 0, "rental_uris": {"android": "https://dc.lft.to/lastmile_qr_scan", "ios": "https://dc.lft.to/lastmile_qr_scan"}, "lon": -76.9274575, "fusion_lat": 0.0}, {"name": "4605b480a73dd038b11132f82288e672", "fusion_lon": 0.0, "lat": 38.9311615, "is_reserved": 0, "type": "electric_scooter", "bike_id": "4605b480a73dd038b11132f82288e672", "is_disabled": 0, "rental_uris": {"android": "https://dc.lft.to/lastmile_qr_scan", "ios": "https://dc.lft.to/lastmile_qr_scan"}, "lon": -77.02095266666667, "fusion_lat": 0.0}, {"name": "d294cbd22f85da1c5316bca4fe44546f", "fusion_lon": 0.0, "lat": 38.85534, "is_reserved": 0, "type": "electric_scooter", "bike_id": "d294cbd22f85da1c5316bca4fe44546f", "is_disabled": 0, "rental_uris": {"android": "https://dc.lft.to/lastmile_qr_scan", "ios": "https://dc.lft.to/lastmile_qr_scan"}, "lon": -76.98411116666666, "fusion_lat": 0.0}, {"name": "9be55eee383fbad6a2716ed8dfba3c41", "fusion_lon": 0.0, "lat": 38.880103, "is_reserved": 0, "type": "electric_scooter", "bike_id": "9be55eee383fbad6a2716ed8dfba3c41", "is_disabled": 0, "rental_uris": {"android": "https://dc.lft.to/lastmile_qr_scan", "ios": "https://dc.lft.to/lastmile_qr_scan"}, "lon": -76.93099133333334, "fusion_lat": 0.0}, {"name": "966f1004d34839f510e2fa85bd024fd3", "fusion_lon": 0.0, "lat": 38.95937216666667, "is_reserved": 0, "type": "electric_scooter", "bike_id": "966f1004d34839f510e2fa85bd024fd3", "is_disabled": 0, "rental_uris": {"android": "https://dc.lft.to/lastmile_qr_scan", "ios": "https://dc.lft.to/lastmile_qr_scan"}, "lon": -77.030414, "fusion_lat": 0.0}, {"name": "06bec942881bb4ef0939a2fdfdcfa815", "fusion_lon": 0.0, "lat": 38.92968283333333, "is_reserved": 0, "type": "electric_scooter", "bike_id": "06bec942881bb4ef0939a2fdfdcfa815", "is_disabled": 0, "rental_uris": {"android": "https://dc.lft.to/lastmile_qr_scan", "ios": "https://dc.lft.to/lastmile_qr_scan"}, "lon": -77.016888, "fusion_lat": 0.0}, {"name": "0a1bd6603e79caf8bdfc3078760eee7a", "fusion_lon": 0.0, "lat": 38.90779933333334, "is_reserved": 0, "type": "electric_scooter", "bike_id": "0a1bd6603e79caf8bdfc3078760eee7a", "is_disabled": 0, "rental_uris": {"android": "https://dc.lft.to/lastmile_qr_scan", "ios": "https://dc.lft.to/lastmile_qr_scan"}, "lon": -77.00222566666666, "fusion_lat": 0.0}, {"name": "b71ce2df7ab02620ce6e4ffc76cf475e", "fusion_lon": 0.0, "lat": 38.905048666666666, "is_reserved": 0, "type": "electric_scooter", "bike_id": "b71ce2df7ab02620ce6e4ffc76cf475e", "is_disabled": 0, "rental_uris": {"android": "https://dc.lft.to/lastmile_qr_scan", "ios": "https://dc.lft.to/lastmile_qr_scan"}, "lon": -77.0294275, "fusion_lat": 0.0}, {"name": "7b204496f23412dd2fd16141a464ca7d", "fusion_lon": 0.0, "lat": 38.9176815, "is_reserved": 0, "type": "electric_scooter", "bike_id": "7b204496f23412dd2fd16141a464ca7d", "is_disabled": 0, "rental_uris": {"android": "https://dc.lft.to/lastmile_qr_scan", "ios": "https://dc.lft.to/lastmile_qr_scan"}, "lon": -77.04054183333334, "fusion_lat": 0.0}, {"name": "d1c4212ad654ef87f595e29507e53f2f", "fusion_lon": 0.0, "lat": 38.870747333333334, "is_reserved": 0, "type": "electric_scooter", "bike_id": "d1c4212ad654ef87f595e29507e53f2f", "is_disabled": 0, "rental_uris": {"android": "https://dc.lft.to/lastmile_qr_scan", "ios": "https://dc.lft.to/lastmile_qr_scan"}, "lon": -76.9891555, "fusion_lat": 0.0}, {"name": "cba147522d399794db57f989690ed464", "fusion_lon": 0.0, "lat": 38.90332733333334, "is_reserved": 0, "type": "electric_scooter", "bike_id": "cba147522d399794db57f989690ed464", "is_disabled": 0, "rental_uris": {"android": "https://dc.lft.to/lastmile_qr_scan", "ios": "https://dc.lft.to/lastmile_qr_scan"}, "lon": -76.97586866666667, "fusion_lat": 0.0}, {"name": "bd9549a2177a7e730d07d889c90786cf", "fusion_lon": 0.0, "lat": 38.920301, "is_reserved": 0, "type": "electric_scooter", "bike_id": "bd9549a2177a7e730d07d889c90786cf", "is_disabled": 0, "rental_uris": {"android": "https://dc.lft.to/lastmile_qr_scan", "ios": "https://dc.lft.to/lastmile_qr_scan"}, "lon": -77.02582666666666, "fusion_lat": 0.0}, {"name": "33f09141ee28c77f0a43e5ea9116029a", "fusion_lon": 0.0, "lat": 38.906804, "is_reserved": 0, "type": "electric_scooter", "bike_id": "33f09141ee28c77f0a43e5ea9116029a", "is_disabled": 0, "rental_uris": {"android": "https://dc.lft.to/lastmile_qr_scan", "ios": "https://dc.lft.to/lastmile_qr_scan"}, "lon": -77.07154566666667, "fusion_lat": 0.0}, {"name": "d6f61c34a00136e79615b38bb78f1f63", "fusion_lon": 0.0, "lat": 38.91974733333333, "is_reserved": 0, "type": "electric_scooter", "bike_id": "d6f61c34a00136e79615b38bb78f1f63", "is_disabled": 0, "rental_uris": {"android": "https://dc.lft.to/lastmile_qr_scan", "ios": "https://dc.lft.to/lastmile_qr_scan"}, "lon": -77.04216616666666, "fusion_lat": 0.0}, {"name": "e59ec8a7270e05c4d522183c69a65c99", "fusion_lon": 0.0, "lat": 38.92826266666667, "is_reserved": 0, "type": "electric_scooter", "bike_id": "e59ec8a7270e05c4d522183c69a65c99", "is_disabled": 0, "rental_uris": {"android": "https://dc.lft.to/lastmile_qr_scan", "ios": "https://dc.lft.to/lastmile_qr_scan"}, "lon": -77.0262225, "fusion_lat": 0.0}, {"name": "6698e3b843a538b643e8d7679b28db8e", "fusion_lon": 0.0, "lat": 38.92702116666667, "is_reserved": 0, "type": "electric_scooter", "bike_id": "6698e3b843a538b643e8d7679b28db8e", "is_disabled": 0, "rental_uris": {"android": "https://dc.lft.to/lastmile_qr_scan", "ios": "https://dc.lft.to/lastmile_qr_scan"}, "lon": -77.020697, "fusion_lat": 0.0}, {"name": "9d15a1d325dc351d17200623ccef4d55", "fusion_lon": 0.0, "lat": 38.89947866666667, "is_reserved": 0, "type": "electric_scooter", "bike_id": "9d15a1d325dc351d17200623ccef4d55", "is_disabled": 0, "rental_uris": {"android": "https://dc.lft.to/lastmile_qr_scan", "ios": "https://dc.lft.to/lastmile_qr_scan"}, "lon": -77.01591716666667, "fusion_lat": 0.0}, {"name": "ac37851f914fbf9bee576897bb6205e4", "fusion_lon": 0.0, "lat": 38.922998, "is_reserved": 0, "type": "electric_scooter", "bike_id": "ac37851f914fbf9bee576897bb6205e4", "is_disabled": 0, "rental_uris": {"android": "https://dc.lft.to/lastmile_qr_scan", "ios": "https://dc.lft.to/lastmile_qr_scan"}, "lon": -77.03109316666666, "fusion_lat": 0.0}, {"name": "9dbc5bbf469eb4434a79a7ce8d4461bd", "fusion_lon": 0.0, "lat": 38.945198500000004, "is_reserved": 0, "type": "electric_scooter", "bike_id": "9dbc5bbf469eb4434a79a7ce8d4461bd", "is_disabled": 0, "rental_uris": {"android": "https://dc.lft.to/lastmile_qr_scan", "ios": "https://dc.lft.to/lastmile_qr_scan"}, "lon": -77.01979133333333, "fusion_lat": 0.0}, {"name": "52afe7a36db8577ed3750ac243efbc99", "fusion_lon": 0.0, "lat": 38.9224485, "is_reserved": 0, "type": "electric_scooter", "bike_id": "52afe7a36db8577ed3750ac243efbc99", "is_disabled": 0, "rental_uris": {"android": "https://dc.lft.to/lastmile_qr_scan", "ios": "https://dc.lft.to/lastmile_qr_scan"}, "lon": -77.0390065, "fusion_lat": 0.0}, {"name": "ac1b6c2af7566b0c3a92bed6eef7cb15", "fusion_lon": 0.0, "lat": 38.9185795, "is_reserved": 0, "type": "electric_scooter", "bike_id": "ac1b6c2af7566b0c3a92bed6eef7cb15", "is_disabled": 0, "rental_uris": {"android": "https://dc.lft.to/lastmile_qr_scan", "ios": "https://dc.lft.to/lastmile_qr_scan"}, "lon": -77.04163983333333, "fusion_lat": 0.0}, {"name": "7f05733acd9647a32a32ebf77af1110f", "fusion_lon": 0.0, "lat": 38.91010966666666, "is_reserved": 0, "type": "electric_scooter", "bike_id": "7f05733acd9647a32a32ebf77af1110f", "is_disabled": 0, "rental_uris": {"android": "https://dc.lft.to/lastmile_qr_scan", "ios": "https://dc.lft.to/lastmile_qr_scan"}, "lon": -77.02175283333334, "fusion_lat": 0.0}, {"name": "dd8fda7d45f1c2c58ff71d11de2375b9", "fusion_lon": 0.0, "lat": 38.89669633333333, "is_reserved": 0, "type": "electric_scooter", "bike_id": "dd8fda7d45f1c2c58ff71d11de2375b9", "is_disabled": 0, "rental_uris": {"android": "https://dc.lft.to/lastmile_qr_scan", "ios": "https://dc.lft.to/lastmile_qr_scan"}, "lon": -76.98814233333333, "fusion_lat": 0.0}, {"name": "fc6a57127811093b85230e700977c5d6", "fusion_lon": 0.0, "lat": 38.9289835, "is_reserved": 0, "type": "electric_scooter", "bike_id": "fc6a57127811093b85230e700977c5d6", "is_disabled": 0, "rental_uris": {"android": "https://dc.lft.to/lastmile_qr_scan", "ios": "https://dc.lft.to/lastmile_qr_scan"}, "lon": -77.02748166666667, "fusion_lat": 0.0}, {"name": "f1126bde03afff1e4e2a0c47e4188f07", "fusion_lon": 0.0, "lat": 38.898074, "is_reserved": 0, "type": "electric_scooter", "bike_id": "f1126bde03afff1e4e2a0c47e4188f07", "is_disabled": 0, "rental_uris": {"android": "https://dc.lft.to/lastmile_qr_scan", "ios": "https://dc.lft.to/lastmile_qr_scan"}, "lon": -77.054719, "fusion_lat": 0.0}, {"name": "0a065c68bed27549a9757a4aa4b6b022", "fusion_lon": 0.0, "lat": 38.930152, "is_reserved": 0, "type": "electric_scooter", "bike_id": "0a065c68bed27549a9757a4aa4b6b022", "is_disabled": 0, "rental_uris": {"android": "https://dc.lft.to/lastmile_qr_scan", "ios": "https://dc.lft.to/lastmile_qr_scan"}, "lon": -77.06080383333334, "fusion_lat": 0.0}, {"name": "fd31a97a420ba000f33349955d37a3ed", "fusion_lon": 0.0, "lat": 38.907881833333334, "is_reserved": 0, "type": "electric_scooter", "bike_id": "fd31a97a420ba000f33349955d37a3ed", "is_disabled": 0, "rental_uris": {"android": "https://dc.lft.to/lastmile_qr_scan", "ios": "https://dc.lft.to/lastmile_qr_scan"}, "lon": -77.03648166666666, "fusion_lat": 0.0}, {"name": "ae8d2f983e345ea9047e71a6f645abab", "fusion_lon": 0.0, "lat": 38.919222, "is_reserved": 0, "type": "electric_scooter", "bike_id": "ae8d2f983e345ea9047e71a6f645abab", "is_disabled": 0, "rental_uris": {"android": "https://dc.lft.to/lastmile_qr_scan", "ios": "https://dc.lft.to/lastmile_qr_scan"}, "lon": -77.02477033333334, "fusion_lat": 0.0}, {"name": "5e1c93ec9730a05acaf52c157ad73f97", "fusion_lon": 0.0, "lat": 38.871783666666666, "is_reserved": 0, "type": "electric_scooter", "bike_id": "5e1c93ec9730a05acaf52c157ad73f97", "is_disabled": 0, "rental_uris": {"android": "https://dc.lft.to/lastmile_qr_scan", "ios": "https://dc.lft.to/lastmile_qr_scan"}, "lon": -77.00612733333334, "fusion_lat": 0.0}, {"name": "c63679989c97552af33bbce63cb8e90a", "fusion_lon": 0.0, "lat": 38.838090333333334, "is_reserved": 0, "type": "electric_bike", "bike_id": "c63679989c97552af33bbce63cb8e90a", "is_disabled": 0, "rental_uris": {"android": "https://dc.lft.to/lastmile_qr_scan", "ios": "https://dc.lft.to/lastmile_qr_scan"}, "lon": -77.09518816666667, "fusion_lat": 0.0}, {"name": "43fa999ae7623c12475935478eaf61be", "fusion_lon": 0.0, "lat": 38.857617, "is_reserved": 0, "type": "electric_bike", "bike_id": "43fa999ae7623c12475935478eaf61be", "is_disabled": 0, "rental_uris": {"android": "https://dc.lft.to/lastmile_qr_scan", "ios": "https://dc.lft.to/lastmile_qr_scan"}, "lon": -76.98757833333333, "fusion_lat": 0.0}, {"name": "fb759c7ada5a2e4f2bdaafaf463bd73d", "fusion_lon": 0.0, "lat": 38.92770216666667, "is_reserved": 0, "type": "electric_scooter", "bike_id": "fb759c7ada5a2e4f2bdaafaf463bd73d", "is_disabled": 0, "rental_uris": {"android": "https://dc.lft.to/lastmile_qr_scan", "ios": "https://dc.lft.to/lastmile_qr_scan"}, "lon": -77.03059316666666, "fusion_lat": 0.0}, {"name": "f7d0f760c3af836b0be0dd653a014f0d", "fusion_lon": 0.0, "lat": 38.95175666666667, "is_reserved": 0, "type": "electric_scooter", "bike_id": "f7d0f760c3af836b0be0dd653a014f0d", "is_disabled": 0, "rental_uris": {"android": "https://dc.lft.to/lastmile_qr_scan", "ios": "https://dc.lft.to/lastmile_qr_scan"}, "lon": -77.02723016666667, "fusion_lat": 0.0}, {"name": "198761df1f6c865c3e9df350e50a743f", "fusion_lon": 0.0, "lat": 38.893393, "is_reserved": 0, "type": "electric_scooter", "bike_id": "198761df1f6c865c3e9df350e50a743f", "is_disabled": 0, "rental_uris": {"android": "https://dc.lft.to/lastmile_qr_scan", "ios": "https://dc.lft.to/lastmile_qr_scan"}, "lon": -77.01711333333333, "fusion_lat": 0.0}, {"name": "e58dbd34c57f42c31d01a866d022c79f", "fusion_lon": 0.0, "lat": 38.898996, "is_reserved": 0, "type": "electric_scooter", "bike_id": "e58dbd34c57f42c31d01a866d022c79f", "is_disabled": 0, "rental_uris": {"android": "https://dc.lft.to/lastmile_qr_scan", "ios": "https://dc.lft.to/lastmile_qr_scan"}, "lon": -76.97709283333333, "fusion_lat": 0.0}, {"name": "d927ffb58ba0f6d9321b5474c4130211", "fusion_lon": 0.0, "lat": 38.95531483333333, "is_reserved": 0, "type": "electric_scooter", "bike_id": "d927ffb58ba0f6d9321b5474c4130211", "is_disabled": 0, "rental_uris": {"android": "https://dc.lft.to/lastmile_qr_scan", "ios": "https://dc.lft.to/lastmile_qr_scan"}, "lon": -77.02775266666667, "fusion_lat": 0.0}, {"name": "6eff51600b7eb9d8bda69850a9df6266", "fusion_lon": 0.0, "lat": 38.92408916666667, "is_reserved": 0, "type": "electric_scooter", "bike_id": "6eff51600b7eb9d8bda69850a9df6266", "is_disabled": 0, "rental_uris": {"android": "https://dc.lft.to/lastmile_qr_scan", "ios": "https://dc.lft.to/lastmile_qr_scan"}, "lon": -77.0355035, "fusion_lat": 0.0}, {"name": "5f9bda4cd8139f85c939df2857a2d5cf", "fusion_lon": 0.0, "lat": 38.914133666666665, "is_reserved": 0, "type": "electric_scooter", "bike_id": "5f9bda4cd8139f85c939df2857a2d5cf", "is_disabled": 0, "rental_uris": {"android": "https://dc.lft.to/lastmile_qr_scan", "ios": "https://dc.lft.to/lastmile_qr_scan"}, "lon": -77.02250733333334, "fusion_lat": 0.0}, {"name": "34c581535a477742e8b43b6ef9ba1cff", "fusion_lon": 0.0, "lat": 38.892245833333334, "is_reserved": 0, "type": "electric_scooter", "bike_id": "34c581535a477742e8b43b6ef9ba1cff", "is_disabled": 0, "rental_uris": {"android": "https://dc.lft.to/lastmile_qr_scan", "ios": "https://dc.lft.to/lastmile_qr_scan"}, "lon": -77.03215533333334, "fusion_lat": 0.0}, {"name": "ae555ce74a737d41b243756455abad2c", "fusion_lon": 0.0, "lat": 38.93399133333333, "is_reserved": 0, "type": "electric_scooter", "bike_id": "ae555ce74a737d41b243756455abad2c", "is_disabled": 0, "rental_uris": {"android": "https://dc.lft.to/lastmile_qr_scan", "ios": "https://dc.lft.to/lastmile_qr_scan"}, "lon": -77.027237, "fusion_lat": 0.0}, {"name": "1148223db09591d382cd413b46d68d13", "fusion_lon": 0.0, "lat": 38.923231666666666, "is_reserved": 0, "type": "electric_scooter", "bike_id": "1148223db09591d382cd413b46d68d13", "is_disabled": 0, "rental_uris": {"android": "https://dc.lft.to/lastmile_qr_scan", "ios": "https://dc.lft.to/lastmile_qr_scan"}, "lon": -77.0732505, "fusion_lat": 0.0}, {"name": "41fecb568f65f61b2b7d6965d0af7f8a", "fusion_lon": 0.0, "lat": 38.892212, "is_reserved": 0, "type": "electric_scooter", "bike_id": "41fecb568f65f61b2b7d6965d0af7f8a", "is_disabled": 0, "rental_uris": {"android": "https://dc.lft.to/lastmile_qr_scan", "ios": "https://dc.lft.to/lastmile_qr_scan"}, "lon": -77.04310916666667, "fusion_lat": 0.0}, {"name": "a6ff5fa34a8df37a49b7b74873463fe9", "fusion_lon": 0.0, "lat": 38.909155, "is_reserved": 0, "type": "electric_scooter", "bike_id": "a6ff5fa34a8df37a49b7b74873463fe9", "is_disabled": 0, "rental_uris": {"android": "https://dc.lft.to/lastmile_qr_scan", "ios": "https://dc.lft.to/lastmile_qr_scan"}, "lon": -77.03096583333334, "fusion_lat": 0.0}, {"name": "73f7a5ab8375dca5ce3a25348c4f9b10", "fusion_lon": 0.0, "lat": 38.9079495, "is_reserved": 0, "type": "electric_scooter", "bike_id": "73f7a5ab8375dca5ce3a25348c4f9b10", "is_disabled": 0, "rental_uris": {"android": "https://dc.lft.to/lastmile_qr_scan", "ios": "https://dc.lft.to/lastmile_qr_scan"}, "lon": -77.03125833333333, "fusion_lat": 0.0}, {"name": "9b9b4082b0b29e085d23d6895e88ed53", "fusion_lon": 0.0, "lat": 38.871105166666666, "is_reserved": 0, "type": "electric_scooter", "bike_id": "9b9b4082b0b29e085d23d6895e88ed53", "is_disabled": 0, "rental_uris": {"android": "https://dc.lft.to/lastmile_qr_scan", "ios": "https://dc.lft.to/lastmile_qr_scan"}, "lon": -77.00753183333333, "fusion_lat": 0.0}, {"name": "f14106f135d6d176c069f36d25743f0a", "fusion_lon": 0.0, "lat": 38.90234816666667, "is_reserved": 0, "type": "electric_scooter", "bike_id": "f14106f135d6d176c069f36d25743f0a", "is_disabled": 0, "rental_uris": {"android": "https://dc.lft.to/lastmile_qr_scan", "ios": "https://dc.lft.to/lastmile_qr_scan"}, "lon": -76.9893705, "fusion_lat": 0.0}, {"name": "30f5a19de61648a7e9411d55c06da2ae", "fusion_lon": 0.0, "lat": 38.910998, "is_reserved": 0, "type": "electric_scooter", "bike_id": "30f5a19de61648a7e9411d55c06da2ae", "is_disabled": 0, "rental_uris": {"android": "https://dc.lft.to/lastmile_qr_scan", "ios": "https://dc.lft.to/lastmile_qr_scan"}, "lon": -77.0420135, "fusion_lat": 0.0}, {"name": "5dd7ac1843fdad705d3eb35e1410c6e3", "fusion_lon": 0.0, "lat": 38.88491366666667, "is_reserved": 0, "type": "electric_scooter", "bike_id": "5dd7ac1843fdad705d3eb35e1410c6e3", "is_disabled": 0, "rental_uris": {"android": "https://dc.lft.to/lastmile_qr_scan", "ios": "https://dc.lft.to/lastmile_qr_scan"}, "lon": -77.00706383333333, "fusion_lat": 0.0}, {"name": "2fe34612b8a0413585e9e635197144fc", "fusion_lon": 0.0, "lat": 38.91357416666666, "is_reserved": 0, "type": "electric_scooter", "bike_id": "2fe34612b8a0413585e9e635197144fc", "is_disabled": 0, "rental_uris": {"android": "https://dc.lft.to/lastmile_qr_scan", "ios": "https://dc.lft.to/lastmile_qr_scan"}, "lon": -77.016166, "fusion_lat": 0.0}, {"name": "f97693fb7c7b4b5d7e897239e05e0eb4", "fusion_lon": 0.0, "lat": 38.917128166666664, "is_reserved": 0, "type": "electric_scooter", "bike_id": "f97693fb7c7b4b5d7e897239e05e0eb4", "is_disabled": 0, "rental_uris": {"android": "https://dc.lft.to/lastmile_qr_scan", "ios": "https://dc.lft.to/lastmile_qr_scan"}, "lon": -77.02588233333333, "fusion_lat": 0.0}, {"name": "0b2b9a36bc0564d227621ccb4ae5f5d8", "fusion_lon": 0.0, "lat": 38.903724, "is_reserved": 0, "type": "electric_scooter", "bike_id": "0b2b9a36bc0564d227621ccb4ae5f5d8", "is_disabled": 0, "rental_uris": {"android": "https://dc.lft.to/lastmile_qr_scan", "ios": "https://dc.lft.to/lastmile_qr_scan"}, "lon": -77.01788433333333, "fusion_lat": 0.0}, {"name": "3ebc16526d9cf08dd99dce3c9200eb7d", "fusion_lon": 0.0, "lat": 38.900109666666665, "is_reserved": 0, "type": "electric_scooter", "bike_id": "3ebc16526d9cf08dd99dce3c9200eb7d", "is_disabled": 0, "rental_uris": {"android": "https://dc.lft.to/lastmile_qr_scan", "ios": "https://dc.lft.to/lastmile_qr_scan"}, "lon": -77.00305833333333, "fusion_lat": 0.0}, {"name": "371f0f88b2bb287f7b3361f2e4aa24a1", "fusion_lon": 0.0, "lat": 38.90736733333333, "is_reserved": 0, "type": "electric_scooter", "bike_id": "371f0f88b2bb287f7b3361f2e4aa24a1", "is_disabled": 0, "rental_uris": {"android": "https://dc.lft.to/lastmile_qr_scan", "ios": "https://dc.lft.to/lastmile_qr_scan"}, "lon": -77.029686, "fusion_lat": 0.0}, {"name": "c79e594074b0dc3a1f78ee671d86d127", "fusion_lon": 0.0, "lat": 38.91701916666667, "is_reserved": 0, "type": "electric_scooter", "bike_id": "c79e594074b0dc3a1f78ee671d86d127", "is_disabled": 0, "rental_uris": {"android": "https://dc.lft.to/lastmile_qr_scan", "ios": "https://dc.lft.to/lastmile_qr_scan"}, "lon": -77.04051716666666, "fusion_lat": 0.0}, {"name": "244318f830e68c74ac9b9192a1712a2d", "fusion_lon": 0.0, "lat": 38.897242166666665, "is_reserved": 0, "type": "electric_scooter", "bike_id": "244318f830e68c74ac9b9192a1712a2d", "is_disabled": 0, "rental_uris": {"android": "https://dc.lft.to/lastmile_qr_scan", "ios": "https://dc.lft.to/lastmile_qr_scan"}, "lon": -77.02165333333333, "fusion_lat": 0.0}, {"name": "4a78d555f698291b8c363cd3e27d1cb4", "fusion_lon": 0.0, "lat": 38.920261833333335, "is_reserved": 0, "type": "electric_scooter", "bike_id": "4a78d555f698291b8c363cd3e27d1cb4", "is_disabled": 0, "rental_uris": {"android": "https://dc.lft.to/lastmile_qr_scan", "ios": "https://dc.lft.to/lastmile_qr_scan"}, "lon": -77.03149566666667, "fusion_lat": 0.0}, {"name": "aeeb409b86b233011cf02a9d5a4322d2", "fusion_lon": 0.0, "lat": 38.901170666666665, "is_reserved": 0, "type": "electric_scooter", "bike_id": "aeeb409b86b233011cf02a9d5a4322d2", "is_disabled": 0, "rental_uris": {"android": "https://dc.lft.to/lastmile_qr_scan", "ios": "https://dc.lft.to/lastmile_qr_scan"}, "lon": -77.04978916666667, "fusion_lat": 0.0}, {"name": "81c8a3c72d57b7e356c64d690453169e", "fusion_lon": 0.0, "lat": 38.911248666666665, "is_reserved": 0, "type": "electric_scooter", "bike_id": "81c8a3c72d57b7e356c64d690453169e", "is_disabled": 0, "rental_uris": {"android": "https://dc.lft.to/lastmile_qr_scan", "ios": "https://dc.lft.to/lastmile_qr_scan"}, "lon": -77.0653905, "fusion_lat": 0.0}, {"name": "d5b4e4f6f8da69c18c3fb832a88acab3", "fusion_lon": 0.0, "lat": 38.90567133333333, "is_reserved": 0, "type": "electric_scooter", "bike_id": "d5b4e4f6f8da69c18c3fb832a88acab3", "is_disabled": 0, "rental_uris": {"android": "https://dc.lft.to/lastmile_qr_scan", "ios": "https://dc.lft.to/lastmile_qr_scan"}, "lon": -77.03451816666667, "fusion_lat": 0.0}, {"name": "9339362f898b45f2c68c0fe7d7ec1b9b", "fusion_lon": 0.0, "lat": 38.91561216666667, "is_reserved": 0, "type": "electric_scooter", "bike_id": "9339362f898b45f2c68c0fe7d7ec1b9b", "is_disabled": 0, "rental_uris": {"android": "https://dc.lft.to/lastmile_qr_scan", "ios": "https://dc.lft.to/lastmile_qr_scan"}, "lon": -77.04284266666667, "fusion_lat": 0.0}, {"name": "f49516670b1a1d116e8bdc8c18344a6e", "fusion_lon": 0.0, "lat": 38.9177685, "is_reserved": 0, "type": "electric_scooter", "bike_id": "f49516670b1a1d116e8bdc8c18344a6e", "is_disabled": 0, "rental_uris": {"android": "https://dc.lft.to/lastmile_qr_scan", "ios": "https://dc.lft.to/lastmile_qr_scan"}, "lon": -77.01490466666667, "fusion_lat": 0.0}, {"name": "7b824041347b71ead84efc1692720699", "fusion_lon": 0.0, "lat": 38.892865, "is_reserved": 0, "type": "electric_bike", "bike_id": "7b824041347b71ead84efc1692720699", "is_disabled": 0, "rental_uris": {"android": "https://dc.lft.to/lastmile_qr_scan", "ios": "https://dc.lft.to/lastmile_qr_scan"}, "lon": -76.97614716666666, "fusion_lat": 0.0}, {"name": "cdd2a483c0bc069e46e9a2dfb1bceb88", "fusion_lon": 0.0, "lat": 38.88489583333333, "is_reserved": 0, "type": "electric_scooter", "bike_id": "cdd2a483c0bc069e46e9a2dfb1bceb88", "is_disabled": 0, "rental_uris": {"android": "https://dc.lft.to/lastmile_qr_scan", "ios": "https://dc.lft.to/lastmile_qr_scan"}, "lon": -77.0070445, "fusion_lat": 0.0}, {"name": "33b7924c5dbe477ca8fde68818837623", "fusion_lon": 0.0, "lat": 38.9286555, "is_reserved": 0, "type": "electric_scooter", "bike_id": "33b7924c5dbe477ca8fde68818837623", "is_disabled": 0, "rental_uris": {"android": "https://dc.lft.to/lastmile_qr_scan", "ios": "https://dc.lft.to/lastmile_qr_scan"}, "lon": -77.01359033333334, "fusion_lat": 0.0}, {"name": "e94108f187c6c0ce7769f622dccd5379", "fusion_lon": 0.0, "lat": 38.92459, "is_reserved": 0, "type": "electric_scooter", "bike_id": "e94108f187c6c0ce7769f622dccd5379", "is_disabled": 0, "rental_uris": {"android": "https://dc.lft.to/lastmile_qr_scan", "ios": "https://dc.lft.to/lastmile_qr_scan"}, "lon": -77.02710183333333, "fusion_lat": 0.0}, {"name": "57538c480b1bacb2aa89656d4b68af9b", "fusion_lon": 0.0, "lat": 38.887414666666665, "is_reserved": 0, "type": "electric_scooter", "bike_id": "57538c480b1bacb2aa89656d4b68af9b", "is_disabled": 0, "rental_uris": {"android": "https://dc.lft.to/lastmile_qr_scan", "ios": "https://dc.lft.to/lastmile_qr_scan"}, "lon": -77.02835883333333, "fusion_lat": 0.0},