{"data": {"bikes": [{"fusion_lat": 0.0, "name": "fa0191cece330dfbef428b6a43511f3c", "is_disabled": 0, "rental_uris": {"android": "https://dc.lft.to/lastmile_qr_scan", "ios": "https://dc.lft.to/lastmile_qr_scan"}, "fusion_lon": 0.0, "lat": 38.91260666666667, "bike_id": "fa0191cece330dfbef428b6a43511f3c", "type": "electric_scooter", "is_reserved": 0, "lon": -77.00660966666666}, {"fusion_lat": 0.0, "name": "deb44717e2b9f4420484b5163c05e84f", "is_disabled": 0, "rental_uris": {"android": "https://dc.lft.to/lastmile_qr_scan", "ios": "https://dc.lft.to/lastmile_qr_scan"}, "fusion_lon": 0.0, "lat": 38.926110666666666, "bike_id": "deb44717e2b9f4420484b5163c05e84f", "type": "electric_scooter", "is_reserved": 0, "lon": -77.03951216666667}, {"fusion_lat": 0.0, "name": "733fb17b8ecf105f10d6ed4500ef3602", "is_disabled": 0, "rental_uris": {"android": "https://dc.lft.to/lastmile_qr_scan", "ios": "https://dc.lft.to/lastmile_qr_scan"}, "fusion_lon": 0.0, "lat": 38.9202345, "bike_id": "733fb17b8ecf105f10d6ed4500ef3602", "type": "electric_scooter", "is_reserved": 0, "lon": -77.03219866666667}, {"fusion_lat": 0.0, "name": "209c46f7877a42018a99553edc035aa6", "is_disabled": 0, "rental_uris": {"android": "https://dc.lft.to/lastmile_qr_scan", "ios": "https://dc.lft.to/lastmile_qr_scan"}, "fusion_lon": 0.0, "lat": 38.917744166666665, "bike_id": "209c46f7877a42018a99553edc035aa6", "type": "electric_scooter", "is_reserved": 0, "lon": -77.038556}, {"fusion_lat": 0.0, "name": "b706b2a4f90a97d5e0333d12c69b1cec", "is_disabled": 0, "rental_uris": {"android": "https://dc.lft.to/lastmile_qr_scan", "ios": "https://dc.lft.to/lastmile_qr_scan"}, "fusion_lon": 0.0, "lat": 38.90966016666667, "bike_id": "b706b2a4f90a97d5e0333d12c69b1cec", "type": "electric_scooter", "is_reserved": 0, "lon": -77.03985466666667}, {"fusion_lat": 0.0, "name": "c21d9fb189a0af07006fdff5b07cddbb", "is_disabled": 0, "rental_uris": {"android": "https://dc.lft.to/lastmile_qr_scan", "ios": "https://dc.lft.to/lastmile_qr_scan"}, "fusion_lon": 0.0, "lat": 38.844263, "bike_id": "c21d9fb189a0af07006fdff5b07cddbb", "type": "electric_scooter", "is_reserved": 0, "lon": -76.99779933333333}, {"fusion_lat": 0.0, "name": "0f7402ce3f29852644f5a3e4493fc7f6", "is_disabled": 0, "rental_uris": {"android": "https://dc.lft.to/lastmile_qr_scan", "ios": "https://dc.lft.to/lastmile_qr_scan"}, "fusion_lon": 0.0, "lat": 38.92079666666667, "bike_id": "0f7402ce3f29852644f5a3e4493fc7f6", "type": "electric_scooter", "is_reserved": 0, "lon": -77.02511833333334}, {"fusion_lat": 0.0, "name": "bb98fe9ade6fd8db8fd2384050b7724b", "is_disabled": 0, "rental_uris": {"android": "https://dc.lft.to/lastmile_qr_scan", "ios": "https://dc.lft.to/lastmile_qr_scan"}, "fusion_lon": 0.0, "lat": 38.89528116666666, "bike_id": "bb98fe9ade6fd8db8fd2384050b7724b", "type": "electric_scooter", "is_reserved": 0, "lon": -77.03061233333334}, {"fusion_lat": 0.0, "name": "937f669daaa584f42677711690a77fa8", "is_disabled": 0, "rental_uris": {"android": "https://dc.lft.to/lastmile_qr_scan", "ios": "https://dc.lft.to/lastmile_qr_scan"}, "fusion_lon": 0.0, "lat": 38.877198166666666, "bike_id": "937f669daaa584f42677711690a77fa8", "type": "electric_scooter", "is_reserved": 0, "lon": -77.01759233333334}, {"fusion_lat": 0.0, "name": "83834d6fec8cdecd775d55d00b115b10", "is_disabled": 0, "rental_uris": {"android": "https://dc.lft.to/lastmile_qr_scan", "ios": "https://dc.lft.to/lastmile_qr_scan"}, "fusion_lon": 0.0, "lat": 38.888936666666666, "bike_id": "83834d6fec8cdecd775d55d00b115b10", "type": "electric_bike", "is_reserved": 0, "lon": -77.11524616666667}, {"fusion_lat": 0.0, "name": "57703b326fa61ade90177cc3e7696a20", "is_disabled": 0, "rental_uris": {"android": "https://dc.lft.to/lastmile_qr_scan", "ios": "https://dc.lft.to/lastmile_qr_scan"}, "fusion_lon": 0.0, "lat": 38.9359985, "bike_id": "57703b326fa61ade90177cc3e7696a20", "type": "electric_bike", "is_reserved": 0, "lon": -77.02113433333334}, {"fusion_lat": 0.0, "name": "db4abc31aa2a94090f52b825e6561c03", "is_disabled": 0, "rental_uris": {"android": "https://dc.lft.to/lastmile_qr_scan", "ios": "https://dc.lft.to/lastmile_qr_scan"}, "fusion_lon": 0.0, "lat": 38.934159333333334, "bike_id": "db4abc31aa2a94090f52b825e6561c03", "type": "electric_scooter", "is_reserved": 0, "lon": -76.97962816666667}, {"fusion_lat": 0.0, "name": "9ae0f4061a5a37d3fb2babaaf9b0f00a", "is_disabled": 0, "rental_uris": {"android": "https://dc.lft.to/lastmile_qr_scan", "ios": "https://dc.lft.to/lastmile_qr_scan"}, "fusion_lon": 0.0, "lat": 38.92768783333333, "bike_id": "9ae0f4061a5a37d3fb2babaaf9b0f00a", "type": "electric_scooter", "is_reserved": 0, "lon": -77.022926}, {"fusion_lat": 0.0, "name": "2352ff30b1207fd956deb3db83b82e85", "is_disabled": 0, "rental_uris": {"android": "https://dc.lft.to/lastmile_qr_scan", "ios": "https://dc.lft.to/lastmile_qr_scan"}, "fusion_lon": 0.0, "lat": 38.9046395, "bike_id": "2352ff30b1207fd956deb3db83b82e85", "type": "electric_scooter", "is_reserved": 0, "lon": -77.05315}, {"fusion_lat": 0.0, "name": "1c97cc8a68f28adc8254c18f10300518", "is_disabled": 0, "rental_uris": {"android": "https://dc.lft.to/lastmile_qr_scan", "ios": "https://dc.lft.to/lastmile_qr_scan"}, "fusion_lon": 0.0, "lat": 38.878116166666665, "bike_id": "1c97cc8a68f28adc8254c18f10300518", "type": "electric_scooter", "is_reserved": 0, "lon": -77.01524966666666}, {"fusion_lat": 0.0, "name": "cbd7237c31c514ad3d828d86a39220a9", "is_disabled": 0, "rental_uris": {"android": "https://dc.lft.to/lastmile_qr_scan", "ios": "https://dc.lft.to/lastmile_qr_scan"}, "fusion_lon": 0.0, "lat": 38.935744166666666, "bike_id": "cbd7237c31c514ad3d828d86a39220a9", "type": "electric_scooter", "is_reserved": 0, "lon": -77.01925216666666}, {"fusion_lat": 0.0, "name": "86014d75d4c4a183d739ee6f15b166df", "is_disabled": 0, "rental_uris": {"android": "https://dc.lft.to/lastmile_qr_scan", "ios": "https://dc.lft.to/lastmile_qr_scan"}, "fusion_lon": 0.0, "lat": 38.916136, "bike_id": "86014d75d4c4a183d739ee6f15b166df", "type": "electric_scooter", "is_reserved": 0, "lon": -77.04584933333334}, {"fusion_lat": 0.0, "name": "f366c0d2f397130769e58e78fac82a26", "is_disabled": 0, "rental_uris": {"android": "https://dc.lft.to/lastmile_qr_scan", "ios": "https://dc.lft.to/lastmile_qr_scan"}, "fusion_lon": 0.0, "lat": 38.871354833333335, "bike_id": "f366c0d2f397130769e58e78fac82a26", "type": "electric_scooter", "is_reserved": 0, "lon": -77.01229133333334}, {"fusion_lat": 0.0, "name": "ab6d813064736d8f959aecff5565e18c", "is_disabled": 0, "rental_uris": {"android": "https://dc.lft.to/lastmile_qr_scan", "ios": "https://dc.lft.to/lastmile_qr_scan"}, "fusion_lon": 0.0, "lat": 38.922517, "bike_id": "ab6d813064736d8f959aecff5565e18c", "type": "electric_scooter", "is_reserved": 0, "lon": -77.0338335}, {"fusion_lat": 0.0, "name": "570f372f96980dae29e58e28f0ac556a", "is_disabled": 0, "rental_uris": {"android": "https://dc.lft.to/lastmile_qr_scan", "ios": "https://dc.lft.to/lastmile_qr_scan"}, "fusion_lon": 0.0, "lat": 38.93264633333333, "bike_id": "570f372f96980dae29e58e28f0ac556a", "type": "electric_scooter", "is_reserved": 0, "lon": -77.03457733333333}, {"fusion_lat": 0.0, "name": "cbe54ec7da7cad3d4e85030536022f9b", "is_disabled": 0, "rental_uris": {"android": "https://dc.lft.to/lastmile_qr_scan", "ios": "https://dc.lft.to/lastmile_qr_scan"}, "fusion_lon": 0.0, "lat": 38.9225075, "bike_id": "cbe54ec7da7cad3d4e85030536022f9b", "type": "electric_scooter", "is_reserved": 0, "lon": -77.0424775}, {"fusion_lat": 0.0, "name": "09aa8fdaf9e8537d8564b8310d3a2f65", "is_disabled": 0, "rental_uris": {"android": "https://dc.lft.to/lastmile_qr_scan", "ios": "https://dc.lft.to/lastmile_qr_scan"}, "fusion_lon": 0.0, "lat": 38.91292633333333, "bike_id": "09aa8fdaf9e8537d8564b8310d3a2f65", "type": "electric_scooter", "is_reserved": 0, "lon": -77.04526783333333}, {"fusion_lat": 0.0, "name": "b8a3bc21e1113e5d8cdd9aaf507f3037", "is_disabled": 0, "rental_uris": {"android": "https://dc.lft.to/lastmile_qr_scan", "ios": "https://dc.lft.to/lastmile_qr_scan"}, "fusion_lon": 0.0, "lat": 38.89748516666667, "bike_id": "b8a3bc21e1113e5d8cdd9aaf507f3037", "type": "electric_scooter", "is_reserved": 0, "lon": -77.02690333333334}, {"fusion_lat": 0.0, "name": "1a5dbe2f1eb1bd35b74626cbe3db74c0", "is_disabled": 0, "rental_uris": {"android": "https://dc.lft.to/lastmile_qr_scan", "ios": "https://dc.lft.to/lastmile_qr_scan"}, "fusion_lon": 0.0, "lat": 38.89734333333333, "bike_id": "1a5dbe2f1eb1bd35b74626cbe3db74c0", "type": "electric_scooter", "is_reserved": 0, "lon": -77.04827633333333}, {"fusion_lat": 0.0, "name": "6100a21674e82adc1e595b4ec053c4a4", "is_disabled": 0, "rental_uris": {"android": "https://dc.lft.to/lastmile_qr_scan", "ios": "https://dc.lft.to/lastmile_qr_scan"}, "fusion_lon": 0.0, "lat": 38.90628266666667, "bike_id": "6100a21674e82adc1e595b4ec053c4a4", "type": "electric_scooter", "is_reserved": 0, "lon": -77.02594766666667}, {"fusion_lat": 0.0, "name": "28eab274f15a992886cfeffda4ab4481", "is_disabled": 0, "rental_uris": {"android": "https://dc.lft.to/lastmile_qr_scan", "ios": "https://dc.lft.to/lastmile_qr_scan"}, "fusion_lon": 0.0, "lat": 38.904354833333336, "bike_id": "28eab274f15a992886cfeffda4ab4481", "type": "electric_scooter", "is_reserved": 0, "lon": -77.025932}, {"fusion_lat": 0.0, "name": "8aaa0d9f0b33cc113591fabaf993b541", "is_disabled": 0, "rental_uris": {"android": "https://dc.lft.to/lastmile_qr_scan", "ios": "https://dc.lft.to/lastmile_qr_scan"}, "fusion_lon": 0.0, "lat": 38.931109166666666, "bike_id": "8aaa0d9f0b33cc113591fabaf993b541", "type": "electric_scooter", "is_reserved": 0, "lon": -76.99615466666667}, {"fusion_lat": 0.0, "name": "8eb29a43fb8d1219c1acc7fe0ad71425", "is_disabled": 0, "rental_uris": {"android": "https://dc.lft.to/lastmile_qr_scan", "ios": "https://dc.lft.to/lastmile_qr_scan"}, "fusion_lon": 0.0, "lat": 38.88019766666667, "bike_id": "8eb29a43fb8d1219c1acc7fe0ad71425", "type": "electric_scooter", "is_reserved": 0, "lon": -76.98072416666666}, {"fusion_lat": 0.0, "name": "4cb074b10c085e726ef608b7ddd2a0d9", "is_disabled": 0, "rental_uris": {"android": "https://dc.lft.to/lastmile_qr_scan", "ios": "https://dc.lft.to/lastmile_qr_scan"}, "fusion_lon": 0.0, "lat": 38.876794833333335, "bike_id": "4cb074b10c085e726ef608b7ddd2a0d9", "type": "electric_bike", "is_reserved": 0, "lon": -77.0006135}, {"fusion_lat": 0.0, "name": "ffaa3536b7bec52549db6fb655cbd1be", "is_disabled": 0, "rental_uris": {"android": "https://dc.lft.to/lastmile_qr_scan", "ios": "https://dc.lft.to/lastmile_qr_scan"}, "fusion_lon": 0.0, "lat": 38.928761, "bike_id": "ffaa3536b7bec52549db6fb655cbd1be", "type": "electric_scooter", "is_reserved": 0, "lon": -76.9955605}, {"fusion_lat": 0.0, "name": "9b17c82fbd07ac42a479a101bdb3f450", "is_disabled": 0, "rental_uris": {"android": "https://dc.lft.to/lastmile_qr_scan", "ios": "https://dc.lft.to/lastmile_qr_scan"}, "fusion_lon": 0.0, "lat": 38.906919, "bike_id": "9b17c82fbd07ac42a479a101bdb3f450", "type": "electric_scooter", "is_reserved": 0, "lon": -77.02207083333333}, {"fusion_lat": 0.0, "name": "6da411220a1e3e21b8491772bb822f5e", "is_disabled": 0, "rental_uris": {"android": "https://dc.lft.to/lastmile_qr_scan", "ios": "https://dc.lft.to/lastmile_qr_scan"}, "fusion_lon": 0.0, "lat": 38.9024045, "bike_id": "6da411220a1e3e21b8491772bb822f5e", "type": "electric_scooter", "is_reserved": 0, "lon": -77.00196566666666}, {"fusion_lat": 0.0, "name": "154a3b71de934d9dd4b90aa465f4a799", "is_disabled": 0, "rental_uris": {"android": "https://dc.lft.to/lastmile_qr_scan", "ios": "https://dc.lft.to/lastmile_qr_scan"}, "fusion_lon": 0.0, "lat": 38.925725, "bike_id": "154a3b71de934d9dd4b90aa465f4a799", "type": "electric_scooter", "is_reserved": 0, "lon": -77.0268945}, {"fusion_lat": 0.0, "name": "151cb1041a5733b54b10486aa0576b6c", "is_disabled": 0, "rental_uris": {"android": "https://dc.lft.to/lastmile_qr_scan", "ios": "https://dc.lft.to/lastmile_qr_scan"}, "fusion_lon": 0.0, "lat": 38.945299166666665, "bike_id": "151cb1041a5733b54b10486aa0576b6c", "type": "electric_scooter", "is_reserved": 0, "lon": -77.02088283333333}, {"fusion_lat": 0.0, "name": "d9786ba417c0e088450de048e0094801", "is_disabled": 0, "rental_uris": {"android": "https://dc.lft.to/lastmile_qr_scan", "ios": "https://dc.lft.to/lastmile_qr_scan"}, "fusion_lon": 0.0, "lat": 38.919229666666666, "bike_id": "d9786ba417c0e088450de048e0094801", "type": "electric_scooter", "is_reserved": 0, "lon": -77.01210733333333}, {"fusion_lat": 0.0, "name": "5be02eaabceca3645141abe2b4ddb8b8", "is_disabled": 0, "rental_uris": {"android": "https://dc.lft.to/lastmile_qr_scan", "ios": "https://dc.lft.to/lastmile_qr_scan"}, "fusion_lon": 0.0, "lat": 38.92334433333333, "bike_id": "5be02eaabceca3645141abe2b4ddb8b8", "type": "electric_scooter", "is_reserved": 0, "lon": -77.0534985}, {"fusion_lat": 0.0, "name": "38eda29626b7d485e30f118bebe5e7d1", "is_disabled": 0, "rental_uris": {"android": "https://dc.lft.to/lastmile_qr_scan", "ios": "https://dc.lft.to/lastmile_qr_scan"}, "fusion_lon": 0.0, "lat": 39.00309566666667, "bike_id": "38eda29626b7d485e30f118bebe5e7d1", "type": "electric_bike", "is_reserved": 0, "lon": -76.90322416666666}, {"fusion_lat": 0.0, "name": "ebf7e4770dff1bd89ca7ea00f4b05034", "is_disabled": 0, "rental_uris": {"android": "https://dc.lft.to/lastmile_qr_scan", "ios": "https://dc.lft.to/lastmile_qr_scan"}, "fusion_lon": 0.0, "lat": 38.918153333333336, "bike_id": "ebf7e4770dff1bd89ca7ea00f4b05034", "type": "electric_scooter", "is_reserved": 0, "lon": -77.02477316666666}, {"fusion_lat": 0.0, "name": "ab9bd75293f40ca3c812beefe5c7d8fd", "is_disabled": 0, "rental_uris": {"android": "https://dc.lft.to/lastmile_qr_scan", "ios": "https://dc.lft.to/lastmile_qr_scan"}, "fusion_lon": 0.0, "lat": 38.90260933333333, "bike_id": "ab9bd75293f40ca3c812beefe5c7d8fd", "type": "electric_scooter", "is_reserved": 0, "lon": -77.02777116666667}, {"fusion_lat": 0.0, "name": "08ddfec2c47179281c6ed3e1a3012c1a", "is_disabled": 0, "rental_uris": {"android": "https://dc.lft.to/lastmile_qr_scan", "ios": "https://dc.lft.to/lastmile_qr_scan"}, "fusion_lon": 0.0, "lat": 38.91568, "bike_id": "08ddfec2c47179281c6ed3e1a3012c1a", "type": "electric_scooter", "is_reserved": 0, "lon": -77.03640183333333}, {"fusion_lat": 0.0, "name": "6ed8e29359fa05ed916b54a4a313a733", "is_disabled": 0, "rental_uris": {"android": "https://dc.lft.to/lastmile_qr_scan", "ios": "https://dc.lft.to/lastmile_qr_scan"}, "fusion_lon": 0.0, "lat": 38.9110295, "bike_id": "6ed8e29359fa05ed916b54a4a313a733", "type": "electric_scooter", "is_reserved": 0, "lon": -77.03838033333334}, {"fusion_lat": 0.0, "name": "4626316667f902dbaa31faaec9b26e1a", "is_disabled": 0, "rental_uris": {"android": "https://dc.lft.to/lastmile_qr_scan", "ios": "https://dc.lft.to/lastmile_qr_scan"}, "fusion_lon": 0.0, "lat": 38.937046333333335, "bike_id": "4626316667f902dbaa31faaec9b26e1a", "type": "electric_scooter", "is_reserved": 0, "lon": -77.06100833333333}, {"fusion_lat": 0.0, "name": "978f6b8f98b7e4286c469f0ba2f5380c", "is_disabled": 0, "rental_uris": {"android": "https://dc.lft.to/lastmile_qr_scan", "ios": "https://dc.lft.to/lastmile_qr_scan"}, "fusion_lon": 0.0, "lat": 38.900875166666665, "bike_id": "978f6b8f98b7e4286c469f0ba2f5380c", "type": "electric_scooter", "is_reserved": 0, "lon": -77.02004833333334}, {"fusion_lat": 0.0, "name": "025db2c859bfc1786d293d095b8d60b6", "is_disabled": 0, "rental_uris": {"android": "https://dc.lft.to/lastmile_qr_scan", "ios": "https://dc.lft.to/lastmile_qr_scan"}, "fusion_lon": 0.0, "lat": 38.8764285, "bike_id": "025db2c859bfc1786d293d095b8d60b6", "type": "electric_scooter", "is_reserved": 0, "lon": -77.00830883333333}, {"fusion_lat": 0.0, "name": "9a4809f8230fc4025dc80d819d4f3007", "is_disabled": 0, "rental_uris": {"android": "https://dc.lft.to/lastmile_qr_scan", "ios": "https://dc.lft.to/lastmile_qr_scan"}, "fusion_lon": 0.0, "lat": 38.92284316666667, "bike_id": "9a4809f8230fc4025dc80d819d4f3007", "type": "electric_scooter", "is_reserved": 0, "lon": -77.03661716666667}, {"fusion_lat": 0.0, "name": "c9abe6dc550b1e3ea3f065dabdf92c6b", "is_disabled": 0, "rental_uris": {"android": "https://dc.lft.to/lastmile_qr_scan", "ios": "https://dc.lft.to/lastmile_qr_scan"}, "fusion_lon": 0.0, "lat": 38.91916633333334, "bike_id": "c9abe6dc550b1e3ea3f065dabdf92c6b", "type": "electric_scooter", "is_reserved": 0, "lon": -77.0238735}, {"fusion_lat": 0.0, "name": "9bdf2f8dd69d5bbc9a462adf5886a751", "is_disabled": 0, "rental_uris": {"android": "https://dc.lft.to/lastmile_qr_scan", "ios": "https://dc.lft.to/lastmile_qr_scan"}, "fusion_lon": 0.0, "lat": 38.921198833333335, "bike_id": "9bdf2f8dd69d5bbc9a462adf5886a751", "type": "electric_scooter", "is_reserved": 0, "lon": -77.012073}, {"fusion_lat": 0.0, "name": "993381ccf19dc58e753000d368988ea2", "is_disabled": 0, "rental_uris": {"android": "https://dc.lft.to/lastmile_qr_scan", "ios": "https://dc.lft.to/lastmile_qr_scan"}, "fusion_lon": 0.0, "lat": 38.878349166666666, "bike_id": "993381ccf19dc58e753000d368988ea2", "type": "electric_scooter", "is_reserved": 0, "lon": -76.963233}, {"fusion_lat": 0.0, "name": "5de21ede76ef5eb4bd08dfffe6d080de", "is_disabled": 0, "rental_uris": {"android": "https://dc.lft.to/lastmile_qr_scan", "ios": "https://dc.lft.to/lastmile_qr_scan"}, "fusion_lon": 0.0, "lat": 38.9255695, "bike_id": "5de21ede76ef5eb4bd08dfffe6d080de", "type": "electric_scooter", "is_reserved": 0, "lon": -77.0775985}, {"fusion_lat": 0.0, "name": "651a93088ab169018b9268636b209ff4", "is_disabled": 0, "rental_uris": {"android": "https://dc.lft.to/lastmile_qr_scan", "ios": "https://dc.lft.to/lastmile_qr_scan"}, "fusion_lon": 0.0, "lat": 38.920612, "bike_id": "651a93088ab169018b9268636b209ff4", "type": "electric_scooter", "is_reserved": 0, "lon": -77.03401466666666}, {"fusion_lat": 0.0, "name": "71b4b67d726d5e6995183024877a1619", "is_disabled": 0, "rental_uris": {"android": "https://dc.lft.to/lastmile_qr_scan", "ios": "https://dc.lft.to/lastmile_qr_scan"}, "fusion_lon": 0.0, "lat": 38.915415333333335, "bike_id": "71b4b67d726d5e6995183024877a1619", "type": "electric_scooter", "is_reserved": 0, "lon": -77.0126795}, {"fusion_lat": 0.0, "name": "3b17c353c3c32d7b802fb6c401e96ffe", "is_disabled": 0, "rental_uris": {"android": "https://dc.lft.to/lastmile_qr_scan", "ios": "https://dc.lft.to/lastmile_qr_scan"}, "fusion_lon": 0.0, "lat": 38.91779733333333, "bike_id": "3b17c353c3c32d7b802fb6c401e96ffe", "type": "electric_scooter", "is_reserved": 0, "lon": -77.03572083333333}, {"fusion_lat": 0.0, "name": "a019bb0daf11c62868359d1c9be0000c", "is_disabled": 0, "rental_uris": {"android": "https://dc.lft.to/lastmile_qr_scan", "ios": "https://dc.lft.to/lastmile_qr_scan"}, "fusion_lon": 0.0, "lat": 38.9564245, "bike_id": "a019bb0daf11c62868359d1c9be0000c", "type": "electric_scooter", "is_reserved": 0, "lon": -77.02420583333334}, {"fusion_lat": 0.0, "name": "8859172e22264ff3946614559fadad3f", "is_disabled": 0, "rental_uris": {"android": "https://dc.lft.to/lastmile_qr_scan", "ios": "https://dc.lft.to/lastmile_qr_scan"}, "fusion_lon": 0.0, "lat": 38.90561266666667, "bike_id": "8859172e22264ff3946614559fadad3f", "type": "electric_scooter", "is_reserved": 0, "lon": -77.03439716666666}, {"fusion_lat": 0.0, "name": "3ffd001543425aa78b72448bc4b8e27f", "is_disabled": 0, "rental_uris": {"android": "https://dc.lft.to/lastmile_qr_scan", "ios": "https://dc.lft.to/lastmile_qr_scan"}, "fusion_lon": 0.0, "lat": 38.91256116666667, "bike_id": "3ffd001543425aa78b72448bc4b8e27f", "type": "electric_scooter", "is_reserved": 0, "lon": -77.0103085}, {"fusion_lat": 0.0, "name": "24bbb1d98aa8cb1c1dce8ea501f3587d", "is_disabled": 0, "rental_uris": {"android": "https://dc.lft.to/lastmile_qr_scan", "ios": "https://dc.lft.to/lastmile_qr_scan"}, "fusion_lon": 0.0, "lat": 38.873844166666665, "bike_id": "24bbb1d98aa8cb1c1dce8ea501f3587d", "type": "electric_scooter", "is_reserved": 0, "lon": -77.0004265}, {"fusion_lat": 0.0, "name": "fbbe2b23c20d80c066920b044bf32532", "is_disabled": 0, "rental_uris": {"android": "https://dc.lft.to/lastmile_qr_scan", "ios": "https://dc.lft.to/lastmile_qr_scan"}, "fusion_lon": 0.0, "lat": 38.91301516666667, "bike_id": "fbbe2b23c20d80c066920b044bf32532", "type": "electric_scooter", "is_reserved": 0, "lon": -77.04876}, {"fusion_lat": 0.0, "name": "fb8badcf0ecb8646f8850fca461293a3", "is_disabled": 0, "rental_uris": {"android": "https://dc.lft.to/lastmile_qr_scan", "ios": "https://dc.lft.to/lastmile_qr_scan"}, "fusion_lon": 0.0, "lat": 38.8194785, "bike_id": "fb8badcf0ecb8646f8850fca461293a3", "type": "electric_bike", "is_reserved": 0, "lon": -77.127215}, {"fusion_lat": 0.0, "name": "961e3f3ea451ad2cadc515005d40b57b", "is_disabled": 0, "rental_uris": {"android": "https://dc.lft.to/lastmile_qr_scan", "ios": "https://dc.lft.to/lastmile_qr_scan"}, "fusion_lon": 0.0, "lat": 38.921009166666664, "bike_id": "961e3f3ea451ad2cadc515005d40b57b", "type": "electric_scooter", "is_reserved": 0, "lon": -77.0468715}, {"fusion_lat": 0.0, "name": "1df7123f4d739b5200da9755d2b28d65", "is_disabled": 0, "rental_uris": {"android": "https://dc.lft.to/lastmile_qr_scan", "ios": "https://dc.lft.to/lastmile_qr_scan"}, "fusion_lon": 0.0, "lat": 38.915618333333335, "bike_id": "1df7123f4d739b5200da9755d2b28d65", "type": "electric_scooter", "is_reserved": 0, "lon": -77.02232666666667}, {"fusion_lat": 0.0, "name": "58feb5d0b5a039531686e2ef416feba9", "is_disabled": 0, "rental_uris": {"android": "https://dc.lft.to/lastmile_qr_scan", "ios": "https://dc.lft.to/lastmile_qr_scan"}, "fusion_lon": 0.0, "lat": 38.907136666666666, "bike_id": "58feb5d0b5a039531686e2ef416feba9", "type": "electric_scooter", "is_reserved": 0, "lon": -77.04174283333333}, {"fusion_lat": 0.0, "name": "1d86b98ad49a32d7ece8f12c0627b58f", "is_disabled": 0, "rental_uris": {"android": "https://dc.lft.to/lastmile_qr_scan", "ios": "https://dc.lft.to/lastmile_qr_scan"}, "fusion_lon": 0.0, "lat": 38.907193166666666, "bike_id": "1d86b98ad49a32d7ece8f12c0627b58f", "type": "electric_scooter", "is_reserved": 0, "lon": -77.03444216666666}, {"fusion_lat": 0.0, "name": "776bd8e904554340597937eff690d296", "is_disabled": 0, "rental_uris": {"android": "https://dc.lft.to/lastmile_qr_scan", "ios": "https://dc.lft.to/lastmile_qr_scan"}, "fusion_lon": 0.0, "lat": 38.8990365, "bike_id": "776bd8e904554340597937eff690d296", "type": "electric_scooter", "is_reserved": 0, "lon": -76.94554566666666}, {"fusion_lat": 0.0, "name": "e4995fa22ea843b5641e7c1f8190bc80", "is_disabled": 0, "rental_uris": {"android": "https://dc.lft.to/lastmile_qr_scan", "ios": "https://dc.lft.to/lastmile_qr_scan"}, "fusion_lon": 0.0, "lat": 38.880260166666666, "bike_id": "e4995fa22ea843b5641e7c1f8190bc80", "type": "electric_scooter", "is_reserved": 0, "lon": -76.9310285}, {"fusion_lat": 0.0, "name": "38ac56cc026882fb2912d1400ba601c5", "is_disabled": 0, "rental_uris": {"android": "https://dc.lft.to/lastmile_qr_scan", "ios": "https://dc.lft.to/lastmile_qr_scan"}, "fusion_lon": 0.0, "lat": 38.947431333333334, "bike_id": "38ac56cc026882fb2912d1400ba601c5", "type": "electric_scooter", "is_reserved": 0, "lon": -77.01620133333333}, {"fusion_lat": 0.0, "name": "0ccdb32271865498aa4e676a8ebe6abd", "is_disabled": 0, "rental_uris": {"android": "https://dc.lft.to/lastmile_qr_scan", "ios": "https://dc.lft.to/lastmile_qr_scan"}, "fusion_lon": 0.0, "lat": 38.9043845, "bike_id": "0ccdb32271865498aa4e676a8ebe6abd", "type": "electric_scooter", "is_reserved": 0, "lon": -77.06013916666667}, {"fusion_lat": 0.0, "name": "66d2fa390fdeff1944ccf1b8aae419b4", "is_disabled": 0, "rental_uris": {"android": "https://dc.lft.to/lastmile_qr_scan", "ios": "https://dc.lft.to/lastmile_qr_scan"}, "fusion_lon": 0.0, "lat": 38.89220816666667, "bike_id": "66d2fa390fdeff1944ccf1b8aae419b4", "type": "electric_scooter", "is_reserved": 0, "lon": -77.0321415}, {"fusion_lat": 0.0, "name": "115d6c6845ad4a0979f209c0dfd1cc5c", "is_disabled": 0, "rental_uris": {"android": "https://dc.lft.to/lastmile_qr_scan", "ios": "https://dc.lft.to/lastmile_qr_scan"}, "fusion_lon": 0.0, "lat": 38.929637, "bike_id": "115d6c6845ad4a0979f209c0dfd1cc5c", "type": "electric_scooter", "is_reserved": 0, "lon": -77.01975116666667}, {"fusion_lat": 0.0, "name": "a4585c2947ce659c09e8855957ca70f8", "is_disabled": 0, "rental_uris": {"android": "https://dc.lft.to/lastmile_qr_scan", "ios": "https://dc.lft.to/lastmile_qr_scan"}, "fusion_lon": 0.0, "lat": 38.824567, "bike_id": "a4585c2947ce659c09e8855957ca70f8", "type": "electric_bike", "is_reserved": 0, "lon": -77.00794583333334}, {"fusion_lat": 0.0, "name": "67567ab8e59968464d9011afc47dfdd4", "is_disabled": 0, "rental_uris": {"android": "https://dc.lft.to/lastmile_qr_scan", "ios": "https://dc.lft.to/lastmile_qr_scan"}, "fusion_lon": 0.0, "lat": 38.9108245, "bike_id": "67567ab8e59968464d9011afc47dfdd4", "type": "electric_scooter", "is_reserved": 0, "lon": -77.06505866666667}, {"fusion_lat": 0.0, "name": "a7a1cfa12ed211ce47f142c374c5baf5", "is_disabled": 0, "rental_uris": {"android": "https://dc.lft.to/lastmile_qr_scan", "ios": "https://dc.lft.to/lastmile_qr_scan"}, "fusion_lon": 0.0, "lat": 38.89226516666667, "bike_id": "a7a1cfa12ed211ce47f142c374c5baf5", "type": "electric_scooter", "is_reserved": 0, "lon": -77.02407466666666}, {"fusion_lat": 0.0, "name": "4801b28b7b3c986c361971882628d5f3", "is_disabled": 0, "rental_uris": {"android": "https://dc.lft.to/lastmile_qr_scan", "ios": "https://dc.lft.to/lastmile_qr_scan"}, "fusion_lon": 0.0, "lat": 38.90467133333333, "bike_id": "4801b28b7b3c986c361971882628d5f3", "type": "electric_scooter", "is_reserved": 0, "lon": -77.006905}, {"fusion_lat": 0.0, "name": "2031592a00cb909f7886ed830d06206c", "is_disabled": 0, "rental_uris": {"android": "https://dc.lft.to/lastmile_qr_scan", "ios": "https://dc.lft.to/lastmile_qr_scan"}, "fusion_lon": 0.0, "lat": 38.91405133333333, "bike_id": "2031592a00cb909f7886ed830d06206c", "type": "electric_scooter", "is_reserved": 0, "lon": -77.00838233333333}, {"fusion_lat": 0.0, "name": "5d86000694400a0aff90c195e1cd99fb", "is_disabled": 0, "rental_uris": {"android": "https://dc.lft.to/lastmile_qr_scan", "ios": "https://dc.lft.to/lastmile_qr_scan"}, "fusion_lon": 0.0, "lat": 38.90725666666667, "bike_id": "5d86000694400a0aff90c195e1cd99fb", "type": "electric_scooter", "is_reserved": 0, "lon": -77.03177916666667}, {"fusion_lat": 0.0, "name": "0a492f17047e128cec9a6f4172b9f3e9", "is_disabled": 0, "rental_uris": {"android": "https://dc.lft.to/lastmile_qr_scan", "ios": "https://dc.lft.to/lastmile_qr_scan"}, "fusion_lon": 0.0, "lat": 38.842985666666664, "bike_id": "0a492f17047e128cec9a6f4172b9f3e9", "type": "electric_bike", "is_reserved": 0, "lon": -77.10864766666667}, {"fusion_lat": 0.0, "name": "c5352ca4b2baee1097e7bedf461a467c", "is_disabled": 0, "rental_uris": {"android": "https://dc.lft.to/lastmile_qr_scan", "ios": "https://dc.lft.to/lastmile_qr_scan"}, "fusion_lon": 0.0, "lat": 38.9254955, "bike_id": "c5352ca4b2baee1097e7bedf461a467c", "type": "electric_scooter", "is_reserved": 0, "lon": -77.03342883333333}, {"fusion_lat": 0.0, "name": "4e22b12cf6baefc2f50d95af1715f934", "is_disabled": 0, "rental_uris": {"android": "https://dc.lft.to/lastmile_qr_scan", "ios": "https://dc.lft.to/lastmile_qr_scan"}, "fusion_lon": 0.0, "lat": 38.9440605, "bike_id": "4e22b12cf6baefc2f50d95af1715f934", "type": "electric_scooter", "is_reserved": 0, "lon": -77.03862683333334}, {"fusion_lat": 0.0, "name": "4fd2151824788ab053dee3439674d1f9", "is_disabled": 0, "rental_uris": {"android": "https://dc.lft.to/lastmile_qr_scan", "ios": "https://dc.lft.to/lastmile_qr_scan"}, "fusion_lon": 0.0, "lat": 38.92021166666667, "bike_id": "4fd2151824788ab053dee3439674d1f9", "type": "electric_scooter", "is_reserved": 0, "lon": -77.03890416666667}, {"fusion_lat": 0.0, "name": "1a302cd9236c016948e56f6d6f15c93e", "is_disabled": 0, "rental_uris": {"android": "https://dc.lft.to/lastmile_qr_scan", "ios": "https://dc.lft.to/lastmile_qr_scan"}, "fusion_lon": 0.0, "lat": 38.90382116666667, "bike_id": "1a302cd9236c016948e56f6d6f15c93e", "type": "electric_scooter", "is_reserved": 0, "lon": -76.97613216666667}, {"fusion_lat": 0.0, "name": "ba67f00756d3bf4b175ce45a8392b5d9", "is_disabled": 0, "rental_uris": {"android": "https://dc.lft.to/lastmile_qr_scan", "ios": "https://dc.lft.to/lastmile_qr_scan"}, "fusion_lon": 0.0, "lat": 38.80297233333334, "bike_id": "ba67f00756d3bf4b175ce45a8392b5d9", "type": "electric_bike", "is_reserved": 0, "lon": -77.059348}, {"fusion_lat": 0.0, "name": "ee34a28e12223a94b0cc7063fc663c91", "is_disabled": 0, "rental_uris": {"android": "https://dc.lft.to/lastmile_qr_scan", "ios": "https://dc.lft.to/lastmile_qr_scan"}, "fusion_lon": 0.0, "lat": 38.96392733333333, "bike_id": "ee34a28e12223a94b0cc7063fc663c91", "type": "electric_scooter", "is_reserved": 0, "lon": -77.02591433333333}, {"fusion_lat": 0.0, "name": "8258cf2b7c851adc4d86a7893dbc466a", "is_disabled": 0, "rental_uris": {"android": "https://dc.lft.to/lastmile_qr_scan", "ios": "https://dc.lft.to/lastmile_qr_scan"}, "fusion_lon": 0.0, "lat": 38.88187466666667, "bike_id": "8258cf2b7c851adc4d86a7893dbc466a", "type": "electric_scooter", "is_reserved": 0, "lon": -77.00347083333334}, {"fusion_lat": 0.0, "name": "30b836070d5657a3c1c980b0ffc59aa7", "is_disabled": 0, "rental_uris": {"android": "https://dc.lft.to/lastmile_qr_scan", "ios": "https://dc.lft.to/lastmile_qr_scan"}, "fusion_lon": 0.0, "lat": 38.93253033333333, "bike_id": "30b836070d5657a3c1c980b0ffc59aa7", "type": "electric_scooter", "is_reserved": 0, "lon": -77.03281483333333}, {"fusion_lat": 0.0, "name": "387da299604f7455b7c0b85af6f51b76", "is_disabled": 0, "rental_uris": {"android": "https://dc.lft.to/lastmile_qr_scan", "ios": "https://dc.lft.to/lastmile_qr_scan"}, "fusion_lon": 0.0, "lat": 38.8796435, "bike_id": "387da299604f7455b7c0b85af6f51b76", "type": "electric_scooter", "is_reserved": 0, "lon": -77.00600283333333}, {"fusion_lat": 0.0, "name": "3f13bd3b72bded4a37e74756ccca576c", "is_disabled": 0, "rental_uris": {"android": "https://dc.lft.to/lastmile_qr_scan", "ios": "https://dc.lft.to/lastmile_qr_scan"}, "fusion_lon": 0.0, "lat": 38.899829833333335, "bike_id": "3f13bd3b72bded4a37e74756ccca576c", "type": "electric_scooter", "is_reserved": 0, "lon": -77.011914}, {"fusion_lat": 0.0, "name": "e8277bf943d717878bca4a09b7877c91", "is_disabled": 0, "rental_uris": {"android": "https://dc.lft.to/lastmile_qr_scan", "ios": "https://dc.lft.to/lastmile_qr_scan"}, "fusion_lon": 0.0, "lat": 38.89244433333333, "bike_id": "e8277bf943d717878bca4a09b7877c91", "type": "electric_scooter", "is_reserved": 0, "lon": -77.04361833333333}, {"fusion_lat": 0.0, "name": "8fdf1f5c94d5e0ed0fa91b1e0d6c1f28", "is_disabled": 0, "rental_uris": {"android": "https://dc.lft.to/lastmile_qr_scan", "ios": "https://dc.lft.to/lastmile_qr_scan"}, "fusion_lon": 0.0, "lat": 38.921083333333335, "bike_id": "8fdf1f5c94d5e0ed0fa91b1e0d6c1f28", "type": "electric_scooter", "is_reserved": 0, "lon": -77.031713}, {"fusion_lat": 0.0, "name": "3eff65a9f32a1e112ec2736cad4e0a25", "is_disabled": 0, "rental_uris": {"android": "https://dc.lft.to/lastmile_qr_scan", "ios": "https://dc.lft.to/lastmile_qr_scan"}, "fusion_lon": 0.0, "lat": 38.922809, "bike_id": "3eff65a9f32a1e112ec2736cad4e0a25", "type": "electric_scooter", "is_reserved": 0, "lon": -77.036566}, {"fusion_lat": 0.0, "name": "3a3795f6f74d7237302c948f91348f6f", "is_disabled": 0, "rental_uris": {"android": "https://dc.lft.to/lastmile_qr_scan", "ios": "https://dc.lft.to/lastmile_qr_scan"}, "fusion_lon": 0.0, "lat": 38.92736416666666, "bike_id": "3a3795f6f74d7237302c948f91348f6f", "type": "electric_scooter", "is_reserved": 0, "lon": -77.05254333333333}, {"fusion_lat": 0.0, "name": "8c974162dbe003be1cb1b3761cf8a243", "is_disabled": 0, "rental_uris": {"android": "https://dc.lft.to/lastmile_qr_scan", "ios": "https://dc.lft.to/lastmile_qr_scan"}, "fusion_lon": 0.0, "lat": 38.9041855, "bike_id": "8c974162dbe003be1cb1b3761cf8a243", "type": "electric_scooter", "is_reserved": 0, "lon": -77.05123766666667}, {"fusion_lat": 0.0, "name": "b019cd6e5bbceb9d2c9e332289b1fad1", "is_disabled": 0, "rental_uris": {"android": "https://dc.lft.to/lastmile_qr_scan", "ios": "https://dc.lft.to/lastmile_qr_scan"}, "fusion_lon": 0.0, "lat": 38.92374516666667, "bike_id": "b019cd6e5bbceb9d2c9e332289b1fad1", "type": "electric_scooter", "is_reserved": 0, "lon": -77.0446265}, {"fusion_lat": 0.0, "name": "7a3d07391aa9e12885e4388a5bcbc8a9", "is_disabled": 0, "rental_uris": {"android": "https://dc.lft.to/lastmile_qr_scan", "ios": "https://dc.lft.to/lastmile_qr_scan"}, "fusion_lon": 0.0, "lat": 38.9216105, "bike_id": "7a3d07391aa9e12885e4388a5bcbc8a9", "type": "electric_scooter", "is_reserved": 0, "lon": -77.036525}, {"fusion_lat": 0.0, "name": "f59233260bc31ecf68d670144d478efb", "is_disabled": 0, "rental_uris": {"android": "https://dc.lft.to/lastmile_qr_scan", "ios": "https://dc.lft.to/lastmile_qr_scan"}, "fusion_lon": 0.0, "lat": 38.984699, "bike_id": "f59233260bc31ecf68d670144d478efb", "type": "electric_scooter", "is_reserved": 0, "lon": -77.02639966666666}, {"fusion_lat": 0.0, "name": "62bcfef216457b7607e6c28599e55299", "is_disabled": 0, "rental_uris": {"android": "https://dc.lft.to/lastmile_qr_scan", "ios": "https://dc.lft.to/lastmile_qr_scan"}, "fusion_lon": 0.0, "lat": 38.992316333333335, "bike_id": "62bcfef216457b7607e6c28599e55299", "type": "electric_bike", "is_reserved": 0, "lon": -76.94397616666667}, {"fusion_lat": 0.0, "name": "9a0aba5583cccd4d744625940c0856f6", "is_disabled": 0, "rental_uris": {"android": "https://dc.lft.to/lastmile_qr_scan", "ios": "https://dc.lft.to/lastmile_qr_scan"}, "fusion_lon": 0.0, "lat": 38.92136583333333, "bike_id": "9a0aba5583cccd4d744625940c0856f6", "type": "electric_scooter", "is_reserved": 0, "lon": -77.00401916666667}, {"fusion_lat": 0.0, "name": "2f5e37b22501c9e2a8a320defea4315c", "is_disabled": 0, "rental_uris": {"android": "https://dc.lft.to/lastmile_qr_scan", "ios": "https://dc.lft.to/lastmile_qr_scan"}, "fusion_lon": 0.0, "lat": 38.909589833333335, "bike_id": "2f5e37b22501c9e2a8a320defea4315c", "type": "electric_scooter", "is_reserved": 0, "lon": -77.04607283333333}, {"fusion_lat": 0.0, "name": "baaa0dd02560e61377a4cb658e5bcdf0", "is_disabled": 0, "rental_uris": {"android": "https://dc.lft.to/lastmile_qr_scan", "ios": "https://dc.lft.to/lastmile_qr_scan"}, "fusion_lon": 0.0, "lat": 38.91977833333333, "bike_id": "baaa0dd02560e61377a4cb658e5bcdf0", "type": "electric_scooter", "is_reserved": 0, "lon": -77.040846}, {"fusion_lat": 0.0, "name": "1166eda4a99254a7628e87a95659d587", "is_disabled": 0, "rental_uris": {"android": "https://dc.lft.to/lastmile_qr_scan", "ios": "https://dc.lft.to/lastmile_qr_scan"}, "fusion_lon": 0.0, "lat": 38.905477, "bike_id": "1166eda4a99254a7628e87a95659d587", "type": "electric_scooter", "is_reserved": 0, "lon": -77.036556}, {"fusion_lat": 0.0, "name": "ad7b5cfbed724ce4b41ac9adc1d4055e", "is_disabled": 0, "rental_uris": {"android": "https://dc.lft.to/lastmile_qr_scan", "ios": "https://dc.lft.to/lastmile_qr_scan"}, "fusion_lon": 0.0, "lat": 38.908421833333335, "bike_id": "ad7b5cfbed724ce4b41ac9adc1d4055e", "type": "electric_scooter", "is_reserved": 0, "lon": -77.02693616666667}, {"fusion_lat": 0.0, "name": "4aeffa2b9a949cccc208a9c0d7a2fac4", "is_disabled": 0, "rental_uris": {"android": "https://dc.lft.to/lastmile_qr_scan", "ios": "https://dc.lft.to/lastmile_qr_scan"}, "fusion_lon": 0.0, "lat": 38.8774875, "bike_id": "4aeffa2b9a949cccc208a9c0d7a2fac4", "type": "electric_scooter", "is_reserved": 0, "lon": -76.97030266666667}, {"fusion_lat": 0.0, "name": "42694f840cbe7f8504e926c967f305d1", "is_disabled": 0, "rental_uris": {"android": "https://dc.lft.to/lastmile_qr_scan", "ios": "https://dc.lft.to/lastmile_qr_scan"}, "fusion_lon": 0.0, "lat": 38.9422685, "bike_id": "42694f840cbe7f8504e926c967f305d1", "type": "electric_scooter", "is_reserved": 0, "lon": -77.01382366666667}, {"fusion_lat": 0.0, "name": "f8df64111cbd997fa423e63e31b229e7", "is_disabled": 0, "rental_uris": {"android": "https://dc.lft.to/lastmile_qr_scan", "ios": "https://dc.lft.to/lastmile_qr_scan"}, "fusion_lon": 0.0, "lat": 38.8996915, "bike_id": "f8df64111cbd997fa423e63e31b229e7", "type": "electric_scooter", "is_reserved": 0, "lon": -76.98698266666666}, {"fusion_lat": 0.0, "name": "a9068eb72de856ddb09c4056b914b80c", "is_disabled": 0, "rental_uris": {"android": "https://dc.lft.to/lastmile_qr_scan", "ios": "https://dc.lft.to/lastmile_qr_scan"}, "fusion_lon": 0.0, "lat": 38.90015966666667, "bike_id": "a9068eb72de856ddb09c4056b914b80c", "type": "electric_scooter", "is_reserved": 0, "lon": -77.01211633333334}, {"fusion_lat": 0.0, "name": "0121c2040ef9d72ba89dce3e41ecb456", "is_disabled": 0, "rental_uris": {"android": "https://dc.lft.to/lastmile_qr_scan", "ios": "https://dc.lft.to/lastmile_qr_scan"}, "fusion_lon": 0.0, "lat": 38.92079116666667, "bike_id": "0121c2040ef9d72ba89dce3e41ecb456", "type": "electric_bike", "is_reserved": 0, "lon": -76.98944983333334}, {"fusion_lat": 0.0, "name": "7c96c7e141103c3a9c5dfe5916aed91e", "is_disabled": 0, "rental_uris": {"android": "https://dc.lft.to/lastmile_qr_scan", "ios": "https://dc.lft.to/lastmile_qr_scan"}, "fusion_lon": 0.0, "lat": 38.8873195, "bike_id": "7c96c7e141103c3a9c5dfe5916aed91e", "type": "electric_scooter", "is_reserved": 0, "lon": -77.0317175}, {"fusion_lat": 0.0, "name": "55b19ccf97c5da78ee010e3302eaeec8", "is_disabled": 0, "rental_uris": {"android": "https://dc.lft.to/lastmile_qr_scan", "ios": "https://dc.lft.to/lastmile_qr_scan"}, "fusion_lon": 0.0, "lat": 38.91824, "bike_id": "55b19ccf97c5da78ee010e3302eaeec8", "type": "electric_scooter", "is_reserved": 0, "lon": -77.03682066666667}, {"fusion_lat": 0.0, "name": "10f8d2f278db27472507df2965e7664c", "is_disabled": 0, "rental_uris": {"android": "https://dc.lft.to/lastmile_qr_scan", "ios": "https://dc.lft.to/lastmile_qr_scan"}, "fusion_lon": 0.0, "lat": 38.90388083333333, "bike_id": "10f8d2f278db27472507df2965e7664c", "type": "electric_scooter", "is_reserved": 0, "lon": -77.03799616666667}, {"fusion_lat": 0.0, "name": "9a324ca806a87a099d848e9e2b554e96", "is_disabled": 0, "rental_uris": {"android": "https://dc.lft.to/lastmile_qr_scan", "ios": "https://dc.lft.to/lastmile_qr_scan"}, "fusion_lon": 0.0, "lat": 38.8874045, "bike_id": "9a324ca806a87a099d848e9e2b554e96", "type": "electric_scooter", "is_reserved": 0, "lon": -77.0031905}, {"fusion_lat": 0.0, "name": "65edd6fb65e06e23a3072390915118e3", "is_disabled": 0, "rental_uris": {"android": "https://dc.lft.to/lastmile_qr_scan", "ios": "https://dc.lft.to/lastmile_qr_scan"}, "fusion_lon": 0.0, "lat": 38.907241166666665, "bike_id": "65edd6fb65e06e23a3072390915118e3", "type": "electric_scooter", "is_reserved": 0, "lon": -77.02963566666666}, {"fusion_lat": 0.0, "name": "021fdc8d422b9a8532616705c29a8dc6", "is_disabled": 0, "rental_uris": {"android": "https://dc.lft.to/lastmile_qr_scan", "ios": "https://dc.lft.to/lastmile_qr_scan"}, "fusion_lon": 0.0, "lat": 38.924344166666664, "bike_id": "021fdc8d422b9a8532616705c29a8dc6", "type": "electric_scooter", "is_reserved": 0, "lon": -77.00064816666666}, {"fusion_lat": 0.0, "name": "956685f1324d40fd8d8669c3d8bed618", "is_disabled": 0, "rental_uris": {"android": "https://dc.lft.to/lastmile_qr_scan", "ios": "https://dc.lft.to/lastmile_qr_scan"}, "fusion_lon": 0.0, "lat": 38.902874833333335, "bike_id": "956685f1324d40fd8d8669c3d8bed618", "type": "electric_scooter", "is_reserved": 0, "lon": -77.03934333333333}, {"fusion_lat": 0.0, "name": "eb91b6150d10ae905099c1d6ba30378f", "is_disabled": 0, "rental_uris": {"android": "https://dc.lft.to/lastmile_qr_scan", "ios": "https://dc.lft.to/lastmile_qr_scan"}, "fusion_lon": 0.0, "lat": 38.887266, "bike_id": "eb91b6150d10ae905099c1d6ba30378f", "type": "electric_scooter", "is_reserved": 0, "lon": -76.9835525}, {"fusion_lat": 0.0, "name": "b54af10c148ecb9b53e24306b463961e", "is_disabled": 0, "rental_uris": {"android": "https://dc.lft.to/lastmile_qr_scan", "ios": "https://dc.lft.to/lastmile_qr_scan"}, "fusion_lon": 0.0, "lat": 38.9438765, "bike_id": "b54af10c148ecb9b53e24306b463961e", "type": "electric_scooter", "is_reserved": 0, "lon": -77.03212916666666}, {"fusion_lat": 0.0, "name": "be27a704a124bea6272c46055b25c4f6", "is_disabled": 0, "rental_uris": {"android": "https://dc.lft.to/lastmile_qr_scan", "ios": "https://dc.lft.to/lastmile_qr_scan"}, "fusion_lon": 0.0, "lat": 38.916887833333334, "bike_id": "be27a704a124bea6272c46055b25c4f6", "type": "electric_scooter", "is_reserved": 0, "lon": -77.02595116666667}, {"fusion_lat": 0.0, "name": "96201da8c3739f7cb62c3c15be55cdc0", "is_disabled": 0, "rental_uris": {"android": "https://dc.lft.to/lastmile_qr_scan", "ios": "https://dc.lft.to/lastmile_qr_scan"}, "fusion_lon": 0.0, "lat": 38.9508525, "bike_id": "96201da8c3739f7cb62c3c15be55cdc0", "type": "electric_scooter", "is_reserved": 0, "lon": -77.0271405}, {"fusion_lat": 0.0, "name": "75a4939fdb480bbfa5db9852a2174d60", "is_disabled": 0, "rental_uris": {"android": "https://dc.lft.to/lastmile_qr_scan", "ios": "https://dc.lft.to/lastmile_qr_scan"}, "fusion_lon": 0.0, "lat": 38.953462, "bike_id": "75a4939fdb480bbfa5db9852a2174d60", "type": "electric_scooter", "is_reserved": 0, "lon": -77.0794975}, {"fusion_lat": 0.0, "name": "b6877006437fb6730429042e94bc1cf8", "is_disabled": 0, "rental_uris": {"android": "https://dc.lft.to/lastmile_qr_scan", "ios": "https://dc.lft.to/lastmile_qr_scan"}, "fusion_lon": 0.0, "lat": 38.884972833333336, "bike_id": "b6877006437fb6730429042e94bc1cf8", "type": "electric_scooter", "is_reserved": 0, "lon": -77.0147135}, {"fusion_lat": 0.0, "name": "5adabc84300cc2cfd2687f638773cc87", "is_disabled": 0, "rental_uris": {"android": "https://dc.lft.to/lastmile_qr_scan", "ios": "https://dc.lft.to/lastmile_qr_scan"}, "fusion_lon": 0.0, "lat": 38.875986833333336, "bike_id": "5adabc84300cc2cfd2687f638773cc87", "type": "electric_scooter", "is_reserved": 0, "lon": -77.00072}, {"fusion_lat": 0.0, "name": "acc1ea37087ff2f54dc5516e4ea04bdf", "is_disabled": 0, "rental_uris": {"android": "https://dc.lft.to/lastmile_qr_scan", "ios": "https://dc.lft.to/lastmile_qr_scan"}, "fusion_lon": 0.0, "lat": 38.94976033333333, "bike_id": "acc1ea37087ff2f54dc5516e4ea04bdf", "type": "electric_scooter", "is_reserved": 0, "lon": -77.02694683333333}, {"fusion_lat": 0.0, "name": "cafebc83affa396053148f588eb30a59", "is_disabled": 0, "rental_uris": {"android": "https://dc.lft.to/lastmile_qr_scan", "ios": "https://dc.lft.to/lastmile_qr_scan"}, "fusion_lon": 0.0, "lat": 38.91012716666667, "bike_id": "cafebc83affa396053148f588eb30a59", "type": "electric_scooter", "is_reserved": 0, "lon": -77.01617733333333}, {"fusion_lat": 0.0, "name": "4f69e2ae3a950e9cb1bb89d2ef9715fc", "is_disabled": 0, "rental_uris": {"android": "https://dc.lft.to/lastmile_qr_scan", "ios": "https://dc.lft.to/lastmile_qr_scan"}, "fusion_lon": 0.0, "lat": 38.928842833333334, "bike_id": "4f69e2ae3a950e9cb1bb89d2ef9715fc", "type": "electric_scooter", "is_reserved": 0, "lon": -77.03324233333333}, {"fusion_lat": 0.0, "name": "a4eb28fc0791f4be166b0066a9424103", "is_disabled": 0, "rental_uris": {"android": "https://dc.lft.to/lastmile_qr_scan", "ios": "https://dc.lft.to/lastmile_qr_scan"}, "fusion_lon": 0.0, "lat": 38.905158, "bike_id": "a4eb28fc0791f4be166b0066a9424103", "type": "electric_scooter", "is_reserved": 0, "lon": -77.051324}, {"fusion_lat": 0.0, "name": "a40e19afab83f3bc69cf003507422fe3", "is_disabled": 0, "rental_uris": {"android": "https://dc.lft.to/lastmile_qr_scan", "ios": "https://dc.lft.to/lastmile_qr_scan"}, "fusion_lon": 0.0, "lat": 38.87575183333333, "bike_id": "a40e19afab83f3bc69cf003507422fe3", "type": "electric_scooter", "is_reserved": 0, "lon": -77.0073415}, {"fusion_lat": 0.0, "name": "437cd2ed908eef085c20635408f397b9", "is_disabled": 0, "rental_uris": {"android": "https://dc.lft.to/lastmile_qr_scan", "ios": "https://dc.lft.to/lastmile_qr_scan"}, "fusion_lon": 0.0, "lat": 38.91436, "bike_id": "437cd2ed908eef085c20635408f397b9", "type": "electric_scooter", "is_reserved": 0, "lon": -77.02203816666666}, {"fusion_lat": 0.0, "name": "c8350ca05cbbdb8803770a08dca2c248", "is_disabled": 0, "rental_uris": {"android": "https://dc.lft.to/lastmile_qr_scan", "ios": "https://dc.lft.to/lastmile_qr_scan"}, "fusion_lon": 0.0, "lat": 38.876675666666664, "bike_id": "c8350ca05cbbdb8803770a08dca2c248", "type": "electric_scooter", "is_reserved": 0, "lon": -77.00078783333333}, {"fusion_lat": 0.0, "name": "824680c0738c91b7687672fa69d028c3", "is_disabled": 0, "rental_uris": {"android": "https://dc.lft.to/lastmile_qr_scan", "ios": "https://dc.lft.to/lastmile_qr_scan"}, "fusion_lon": 0.0, "lat": 38.90463916666667, "bike_id": "824680c0738c91b7687672fa69d028c3", "type": "electric_scooter", "is_reserved": 0, "lon": -77.05320133333333}, {"fusion_lat": 0.0, "name": "663f909acdd14cd4a1361b144fb38247", "is_disabled": 0, "rental_uris": {"android": "https://dc.lft.to/lastmile_qr_scan", "ios": "https://dc.lft.to/lastmile_qr_scan"}, "fusion_lon": 0.0, "lat": 38.916945, "bike_id": "663f909acdd14cd4a1361b144fb38247", "type": "electric_bike", "is_reserved": 0, "lon": -76.98231883333334}, {"fusion_lat": 0.0, "name": "9e36ae2d1685894ba54cbb2486eb50ff", "is_disabled": 0, "rental_uris": {"android": "https://dc.lft.to/lastmile_qr_scan", "ios": "https://dc.lft.to/lastmile_qr_scan"}, "fusion_lon": 0.0, "lat": 38.952813666666664, "bike_id": "9e36ae2d1685894ba54cbb2486eb50ff", "type": "electric_scooter", "is_reserved": 0, "lon": -77.06860966666666}, {"fusion_lat": 0.0, "name": "61875edc238988f6157d8f6e559f3b3f", "is_disabled": 0, "rental_uris": {"android": "https://dc.lft.to/lastmile_qr_scan", "ios": "https://dc.lft.to/lastmile_qr_scan"}, "fusion_lon": 0.0, "lat": 38.915885, "bike_id": "61875edc238988f6157d8f6e559f3b3f", "type": "electric_scooter", "is_reserved": 0, "lon": -77.04323566666666}, {"fusion_lat": 0.0, "name": "2b79f4cce246b066e549f8b1ddd99ed0", "is_disabled": 0, "rental_uris": {"android": "https://dc.lft.to/lastmile_qr_scan", "ios": "https://dc.lft.to/lastmile_qr_scan"}, "fusion_lon": 0.0, "lat": 38.9170305, "bike_id": "2b79f4cce246b066e549f8b1ddd99ed0", "type": "electric_scooter", "is_reserved": 0, "lon": -77.02412916666667}, {"fusion_lat": 0.0, "name": "6ca70d7265568ad61ba63231e482cb32", "is_disabled": 0, "rental_uris": {"android": "https://dc.lft.to/lastmile_qr_scan", "ios": "https://dc.lft.to/lastmile_qr_scan"}, "fusion_lon": 0.0, "lat": 38.944996833333335, "bike_id": "6ca70d7265568ad61ba63231e482cb32", "type": "electric_scooter", "is_reserved": 0, "lon": -77.03877366666667}, {"fusion_lat": 0.0, "name": "6385ad3a63ccf2fa92fe10664d95e84c", "is_disabled": 0, "rental_uris": {"android": "https://dc.lft.to/lastmile_qr_scan", "ios": "https://dc.lft.to/lastmile_qr_scan"}, "fusion_lon": 0.0, "lat": 38.91734366666667, "bike_id": "6385ad3a63ccf2fa92fe10664d95e84c", "type": "electric_scooter", "is_reserved": 0, "lon": -77.03657666666666}, {"fusion_lat": 0.0, "name": "22d92849b646337a018a5f69734ae44e", "is_disabled": 0, "rental_uris": {"android": "https://dc.lft.to/lastmile_qr_scan", "ios": "https://dc.lft.to/lastmile_qr_scan"}, "fusion_lon": 0.0, "lat": 38.917831, "bike_id": "22d92849b646337a018a5f69734ae44e", "type": "electric_scooter", "is_reserved": 0, "lon": -77.04095683333334}, {"fusion_lat": 0.0, "name": "f8c5dd7033b0d0a348a1038d3e4a2434", "is_disabled": 0, "rental_uris": {"android": "https://dc.lft.to/lastmile_qr_scan", "ios": "https://dc.lft.to/lastmile_qr_scan"}, "fusion_lon": 0.0, "lat": 38.933532166666666, "bike_id": "f8c5dd7033b0d0a348a1038d3e4a2434", "type": "electric_scooter", "is_reserved": 0, "lon": -77.07307783333333}, {"fusion_lat": 0.0, "name": "8fa077ddd41296a3b834472c32a8348b", "is_disabled": 0, "rental_uris": {"android": "https://dc.lft.to/lastmile_qr_scan", "ios": "https://dc.lft.to/lastmile_qr_scan"}, "fusion_lon": 0.0, "lat": 38.950871166666666, "bike_id": "8fa077ddd41296a3b834472c32a8348b", "type": "electric_bike", "is_reserved": 0, "lon": -76.997921}, {"fusion_lat": 0.0, "name": "9073c14554e9c6c6f6d032013c0bfca8", "is_disabled": 0, "rental_uris": {"android": "https://dc.lft.to/lastmile_qr_scan", "ios": "https://dc.lft.to/lastmile_qr_scan"}, "fusion_lon": 0.0, "lat": 38.91927066666667, "bike_id": "9073c14554e9c6c6f6d032013c0bfca8", "type": "electric_scooter", "is_reserved": 0, "lon": -77.041541}, {"fusion_lat": 0.0, "name": "1ed68cd22cb0d196f3c84e92ba20360a", "is_disabled": 0, "rental_uris": {"android": "https://dc.lft.to/lastmile_qr_scan", "ios": "https://dc.lft.to/lastmile_qr_scan"}, "fusion_lon": 0.0, "lat": 38.892173166666666, "bike_id": "1ed68cd22cb0d196f3c84e92ba20360a", "type": "electric_scooter", "is_reserved": 0, "lon": -76.957442}, {"fusion_lat": 0.0, "name": "b0be8739a0054e2d37c3e665f26b6006", "is_disabled": 0, "rental_uris": {"android": "https://dc.lft.to/lastmile_qr_scan", "ios": "https://dc.lft.to/lastmile_qr_scan"}, "fusion_lon": 0.0, "lat": 38.9140315, "bike_id": "b0be8739a0054e2d37c3e665f26b6006", "type": "electric_scooter", "is_reserved": 0, "lon": -77.03259916666667}, {"fusion_lat": 0.0, "name": "467ea9450aea182c6a50b7ffe2dff77c", "is_disabled": 0, "rental_uris": {"android": "https://dc.lft.to/lastmile_qr_scan", "ios": "https://dc.lft.to/lastmile_qr_scan"}, "fusion_lon": 0.0, "lat": 38.89544733333334, "bike_id": "467ea9450aea182c6a50b7ffe2dff77c", "type": "electric_scooter", "is_reserved": 0, "lon": -76.983362}, {"fusion_lat": 0.0, "name": "824d192d593fb62fd702df2be8ffc99a", "is_disabled": 0, "rental_uris": {"android": "https://dc.lft.to/lastmile_qr_scan", "ios": "https://dc.lft.to/lastmile_qr_scan"}, "fusion_lon": 0.0, "lat": 38.8958015, "bike_id": "824d192d593fb62fd702df2be8ffc99a", "type": "electric_scooter", "is_reserved": 0, "lon": -76.948873}, {"fusion_lat": 0.0, "name": "3322ec2ba625e90a4decb613d8e002a6", "is_disabled": 0, "rental_uris": {"android": "https://dc.lft.to/lastmile_qr_scan", "ios": "https://dc.lft.to/lastmile_qr_scan"}, "fusion_lon": 0.0, "lat": 38.906538, "bike_id": "3322ec2ba625e90a4decb613d8e002a6", "type": "electric_scooter", "is_reserved": 0, "lon": -77.04875216666667}, {"fusion_lat": 0.0, "name": "4870f54e4c4f9f4e7229f81f2c02cb99", "is_disabled": 0, "rental_uris": {"android": "https://dc.lft.to/lastmile_qr_scan", "ios": "https://dc.lft.to/lastmile_qr_scan"}, "fusion_lon": 0.0, "lat": 38.878866, "bike_id": "4870f54e4c4f9f4e7229f81f2c02cb99", "type": "electric_scooter", "is_reserved": 0, "lon": -76.96544633333333}, {"fusion_lat": 0.0, "name": "ba9e759f7fc5a68db8c1abb7d307580c", "is_disabled": 0, "rental_uris": {"android": "https://dc.lft.to/lastmile_qr_scan", "ios": "https://dc.lft.to/lastmile_qr_scan"}, "fusion_lon": 0.0, "lat": 38.90411, "bike_id": "ba9e759f7fc5a68db8c1abb7d307580c", "type": "electric_scooter", "is_reserved": 0, "lon": -77.036705}, {"fusion_lat": 0.0, "name": "3ce0cd6de5b1254eb88d476832c38f82", "is_disabled": 0, "rental_uris": {"android": "https://dc.lft.to/lastmile_qr_scan", "ios": "https://dc.lft.to/lastmile_qr_scan"}, "fusion_lon": 0.0, "lat": 38.895217, "bike_id": "3ce0cd6de5b1254eb88d476832c38f82", "type": "electric_scooter", "is_reserved": 0, "lon": -77.00921283333334}, {"fusion_lat": 0.0, "name": "f51c9a28f531c7789583a15735b149f9", "is_disabled": 0, "rental_uris": {"android": "https://dc.lft.to/lastmile_qr_scan", "ios": "https://dc.lft.to/lastmile_qr_scan"}, "fusion_lon": 0.0, "lat": 38.9016225, "bike_id": "f51c9a28f531c7789583a15735b149f9", "type": "electric_scooter", "is_reserved": 0, "lon": -77.03177433333333}, {"fusion_lat": 0.0, "name": "c70985f2d91fafabc1b07693b75ff58a", "is_disabled": 0, "rental_uris": {"android": "https://dc.lft.to/lastmile_qr_scan", "ios": "https://dc.lft.to/lastmile_qr_scan"}, "fusion_lon": 0.0, "lat": 38.922624166666665, "bike_id": "c70985f2d91fafabc1b07693b75ff58a", "type": "electric_scooter", "is_reserved": 0, "lon": -77.03661983333333}, {"fusion_lat": 0.0, "name": "24212447a95c86cca102aadd608c91f9", "is_disabled": 0, "rental_uris": {"android": "https://dc.lft.to/lastmile_qr_scan", "ios": "https://dc.lft.to/lastmile_qr_scan"}, "fusion_lon": 0.0, "lat": 38.92250966666667, "bike_id": "24212447a95c86cca102aadd608c91f9", "type": "electric_scooter", "is_reserved": 0, "lon": -77.042475}, {"fusion_lat": 0.0, "name": "f13bc4bc948d34349177b7da3c08ba89", "is_disabled": 0, "rental_uris": {"android": "https://dc.lft.to/lastmile_qr_scan", "ios": "https://dc.lft.to/lastmile_qr_scan"}, "fusion_lon": 0.0, "lat": 38.92380266666667, "bike_id": "f13bc4bc948d34349177b7da3c08ba89", "type": "electric_scooter", "is_reserved": 0, "lon": -77.0273765}, {"fusion_lat": 0.0, "name": "7fd3e66bbd551e93370d19ce5ec1c734", "is_disabled": 0, "rental_uris": {"android": "https://dc.lft.to/lastmile_qr_scan", "ios": "https://dc.lft.to/lastmile_qr_scan"}, "fusion_lon": 0.0, "lat": 38.91288483333334, "bike_id": "7fd3e66bbd551e93370d19ce5ec1c734", "type": "electric_scooter", "is_reserved": 0, "lon": -77.045263}, {"fusion_lat": 0.0, "name": "c2c514a46d282308c0e392056fb7f8d3", "is_disabled": 0, "rental_uris": {"android": "https://dc.lft.to/lastmile_qr_scan", "ios": "https://dc.lft.to/lastmile_qr_scan"}, "fusion_lon": 0.0, "lat": 38.91165433333333, "bike_id": "c2c514a46d282308c0e392056fb7f8d3", "type": "electric_scooter", "is_reserved": 0, "lon": -76.98726733333334}, {"fusion_lat": 0.0, "name": "570b1855f69800ffaeeef4cc1c2fb8c0", "is_disabled": 0, "rental_uris": {"android": "https://dc.lft.to/lastmile_qr_scan", "ios": "https://dc.lft.to/lastmile_qr_scan"}, "fusion_lon": 0.0, "lat": 38.909587333333334, "bike_id": "570b1855f69800ffaeeef4cc1c2fb8c0", "type": "electric_scooter", "is_reserved": 0, "lon": -77.02369783333333}, {"fusion_lat": 0.0, "name": "f95e3138d4da293a8109dbe8dd758551", "is_disabled": 0, "rental_uris": {"android": "https://dc.lft.to/lastmile_qr_scan", "ios": "https://dc.lft.to/lastmile_qr_scan"}, "fusion_lon": 0.0, "lat": 38.8985545, "bike_id": "f95e3138d4da293a8109dbe8dd758551", "type": "electric_scooter", "is_reserved": 0, "lon": -77.0222215}, {"fusion_lat": 0.0, "name": "a723108a470318fd54a723252090d27f", "is_disabled": 0, "rental_uris": {"android": "https://dc.lft.to/lastmile_qr_scan", "ios": "https://dc.lft.to/lastmile_qr_scan"}, "fusion_lon": 0.0, "lat": 38.9054085, "bike_id": "a723108a470318fd54a723252090d27f", "type": "electric_scooter", "is_reserved": 0, "lon": -76.98197066666667}, {"fusion_lat": 0.0, "name": "cfd50f2ada7dfb17d39de1e972016120", "is_disabled": 0, "rental_uris": {"android": "https://dc.lft.to/lastmile_qr_scan", "ios": "https://dc.lft.to/lastmile_qr_scan"}, "fusion_lon": 0.0, "lat": 38.916554166666664, "bike_id": "cfd50f2ada7dfb17d39de1e972016120", "type": "electric_scooter", "is_reserved": 0, "lon": -77.00955333333333}, {"fusion_lat": 0.0, "name": "675d732230017d07da18dfe05eab396d", "is_disabled": 0, "rental_uris": {"android": "https://dc.lft.to/lastmile_qr_scan", "ios": "https://dc.lft.to/lastmile_qr_scan"}, "fusion_lon": 0.0, "lat": 38.907833333333336, "bike_id": "675d732230017d07da18dfe05eab396d", "type": "electric_scooter", "is_reserved": 0, "lon": -77.0386175}, {"fusion_lat": 0.0, "name": "966550e84080b7be0d40da59cacde326", "is_disabled": 0, "rental_uris": {"android": "https://dc.lft.to/lastmile_qr_scan", "ios": "https://dc.lft.to/lastmile_qr_scan"}, "fusion_lon": 0.0, "lat": 38.9308575, "bike_id": "966550e84080b7be0d40da59cacde326", "type": "electric_scooter", "is_reserved": 0, "lon": -77.02557083333333}, {"fusion_lat": 0.0, "name": "6099c0fc28ee226b79eafa6f55c860ff", "is_disabled": 0, "rental_uris": {"android": "https://dc.lft.to/lastmile_qr_scan", "ios": "https://dc.lft.to/lastmile_qr_scan"}, "fusion_lon": 0.0, "lat": 38.912706, "bike_id": "6099c0fc28ee226b79eafa6f55c860ff", "type": "electric_scooter", "is_reserved": 0, "lon": -77.03871433333333}, {"fusion_lat": 0.0, "name": "1b3db74a9fdb871efccd36b1f028d0a4", "is_disabled": 0, "rental_uris": {"android": "https://dc.lft.to/lastmile_qr_scan", "ios": "https://dc.lft.to/lastmile_qr_scan"}, "fusion_lon": 0.0, "lat": 38.86515683333333, "bike_id": "1b3db74a9fdb871efccd36b1f028d0a4", "type": "electric_bike", "is_reserved": 0, "lon": -77.12937466666666}, {"fusion_lat": 0.0, "name": "609f2e0dc7afc23ac4ebd3171a6f280b", "is_disabled": 0, "rental_uris": {"android": "https://dc.lft.to/lastmile_qr_scan", "ios": "https://dc.lft.to/lastmile_qr_scan"}, "fusion_lon": 0.0, "lat": 38.904931166666664, "bike_id": "609f2e0dc7afc23ac4ebd3171a6f280b", "type": "electric_scooter", "is_reserved": 0, "lon": -77.02683583333334}, {"fusion_lat": 0.0, "name": "79b3fcd0a9b5dc31ae979933782d7db9", "is_disabled": 0, "rental_uris": {"android": "https://dc.lft.to/lastmile_qr_scan", "ios": "https://dc.lft.to/lastmile_qr_scan"}, "fusion_lon": 0.0, "lat": 38.9296035, "bike_id": "79b3fcd0a9b5dc31ae979933782d7db9", "type": "electric_scooter", "is_reserved": 0, "lon": -77.0309885}, {"fusion_lat": 0.0, "name": "8210ce7555c550dbceb9a84a15c501d2", "is_disabled": 0, "rental_uris": {"android": "https://dc.lft.to/lastmile_qr_scan", "ios": "https://dc.lft.to/lastmile_qr_scan"}, "fusion_lon": 0.0, "lat": 38.901886166666664, "bike_id": "8210ce7555c550dbceb9a84a15c501d2", "type": "electric_scooter", "is_reserved": 0, "lon": -77.02466483333333}, {"fusion_lat": 0.0, "name": "3128735f50b3a913e3fd16e6577db119", "is_disabled": 0, "rental_uris": {"android": "https://dc.lft.to/lastmile_qr_scan", "ios": "https://dc.lft.to/lastmile_qr_scan"}, "fusion_lon": 0.0, "lat": 38.888344833333335, "bike_id": "3128735f50b3a913e3fd16e6577db119", "type": "electric_scooter", "is_reserved": 0, "lon": -77.0490865}, {"fusion_lat": 0.0, "name": "219e534a3c7e283fd3d571486baeb2b4", "is_disabled": 0, "rental_uris": {"android": "https://dc.lft.to/lastmile_qr_scan", "ios": "https://dc.lft.to/lastmile_qr_scan"}, "fusion_lon": 0.0, "lat": 38.9140135, "bike_id": "219e534a3c7e283fd3d571486baeb2b4", "type": "electric_scooter", "is_reserved": 0, "lon": -77.042494}, {"fusion_lat": 0.0, "name": "7d07c32d82579f44e194435cb248c929", "is_disabled": 0, "rental_uris": {"android": "https://dc.lft.to/lastmile_qr_scan", "ios": "https://dc.lft.to/lastmile_qr_scan"}, "fusion_lon": 0.0, "lat": 38.90382283333334, "bike_id": "7d07c32d82579f44e194435cb248c929", "type": "electric_scooter", "is_reserved": 0, "lon": -77.01745616666666}, {"fusion_lat": 0.0, "name": "fa779719cd2d6865c708a6f582edbbd6", "is_disabled": 0, "rental_uris": {"android": "https://dc.lft.to/lastmile_qr_scan", "ios": "https://dc.lft.to/lastmile_qr_scan"}, "fusion_lon": 0.0, "lat": 38.9224085, "bike_id": "fa779719cd2d6865c708a6f582edbbd6", "type": "electric_scooter", "is_reserved": 0, "lon": -77.02236816666667}, {"fusion_lat": 0.0, "name": "e3dec363732a32bd8f0412f1fe4b0584", "is_disabled": 0, "rental_uris": {"android": "https://dc.lft.to/lastmile_qr_scan", "ios": "https://dc.lft.to/lastmile_qr_scan"}, "fusion_lon": 0.0, "lat": 38.96600433333333, "bike_id": "e3dec363732a32bd8f0412f1fe4b0584", "type": "electric_bike", "is_reserved": 0, "lon": -77.028033}, {"fusion_lat": 0.0, "name": "de53b17ccb515194706d1c6f493dc319", "is_disabled": 0, "rental_uris": {"android": "https://dc.lft.to/lastmile_qr_scan", "ios": "https://dc.lft.to/lastmile_qr_scan"}, "fusion_lon": 0.0, "lat": 38.90134166666667, "bike_id": "de53b17ccb515194706d1c6f493dc319", "type": "electric_scooter", "is_reserved": 0, "lon": -77.02342783333333}, {"fusion_lat": 0.0, "name": "e4822016ce52f8fd3fcaeb1ca5ed2fa5", "is_disabled": 0, "rental_uris": {"android": "https://dc.lft.to/lastmile_qr_scan", "ios": "https://dc.lft.to/lastmile_qr_scan"}, "fusion_lon": 0.0, "lat": 38.87800266666667, "bike_id": "e4822016ce52f8fd3fcaeb1ca5ed2fa5", "type": "electric_scooter", "is_reserved": 0, "lon": -77.0176125}, {"fusion_lat": 0.0, "name": "38c5c8acdc6c830225f421a6aebe2f9f", "is_disabled": 0, "rental_uris": {"android": "https://dc.lft.to/lastmile_qr_scan", "ios": "https://dc.lft.to/lastmile_qr_scan"}, "fusion_lon": 0.0, "lat": 38.92207466666667, "bike_id": "38c5c8acdc6c830225f421a6aebe2f9f", "type": "electric_scooter", "is_reserved": 0, "lon": -77.02346883333334}, {"fusion_lat": 0.0, "name": "87bf97d15affc7d30e38903e63b46901", "is_disabled": 0, "rental_uris": {"android": "https://dc.lft.to/lastmile_qr_scan", "ios": "https://dc.lft.to/lastmile_qr_scan"}, "fusion_lon": 0.0, "lat": 38.922739, "bike_id": "87bf97d15affc7d30e38903e63b46901", "type": "electric_scooter", "is_reserved": 0, "lon": -76.99750933333334}, {"fusion_lat": 0.0, "name": "bbed6badc6eb4518edae683ce92e78ce", "is_disabled": 0, "rental_uris": {"android": "https://dc.lft.to/lastmile_qr_scan", "ios": "https://dc.lft.to/lastmile_qr_scan"}, "fusion_lon": 0.0, "lat": 38.89739016666667, "bike_id": "bbed6badc6eb4518edae683ce92e78ce", "type": "electric_scooter", "is_reserved": 0, "lon": -77.009263}, {"fusion_lat": 0.0, "name": "f596476d46e12c3870fa4e603c42b048", "is_disabled": 0, "rental_uris": {"android": "https://dc.lft.to/lastmile_qr_scan", "ios": "https://dc.lft.to/lastmile_qr_scan"}, "fusion_lon": 0.0, "lat": 38.9094255, "bike_id": "f596476d46e12c3870fa4e603c42b048", "type": "electric_scooter", "is_reserved": 0, "lon": -76.98765383333334}, {"fusion_lat": 0.0, "name": "b710a61593784191168058916b1fadd1", "is_disabled": 0, "rental_uris": {"android": "https://dc.lft.to/lastmile_qr_scan", "ios": "https://dc.lft.to/lastmile_qr_scan"}, "fusion_lon": 0.0, "lat": 38.9002655, "bike_id": "b710a61593784191168058916b1fadd1", "type": "electric_scooter", "is_reserved": 0, "lon": -76.9739955}, {"fusion_lat": 0.0, "name": "1271075a2386351a4656f272e2d1e0a5", "is_disabled": 0, "rental_uris": {"android": "https://dc.lft.to/lastmile_qr_scan", "ios": "https://dc.lft.to/lastmile_qr_scan"}, "fusion_lon": 0.0, "lat": 38.91254983333333, "bike_id": "1271075a2386351a4656f272e2d1e0a5", "type": "electric_scooter", "is_reserved": 0, "lon": -77.03866733333334}, {"fusion_lat": 0.0, "name": "ba3db4a63cb3484a438be850a99e36e8", "is_disabled": 0, "rental_uris": {"android": "https://dc.lft.to/lastmile_qr_scan", "ios": "https://dc.lft.to/lastmile_qr_scan"}, "fusion_lon": 0.0, "lat": 38.90659433333333, "bike_id": "ba3db4a63cb3484a438be850a99e36e8", "type": "electric_scooter", "is_reserved": 0, "lon": -76.999806}, {"fusion_lat": 0.0, "name": "6eca57781d326026e88128d9f7311502", "is_disabled": 0, "rental_uris": {"android": "https://dc.lft.to/lastmile_qr_scan", "ios": "https://dc.lft.to/lastmile_qr_scan"}, "fusion_lon": 0.0, "lat": 38.904766333333335, "bike_id": "6eca57781d326026e88128d9f7311502", "type": "electric_bike", "is_reserved": 0, "lon": -77.01886383333333}, {"fusion_lat": 0.0, "name": "926e3e1ec5f5ee254cd0f7996bcbcc7c", "is_disabled": 0, "rental_uris": {"android": "https://dc.lft.to/lastmile_qr_scan", "ios": "https://dc.lft.to/lastmile_qr_scan"}, "fusion_lon": 0.0, "lat": 38.9199725, "bike_id": "926e3e1ec5f5ee254cd0f7996bcbcc7c", "type": "electric_scooter", "is_reserved": 0, "lon": -77.02371}, {"fusion_lat": 0.0, "name": "7342f109cbb71433d95aaa9234ba57fa", "is_disabled": 0, "rental_uris": {"android": "https://dc.lft.to/lastmile_qr_scan", "ios": "https://dc.lft.to/lastmile_qr_scan"}, "fusion_lon": 0.0, "lat": 38.930491, "bike_id": "7342f109cbb71433d95aaa9234ba57fa", "type": "electric_scooter", "is_reserved": 0, "lon": -77.03794866666667}, {"fusion_lat": 0.0, "name": "d72f019ae00026132909766b336338eb", "is_disabled": 0, "rental_uris": {"android": "https://dc.lft.to/lastmile_qr_scan", "ios": "https://dc.lft.to/lastmile_qr_scan"}, "fusion_lon": 0.0, "lat": 38.9419585, "bike_id": "d72f019ae00026132909766b336338eb", "type": "electric_scooter", "is_reserved": 0, "lon": -77.02588566666667}, {"fusion_lat": 0.0, "name": "dd74b36f92c9fe2af08b3648e84ee234", "is_disabled": 0, "rental_uris": {"android": "https://dc.lft.to/lastmile_qr_scan", "ios": "https://dc.lft.to/lastmile_qr_scan"}, "fusion_lon": 0.0, "lat": 38.956342, "bike_id": "dd74b36f92c9fe2af08b3648e84ee234", "type": "electric_scooter", "is_reserved": 0, "lon": -77.0330645}, {"fusion_lat": 0.0, "name": "c45f4d25a2a7a6b4f0c8661dedbd1a39", "is_disabled": 0, "rental_uris": {"android": "https://dc.lft.to/lastmile_qr_scan", "ios": "https://dc.lft.to/lastmile_qr_scan"}, "fusion_lon": 0.0, "lat": 38.91414133333333, "bike_id": "c45f4d25a2a7a6b4f0c8661dedbd1a39", "type": "electric_scooter", "is_reserved": 0, "lon": -77.04074}, {"fusion_lat": 0.0, "name": "2eefe7b6764c4cc748f5851cdb30fb00", "is_disabled": 0, "rental_uris": {"android": "https://dc.lft.to/lastmile_qr_scan", "ios": "https://dc.lft.to/lastmile_qr_scan"}, "fusion_lon": 0.0, "lat": 38.84507683333333, "bike_id": "2eefe7b6764c4cc748f5851cdb30fb00", "type": "electric_bike", "is_reserved": 0, "lon": -76.99349666666667}, {"fusion_lat": 0.0, "name": "1cffd89a237bee0deb4f491bced707d6", "is_disabled": 0, "rental_uris": {"android": "https://dc.lft.to/lastmile_qr_scan", "ios": "https://dc.lft.to/lastmile_qr_scan"}, "fusion_lon": 0.0, "lat": 38.907322, "bike_id": "1cffd89a237bee0deb4f491bced707d6", "type": "electric_scooter", "is_reserved": 0, "lon": -77.02804483333334}, {"fusion_lat": 0.0, "name": "28f0be6fa9d0204792b2d524679aa90a", "is_disabled": 0, "rental_uris": {"android": "https://dc.lft.to/lastmile_qr_scan", "ios": "https://dc.lft.to/lastmile_qr_scan"}, "fusion_lon": 0.0, "lat": 38.911275833333335, "bike_id": "28f0be6fa9d0204792b2d524679aa90a", "type": "electric_scooter", "is_reserved": 0, "lon": -77.02199566666667}, {"fusion_lat": 0.0, "name": "9da08837b0ac71a84717db0758b0c648", "is_disabled": 0, "rental_uris": {"android": "https://dc.lft.to/lastmile_qr_scan", "ios": "https://dc.lft.to/lastmile_qr_scan"}, "fusion_lon": 0.0, "lat": 38.91330966666666, "bike_id": "9da08837b0ac71a84717db0758b0c648", "type": "electric_scooter", "is_reserved": 0, "lon": -77.01502033333334}, {"fusion_lat": 0.0, "name": "54ba7be8b6192d4aab3455d8267ca646", "is_disabled": 0, "rental_uris": {"android": "https://dc.lft.to/lastmile_qr_scan", "ios": "https://dc.lft.to/lastmile_qr_scan"}, "fusion_lon": 0.0, "lat": 38.91732966666667, "bike_id": "54ba7be8b6192d4aab3455d8267ca646", "type": "electric_scooter", "is_reserved": 0, "lon": -77.036589}, {"fusion_lat": 0.0, "name": "fb6c78f19ee6fe67cb8293dd4c06ec2e", "is_disabled": 0, "rental_uris": {"android": "https://dc.lft.to/lastmile_qr_scan", "ios": "https://dc.lft.to/lastmile_qr_scan"}, "fusion_lon": 0.0, "lat": 38.90095783333334, "bike_id": "fb6c78f19ee6fe67cb8293dd4c06ec2e", "type": "electric_scooter", "is_reserved": 0, "lon": -77.02209533333334}, {"fusion_lat": 0.0, "name": "5d57724e2a32687564b49bd176d9f8c7", "is_disabled": 0, "rental_uris": {"android": "https://dc.lft.to/lastmile_qr_scan", "ios": "https://dc.lft.to/lastmile_qr_scan"}, "fusion_lon": 0.0, "lat": 38.908413333333336, "bike_id": "5d57724e2a32687564b49bd176d9f8c7", "type": "electric_scooter", "is_reserved": 0, "lon": -76.99771916666667}, {"fusion_lat": 0.0, "name": "9a0cbe32b3ccca5679e70a5cf12d404b", "is_disabled": 0, "rental_uris": {"android": "https://dc.lft.to/lastmile_qr_scan", "ios": "https://dc.lft.to/lastmile_qr_scan"}, "fusion_lon": 0.0, "lat": 38.917063166666665, "bike_id": "9a0cbe32b3ccca5679e70a5cf12d404b", "type": "electric_scooter", "is_reserved": 0, "lon": -77.03871366666667}, {"fusion_lat": 0.0, "name": "3969d5410445240bc2600279fa1c4b31", "is_disabled": 0, "rental_uris": {"android": "https://dc.lft.to/lastmile_qr_scan", "ios": "https://dc.lft.to/lastmile_qr_scan"}, "fusion_lon": 0.0, "lat": 38.9015275, "bike_id": "3969d5410445240bc2600279fa1c4b31", "type": "electric_scooter", "is_reserved": 0, "lon": -76.93065083333333}, {"fusion_lat": 0.0, "name": "11d13a5b7e261977f9fe5f2f6debc0e7", "is_disabled": 0, "rental_uris": {"android": "https://dc.lft.to/lastmile_qr_scan", "ios": "https://dc.lft.to/lastmile_qr_scan"}, "fusion_lon": 0.0, "lat": 38.9223545, "bike_id": "11d13a5b7e261977f9fe5f2f6debc0e7", "type": "electric_scooter", "is_reserved": 0, "lon": -77.04244483333333}, {"fusion_lat": 0.0, "name": "77ed6166b48ebed46f137333c52c07f9", "is_disabled": 0, "rental_uris": {"android": "https://dc.lft.to/lastmile_qr_scan", "ios": "https://dc.lft.to/lastmile_qr_scan"}, "fusion_lon": 0.0, "lat": 38.906819166666665, "bike_id": "77ed6166b48ebed46f137333c52c07f9", "type": "electric_bike", "is_reserved": 0, "lon": -76.94493433333334}, {"fusion_lat": 0.0, "name": "fea450cd14c383b550274a0801a40278", "is_disabled": 0, "rental_uris": {"android": "https://dc.lft.to/lastmile_qr_scan", "ios": "https://dc.lft.to/lastmile_qr_scan"}, "fusion_lon": 0.0, "lat": 38.961264666666665, "bike_id": "fea450cd14c383b550274a0801a40278", "type": "electric_bike", "is_reserved": 0, "lon": -77.03274883333333}, {"fusion_lat": 0.0, "name": "5e44c9d23f6264fa07ea0e5980017da4", "is_disabled": 0, "rental_uris": {"android": "https://dc.lft.to/lastmile_qr_scan", "ios": "https://dc.lft.to/lastmile_qr_scan"}, "fusion_lon": 0.0, "lat": 38.92317466666667, "bike_id": "5e44c9d23f6264fa07ea0e5980017da4", "type": "electric_scooter", "is_reserved": 0, "lon": -77.04133716666666}, {"fusion_lat": 0.0, "name": "5ec291e34cf79974362e620be1bb2c39", "is_disabled": 0, "rental_uris": {"android": "https://dc.lft.to/lastmile_qr_scan", "ios": "https://dc.lft.to/lastmile_qr_scan"}, "fusion_lon": 0.0, "lat": 38.9274245, "bike_id": "5ec291e34cf79974362e620be1bb2c39", "type": "electric_bike", "is_reserved": 0, "lon": -76.9936905}, {"fusion_lat": 0.0, "name": "e9c1a79fea5d6b97a155929fc1bdc0b2", "is_disabled": 0, "rental_uris": {"android": "https://dc.lft.to/lastmile_qr_scan", "ios": "https://dc.lft.to/lastmile_qr_scan"}, "fusion_lon": 0.0, "lat": 38.91336666666667, "bike_id": "e9c1a79fea5d6b97a155929fc1bdc0b2", "type": "electric_scooter", "is_reserved": 0, "lon": -77.04274583333333}, {"fusion_lat": 0.0, "name": "f53e875672147b7b02c31ba1bd0b27b2", "is_disabled": 0, "rental_uris": {"android": "https://dc.lft.to/lastmile_qr_scan", "ios": "https://dc.lft.to/lastmile_qr_scan"}, "fusion_lon": 0.0, "lat": 38.928091, "bike_id": "f53e875672147b7b02c31ba1bd0b27b2", "type": "electric_scooter", "is_reserved": 0, "lon": -77.04359733333334}, {"fusion_lat": 0.0, "name": "c4d2a2d06724c1008b6a01e2e176fb30", "is_disabled": 0, "rental_uris": {"android": "https://dc.lft.to/lastmile_qr_scan", "ios": "https://dc.lft.to/lastmile_qr_scan"}, "fusion_lon": 0.0, "lat": 38.897315166666665, "bike_id": "c4d2a2d06724c1008b6a01e2e176fb30", "type": "electric_scooter", "is_reserved": 0, "lon": -76.94704883333333}, {"fusion_lat": 0.0, "name": "30cb211139cb8bd554a784272f86422a", "is_disabled": 0, "rental_uris": {"android": "https://dc.lft.to/lastmile_qr_scan", "ios": "https://dc.lft.to/lastmile_qr_scan"}, "fusion_lon": 0.0, "lat": 38.960712666666666, "bike_id": "30cb211139cb8bd554a784272f86422a", "type": "electric_scooter", "is_reserved": 0, "lon": -77.00096433333333}, {"fusion_lat": 0.0, "name": "9f6f375f2eca11f1fb7409f22388b81a", "is_disabled": 0, "rental_uris": {"android": "https://dc.lft.to/lastmile_qr_scan", "ios": "https://dc.lft.to/lastmile_qr_scan"}, "fusion_lon": 0.0, "lat": 38.90453316666667, "bike_id": "9f6f375f2eca11f1fb7409f22388b81a", "type": "electric_scooter", "is_reserved": 0, "lon": -77.0485805}, {"fusion_lat": 0.0, "name": "a179c0b77451eee4fddc96e8b77fd639", "is_disabled": 0, "rental_uris": {"android": "https://dc.lft.to/lastmile_qr_scan", "ios": "https://dc.lft.to/lastmile_qr_scan"}, "fusion_lon": 0.0, "lat": 38.88475316666667, "bike_id": "a179c0b77451eee4fddc96e8b77fd639", "type": "electric_scooter", "is_reserved": 0, "lon": -77.02365516666667}, {"fusion_lat": 0.0, "name": "fc9f8e5f6a55b8792c24c5f0483d47d5", "is_disabled": 0, "rental_uris": {"android": "https://dc.lft.to/lastmile_qr_scan", "ios": "https://dc.lft.to/lastmile_qr_scan"}, "fusion_lon": 0.0, "lat": 38.9019545, "bike_id": "fc9f8e5f6a55b8792c24c5f0483d47d5", "type": "electric_scooter", "is_reserved": 0, "lon": -77.02364683333333}, {"fusion_lat": 0.0, "name": "ccc3b6f72697eb8f58a2605a5d2c0f6f", "is_disabled": 0, "rental_uris": {"android": "https://dc.lft.to/lastmile_qr_scan", "ios": "https://dc.lft.to/lastmile_qr_scan"}, "fusion_lon": 0.0, "lat": 38.862883833333335, "bike_id": "ccc3b6f72697eb8f58a2605a5d2c0f6f", "type": "electric_bike", "is_reserved": 0, "lon": -77.06344316666667}, {"fusion_lat": 0.0, "name": "1e42c74fcbcf9a90114e7200e8c84fda", "is_disabled": 0, "rental_uris": {"android": "https://dc.lft.to/lastmile_qr_scan", "ios": "https://dc.lft.to/lastmile_qr_scan"}, "fusion_lon": 0.0, "lat": 38.932456333333334, "bike_id": "1e42c74fcbcf9a90114e7200e8c84fda", "type": "electric_scooter", "is_reserved": 0, "lon": -77.03411433333333}, {"fusion_lat": 0.0, "name": "35983cbef7957792f7e6a17491535a86", "is_disabled": 0, "rental_uris": {"android": "https://dc.lft.to/lastmile_qr_scan", "ios": "https://dc.lft.to/lastmile_qr_scan"}, "fusion_lon": 0.0, "lat": 38.907816833333335, "bike_id": "35983cbef7957792f7e6a17491535a86", "type": "electric_scooter", "is_reserved": 0, "lon": -77.00206833333333}, {"fusion_lat": 0.0, "name": "d70f9ce1f4dc60afb099b9c5159a254d", "is_disabled": 0, "rental_uris": {"android": "https://dc.lft.to/lastmile_qr_scan", "ios": "https://dc.lft.to/lastmile_qr_scan"}, "fusion_lon": 0.0, "lat": 38.915654, "bike_id": "d70f9ce1f4dc60afb099b9c5159a254d", "type": "electric_scooter", "is_reserved": 0, "lon": -77.01036783333333}, {"fusion_lat": 0.0, "name": "85fded70a9ac9a04dda1aeebdec8f851", "is_disabled": 0, "rental_uris": {"android": "https://dc.lft.to/lastmile_qr_scan", "ios": "https://dc.lft.to/lastmile_qr_scan"}, "fusion_lon": 0.0, "lat": 38.88346766666667, "bike_id": "85fded70a9ac9a04dda1aeebdec8f851", "type": "electric_scooter", "is_reserved": 0, "lon": -76.93503083333333}, {"fusion_lat": 0.0, "name": "a6ddd53c6603016a991466d988f316f9", "is_disabled": 0, "rental_uris": {"android": "https://dc.lft.to/lastmile_qr_scan", "ios": "https://dc.lft.to/lastmile_qr_scan"}, "fusion_lon": 0.0, "lat": 38.9013275, "bike_id": "a6ddd53c6603016a991466d988f316f9", "type": "electric_scooter", "is_reserved": 0, "lon": -77.0445965}, {"fusion_lat": 0.0, "name": "260980bf14f1b339efb30fe3b64f1384", "is_disabled": 0, "rental_uris": {"android": "https://dc.lft.to/lastmile_qr_scan", "ios": "https://dc.lft.to/lastmile_qr_scan"}, "fusion_lon": 0.0, "lat": 38.9438805, "bike_id": "260980bf14f1b339efb30fe3b64f1384", "type": "electric_scooter", "is_reserved": 0, "lon": -77.09505733333333}, {"fusion_lat": 0.0, "name": "d2fe94a8d2eb4b6a0ceb256b555afedb", "is_disabled": 0, "rental_uris": {"android": "https://dc.lft.to/lastmile_qr_scan", "ios": "https://dc.lft.to/lastmile_qr_scan"}, "fusion_lon": 0.0, "lat": 38.9216105, "bike_id": "d2fe94a8d2eb4b6a0ceb256b555afedb", "type": "electric_scooter", "is_reserved": 0, "lon": -77.0326675}, {"fusion_lat": 0.0, "name": "4d9d9bbc278b5f0e6d87af3006ca88b3", "is_disabled": 0, "rental_uris": {"android": "https://dc.lft.to/lastmile_qr_scan", "ios": "https://dc.lft.to/lastmile_qr_scan"}, "fusion_lon": 0.0, "lat": 38.890274, "bike_id": "4d9d9bbc278b5f0e6d87af3006ca88b3", "type": "electric_scooter", "is_reserved": 0, "lon": -77.03176616666667}, {"fusion_lat": 0.0, "name": "cf5970c9b54741d0f6871424e49b86c9", "is_disabled": 0, "rental_uris": {"android": "https://dc.lft.to/lastmile_qr_scan", "ios": "https://dc.lft.to/lastmile_qr_scan"}, "fusion_lon": 0.0, "lat": 38.9209825, "bike_id": "cf5970c9b54741d0f6871424e49b86c9", "type": "electric_scooter", "is_reserved": 0, "lon": -77.02517583333334}, {"fusion_lat": 0.0, "name": "e984d202a3433728bf3a376f6057b410", "is_disabled": 0, "rental_uris": {"android": "https://dc.lft.to/lastmile_qr_scan", "ios": "https://dc.lft.to/lastmile_qr_scan"}, "fusion_lon": 0.0, "lat": 38.88301933333334, "bike_id": "e984d202a3433728bf3a376f6057b410", "type": "electric_scooter", "is_reserved": 0, "lon": -76.94853516666667}, {"fusion_lat": 0.0, "name": "9b94c3c72e95eb7ddba65e479d05b728", "is_disabled": 0, "rental_uris": {"android": "https://dc.lft.to/lastmile_qr_scan", "ios": "https://dc.lft.to/lastmile_qr_scan"}, "fusion_lon": 0.0, "lat": 38.90731866666667, "bike_id": "9b94c3c72e95eb7ddba65e479d05b728", "type": "electric_scooter", "is_reserved": 0, "lon": -76.935475}, {"fusion_lat": 0.0, "name": "8a566bf7a5fc5d0d958f1e2b436e0654", "is_disabled": 0, "rental_uris": {"android": "https://dc.lft.to/lastmile_qr_scan", "ios": "https://dc.lft.to/lastmile_qr_scan"}, "fusion_lon": 0.0, "lat": 38.92540783333333, "bike_id": "8a566bf7a5fc5d0d958f1e2b436e0654", "type": "electric_scooter", "is_reserved": 0, "lon": -77.007514}, {"fusion_lat": 0.0, "name": "89126fffce22312bfe3ff807baf8b603", "is_disabled": 0, "rental_uris": {"android": "https://dc.lft.to/lastmile_qr_scan", "ios": "https://dc.lft.to/lastmile_qr_scan"}, "fusion_lon": 0.0, "lat": 38.9040485, "bike_id": "89126fffce22312bfe3ff807baf8b603", "type": "electric_scooter", "is_reserved": 0, "lon": -77.06811983333333}, {"fusion_lat": 0.0, "name": "469bc140b2dd5fca6c85b0189ef21055", "is_disabled": 0, "rental_uris": {"android": "https://dc.lft.to/lastmile_qr_scan", "ios": "https://dc.lft.to/lastmile_qr_scan"}, "fusion_lon": 0.0, "lat": 38.917096, "bike_id": "469bc140b2dd5fca6c85b0189ef21055", "type": "electric_scooter", "is_reserved": 0, "lon": -77.03870616666667}, {"fusion_lat": 0.0, "name": "8aed490c4e13d84247791efb0d7301f3", "is_disabled": 0, "rental_uris": {"android": "https://dc.lft.to/lastmile_qr_scan", "ios": "https://dc.lft.to/lastmile_qr_scan"}, "fusion_lon": 0.0, "lat": 38.807108666666664, "bike_id": "8aed490c4e13d84247791efb0d7301f3", "type": "electric_bike", "is_reserved": 0, "lon": -77.06169066666666}, {"fusion_lat": 0.0, "name": "8b1b58a75de45963bcfcf2bb60261842", "is_disabled": 0, "rental_uris": {"android": "https://dc.lft.to/lastmile_qr_scan", "ios": "https://dc.lft.to/lastmile_qr_scan"}, "fusion_lon": 0.0, "lat": 38.819165, "bike_id": "8b1b58a75de45963bcfcf2bb60261842", "type": "electric_bike", "is_reserved": 0, "lon": -77.04791433333334}, {"fusion_lat": 0.0, "name": "bec7a8a05081ad4f7a56b09c66cb8e64", "is_disabled": 0, "rental_uris": {"android": "https://dc.lft.to/lastmile_qr_scan", "ios": "https://dc.lft.to/lastmile_qr_scan"}, "fusion_lon": 0.0, "lat": 38.927285833333336, "bike_id": "bec7a8a05081ad4f7a56b09c66cb8e64", "type": "electric_scooter", "is_reserved": 0, "lon": -77.03062}, {"fusion_lat": 0.0, "name": "96fe24051253fd93c59880e5e68794f5", "is_disabled": 0, "rental_uris": {"android": "https://dc.lft.to/lastmile_qr_scan", "ios": "https://dc.lft.to/lastmile_qr_scan"}, "fusion_lon": 0.0, "lat": 38.81247883333333, "bike_id": "96fe24051253fd93c59880e5e68794f5", "type": "electric_bike", "is_reserved": 0, "lon": -77.11770083333333}, {"fusion_lat": 0.0, "name": "5e77a7f5d21039d0326dcfdaaeb14b3f", "is_disabled": 0, "rental_uris": {"android": "https://dc.lft.to/lastmile_qr_scan", "ios": "https://dc.lft.to/lastmile_qr_scan"}, "fusion_lon": 0.0, "lat": 38.891015333333335, "bike_id": "5e77a7f5d21039d0326dcfdaaeb14b3f", "type": "electric_scooter", "is_reserved": 0, "lon": -76.99627633333333}, {"fusion_lat": 0.0, "name": "4e52b961b94e05851cfabee238f7e4ea", "is_disabled": 0, "rental_uris": {"android": "https://dc.lft.to/lastmile_qr_scan", "ios": "https://dc.lft.to/lastmile_qr_scan"}, "fusion_lon": 0.0, "lat": 38.90080616666667, "bike_id": "4e52b961b94e05851cfabee238f7e4ea", "type": "electric_scooter", "is_reserved": 0, "lon": -77.050823}, {"fusion_lat": 0.0, "name": "94f8b2bb89619512edc3b19586b22a73", "is_disabled": 0, "rental_uris": {"android": "https://dc.lft.to/lastmile_qr_scan", "ios": "https://dc.lft.to/lastmile_qr_scan"}, "fusion_lon": 0.0, "lat": 38.89809266666666, "bike_id": "94f8b2bb89619512edc3b19586b22a73", "type": "electric_scooter", "is_reserved": 0, "lon": -77.04671883333333}, {"fusion_lat": 0.0, "name": "b81382ef5faa4ebd53b13fbcc3529e09", "is_disabled": 0, "rental_uris": {"android": "https://dc.lft.to/lastmile_qr_scan", "ios": "https://dc.lft.to/lastmile_qr_scan"}, "fusion_lon": 0.0, "lat": 38.906678166666666, "bike_id": "b81382ef5faa4ebd53b13fbcc3529e09", "type": "electric_scooter", "is_reserved": 0, "lon": -77.034692}, {"fusion_lat": 0.0, "name": "3d0f685827b6e141e952742fff2edf03", "is_disabled": 0, "rental_uris": {"android": "https://dc.lft.to/lastmile_qr_scan", "ios": "https://dc.lft.to/lastmile_qr_scan"}, "fusion_lon": 0.0, "lat": 38.91268, "bike_id": "3d0f685827b6e141e952742fff2edf03", "type": "electric_scooter", "is_reserved": 0, "lon": -77.038678}, {"fusion_lat": 0.0, "name": "bf7322634dab7f2630ab65dfa197cfe2", "is_disabled": 0, "rental_uris": {"android": "https://dc.lft.to/lastmile_qr_scan", "ios": "https://dc.lft.to/lastmile_qr_scan"}, "fusion_lon": 0.0, "lat": 38.900104, "bike_id": "bf7322634dab7f2630ab65dfa197cfe2", "type": "electric_scooter", "is_reserved": 0, "lon": -76.98807933333333}, {"fusion_lat": 0.0, "name": "0d957e92a52ab1078da61bb77cb513dc", "is_disabled": 0, "rental_uris": {"android": "https://dc.lft.to/lastmile_qr_scan", "ios": "https://dc.lft.to/lastmile_qr_scan"}, "fusion_lon": 0.0, "lat": 38.88404966666667, "bike_id": "0d957e92a52ab1078da61bb77cb513dc", "type": "electric_scooter", "is_reserved": 0, "lon": -77.00834616666667}, {"fusion_lat": 0.0, "name": "6009b908efdce9aa2fd9c8edf959d1bc", "is_disabled": 0, "rental_uris": {"android": "https://dc.lft.to/lastmile_qr_scan", "ios": "https://dc.lft.to/lastmile_qr_scan"}, "fusion_lon": 0.0, "lat": 38.922531166666666, "bike_id": "6009b908efdce9aa2fd9c8edf959d1bc", "type": "electric_scooter", "is_reserved": 0, "lon": -77.04257033333333}, {"fusion_lat": 0.0, "name": "3e818bfa5bbab08a4eb05117212dd20b", "is_disabled": 0, "rental_uris": {"android": "https://dc.lft.to/lastmile_qr_scan", "ios": "https://dc.lft.to/lastmile_qr_scan"}, "fusion_lon": 0.0, "lat": 38.97365683333334, "bike_id": "3e818bfa5bbab08a4eb05117212dd20b", "type": "electric_scooter", "is_reserved": 0, "lon": -77.01292816666667}, {"fusion_lat": 0.0, "name": "9dc9f7c2ceba00eff53883e5ac0cf6dc", "is_disabled": 0, "rental_uris": {"android": "https://dc.lft.to/lastmile_qr_scan", "ios": "https://dc.lft.to/lastmile_qr_scan"}, "fusion_lon": 0.0, "lat": 38.93822983333333, "bike_id": "9dc9f7c2ceba00eff53883e5ac0cf6dc", "type": "electric_scooter", "is_reserved": 0, "lon": -77.0264115}, {"fusion_lat": 0.0, "name": "b11e4aba07a8302194146380e20dd3d5", "is_disabled": 0, "rental_uris": {"android": "https://dc.lft.to/lastmile_qr_scan", "ios": "https://dc.lft.to/lastmile_qr_scan"}, "fusion_lon": 0.0, "lat": 38.909255, "bike_id": "b11e4aba07a8302194146380e20dd3d5", "type": "electric_scooter", "is_reserved": 0, "lon": -77.06253583333333}, {"fusion_lat": 0.0, "name": "bb8ade2a7fba6e4b2729dce4f69d71ed", "is_disabled": 0, "rental_uris": {"android": "https://dc.lft.to/lastmile_qr_scan", "ios": "https://dc.lft.to/lastmile_qr_scan"}, "fusion_lon": 0.0, "lat": 38.903562666666666, "bike_id": "bb8ade2a7fba6e4b2729dce4f69d71ed", "type": "electric_scooter", "is_reserved": 0, "lon": -76.97481183333333}, {"fusion_lat": 0.0, "name": "dc10caf06b91c6b02b7ec102cf925a3f", "is_disabled": 0, "rental_uris": {"android": "https://dc.lft.to/lastmile_qr_scan", "ios": "https://dc.lft.to/lastmile_qr_scan"}, "fusion_lon": 0.0, "lat": 38.90868833333333, "bike_id": "dc10caf06b91c6b02b7ec102cf925a3f", "type": "electric_scooter", "is_reserved": 0, "lon": -77.024312}, {"fusion_lat": 0.0, "name": "59f5ff9103b5dec3d2f9ab1525e66a3a", "is_disabled": 0, "rental_uris": {"android": "https://dc.lft.to/lastmile_qr_scan", "ios": "https://dc.lft.to/lastmile_qr_scan"}, "fusion_lon": 0.0, "lat": 38.93527266666667, "bike_id": "59f5ff9103b5dec3d2f9ab1525e66a3a", "type": "electric_scooter", "is_reserved": 0, "lon": -77.04521416666667}, {"fusion_lat": 0.0, "name": "750d616e7f0ae865eeea09f3f1fd0c6a", "is_disabled": 0, "rental_uris": {"android": "https://dc.lft.to/lastmile_qr_scan", "ios": "https://dc.lft.to/lastmile_qr_scan"}, "fusion_lon": 0.0, "lat": 38.93236616666667, "bike_id": "750d616e7f0ae865eeea09f3f1fd0c6a", "type": "electric_bike", "is_reserved": 0, "lon": -76.97425116666666}, {"fusion_lat": 0.0, "name": "98fc28bc54cd4bf01c0eddea2ef832e6", "is_disabled": 0, "rental_uris": {"android": "https://dc.lft.to/lastmile_qr_scan", "ios": "https://dc.lft.to/lastmile_qr_scan"}, "fusion_lon": 0.0, "lat": 38.93960666666667, "bike_id": "98fc28bc54cd4bf01c0eddea2ef832e6", "type": "electric_scooter", "is_reserved": 0, "lon": -77.03277083333333}, {"fusion_lat": 0.0, "name": "6e05641a41ec5b59f365a4f599bb8cdf", "is_disabled": 0, "rental_uris": {"android": "https://dc.lft.to/lastmile_qr_scan", "ios": "https://dc.lft.to/lastmile_qr_scan"}, "fusion_lon": 0.0, "lat": 38.92463883333333, "bike_id": "6e05641a41ec5b59f365a4f599bb8cdf", "type": "electric_bike", "is_reserved": 0, "lon": -77.23363383333333}, {"fusion_lat": 0.0, "name": "e75b5a590f1ab0d0da82bcd7e6a9c18f", "is_disabled": 0, "rental_uris": {"android": "https://dc.lft.to/lastmile_qr_scan", "ios": "https://dc.lft.to/lastmile_qr_scan"}, "fusion_lon": 0.0, "lat": 38.90549083333333, "bike_id": "e75b5a590f1ab0d0da82bcd7e6a9c18f", "type": "electric_scooter", "is_reserved": 0, "lon": -76.9833175}, {"fusion_lat": 0.0, "name": "b1d8899be20533ee99beab5b31741edf", "is_disabled": 0, "rental_uris": {"android": "https://dc.lft.to/lastmile_qr_scan", "ios": "https://dc.lft.to/lastmile_qr_scan"}, "fusion_lon": 0.0, "lat": 38.909275666666666, "bike_id": "b1d8899be20533ee99beab5b31741edf", "type": "electric_scooter", "is_reserved": 0, "lon": -77.062689}, {"fusion_lat": 0.0, "name": "b8210cd225ae8f3433a62a8c648b423b", "is_disabled": 0, "rental_uris": {"android": "https://dc.lft.to/lastmile_qr_scan", "ios": "https://dc.lft.to/lastmile_qr_scan"}, "fusion_lon": 0.0, "lat": 38.93484383333333, "bike_id": "b8210cd225ae8f3433a62a8c648b423b", "type": "electric_scooter", "is_reserved": 0, "lon": -77.04535216666666}, {"fusion_lat": 0.0, "name": "f52b30dae12046cc2ad45b128de71bc1", "is_disabled": 0, "rental_uris": {"android": "https://dc.lft.to/lastmile_qr_scan", "ios": "https://dc.lft.to/lastmile_qr_scan"}, "fusion_lon": 0.0, "lat": 38.89822483333333, "bike_id": "f52b30dae12046cc2ad45b128de71bc1", "type": "electric_scooter", "is_reserved": 0, "lon": -77.02810583333333}, {"fusion_lat": 0.0, "name": "14cd1327f6630704e0dda1e71590f0f8", "is_disabled": 0, "rental_uris": {"android": "https://dc.lft.to/lastmile_qr_scan", "ios": "https://dc.lft.to/lastmile_qr_scan"}, "fusion_lon": 0.0, "lat": 38.89670266666667, "bike_id": "14cd1327f6630704e0dda1e71590f0f8", "type": "electric_scooter", "is_reserved": 0, "lon": -76.932028}, {"fusion_lat": 0.0, "name": "30abb4a0fc30b53d5cb6e5ae3d762dbf", "is_disabled": 0, "rental_uris": {"android": "https://dc.lft.to/lastmile_qr_scan", "ios": "https://dc.lft.to/lastmile_qr_scan"}, "fusion_lon": 0.0, "lat": 38.905193, "bike_id": "30abb4a0fc30b53d5cb6e5ae3d762dbf", "type": "electric_scooter", "is_reserved": 0, "lon": -77.06788933333333}, {"fusion_lat": 0.0, "name": "7a9f4411118c152ea81399b131a42732", "is_disabled": 0, "rental_uris": {"android": "https://dc.lft.to/lastmile_qr_scan", "ios": "https://dc.lft.to/lastmile_qr_scan"}, "fusion_lon": 0.0, "lat": 38.921357666666665, "bike_id": "7a9f4411118c152ea81399b131a42732", "type": "electric_scooter", "is_reserved": 0, "lon": -77.03661016666666}, {"fusion_lat": 0.0, "name": "f95013e7b0704ca7176a6fc794cc524a", "is_disabled": 0, "rental_uris": {"android": "https://dc.lft.to/lastmile_qr_scan", "ios": "https://dc.lft.to/lastmile_qr_scan"}, "fusion_lon": 0.0, "lat": 38.932659, "bike_id": "f95013e7b0704ca7176a6fc794cc524a", "type": "electric_scooter", "is_reserved": 0, "lon": -77.01917466666667}, {"fusion_lat": 0.0, "name": "36000450852b7af7b6d6305f60215c4a", "is_disabled": 0, "rental_uris": {"android": "https://dc.lft.to/lastmile_qr_scan", "ios": "https://dc.lft.to/lastmile_qr_scan"}, "fusion_lon": 0.0, "lat": 38.907169833333334, "bike_id": "36000450852b7af7b6d6305f60215c4a", "type": "electric_scooter", "is_reserved": 0, "lon": -77.0318085}, {"fusion_lat": 0.0, "name": "2dc437bfdb66fe9055ae258485e64973", "is_disabled": 0, "rental_uris": {"android": "https://dc.lft.to/lastmile_qr_scan", "ios": "https://dc.lft.to/lastmile_qr_scan"}, "fusion_lon": 0.0, "lat": 38.901226, "bike_id": "2dc437bfdb66fe9055ae258485e64973", "type": "electric_scooter", "is_reserved": 0, "lon": -77.04976}, {"fusion_lat": 0.0, "name": "f1b5a38743835de2de0725fa0fdcc7bd", "is_disabled": 0, "rental_uris": {"android": "https://dc.lft.to/lastmile_qr_scan", "ios": "https://dc.lft.to/lastmile_qr_scan"}, "fusion_lon": 0.0, "lat": 38.899318, "bike_id": "f1b5a38743835de2de0725fa0fdcc7bd", "type": "electric_scooter", "is_reserved": 0, "lon": -77.021824}, {"fusion_lat": 0.0, "name": "caa3054693c88a99a97c9d81e799b64d", "is_disabled": 0, "rental_uris": {"android": "https://dc.lft.to/lastmile_qr_scan", "ios": "https://dc.lft.to/lastmile_qr_scan"}, "fusion_lon": 0.0, "lat": 38.9191505, "bike_id": "caa3054693c88a99a97c9d81e799b64d", "type": "electric_scooter", "is_reserved": 0, "lon": -77.03391466666666}, {"fusion_lat": 0.0, "name": "d6fcb75f6945f8fd643e0571adae7386", "is_disabled": 0, "rental_uris": {"android": "https://dc.lft.to/lastmile_qr_scan", "ios": "https://dc.lft.to/lastmile_qr_scan"}, "fusion_lon": 0.0, "lat": 38.9589455, "bike_id": "d6fcb75f6945f8fd643e0571adae7386", "type": "electric_scooter", "is_reserved": 0, "lon": -77.00285733333334}, {"fusion_lat": 0.0, "name": "78341a17f7a2f6115ac39a8a573783b3", "is_disabled": 0, "rental_uris": {"android": "https://dc.lft.to/lastmile_qr_scan", "ios": "https://dc.lft.to/lastmile_qr_scan"}, "fusion_lon": 0.0, "lat": 38.87671316666667, "bike_id": "78341a17f7a2f6115ac39a8a573783b3", "type": "electric_scooter", "is_reserved": 0, "lon": -77.0047215}, {"fusion_lat": 0.0, "name": "9d9c173e90fa501f067e0bb446d7edfc", "is_disabled": 0, "rental_uris": {"android": "https://dc.lft.to/lastmile_qr_scan", "ios": "https://dc.lft.to/lastmile_qr_scan"}, "fusion_lon": 0.0, "lat": 38.92740216666667, "bike_id": "9d9c173e90fa501f067e0bb446d7edfc", "type": "electric_scooter", "is_reserved": 0, "lon": -77.022597}, {"fusion_lat": 0.0, "name": "d1cc0b3804999393447d6ed60c47760a", "is_disabled": 0, "rental_uris": {"android": "https://dc.lft.to/lastmile_qr_scan", "ios": "https://dc.lft.to/lastmile_qr_scan"}, "fusion_lon": 0.0, "lat": 38.916925666666664, "bike_id": "d1cc0b3804999393447d6ed60c47760a", "type": "electric_scooter", "is_reserved": 0, "lon": -77.02598916666666}, {"fusion_lat": 0.0, "name": "7a650cdd5a83ff613de967b55fbbbf39", "is_disabled": 0, "rental_uris": {"android": "https://dc.lft.to/lastmile_qr_scan", "ios": "https://dc.lft.to/lastmile_qr_scan"}, "fusion_lon": 0.0, "lat": 38.9211595, "bike_id": "7a650cdd5a83ff613de967b55fbbbf39", "type": "electric_scooter", "is_reserved": 0, "lon": -77.04416983333333}, {"fusion_lat": 0.0, "name": "03d2257ab82d076a7091f4e3354858b2", "is_disabled": 0, "rental_uris": {"android": "https://dc.lft.to/lastmile_qr_scan", "ios": "https://dc.lft.to/lastmile_qr_scan"}, "fusion_lon": 0.0, "lat": 38.906684, "bike_id": "03d2257ab82d076a7091f4e3354858b2", "type": "electric_scooter", "is_reserved": 0, "lon": -77.02702616666667}, {"fusion_lat": 0.0, "name": "d9948dfb21325b749f1794eade381492", "is_disabled": 0, "rental_uris": {"android": "https://dc.lft.to/lastmile_qr_scan", "ios": "https://dc.lft.to/lastmile_qr_scan"}, "fusion_lon": 0.0, "lat": 38.90977266666667, "bike_id": "d9948dfb21325b749f1794eade381492", "type": "electric_scooter", "is_reserved": 0, "lon": -77.00896333333333}, {"fusion_lat": 0.0, "name": "4d60f70968ab94dbed28680186c88367", "is_disabled": 0, "rental_uris": {"android": "https://dc.lft.to/lastmile_qr_scan", "ios": "https://dc.lft.to/lastmile_qr_scan"}, "fusion_lon": 0.0, "lat": 38.933659166666665, "bike_id": "4d60f70968ab94dbed28680186c88367", "type": "electric_scooter", "is_reserved": 0, "lon": -77.03878433333334}, {"fusion_lat": 0.0, "name": "a367819913363e6794193e75ab3e0c96", "is_disabled": 0, "rental_uris": {"android": "https://dc.lft.to/lastmile_qr_scan", "ios": "https://dc.lft.to/lastmile_qr_scan"}, "fusion_lon": 0.0, "lat": 38.92591866666667, "bike_id": "a367819913363e6794193e75ab3e0c96", "type": "electric_scooter", "is_reserved": 0, "lon": -77.02380233333334}, {"fusion_lat": 0.0, "name": "d9dd220373b4f545467ffd4dbcc053d6", "is_disabled": 0, "rental_uris": {"android": "https://dc.lft.to/lastmile_qr_scan", "ios": "https://dc.lft.to/lastmile_qr_scan"}, "fusion_lon": 0.0, "lat": 38.83933916666667, "bike_id": "d9dd220373b4f545467ffd4dbcc053d6", "type": "electric_bike", "is_reserved": 0, "lon": -77.07896283333334}, {"fusion_lat": 0.0, "name": "763733e027118fef29d35738d8304a5a", "is_disabled": 0, "rental_uris": {"android": "https://dc.lft.to/lastmile_qr_scan", "ios": "https://dc.lft.to/lastmile_qr_scan"}, "fusion_lon": 0.0, "lat": 38.903487, "bike_id": "763733e027118fef29d35738d8304a5a", "type": "electric_scooter", "is_reserved": 0, "lon": -76.97253183333333}, {"fusion_lat": 0.0, "name": "7aee44a5e2c81e7b9c1b1984ae61a34c", "is_disabled": 0, "rental_uris": {"android": "https://dc.lft.to/lastmile_qr_scan", "ios": "https://dc.lft.to/lastmile_qr_scan"}, "fusion_lon": 0.0, "lat": 38.9362395, "bike_id": "7aee44a5e2c81e7b9c1b1984ae61a34c", "type": "electric_scooter", "is_reserved": 0, "lon": -77.03654766666666}, {"fusion_lat": 0.0, "name": "0b15e424914cb1fc076b3e9dcda81806", "is_disabled": 0, "rental_uris": {"android": "https://dc.lft.to/lastmile_qr_scan", "ios": "https://dc.lft.to/lastmile_qr_scan"}, "fusion_lon": 0.0, "lat": 38.905638333333336, "bike_id": "0b15e424914cb1fc076b3e9dcda81806", "type": "electric_scooter", "is_reserved": 0, "lon": -77.03452266666666}, {"fusion_lat": 0.0, "name": "75703fe4327bff2e18111cf0e95bed34", "is_disabled": 0, "rental_uris": {"android": "https://dc.lft.to/lastmile_qr_scan", "ios": "https://dc.lft.to/lastmile_qr_scan"}, "fusion_lon": 0.0, "lat": 38.90347383333334, "bike_id": "75703fe4327bff2e18111cf0e95bed34", "type": "electric_scooter", "is_reserved": 0, "lon": -77.0386605}, {"fusion_lat": 0.0, "name": "269067a1a21fa774bda06bdf15a78b9d", "is_disabled": 0, "rental_uris": {"android": "https://dc.lft.to/lastmile_qr_scan", "ios": "https://dc.lft.to/lastmile_qr_scan"}, "fusion_lon": 0.0, "lat": 38.941360833333334, "bike_id": "269067a1a21fa774bda06bdf15a78b9d", "type": "electric_scooter", "is_reserved": 0, "lon": -77.006091}, {"fusion_lat": 0.0, "name": "2cc2c021631c35bef29b078f9919f2bf", "is_disabled": 0, "rental_uris": {"android": "https://dc.lft.to/lastmile_qr_scan", "ios": "https://dc.lft.to/lastmile_qr_scan"}, "fusion_lon": 0.0, "lat": 38.90691266666666, "bike_id": "2cc2c021631c35bef29b078f9919f2bf", "type": "electric_scooter", "is_reserved": 0, "lon": -77.01539666666666}, {"fusion_lat": 0.0, "name": "f1382b86caf6a8902a0f1167f461881e", "is_disabled": 0, "rental_uris": {"android": "https://dc.lft.to/lastmile_qr_scan", "ios": "https://dc.lft.to/lastmile_qr_scan"}, "fusion_lon": 0.0, "lat": 38.956851666666665, "bike_id": "f1382b86caf6a8902a0f1167f461881e", "type": "electric_bike", "is_reserved": 0, "lon": -77.0222705}, {"fusion_lat": 0.0, "name": "82c5983615cecd809c364cac9d2497a4", "is_disabled": 0, "rental_uris": {"android": "https://dc.lft.to/lastmile_qr_scan", "ios": "https://dc.lft.to/lastmile_qr_scan"}, "fusion_lon": 0.0, "lat": 38.926311166666665, "bike_id": "82c5983615cecd809c364cac9d2497a4", "type": "electric_scooter", "is_reserved": 0, "lon": -77.04173133333333}, {"fusion_lat": 0.0, "name": "03cba67e89f228a5f8aff878924b11fc", "is_disabled": 0, "rental_uris": {"android": "https://dc.lft.to/lastmile_qr_scan", "ios": "https://dc.lft.to/lastmile_qr_scan"}, "fusion_lon": 0.0, "lat": 38.865194333333335, "bike_id": "03cba67e89f228a5f8aff878924b11fc", "type": "electric_bike", "is_reserved": 0, "lon": -76.973342}, {"fusion_lat": 0.0, "name": "7e1c5eaa54de512fe72e8763b3e26ae5", "is_disabled": 0, "rental_uris": {"android": "https://dc.lft.to/lastmile_qr_scan", "ios": "https://dc.lft.to/lastmile_qr_scan"}, "fusion_lon": 0.0, "lat": 38.905370166666664, "bike_id": "7e1c5eaa54de512fe72e8763b3e26ae5", "type": "electric_bike", "is_reserved": 0, "lon": -77.059116}, {"fusion_lat": 0.0, "name": "2f2afbfa25b098ec639e7ede1b29d4e3", "is_disabled": 0, "rental_uris": {"android": "https://dc.lft.to/lastmile_qr_scan", "ios": "https://dc.lft.to/lastmile_qr_scan"}, "fusion_lon": 0.0, "lat": 38.906716333333335, "bike_id": "2f2afbfa25b098ec639e7ede1b29d4e3", "type": "electric_scooter", "is_reserved": 0, "lon": -77.038723}, {"fusion_lat": 0.0, "name": "1e5f7b420d483604ad0c5c915ecf19d8", "is_disabled": 0, "rental_uris": {"android": "https://dc.lft.to/lastmile_qr_scan", "ios": "https://dc.lft.to/lastmile_qr_scan"}, "fusion_lon": 0.0, "lat": 38.8910435, "bike_id": "1e5f7b420d483604ad0c5c915ecf19d8", "type": "electric_scooter", "is_reserved": 0, "lon": -76.98360466666666}, {"fusion_lat": 0.0, "name": "1d88215f20bc704f7918f218df0aaeec", "is_disabled": 0, "rental_uris": {"android": "https://dc.lft.to/lastmile_qr_scan", "ios": "https://dc.lft.to/lastmile_qr_scan"}, "fusion_lon": 0.0, "lat": 38.91704633333333, "bike_id": "1d88215f20bc704f7918f218df0aaeec", "type": "electric_scooter", "is_reserved": 0, "lon": -77.03864833333333}, {"fusion_lat": 0.0, "name": "e50c18b17375a26ee412fd34b8467fcb", "is_disabled": 0, "rental_uris": {"android": "https://dc.lft.to/lastmile_qr_scan", "ios": "https://dc.lft.to/lastmile_qr_scan"}, "fusion_lon": 0.0, "lat": 38.91659666666666, "bike_id": "e50c18b17375a26ee412fd34b8467fcb", "type": "electric_scooter", "is_reserved": 0, "lon": -77.03853683333334}, {"fusion_lat": 0.0, "name": "c357d359ca1f950a2e2d857e9dea26f2", "is_disabled": 0, "rental_uris": {"android": "https://dc.lft.to/lastmile_qr_scan", "ios": "https://dc.lft.to/lastmile_qr_scan"}, "fusion_lon": 0.0, "lat": 38.849099833333334, "bike_id": "c357d359ca1f950a2e2d857e9dea26f2", "type": "electric_bike", "is_reserved": 0, "lon": -77.09976916666666}, {"fusion_lat": 0.0, "name": "bd0ac3e7fb629ed34568395cad26ed04", "is_disabled": 0, "rental_uris": {"android": "https://dc.lft.to/lastmile_qr_scan", "ios": "https://dc.lft.to/lastmile_qr_scan"}, "fusion_lon": 0.0, "lat": 38.87822533333333, "bike_id": "bd0ac3e7fb629ed34568395cad26ed04", "type": "electric_scooter", "is_reserved": 0, "lon": -77.00128516666666}, {"fusion_lat": 0.0, "name": "019938372406f0e329d6ce86e0c3d821", "is_disabled": 0, "rental_uris": {"android": "https://dc.lft.to/lastmile_qr_scan", "ios": "https://dc.lft.to/lastmile_qr_scan"}, "fusion_lon": 0.0, "lat": 38.928118, "bike_id": "019938372406f0e329d6ce86e0c3d821", "type": "electric_scooter", "is_reserved": 0, "lon": -77.04360266666667}, {"fusion_lat": 0.0, "name": "bcb1aaac2f12f7f73ab4fb6c93efaefa", "is_disabled": 0, "rental_uris": {"android": "https://dc.lft.to/lastmile_qr_scan", "ios": "https://dc.lft.to/lastmile_qr_scan"}, "fusion_lon": 0.0, "lat": 38.9000385, "bike_id": "bcb1aaac2f12f7f73ab4fb6c93efaefa", "type": "electric_scooter", "is_reserved": 0, "lon": -77.012105}, {"fusion_lat": 0.0, "name": "1fda69c0c2b1622e24b1f6a149e31e43", "is_disabled": 0, "rental_uris": {"android": "https://dc.lft.to/lastmile_qr_scan", "ios": "https://dc.lft.to/lastmile_qr_scan"}, "fusion_lon": 0.0, "lat": 38.9362615, "bike_id": "1fda69c0c2b1622e24b1f6a149e31e43", "type": "electric_scooter", "is_reserved": 0, "lon": -77.0365565}, {"fusion_lat": 0.0, "name": "276c7ae03edfd2439538b98957be72d7", "is_disabled": 0, "rental_uris": {"android": "https://dc.lft.to/lastmile_qr_scan", "ios": "https://dc.lft.to/lastmile_qr_scan"}, "fusion_lon": 0.0, "lat": 38.915491333333335, "bike_id": "276c7ae03edfd2439538b98957be72d7", "type": "electric_scooter", "is_reserved": 0, "lon": -77.02087766666666}, {"fusion_lat": 0.0, "name": "5a2146cbf4e93b6882c69124e38a6285", "is_disabled": 0, "rental_uris": {"android": "https://dc.lft.to/lastmile_qr_scan", "ios": "https://dc.lft.to/lastmile_qr_scan"}, "fusion_lon": 0.0, "lat": 38.87846666666667, "bike_id": "5a2146cbf4e93b6882c69124e38a6285", "type": "electric_scooter", "is_reserved": 0, "lon": -77.00573566666667}, {"fusion_lat": 0.0, "name": "41f535bb61de07df575af4425e4d41d4", "is_disabled": 0, "rental_uris": {"android": "https://dc.lft.to/lastmile_qr_scan", "ios": "https://dc.lft.to/lastmile_qr_scan"}, "fusion_lon": 0.0, "lat": 38.8613995, "bike_id": "41f535bb61de07df575af4425e4d41d4", "type": "electric_bike", "is_reserved": 0, "lon": -76.971717}, {"fusion_lat": 0.0, "name": "95a2774926cc0d9be6d2d4b2a3e742de", "is_disabled": 0, "rental_uris": {"android": "https://dc.lft.to/lastmile_qr_scan", "ios": "https://dc.lft.to/lastmile_qr_scan"},