{"data": {"bikes": [{"is_disabled": 0, "rental_uris": {"ios": "https://dc.lft.to/lastmile_qr_scan", "android": "https://dc.lft.to/lastmile_qr_scan"}, "is_reserved": 0, "fusion_lon": 0.0, "lat": 38.907143, "type": "electric_scooter", "name": "8a398b9d9111bd384270df5897a29125", "bike_id": "8a398b9d9111bd384270df5897a29125", "fusion_lat": 0.0, "lon": -77.043657}, {"is_disabled": 0, "rental_uris": {"ios": "https://dc.lft.to/lastmile_qr_scan", "android": "https://dc.lft.to/lastmile_qr_scan"}, "is_reserved": 0, "fusion_lon": 0.0, "lat": 38.9014255, "type": "electric_scooter", "name": "48e3106e6417e642833cb6f7d8bd7064", "bike_id": "48e3106e6417e642833cb6f7d8bd7064", "fusion_lat": 0.0, "lon": -77.04381983333333}, {"is_disabled": 0, "rental_uris": {"ios": "https://dc.lft.to/lastmile_qr_scan", "android": "https://dc.lft.to/lastmile_qr_scan"}, "is_reserved": 0, "fusion_lon": 0.0, "lat": 38.92863833333333, "type": "electric_scooter", "name": "9116b2150301725716c814e3b59d961e", "bike_id": "9116b2150301725716c814e3b59d961e", "fusion_lat": 0.0, "lon": -77.07890466666667}, {"is_disabled": 0, "rental_uris": {"ios": "https://dc.lft.to/lastmile_qr_scan", "android": "https://dc.lft.to/lastmile_qr_scan"}, "is_reserved": 0, "fusion_lon": 0.0, "lat": 38.901555, "type": "electric_scooter", "name": "4a1a8295368f0685ffbe87cf2a857e7a", "bike_id": "4a1a8295368f0685ffbe87cf2a857e7a", "fusion_lat": 0.0, "lon": -77.02970633333334}, {"is_disabled": 0, "rental_uris": {"ios": "https://dc.lft.to/lastmile_qr_scan", "android": "https://dc.lft.to/lastmile_qr_scan"}, "is_reserved": 0, "fusion_lon": 0.0, "lat": 38.8694005, "type": "electric_bike", "name": "9ba23e5945e61cad24ee137fc08ed0c9", "bike_id": "9ba23e5945e61cad24ee137fc08ed0c9", "fusion_lat": 0.0, "lon": -77.09563183333333}, {"is_disabled": 0, "rental_uris": {"ios": "https://dc.lft.to/lastmile_qr_scan", "android": "https://dc.lft.to/lastmile_qr_scan"}, "is_reserved": 0, "fusion_lon": 0.0, "lat": 38.92330883333333, "type": "electric_scooter", "name": "70b6142befec1b837e1b8694967ddc44", "bike_id": "70b6142befec1b837e1b8694967ddc44", "fusion_lat": 0.0, "lon": -77.05679783333333}, {"is_disabled": 0, "rental_uris": {"ios": "https://dc.lft.to/lastmile_qr_scan", "android": "https://dc.lft.to/lastmile_qr_scan"}, "is_reserved": 0, "fusion_lon": 0.0, "lat": 38.8835665, "type": "electric_scooter", "name": "4ccd2e2b8838ad2fe3a054bc3a9602d8", "bike_id": "4ccd2e2b8838ad2fe3a054bc3a9602d8", "fusion_lat": 0.0, "lon": -76.927933}, {"is_disabled": 0, "rental_uris": {"ios": "https://dc.lft.to/lastmile_qr_scan", "android": "https://dc.lft.to/lastmile_qr_scan"}, "is_reserved": 0, "fusion_lon": 0.0, "lat": 38.92325816666666, "type": "electric_scooter", "name": "bdb5c0028da53d86d57edbf78a772acb", "bike_id": "bdb5c0028da53d86d57edbf78a772acb", "fusion_lat": 0.0, "lon": -77.02709666666667}, {"is_disabled": 0, "rental_uris": {"ios": "https://dc.lft.to/lastmile_qr_scan", "android": "https://dc.lft.to/lastmile_qr_scan"}, "is_reserved": 0, "fusion_lon": 0.0, "lat": 38.89178533333333, "type": "electric_scooter", "name": "6b558b6f2359e0f7b7d55a011c2a1c15", "bike_id": "6b558b6f2359e0f7b7d55a011c2a1c15", "fusion_lat": 0.0, "lon": -77.01563233333333}, {"is_disabled": 0, "rental_uris": {"ios": "https://dc.lft.to/lastmile_qr_scan", "android": "https://dc.lft.to/lastmile_qr_scan"}, "is_reserved": 0, "fusion_lon": 0.0, "lat": 38.9077625, "type": "electric_scooter", "name": "017a7741d720dd170b8c4bc9ad4045ba", "bike_id": "017a7741d720dd170b8c4bc9ad4045ba", "fusion_lat": 0.0, "lon": -77.02968966666667}, {"is_disabled": 0, "rental_uris": {"ios": "https://dc.lft.to/lastmile_qr_scan", "android": "https://dc.lft.to/lastmile_qr_scan"}, "is_reserved": 0, "fusion_lon": 0.0, "lat": 38.929526, "type": "electric_scooter", "name": "4b9773e0609b54201309197b8089686b", "bike_id": "4b9773e0609b54201309197b8089686b", "fusion_lat": 0.0, "lon": -77.05509133333334}, {"is_disabled": 0, "rental_uris": {"ios": "https://dc.lft.to/lastmile_qr_scan", "android": "https://dc.lft.to/lastmile_qr_scan"}, "is_reserved": 0, "fusion_lon": 0.0, "lat": 38.83763883333334, "type": "electric_scooter", "name": "389e3453bd59a0536e411e2dfe44961f", "bike_id": "389e3453bd59a0536e411e2dfe44961f", "fusion_lat": 0.0, "lon": -76.99855083333334}, {"is_disabled": 0, "rental_uris": {"ios": "https://dc.lft.to/lastmile_qr_scan", "android": "https://dc.lft.to/lastmile_qr_scan"}, "is_reserved": 0, "fusion_lon": 0.0, "lat": 39.003806166666664, "type": "electric_bike", "name": "02408000716257c8d1ed24538a7ea3c3", "bike_id": "02408000716257c8d1ed24538a7ea3c3", "fusion_lat": 0.0, "lon": -77.01287616666667}, {"is_disabled": 0, "rental_uris": {"ios": "https://dc.lft.to/lastmile_qr_scan", "android": "https://dc.lft.to/lastmile_qr_scan"}, "is_reserved": 0, "fusion_lon": 0.0, "lat": 38.9297605, "type": "electric_scooter", "name": "401404b32d7cbf52a808692c9d8f5b7f", "bike_id": "401404b32d7cbf52a808692c9d8f5b7f", "fusion_lat": 0.0, "lon": -77.03266883333333}, {"is_disabled": 0, "rental_uris": {"ios": "https://dc.lft.to/lastmile_qr_scan", "android": "https://dc.lft.to/lastmile_qr_scan"}, "is_reserved": 0, "fusion_lon": 0.0, "lat": 38.953606666666666, "type": "electric_bike", "name": "7bee735957371b22ab2b04d9a9df3481", "bike_id": "7bee735957371b22ab2b04d9a9df3481", "fusion_lat": 0.0, "lon": -76.9429555}, {"is_disabled": 0, "rental_uris": {"ios": "https://dc.lft.to/lastmile_qr_scan", "android": "https://dc.lft.to/lastmile_qr_scan"}, "is_reserved": 0, "fusion_lon": 0.0, "lat": 38.884245166666666, "type": "electric_scooter", "name": "1542e899e706335852cf0718ab82ef52", "bike_id": "1542e899e706335852cf0718ab82ef52", "fusion_lat": 0.0, "lon": -76.99690683333333}, {"is_disabled": 0, "rental_uris": {"ios": "https://dc.lft.to/lastmile_qr_scan", "android": "https://dc.lft.to/lastmile_qr_scan"}, "is_reserved": 0, "fusion_lon": 0.0, "lat": 38.90390633333333, "type": "electric_scooter", "name": "4f32ca7667da2b2976644e3e97fa858a", "bike_id": "4f32ca7667da2b2976644e3e97fa858a", "fusion_lat": 0.0, "lon": -77.06291633333333}, {"is_disabled": 0, "rental_uris": {"ios": "https://dc.lft.to/lastmile_qr_scan", "android": "https://dc.lft.to/lastmile_qr_scan"}, "is_reserved": 0, "fusion_lon": 0.0, "lat": 38.903365666666666, "type": "electric_scooter", "name": "3ac399e68649646f204580eb30fb5f1f", "bike_id": "3ac399e68649646f204580eb30fb5f1f", "fusion_lat": 0.0, "lon": -76.975732}, {"is_disabled": 0, "rental_uris": {"ios": "https://dc.lft.to/lastmile_qr_scan", "android": "https://dc.lft.to/lastmile_qr_scan"}, "is_reserved": 0, "fusion_lon": 0.0, "lat": 38.939695, "type": "electric_scooter", "name": "8b9d829b56af7c9b91ff255ade61a308", "bike_id": "8b9d829b56af7c9b91ff255ade61a308", "fusion_lat": 0.0, "lon": -77.03427633333334}, {"is_disabled": 0, "rental_uris": {"ios": "https://dc.lft.to/lastmile_qr_scan", "android": "https://dc.lft.to/lastmile_qr_scan"}, "is_reserved": 0, "fusion_lon": 0.0, "lat": 38.899474, "type": "electric_scooter", "name": "140bb5dd38a864780e2993584e93f48e", "bike_id": "140bb5dd38a864780e2993584e93f48e", "fusion_lat": 0.0, "lon": -77.003474}, {"is_disabled": 0, "rental_uris": {"ios": "https://dc.lft.to/lastmile_qr_scan", "android": "https://dc.lft.to/lastmile_qr_scan"}, "is_reserved": 0, "fusion_lon": 0.0, "lat": 38.8876615, "type": "electric_scooter", "name": "c205ec935eaa64c32acf0c6921286e66", "bike_id": "c205ec935eaa64c32acf0c6921286e66", "fusion_lat": 0.0, "lon": -76.97749016666667}, {"is_disabled": 0, "rental_uris": {"ios": "https://dc.lft.to/lastmile_qr_scan", "android": "https://dc.lft.to/lastmile_qr_scan"}, "is_reserved": 0, "fusion_lon": 0.0, "lat": 38.89545666666667, "type": "electric_scooter", "name": "b836e1e44d73eee04b6c64ffafe05345", "bike_id": "b836e1e44d73eee04b6c64ffafe05345", "fusion_lat": 0.0, "lon": -76.9265545}, {"is_disabled": 0, "rental_uris": {"ios": "https://dc.lft.to/lastmile_qr_scan", "android": "https://dc.lft.to/lastmile_qr_scan"}, "is_reserved": 0, "fusion_lon": 0.0, "lat": 38.91816566666667, "type": "electric_scooter", "name": "7fbd6ce3245503c1ed7252ff676e097a", "bike_id": "7fbd6ce3245503c1ed7252ff676e097a", "fusion_lat": 0.0, "lon": -77.02530683333333}, {"is_disabled": 0, "rental_uris": {"ios": "https://dc.lft.to/lastmile_qr_scan", "android": "https://dc.lft.to/lastmile_qr_scan"}, "is_reserved": 0, "fusion_lon": 0.0, "lat": 38.92007733333333, "type": "electric_scooter", "name": "35574dcef64f24fe3792d5b91f061ee2", "bike_id": "35574dcef64f24fe3792d5b91f061ee2", "fusion_lat": 0.0, "lon": -77.04176}, {"is_disabled": 0, "rental_uris": {"ios": "https://dc.lft.to/lastmile_qr_scan", "android": "https://dc.lft.to/lastmile_qr_scan"}, "is_reserved": 0, "fusion_lon": 0.0, "lat": 38.91667783333333, "type": "electric_scooter", "name": "f7204d624512084bcc00b9cb25771268", "bike_id": "f7204d624512084bcc00b9cb25771268", "fusion_lat": 0.0, "lon": -77.027153}, {"is_disabled": 0, "rental_uris": {"ios": "https://dc.lft.to/lastmile_qr_scan", "android": "https://dc.lft.to/lastmile_qr_scan"}, "is_reserved": 0, "fusion_lon": 0.0, "lat": 38.898163833333335, "type": "electric_scooter", "name": "b9000f49f557b54663a5a008345ca27b", "bike_id": "b9000f49f557b54663a5a008345ca27b", "fusion_lat": 0.0, "lon": -77.02385633333333}, {"is_disabled": 0, "rental_uris": {"ios": "https://dc.lft.to/lastmile_qr_scan", "android": "https://dc.lft.to/lastmile_qr_scan"}, "is_reserved": 0, "fusion_lon": 0.0, "lat": 38.87518383333333, "type": "electric_scooter", "name": "b1d2ed0c2ca997d196940a1efd1c6b16", "bike_id": "b1d2ed0c2ca997d196940a1efd1c6b16", "fusion_lat": 0.0, "lon": -77.01227733333333}, {"is_disabled": 0, "rental_uris": {"ios": "https://dc.lft.to/lastmile_qr_scan", "android": "https://dc.lft.to/lastmile_qr_scan"}, "is_reserved": 0, "fusion_lon": 0.0, "lat": 38.879439833333336, "type": "electric_scooter", "name": "aae2da96091703b2271c95a741857714", "bike_id": "aae2da96091703b2271c95a741857714", "fusion_lat": 0.0, "lon": -77.0040485}, {"is_disabled": 0, "rental_uris": {"ios": "https://dc.lft.to/lastmile_qr_scan", "android": "https://dc.lft.to/lastmile_qr_scan"}, "is_reserved": 0, "fusion_lon": 0.0, "lat": 38.903173833333334, "type": "electric_scooter", "name": "369e2ad6d9c7e3619876e70a43f06639", "bike_id": "369e2ad6d9c7e3619876e70a43f06639", "fusion_lat": 0.0, "lon": -77.0395775}, {"is_disabled": 0, "rental_uris": {"ios": "https://dc.lft.to/lastmile_qr_scan", "android": "https://dc.lft.to/lastmile_qr_scan"}, "is_reserved": 0, "fusion_lon": 0.0, "lat": 38.900283333333334, "type": "electric_scooter", "name": "1244b5f3fa5a1c74cfc54ad9f06c067a", "bike_id": "1244b5f3fa5a1c74cfc54ad9f06c067a", "fusion_lat": 0.0, "lon": -77.01186616666666}, {"is_disabled": 0, "rental_uris": {"ios": "https://dc.lft.to/lastmile_qr_scan", "android": "https://dc.lft.to/lastmile_qr_scan"}, "is_reserved": 0, "fusion_lon": 0.0, "lat": 38.9042665, "type": "electric_scooter", "name": "999d7d3e8e84c02f1e8553c427c8d1ef", "bike_id": "999d7d3e8e84c02f1e8553c427c8d1ef", "fusion_lat": 0.0, "lon": -77.0260095}, {"is_disabled": 0, "rental_uris": {"ios": "https://dc.lft.to/lastmile_qr_scan", "android": "https://dc.lft.to/lastmile_qr_scan"}, "is_reserved": 0, "fusion_lon": 0.0, "lat": 38.9270255, "type": "electric_scooter", "name": "5e0d277a9f9a704291ce1f8b1bedce13", "bike_id": "5e0d277a9f9a704291ce1f8b1bedce13", "fusion_lat": 0.0, "lon": -76.960776}, {"is_disabled": 0, "rental_uris": {"ios": "https://dc.lft.to/lastmile_qr_scan", "android": "https://dc.lft.to/lastmile_qr_scan"}, "is_reserved": 0, "fusion_lon": 0.0, "lat": 38.916866666666664, "type": "electric_scooter", "name": "df24463b9b0e7440a67c01fd0d735fd4", "bike_id": "df24463b9b0e7440a67c01fd0d735fd4", "fusion_lat": 0.0, "lon": -77.03794933333333}, {"is_disabled": 0, "rental_uris": {"ios": "https://dc.lft.to/lastmile_qr_scan", "android": "https://dc.lft.to/lastmile_qr_scan"}, "is_reserved": 0, "fusion_lon": 0.0, "lat": 38.9490705, "type": "electric_scooter", "name": "4ba4e35fc539182f05882b7bebb68cea", "bike_id": "4ba4e35fc539182f05882b7bebb68cea", "fusion_lat": 0.0, "lon": -77.02079883333333}, {"is_disabled": 0, "rental_uris": {"ios": "https://dc.lft.to/lastmile_qr_scan", "android": "https://dc.lft.to/lastmile_qr_scan"}, "is_reserved": 0, "fusion_lon": 0.0, "lat": 38.896689, "type": "electric_scooter", "name": "c66824cf42e14b383e849a44c3a7af67", "bike_id": "c66824cf42e14b383e849a44c3a7af67", "fusion_lat": 0.0, "lon": -77.02423066666667}, {"is_disabled": 0, "rental_uris": {"ios": "https://dc.lft.to/lastmile_qr_scan", "android": "https://dc.lft.to/lastmile_qr_scan"}, "is_reserved": 0, "fusion_lon": 0.0, "lat": 38.9101885, "type": "electric_scooter", "name": "232f93d3d7d6d166f89941dbbc2397b9", "bike_id": "232f93d3d7d6d166f89941dbbc2397b9", "fusion_lat": 0.0, "lon": -77.04664316666667}, {"is_disabled": 0, "rental_uris": {"ios": "https://dc.lft.to/lastmile_qr_scan", "android": "https://dc.lft.to/lastmile_qr_scan"}, "is_reserved": 0, "fusion_lon": 0.0, "lat": 38.92024466666667, "type": "electric_scooter", "name": "ea7645fd8f197edfcfbc96cece97921b", "bike_id": "ea7645fd8f197edfcfbc96cece97921b", "fusion_lat": 0.0, "lon": -77.03133766666667}, {"is_disabled": 0, "rental_uris": {"ios": "https://dc.lft.to/lastmile_qr_scan", "android": "https://dc.lft.to/lastmile_qr_scan"}, "is_reserved": 0, "fusion_lon": 0.0, "lat": 38.943921333333336, "type": "electric_scooter", "name": "9baa80ce63b11f755ff8124f8fda73a1", "bike_id": "9baa80ce63b11f755ff8124f8fda73a1", "fusion_lat": 0.0, "lon": -77.0198615}, {"is_disabled": 0, "rental_uris": {"ios": "https://dc.lft.to/lastmile_qr_scan", "android": "https://dc.lft.to/lastmile_qr_scan"}, "is_reserved": 0, "fusion_lon": 0.0, "lat": 38.902233, "type": "electric_scooter", "name": "405d73c61a6a32e2512540baf6f05371", "bike_id": "405d73c61a6a32e2512540baf6f05371", "fusion_lat": 0.0, "lon": -77.0600245}, {"is_disabled": 0, "rental_uris": {"ios": "https://dc.lft.to/lastmile_qr_scan", "android": "https://dc.lft.to/lastmile_qr_scan"}, "is_reserved": 0, "fusion_lon": 0.0, "lat": 38.88031383333333, "type": "electric_scooter", "name": "1b03be820381baeadbe46c08425817b7", "bike_id": "1b03be820381baeadbe46c08425817b7", "fusion_lat": 0.0, "lon": -76.92719216666667}, {"is_disabled": 0, "rental_uris": {"ios": "https://dc.lft.to/lastmile_qr_scan", "android": "https://dc.lft.to/lastmile_qr_scan"}, "is_reserved": 0, "fusion_lon": 0.0, "lat": 38.9264515, "type": "electric_bike", "name": "263e8e34bf48ac4868fe47990729c0f5", "bike_id": "263e8e34bf48ac4868fe47990729c0f5", "fusion_lat": 0.0, "lon": -77.0901985}, {"is_disabled": 0, "rental_uris": {"ios": "https://dc.lft.to/lastmile_qr_scan", "android": "https://dc.lft.to/lastmile_qr_scan"}, "is_reserved": 0, "fusion_lon": 0.0, "lat": 38.897078, "type": "electric_scooter", "name": "62f629fac648ba1cd2fbd75aff83deb0", "bike_id": "62f629fac648ba1cd2fbd75aff83deb0", "fusion_lat": 0.0, "lon": -76.93911}, {"is_disabled": 0, "rental_uris": {"ios": "https://dc.lft.to/lastmile_qr_scan", "android": "https://dc.lft.to/lastmile_qr_scan"}, "is_reserved": 0, "fusion_lon": 0.0, "lat": 38.9232675, "type": "electric_scooter", "name": "e8415903ee2db7e1fca3960560687710", "bike_id": "e8415903ee2db7e1fca3960560687710", "fusion_lat": 0.0, "lon": -77.03665833333334}, {"is_disabled": 0, "rental_uris": {"ios": "https://dc.lft.to/lastmile_qr_scan", "android": "https://dc.lft.to/lastmile_qr_scan"}, "is_reserved": 0, "fusion_lon": 0.0, "lat": 38.8837445, "type": "electric_bike", "name": "2da1eb954caf7e77dd2219d784c6a752", "bike_id": "2da1eb954caf7e77dd2219d784c6a752", "fusion_lat": 0.0, "lon": -77.030231}, {"is_disabled": 0, "rental_uris": {"ios": "https://dc.lft.to/lastmile_qr_scan", "android": "https://dc.lft.to/lastmile_qr_scan"}, "is_reserved": 0, "fusion_lon": 0.0, "lat": 38.9264755, "type": "electric_scooter", "name": "a3390da216d85d754309de7c6fa88b76", "bike_id": "a3390da216d85d754309de7c6fa88b76", "fusion_lat": 0.0, "lon": -77.038365}, {"is_disabled": 0, "rental_uris": {"ios": "https://dc.lft.to/lastmile_qr_scan", "android": "https://dc.lft.to/lastmile_qr_scan"}, "is_reserved": 0, "fusion_lon": 0.0, "lat": 38.917488666666664, "type": "electric_scooter", "name": "9c226fc539fb453e7bcdd72e59ee2615", "bike_id": "9c226fc539fb453e7bcdd72e59ee2615", "fusion_lat": 0.0, "lon": -77.02114966666667}, {"is_disabled": 0, "rental_uris": {"ios": "https://dc.lft.to/lastmile_qr_scan", "android": "https://dc.lft.to/lastmile_qr_scan"}, "is_reserved": 0, "fusion_lon": 0.0, "lat": 38.971516333333334, "type": "electric_bike", "name": "121d25c4124de39db3e516eaeadac5f3", "bike_id": "121d25c4124de39db3e516eaeadac5f3", "fusion_lat": 0.0, "lon": -76.9836135}, {"is_disabled": 0, "rental_uris": {"ios": "https://dc.lft.to/lastmile_qr_scan", "android": "https://dc.lft.to/lastmile_qr_scan"}, "is_reserved": 0, "fusion_lon": 0.0, "lat": 38.905426166666665, "type": "electric_scooter", "name": "92dadee944304444296732a8b2aee25a", "bike_id": "92dadee944304444296732a8b2aee25a", "fusion_lat": 0.0, "lon": -77.04184766666667}, {"is_disabled": 0, "rental_uris": {"ios": "https://dc.lft.to/lastmile_qr_scan", "android": "https://dc.lft.to/lastmile_qr_scan"}, "is_reserved": 0, "fusion_lon": 0.0, "lat": 38.90504966666666, "type": "electric_scooter", "name": "50473dc4a1a06950a31ea48bd44e014d", "bike_id": "50473dc4a1a06950a31ea48bd44e014d", "fusion_lat": 0.0, "lon": -77.060462}, {"is_disabled": 0, "rental_uris": {"ios": "https://dc.lft.to/lastmile_qr_scan", "android": "https://dc.lft.to/lastmile_qr_scan"}, "is_reserved": 0, "fusion_lon": 0.0, "lat": 38.882175333333336, "type": "electric_scooter", "name": "1784c8be47ed6fe3d60b421baea29058", "bike_id": "1784c8be47ed6fe3d60b421baea29058", "fusion_lat": 0.0, "lon": -77.04151133333333}, {"is_disabled": 0, "rental_uris": {"ios": "https://dc.lft.to/lastmile_qr_scan", "android": "https://dc.lft.to/lastmile_qr_scan"}, "is_reserved": 0, "fusion_lon": 0.0, "lat": 38.9001785, "type": "electric_scooter", "name": "170203fd55b67833f1e56d1dc4ae6f5c", "bike_id": "170203fd55b67833f1e56d1dc4ae6f5c", "fusion_lat": 0.0, "lon": -77.05544566666667}, {"is_disabled": 0, "rental_uris": {"ios": "https://dc.lft.to/lastmile_qr_scan", "android": "https://dc.lft.to/lastmile_qr_scan"}, "is_reserved": 0, "fusion_lon": 0.0, "lat": 38.83861116666667, "type": "electric_bike", "name": "d465d0f08a3c4fe838771c4a6d7131f3", "bike_id": "d465d0f08a3c4fe838771c4a6d7131f3", "fusion_lat": 0.0, "lon": -76.99694266666667}, {"is_disabled": 0, "rental_uris": {"ios": "https://dc.lft.to/lastmile_qr_scan", "android": "https://dc.lft.to/lastmile_qr_scan"}, "is_reserved": 0, "fusion_lon": 0.0, "lat": 38.9352645, "type": "electric_scooter", "name": "1737a2c55024f20456f5b431481f9952", "bike_id": "1737a2c55024f20456f5b431481f9952", "fusion_lat": 0.0, "lon": -77.023607}, {"is_disabled": 0, "rental_uris": {"ios": "https://dc.lft.to/lastmile_qr_scan", "android": "https://dc.lft.to/lastmile_qr_scan"}, "is_reserved": 0, "fusion_lon": 0.0, "lat": 38.90217366666667, "type": "electric_bike", "name": "30dc8ddc885bad841d18857cf4c6eac2", "bike_id": "30dc8ddc885bad841d18857cf4c6eac2", "fusion_lat": 0.0, "lon": -76.9317365}, {"is_disabled": 0, "rental_uris": {"ios": "https://dc.lft.to/lastmile_qr_scan", "android": "https://dc.lft.to/lastmile_qr_scan"}, "is_reserved": 0, "fusion_lon": 0.0, "lat": 38.906786333333336, "type": "electric_scooter", "name": "b0b2cfbcab4a2ddacaf26b4fcc23be69", "bike_id": "b0b2cfbcab4a2ddacaf26b4fcc23be69", "fusion_lat": 0.0, "lon": -76.97932766666666}, {"is_disabled": 0, "rental_uris": {"ios": "https://dc.lft.to/lastmile_qr_scan", "android": "https://dc.lft.to/lastmile_qr_scan"}, "is_reserved": 0, "fusion_lon": 0.0, "lat": 38.92156583333333, "type": "electric_scooter", "name": "5abc5f3051aa1d6070accb0aa3a6ac7d", "bike_id": "5abc5f3051aa1d6070accb0aa3a6ac7d", "fusion_lat": 0.0, "lon": -77.02019733333333}, {"is_disabled": 0, "rental_uris": {"ios": "https://dc.lft.to/lastmile_qr_scan", "android": "https://dc.lft.to/lastmile_qr_scan"}, "is_reserved": 0, "fusion_lon": 0.0, "lat": 38.92463766666667, "type": "electric_scooter", "name": "448d5c05dc9ab8c71c92b3006491ac62", "bike_id": "448d5c05dc9ab8c71c92b3006491ac62", "fusion_lat": 0.0, "lon": -77.02711533333333}, {"is_disabled": 0, "rental_uris": {"ios": "https://dc.lft.to/lastmile_qr_scan", "android": "https://dc.lft.to/lastmile_qr_scan"}, "is_reserved": 0, "fusion_lon": 0.0, "lat": 38.924600833333336, "type": "electric_scooter", "name": "cfb38ebb847bcd8c063cc1e3abfad7c3", "bike_id": "cfb38ebb847bcd8c063cc1e3abfad7c3", "fusion_lat": 0.0, "lon": -77.038165}, {"is_disabled": 0, "rental_uris": {"ios": "https://dc.lft.to/lastmile_qr_scan", "android": "https://dc.lft.to/lastmile_qr_scan"}, "is_reserved": 0, "fusion_lon": 0.0, "lat": 38.931080333333334, "type": "electric_scooter", "name": "d2bc3e293d0b2b3afd37353974e5038c", "bike_id": "d2bc3e293d0b2b3afd37353974e5038c", "fusion_lat": 0.0, "lon": -77.03275566666667}, {"is_disabled": 0, "rental_uris": {"ios": "https://dc.lft.to/lastmile_qr_scan", "android": "https://dc.lft.to/lastmile_qr_scan"}, "is_reserved": 0, "fusion_lon": 0.0, "lat": 38.88744833333333, "type": "electric_scooter", "name": "d62f12f31897e9e34e4b878073a30e3b", "bike_id": "d62f12f31897e9e34e4b878073a30e3b", "fusion_lat": 0.0, "lon": -77.0222645}, {"is_disabled": 0, "rental_uris": {"ios": "https://dc.lft.to/lastmile_qr_scan", "android": "https://dc.lft.to/lastmile_qr_scan"}, "is_reserved": 0, "fusion_lon": 0.0, "lat": 38.89592366666667, "type": "electric_scooter", "name": "a584a1c1a0d39d508b2f7d4b50ca8997", "bike_id": "a584a1c1a0d39d508b2f7d4b50ca8997", "fusion_lat": 0.0, "lon": -77.04806883333333}, {"is_disabled": 0, "rental_uris": {"ios": "https://dc.lft.to/lastmile_qr_scan", "android": "https://dc.lft.to/lastmile_qr_scan"}, "is_reserved": 0, "fusion_lon": 0.0, "lat": 38.89226133333333, "type": "electric_scooter", "name": "d716c3f645e569710559c247715e5ccc", "bike_id": "d716c3f645e569710559c247715e5ccc", "fusion_lat": 0.0, "lon": -77.02799233333333}, {"is_disabled": 0, "rental_uris": {"ios": "https://dc.lft.to/lastmile_qr_scan", "android": "https://dc.lft.to/lastmile_qr_scan"}, "is_reserved": 0, "fusion_lon": 0.0, "lat": 38.891846666666666, "type": "electric_scooter", "name": "12ab33eee6a6f94c42defc4b366d63ab", "bike_id": "12ab33eee6a6f94c42defc4b366d63ab", "fusion_lat": 0.0, "lon": -76.99851}, {"is_disabled": 0, "rental_uris": {"ios": "https://dc.lft.to/lastmile_qr_scan", "android": "https://dc.lft.to/lastmile_qr_scan"}, "is_reserved": 0, "fusion_lon": 0.0, "lat": 39.00528083333333, "type": "electric_bike", "name": "eb5664f8ffa0eb8e20630f9bfddfe6b2", "bike_id": "eb5664f8ffa0eb8e20630f9bfddfe6b2", "fusion_lat": 0.0, "lon": -77.103992}, {"is_disabled": 0, "rental_uris": {"ios": "https://dc.lft.to/lastmile_qr_scan", "android": "https://dc.lft.to/lastmile_qr_scan"}, "is_reserved": 0, "fusion_lon": 0.0, "lat": 38.90585083333333, "type": "electric_scooter", "name": "a60e9808315608b7158a043da3322e2e", "bike_id": "a60e9808315608b7158a043da3322e2e", "fusion_lat": 0.0, "lon": -77.00922366666667}, {"is_disabled": 0, "rental_uris": {"ios": "https://dc.lft.to/lastmile_qr_scan", "android": "https://dc.lft.to/lastmile_qr_scan"}, "is_reserved": 0, "fusion_lon": 0.0, "lat": 38.89223166666667, "type": "electric_scooter", "name": "36b7a251d596f66e21d2fc67e7699607", "bike_id": "36b7a251d596f66e21d2fc67e7699607", "fusion_lat": 0.0, "lon": -77.03217916666667}, {"is_disabled": 0, "rental_uris": {"ios": "https://dc.lft.to/lastmile_qr_scan", "android": "https://dc.lft.to/lastmile_qr_scan"}, "is_reserved": 0, "fusion_lon": 0.0, "lat": 38.905277833333336, "type": "electric_scooter", "name": "d24ce560479421cd320cac6beae0f9e7", "bike_id": "d24ce560479421cd320cac6beae0f9e7", "fusion_lat": 0.0, "lon": -77.04866}, {"is_disabled": 0, "rental_uris": {"ios": "https://dc.lft.to/lastmile_qr_scan", "android": "https://dc.lft.to/lastmile_qr_scan"}, "is_reserved": 0, "fusion_lon": 0.0, "lat": 38.965561, "type": "electric_bike", "name": "10b7c0a254099c010ea7d71aab3c43d4", "bike_id": "10b7c0a254099c010ea7d71aab3c43d4", "fusion_lat": 0.0, "lon": -77.028198}, {"is_disabled": 0, "rental_uris": {"ios": "https://dc.lft.to/lastmile_qr_scan", "android": "https://dc.lft.to/lastmile_qr_scan"}, "is_reserved": 0, "fusion_lon": 0.0, "lat": 38.911704, "type": "electric_scooter", "name": "f42b45153954186693240b929efb5293", "bike_id": "f42b45153954186693240b929efb5293", "fusion_lat": 0.0, "lon": -77.02950183333333}, {"is_disabled": 0, "rental_uris": {"ios": "https://dc.lft.to/lastmile_qr_scan", "android": "https://dc.lft.to/lastmile_qr_scan"}, "is_reserved": 0, "fusion_lon": 0.0, "lat": 38.907847333333336, "type": "electric_scooter", "name": "4b5acb9d074b76925f035dab1ec61fce", "bike_id": "4b5acb9d074b76925f035dab1ec61fce", "fusion_lat": 0.0, "lon": -76.99721283333334}, {"is_disabled": 0, "rental_uris": {"ios": "https://dc.lft.to/lastmile_qr_scan", "android": "https://dc.lft.to/lastmile_qr_scan"}, "is_reserved": 0, "fusion_lon": 0.0, "lat": 38.93953416666667, "type": "electric_scooter", "name": "c33e775e4ee5bab1cb8536891612ae20", "bike_id": "c33e775e4ee5bab1cb8536891612ae20", "fusion_lat": 0.0, "lon": -77.03599833333334}, {"is_disabled": 0, "rental_uris": {"ios": "https://dc.lft.to/lastmile_qr_scan", "android": "https://dc.lft.to/lastmile_qr_scan"}, "is_reserved": 0, "fusion_lon": 0.0, "lat": 38.9366225, "type": "electric_scooter", "name": "3b5076ace801fe8e975583da241c3099", "bike_id": "3b5076ace801fe8e975583da241c3099", "fusion_lat": 0.0, "lon": -77.06610466666666}, {"is_disabled": 0, "rental_uris": {"ios": "https://dc.lft.to/lastmile_qr_scan", "android": "https://dc.lft.to/lastmile_qr_scan"}, "is_reserved": 0, "fusion_lon": 0.0, "lat": 38.892531166666664, "type": "electric_scooter", "name": "47f9f9c361802e3c47b8dacc856dadab", "bike_id": "47f9f9c361802e3c47b8dacc856dadab", "fusion_lat": 0.0, "lon": -77.04655983333333}, {"is_disabled": 0, "rental_uris": {"ios": "https://dc.lft.to/lastmile_qr_scan", "android": "https://dc.lft.to/lastmile_qr_scan"}, "is_reserved": 0, "fusion_lon": 0.0, "lat": 38.892216166666664, "type": "electric_scooter", "name": "c461301fae7fc5e62684a5a3ccdb6205", "bike_id": "c461301fae7fc5e62684a5a3ccdb6205", "fusion_lat": 0.0, "lon": -77.03339516666666}, {"is_disabled": 0, "rental_uris": {"ios": "https://dc.lft.to/lastmile_qr_scan", "android": "https://dc.lft.to/lastmile_qr_scan"}, "is_reserved": 0, "fusion_lon": 0.0, "lat": 38.894027666666666, "type": "electric_scooter", "name": "1924889e669f329d032a210a536f2d48", "bike_id": "1924889e669f329d032a210a536f2d48", "fusion_lat": 0.0, "lon": -77.03197716666666}, {"is_disabled": 0, "rental_uris": {"ios": "https://dc.lft.to/lastmile_qr_scan", "android": "https://dc.lft.to/lastmile_qr_scan"}, "is_reserved": 0, "fusion_lon": 0.0, "lat": 38.895286166666665, "type": "electric_scooter", "name": "0a6f11ff3669e349585d97829fb5f365", "bike_id": "0a6f11ff3669e349585d97829fb5f365", "fusion_lat": 0.0, "lon": -77.02942566666667}, {"is_disabled": 0, "rental_uris": {"ios": "https://dc.lft.to/lastmile_qr_scan", "android": "https://dc.lft.to/lastmile_qr_scan"}, "is_reserved": 0, "fusion_lon": 0.0, "lat": 38.914899166666665, "type": "electric_scooter", "name": "ddd5e2ccf31861618d373156fe5a102c", "bike_id": "ddd5e2ccf31861618d373156fe5a102c", "fusion_lat": 0.0, "lon": -77.0185885}, {"is_disabled": 0, "rental_uris": {"ios": "https://dc.lft.to/lastmile_qr_scan", "android": "https://dc.lft.to/lastmile_qr_scan"}, "is_reserved": 0, "fusion_lon": 0.0, "lat": 38.852186833333334, "type": "electric_bike", "name": "c98e766fd9cd775896503d9ce6494494", "bike_id": "c98e766fd9cd775896503d9ce6494494", "fusion_lat": 0.0, "lon": -76.99372083333333}, {"is_disabled": 0, "rental_uris": {"ios": "https://dc.lft.to/lastmile_qr_scan", "android": "https://dc.lft.to/lastmile_qr_scan"}, "is_reserved": 0, "fusion_lon": 0.0, "lat": 38.948191666666666, "type": "electric_scooter", "name": "34e71cb535ad8343758b12a3cdce5259", "bike_id": "34e71cb535ad8343758b12a3cdce5259", "fusion_lat": 0.0, "lon": -77.02536716666667}, {"is_disabled": 0, "rental_uris": {"ios": "https://dc.lft.to/lastmile_qr_scan", "android": "https://dc.lft.to/lastmile_qr_scan"}, "is_reserved": 0, "fusion_lon": 0.0, "lat": 38.919095666666664, "type": "electric_scooter", "name": "053a668ded0532513096b283e4a18493", "bike_id": "053a668ded0532513096b283e4a18493", "fusion_lat": 0.0, "lon": -77.03423383333333}, {"is_disabled": 0, "rental_uris": {"ios": "https://dc.lft.to/lastmile_qr_scan", "android": "https://dc.lft.to/lastmile_qr_scan"}, "is_reserved": 0, "fusion_lon": 0.0, "lat": 38.938619333333335, "type": "electric_scooter", "name": "6891ad007f85bd9d9ce16198af342dd0", "bike_id": "6891ad007f85bd9d9ce16198af342dd0", "fusion_lat": 0.0, "lon": -77.03044483333333}, {"is_disabled": 0, "rental_uris": {"ios": "https://dc.lft.to/lastmile_qr_scan", "android": "https://dc.lft.to/lastmile_qr_scan"}, "is_reserved": 0, "fusion_lon": 0.0, "lat": 38.904560333333336, "type": "electric_scooter", "name": "b4ff87251d873ed31284377884931acc", "bike_id": "b4ff87251d873ed31284377884931acc", "fusion_lat": 0.0, "lon": -77.06283083333334}, {"is_disabled": 0, "rental_uris": {"ios": "https://dc.lft.to/lastmile_qr_scan", "android": "https://dc.lft.to/lastmile_qr_scan"}, "is_reserved": 0, "fusion_lon": 0.0, "lat": 38.91656016666666, "type": "electric_scooter", "name": "67b3e7b2c0368092652327752afac00b", "bike_id": "67b3e7b2c0368092652327752afac00b", "fusion_lat": 0.0, "lon": -77.04382316666667}, {"is_disabled": 0, "rental_uris": {"ios": "https://dc.lft.to/lastmile_qr_scan", "android": "https://dc.lft.to/lastmile_qr_scan"}, "is_reserved": 0, "fusion_lon": 0.0, "lat": 38.896147666666664, "type": "electric_scooter", "name": "65226a785c0a097c729a009fedff610a", "bike_id": "65226a785c0a097c729a009fedff610a", "fusion_lat": 0.0, "lon": -77.044614}, {"is_disabled": 0, "rental_uris": {"ios": "https://dc.lft.to/lastmile_qr_scan", "android": "https://dc.lft.to/lastmile_qr_scan"}, "is_reserved": 0, "fusion_lon": 0.0, "lat": 38.90229466666667, "type": "electric_scooter", "name": "67fcdaed17d9e6730ca92b6d49121886", "bike_id": "67fcdaed17d9e6730ca92b6d49121886", "fusion_lat": 0.0, "lon": -77.061341}, {"is_disabled": 0, "rental_uris": {"ios": "https://dc.lft.to/lastmile_qr_scan", "android": "https://dc.lft.to/lastmile_qr_scan"}, "is_reserved": 0, "fusion_lon": 0.0, "lat": 38.882755, "type": "electric_bike", "name": "47ef19f97a873309b11bb59f93e787cc", "bike_id": "47ef19f97a873309b11bb59f93e787cc", "fusion_lat": 0.0, "lon": -76.93239116666666}, {"is_disabled": 0, "rental_uris": {"ios": "https://dc.lft.to/lastmile_qr_scan", "android": "https://dc.lft.to/lastmile_qr_scan"}, "is_reserved": 0, "fusion_lon": 0.0, "lat": 38.91975733333334, "type": "electric_scooter", "name": "17b47fcd3f599c8210a9b1b55e4d31d6", "bike_id": "17b47fcd3f599c8210a9b1b55e4d31d6", "fusion_lat": 0.0, "lon": -77.02495266666666}, {"is_disabled": 0, "rental_uris": {"ios": "https://dc.lft.to/lastmile_qr_scan", "android": "https://dc.lft.to/lastmile_qr_scan"}, "is_reserved": 0, "fusion_lon": 0.0, "lat": 38.9069025, "type": "electric_scooter", "name": "20c4d464be82217a06c3fad07f396170", "bike_id": "20c4d464be82217a06c3fad07f396170", "fusion_lat": 0.0, "lon": -77.053395}, {"is_disabled": 0, "rental_uris": {"ios": "https://dc.lft.to/lastmile_qr_scan", "android": "https://dc.lft.to/lastmile_qr_scan"}, "is_reserved": 0, "fusion_lon": 0.0, "lat": 38.897522333333335, "type": "electric_scooter", "name": "530a87c9696293fb820f71ad446d14f7", "bike_id": "530a87c9696293fb820f71ad446d14f7", "fusion_lat": 0.0, "lon": -77.0330985}, {"is_disabled": 0, "rental_uris": {"ios": "https://dc.lft.to/lastmile_qr_scan", "android": "https://dc.lft.to/lastmile_qr_scan"}, "is_reserved": 0, "fusion_lon": 0.0, "lat": 38.8964175, "type": "electric_scooter", "name": "a737a1cc9718d9653f6189076ebf763f", "bike_id": "a737a1cc9718d9653f6189076ebf763f", "fusion_lat": 0.0, "lon": -77.00916083333334}, {"is_disabled": 0, "rental_uris": {"ios": "https://dc.lft.to/lastmile_qr_scan", "android": "https://dc.lft.to/lastmile_qr_scan"}, "is_reserved": 0, "fusion_lon": 0.0, "lat": 38.90455816666667, "type": "electric_scooter", "name": "f1e73409b035092fc1740defdcbe0d96", "bike_id": "f1e73409b035092fc1740defdcbe0d96", "fusion_lat": 0.0, "lon": -77.0628375}, {"is_disabled": 0, "rental_uris": {"ios": "https://dc.lft.to/lastmile_qr_scan", "android": "https://dc.lft.to/lastmile_qr_scan"}, "is_reserved": 0, "fusion_lon": 0.0, "lat": 38.9537005, "type": "electric_scooter", "name": "67f894c591111233292b31380ef8ba41", "bike_id": "67f894c591111233292b31380ef8ba41", "fusion_lat": 0.0, "lon": -76.99162266666667}, {"is_disabled": 0, "rental_uris": {"ios": "https://dc.lft.to/lastmile_qr_scan", "android": "https://dc.lft.to/lastmile_qr_scan"}, "is_reserved": 0, "fusion_lon": 0.0, "lat": 38.980252666666665, "type": "electric_bike", "name": "13346334633b883fadf0a3f76a571e90", "bike_id": "13346334633b883fadf0a3f76a571e90", "fusion_lat": 0.0, "lon": -76.94248983333334}, {"is_disabled": 0, "rental_uris": {"ios": "https://dc.lft.to/lastmile_qr_scan", "android": "https://dc.lft.to/lastmile_qr_scan"}, "is_reserved": 0, "fusion_lon": 0.0, "lat": 38.93092766666667, "type": "electric_scooter", "name": "60fa10bba5faf4a62dedbf95a4996c23", "bike_id": "60fa10bba5faf4a62dedbf95a4996c23", "fusion_lat": 0.0, "lon": -77.03440883333333}, {"is_disabled": 0, "rental_uris": {"ios": "https://dc.lft.to/lastmile_qr_scan", "android": "https://dc.lft.to/lastmile_qr_scan"}, "is_reserved": 0, "fusion_lon": 0.0, "lat": 38.900401, "type": "electric_scooter", "name": "f202efc83f2151f8c0b3ffd3ffec6ce8", "bike_id": "f202efc83f2151f8c0b3ffd3ffec6ce8", "fusion_lat": 0.0, "lon": -77.00194683333334}, {"is_disabled": 0, "rental_uris": {"ios": "https://dc.lft.to/lastmile_qr_scan", "android": "https://dc.lft.to/lastmile_qr_scan"}, "is_reserved": 0, "fusion_lon": 0.0, "lat": 38.88616, "type": "electric_scooter", "name": "02a465f59341ad7b97926824bbd1560c", "bike_id": "02a465f59341ad7b97926824bbd1560c", "fusion_lat": 0.0, "lon": -77.02199516666667}, {"is_disabled": 0, "rental_uris": {"ios": "https://dc.lft.to/lastmile_qr_scan", "android": "https://dc.lft.to/lastmile_qr_scan"}, "is_reserved": 0, "fusion_lon": 0.0, "lat": 38.90268483333333, "type": "electric_scooter", "name": "294c018d9d3d33ac3224c902a73d5830", "bike_id": "294c018d9d3d33ac3224c902a73d5830", "fusion_lat": 0.0, "lon": -77.03424466666667}, {"is_disabled": 0, "rental_uris": {"ios": "https://dc.lft.to/lastmile_qr_scan", "android": "https://dc.lft.to/lastmile_qr_scan"}, "is_reserved": 0, "fusion_lon": 0.0, "lat": 38.91377166666667, "type": "electric_scooter", "name": "c59ea65fedb8b817ac553808c3db11ee", "bike_id": "c59ea65fedb8b817ac553808c3db11ee", "fusion_lat": 0.0, "lon": -77.02961033333334}, {"is_disabled": 0, "rental_uris": {"ios": "https://dc.lft.to/lastmile_qr_scan", "android": "https://dc.lft.to/lastmile_qr_scan"}, "is_reserved": 0, "fusion_lon": 0.0, "lat": 38.926413833333335, "type": "electric_scooter", "name": "8e7760fbdd1b41edf1b0a563267b0cba", "bike_id": "8e7760fbdd1b41edf1b0a563267b0cba", "fusion_lat": 0.0, "lon": -77.03837516666667}, {"is_disabled": 0, "rental_uris": {"ios": "https://dc.lft.to/lastmile_qr_scan", "android": "https://dc.lft.to/lastmile_qr_scan"}, "is_reserved": 0, "fusion_lon": 0.0, "lat": 38.871734000000004, "type": "electric_bike", "name": "ae5e5c9052f4b67ef4d90bad6b920ebe", "bike_id": "ae5e5c9052f4b67ef4d90bad6b920ebe", "fusion_lat": 0.0, "lon": -77.23398766666666}, {"is_disabled": 0, "rental_uris": {"ios": "https://dc.lft.to/lastmile_qr_scan", "android": "https://dc.lft.to/lastmile_qr_scan"}, "is_reserved": 0, "fusion_lon": 0.0, "lat": 38.88614416666667, "type": "electric_scooter", "name": "cec592c4df5cd605a3eb29b64057da2b", "bike_id": "cec592c4df5cd605a3eb29b64057da2b", "fusion_lat": 0.0, "lon": -76.97704233333333}, {"is_disabled": 0, "rental_uris": {"ios": "https://dc.lft.to/lastmile_qr_scan", "android": "https://dc.lft.to/lastmile_qr_scan"}, "is_reserved": 0, "fusion_lon": 0.0, "lat": 38.936948666666666, "type": "electric_scooter", "name": "e835a544c317c97ba8e11966878d9d8d", "bike_id": "e835a544c317c97ba8e11966878d9d8d", "fusion_lat": 0.0, "lon": -77.05594783333333}, {"is_disabled": 0, "rental_uris": {"ios": "https://dc.lft.to/lastmile_qr_scan", "android": "https://dc.lft.to/lastmile_qr_scan"}, "is_reserved": 0, "fusion_lon": 0.0, "lat": 38.90588016666667, "type": "electric_scooter", "name": "afc8bc8a8946df43765dd6c00afb8efd", "bike_id": "afc8bc8a8946df43765dd6c00afb8efd", "fusion_lat": 0.0, "lon": -77.04350333333333}, {"is_disabled": 0, "rental_uris": {"ios": "https://dc.lft.to/lastmile_qr_scan", "android": "https://dc.lft.to/lastmile_qr_scan"}, "is_reserved": 0, "fusion_lon": 0.0, "lat": 38.92159683333333, "type": "electric_scooter", "name": "c20be645996937dd3c681a16967a7130", "bike_id": "c20be645996937dd3c681a16967a7130", "fusion_lat": 0.0, "lon": -77.05129916666667}, {"is_disabled": 0, "rental_uris": {"ios": "https://dc.lft.to/lastmile_qr_scan", "android": "https://dc.lft.to/lastmile_qr_scan"}, "is_reserved": 0, "fusion_lon": 0.0, "lat": 38.96409216666667, "type": "electric_scooter", "name": "a9c207513f8f13aa1f783f2880b340e9", "bike_id": "a9c207513f8f13aa1f783f2880b340e9", "fusion_lat": 0.0, "lon": -77.03285683333333}, {"is_disabled": 0, "rental_uris": {"ios": "https://dc.lft.to/lastmile_qr_scan", "android": "https://dc.lft.to/lastmile_qr_scan"}, "is_reserved": 0, "fusion_lon": 0.0, "lat": 38.9069835, "type": "electric_scooter", "name": "9701d7ea4b5331fcdecfd15a73af437e", "bike_id": "9701d7ea4b5331fcdecfd15a73af437e", "fusion_lat": 0.0, "lon": -76.98694533333334}, {"is_disabled": 0, "rental_uris": {"ios": "https://dc.lft.to/lastmile_qr_scan", "android": "https://dc.lft.to/lastmile_qr_scan"}, "is_reserved": 0, "fusion_lon": 0.0, "lat": 38.891763166666664, "type": "electric_scooter", "name": "b2bc6b8868ebb7061cc47f14b856d2b2", "bike_id": "b2bc6b8868ebb7061cc47f14b856d2b2", "fusion_lat": 0.0, "lon": -77.01574416666666}, {"is_disabled": 0, "rental_uris": {"ios": "https://dc.lft.to/lastmile_qr_scan", "android": "https://dc.lft.to/lastmile_qr_scan"}, "is_reserved": 0, "fusion_lon": 0.0, "lat": 38.92106033333334, "type": "electric_scooter", "name": "e69cf8e20210854c4fa2780e45f69900", "bike_id": "e69cf8e20210854c4fa2780e45f69900", "fusion_lat": 0.0, "lon": -77.02204716666667}, {"is_disabled": 0, "rental_uris": {"ios": "https://dc.lft.to/lastmile_qr_scan", "android": "https://dc.lft.to/lastmile_qr_scan"}, "is_reserved": 0, "fusion_lon": 0.0, "lat": 38.905011333333334, "type": "electric_scooter", "name": "0192d7a6fac38b4895b9aed640f4ee6a", "bike_id": "0192d7a6fac38b4895b9aed640f4ee6a", "fusion_lat": 0.0, "lon": -77.03647133333334}, {"is_disabled": 0, "rental_uris": {"ios": "https://dc.lft.to/lastmile_qr_scan", "android": "https://dc.lft.to/lastmile_qr_scan"}, "is_reserved": 0, "fusion_lon": 0.0, "lat": 38.87173583333333, "type": "electric_bike", "name": "1760855a8fd0d6bd67c5b5bcd7d5bfc7", "bike_id": "1760855a8fd0d6bd67c5b5bcd7d5bfc7", "fusion_lat": 0.0, "lon": -77.00608883333334}, {"is_disabled": 0, "rental_uris": {"ios": "https://dc.lft.to/lastmile_qr_scan", "android": "https://dc.lft.to/lastmile_qr_scan"}, "is_reserved": 0, "fusion_lon": 0.0, "lat": 38.8972235, "type": "electric_scooter", "name": "b2befe113f1dc7093b2540e361c68956", "bike_id": "b2befe113f1dc7093b2540e361c68956", "fusion_lat": 0.0, "lon": -77.04986516666666}, {"is_disabled": 0, "rental_uris": {"ios": "https://dc.lft.to/lastmile_qr_scan", "android": "https://dc.lft.to/lastmile_qr_scan"}, "is_reserved": 0, "fusion_lon": 0.0, "lat": 38.8706545, "type": "electric_bike", "name": "509f5a9bdf5687b9feaf90613cc2a6b7", "bike_id": "509f5a9bdf5687b9feaf90613cc2a6b7", "fusion_lat": 0.0, "lon": -77.11039883333333}, {"is_disabled": 0, "rental_uris": {"ios": "https://dc.lft.to/lastmile_qr_scan", "android": "https://dc.lft.to/lastmile_qr_scan"}, "is_reserved": 0, "fusion_lon": 0.0, "lat": 38.91418266666667, "type": "electric_scooter", "name": "38ca1ac6dfdce833bf0cde29ae40ed76", "bike_id": "38ca1ac6dfdce833bf0cde29ae40ed76", "fusion_lat": 0.0, "lon": -77.01796433333334}, {"is_disabled": 0, "rental_uris": {"ios": "https://dc.lft.to/lastmile_qr_scan", "android": "https://dc.lft.to/lastmile_qr_scan"}, "is_reserved": 0, "fusion_lon": 0.0, "lat": 38.91966733333334, "type": "electric_scooter", "name": "333313a72247279ce98071a9116444e2", "bike_id": "333313a72247279ce98071a9116444e2", "fusion_lat": 0.0, "lon": -77.04640016666667}, {"is_disabled": 0, "rental_uris": {"ios": "https://dc.lft.to/lastmile_qr_scan", "android": "https://dc.lft.to/lastmile_qr_scan"}, "is_reserved": 0, "fusion_lon": 0.0, "lat": 38.907373, "type": "electric_scooter", "name": "a0a263e8e415582ea7bcde84c4a4eadd", "bike_id": "a0a263e8e415582ea7bcde84c4a4eadd", "fusion_lat": 0.0, "lon": -77.02796166666667}, {"is_disabled": 0, "rental_uris": {"ios": "https://dc.lft.to/lastmile_qr_scan", "android": "https://dc.lft.to/lastmile_qr_scan"}, "is_reserved": 0, "fusion_lon": 0.0, "lat": 38.90125483333333, "type": "electric_scooter", "name": "536c9926cc73aaad7e9316878e26d47a", "bike_id": "536c9926cc73aaad7e9316878e26d47a", "fusion_lat": 0.0, "lon": -77.04021816666666}, {"is_disabled": 0, "rental_uris": {"ios": "https://dc.lft.to/lastmile_qr_scan", "android": "https://dc.lft.to/lastmile_qr_scan"}, "is_reserved": 0, "fusion_lon": 0.0, "lat": 38.93302833333333, "type": "electric_scooter", "name": "bf84a124e7a1d5fe2a6d81d4d879429b", "bike_id": "bf84a124e7a1d5fe2a6d81d4d879429b", "fusion_lat": 0.0, "lon": -77.03080366666667}, {"is_disabled": 0, "rental_uris": {"ios": "https://dc.lft.to/lastmile_qr_scan", "android": "https://dc.lft.to/lastmile_qr_scan"}, "is_reserved": 0, "fusion_lon": 0.0, "lat": 38.87463066666667, "type": "electric_scooter", "name": "a86858b7ff0dc088d0804a013a3ab60a", "bike_id": "a86858b7ff0dc088d0804a013a3ab60a", "fusion_lat": 0.0, "lon": -77.00507633333334}, {"is_disabled": 0, "rental_uris": {"ios": "https://dc.lft.to/lastmile_qr_scan", "android": "https://dc.lft.to/lastmile_qr_scan"}, "is_reserved": 0, "fusion_lon": 0.0, "lat": 38.890433, "type": "electric_scooter", "name": "f6bb149fc1b80f99a455b5364d9e00f7", "bike_id": "f6bb149fc1b80f99a455b5364d9e00f7", "fusion_lat": 0.0, "lon": -77.019665}, {"is_disabled": 0, "rental_uris": {"ios": "https://dc.lft.to/lastmile_qr_scan", "android": "https://dc.lft.to/lastmile_qr_scan"}, "is_reserved": 0, "fusion_lon": 0.0, "lat": 38.92508016666667, "type": "electric_scooter", "name": "4e556a4b8ebdfac43d95220492ce7884", "bike_id": "4e556a4b8ebdfac43d95220492ce7884", "fusion_lat": 0.0, "lon": -77.022842}, {"is_disabled": 0, "rental_uris": {"ios": "https://dc.lft.to/lastmile_qr_scan", "android": "https://dc.lft.to/lastmile_qr_scan"}, "is_reserved": 0, "fusion_lon": 0.0, "lat": 38.919973166666665, "type": "electric_scooter", "name": "21e25f4c152fb4aeab95e637756c116f", "bike_id": "21e25f4c152fb4aeab95e637756c116f", "fusion_lat": 0.0, "lon": -77.0217505}, {"is_disabled": 0, "rental_uris": {"ios": "https://dc.lft.to/lastmile_qr_scan", "android": "https://dc.lft.to/lastmile_qr_scan"}, "is_reserved": 0, "fusion_lon": 0.0, "lat": 38.9287615, "type": "electric_scooter", "name": "41dee0e8e0e2535e05db11a8d92b193f", "bike_id": "41dee0e8e0e2535e05db11a8d92b193f", "fusion_lat": 0.0, "lon": -77.03298916666667}, {"is_disabled": 0, "rental_uris": {"ios": "https://dc.lft.to/lastmile_qr_scan", "android": "https://dc.lft.to/lastmile_qr_scan"}, "is_reserved": 0, "fusion_lon": 0.0, "lat": 38.91011366666667, "type": "electric_scooter", "name": "e207d29bd4442e4c13e44c437ffb981d", "bike_id": "e207d29bd4442e4c13e44c437ffb981d", "fusion_lat": 0.0, "lon": -77.02790633333333}, {"is_disabled": 0, "rental_uris": {"ios": "https://dc.lft.to/lastmile_qr_scan", "android": "https://dc.lft.to/lastmile_qr_scan"}, "is_reserved": 0, "fusion_lon": 0.0, "lat": 38.922283666666665, "type": "electric_scooter", "name": "14af11ffaa31ff645af7f97cf9baf9f8", "bike_id": "14af11ffaa31ff645af7f97cf9baf9f8", "fusion_lat": 0.0, "lon": -77.0282635}, {"is_disabled": 0, "rental_uris": {"ios": "https://dc.lft.to/lastmile_qr_scan", "android": "https://dc.lft.to/lastmile_qr_scan"}, "is_reserved": 0, "fusion_lon": 0.0, "lat": 38.896644333333334, "type": "electric_scooter", "name": "0896f678209aa036732997399bceffed", "bike_id": "0896f678209aa036732997399bceffed", "fusion_lat": 0.0, "lon": -77.024108}, {"is_disabled": 0, "rental_uris": {"ios": "https://dc.lft.to/lastmile_qr_scan", "android": "https://dc.lft.to/lastmile_qr_scan"}, "is_reserved": 0, "fusion_lon": 0.0, "lat": 38.9092515, "type": "electric_scooter", "name": "c31d8ebf9ffc7755117ce81a238c3632", "bike_id": "c31d8ebf9ffc7755117ce81a238c3632", "fusion_lat": 0.0, "lon": -77.02811033333333}, {"is_disabled": 0, "rental_uris": {"ios": "https://dc.lft.to/lastmile_qr_scan", "android": "https://dc.lft.to/lastmile_qr_scan"}, "is_reserved": 0, "fusion_lon": 0.0, "lat": 38.910286166666666, "type": "electric_bike", "name": "2f1a41bbf6be237c5776082674c8ece1", "bike_id": "2f1a41bbf6be237c5776082674c8ece1", "fusion_lat": 0.0, "lon": -76.92331783333333}, {"is_disabled": 0, "rental_uris": {"ios": "https://dc.lft.to/lastmile_qr_scan", "android": "https://dc.lft.to/lastmile_qr_scan"}, "is_reserved": 0, "fusion_lon": 0.0, "lat": 38.92239566666667, "type": "electric_scooter", "name": "5781a686aae08338a04bfa11c2cfb749", "bike_id": "5781a686aae08338a04bfa11c2cfb749", "fusion_lat": 0.0, "lon": -77.03354533333334}, {"is_disabled": 0, "rental_uris": {"ios": "https://dc.lft.to/lastmile_qr_scan", "android": "https://dc.lft.to/lastmile_qr_scan"}, "is_reserved": 0, "fusion_lon": 0.0, "lat": 38.920913166666665, "type": "electric_scooter", "name": "34745cd7d273fe47472c302d9b15f58d", "bike_id": "34745cd7d273fe47472c302d9b15f58d", "fusion_lat": 0.0, "lon": -77.023169}, {"is_disabled": 0, "rental_uris": {"ios": "https://dc.lft.to/lastmile_qr_scan", "android": "https://dc.lft.to/lastmile_qr_scan"}, "is_reserved": 0, "fusion_lon": 0.0, "lat": 38.906958333333336, "type": "electric_scooter", "name": "38a4fd951148b0826629dcff44a93804", "bike_id": "38a4fd951148b0826629dcff44a93804", "fusion_lat": 0.0, "lon": -77.009781}, {"is_disabled": 0, "rental_uris": {"ios": "https://dc.lft.to/lastmile_qr_scan", "android": "https://dc.lft.to/lastmile_qr_scan"}, "is_reserved": 0, "fusion_lon": 0.0, "lat": 38.913188, "type": "electric_scooter", "name": "0fac0e59f3e03fff63355b81dd9839e4", "bike_id": "0fac0e59f3e03fff63355b81dd9839e4", "fusion_lat": 0.0, "lon": -77.06242066666667}, {"is_disabled": 0, "rental_uris": {"ios": "https://dc.lft.to/lastmile_qr_scan", "android": "https://dc.lft.to/lastmile_qr_scan"}, "is_reserved": 0, "fusion_lon": 0.0, "lat": 38.898927, "type": "electric_scooter", "name": "ce536c9218b43e08e96e4024d73ed063", "bike_id": "ce536c9218b43e08e96e4024d73ed063", "fusion_lat": 0.0, "lon": -77.0328325}, {"is_disabled": 0, "rental_uris": {"ios": "https://dc.lft.to/lastmile_qr_scan", "android": "https://dc.lft.to/lastmile_qr_scan"}, "is_reserved": 0, "fusion_lon": 0.0, "lat": 38.908949, "type": "electric_scooter", "name": "3035631a239a5b65ddeb50b8da81a3c4", "bike_id": "3035631a239a5b65ddeb50b8da81a3c4", "fusion_lat": 0.0, "lon": -76.99624033333333}, {"is_disabled": 0, "rental_uris": {"ios": "https://dc.lft.to/lastmile_qr_scan", "android": "https://dc.lft.to/lastmile_qr_scan"}, "is_reserved": 0, "fusion_lon": 0.0, "lat": 38.8097585, "type": "electric_bike", "name": "61a73c93f9cecd82dc8639e8aa0761a7", "bike_id": "61a73c93f9cecd82dc8639e8aa0761a7", "fusion_lat": 0.0, "lon": -77.07658616666667}, {"is_disabled": 0, "rental_uris": {"ios": "https://dc.lft.to/lastmile_qr_scan", "android": "https://dc.lft.to/lastmile_qr_scan"}, "is_reserved": 0, "fusion_lon": 0.0, "lat": 38.911955666666664, "type": "electric_scooter", "name": "e92ce7df9b47ad8406b57571d8a2a4eb", "bike_id": "e92ce7df9b47ad8406b57571d8a2a4eb", "fusion_lat": 0.0, "lon": -77.073106}, {"is_disabled": 0, "rental_uris": {"ios": "https://dc.lft.to/lastmile_qr_scan", "android": "https://dc.lft.to/lastmile_qr_scan"}, "is_reserved": 0, "fusion_lon": 0.0, "lat": 38.896105166666665, "type": "electric_scooter", "name": "5d9dcfbcf0fd59c3bf693812a12536f7", "bike_id": "5d9dcfbcf0fd59c3bf693812a12536f7", "fusion_lat": 0.0, "lon": -77.044646}, {"is_disabled": 0, "rental_uris": {"ios": "https://dc.lft.to/lastmile_qr_scan", "android": "https://dc.lft.to/lastmile_qr_scan"}, "is_reserved": 0, "fusion_lon": 0.0, "lat": 38.90695566666667, "type": "electric_scooter", "name": "065e0c7bac0c5e6c2a9772f9fafe1305", "bike_id": "065e0c7bac0c5e6c2a9772f9fafe1305", "fusion_lat": 0.0, "lon": -77.03191483333333}, {"is_disabled": 0, "rental_uris": {"ios": "https://dc.lft.to/lastmile_qr_scan", "android": "https://dc.lft.to/lastmile_qr_scan"}, "is_reserved": 0, "fusion_lon": 0.0, "lat": 38.8996615, "type": "electric_scooter", "name": "7e5b11b185cd5f1cb374d1e3dff27d6b", "bike_id": "7e5b11b185cd5f1cb374d1e3dff27d6b", "fusion_lat": 0.0, "lon": -77.021569}, {"is_disabled": 0, "rental_uris": {"ios": "https://dc.lft.to/lastmile_qr_scan", "android": "https://dc.lft.to/lastmile_qr_scan"}, "is_reserved": 0, "fusion_lon": 0.0, "lat": 38.924654833333335, "type": "electric_scooter", "name": "6d6a52c3f4f0cd1fc29f7ff0500716fe", "bike_id": "6d6a52c3f4f0cd1fc29f7ff0500716fe", "fusion_lat": 0.0, "lon": -77.02236116666667}, {"is_disabled": 0, "rental_uris": {"ios": "https://dc.lft.to/lastmile_qr_scan", "android": "https://dc.lft.to/lastmile_qr_scan"}, "is_reserved": 0, "fusion_lon": 0.0, "lat": 38.89246116666666, "type": "electric_scooter", "name": "07f78966fdf0be58421e1c983ffc1b0f", "bike_id": "07f78966fdf0be58421e1c983ffc1b0f", "fusion_lat": 0.0, "lon": -77.02512033333333}, {"is_disabled": 0, "rental_uris": {"ios": "https://dc.lft.to/lastmile_qr_scan", "android": "https://dc.lft.to/lastmile_qr_scan"}, "is_reserved": 0, "fusion_lon": 0.0, "lat": 38.90754033333333, "type": "electric_scooter", "name": "7dbb97dd9292b1f8729558a859375695", "bike_id": "7dbb97dd9292b1f8729558a859375695", "fusion_lat": 0.0, "lon": -77.0423565}, {"is_disabled": 0, "rental_uris": {"ios": "https://dc.lft.to/lastmile_qr_scan", "android": "https://dc.lft.to/lastmile_qr_scan"}, "is_reserved": 0, "fusion_lon": 0.0, "lat": 38.91108083333334, "type": "electric_scooter", "name": "530b0827ffa1da7b0dfe3e63bed9e29a", "bike_id": "530b0827ffa1da7b0dfe3e63bed9e29a", "fusion_lat": 0.0, "lon": -77.03133083333333}, {"is_disabled": 0, "rental_uris": {"ios": "https://dc.lft.to/lastmile_qr_scan", "android": "https://dc.lft.to/lastmile_qr_scan"}, "is_reserved": 0, "fusion_lon": 0.0, "lat": 38.89229516666666, "type": "electric_scooter", "name": "e02f3b1b66af25cea37c991f90be4b62", "bike_id": "e02f3b1b66af25cea37c991f90be4b62", "fusion_lat": 0.0, "lon": -77.02802}, {"is_disabled": 0, "rental_uris": {"ios": "https://dc.lft.to/lastmile_qr_scan", "android": "https://dc.lft.to/lastmile_qr_scan"}, "is_reserved": 0, "fusion_lon": 0.0, "lat": 38.94964016666667, "type": "electric_scooter", "name": "aa505c6edb2adfcc3d609a64b8f54f1c", "bike_id": "aa505c6edb2adfcc3d609a64b8f54f1c", "fusion_lat": 0.0, "lon": -77.06749866666667}, {"is_disabled": 0, "rental_uris": {"ios": "https://dc.lft.to/lastmile_qr_scan", "android": "https://dc.lft.to/lastmile_qr_scan"}, "is_reserved": 0, "fusion_lon": 0.0, "lat": 38.90039183333333, "type": "electric_scooter", "name": "2054dff2b0b891e8dc14aa9f64266569", "bike_id": "2054dff2b0b891e8dc14aa9f64266569", "fusion_lat": 0.0, "lon": -76.98839983333333}, {"is_disabled": 0, "rental_uris": {"ios": "https://dc.lft.to/lastmile_qr_scan", "android": "https://dc.lft.to/lastmile_qr_scan"}, "is_reserved": 0, "fusion_lon": 0.0, "lat": 38.908516166666665, "type": "electric_scooter", "name": "8108d8ce781ac1b750f5034da5e64dd7", "bike_id": "8108d8ce781ac1b750f5034da5e64dd7", "fusion_lat": 0.0, "lon": -77.02826116666667}, {"is_disabled": 0, "rental_uris": {"ios": "https://dc.lft.to/lastmile_qr_scan", "android": "https://dc.lft.to/lastmile_qr_scan"}, "is_reserved": 0, "fusion_lon": 0.0, "lat": 38.91286266666667, "type": "electric_scooter", "name": "58ade315981b4b052fa9c066bc46f924", "bike_id": "58ade315981b4b052fa9c066bc46f924", "fusion_lat": 0.0, "lon": -77.0385205}, {"is_disabled": 0, "rental_uris": {"ios": "https://dc.lft.to/lastmile_qr_scan", "android": "https://dc.lft.to/lastmile_qr_scan"}, "is_reserved": 0, "fusion_lon": 0.0, "lat": 38.95683433333333, "type": "electric_scooter", "name": "21ba9201f5365349f2351f4898d2d881", "bike_id": "21ba9201f5365349f2351f4898d2d881", "fusion_lat": 0.0, "lon": -77.02231233333333}, {"is_disabled": 0, "rental_uris": {"ios": "https://dc.lft.to/lastmile_qr_scan", "android": "https://dc.lft.to/lastmile_qr_scan"}, "is_reserved": 0, "fusion_lon": 0.0, "lat": 38.95730016666667, "type": "electric_scooter", "name": "383c54c4ac07f9d567ec5b4e755b809e", "bike_id": "383c54c4ac07f9d567ec5b4e755b809e", "fusion_lat": 0.0, "lon": -77.024013}, {"is_disabled": 0, "rental_uris": {"ios": "https://dc.lft.to/lastmile_qr_scan", "android": "https://dc.lft.to/lastmile_qr_scan"}, "is_reserved": 0, "fusion_lon": 0.0, "lat": 38.9203825, "type": "electric_scooter", "name": "efb9d11ae75d6d14ef70eea7d153dc55", "bike_id": "efb9d11ae75d6d14ef70eea7d153dc55", "fusion_lat": 0.0, "lon": -77.01725616666667}, {"is_disabled": 0, "rental_uris": {"ios": "https://dc.lft.to/lastmile_qr_scan", "android": "https://dc.lft.to/lastmile_qr_scan"}, "is_reserved": 0, "fusion_lon": 0.0, "lat": 38.88019466666667, "type": "electric_scooter", "name": "74004f4b690cd7af2ffb24406dd38180", "bike_id": "74004f4b690cd7af2ffb24406dd38180", "fusion_lat": 0.0, "lon": -76.9857265}, {"is_disabled": 0, "rental_uris": {"ios": "https://dc.lft.to/lastmile_qr_scan", "android": "https://dc.lft.to/lastmile_qr_scan"}, "is_reserved": 0, "fusion_lon": 0.0, "lat": 38.85812516666667, "type": "electric_scooter", "name": "a870b9d06edc669e8e7d7c3be6fabc22", "bike_id": "a870b9d06edc669e8e7d7c3be6fabc22", "fusion_lat": 0.0, "lon": -76.98996616666666}, {"is_disabled": 0, "rental_uris": {"ios": "https://dc.lft.to/lastmile_qr_scan", "android": "https://dc.lft.to/lastmile_qr_scan"}, "is_reserved": 0, "fusion_lon": 0.0, "lat": 38.912199666666666, "type": "electric_scooter", "name": "6a71896ccad45e7f8a31f01487f4291d", "bike_id": "6a71896ccad45e7f8a31f01487f4291d", "fusion_lat": 0.0, "lon": -77.03204633333333}, {"is_disabled": 0, "rental_uris": {"ios": "https://dc.lft.to/lastmile_qr_scan", "android": "https://dc.lft.to/lastmile_qr_scan"}, "is_reserved": 0, "fusion_lon": 0.0, "lat": 38.827733, "type": "electric_bike", "name": "30633596fb0b8b5c0b23c193aa57477a", "bike_id": "30633596fb0b8b5c0b23c193aa57477a", "fusion_lat": 0.0, "lon": -77.06012733333333}, {"is_disabled": 0, "rental_uris": {"ios": "https://dc.lft.to/lastmile_qr_scan", "android": "https://dc.lft.to/lastmile_qr_scan"}, "is_reserved": 0, "fusion_lon": 0.0, "lat": 38.9104755, "type": "electric_scooter", "name": "bc223bc027f348f599269e5ac66ea38b", "bike_id": "bc223bc027f348f599269e5ac66ea38b", "fusion_lat": 0.0, "lon": -77.02183033333333}, {"is_disabled": 0, "rental_uris": {"ios": "https://dc.lft.to/lastmile_qr_scan", "android": "https://dc.lft.to/lastmile_qr_scan"}, "is_reserved": 0, "fusion_lon": 0.0, "lat": 38.919753166666666, "type": "electric_scooter", "name": "039579823783f079646ec638590424d8", "bike_id": "039579823783f079646ec638590424d8", "fusion_lat": 0.0, "lon": -77.02497383333333}, {"is_disabled": 0, "rental_uris": {"ios": "https://dc.lft.to/lastmile_qr_scan", "android": "https://dc.lft.to/lastmile_qr_scan"}, "is_reserved": 0, "fusion_lon": 0.0, "lat": 38.87678533333333, "type": "electric_scooter", "name": "a791ae81e547c34d863b5ad11a99dd3b", "bike_id": "a791ae81e547c34d863b5ad11a99dd3b", "fusion_lat": 0.0, "lon": -77.0006065}, {"is_disabled": 0, "rental_uris": {"ios": "https://dc.lft.to/lastmile_qr_scan", "android": "https://dc.lft.to/lastmile_qr_scan"}, "is_reserved": 0, "fusion_lon": 0.0, "lat": 38.924300333333335, "type": "electric_scooter", "name": "17425dc8a9cef57b94345e5d76bff605", "bike_id": "17425dc8a9cef57b94345e5d76bff605", "fusion_lat": 0.0, "lon": -77.000656}, {"is_disabled": 0, "rental_uris": {"ios": "https://dc.lft.to/lastmile_qr_scan", "android": "https://dc.lft.to/lastmile_qr_scan"}, "is_reserved": 0, "fusion_lon": 0.0, "lat": 38.924642166666665, "type": "electric_scooter", "name": "35731230ef04aa61e525cc753d0b2357", "bike_id": "35731230ef04aa61e525cc753d0b2357", "fusion_lat": 0.0, "lon": -77.02713033333333}, {"is_disabled": 0, "rental_uris": {"ios": "https://dc.lft.to/lastmile_qr_scan", "android": "https://dc.lft.to/lastmile_qr_scan"}, "is_reserved": 0, "fusion_lon": 0.0, "lat": 38.91819616666667, "type": "electric_scooter", "name": "2b6f0dc3e4c096e08d589825c65229a8", "bike_id": "2b6f0dc3e4c096e08d589825c65229a8", "fusion_lat": 0.0, "lon": -77.041517}, {"is_disabled": 0, "rental_uris": {"ios": "https://dc.lft.to/lastmile_qr_scan", "android": "https://dc.lft.to/lastmile_qr_scan"}, "is_reserved": 0, "fusion_lon": 0.0, "lat": 38.92306966666666, "type": "electric_scooter", "name": "dcd5697d1d38a4a19941a6a4529efbad", "bike_id": "dcd5697d1d38a4a19941a6a4529efbad", "fusion_lat": 0.0, "lon": -77.029026}, {"is_disabled": 0, "rental_uris": {"ios": "https://dc.lft.to/lastmile_qr_scan", "android": "https://dc.lft.to/lastmile_qr_scan"}, "is_reserved": 0, "fusion_lon": 0.0, "lat": 38.9219395, "type": "electric_scooter", "name": "6aed4152df854ed6877aa674e305796d", "bike_id": "6aed4152df854ed6877aa674e305796d", "fusion_lat": 0.0, "lon": -77.0379005}, {"is_disabled": 0, "rental_uris": {"ios": "https://dc.lft.to/lastmile_qr_scan", "android": "https://dc.lft.to/lastmile_qr_scan"}, "is_reserved": 0, "fusion_lon": 0.0, "lat": 38.89336183333333, "type": "electric_scooter", "name": "b82abeae133119e3be8ffddb6eb22d73", "bike_id": "b82abeae133119e3be8ffddb6eb22d73", "fusion_lat": 0.0, "lon": -77.04645716666667}, {"is_disabled": 0, "rental_uris": {"ios": "https://dc.lft.to/lastmile_qr_scan", "android": "https://dc.lft.to/lastmile_qr_scan"}, "is_reserved": 0, "fusion_lon": 0.0, "lat": 38.887327166666665, "type": "electric_scooter", "name": "ea278bc8412a7811cc7e71fd0dc0244d", "bike_id": "ea278bc8412a7811cc7e71fd0dc0244d", "fusion_lat": 0.0, "lon": -77.022084}, {"is_disabled": 0, "rental_uris": {"ios": "https://dc.lft.to/lastmile_qr_scan", "android": "https://dc.lft.to/lastmile_qr_scan"}, "is_reserved": 0, "fusion_lon": 0.0, "lat": 38.919261666666664, "type": "electric_scooter", "name": "d2f6832f8d00bce12225e51f2951edfa", "bike_id": "d2f6832f8d00bce12225e51f2951edfa", "fusion_lat": 0.0, "lon": -77.030984}, {"is_disabled": 0, "rental_uris": {"ios": "https://dc.lft.to/lastmile_qr_scan", "android": "https://dc.lft.to/lastmile_qr_scan"}, "is_reserved": 0, "fusion_lon": 0.0, "lat": 38.90154366666667, "type": "electric_scooter", "name": "70a56fc65703711018e9996bb84a3139", "bike_id": "70a56fc65703711018e9996bb84a3139", "fusion_lat": 0.0, "lon": -77.03965316666667}, {"is_disabled": 0, "rental_uris": {"ios": "https://dc.lft.to/lastmile_qr_scan", "android": "https://dc.lft.to/lastmile_qr_scan"}, "is_reserved": 0, "fusion_lon": 0.0, "lat": 38.92335933333333, "type": "electric_scooter", "name": "6dfde4419a07bc8d81574eef6b06f0ac", "bike_id": "6dfde4419a07bc8d81574eef6b06f0ac", "fusion_lat": 0.0, "lon": -77.034728}, {"is_disabled": 0, "rental_uris": {"ios": "https://dc.lft.to/lastmile_qr_scan", "android": "https://dc.lft.to/lastmile_qr_scan"}, "is_reserved": 0, "fusion_lon": 0.0, "lat": 38.877431, "type": "electric_scooter", "name": "a64baf1a2124a7220cf5940d231c75c0", "bike_id": "a64baf1a2124a7220cf5940d231c75c0", "fusion_lat": 0.0, "lon": -77.017779}, {"is_disabled": 0, "rental_uris": {"ios": "https://dc.lft.to/lastmile_qr_scan", "android": "https://dc.lft.to/lastmile_qr_scan"}, "is_reserved": 0, "fusion_lon": 0.0, "lat": 38.901763833333334, "type": "electric_scooter", "name": "46a900712a0c459ef9c0012d20cd6d58", "bike_id": "46a900712a0c459ef9c0012d20cd6d58", "fusion_lat": 0.0, "lon": -77.050229}, {"is_disabled": 0, "rental_uris": {"ios": "https://dc.lft.to/lastmile_qr_scan", "android": "https://dc.lft.to/lastmile_qr_scan"}, "is_reserved": 0, "fusion_lon": 0.0, "lat": 38.923635, "type": "electric_scooter", "name": "dc600637f89c71bfc225d834438b4477", "bike_id": "dc600637f89c71bfc225d834438b4477", "fusion_lat": 0.0, "lon": -77.05028983333334}, {"is_disabled": 0, "rental_uris": {"ios": "https://dc.lft.to/lastmile_qr_scan", "android": "https://dc.lft.to/lastmile_qr_scan"}, "is_reserved": 0, "fusion_lon": 0.0, "lat": 38.90543916666667, "type": "electric_scooter", "name": "cd0c1e731a56ff0c491d8782d00a431a", "bike_id": "cd0c1e731a56ff0c491d8782d00a431a", "fusion_lat": 0.0, "lon": -77.04471266666667}, {"is_disabled": 0, "rental_uris": {"ios": "https://dc.lft.to/lastmile_qr_scan", "android": "https://dc.lft.to/lastmile_qr_scan"}, "is_reserved": 0, "fusion_lon": 0.0, "lat": 38.89640033333333, "type": "electric_scooter", "name": "dc7d9e09d77a34c94ecb929eb8987dbe", "bike_id": "dc7d9e09d77a34c94ecb929eb8987dbe", "fusion_lat": 0.0, "lon": -76.92802833333333}, {"is_disabled": 0, "rental_uris": {"ios": "https://dc.lft.to/lastmile_qr_scan", "android": "https://dc.lft.to/lastmile_qr_scan"}, "is_reserved": 0, "fusion_lon": 0.0, "lat": 38.91631733333333, "type": "electric_scooter", "name": "ea1967d2a55d4260c4ad49dc4a194688", "bike_id": "ea1967d2a55d4260c4ad49dc4a194688", "fusion_lat": 0.0, "lon": -77.04810583333334}, {"is_disabled": 0, "rental_uris": {"ios": "https://dc.lft.to/lastmile_qr_scan", "android": "https://dc.lft.to/lastmile_qr_scan"}, "is_reserved": 0, "fusion_lon": 0.0, "lat": 38.889709, "type": "electric_scooter", "name": "3841d14a9620452c2c75fe0819a5718e", "bike_id": "3841d14a9620452c2c75fe0819a5718e", "fusion_lat": 0.0, "lon": -76.98175666666667}, {"is_disabled": 0, "rental_uris": {"ios": "https://dc.lft.to/lastmile_qr_scan", "android": "https://dc.lft.to/lastmile_qr_scan"}, "is_reserved": 0, "fusion_lon": 0.0, "lat": 38.91651183333333, "type": "electric_scooter", "name": "a62cd8d08c00c9fcf245b46e7e65544c", "bike_id": "a62cd8d08c00c9fcf245b46e7e65544c", "fusion_lat": 0.0, "lon": -77.03235416666666}, {"is_disabled": 0, "rental_uris": {"ios": "https://dc.lft.to/lastmile_qr_scan", "android": "https://dc.lft.to/lastmile_qr_scan"}, "is_reserved": 0, "fusion_lon": 0.0, "lat": 38.94292, "type": "electric_bike", "name": "aac9bdcfe3b79de18792f0387a5a070b", "bike_id": "aac9bdcfe3b79de18792f0387a5a070b", "fusion_lat": 0.0, "lon": -77.003011}, {"is_disabled": 0, "rental_uris": {"ios": "https://dc.lft.to/lastmile_qr_scan", "android": "https://dc.lft.to/lastmile_qr_scan"}, "is_reserved": 0, "fusion_lon": 0.0, "lat": 38.94957683333333, "type": "electric_scooter", "name": "963260d2a2b8c147cb8ba8cbfb79a0dd", "bike_id": "963260d2a2b8c147cb8ba8cbfb79a0dd", "fusion_lat": 0.0, "lon": -77.06640166666666}, {"is_disabled": 0, "rental_uris": {"ios": "https://dc.lft.to/lastmile_qr_scan", "android": "https://dc.lft.to/lastmile_qr_scan"}, "is_reserved": 0, "fusion_lon": 0.0, "lat": 38.898804166666665, "type": "electric_scooter", "name": "f1b020961a987860b6b902e9b5029017", "bike_id": "f1b020961a987860b6b902e9b5029017", "fusion_lat": 0.0, "lon": -76.98682033333333}, {"is_disabled": 0, "rental_uris": {"ios": "https://dc.lft.to/lastmile_qr_scan", "android": "https://dc.lft.to/lastmile_qr_scan"}, "is_reserved": 0, "fusion_lon": 0.0, "lat": 38.921139, "type": "electric_scooter", "name": "10619bc4cc4a8472e5b0c6909a6b31a1", "bike_id": "10619bc4cc4a8472e5b0c6909a6b31a1", "fusion_lat": 0.0, "lon": -77.03180416666666}, {"is_disabled": 0, "rental_uris": {"ios": "https://dc.lft.to/lastmile_qr_scan", "android": "https://dc.lft.to/lastmile_qr_scan"}, "is_reserved": 0, "fusion_lon": 0.0, "lat": 38.915592833333335, "type": "electric_scooter", "name": "c3eacfb8a5a42e1558c6cd3f7bba717f", "bike_id": "c3eacfb8a5a42e1558c6cd3f7bba717f", "fusion_lat": 0.0, "lon": -77.039421}, {"is_disabled": 0, "rental_uris": {"ios": "https://dc.lft.to/lastmile_qr_scan", "android": "https://dc.lft.to/lastmile_qr_scan"}, "is_reserved": 0, "fusion_lon": 0.0, "lat": 38.902744, "type": "electric_scooter", "name": "8ed07c4b792fd9d23ca904db267be05b", "bike_id": "8ed07c4b792fd9d23ca904db267be05b", "fusion_lat": 0.0, "lon": -77.03741633333334}, {"is_disabled": 0, "rental_uris": {"ios": "https://dc.lft.to/lastmile_qr_scan", "android": "https://dc.lft.to/lastmile_qr_scan"}, "is_reserved": 0, "fusion_lon": 0.0, "lat": 38.926633833333334, "type": "electric_scooter", "name": "01cd09920daaa658957c4ceb0c74f223", "bike_id": "01cd09920daaa658957c4ceb0c74f223", "fusion_lat": 0.0, "lon": -77.0601295}, {"is_disabled": 0, "rental_uris": {"ios": "https://dc.lft.to/lastmile_qr_scan", "android": "https://dc.lft.to/lastmile_qr_scan"}, "is_reserved": 0, "fusion_lon": 0.0, "lat": 38.907492833333336, "type": "electric_scooter", "name": "a2681a6b2161becae6361b2509f11124", "bike_id": "a2681a6b2161becae6361b2509f11124", "fusion_lat": 0.0, "lon": -77.03069416666666}, {"is_disabled": 0, "rental_uris": {"ios": "https://dc.lft.to/lastmile_qr_scan", "android": "https://dc.lft.to/lastmile_qr_scan"}, "is_reserved": 0, "fusion_lon": 0.0, "lat": 38.89741516666667, "type": "electric_scooter", "name": "68cb2c7f901d55409eba968516f0fc88", "bike_id": "68cb2c7f901d55409eba968516f0fc88", "fusion_lat": 0.0, "lon": -77.0499565}, {"is_disabled": 0, "rental_uris": {"ios": "https://dc.lft.to/lastmile_qr_scan", "android": "https://dc.lft.to/lastmile_qr_scan"}, "is_reserved": 0, "fusion_lon": 0.0, "lat": 38.974366833333335, "type": "electric_bike", "name": "4e75070e4d4de35068131b420d50d52b", "bike_id": "4e75070e4d4de35068131b420d50d52b", "fusion_lat": 0.0, "lon": -77.09583666666667}, {"is_disabled": 0, "rental_uris": {"ios": "https://dc.lft.to/lastmile_qr_scan", "android": "https://dc.lft.to/lastmile_qr_scan"}, "is_reserved": 0, "fusion_lon": 0.0, "lat": 38.935559833333336, "type": "electric_scooter", "name": "d70d8e90a2d2a3619b9d127597855f99", "bike_id": "d70d8e90a2d2a3619b9d127597855f99", "fusion_lat": 0.0, "lon": -77.07463333333334}, {"is_disabled": 0, "rental_uris": {"ios": "https://dc.lft.to/lastmile_qr_scan", "android": "https://dc.lft.to/lastmile_qr_scan"}, "is_reserved": 0, "fusion_lon": 0.0, "lat": 38.92301416666667, "type": "electric_scooter", "name": "293cc9b15c438bc017c41323b95572e3", "bike_id": "293cc9b15c438bc017c41323b95572e3", "fusion_lat": 0.0, "lon": -77.03405983333333}, {"is_disabled": 0, "rental_uris": {"ios": "https://dc.lft.to/lastmile_qr_scan", "android": "https://dc.lft.to/lastmile_qr_scan"}, "is_reserved": 0, "fusion_lon": 0.0, "lat": 38.896643, "type": "electric_bike", "name": "86cdfe0e8c436bf75b5563b8c724103f", "bike_id": "86cdfe0e8c436bf75b5563b8c724103f", "fusion_lat": 0.0, "lon": -76.932092}, {"is_disabled": 0, "rental_uris": {"ios": "https://dc.lft.to/lastmile_qr_scan", "android": "https://dc.lft.to/lastmile_qr_scan"}, "is_reserved": 0, "fusion_lon": 0.0, "lat": 38.929590833333336, "type": "electric_scooter", "name": "11e860891073a2e89947654950ff8cdb", "bike_id": "11e860891073a2e89947654950ff8cdb", "fusion_lat": 0.0, "lon": -77.0412425}, {"is_disabled": 0, "rental_uris": {"ios": "https://dc.lft.to/lastmile_qr_scan", "android": "https://dc.lft.to/lastmile_qr_scan"}, "is_reserved": 0, "fusion_lon": 0.0, "lat": 38.9232135, "type": "electric_scooter", "name": "998848383e8a4e2683041e5e316ad199", "bike_id": "998848383e8a4e2683041e5e316ad199", "fusion_lat": 0.0, "lon": -77.02127966666667}, {"is_disabled": 0, "rental_uris": {"ios": "https://dc.lft.to/lastmile_qr_scan", "android": "https://dc.lft.to/lastmile_qr_scan"}, "is_reserved": 0, "fusion_lon": 0.0, "lat": 38.919806333333334, "type": "electric_scooter", "name": "3552046d974ab96fdc5a89b44dfa1b4e", "bike_id": "3552046d974ab96fdc5a89b44dfa1b4e", "fusion_lat": 0.0, "lon": -77.0418275}, {"is_disabled": 0, "rental_uris": {"ios": "https://dc.lft.to/lastmile_qr_scan", "android": "https://dc.lft.to/lastmile_qr_scan"}, "is_reserved": 0, "fusion_lon": 0.0, "lat": 38.91253733333333, "type": "electric_scooter", "name": "def19f7fa4b101bf8d039b1dd0553262", "bike_id": "def19f7fa4b101bf8d039b1dd0553262", "fusion_lat": 0.0, "lon": -77.03861883333333}, {"is_disabled": 0, "rental_uris": {"ios": "https://dc.lft.to/lastmile_qr_scan", "android": "https://dc.lft.to/lastmile_qr_scan"}, "is_reserved": 0, "fusion_lon": 0.0, "lat": 38.903676833333336, "type": "electric_scooter", "name": "e048102aec60ce8a36f730a3a334dc6c", "bike_id": "e048102aec60ce8a36f730a3a334dc6c", "fusion_lat": 0.0, "lon": -77.0342315}, {"is_disabled": 0, "rental_uris": {"ios": "https://dc.lft.to/lastmile_qr_scan", "android": "https://dc.lft.to/lastmile_qr_scan"}, "is_reserved": 0, "fusion_lon": 0.0, "lat": 38.9729995, "type": "electric_bike", "name": "fcad18bbad66019c87d21eacc0b9f49c", "bike_id": "fcad18bbad66019c87d21eacc0b9f49c", "fusion_lat": 0.0, "lon": -77.02876733333333}, {"is_disabled": 0, "rental_uris": {"ios": "https://dc.lft.to/lastmile_qr_scan", "android": "https://dc.lft.to/lastmile_qr_scan"}, "is_reserved": 0, "fusion_lon": 0.0, "lat": 38.89529916666667, "type": "electric_scooter", "name": "e8d2d9e679f26f49546faca758590169", "bike_id": "e8d2d9e679f26f49546faca758590169", "fusion_lat": 0.0, "lon": -76.94928966666667}, {"is_disabled": 0, "rental_uris": {"ios": "https://dc.lft.to/lastmile_qr_scan", "android": "https://dc.lft.to/lastmile_qr_scan"}, "is_reserved": 0, "fusion_lon": 0.0, "lat": 38.92219166666667, "type": "electric_scooter", "name": "d0c0fe8cce06327f1e1dd57adbdfc707", "bike_id": "d0c0fe8cce06327f1e1dd57adbdfc707", "fusion_lat": 0.0, "lon": -77.04240566666667}, {"is_disabled": 0, "rental_uris": {"ios": "https://dc.lft.to/lastmile_qr_scan", "android": "https://dc.lft.to/lastmile_qr_scan"}, "is_reserved": 0, "fusion_lon": 0.0, "lat": 38.84192866666667, "type": "electric_bike", "name": "041657fa8a893ba233425a27975ec248", "bike_id": "041657fa8a893ba233425a27975ec248", "fusion_lat": 0.0, "lon": -77.07750716666666}, {"is_disabled": 0, "rental_uris": {"ios": "https://dc.lft.to/lastmile_qr_scan", "android": "https://dc.lft.to/lastmile_qr_scan"}, "is_reserved": 0, "fusion_lon": 0.0, "lat": 38.88404633333333, "type": "electric_bike", "name": "e2614ef7fa2ddb4ca0ebde40165a4559", "bike_id": "e2614ef7fa2ddb4ca0ebde40165a4559", "fusion_lat": 0.0, "lon": -76.99531833333333}, {"is_disabled": 0, "rental_uris": {"ios": "https://dc.lft.to/lastmile_qr_scan", "android": "https://dc.lft.to/lastmile_qr_scan"}, "is_reserved": 0, "fusion_lon": 0.0, "lat": 38.91198083333333, "type": "electric_scooter", "name": "5f7f734be6f73a0c2c9e337068af34f3", "bike_id": "5f7f734be6f73a0c2c9e337068af34f3", "fusion_lat": 0.0, "lon": -76.98773716666666}, {"is_disabled": 0, "rental_uris": {"ios": "https://dc.lft.to/lastmile_qr_scan", "android": "https://dc.lft.to/lastmile_qr_scan"}, "is_reserved": 0, "fusion_lon": 0.0, "lat": 38.88596183333333, "type": "electric_scooter", "name": "c83919691451e38229a9a6c83535c1a4", "bike_id": "c83919691451e38229a9a6c83535c1a4", "fusion_lat": 0.0, "lon": -77.01997566666667}, {"is_disabled": 0, "rental_uris": {"ios": "https://dc.lft.to/lastmile_qr_scan", "android": "https://dc.lft.to/lastmile_qr_scan"}, "is_reserved": 0, "fusion_lon": 0.0, "lat": 38.89978583333333, "type": "electric_scooter", "name": "111a86de3dead7ade824f4c379a194cc", "bike_id": "111a86de3dead7ade824f4c379a194cc", "fusion_lat": 0.0, "lon": -77.0308335}, {"is_disabled": 0, "rental_uris": {"ios": "https://dc.lft.to/lastmile_qr_scan", "android": "https://dc.lft.to/lastmile_qr_scan"}, "is_reserved": 0, "fusion_lon": 0.0, "lat": 38.910354833333336, "type": "electric_scooter", "name": "8929c3a05799253cf5a52f35675c4be2", "bike_id": "8929c3a05799253cf5a52f35675c4be2", "fusion_lat": 0.0, "lon": -77.0268895}, {"is_disabled": 0, "rental_uris": {"ios": "https://dc.lft.to/lastmile_qr_scan", "android": "https://dc.lft.to/lastmile_qr_scan"}, "is_reserved": 0, "fusion_lon": 0.0, "lat": 38.91762266666667, "type": "electric_scooter", "name": "355c012e26b9c5660150f95e58912e49", "bike_id": "355c012e26b9c5660150f95e58912e49", "fusion_lat": 0.0, "lon": -77.04768916666667}, {"is_disabled": 0, "rental_uris": {"ios": "https://dc.lft.to/lastmile_qr_scan", "android": "https://dc.lft.to/lastmile_qr_scan"}, "is_reserved": 0, "fusion_lon": 0.0, "lat": 38.90523916666667, "type": "electric_scooter", "name": "2d70a37043f3a5b69f5b329962b48a1f", "bike_id": "2d70a37043f3a5b69f5b329962b48a1f", "fusion_lat": 0.0, "lon": -77.0660415}, {"is_disabled": 0, "rental_uris": {"ios": "https://dc.lft.to/lastmile_qr_scan", "android": "https://dc.lft.to/lastmile_qr_scan"}, "is_reserved": 0, "fusion_lon": 0.0, "lat": 38.8812675, "type": "electric_scooter", "name": "c70d3541b34a0a31f82dbf204c668324", "bike_id": "c70d3541b34a0a31f82dbf204c668324", "fusion_lat": 0.0, "lon": -77.022686}, {"is_disabled": 0, "rental_uris": {"ios": "https://dc.lft.to/lastmile_qr_scan", "android": "https://dc.lft.to/lastmile_qr_scan"}, "is_reserved": 0, "fusion_lon": 0.0, "lat": 38.919860166666666, "type": "electric_scooter", "name": "9e0d21077abe6a83f26469fe17c931e8", "bike_id": "9e0d21077abe6a83f26469fe17c931e8", "fusion_lat": 0.0, "lon": -77.0178715}, {"is_disabled": 0, "rental_uris": {"ios": "https://dc.lft.to/lastmile_qr_scan", "android": "https://dc.lft.to/lastmile_qr_scan"}, "is_reserved": 0, "fusion_lon": 0.0, "lat": 38.91721733333333, "type": "electric_scooter", "name": "177626bab5fcabaf07406dbc3cc42584", "bike_id": "177626bab5fcabaf07406dbc3cc42584", "fusion_lat": 0.0, "lon": -77.04103583333334}, {"is_disabled": 0, "rental_uris": {"ios": "https://dc.lft.to/lastmile_qr_scan", "android": "https://dc.lft.to/lastmile_qr_scan"}, "is_reserved": 0, "fusion_lon": 0.0, "lat": 38.887053333333334, "type": "electric_scooter", "name": "35d16e1e4fab0860e6912429ee5262d5", "bike_id": "35d16e1e4fab0860e6912429ee5262d5", "fusion_lat": 0.0, "lon": -77.01368983333333}, {"is_disabled": 0, "rental_uris": {"ios": "https://dc.lft.to/lastmile_qr_scan", "android": "https://dc.lft.to/lastmile_qr_scan"}, "is_reserved": 0, "fusion_lon": 0.0, "lat": 38.90830883333334, "type": "electric_scooter", "name": "ed5269bcd6cff9c5c99a38a74432db23", "bike_id": "ed5269bcd6cff9c5c99a38a74432db23", "fusion_lat": 0.0, "lon": -77.0363265}, {"is_disabled": 0, "rental_uris": {"ios": "https://dc.lft.to/lastmile_qr_scan", "android": "https://dc.lft.to/lastmile_qr_scan"}, "is_reserved": 0, "fusion_lon": 0.0, "lat": 38.842918833333336, "type": "electric_bike", "name": "13ee54ec0dccce3528fed7fda2a5b7a8", "bike_id": "13ee54ec0dccce3528fed7fda2a5b7a8", "fusion_lat": 0.0, "lon": -77.0638205}, {"is_disabled": 0, "rental_uris": {"ios": "https://dc.lft.to/lastmile_qr_scan", "android": "https://dc.lft.to/lastmile_qr_scan"}, "is_reserved": 0, "fusion_lon": 0.0, "lat": 38.99400933333333, "type": "electric_bike", "name": "d02a028b32421aafbcca6406fed6b8e1", "bike_id": "d02a028b32421aafbcca6406fed6b8e1", "fusion_lat": 0.0, "lon": -77.02317733333334}, {"is_disabled": 0, "rental_uris": {"ios": "https://dc.lft.to/lastmile_qr_scan", "android": "https://dc.lft.to/lastmile_qr_scan"}, "is_reserved": 0, "fusion_lon": 0.0, "lat": 38.92598566666667, "type": "electric_scooter", "name": "caf7694893deeb1b519b59aff6dd5610", "bike_id": "caf7694893deeb1b519b59aff6dd5610", "fusion_lat": 0.0, "lon": -77.02152283333334}, {"is_disabled": 0, "rental_uris": {"ios": "https://dc.lft.to/lastmile_qr_scan", "android": "https://dc.lft.to/lastmile_qr_scan"}, "is_reserved": 0, "fusion_lon": 0.0, "lat": 38.9027435, "type": "electric_scooter", "name": "f89927b702f227dc25355a37c4076432", "bike_id": "f89927b702f227dc25355a37c4076432", "fusion_lat": 0.0, "lon": -77.03646833333333}, {"is_disabled": 0, "rental_uris": {"ios": "https://dc.lft.to/lastmile_qr_scan", "android": "https://dc.lft.to/lastmile_qr_scan"}, "is_reserved": 0, "fusion_lon": 0.0, "lat": 38.972317333333336, "type": "electric_scooter", "name": "218ddab7f8f41b26fe3e4816428e2c08", "bike_id": "218ddab7f8f41b26fe3e4816428e2c08", "fusion_lat": 0.0, "lon": -77.02710583333334}, {"is_disabled": 0, "rental_uris": {"ios": "https://dc.lft.to/lastmile_qr_scan", "android": "https://dc.lft.to/lastmile_qr_scan"}, "is_reserved": 0, "fusion_lon": 0.0, "lat": 38.916862, "type": "electric_scooter", "name": "6ed507763b21ea5d49bd20b78cbdf534", "bike_id": "6ed507763b21ea5d49bd20b78cbdf534", "fusion_lat": 0.0, "lon": -77.02288433333334}, {"is_disabled": 0, "rental_uris": {"ios": "https://dc.lft.to/lastmile_qr_scan", "android": "https://dc.lft.to/lastmile_qr_scan"}, "is_reserved": 0, "fusion_lon": 0.0, "lat": 38.9033985, "type": "electric_scooter", "name": "7ff9d814266a5a912c6434e2a8d0fcf3", "bike_id": "7ff9d814266a5a912c6434e2a8d0fcf3", "fusion_lat": 0.0, "lon": -76.98270716666667}, {"is_disabled": 0, "rental_uris": {"ios": "https://dc.lft.to/lastmile_qr_scan", "android": "https://dc.lft.to/lastmile_qr_scan"}, "is_reserved": 0, "fusion_lon": 0.0, "lat": 38.8812325, "type": "electric_scooter", "name": "771b4227caee4be381692e6a6a835152", "bike_id": "771b4227caee4be381692e6a6a835152", "fusion_lat": 0.0, "lon": -77.027111}, {"is_disabled": 0, "rental_uris": {"ios": "https://dc.lft.to/lastmile_qr_scan", "android": "https://dc.lft.to/lastmile_qr_scan"}, "is_reserved": 0, "fusion_lon": 0.0, "lat": 38.891737166666665, "type": "electric_scooter", "name": "90215149904f3bbbd01ab84236693759", "bike_id": "90215149904f3bbbd01ab84236693759", "fusion_lat": 0.0, "lon": -77.01546916666666}, {"is_disabled": 0, "rental_uris": {"ios": "https://dc.lft.to/lastmile_qr_scan", "android": "https://dc.lft.to/lastmile_qr_scan"}, "is_reserved": 0, "fusion_lon": 0.0, "lat": 38.90085883333333, "type": "electric_scooter", "name": "7f1ee21f16981bcb12e59a22d9e8de46", "bike_id": "7f1ee21f16981bcb12e59a22d9e8de46", "fusion_lat": 0.0, "lon": -76.98334}, {"is_disabled": 0, "rental_uris": {"ios": "https://dc.lft.to/lastmile_qr_scan", "android": "https://dc.lft.to/lastmile_qr_scan"}, "is_reserved": 0, "fusion_lon": 0.0, "lat": 38.897331333333334, "type": "electric_scooter", "name": "4ef490322bd489c6fd70e358267e9cab", "bike_id": "4ef490322bd489c6fd70e358267e9cab", "fusion_lat": 0.0, "lon": -77.02519733333334}, {"is_disabled": 0, "rental_uris": {"ios": "https://dc.lft.to/lastmile_qr_scan", "android": "https://dc.lft.to/lastmile_qr_scan"}, "is_reserved": 0, "fusion_lon": 0.0, "lat": 38.857883333333334, "type": "electric_bike", "name": "f6737d866e8c7422f6b2c2a91eab49cf", "bike_id": "f6737d866e8c7422f6b2c2a91eab49cf", "fusion_lat": 0.0, "lon": -77.09958533333334}, {"is_disabled": 0, "rental_uris": {"ios": "https://dc.lft.to/lastmile_qr_scan", "android": "https://dc.lft.to/lastmile_qr_scan"}, "is_reserved": 0, "fusion_lon": 0.0, "lat": 38.90161416666667, "type": "electric_scooter", "name": "46d995ea2b9b18d0e624c701212fc0ee", "bike_id": "46d995ea2b9b18d0e624c701212fc0ee", "fusion_lat": 0.0, "lon": -77.04877516666667}, {"is_disabled": 0, "rental_uris": {"ios": "https://dc.lft.to/lastmile_qr_scan", "android": "https://dc.lft.to/lastmile_qr_scan"}, "is_reserved": 0, "fusion_lon": 0.0, "lat": 38.95589, "type": "electric_scooter", "name": "879d7873c20a38e11505d3bb6d870490", "bike_id": "879d7873c20a38e11505d3bb6d870490", "fusion_lat": 0.0, "lon": -77.02796616666667}, {"is_disabled": 0, "rental_uris": {"ios": "https://dc.lft.to/lastmile_qr_scan", "android": "https://dc.lft.to/lastmile_qr_scan"}, "is_reserved": 0, "fusion_lon": 0.0, "lat": 38.866128, "type": "electric_bike", "name": "f7245522397b3db726527782e948c2e6", "bike_id": "f7245522397b3db726527782e948c2e6", "fusion_lat": 0.0, "lon": -76.98908366666667}, {"is_disabled": 0, "rental_uris": {"ios": "https://dc.lft.to/lastmile_qr_scan", "android": "https://dc.lft.to/lastmile_qr_scan"}, "is_reserved": 0, "fusion_lon": 0.0, "lat": 38.899847666666666, "type": "electric_scooter", "name": "26412d5176535e49d0b0ab2adcecef82", "bike_id": "26412d5176535e49d0b0ab2adcecef82", "fusion_lat": 0.0, "lon": -77.00650983333334}, {"is_disabled": 0, "rental_uris": {"ios": "https://dc.lft.to/lastmile_qr_scan", "android": "https://dc.lft.to/lastmile_qr_scan"}, "is_reserved": 0, "fusion_lon": 0.0, "lat": 38.89175133333333, "type": "electric_scooter", "name": "fdbf26e2cb209f0958e7a8b44ef52e25", "bike_id": "fdbf26e2cb209f0958e7a8b44ef52e25", "fusion_lat": 0.0, "lon": -77.01568}, {"is_disabled": 0, "rental_uris": {"ios": "https://dc.lft.to/lastmile_qr_scan", "android": "https://dc.lft.to/lastmile_qr_scan"}, "is_reserved": 0, "fusion_lon": 0.0, "lat": 38.907759, "type": "electric_scooter", "name": "7cae149e5e78caf092ec1b49485235de", "bike_id": "7cae149e5e78caf092ec1b49485235de", "fusion_lat": 0.0, "lon": -77.04662683333333}, {"is_disabled": 0, "rental_uris": {"ios": "https://dc.lft.to/lastmile_qr_scan", "android": "https://dc.lft.to/lastmile_qr_scan"}, "is_reserved": 0, "fusion_lon": 0.0, "lat": 38.905092, "type": "electric_scooter", "name": "586a60b87ca28151e00170a20098f0d8", "bike_id": "586a60b87ca28151e00170a20098f0d8", "fusion_lat": 0.0, "lon": -77.07012216666666}, {"is_disabled": 0, "rental_uris": {"ios": "https://dc.lft.to/lastmile_qr_scan", "android": "https://dc.lft.to/lastmile_qr_scan"}, "is_reserved": 0, "fusion_lon": 0.0, "lat": 38.91891116666667, "type": "electric_bike", "name": "d7179c908fa9ff28298ee58739de1126", "bike_id": "d7179c908fa9ff28298ee58739de1126", "fusion_lat": 0.0, "lon": -77.10176766666666}, {"is_disabled": 0, "rental_uris": {"ios": "https://dc.lft.to/lastmile_qr_scan", "android": "https://dc.lft.to/lastmile_qr_scan"}, "is_reserved": 0, "fusion_lon": 0.0, "lat": 38.897778833333334, "type": "electric_scooter", "name": "e4c14c5e28ed2153e152a1089f600d56", "bike_id": "e4c14c5e28ed2153e152a1089f600d56", "fusion_lat": 0.0, "lon": -77.02717283333334}, {"is_disabled": 0, "rental_uris": {"ios": "https://dc.lft.to/lastmile_qr_scan", "android": "https://dc.lft.to/lastmile_qr_scan"}, "is_reserved": 0, "fusion_lon": 0.0, "lat": 38.93610433333333, "type": "electric_scooter", "name": "701e0c885587341b654d078324757761", "bike_id": "701e0c885587341b654d078324757761", "fusion_lat": 0.0, "lon": -77.03875766666667}, {"is_disabled": 0, "rental_uris": {"ios": "https://dc.lft.to/lastmile_qr_scan", "android": "https://dc.lft.to/lastmile_qr_scan"}, "is_reserved": 0, "fusion_lon": 0.0, "lat": 38.9063905, "type": "electric_scooter", "name": "8f131eaba1a68b4e6cca0ede7c7bb81d", "bike_id": "8f131eaba1a68b4e6cca0ede7c7bb81d", "fusion_lat": 0.0, "lon": -77.02462033333333}, {"is_disabled": 0, "rental_uris": {"ios": "https://dc.lft.to/lastmile_qr_scan", "android": "https://dc.lft.to/lastmile_qr_scan"}, "is_reserved": 0, "fusion_lon": 0.0, "lat": 38.83581683333333, "type": "electric_bike", "name": "49a134dc5c7a0b02d1f34cbdf1b11c90", "bike_id": "49a134dc5c7a0b02d1f34cbdf1b11c90", "fusion_lat": 0.0, "lon": -76.99026716666667}, {"is_disabled": 0, "rental_uris": {"ios": "https://dc.lft.to/lastmile_qr_scan", "android": "https://dc.lft.to/lastmile_qr_scan"}, "is_reserved": 0, "fusion_lon": 0.0, "lat": 38.905265666666665, "type": "electric_scooter", "name": "9f1ab9d240d6c21acca6b68a2d017542", "bike_id": "9f1ab9d240d6c21acca6b68a2d017542", "fusion_lat": 0.0, "lon": -77.04186233333333}, {"is_disabled": 0, "rental_uris": {"ios": "https://dc.lft.to/lastmile_qr_scan", "android": "https://dc.lft.to/lastmile_qr_scan"}, "is_reserved": 0, "fusion_lon": 0.0, "lat": 38.9206465, "type": "electric_scooter", "name": "d3067030e55e2734bf462d1f159aa03c", "bike_id": "d3067030e55e2734bf462d1f159aa03c", "fusion_lat": 0.0, "lon": -77.03172233333333}, {"is_disabled": 0, "rental_uris": {"ios": "https://dc.lft.to/lastmile_qr_scan", "android": "https://dc.lft.to/lastmile_qr_scan"}, "is_reserved": 0, "fusion_lon": 0.0, "lat": 38.90575583333333, "type": "electric_scooter", "name": "956fb8a620b834f8d191ad8189306d8b", "bike_id": "956fb8a620b834f8d191ad8189306d8b", "fusion_lat": 0.0, "lon": -77.04044833333333}, {"is_disabled": 0, "rental_uris": {"ios": "https://dc.lft.to/lastmile_qr_scan", "android": "https://dc.lft.to/lastmile_qr_scan"}, "is_reserved": 0, "fusion_lon": 0.0, "lat": 38.91514316666667, "type": "electric_scooter", "name": "825fa80320b7b82a393a446e355a0542", "bike_id": "825fa80320b7b82a393a446e355a0542", "fusion_lat": 0.0, "lon": -77.0184835}, {"is_disabled": 0, "rental_uris": {"ios": "https://dc.lft.to/lastmile_qr_scan", "android": "https://dc.lft.to/lastmile_qr_scan"}, "is_reserved": 0, "fusion_lon": 0.0, "lat": 38.92063366666667, "type": "electric_scooter", "name": "7091f3ce57860b3670c5339588da26c6", "bike_id": "7091f3ce57860b3670c5339588da26c6", "fusion_lat": 0.0, "lon": -77.02608066666667}, {"is_disabled": 0, "rental_uris": {"ios": "https://dc.lft.to/lastmile_qr_scan", "android": "https://dc.lft.to/lastmile_qr_scan"}, "is_reserved": 0, "fusion_lon": 0.0, "lat": 38.8765265, "type": "electric_scooter", "name": "b21478ed9a9a4019fab1673be2ecb073", "bike_id": "b21478ed9a9a4019fab1673be2ecb073", "fusion_lat": 0.0, "lon": -77.00814683333333}, {"is_disabled": 0, "rental_uris": {"ios": "https://dc.lft.to/lastmile_qr_scan", "android": "https://dc.lft.to/lastmile_qr_scan"}, "is_reserved": 0, "fusion_lon": 0.0, "lat": 38.91116566666667, "type": "electric_scooter", "name": "60a8367cd69cf90b0eb0ca39755b3ee8", "bike_id": "60a8367cd69cf90b0eb0ca39755b3ee8", "fusion_lat": 0.0, "lon": -77.04366016666667}, {"is_disabled": 0, "rental_uris": {"ios": "https://dc.lft.to/lastmile_qr_scan", "android": "https://dc.lft.to/lastmile_qr_scan"}, "is_reserved": 0, "fusion_lon": 0.0, "lat": 38.918166666666664, "type": "electric_scooter", "name": "0494fd28af3d85df98fe707fa97dce5b", "bike_id": "0494fd28af3d85df98fe707fa97dce5b", "fusion_lat": 0.0, "lon": -77.02708333333334}, {"is_disabled": 0, "rental_uris": {"ios": "https://dc.lft.to/lastmile_qr_scan", "android": "https://dc.lft.to/lastmile_qr_scan"}, "is_reserved": 0, "fusion_lon": 0.0, "lat": 38.925740166666664, "type": "electric_scooter", "name": "77b513f6e9ce201669dcabe09d7b1bb6", "bike_id": "77b513f6e9ce201669dcabe09d7b1bb6", "fusion_lat": 0.0, "lon": -77.03208233333334}, {"is_disabled": 0, "rental_uris": {"ios": "https://dc.lft.to/lastmile_qr_scan", "android": "https://dc.lft.to/lastmile_qr_scan"}, "is_reserved": 0, "fusion_lon": 0.0, "lat": 38.89715416666667, "type": "electric_scooter", "name": "67ccee6758b8ecfcc09819c4712411b5", "bike_id": "67ccee6758b8ecfcc09819c4712411b5", "fusion_lat": 0.0, "lon": -77.00796616666666}, {"is_disabled": 0, "rental_uris": {"ios": "https://dc.lft.to/lastmile_qr_scan", "android": "https://dc.lft.to/lastmile_qr_scan"}, "is_reserved": 0, "fusion_lon": 0.0, "lat": 38.88742283333333, "type": "electric_scooter", "name": "7ac013a9fd3e7ad5ed4494d02d940dd6", "bike_id": "7ac013a9fd3e7ad5ed4494d02d940dd6", "fusion_lat": 0.0, "lon": -77.02838566666667}, {"is_disabled": 0, "rental_uris": {"ios": "https://dc.lft.to/lastmile_qr_scan", "android": "https://dc.lft.to/lastmile_qr_scan"}, "is_reserved": 0, "fusion_lon": 0.0, "lat": 38.89549216666666, "type": "electric_scooter", "name": "2ef29ccd71a21aa51e0357d65037afe4", "bike_id": "2ef29ccd71a21aa51e0357d65037afe4", "fusion_lat": 0.0, "lon": -77.04270283333334}, {"is_disabled": 0, "rental_uris": {"ios": "https://dc.lft.to/lastmile_qr_scan", "android": "https://dc.lft.to/lastmile_qr_scan"}, "is_reserved": 0, "fusion_lon": 0.0, "lat": 38.9054945, "type": "electric_scooter", "name": "d2f8eaaa66a3d794c7611b26cc810eae", "bike_id": "d2f8eaaa66a3d794c7611b26cc810eae", "fusion_lat": 0.0, "lon": -77.05695566666667}, {"is_disabled": 0, "rental_uris": {"ios": "https://dc.lft.to/lastmile_qr_scan", "android": "https://dc.lft.to/lastmile_qr_scan"}, "is_reserved": 0, "fusion_lon": 0.0, "lat": 38.922709833333336, "type": "electric_scooter", "name": "08144119b0f2b2aedb1a74f5c7d4cc1e", "bike_id": "08144119b0f2b2aedb1a74f5c7d4cc1e", "fusion_lat": 0.0, "lon": -77.0423735}, {"is_disabled": 0, "rental_uris": {"ios": "https://dc.lft.to/lastmile_qr_scan", "android": "https://dc.lft.to/lastmile_qr_scan"}, "is_reserved": 0, "fusion_lon": 0.0, "lat": 38.9050385, "type": "electric_scooter", "name": "3997702e7ec78f9d1a25904fa7550492", "bike_id": "3997702e7ec78f9d1a25904fa7550492", "fusion_lat": 0.0, "lon": -77.0657125}, {"is_disabled": 0, "rental_uris": {"ios": "https://dc.lft.to/lastmile_qr_scan", "android": "https://dc.lft.to/lastmile_qr_scan"}, "is_reserved": 0, "fusion_lon": 0.0, "lat": 38.9227575, "type": "electric_scooter", "name": "f65b995e10e634397a38b14c781ba422", "bike_id": "f65b995e10e634397a38b14c781ba422", "fusion_lat": 0.0, "lon": -77.034009}, {"is_disabled": 0, "rental_uris": {"ios": "https://dc.lft.to/lastmile_qr_scan", "android": "https://dc.lft.to/lastmile_qr_scan"}, "is_reserved": 0, "fusion_lon": 0.0, "lat": 38.9050325, "type": "electric_scooter", "name": "411009e1d9150f35d7fbfa260c039b3d", "bike_id": "411009e1d9150f35d7fbfa260c039b3d", "fusion_lat": 0.0, "lon": -77.03458966666666}, {"is_disabled": 0, "rental_uris": {"ios": "https://dc.lft.to/lastmile_qr_scan", "android": "https://dc.lft.to/lastmile_qr_scan"}, "is_reserved": 0, "fusion_lon": 0.0, "lat": 38.84685566666667, "type": "electric_scooter", "name": "d3b908b34a77a901dbc375b9e32e13f6", "bike_id": "d3b908b34a77a901dbc375b9e32e13f6", "fusion_lat": 0.0, "lon": -76.968521}, {"is_disabled": 0, "rental_uris": {"ios": "https://dc.lft.to/lastmile_qr_scan", "android": "https://dc.lft.to/lastmile_qr_scan"}, "is_reserved": 0, "fusion_lon": 0.0, "lat": 38.934452, "type": "electric_scooter", "name": "46a9f60deb8682c3a65e90ec6f638b00", "bike_id": "46a9f60deb8682c3a65e90ec6f638b00", "fusion_lat": 0.0, "lon": -77.08963}, {"is_disabled": 0, "rental_uris": {"ios": "https://dc.lft.to/lastmile_qr_scan", "android": "https://dc.lft.to/lastmile_qr_scan"}, "is_reserved": 0, "fusion_lon": 0.0, "lat": 38.83052033333333, "type": "electric_bike", "name": "247f4d17f9d4a11adebf50efd08df526", "bike_id": "247f4d17f9d4a11adebf50efd08df526", "fusion_lat": 0.0, "lon": -77.00826933333333}, {"is_disabled": 0, "rental_uris": {"ios": "https://dc.lft.to/lastmile_qr_scan", "android": "https://dc.lft.to/lastmile_qr_scan"}, "is_reserved": 0, "fusion_lon": 0.0, "lat": 38.892794333333335, "type": "electric_scooter", "name": "6f8fd00a147b64aca290008c54e6a9c0", "bike_id": "6f8fd00a147b64aca290008c54e6a9c0", "fusion_lat": 0.0, "lon": -77.05037333333334}, {"is_disabled": 0, "rental_uris": {"ios": "https://dc.lft.to/lastmile_qr_scan", "android": "https://dc.lft.to/lastmile_qr_scan"}, "is_reserved": 0, "fusion_lon": 0.0, "lat": 38.88744416666667, "type": "electric_scooter", "name": "d251a98110ef239643b1139e975a8f9f", "bike_id": "d251a98110ef239643b1139e975a8f9f", "fusion_lat": 0.0, "lon": -77.02226016666667}, {"is_disabled": 0, "rental_uris": {"ios": "https://dc.lft.to/lastmile_qr_scan", "android": "https://dc.lft.to/lastmile_qr_scan"}, "is_reserved": 0, "fusion_lon": 0.0, "lat": 38.91414816666666, "type": "electric_scooter", "name": "a27b223c9a0918b8edb55ee5d2c40198", "bike_id": "a27b223c9a0918b8edb55ee5d2c40198", "fusion_lat": 0.0, "lon": -77.02176716666666}, {"is_disabled": 0, "rental_uris": {"ios": "https://dc.lft.to/lastmile_qr_scan", "android": "https://dc.lft.to/lastmile_qr_scan"}, "is_reserved": 0, "fusion_lon": 0.0, "lat": 38.917741, "type": "electric_scooter", "name": "5cd2369d8fecf462b617f59a1efb6ef9", "bike_id": "5cd2369d8fecf462b617f59a1efb6ef9", "fusion_lat": 0.0, "lon": -77.046602}, {"is_disabled": 0, "rental_uris": {"ios": "https://dc.lft.to/lastmile_qr_scan", "android": "https://dc.lft.to/lastmile_qr_scan"}, "is_reserved": 0, "fusion_lon": 0.0, "lat": 38.926876, "type": "electric_scooter", "name": "29f1391b5bf31e0285a8f0dfc70a43bd", "bike_id": "29f1391b5bf31e0285a8f0dfc70a43bd", "fusion_lat": 0.0, "lon": -77.01511533333333}, {"is_disabled": 0, "rental_uris": {"ios": "https://dc.lft.to/lastmile_qr_scan", "android": "https://dc.lft.to/lastmile_qr_scan"}, "is_reserved": 0, "fusion_lon": 0.0, "lat": 38.89962233333333, "type": "electric_scooter", "name": "df375fe475ae7c237fd24a56e87e8310", "bike_id": "df375fe475ae7c237fd24a56e87e8310", "fusion_lat": 0.0, "lon": -77.0162085}, {"is_disabled": 0, "rental_uris": {"ios": "https://dc.lft.to/lastmile_qr_scan", "android": "https://dc.lft.to/lastmile_qr_scan"}, "is_reserved": 0, "fusion_lon": 0.0, "lat": 38.88678633333333, "type": "electric_scooter", "name": "ab9dddebdebf6c5d22181c113e1bf0a4", "bike_id": "ab9dddebdebf6c5d22181c113e1bf0a4", "fusion_lat": 0.0, "lon": -77.04793483333333}, {"is_disabled": 0, "rental_uris": {"ios": "https://dc.lft.to/lastmile_qr_scan", "android": "https://dc.lft.to/lastmile_qr_scan"}, "is_reserved": 0, "fusion_lon": 0.0, "lat": 38.92445466666667, "type": "electric_scooter", "name": "5497b375fec3b8a1b7b61cdc8b9cdd23", "bike_id": "5497b375fec3b8a1b7b61cdc8b9cdd23", "fusion_lat": 0.0, "lon": -77.02133416666666}, {"is_disabled": 0, "rental_uris": {"ios": "https://dc.lft.to/lastmile_qr_scan", "android": "https://dc.lft.to/lastmile_qr_scan"}, "is_reserved": 0, "fusion_lon": 0.0, "lat": 38.938672, "type": "electric_scooter", "name": "05ca8cf28d154229a2be8c5e598be4cf", "bike_id": "05ca8cf28d154229a2be8c5e598be4cf", "fusion_lat": 0.0, "lon": -77.03230833333333}, {"is_disabled": 0, "rental_uris": {"ios": "https://dc.lft.to/lastmile_qr_scan", "android": "https://dc.lft.to/lastmile_qr_scan"}, "is_reserved": 0, "fusion_lon": 0.0, "lat": 38.85797516666667, "type": "electric_bike", "name": "1ab0ea8df66085ac42835ff6c8fb1dc7", "bike_id": "1ab0ea8df66085ac42835ff6c8fb1dc7", "fusion_lat": 0.0, "lon": -76.98751133333333}, {"is_disabled": 0, "rental_uris": {"ios": "https://dc.lft.to/lastmile_qr_scan", "android": "https://dc.lft.to/lastmile_qr_scan"}, "is_reserved": 0, "fusion_lon": 0.0, "lat": 38.953534166666664, "type": "electric_bike", "name": "c762dc682766e0958720f49d4976fb3c", "bike_id": "c762dc682766e0958720f49d4976fb3c", "fusion_lat": 0.0, "lon": -76.9248385}, {"is_disabled": 0, "rental_uris": {"ios": "https://dc.lft.to/lastmile_qr_scan", "android": "https://dc.lft.to/lastmile_qr_scan"}, "is_reserved": 0, "fusion_lon": 0.0, "lat": 38.901392, "type": "electric_scooter", "name": "e38054a6a0b9b6870acab84341ab3664", "bike_id": "e38054a6a0b9b6870acab84341ab3664", "fusion_lat": 0.0, "lon": -77.04443466666666}, {"is_disabled": 0, "rental_uris": {"ios": "https://dc.lft.to/lastmile_qr_scan", "android": "https://dc.lft.to/lastmile_qr_scan"}, "is_reserved": 0, "fusion_lon": 0.0, "lat": 38.96615416666667, "type": "electric_bike", "name": "a7488db77a220239271f75dc6d2c2a2d", "bike_id": "a7488db77a220239271f75dc6d2c2a2d", "fusion_lat": 0.0, "lon": -77.0343325}, {"is_disabled": 0, "rental_uris": {"ios": "https://dc.lft.to/lastmile_qr_scan", "android": "https://dc.lft.to/lastmile_qr_scan"}, "is_reserved": 0, "fusion_lon": 0.0, "lat": 39.026207166666666, "type": "electric_bike", "name": "f73ec45dd4c132ea34f2ec73f43960d8", "bike_id": "f73ec45dd4c132ea34f2ec73f43960d8", "fusion_lat": 0.0, "lon": -77.03879983333333}, {"is_disabled": 0, "rental_uris": {"ios": "https://dc.lft.to/lastmile_qr_scan", "android": "https://dc.lft.to/lastmile_qr_scan"}, "is_reserved": 0, "fusion_lon": 0.0, "lat": 38.905855, "type": "electric_scooter", "name": "fb0e64ab8af302341fbc5dd398c0e38d", "bike_id": "fb0e64ab8af302341fbc5dd398c0e38d", "fusion_lat": 0.0, "lon": -77.06275883333333}, {"is_disabled": 0, "rental_uris": {"ios": "https://dc.lft.to/lastmile_qr_scan", "android": "https://dc.lft.to/lastmile_qr_scan"}, "is_reserved": 0, "fusion_lon": 0.0, "lat": 38.9292485, "type": "electric_scooter", "name": "94e7bf3643ba624206896c261f136af2", "bike_id": "94e7bf3643ba624206896c261f136af2", "fusion_lat": 0.0, "lon": -77.03269483333334}, {"is_disabled": 0, "rental_uris": {"ios": "https://dc.lft.to/lastmile_qr_scan", "android": "https://dc.lft.to/lastmile_qr_scan"}, "is_reserved": 0, "fusion_lon": 0.0, "lat": 38.916849666666664, "type": "electric_scooter", "name": "92b4708dc194200bd1b92193ee3d3a44", "bike_id": "92b4708dc194200bd1b92193ee3d3a44", "fusion_lat": 0.0, "lon": -77.03769333333334}, {"is_disabled": 0, "rental_uris": {"ios": "https://dc.lft.to/lastmile_qr_scan", "android": "https://dc.lft.to/lastmile_qr_scan"}, "is_reserved": 0, "fusion_lon": 0.0, "lat": 38.920632833333336, "type": "electric_scooter", "name": "1cb3f7f57b10b56894e2fa33eb03ea37", "bike_id": "1cb3f7f57b10b56894e2fa33eb03ea37", "fusion_lat": 0.0, "lon": -77.02521516666667}, {"is_disabled": 0, "rental_uris": {"ios": "https://dc.lft.to/lastmile_qr_scan", "android": "https://dc.lft.to/lastmile_qr_scan"}, "is_reserved": 0, "fusion_lon": 0.0, "lat": 38.916947, "type": "electric_scooter", "name": "4676cbba8e7dba5027abcde85c978917", "bike_id": "4676cbba8e7dba5027abcde85c978917", "fusion_lat": 0.0, "lon": -77.02818133333334}, {"is_disabled": 0, "rental_uris": {"ios": "https://dc.lft.to/lastmile_qr_scan", "android": "https://dc.lft.to/lastmile_qr_scan"}, "is_reserved": 0, "fusion_lon": 0.0, "lat": 38.9014445, "type": "electric_scooter", "name": "c1042957d2a615be2c57456b496df6f6", "bike_id": "c1042957d2a615be2c57456b496df6f6", "fusion_lat": 0.0, "lon": -77.03955066666667}, {"is_disabled": 0, "rental_uris": {"ios": "https://dc.lft.to/lastmile_qr_scan", "android": "https://dc.lft.to/lastmile_qr_scan"}, "is_reserved": 0, "fusion_lon": 0.0, "lat": 38.877975, "type": "electric_scooter", "name": "565e67c94c17bf466dbd89e8ab270e42", "bike_id": "565e67c94c17bf466dbd89e8ab270e42", "fusion_lat": 0.0, "lon": -76.98825016666666}, {"is_disabled": 0, "rental_uris": {"ios": "https://dc.lft.to/lastmile_qr_scan", "android": "https://dc.lft.to/lastmile_qr_scan"}, "is_reserved": 0, "fusion_lon": 0.0, "lat": 38.899728, "type": "electric_scooter", "name": "dff6549635ff61c28709069015d09952", "bike_id": "dff6549635ff61c28709069015d09952", "fusion_lat": 0.0, "lon": -77.01628766666667}, {"is_disabled": 0, "rental_uris": {"ios": "https://dc.lft.to/lastmile_qr_scan", "android": "https://dc.lft.to/lastmile_qr_scan"}, "is_reserved": 0, "fusion_lon": 0.0, "lat": 38.91189516666667, "type": "electric_scooter", "name": "b04ebcc28fcc6fda567986c43c8b485c", "bike_id": "b04ebcc28fcc6fda567986c43c8b485c", "fusion_lat": 0.0, "lon": -77.04283616666666}, {"is_disabled": 0, "rental_uris": {"ios": "https://dc.lft.to/lastmile_qr_scan", "android": "https://dc.lft.to/lastmile_qr_scan"}, "is_reserved": 0, "fusion_lon": 0.0, "lat": 38.904379666666664, "type": "electric_scooter", "name": "1a0ef96e06a79306c3bbbea90377b080", "bike_id": "1a0ef96e06a79306c3bbbea90377b080", "fusion_lat": 0.0, "lon": -77.06266866666667}, {"is_disabled": 0, "rental_uris": {"ios": "https://dc.lft.to/lastmile_qr_scan", "android": "https://dc.lft.to/lastmile_qr_scan"}, "is_reserved": 0, "fusion_lon": 0.0, "lat": 38.90565983333333, "type": "electric_bike", "name": "a7e44aec27d4560149a005cd4da793f0", "bike_id": "a7e44aec27d4560149a005cd4da793f0", "fusion_lat": 0.0, "lon": -77.05706866666667}, {"is_disabled": 0, "rental_uris": {"ios": "https://dc.lft.to/lastmile_qr_scan", "android": "https://dc.lft.to/lastmile_qr_scan"}, "is_reserved": 0, "fusion_lon": 0.0, "lat": 38.9370035, "type": "electric_scooter", "name": "ad49c6df86d4f22b931c4ebb94cf522b", "bike_id": "ad49c6df86d4f22b931c4ebb94cf522b", "fusion_lat": 0.0, "lon": -77.02395116666666}, {"is_disabled": 0, "rental_uris": {"ios": "https://dc.lft.to/lastmile_qr_scan", "android": "https://dc.lft.to/lastmile_qr_scan"}, "is_reserved": 0, "fusion_lon": 0.0, "lat": 38.923428, "type": "electric_scooter", "name": "70ad23d7671ef8fb074703e94b6ce2dc", "bike_id": "70ad23d7671ef8fb074703e94b6ce2dc", "fusion_lat": 0.0, "lon": -77.043438}, {"is_disabled": 0, "rental_uris": {"ios": "https://dc.lft.to/lastmile_qr_scan", "android": "https://dc.lft.to/lastmile_qr_scan"}, "is_reserved": 0, "fusion_lon": 0.0, "lat": 38.89213566666667, "type": "electric_scooter", "name": "f79ca8e72529bfb3e8ee09d8b65db4f9", "bike_id": "f79ca8e72529bfb3e8ee09d8b65db4f9", "fusion_lat": 0.0, "lon": -77.03162016666667}, {"is_disabled": 0, "rental_uris": {"ios": "https://dc.lft.to/lastmile_qr_scan", "android": "https://dc.lft.to/lastmile_qr_scan"}, "is_reserved": 0, "fusion_lon": 0.0, "lat": 38.92828133333333, "type": "electric_scooter", "name": "774f5bd27bfe19e0293c93223578c6f8", "bike_id": "774f5bd27bfe19e0293c93223578c6f8", "fusion_lat": 0.0, "lon": -77.0378635},