{"data": {"bikes": [{"fusion_lat": 0.0, "is_disabled": 0, "lat": 38.90031116666667, "lon": -76.9722615, "fusion_lon": 0.0, "bike_id": "a90eaca2e586caeb4c5414ea1d8e527d", "type": "electric_bike", "name": "a90eaca2e586caeb4c5414ea1d8e527d", "is_reserved": 0, "rental_uris": {"ios": "https://dc.lft.to/lastmile_qr_scan", "android": "https://dc.lft.to/lastmile_qr_scan"}}, {"fusion_lat": 0.0, "is_disabled": 0, "lat": 39.034248166666664, "lon": -77.0430095, "fusion_lon": 0.0, "bike_id": "208ee116b873c2402c575b372913901c", "type": "electric_bike", "name": "208ee116b873c2402c575b372913901c", "is_reserved": 0, "rental_uris": {"ios": "https://dc.lft.to/lastmile_qr_scan", "android": "https://dc.lft.to/lastmile_qr_scan"}}, {"fusion_lat": 0.0, "is_disabled": 0, "lat": 38.923677166666664, "lon": -77.05146583333334, "fusion_lon": 0.0, "bike_id": "7312cdd48e76a59ddf35491cb3301bb2", "type": "electric_scooter", "name": "7312cdd48e76a59ddf35491cb3301bb2", "is_reserved": 0, "rental_uris": {"ios": "https://dc.lft.to/lastmile_qr_scan", "android": "https://dc.lft.to/lastmile_qr_scan"}}, {"fusion_lat": 0.0, "is_disabled": 0, "lat": 38.90244583333333, "lon": -77.03844516666666, "fusion_lon": 0.0, "bike_id": "ea1e504d3a7155beceb027f86225923d", "type": "electric_scooter", "name": "ea1e504d3a7155beceb027f86225923d", "is_reserved": 0, "rental_uris": {"ios": "https://dc.lft.to/lastmile_qr_scan", "android": "https://dc.lft.to/lastmile_qr_scan"}}, {"fusion_lat": 0.0, "is_disabled": 0, "lat": 38.91555016666667, "lon": -77.0320235, "fusion_lon": 0.0, "bike_id": "b6329eb8a444dc5d5472e1219f714112", "type": "electric_scooter", "name": "b6329eb8a444dc5d5472e1219f714112", "is_reserved": 0, "rental_uris": {"ios": "https://dc.lft.to/lastmile_qr_scan", "android": "https://dc.lft.to/lastmile_qr_scan"}}, {"fusion_lat": 0.0, "is_disabled": 0, "lat": 38.902590833333335, "lon": -77.0269095, "fusion_lon": 0.0, "bike_id": "7475863db8862261f05a5664710986d0", "type": "electric_scooter", "name": "7475863db8862261f05a5664710986d0", "is_reserved": 0, "rental_uris": {"ios": "https://dc.lft.to/lastmile_qr_scan", "android": "https://dc.lft.to/lastmile_qr_scan"}}, {"fusion_lat": 0.0, "is_disabled": 0, "lat": 38.91710283333333, "lon": -77.03413283333333, "fusion_lon": 0.0, "bike_id": "93c20749a3a201dc1aabb35c08ca3f44", "type": "electric_scooter", "name": "93c20749a3a201dc1aabb35c08ca3f44", "is_reserved": 0, "rental_uris": {"ios": "https://dc.lft.to/lastmile_qr_scan", "android": "https://dc.lft.to/lastmile_qr_scan"}}, {"fusion_lat": 0.0, "is_disabled": 0, "lat": 38.91621166666667, "lon": -77.031902, "fusion_lon": 0.0, "bike_id": "1e2a692d32f9af32c50d54eb7753e6be", "type": "electric_scooter", "name": "1e2a692d32f9af32c50d54eb7753e6be", "is_reserved": 0, "rental_uris": {"ios": "https://dc.lft.to/lastmile_qr_scan", "android": "https://dc.lft.to/lastmile_qr_scan"}}, {"fusion_lat": 0.0, "is_disabled": 0, "lat": 38.882721333333336, "lon": -76.93559016666667, "fusion_lon": 0.0, "bike_id": "5b484f320d9b5afd0519c34ec3499d2f", "type": "electric_scooter", "name": "5b484f320d9b5afd0519c34ec3499d2f", "is_reserved": 0, "rental_uris": {"ios": "https://dc.lft.to/lastmile_qr_scan", "android": "https://dc.lft.to/lastmile_qr_scan"}}, {"fusion_lat": 0.0, "is_disabled": 0, "lat": 38.9037745, "lon": -77.029843, "fusion_lon": 0.0, "bike_id": "483e00ab456580256f4072a54ec4938b", "type": "electric_scooter", "name": "483e00ab456580256f4072a54ec4938b", "is_reserved": 0, "rental_uris": {"ios": "https://dc.lft.to/lastmile_qr_scan", "android": "https://dc.lft.to/lastmile_qr_scan"}}, {"fusion_lat": 0.0, "is_disabled": 0, "lat": 38.8962955, "lon": -77.04360733333333, "fusion_lon": 0.0, "bike_id": "e9846d66a35e8aa7b6ca6697578f053b", "type": "electric_scooter", "name": "e9846d66a35e8aa7b6ca6697578f053b", "is_reserved": 0, "rental_uris": {"ios": "https://dc.lft.to/lastmile_qr_scan", "android": "https://dc.lft.to/lastmile_qr_scan"}}, {"fusion_lat": 0.0, "is_disabled": 0, "lat": 38.898937833333335, "lon": -77.03969583333334, "fusion_lon": 0.0, "bike_id": "bf05e01359b0f5bf28372fe516008f37", "type": "electric_scooter", "name": "bf05e01359b0f5bf28372fe516008f37", "is_reserved": 0, "rental_uris": {"ios": "https://dc.lft.to/lastmile_qr_scan", "android": "https://dc.lft.to/lastmile_qr_scan"}}, {"fusion_lat": 0.0, "is_disabled": 0, "lat": 38.923561166666666, "lon": -77.05400866666666, "fusion_lon": 0.0, "bike_id": "a03e5d104abfa8f4bb4883af84dc10ef", "type": "electric_scooter", "name": "a03e5d104abfa8f4bb4883af84dc10ef", "is_reserved": 0, "rental_uris": {"ios": "https://dc.lft.to/lastmile_qr_scan", "android": "https://dc.lft.to/lastmile_qr_scan"}}, {"fusion_lat": 0.0, "is_disabled": 0, "lat": 38.9027295, "lon": -77.04259033333334, "fusion_lon": 0.0, "bike_id": "dc592f05d99957d95986df4b7b35472c", "type": "electric_scooter", "name": "dc592f05d99957d95986df4b7b35472c", "is_reserved": 0, "rental_uris": {"ios": "https://dc.lft.to/lastmile_qr_scan", "android": "https://dc.lft.to/lastmile_qr_scan"}}, {"fusion_lat": 0.0, "is_disabled": 0, "lat": 38.88381016666666, "lon": -77.00886283333334, "fusion_lon": 0.0, "bike_id": "0db7902117dc6c812b6eb43c6bec6ed1", "type": "electric_scooter", "name": "0db7902117dc6c812b6eb43c6bec6ed1", "is_reserved": 0, "rental_uris": {"ios": "https://dc.lft.to/lastmile_qr_scan", "android": "https://dc.lft.to/lastmile_qr_scan"}}, {"fusion_lat": 0.0, "is_disabled": 0, "lat": 38.9010735, "lon": -77.03393033333333, "fusion_lon": 0.0, "bike_id": "f8d5afffb644f048758ba4f5f56c4044", "type": "electric_scooter", "name": "f8d5afffb644f048758ba4f5f56c4044", "is_reserved": 0, "rental_uris": {"ios": "https://dc.lft.to/lastmile_qr_scan", "android": "https://dc.lft.to/lastmile_qr_scan"}}, {"fusion_lat": 0.0, "is_disabled": 0, "lat": 38.896118666666666, "lon": -76.948504, "fusion_lon": 0.0, "bike_id": "6c54dd03ce4d64d86540a69dbc8d4ebe", "type": "electric_scooter", "name": "6c54dd03ce4d64d86540a69dbc8d4ebe", "is_reserved": 0, "rental_uris": {"ios": "https://dc.lft.to/lastmile_qr_scan", "android": "https://dc.lft.to/lastmile_qr_scan"}}, {"fusion_lat": 0.0, "is_disabled": 0, "lat": 38.89223883333333, "lon": -77.04502033333333, "fusion_lon": 0.0, "bike_id": "ba7338df05d0c299393849f9a93f271d", "type": "electric_scooter", "name": "ba7338df05d0c299393849f9a93f271d", "is_reserved": 0, "rental_uris": {"ios": "https://dc.lft.to/lastmile_qr_scan", "android": "https://dc.lft.to/lastmile_qr_scan"}}, {"fusion_lat": 0.0, "is_disabled": 0, "lat": 38.923029166666666, "lon": -77.03109216666667, "fusion_lon": 0.0, "bike_id": "c195a06eb2d6b142dd76760c7b74307f", "type": "electric_scooter", "name": "c195a06eb2d6b142dd76760c7b74307f", "is_reserved": 0, "rental_uris": {"ios": "https://dc.lft.to/lastmile_qr_scan", "android": "https://dc.lft.to/lastmile_qr_scan"}}, {"fusion_lat": 0.0, "is_disabled": 0, "lat": 38.892250833333335, "lon": -77.02412416666667, "fusion_lon": 0.0, "bike_id": "6c72dd8eeddc982bf81ac9ebc67e26d1", "type": "electric_scooter", "name": "6c72dd8eeddc982bf81ac9ebc67e26d1", "is_reserved": 0, "rental_uris": {"ios": "https://dc.lft.to/lastmile_qr_scan", "android": "https://dc.lft.to/lastmile_qr_scan"}}, {"fusion_lat": 0.0, "is_disabled": 0, "lat": 38.898505166666666, "lon": -76.93184916666667, "fusion_lon": 0.0, "bike_id": "174f8cf2d183bbd8f58996ae7c4c4716", "type": "electric_bike", "name": "174f8cf2d183bbd8f58996ae7c4c4716", "is_reserved": 0, "rental_uris": {"ios": "https://dc.lft.to/lastmile_qr_scan", "android": "https://dc.lft.to/lastmile_qr_scan"}}, {"fusion_lat": 0.0, "is_disabled": 0, "lat": 38.92217433333333, "lon": -77.0423765, "fusion_lon": 0.0, "bike_id": "03645dad06bfa1d715b3f8667b2c41ab", "type": "electric_scooter", "name": "03645dad06bfa1d715b3f8667b2c41ab", "is_reserved": 0, "rental_uris": {"ios": "https://dc.lft.to/lastmile_qr_scan", "android": "https://dc.lft.to/lastmile_qr_scan"}}, {"fusion_lat": 0.0, "is_disabled": 0, "lat": 38.88789366666666, "lon": -77.01592633333334, "fusion_lon": 0.0, "bike_id": "2982463aeb42cfbf324a9c0c42cbbb96", "type": "electric_scooter", "name": "2982463aeb42cfbf324a9c0c42cbbb96", "is_reserved": 0, "rental_uris": {"ios": "https://dc.lft.to/lastmile_qr_scan", "android": "https://dc.lft.to/lastmile_qr_scan"}}, {"fusion_lat": 0.0, "is_disabled": 0, "lat": 38.893515, "lon": -77.00334666666667, "fusion_lon": 0.0, "bike_id": "b4301e9bc9dc02095b20cf3dd018bddf", "type": "electric_scooter", "name": "b4301e9bc9dc02095b20cf3dd018bddf", "is_reserved": 0, "rental_uris": {"ios": "https://dc.lft.to/lastmile_qr_scan", "android": "https://dc.lft.to/lastmile_qr_scan"}}, {"fusion_lat": 0.0, "is_disabled": 0, "lat": 38.924376, "lon": -77.03363366666666, "fusion_lon": 0.0, "bike_id": "6c3b8c571fc71bd80d9d9ee3a767af5e", "type": "electric_scooter", "name": "6c3b8c571fc71bd80d9d9ee3a767af5e", "is_reserved": 0, "rental_uris": {"ios": "https://dc.lft.to/lastmile_qr_scan", "android": "https://dc.lft.to/lastmile_qr_scan"}}, {"fusion_lat": 0.0, "is_disabled": 0, "lat": 38.8813295, "lon": -77.02272533333333, "fusion_lon": 0.0, "bike_id": "399bbeff05ca2d2a3f261964c6e30c35", "type": "electric_scooter", "name": "399bbeff05ca2d2a3f261964c6e30c35", "is_reserved": 0, "rental_uris": {"ios": "https://dc.lft.to/lastmile_qr_scan", "android": "https://dc.lft.to/lastmile_qr_scan"}}, {"fusion_lat": 0.0, "is_disabled": 0, "lat": 38.93301866666667, "lon": -77.03080166666666, "fusion_lon": 0.0, "bike_id": "e6f0a98c4377a3719431f09c06bad703", "type": "electric_scooter", "name": "e6f0a98c4377a3719431f09c06bad703", "is_reserved": 0, "rental_uris": {"ios": "https://dc.lft.to/lastmile_qr_scan", "android": "https://dc.lft.to/lastmile_qr_scan"}}, {"fusion_lat": 0.0, "is_disabled": 0, "lat": 38.9560735, "lon": -76.96273733333334, "fusion_lon": 0.0, "bike_id": "38913718dbfa3ead62dbad90f3723385", "type": "electric_bike", "name": "38913718dbfa3ead62dbad90f3723385", "is_reserved": 0, "rental_uris": {"ios": "https://dc.lft.to/lastmile_qr_scan", "android": "https://dc.lft.to/lastmile_qr_scan"}}, {"fusion_lat": 0.0, "is_disabled": 0, "lat": 38.920379833333335, "lon": -77.01730166666667, "fusion_lon": 0.0, "bike_id": "ac9478983e87c8b8a1a29db159e046dc", "type": "electric_scooter", "name": "ac9478983e87c8b8a1a29db159e046dc", "is_reserved": 0, "rental_uris": {"ios": "https://dc.lft.to/lastmile_qr_scan", "android": "https://dc.lft.to/lastmile_qr_scan"}}, {"fusion_lat": 0.0, "is_disabled": 0, "lat": 38.919292166666665, "lon": -77.02468516666667, "fusion_lon": 0.0, "bike_id": "609af6b60d72d4f5a81b4c7dc38584da", "type": "electric_scooter", "name": "609af6b60d72d4f5a81b4c7dc38584da", "is_reserved": 0, "rental_uris": {"ios": "https://dc.lft.to/lastmile_qr_scan", "android": "https://dc.lft.to/lastmile_qr_scan"}}, {"fusion_lat": 0.0, "is_disabled": 0, "lat": 38.92225166666667, "lon": -77.02832283333333, "fusion_lon": 0.0, "bike_id": "38f912664823c654fae71f07d358f6b5", "type": "electric_scooter", "name": "38f912664823c654fae71f07d358f6b5", "is_reserved": 0, "rental_uris": {"ios": "https://dc.lft.to/lastmile_qr_scan", "android": "https://dc.lft.to/lastmile_qr_scan"}}, {"fusion_lat": 0.0, "is_disabled": 0, "lat": 38.89034083333333, "lon": -76.93757216666667, "fusion_lon": 0.0, "bike_id": "7b9129a2828d0e4997eb9f620a7746dc", "type": "electric_scooter", "name": "7b9129a2828d0e4997eb9f620a7746dc", "is_reserved": 0, "rental_uris": {"ios": "https://dc.lft.to/lastmile_qr_scan", "android": "https://dc.lft.to/lastmile_qr_scan"}}, {"fusion_lat": 0.0, "is_disabled": 0, "lat": 38.92693383333334, "lon": -77.0148245, "fusion_lon": 0.0, "bike_id": "3031b768f6b437f461593d81610fa828", "type": "electric_scooter", "name": "3031b768f6b437f461593d81610fa828", "is_reserved": 0, "rental_uris": {"ios": "https://dc.lft.to/lastmile_qr_scan", "android": "https://dc.lft.to/lastmile_qr_scan"}}, {"fusion_lat": 0.0, "is_disabled": 0, "lat": 38.890222333333334, "lon": -76.93730083333334, "fusion_lon": 0.0, "bike_id": "6ac1107a7ec9b8222ff5962ce4b3c224", "type": "electric_scooter", "name": "6ac1107a7ec9b8222ff5962ce4b3c224", "is_reserved": 0, "rental_uris": {"ios": "https://dc.lft.to/lastmile_qr_scan", "android": "https://dc.lft.to/lastmile_qr_scan"}}, {"fusion_lat": 0.0, "is_disabled": 0, "lat": 38.898364666666666, "lon": -77.01215, "fusion_lon": 0.0, "bike_id": "a054d2e29aba4d201e29b3a9dd9f49e4", "type": "electric_scooter", "name": "a054d2e29aba4d201e29b3a9dd9f49e4", "is_reserved": 0, "rental_uris": {"ios": "https://dc.lft.to/lastmile_qr_scan", "android": "https://dc.lft.to/lastmile_qr_scan"}}, {"fusion_lat": 0.0, "is_disabled": 0, "lat": 38.9155655, "lon": -77.04448233333333, "fusion_lon": 0.0, "bike_id": "e5dba18a96574a0a4547dadfa42d0211", "type": "electric_scooter", "name": "e5dba18a96574a0a4547dadfa42d0211", "is_reserved": 0, "rental_uris": {"ios": "https://dc.lft.to/lastmile_qr_scan", "android": "https://dc.lft.to/lastmile_qr_scan"}}, {"fusion_lat": 0.0, "is_disabled": 0, "lat": 38.89613283333333, "lon": -77.0190155, "fusion_lon": 0.0, "bike_id": "47d6479deded82b1613c330c44f5d603", "type": "electric_scooter", "name": "47d6479deded82b1613c330c44f5d603", "is_reserved": 0, "rental_uris": {"ios": "https://dc.lft.to/lastmile_qr_scan", "android": "https://dc.lft.to/lastmile_qr_scan"}}, {"fusion_lat": 0.0, "is_disabled": 0, "lat": 38.90132633333333, "lon": -77.03393016666666, "fusion_lon": 0.0, "bike_id": "fbc906dc511534fa3c06a46ba7fa9875", "type": "electric_scooter", "name": "fbc906dc511534fa3c06a46ba7fa9875", "is_reserved": 0, "rental_uris": {"ios": "https://dc.lft.to/lastmile_qr_scan", "android": "https://dc.lft.to/lastmile_qr_scan"}}, {"fusion_lat": 0.0, "is_disabled": 0, "lat": 38.915970333333334, "lon": -77.02311566666667, "fusion_lon": 0.0, "bike_id": "5b599c09f19c9d2105c3917ab5846387", "type": "electric_scooter", "name": "5b599c09f19c9d2105c3917ab5846387", "is_reserved": 0, "rental_uris": {"ios": "https://dc.lft.to/lastmile_qr_scan", "android": "https://dc.lft.to/lastmile_qr_scan"}}, {"fusion_lat": 0.0, "is_disabled": 0, "lat": 38.92507666666667, "lon": -77.02286, "fusion_lon": 0.0, "bike_id": "9d3b4e5b2c555309639b908869b16e95", "type": "electric_scooter", "name": "9d3b4e5b2c555309639b908869b16e95", "is_reserved": 0, "rental_uris": {"ios": "https://dc.lft.to/lastmile_qr_scan", "android": "https://dc.lft.to/lastmile_qr_scan"}}, {"fusion_lat": 0.0, "is_disabled": 0, "lat": 38.89213516666667, "lon": -77.02373566666667, "fusion_lon": 0.0, "bike_id": "8ebf7550b3f2609f850d60ec69b4d070", "type": "electric_scooter", "name": "8ebf7550b3f2609f850d60ec69b4d070", "is_reserved": 0, "rental_uris": {"ios": "https://dc.lft.to/lastmile_qr_scan", "android": "https://dc.lft.to/lastmile_qr_scan"}}, {"fusion_lat": 0.0, "is_disabled": 0, "lat": 38.884739833333335, "lon": -77.02552666666666, "fusion_lon": 0.0, "bike_id": "5e49d52da951632ff8bc1528228499c5", "type": "electric_scooter", "name": "5e49d52da951632ff8bc1528228499c5", "is_reserved": 0, "rental_uris": {"ios": "https://dc.lft.to/lastmile_qr_scan", "android": "https://dc.lft.to/lastmile_qr_scan"}}, {"fusion_lat": 0.0, "is_disabled": 0, "lat": 38.89222483333333, "lon": -77.046447, "fusion_lon": 0.0, "bike_id": "43652061b065ee8adccda550a7029cd6", "type": "electric_scooter", "name": "43652061b065ee8adccda550a7029cd6", "is_reserved": 0, "rental_uris": {"ios": "https://dc.lft.to/lastmile_qr_scan", "android": "https://dc.lft.to/lastmile_qr_scan"}}, {"fusion_lat": 0.0, "is_disabled": 0, "lat": 38.89985733333333, "lon": -77.04826733333333, "fusion_lon": 0.0, "bike_id": "89bd15a78bd6dd28127f1f197084792d", "type": "electric_scooter", "name": "89bd15a78bd6dd28127f1f197084792d", "is_reserved": 0, "rental_uris": {"ios": "https://dc.lft.to/lastmile_qr_scan", "android": "https://dc.lft.to/lastmile_qr_scan"}}, {"fusion_lat": 0.0, "is_disabled": 0, "lat": 38.901379166666665, "lon": -77.032183, "fusion_lon": 0.0, "bike_id": "fd274c123c70c010234b5ba5bbf46652", "type": "electric_scooter", "name": "fd274c123c70c010234b5ba5bbf46652", "is_reserved": 0, "rental_uris": {"ios": "https://dc.lft.to/lastmile_qr_scan", "android": "https://dc.lft.to/lastmile_qr_scan"}}, {"fusion_lat": 0.0, "is_disabled": 0, "lat": 38.91357766666667, "lon": -77.044929, "fusion_lon": 0.0, "bike_id": "540ffba35fe287df6b3cbfe7f64ed340", "type": "electric_scooter", "name": "540ffba35fe287df6b3cbfe7f64ed340", "is_reserved": 0, "rental_uris": {"ios": "https://dc.lft.to/lastmile_qr_scan", "android": "https://dc.lft.to/lastmile_qr_scan"}}, {"fusion_lat": 0.0, "is_disabled": 0, "lat": 38.92470933333333, "lon": -77.02249266666666, "fusion_lon": 0.0, "bike_id": "434612fbd7b9d1c8a30bca536a361235", "type": "electric_scooter", "name": "434612fbd7b9d1c8a30bca536a361235", "is_reserved": 0, "rental_uris": {"ios": "https://dc.lft.to/lastmile_qr_scan", "android": "https://dc.lft.to/lastmile_qr_scan"}}, {"fusion_lat": 0.0, "is_disabled": 0, "lat": 38.899192666666664, "lon": -77.03284683333334, "fusion_lon": 0.0, "bike_id": "58e5781eebb9a4e63f2d581de1dd604e", "type": "electric_scooter", "name": "58e5781eebb9a4e63f2d581de1dd604e", "is_reserved": 0, "rental_uris": {"ios": "https://dc.lft.to/lastmile_qr_scan", "android": "https://dc.lft.to/lastmile_qr_scan"}}, {"fusion_lat": 0.0, "is_disabled": 0, "lat": 38.8097615, "lon": -77.076565, "fusion_lon": 0.0, "bike_id": "05d054dae72d5672611392ac5294320b", "type": "electric_bike", "name": "05d054dae72d5672611392ac5294320b", "is_reserved": 0, "rental_uris": {"ios": "https://dc.lft.to/lastmile_qr_scan", "android": "https://dc.lft.to/lastmile_qr_scan"}}, {"fusion_lat": 0.0, "is_disabled": 0, "lat": 38.8922775, "lon": -77.02513433333333, "fusion_lon": 0.0, "bike_id": "092c04e85745b89ecf3c5160d2c60909", "type": "electric_scooter", "name": "092c04e85745b89ecf3c5160d2c60909", "is_reserved": 0, "rental_uris": {"ios": "https://dc.lft.to/lastmile_qr_scan", "android": "https://dc.lft.to/lastmile_qr_scan"}}, {"fusion_lat": 0.0, "is_disabled": 0, "lat": 38.92297883333333, "lon": -77.01954033333334, "fusion_lon": 0.0, "bike_id": "fb98b229c8b4225a22fb80d93c24732d", "type": "electric_scooter", "name": "fb98b229c8b4225a22fb80d93c24732d", "is_reserved": 0, "rental_uris": {"ios": "https://dc.lft.to/lastmile_qr_scan", "android": "https://dc.lft.to/lastmile_qr_scan"}}, {"fusion_lat": 0.0, "is_disabled": 0, "lat": 38.91026033333333, "lon": -77.04503716666666, "fusion_lon": 0.0, "bike_id": "482c31f64e0174ef0e055ca0cb46e47d", "type": "electric_scooter", "name": "482c31f64e0174ef0e055ca0cb46e47d", "is_reserved": 0, "rental_uris": {"ios": "https://dc.lft.to/lastmile_qr_scan", "android": "https://dc.lft.to/lastmile_qr_scan"}}, {"fusion_lat": 0.0, "is_disabled": 0, "lat": 38.897056166666665, "lon": -77.02794116666666, "fusion_lon": 0.0, "bike_id": "29a6dd359fa586c56762f066074d1e8b", "type": "electric_scooter", "name": "29a6dd359fa586c56762f066074d1e8b", "is_reserved": 0, "rental_uris": {"ios": "https://dc.lft.to/lastmile_qr_scan", "android": "https://dc.lft.to/lastmile_qr_scan"}}, {"fusion_lat": 0.0, "is_disabled": 0, "lat": 38.9233475, "lon": -77.05248816666666, "fusion_lon": 0.0, "bike_id": "7282532775c6374d354526fde384768e", "type": "electric_scooter", "name": "7282532775c6374d354526fde384768e", "is_reserved": 0, "rental_uris": {"ios": "https://dc.lft.to/lastmile_qr_scan", "android": "https://dc.lft.to/lastmile_qr_scan"}}, {"fusion_lat": 0.0, "is_disabled": 0, "lat": 38.92470316666667, "lon": -77.02191166666667, "fusion_lon": 0.0, "bike_id": "157659c44729788231ddbfcc4d0505c6", "type": "electric_scooter", "name": "157659c44729788231ddbfcc4d0505c6", "is_reserved": 0, "rental_uris": {"ios": "https://dc.lft.to/lastmile_qr_scan", "android": "https://dc.lft.to/lastmile_qr_scan"}}, {"fusion_lat": 0.0, "is_disabled": 0, "lat": 38.917431, "lon": -77.0415995, "fusion_lon": 0.0, "bike_id": "14db4487c4b6884d3328fee46424a4a4", "type": "electric_scooter", "name": "14db4487c4b6884d3328fee46424a4a4", "is_reserved": 0, "rental_uris": {"ios": "https://dc.lft.to/lastmile_qr_scan", "android": "https://dc.lft.to/lastmile_qr_scan"}}, {"fusion_lat": 0.0, "is_disabled": 0, "lat": 38.8921445, "lon": -77.021688, "fusion_lon": 0.0, "bike_id": "754e03b7cdf000150102bd8c9bc2280b", "type": "electric_scooter", "name": "754e03b7cdf000150102bd8c9bc2280b", "is_reserved": 0, "rental_uris": {"ios": "https://dc.lft.to/lastmile_qr_scan", "android": "https://dc.lft.to/lastmile_qr_scan"}}, {"fusion_lat": 0.0, "is_disabled": 0, "lat": 38.9002935, "lon": -76.98824866666666, "fusion_lon": 0.0, "bike_id": "7f7ffae19dfeca0fc93c5c65a086328d", "type": "electric_scooter", "name": "7f7ffae19dfeca0fc93c5c65a086328d", "is_reserved": 0, "rental_uris": {"ios": "https://dc.lft.to/lastmile_qr_scan", "android": "https://dc.lft.to/lastmile_qr_scan"}}, {"fusion_lat": 0.0, "is_disabled": 0, "lat": 38.898299333333334, "lon": -77.0469435, "fusion_lon": 0.0, "bike_id": "3a19f9ccbd417bcf24b69a6c993260c4", "type": "electric_scooter", "name": "3a19f9ccbd417bcf24b69a6c993260c4", "is_reserved": 0, "rental_uris": {"ios": "https://dc.lft.to/lastmile_qr_scan", "android": "https://dc.lft.to/lastmile_qr_scan"}}, {"fusion_lat": 0.0, "is_disabled": 0, "lat": 38.914724666666665, "lon": -77.0217975, "fusion_lon": 0.0, "bike_id": "53fd3fced0b93295957d4c91c0638b8a", "type": "electric_scooter", "name": "53fd3fced0b93295957d4c91c0638b8a", "is_reserved": 0, "rental_uris": {"ios": "https://dc.lft.to/lastmile_qr_scan", "android": "https://dc.lft.to/lastmile_qr_scan"}}, {"fusion_lat": 0.0, "is_disabled": 0, "lat": 38.90140616666667, "lon": -77.03218683333333, "fusion_lon": 0.0, "bike_id": "a6292c0997bb983173cdac5155ffac3b", "type": "electric_scooter", "name": "a6292c0997bb983173cdac5155ffac3b", "is_reserved": 0, "rental_uris": {"ios": "https://dc.lft.to/lastmile_qr_scan", "android": "https://dc.lft.to/lastmile_qr_scan"}}, {"fusion_lat": 0.0, "is_disabled": 0, "lat": 38.88339216666667, "lon": -77.02594966666666, "fusion_lon": 0.0, "bike_id": "6aee3857725f7215b9d7e2ab152b0e8b", "type": "electric_scooter", "name": "6aee3857725f7215b9d7e2ab152b0e8b", "is_reserved": 0, "rental_uris": {"ios": "https://dc.lft.to/lastmile_qr_scan", "android": "https://dc.lft.to/lastmile_qr_scan"}}, {"fusion_lat": 0.0, "is_disabled": 0, "lat": 38.876802, "lon": -77.01984016666667, "fusion_lon": 0.0, "bike_id": "647b4ab5bd91871cb798c9d29ce24803", "type": "electric_scooter", "name": "647b4ab5bd91871cb798c9d29ce24803", "is_reserved": 0, "rental_uris": {"ios": "https://dc.lft.to/lastmile_qr_scan", "android": "https://dc.lft.to/lastmile_qr_scan"}}, {"fusion_lat": 0.0, "is_disabled": 0, "lat": 38.9111515, "lon": -77.0361925, "fusion_lon": 0.0, "bike_id": "8ae0004fd95ecfb0dcd50b2744e26086", "type": "electric_scooter", "name": "8ae0004fd95ecfb0dcd50b2744e26086", "is_reserved": 0, "rental_uris": {"ios": "https://dc.lft.to/lastmile_qr_scan", "android": "https://dc.lft.to/lastmile_qr_scan"}}, {"fusion_lat": 0.0, "is_disabled": 0, "lat": 38.899636666666666, "lon": -77.0308775, "fusion_lon": 0.0, "bike_id": "e2d3878de5c8fddcf95e3f8d96513d30", "type": "electric_scooter", "name": "e2d3878de5c8fddcf95e3f8d96513d30", "is_reserved": 0, "rental_uris": {"ios": "https://dc.lft.to/lastmile_qr_scan", "android": "https://dc.lft.to/lastmile_qr_scan"}}, {"fusion_lat": 0.0, "is_disabled": 0, "lat": 38.906414, "lon": -77.05122633333333, "fusion_lon": 0.0, "bike_id": "0bffaf33139c2e491b75a525060fe2eb", "type": "electric_scooter", "name": "0bffaf33139c2e491b75a525060fe2eb", "is_reserved": 0, "rental_uris": {"ios": "https://dc.lft.to/lastmile_qr_scan", "android": "https://dc.lft.to/lastmile_qr_scan"}}, {"fusion_lat": 0.0, "is_disabled": 0, "lat": 38.933539333333336, "lon": -77.0858115, "fusion_lon": 0.0, "bike_id": "dc5e0520bdc33b18f1831e3e18997042", "type": "electric_scooter", "name": "dc5e0520bdc33b18f1831e3e18997042", "is_reserved": 0, "rental_uris": {"ios": "https://dc.lft.to/lastmile_qr_scan", "android": "https://dc.lft.to/lastmile_qr_scan"}}, {"fusion_lat": 0.0, "is_disabled": 0, "lat": 38.9205435, "lon": -77.03465866666667, "fusion_lon": 0.0, "bike_id": "161c7a29d17e61ff263ee6d1f3abf930", "type": "electric_scooter", "name": "161c7a29d17e61ff263ee6d1f3abf930", "is_reserved": 0, "rental_uris": {"ios": "https://dc.lft.to/lastmile_qr_scan", "android": "https://dc.lft.to/lastmile_qr_scan"}}, {"fusion_lat": 0.0, "is_disabled": 0, "lat": 38.90390633333333, "lon": -77.05330566666666, "fusion_lon": 0.0, "bike_id": "c855aa93a1ff63df00fa4105609f2889", "type": "electric_scooter", "name": "c855aa93a1ff63df00fa4105609f2889", "is_reserved": 0, "rental_uris": {"ios": "https://dc.lft.to/lastmile_qr_scan", "android": "https://dc.lft.to/lastmile_qr_scan"}}, {"fusion_lat": 0.0, "is_disabled": 0, "lat": 38.92846083333333, "lon": -77.03636583333333, "fusion_lon": 0.0, "bike_id": "096f447d28a37dcddd21701d35574011", "type": "electric_scooter", "name": "096f447d28a37dcddd21701d35574011", "is_reserved": 0, "rental_uris": {"ios": "https://dc.lft.to/lastmile_qr_scan", "android": "https://dc.lft.to/lastmile_qr_scan"}}, {"fusion_lat": 0.0, "is_disabled": 0, "lat": 38.94039716666666, "lon": -77.029013, "fusion_lon": 0.0, "bike_id": "a97eb422f81b69338104d705b7c41f26", "type": "electric_scooter", "name": "a97eb422f81b69338104d705b7c41f26", "is_reserved": 0, "rental_uris": {"ios": "https://dc.lft.to/lastmile_qr_scan", "android": "https://dc.lft.to/lastmile_qr_scan"}}, {"fusion_lat": 0.0, "is_disabled": 0, "lat": 38.92467216666667, "lon": -77.0393885, "fusion_lon": 0.0, "bike_id": "16776a769affc8d96862017b4cf48a67", "type": "electric_scooter", "name": "16776a769affc8d96862017b4cf48a67", "is_reserved": 0, "rental_uris": {"ios": "https://dc.lft.to/lastmile_qr_scan", "android": "https://dc.lft.to/lastmile_qr_scan"}}, {"fusion_lat": 0.0, "is_disabled": 0, "lat": 38.921643, "lon": -77.01880266666667, "fusion_lon": 0.0, "bike_id": "aad433e5361dc82de90a423074a49c95", "type": "electric_scooter", "name": "aad433e5361dc82de90a423074a49c95", "is_reserved": 0, "rental_uris": {"ios": "https://dc.lft.to/lastmile_qr_scan", "android": "https://dc.lft.to/lastmile_qr_scan"}}, {"fusion_lat": 0.0, "is_disabled": 0, "lat": 38.9020185, "lon": -77.04802533333333, "fusion_lon": 0.0, "bike_id": "e602f211fd0bc4397344ec14627ffa8f", "type": "electric_scooter", "name": "e602f211fd0bc4397344ec14627ffa8f", "is_reserved": 0, "rental_uris": {"ios": "https://dc.lft.to/lastmile_qr_scan", "android": "https://dc.lft.to/lastmile_qr_scan"}}, {"fusion_lat": 0.0, "is_disabled": 0, "lat": 38.941371833333335, "lon": -77.0232585, "fusion_lon": 0.0, "bike_id": "a63d624253442e52a5f5a234141a0d25", "type": "electric_scooter", "name": "a63d624253442e52a5f5a234141a0d25", "is_reserved": 0, "rental_uris": {"ios": "https://dc.lft.to/lastmile_qr_scan", "android": "https://dc.lft.to/lastmile_qr_scan"}}, {"fusion_lat": 0.0, "is_disabled": 0, "lat": 38.78459516666667, "lon": -77.05439516666667, "fusion_lon": 0.0, "bike_id": "fd09ac927b1583394cb25a20b4b84475", "type": "electric_bike", "name": "fd09ac927b1583394cb25a20b4b84475", "is_reserved": 0, "rental_uris": {"ios": "https://dc.lft.to/lastmile_qr_scan", "android": "https://dc.lft.to/lastmile_qr_scan"}}, {"fusion_lat": 0.0, "is_disabled": 0, "lat": 38.957072833333335, "lon": -76.9737335, "fusion_lon": 0.0, "bike_id": "fca6262f5630a56b3b4259ce820ce610", "type": "electric_bike", "name": "fca6262f5630a56b3b4259ce820ce610", "is_reserved": 0, "rental_uris": {"ios": "https://dc.lft.to/lastmile_qr_scan", "android": "https://dc.lft.to/lastmile_qr_scan"}}, {"fusion_lat": 0.0, "is_disabled": 0, "lat": 38.931037833333335, "lon": -77.02551616666666, "fusion_lon": 0.0, "bike_id": "2bd160232ec31be505c24c7042b969a5", "type": "electric_scooter", "name": "2bd160232ec31be505c24c7042b969a5", "is_reserved": 0, "rental_uris": {"ios": "https://dc.lft.to/lastmile_qr_scan", "android": "https://dc.lft.to/lastmile_qr_scan"}}, {"fusion_lat": 0.0, "is_disabled": 0, "lat": 38.904151, "lon": -77.04649583333334, "fusion_lon": 0.0, "bike_id": "494e01b417d9abfa56db5580a72be44d", "type": "electric_scooter", "name": "494e01b417d9abfa56db5580a72be44d", "is_reserved": 0, "rental_uris": {"ios": "https://dc.lft.to/lastmile_qr_scan", "android": "https://dc.lft.to/lastmile_qr_scan"}}, {"fusion_lat": 0.0, "is_disabled": 0, "lat": 38.863361833333336, "lon": -76.987211, "fusion_lon": 0.0, "bike_id": "29ea74f99df109f6132a5326c3bcd70b", "type": "electric_bike", "name": "29ea74f99df109f6132a5326c3bcd70b", "is_reserved": 0, "rental_uris": {"ios": "https://dc.lft.to/lastmile_qr_scan", "android": "https://dc.lft.to/lastmile_qr_scan"}}, {"fusion_lat": 0.0, "is_disabled": 0, "lat": 38.962238, "lon": -77.01359, "fusion_lon": 0.0, "bike_id": "7b819246640c767ff0a76d9d2d8a4858", "type": "electric_scooter", "name": "7b819246640c767ff0a76d9d2d8a4858", "is_reserved": 0, "rental_uris": {"ios": "https://dc.lft.to/lastmile_qr_scan", "android": "https://dc.lft.to/lastmile_qr_scan"}}, {"fusion_lat": 0.0, "is_disabled": 0, "lat": 38.80481116666667, "lon": -76.9910655, "fusion_lon": 0.0, "bike_id": "eab2643a6ff5296cfdeff0f521e55971", "type": "electric_bike", "name": "eab2643a6ff5296cfdeff0f521e55971", "is_reserved": 0, "rental_uris": {"ios": "https://dc.lft.to/lastmile_qr_scan", "android": "https://dc.lft.to/lastmile_qr_scan"}}, {"fusion_lat": 0.0, "is_disabled": 0, "lat": 38.9278735, "lon": -77.01571266666667, "fusion_lon": 0.0, "bike_id": "6c4e2dc799219aa1f4abd554923921a3", "type": "electric_scooter", "name": "6c4e2dc799219aa1f4abd554923921a3", "is_reserved": 0, "rental_uris": {"ios": "https://dc.lft.to/lastmile_qr_scan", "android": "https://dc.lft.to/lastmile_qr_scan"}}, {"fusion_lat": 0.0, "is_disabled": 0, "lat": 38.92375416666667, "lon": -77.01916716666666, "fusion_lon": 0.0, "bike_id": "6444e3a9eac5362de90b2ddc28018694", "type": "electric_scooter", "name": "6444e3a9eac5362de90b2ddc28018694", "is_reserved": 0, "rental_uris": {"ios": "https://dc.lft.to/lastmile_qr_scan", "android": "https://dc.lft.to/lastmile_qr_scan"}}, {"fusion_lat": 0.0, "is_disabled": 0, "lat": 38.91755083333334, "lon": -77.02702433333333, "fusion_lon": 0.0, "bike_id": "47fef524d9b053de3f5f5a1415ece8a0", "type": "electric_scooter", "name": "47fef524d9b053de3f5f5a1415ece8a0", "is_reserved": 0, "rental_uris": {"ios": "https://dc.lft.to/lastmile_qr_scan", "android": "https://dc.lft.to/lastmile_qr_scan"}}, {"fusion_lat": 0.0, "is_disabled": 0, "lat": 38.93657183333333, "lon": -77.066116, "fusion_lon": 0.0, "bike_id": "6349afdb8fcc0e51d1864a07e40694b7", "type": "electric_scooter", "name": "6349afdb8fcc0e51d1864a07e40694b7", "is_reserved": 0, "rental_uris": {"ios": "https://dc.lft.to/lastmile_qr_scan", "android": "https://dc.lft.to/lastmile_qr_scan"}}, {"fusion_lat": 0.0, "is_disabled": 0, "lat": 38.92660166666667, "lon": -77.01483366666666, "fusion_lon": 0.0, "bike_id": "cb3e121343ce6669eff27a5b73fc0b4a", "type": "electric_scooter", "name": "cb3e121343ce6669eff27a5b73fc0b4a", "is_reserved": 0, "rental_uris": {"ios": "https://dc.lft.to/lastmile_qr_scan", "android": "https://dc.lft.to/lastmile_qr_scan"}}, {"fusion_lat": 0.0, "is_disabled": 0, "lat": 38.90273033333333, "lon": -77.04264183333333, "fusion_lon": 0.0, "bike_id": "da6a1f1b8ffbdc5dd73cb004247ffceb", "type": "electric_scooter", "name": "da6a1f1b8ffbdc5dd73cb004247ffceb", "is_reserved": 0, "rental_uris": {"ios": "https://dc.lft.to/lastmile_qr_scan", "android": "https://dc.lft.to/lastmile_qr_scan"}}, {"fusion_lat": 0.0, "is_disabled": 0, "lat": 38.90779166666667, "lon": -76.9971515, "fusion_lon": 0.0, "bike_id": "9c549b0c8658a5d047de22f66125abb9", "type": "electric_scooter", "name": "9c549b0c8658a5d047de22f66125abb9", "is_reserved": 0, "rental_uris": {"ios": "https://dc.lft.to/lastmile_qr_scan", "android": "https://dc.lft.to/lastmile_qr_scan"}}, {"fusion_lat": 0.0, "is_disabled": 0, "lat": 38.92318483333333, "lon": -77.04312116666667, "fusion_lon": 0.0, "bike_id": "bcbf80184b87a92d8054c9ff64029afc", "type": "electric_scooter", "name": "bcbf80184b87a92d8054c9ff64029afc", "is_reserved": 0, "rental_uris": {"ios": "https://dc.lft.to/lastmile_qr_scan", "android": "https://dc.lft.to/lastmile_qr_scan"}}, {"fusion_lat": 0.0, "is_disabled": 0, "lat": 38.920457666666664, "lon": -77.041916, "fusion_lon": 0.0, "bike_id": "c39f1c06e0fca8ba7c28cf9b762f9b59", "type": "electric_scooter", "name": "c39f1c06e0fca8ba7c28cf9b762f9b59", "is_reserved": 0, "rental_uris": {"ios": "https://dc.lft.to/lastmile_qr_scan", "android": "https://dc.lft.to/lastmile_qr_scan"}}, {"fusion_lat": 0.0, "is_disabled": 0, "lat": 38.9532665, "lon": -77.00914816666666, "fusion_lon": 0.0, "bike_id": "d11b632c22aa9261d14407f90c1a3de7", "type": "electric_bike", "name": "d11b632c22aa9261d14407f90c1a3de7", "is_reserved": 0, "rental_uris": {"ios": "https://dc.lft.to/lastmile_qr_scan", "android": "https://dc.lft.to/lastmile_qr_scan"}}, {"fusion_lat": 0.0, "is_disabled": 0, "lat": 38.92607233333333, "lon": -77.02160816666667, "fusion_lon": 0.0, "bike_id": "1613252995adb266d1247e818b0efb1e", "type": "electric_scooter", "name": "1613252995adb266d1247e818b0efb1e", "is_reserved": 0, "rental_uris": {"ios": "https://dc.lft.to/lastmile_qr_scan", "android": "https://dc.lft.to/lastmile_qr_scan"}}, {"fusion_lat": 0.0, "is_disabled": 0, "lat": 38.9257665, "lon": -77.02761066666666, "fusion_lon": 0.0, "bike_id": "67b3125d995a303888f78cc80c18ee0b", "type": "electric_scooter", "name": "67b3125d995a303888f78cc80c18ee0b", "is_reserved": 0, "rental_uris": {"ios": "https://dc.lft.to/lastmile_qr_scan", "android": "https://dc.lft.to/lastmile_qr_scan"}}, {"fusion_lat": 0.0, "is_disabled": 0, "lat": 38.88711883333333, "lon": -76.98340066666667, "fusion_lon": 0.0, "bike_id": "8a03530ea3994c7417380f1ed6e57924", "type": "electric_scooter", "name": "8a03530ea3994c7417380f1ed6e57924", "is_reserved": 0, "rental_uris": {"ios": "https://dc.lft.to/lastmile_qr_scan", "android": "https://dc.lft.to/lastmile_qr_scan"}}, {"fusion_lat": 0.0, "is_disabled": 0, "lat": 38.94265516666667, "lon": -77.02584033333333, "fusion_lon": 0.0, "bike_id": "2ad6af5dcb3f54fcbe12f3f63a8101ab", "type": "electric_scooter", "name": "2ad6af5dcb3f54fcbe12f3f63a8101ab", "is_reserved": 0, "rental_uris": {"ios": "https://dc.lft.to/lastmile_qr_scan", "android": "https://dc.lft.to/lastmile_qr_scan"}}, {"fusion_lat": 0.0, "is_disabled": 0, "lat": 38.90448666666666, "lon": -77.01886216666666, "fusion_lon": 0.0, "bike_id": "4b17dd29d0d0e196714f0e4ac218df7c", "type": "electric_scooter", "name": "4b17dd29d0d0e196714f0e4ac218df7c", "is_reserved": 0, "rental_uris": {"ios": "https://dc.lft.to/lastmile_qr_scan", "android": "https://dc.lft.to/lastmile_qr_scan"}}, {"fusion_lat": 0.0, "is_disabled": 0, "lat": 38.89828133333334, "lon": -77.04612666666667, "fusion_lon": 0.0, "bike_id": "17e2893b82fb184e59aea16bd23d667c", "type": "electric_scooter", "name": "17e2893b82fb184e59aea16bd23d667c", "is_reserved": 0, "rental_uris": {"ios": "https://dc.lft.to/lastmile_qr_scan", "android": "https://dc.lft.to/lastmile_qr_scan"}}, {"fusion_lat": 0.0, "is_disabled": 0, "lat": 38.925909, "lon": -77.02570166666666, "fusion_lon": 0.0, "bike_id": "071604ec2f5b9552954a65923a3bc739", "type": "electric_scooter", "name": "071604ec2f5b9552954a65923a3bc739", "is_reserved": 0, "rental_uris": {"ios": "https://dc.lft.to/lastmile_qr_scan", "android": "https://dc.lft.to/lastmile_qr_scan"}}, {"fusion_lat": 0.0, "is_disabled": 0, "lat": 38.906181, "lon": -77.043404, "fusion_lon": 0.0, "bike_id": "a87b113116f4738b7e1d62f5bf9f6014", "type": "electric_scooter", "name": "a87b113116f4738b7e1d62f5bf9f6014", "is_reserved": 0, "rental_uris": {"ios": "https://dc.lft.to/lastmile_qr_scan", "android": "https://dc.lft.to/lastmile_qr_scan"}}, {"fusion_lat": 0.0, "is_disabled": 0, "lat": 38.85217266666667, "lon": -76.9937705, "fusion_lon": 0.0, "bike_id": "595d8d6f00aca54298f9c4752d538da9", "type": "electric_scooter", "name": "595d8d6f00aca54298f9c4752d538da9", "is_reserved": 0, "rental_uris": {"ios": "https://dc.lft.to/lastmile_qr_scan", "android": "https://dc.lft.to/lastmile_qr_scan"}}, {"fusion_lat": 0.0, "is_disabled": 0, "lat": 38.894688333333335, "lon": -77.04172616666666, "fusion_lon": 0.0, "bike_id": "b81b814dc318a317792a5064972b5a83", "type": "electric_scooter", "name": "b81b814dc318a317792a5064972b5a83", "is_reserved": 0, "rental_uris": {"ios": "https://dc.lft.to/lastmile_qr_scan", "android": "https://dc.lft.to/lastmile_qr_scan"}}, {"fusion_lat": 0.0, "is_disabled": 0, "lat": 38.92329466666666, "lon": -77.0568055, "fusion_lon": 0.0, "bike_id": "37cccf5559856b69f8b980a219101442", "type": "electric_scooter", "name": "37cccf5559856b69f8b980a219101442", "is_reserved": 0, "rental_uris": {"ios": "https://dc.lft.to/lastmile_qr_scan", "android": "https://dc.lft.to/lastmile_qr_scan"}}, {"fusion_lat": 0.0, "is_disabled": 0, "lat": 38.90503483333333, "lon": -77.03471033333334, "fusion_lon": 0.0, "bike_id": "445451bb8341f9d7e0b8e27754fe1c7e", "type": "electric_scooter", "name": "445451bb8341f9d7e0b8e27754fe1c7e", "is_reserved": 0, "rental_uris": {"ios": "https://dc.lft.to/lastmile_qr_scan", "android": "https://dc.lft.to/lastmile_qr_scan"}}, {"fusion_lat": 0.0, "is_disabled": 0, "lat": 38.855571, "lon": -77.06327216666666, "fusion_lon": 0.0, "bike_id": "56640835f23ecdc11f96616f0b8d2108", "type": "electric_bike", "name": "56640835f23ecdc11f96616f0b8d2108", "is_reserved": 0, "rental_uris": {"ios": "https://dc.lft.to/lastmile_qr_scan", "android": "https://dc.lft.to/lastmile_qr_scan"}}, {"fusion_lat": 0.0, "is_disabled": 0, "lat": 38.925592333333334, "lon": -77.0228285, "fusion_lon": 0.0, "bike_id": "7379ce44b3c9d00ce1ca764783defd42", "type": "electric_scooter", "name": "7379ce44b3c9d00ce1ca764783defd42", "is_reserved": 0, "rental_uris": {"ios": "https://dc.lft.to/lastmile_qr_scan", "android": "https://dc.lft.to/lastmile_qr_scan"}}, {"fusion_lat": 0.0, "is_disabled": 0, "lat": 38.90144633333333, "lon": -77.0121685, "fusion_lon": 0.0, "bike_id": "1f740b359ae5a0ee123561f495c0baae", "type": "electric_scooter", "name": "1f740b359ae5a0ee123561f495c0baae", "is_reserved": 0, "rental_uris": {"ios": "https://dc.lft.to/lastmile_qr_scan", "android": "https://dc.lft.to/lastmile_qr_scan"}}, {"fusion_lat": 0.0, "is_disabled": 0, "lat": 38.9053385, "lon": -77.0503065, "fusion_lon": 0.0, "bike_id": "bab294d6b75237471b30b979e260244a", "type": "electric_scooter", "name": "bab294d6b75237471b30b979e260244a", "is_reserved": 0, "rental_uris": {"ios": "https://dc.lft.to/lastmile_qr_scan", "android": "https://dc.lft.to/lastmile_qr_scan"}}, {"fusion_lat": 0.0, "is_disabled": 0, "lat": 38.84216683333333, "lon": -76.94897016666667, "fusion_lon": 0.0, "bike_id": "a595b9143e25255b4def2bc2ea9f0788", "type": "electric_bike", "name": "a595b9143e25255b4def2bc2ea9f0788", "is_reserved": 0, "rental_uris": {"ios": "https://dc.lft.to/lastmile_qr_scan", "android": "https://dc.lft.to/lastmile_qr_scan"}}, {"fusion_lat": 0.0, "is_disabled": 0, "lat": 38.862454666666665, "lon": -76.99500716666667, "fusion_lon": 0.0, "bike_id": "18db3e5b44b2d6e78206953594f365f1", "type": "electric_scooter", "name": "18db3e5b44b2d6e78206953594f365f1", "is_reserved": 0, "rental_uris": {"ios": "https://dc.lft.to/lastmile_qr_scan", "android": "https://dc.lft.to/lastmile_qr_scan"}}, {"fusion_lat": 0.0, "is_disabled": 0, "lat": 38.897080833333334, "lon": -77.03266716666667, "fusion_lon": 0.0, "bike_id": "db6beb2459f1a65d892ce51c09edf4cc", "type": "electric_scooter", "name": "db6beb2459f1a65d892ce51c09edf4cc", "is_reserved": 0, "rental_uris": {"ios": "https://dc.lft.to/lastmile_qr_scan", "android": "https://dc.lft.to/lastmile_qr_scan"}}, {"fusion_lat": 0.0, "is_disabled": 0, "lat": 38.92059016666666, "lon": -76.97072266666666, "fusion_lon": 0.0, "bike_id": "c21840d1a3411ebe654b54ece2f81adc", "type": "electric_bike", "name": "c21840d1a3411ebe654b54ece2f81adc", "is_reserved": 0, "rental_uris": {"ios": "https://dc.lft.to/lastmile_qr_scan", "android": "https://dc.lft.to/lastmile_qr_scan"}}, {"fusion_lat": 0.0, "is_disabled": 0, "lat": 38.934411, "lon": -77.02976483333333, "fusion_lon": 0.0, "bike_id": "a39c9d3053e6a95e1502585a02433277", "type": "electric_scooter", "name": "a39c9d3053e6a95e1502585a02433277", "is_reserved": 0, "rental_uris": {"ios": "https://dc.lft.to/lastmile_qr_scan", "android": "https://dc.lft.to/lastmile_qr_scan"}}, {"fusion_lat": 0.0, "is_disabled": 0, "lat": 38.92407033333333, "lon": -77.02038166666667, "fusion_lon": 0.0, "bike_id": "75b0c83f1f984db6c7ed16c2c7b535a6", "type": "electric_scooter", "name": "75b0c83f1f984db6c7ed16c2c7b535a6", "is_reserved": 0, "rental_uris": {"ios": "https://dc.lft.to/lastmile_qr_scan", "android": "https://dc.lft.to/lastmile_qr_scan"}}, {"fusion_lat": 0.0, "is_disabled": 0, "lat": 38.902362833333335, "lon": -77.045116, "fusion_lon": 0.0, "bike_id": "c0aed54d661f69b4089b19b5c991c621", "type": "electric_scooter", "name": "c0aed54d661f69b4089b19b5c991c621", "is_reserved": 0, "rental_uris": {"ios": "https://dc.lft.to/lastmile_qr_scan", "android": "https://dc.lft.to/lastmile_qr_scan"}}, {"fusion_lat": 0.0, "is_disabled": 0, "lat": 38.91245883333333, "lon": -77.04439733333334, "fusion_lon": 0.0, "bike_id": "2d0bbfb0a24df0e5e1fdebd8ab205edd", "type": "electric_scooter", "name": "2d0bbfb0a24df0e5e1fdebd8ab205edd", "is_reserved": 0, "rental_uris": {"ios": "https://dc.lft.to/lastmile_qr_scan", "android": "https://dc.lft.to/lastmile_qr_scan"}}, {"fusion_lat": 0.0, "is_disabled": 0, "lat": 38.90136283333333, "lon": -77.04447133333333, "fusion_lon": 0.0, "bike_id": "a87b8f8d6535acf4c6d732ade261a5d2", "type": "electric_scooter", "name": "a87b8f8d6535acf4c6d732ade261a5d2", "is_reserved": 0, "rental_uris": {"ios": "https://dc.lft.to/lastmile_qr_scan", "android": "https://dc.lft.to/lastmile_qr_scan"}}, {"fusion_lat": 0.0, "is_disabled": 0, "lat": 38.892167, "lon": -77.02744733333333, "fusion_lon": 0.0, "bike_id": "dff30b0ee27fdefda3ec367fb8db7924", "type": "electric_scooter", "name": "dff30b0ee27fdefda3ec367fb8db7924", "is_reserved": 0, "rental_uris": {"ios": "https://dc.lft.to/lastmile_qr_scan", "android": "https://dc.lft.to/lastmile_qr_scan"}}, {"fusion_lat": 0.0, "is_disabled": 0, "lat": 38.90382983333333, "lon": -77.0164045, "fusion_lon": 0.0, "bike_id": "b2492fbb582d7a185e3a5b62c13dc7dc", "type": "electric_scooter", "name": "b2492fbb582d7a185e3a5b62c13dc7dc", "is_reserved": 0, "rental_uris": {"ios": "https://dc.lft.to/lastmile_qr_scan", "android": "https://dc.lft.to/lastmile_qr_scan"}}, {"fusion_lat": 0.0, "is_disabled": 0, "lat": 38.8951425, "lon": -77.01979916666667, "fusion_lon": 0.0, "bike_id": "9e77946ddfc6a1b72c59e236f7025b63", "type": "electric_scooter", "name": "9e77946ddfc6a1b72c59e236f7025b63", "is_reserved": 0, "rental_uris": {"ios": "https://dc.lft.to/lastmile_qr_scan", "android": "https://dc.lft.to/lastmile_qr_scan"}}, {"fusion_lat": 0.0, "is_disabled": 0, "lat": 38.93353166666667, "lon": -77.06146333333334, "fusion_lon": 0.0, "bike_id": "969dc592bfdaf6cfc805b2a87a5e12b6", "type": "electric_scooter", "name": "969dc592bfdaf6cfc805b2a87a5e12b6", "is_reserved": 0, "rental_uris": {"ios": "https://dc.lft.to/lastmile_qr_scan", "android": "https://dc.lft.to/lastmile_qr_scan"}}, {"fusion_lat": 0.0, "is_disabled": 0, "lat": 38.895751833333335, "lon": -77.0135375, "fusion_lon": 0.0, "bike_id": "ebe900644ae0c926c4e9723cb9435b0f", "type": "electric_scooter", "name": "ebe900644ae0c926c4e9723cb9435b0f", "is_reserved": 0, "rental_uris": {"ios": "https://dc.lft.to/lastmile_qr_scan", "android": "https://dc.lft.to/lastmile_qr_scan"}}, {"fusion_lat": 0.0, "is_disabled": 0, "lat": 38.9324155, "lon": -77.04134366666666, "fusion_lon": 0.0, "bike_id": "078a7a11f5bc527434daf911560a2d20", "type": "electric_scooter", "name": "078a7a11f5bc527434daf911560a2d20", "is_reserved": 0, "rental_uris": {"ios": "https://dc.lft.to/lastmile_qr_scan", "android": "https://dc.lft.to/lastmile_qr_scan"}}, {"fusion_lat": 0.0, "is_disabled": 0, "lat": 38.892218166666666, "lon": -77.02421483333333, "fusion_lon": 0.0, "bike_id": "568f9c49f70fb79af7f99cc3f46a8e43", "type": "electric_scooter", "name": "568f9c49f70fb79af7f99cc3f46a8e43", "is_reserved": 0, "rental_uris": {"ios": "https://dc.lft.to/lastmile_qr_scan", "android": "https://dc.lft.to/lastmile_qr_scan"}}, {"fusion_lat": 0.0, "is_disabled": 0, "lat": 38.906021333333335, "lon": -77.12889533333333, "fusion_lon": 0.0, "bike_id": "65d80e8cd6d1860c731277f67a229b41", "type": "electric_bike", "name": "65d80e8cd6d1860c731277f67a229b41", "is_reserved": 0, "rental_uris": {"ios": "https://dc.lft.to/lastmile_qr_scan", "android": "https://dc.lft.to/lastmile_qr_scan"}}, {"fusion_lat": 0.0, "is_disabled": 0, "lat": 38.89502316666667, "lon": -77.003388, "fusion_lon": 0.0, "bike_id": "0e874c7c0efa9e18202ea5ffdb85edef", "type": "electric_scooter", "name": "0e874c7c0efa9e18202ea5ffdb85edef", "is_reserved": 0, "rental_uris": {"ios": "https://dc.lft.to/lastmile_qr_scan", "android": "https://dc.lft.to/lastmile_qr_scan"}}, {"fusion_lat": 0.0, "is_disabled": 0, "lat": 38.903974166666664, "lon": -77.0629625, "fusion_lon": 0.0, "bike_id": "d15daa574744badf66abe0e3214fe0c3", "type": "electric_scooter", "name": "d15daa574744badf66abe0e3214fe0c3", "is_reserved": 0, "rental_uris": {"ios": "https://dc.lft.to/lastmile_qr_scan", "android": "https://dc.lft.to/lastmile_qr_scan"}}, {"fusion_lat": 0.0, "is_disabled": 0, "lat": 38.897684, "lon": -77.02975066666667, "fusion_lon": 0.0, "bike_id": "2ce8b66819d4ab63031cc74cd9a175c4", "type": "electric_scooter", "name": "2ce8b66819d4ab63031cc74cd9a175c4", "is_reserved": 0, "rental_uris": {"ios": "https://dc.lft.to/lastmile_qr_scan", "android": "https://dc.lft.to/lastmile_qr_scan"}}, {"fusion_lat": 0.0, "is_disabled": 0, "lat": 38.92481, "lon": -77.02263083333334, "fusion_lon": 0.0, "bike_id": "93075d81d7f30953e90af5e8fdb4faa0", "type": "electric_scooter", "name": "93075d81d7f30953e90af5e8fdb4faa0", "is_reserved": 0, "rental_uris": {"ios": "https://dc.lft.to/lastmile_qr_scan", "android": "https://dc.lft.to/lastmile_qr_scan"}}, {"fusion_lat": 0.0, "is_disabled": 0, "lat": 38.9132775, "lon": -77.04536883333333, "fusion_lon": 0.0, "bike_id": "6080945d5958a404d432d08b568f1f83", "type": "electric_scooter", "name": "6080945d5958a404d432d08b568f1f83", "is_reserved": 0, "rental_uris": {"ios": "https://dc.lft.to/lastmile_qr_scan", "android": "https://dc.lft.to/lastmile_qr_scan"}}, {"fusion_lat": 0.0, "is_disabled": 0, "lat": 38.90395433333333, "lon": -77.04338416666667, "fusion_lon": 0.0, "bike_id": "c3872e934d95ae489ad73cc44c15cb7c", "type": "electric_scooter", "name": "c3872e934d95ae489ad73cc44c15cb7c", "is_reserved": 0, "rental_uris": {"ios": "https://dc.lft.to/lastmile_qr_scan", "android": "https://dc.lft.to/lastmile_qr_scan"}}, {"fusion_lat": 0.0, "is_disabled": 0, "lat": 38.87899683333333, "lon": -77.013673, "fusion_lon": 0.0, "bike_id": "c2c8f5676caaee0379e46c35f68e7dc3", "type": "electric_scooter", "name": "c2c8f5676caaee0379e46c35f68e7dc3", "is_reserved": 0, "rental_uris": {"ios": "https://dc.lft.to/lastmile_qr_scan", "android": "https://dc.lft.to/lastmile_qr_scan"}}, {"fusion_lat": 0.0, "is_disabled": 0, "lat": 38.895140166666664, "lon": -77.04483333333333, "fusion_lon": 0.0, "bike_id": "264ab018be25ace503a2743fc00aa686", "type": "electric_scooter", "name": "264ab018be25ace503a2743fc00aa686", "is_reserved": 0, "rental_uris": {"ios": "https://dc.lft.to/lastmile_qr_scan", "android": "https://dc.lft.to/lastmile_qr_scan"}}, {"fusion_lat": 0.0, "is_disabled": 0, "lat": 38.9086565, "lon": -77.07441766666666, "fusion_lon": 0.0, "bike_id": "0d554e42a4f9316206fc9f1448504051", "type": "electric_scooter", "name": "0d554e42a4f9316206fc9f1448504051", "is_reserved": 0, "rental_uris": {"ios": "https://dc.lft.to/lastmile_qr_scan", "android": "https://dc.lft.to/lastmile_qr_scan"}}, {"fusion_lat": 0.0, "is_disabled": 0, "lat": 38.90562033333333, "lon": -77.05702283333333, "fusion_lon": 0.0, "bike_id": "bac66e7612008990f683d99fe103c2da", "type": "electric_scooter", "name": "bac66e7612008990f683d99fe103c2da", "is_reserved": 0, "rental_uris": {"ios": "https://dc.lft.to/lastmile_qr_scan", "android": "https://dc.lft.to/lastmile_qr_scan"}}, {"fusion_lat": 0.0, "is_disabled": 0, "lat": 38.908156, "lon": -77.03398416666667, "fusion_lon": 0.0, "bike_id": "88f03fedb2cfbbde0f8c9687bd9cef9b", "type": "electric_scooter", "name": "88f03fedb2cfbbde0f8c9687bd9cef9b", "is_reserved": 0, "rental_uris": {"ios": "https://dc.lft.to/lastmile_qr_scan", "android": "https://dc.lft.to/lastmile_qr_scan"}}, {"fusion_lat": 0.0, "is_disabled": 0, "lat": 38.89963266666667, "lon": -77.04759133333333, "fusion_lon": 0.0, "bike_id": "50e55cd445677b56d1898f00ef7c59dc", "type": "electric_scooter", "name": "50e55cd445677b56d1898f00ef7c59dc", "is_reserved": 0, "rental_uris": {"ios": "https://dc.lft.to/lastmile_qr_scan", "android": "https://dc.lft.to/lastmile_qr_scan"}}, {"fusion_lat": 0.0, "is_disabled": 0, "lat": 38.846719666666665, "lon": -77.13930916666666, "fusion_lon": 0.0, "bike_id": "c6b5a4ef9725e82aa17c751f1ec46227", "type": "electric_bike", "name": "c6b5a4ef9725e82aa17c751f1ec46227", "is_reserved": 0, "rental_uris": {"ios": "https://dc.lft.to/lastmile_qr_scan", "android": "https://dc.lft.to/lastmile_qr_scan"}}, {"fusion_lat": 0.0, "is_disabled": 0, "lat": 38.92303716666667, "lon": -77.0296155, "fusion_lon": 0.0, "bike_id": "5806b684611e30b776dbdb20b2475a00", "type": "electric_scooter", "name": "5806b684611e30b776dbdb20b2475a00", "is_reserved": 0, "rental_uris": {"ios": "https://dc.lft.to/lastmile_qr_scan", "android": "https://dc.lft.to/lastmile_qr_scan"}}, {"fusion_lat": 0.0, "is_disabled": 0, "lat": 38.88961033333333, "lon": -76.98036533333334, "fusion_lon": 0.0, "bike_id": "cc462c4a1ff807e918b9bd371714eb1c", "type": "electric_scooter", "name": "cc462c4a1ff807e918b9bd371714eb1c", "is_reserved": 0, "rental_uris": {"ios": "https://dc.lft.to/lastmile_qr_scan", "android": "https://dc.lft.to/lastmile_qr_scan"}}, {"fusion_lat": 0.0, "is_disabled": 0, "lat": 38.91547116666667, "lon": -77.05103066666666, "fusion_lon": 0.0, "bike_id": "3486d72597ddaa47169c9d07bcde4354", "type": "electric_scooter", "name": "3486d72597ddaa47169c9d07bcde4354", "is_reserved": 0, "rental_uris": {"ios": "https://dc.lft.to/lastmile_qr_scan", "android": "https://dc.lft.to/lastmile_qr_scan"}}, {"fusion_lat": 0.0, "is_disabled": 0, "lat": 38.93714166666667, "lon": -77.02427766666666, "fusion_lon": 0.0, "bike_id": "7dcd1e5f1c06abeeedcd4e5592750054", "type": "electric_scooter", "name": "7dcd1e5f1c06abeeedcd4e5592750054", "is_reserved": 0, "rental_uris": {"ios": "https://dc.lft.to/lastmile_qr_scan", "android": "https://dc.lft.to/lastmile_qr_scan"}}, {"fusion_lat": 0.0, "is_disabled": 0, "lat": 38.92457133333333, "lon": -77.03796966666667, "fusion_lon": 0.0, "bike_id": "829bbb4e28bb51801b386086efc61991", "type": "electric_scooter", "name": "829bbb4e28bb51801b386086efc61991", "is_reserved": 0, "rental_uris": {"ios": "https://dc.lft.to/lastmile_qr_scan", "android": "https://dc.lft.to/lastmile_qr_scan"}}, {"fusion_lat": 0.0, "is_disabled": 0, "lat": 38.90391616666667, "lon": -77.01356133333333, "fusion_lon": 0.0, "bike_id": "aba5e4c699855839c0acb55b34bec6c6", "type": "electric_bike", "name": "aba5e4c699855839c0acb55b34bec6c6", "is_reserved": 0, "rental_uris": {"ios": "https://dc.lft.to/lastmile_qr_scan", "android": "https://dc.lft.to/lastmile_qr_scan"}}, {"fusion_lat": 0.0, "is_disabled": 0, "lat": 38.881226, "lon": -76.993463, "fusion_lon": 0.0, "bike_id": "402a0f3d60c18720cadd57dc851d7b4b", "type": "electric_scooter", "name": "402a0f3d60c18720cadd57dc851d7b4b", "is_reserved": 0, "rental_uris": {"ios": "https://dc.lft.to/lastmile_qr_scan", "android": "https://dc.lft.to/lastmile_qr_scan"}}, {"fusion_lat": 0.0, "is_disabled": 0, "lat": 38.902472333333336, "lon": -77.03443516666667, "fusion_lon": 0.0, "bike_id": "4998fd766326871c961b54cd0c982d3f", "type": "electric_scooter", "name": "4998fd766326871c961b54cd0c982d3f", "is_reserved": 0, "rental_uris": {"ios": "https://dc.lft.to/lastmile_qr_scan", "android": "https://dc.lft.to/lastmile_qr_scan"}}, {"fusion_lat": 0.0, "is_disabled": 0, "lat": 38.927021833333335, "lon": -76.960815, "fusion_lon": 0.0, "bike_id": "fcbaac817a46c027d731eccde66bb465", "type": "electric_scooter", "name": "fcbaac817a46c027d731eccde66bb465", "is_reserved": 0, "rental_uris": {"ios": "https://dc.lft.to/lastmile_qr_scan", "android": "https://dc.lft.to/lastmile_qr_scan"}}, {"fusion_lat": 0.0, "is_disabled": 0, "lat": 38.890407833333335, "lon": -76.9375625, "fusion_lon": 0.0, "bike_id": "245ec84e2e306485ab59708e58fa97ff", "type": "electric_scooter", "name": "245ec84e2e306485ab59708e58fa97ff", "is_reserved": 0, "rental_uris": {"ios": "https://dc.lft.to/lastmile_qr_scan", "android": "https://dc.lft.to/lastmile_qr_scan"}}, {"fusion_lat": 0.0, "is_disabled": 0, "lat": 38.89711333333333, "lon": -77.00834916666666, "fusion_lon": 0.0, "bike_id": "75ced603c37e76cf2a13264c443c6851", "type": "electric_scooter", "name": "75ced603c37e76cf2a13264c443c6851", "is_reserved": 0, "rental_uris": {"ios": "https://dc.lft.to/lastmile_qr_scan", "android": "https://dc.lft.to/lastmile_qr_scan"}}, {"fusion_lat": 0.0, "is_disabled": 0, "lat": 38.89982466666667, "lon": -77.03174116666666, "fusion_lon": 0.0, "bike_id": "6153e10292466cdfbec026291aa3ca63", "type": "electric_scooter", "name": "6153e10292466cdfbec026291aa3ca63", "is_reserved": 0, "rental_uris": {"ios": "https://dc.lft.to/lastmile_qr_scan", "android": "https://dc.lft.to/lastmile_qr_scan"}}, {"fusion_lat": 0.0, "is_disabled": 0, "lat": 38.87291866666666, "lon": -77.00986, "fusion_lon": 0.0, "bike_id": "65e7883351accc34b0617c89baf773d2", "type": "electric_scooter", "name": "65e7883351accc34b0617c89baf773d2", "is_reserved": 0, "rental_uris": {"ios": "https://dc.lft.to/lastmile_qr_scan", "android": "https://dc.lft.to/lastmile_qr_scan"}}, {"fusion_lat": 0.0, "is_disabled": 0, "lat": 38.90274083333333, "lon": -77.03453683333333, "fusion_lon": 0.0, "bike_id": "fc486d84d37ccd2370cc48f80daf251a", "type": "electric_scooter", "name": "fc486d84d37ccd2370cc48f80daf251a", "is_reserved": 0, "rental_uris": {"ios": "https://dc.lft.to/lastmile_qr_scan", "android": "https://dc.lft.to/lastmile_qr_scan"}}, {"fusion_lat": 0.0, "is_disabled": 0, "lat": 38.892186, "lon": -77.02366116666667, "fusion_lon": 0.0, "bike_id": "6cb2bd78fdac39d81950ed932a0ac180", "type": "electric_scooter", "name": "6cb2bd78fdac39d81950ed932a0ac180", "is_reserved": 0, "rental_uris": {"ios": "https://dc.lft.to/lastmile_qr_scan", "android": "https://dc.lft.to/lastmile_qr_scan"}}, {"fusion_lat": 0.0, "is_disabled": 0, "lat": 38.87517616666667, "lon": -77.0123345, "fusion_lon": 0.0, "bike_id": "52fc5eb87bb67beba578bd1e912d7d4c", "type": "electric_scooter", "name": "52fc5eb87bb67beba578bd1e912d7d4c", "is_reserved": 0, "rental_uris": {"ios": "https://dc.lft.to/lastmile_qr_scan", "android": "https://dc.lft.to/lastmile_qr_scan"}}, {"fusion_lat": 0.0, "is_disabled": 0, "lat": 38.92379716666667, "lon": -77.02258066666667, "fusion_lon": 0.0, "bike_id": "34ebfdd6e6c7708de97338a09cccc09f", "type": "electric_scooter", "name": "34ebfdd6e6c7708de97338a09cccc09f", "is_reserved": 0, "rental_uris": {"ios": "https://dc.lft.to/lastmile_qr_scan", "android": "https://dc.lft.to/lastmile_qr_scan"}}, {"fusion_lat": 0.0, "is_disabled": 0, "lat": 38.90311766666667, "lon": -77.0397555, "fusion_lon": 0.0, "bike_id": "9ebf875bf9b80a41ec19aa211eccdccf", "type": "electric_scooter", "name": "9ebf875bf9b80a41ec19aa211eccdccf", "is_reserved": 0, "rental_uris": {"ios": "https://dc.lft.to/lastmile_qr_scan", "android": "https://dc.lft.to/lastmile_qr_scan"}}, {"fusion_lat": 0.0, "is_disabled": 0, "lat": 38.90393433333333, "lon": -77.04754466666667, "fusion_lon": 0.0, "bike_id": "9b23abe3c4e00a7cd0161e66e738a955", "type": "electric_scooter", "name": "9b23abe3c4e00a7cd0161e66e738a955", "is_reserved": 0, "rental_uris": {"ios": "https://dc.lft.to/lastmile_qr_scan", "android": "https://dc.lft.to/lastmile_qr_scan"}}, {"fusion_lat": 0.0, "is_disabled": 0, "lat": 38.920646833333336, "lon": -77.04554816666666, "fusion_lon": 0.0, "bike_id": "b3e54f6693ffb1dedd54b523cb636b2c", "type": "electric_scooter", "name": "b3e54f6693ffb1dedd54b523cb636b2c", "is_reserved": 0, "rental_uris": {"ios": "https://dc.lft.to/lastmile_qr_scan", "android": "https://dc.lft.to/lastmile_qr_scan"}}, {"fusion_lat": 0.0, "is_disabled": 0, "lat": 38.957004833333336, "lon": -77.35972783333334, "fusion_lon": 0.0, "bike_id": "bcff4eb5212c82a4e606ab1b07c07c0c", "type": "electric_bike", "name": "bcff4eb5212c82a4e606ab1b07c07c0c", "is_reserved": 0, "rental_uris": {"ios": "https://dc.lft.to/lastmile_qr_scan", "android": "https://dc.lft.to/lastmile_qr_scan"}}, {"fusion_lat": 0.0, "is_disabled": 0, "lat": 38.882370333333334, "lon": -76.99495033333334, "fusion_lon": 0.0, "bike_id": "dab497e42d6b047ea4cec8179a7f249e", "type": "electric_scooter", "name": "dab497e42d6b047ea4cec8179a7f249e", "is_reserved": 0, "rental_uris": {"ios": "https://dc.lft.to/lastmile_qr_scan", "android": "https://dc.lft.to/lastmile_qr_scan"}}, {"fusion_lat": 0.0, "is_disabled": 0, "lat": 38.90350766666667, "lon": -77.03177616666666, "fusion_lon": 0.0, "bike_id": "fe76ec422887612152ae89e6986483ef", "type": "electric_scooter", "name": "fe76ec422887612152ae89e6986483ef", "is_reserved": 0, "rental_uris": {"ios": "https://dc.lft.to/lastmile_qr_scan", "android": "https://dc.lft.to/lastmile_qr_scan"}}, {"fusion_lat": 0.0, "is_disabled": 0, "lat": 38.903779666666665, "lon": -77.04201366666666, "fusion_lon": 0.0, "bike_id": "ad326e9c87f13ffc267e45782bb5dc89", "type": "electric_scooter", "name": "ad326e9c87f13ffc267e45782bb5dc89", "is_reserved": 0, "rental_uris": {"ios": "https://dc.lft.to/lastmile_qr_scan", "android": "https://dc.lft.to/lastmile_qr_scan"}}, {"fusion_lat": 0.0, "is_disabled": 0, "lat": 39.0843055, "lon": -76.9514265, "fusion_lon": 0.0, "bike_id": "e7e12456a0f7ee52488fb124bca45b2d", "type": "electric_bike", "name": "e7e12456a0f7ee52488fb124bca45b2d", "is_reserved": 0, "rental_uris": {"ios": "https://dc.lft.to/lastmile_qr_scan", "android": "https://dc.lft.to/lastmile_qr_scan"}}, {"fusion_lat": 0.0, "is_disabled": 0, "lat": 38.916892833333335, "lon": -77.02854633333334, "fusion_lon": 0.0, "bike_id": "592e004cfe26a407c5144a30426cd36e", "type": "electric_scooter", "name": "592e004cfe26a407c5144a30426cd36e", "is_reserved": 0, "rental_uris": {"ios": "https://dc.lft.to/lastmile_qr_scan", "android": "https://dc.lft.to/lastmile_qr_scan"}}, {"fusion_lat": 0.0, "is_disabled": 0, "lat": 38.926354, "lon": -77.0370495, "fusion_lon": 0.0, "bike_id": "620de7befd73ec85d16650959179de31", "type": "electric_scooter", "name": "620de7befd73ec85d16650959179de31", "is_reserved": 0, "rental_uris": {"ios": "https://dc.lft.to/lastmile_qr_scan", "android": "https://dc.lft.to/lastmile_qr_scan"}}, {"fusion_lat": 0.0, "is_disabled": 0, "lat": 38.897019, "lon": -77.0267605, "fusion_lon": 0.0, "bike_id": "6b13a6522ba9bcef6b0c15a4e97e69f8", "type": "electric_scooter", "name": "6b13a6522ba9bcef6b0c15a4e97e69f8", "is_reserved": 0, "rental_uris": {"ios": "https://dc.lft.to/lastmile_qr_scan", "android": "https://dc.lft.to/lastmile_qr_scan"}}, {"fusion_lat": 0.0, "is_disabled": 0, "lat": 38.91227283333333, "lon": -77.02795283333333, "fusion_lon": 0.0, "bike_id": "f8cb56244b5a18a6ff40c56839b6bd46", "type": "electric_scooter", "name": "f8cb56244b5a18a6ff40c56839b6bd46", "is_reserved": 0, "rental_uris": {"ios": "https://dc.lft.to/lastmile_qr_scan", "android": "https://dc.lft.to/lastmile_qr_scan"}}, {"fusion_lat": 0.0, "is_disabled": 0, "lat": 38.8839385, "lon": -76.93041666666667, "fusion_lon": 0.0, "bike_id": "84ab662979df23b81c540686dbcc9580", "type": "electric_scooter", "name": "84ab662979df23b81c540686dbcc9580", "is_reserved": 0, "rental_uris": {"ios": "https://dc.lft.to/lastmile_qr_scan", "android": "https://dc.lft.to/lastmile_qr_scan"}}, {"fusion_lat": 0.0, "is_disabled": 0, "lat": 38.91255, "lon": -77.038665, "fusion_lon": 0.0, "bike_id": "d328dadc723a8a48fd707513f033d243", "type": "electric_scooter", "name": "d328dadc723a8a48fd707513f033d243", "is_reserved": 0, "rental_uris": {"ios": "https://dc.lft.to/lastmile_qr_scan", "android": "https://dc.lft.to/lastmile_qr_scan"}}, {"fusion_lat": 0.0, "is_disabled": 0, "lat": 38.9246755, "lon": -77.02217733333333, "fusion_lon": 0.0, "bike_id": "152d942e3b2c2fecd0b454230749317a", "type": "electric_scooter", "name": "152d942e3b2c2fecd0b454230749317a", "is_reserved": 0, "rental_uris": {"ios": "https://dc.lft.to/lastmile_qr_scan", "android": "https://dc.lft.to/lastmile_qr_scan"}}, {"fusion_lat": 0.0, "is_disabled": 0, "lat": 38.886541333333334, "lon": -76.93674, "fusion_lon": 0.0, "bike_id": "c9edfa832d809ca390677a2b4f1c2ec6", "type": "electric_scooter", "name": "c9edfa832d809ca390677a2b4f1c2ec6", "is_reserved": 0, "rental_uris": {"ios": "https://dc.lft.to/lastmile_qr_scan", "android": "https://dc.lft.to/lastmile_qr_scan"}}, {"fusion_lat": 0.0, "is_disabled": 0, "lat": 38.92446316666667, "lon": -77.02137683333333, "fusion_lon": 0.0, "bike_id": "ba70c5eddd6cf758ccce363f4413c62b", "type": "electric_scooter", "name": "ba70c5eddd6cf758ccce363f4413c62b", "is_reserved": 0, "rental_uris": {"ios": "https://dc.lft.to/lastmile_qr_scan", "android": "https://dc.lft.to/lastmile_qr_scan"}}, {"fusion_lat": 0.0, "is_disabled": 0, "lat": 38.9212925, "lon": -77.0179865, "fusion_lon": 0.0, "bike_id": "01fc577b4328b6ad6db34ec35d4e4a83", "type": "electric_scooter", "name": "01fc577b4328b6ad6db34ec35d4e4a83", "is_reserved": 0, "rental_uris": {"ios": "https://dc.lft.to/lastmile_qr_scan", "android": "https://dc.lft.to/lastmile_qr_scan"}}, {"fusion_lat": 0.0, "is_disabled": 0, "lat": 38.92612533333333, "lon": -77.02163783333333, "fusion_lon": 0.0, "bike_id": "43db7e0ed89651a8ed2302e3cbc27f77", "type": "electric_scooter", "name": "43db7e0ed89651a8ed2302e3cbc27f77", "is_reserved": 0, "rental_uris": {"ios": "https://dc.lft.to/lastmile_qr_scan", "android": "https://dc.lft.to/lastmile_qr_scan"}}, {"fusion_lat": 0.0, "is_disabled": 0, "lat": 38.906112666666665, "lon": -76.97796583333333, "fusion_lon": 0.0, "bike_id": "e81aa594876becc998c382d05616b58d", "type": "electric_scooter", "name": "e81aa594876becc998c382d05616b58d", "is_reserved": 0, "rental_uris": {"ios": "https://dc.lft.to/lastmile_qr_scan", "android": "https://dc.lft.to/lastmile_qr_scan"}}, {"fusion_lat": 0.0, "is_disabled": 0, "lat": 38.907279, "lon": -77.04572366666666, "fusion_lon": 0.0, "bike_id": "49267d85ce41463dc15fe41be34457b0", "type": "electric_scooter", "name": "49267d85ce41463dc15fe41be34457b0", "is_reserved": 0, "rental_uris": {"ios": "https://dc.lft.to/lastmile_qr_scan", "android": "https://dc.lft.to/lastmile_qr_scan"}}, {"fusion_lat": 0.0, "is_disabled": 0, "lat": 38.91102883333333, "lon": -77.07352816666666, "fusion_lon": 0.0, "bike_id": "59795ab10cc0916770a6dbf21d28195b", "type": "electric_scooter", "name": "59795ab10cc0916770a6dbf21d28195b", "is_reserved": 0, "rental_uris": {"ios": "https://dc.lft.to/lastmile_qr_scan", "android": "https://dc.lft.to/lastmile_qr_scan"}}, {"fusion_lat": 0.0, "is_disabled": 0, "lat": 38.9005605, "lon": -76.987069, "fusion_lon": 0.0, "bike_id": "4235f0b8b3386796297d655dd45bc24a", "type": "electric_scooter", "name": "4235f0b8b3386796297d655dd45bc24a", "is_reserved": 0, "rental_uris": {"ios": "https://dc.lft.to/lastmile_qr_scan", "android": "https://dc.lft.to/lastmile_qr_scan"}}, {"fusion_lat": 0.0, "is_disabled": 0, "lat": 38.91538533333333, "lon": -77.03182366666667, "fusion_lon": 0.0, "bike_id": "9329b10cca4975e550618600c5c12803", "type": "electric_scooter", "name": "9329b10cca4975e550618600c5c12803", "is_reserved": 0, "rental_uris": {"ios": "https://dc.lft.to/lastmile_qr_scan", "android": "https://dc.lft.to/lastmile_qr_scan"}}, {"fusion_lat": 0.0, "is_disabled": 0, "lat": 38.900504166666664, "lon": -77.03191116666666, "fusion_lon": 0.0, "bike_id": "1fea43399af25c55b854396022e3f6b9", "type": "electric_scooter", "name": "1fea43399af25c55b854396022e3f6b9", "is_reserved": 0, "rental_uris": {"ios": "https://dc.lft.to/lastmile_qr_scan", "android": "https://dc.lft.to/lastmile_qr_scan"}}, {"fusion_lat": 0.0, "is_disabled": 0, "lat": 38.80401833333333, "lon": -77.1132955, "fusion_lon": 0.0, "bike_id": "7a8e142d8bc03493df84a89018fa7869", "type": "electric_bike", "name": "7a8e142d8bc03493df84a89018fa7869", "is_reserved": 0, "rental_uris": {"ios": "https://dc.lft.to/lastmile_qr_scan", "android": "https://dc.lft.to/lastmile_qr_scan"}}, {"fusion_lat": 0.0, "is_disabled": 0, "lat": 38.92190033333333, "lon": -77.0423895, "fusion_lon": 0.0, "bike_id": "ef74cd8390efa502cf349443ddbd90e5", "type": "electric_scooter", "name": "ef74cd8390efa502cf349443ddbd90e5", "is_reserved": 0, "rental_uris": {"ios": "https://dc.lft.to/lastmile_qr_scan", "android": "https://dc.lft.to/lastmile_qr_scan"}}, {"fusion_lat": 0.0, "is_disabled": 0, "lat": 38.917122, "lon": -77.034423, "fusion_lon": 0.0, "bike_id": "23bb782bc15fd7ccfc053fabef2aa306", "type": "electric_scooter", "name": "23bb782bc15fd7ccfc053fabef2aa306", "is_reserved": 0, "rental_uris": {"ios": "https://dc.lft.to/lastmile_qr_scan", "android": "https://dc.lft.to/lastmile_qr_scan"}}, {"fusion_lat": 0.0, "is_disabled": 0, "lat": 38.91113216666667, "lon": -77.04089666666667, "fusion_lon": 0.0, "bike_id": "781e2fd47d2c323c689a058c1307c743", "type": "electric_scooter", "name": "781e2fd47d2c323c689a058c1307c743", "is_reserved": 0, "rental_uris": {"ios": "https://dc.lft.to/lastmile_qr_scan", "android": "https://dc.lft.to/lastmile_qr_scan"}}, {"fusion_lat": 0.0, "is_disabled": 0, "lat": 38.872215833333335, "lon": -77.01616116666666, "fusion_lon": 0.0, "bike_id": "9afde6431852f0397d361a58baa24ebc", "type": "electric_scooter", "name": "9afde6431852f0397d361a58baa24ebc", "is_reserved": 0, "rental_uris": {"ios": "https://dc.lft.to/lastmile_qr_scan", "android": "https://dc.lft.to/lastmile_qr_scan"}}, {"fusion_lat": 0.0, "is_disabled": 0, "lat": 38.91680433333333, "lon": -77.02724433333333, "fusion_lon": 0.0, "bike_id": "734ea02b9da4ba24fd332f757f2eb5e5", "type": "electric_scooter", "name": "734ea02b9da4ba24fd332f757f2eb5e5", "is_reserved": 0, "rental_uris": {"ios": "https://dc.lft.to/lastmile_qr_scan", "android": "https://dc.lft.to/lastmile_qr_scan"}}, {"fusion_lat": 0.0, "is_disabled": 0, "lat": 38.8764735, "lon": -77.000696, "fusion_lon": 0.0, "bike_id": "f4004692a0c7dcbc295f1faed9e745a5", "type": "electric_scooter", "name": "f4004692a0c7dcbc295f1faed9e745a5", "is_reserved": 0, "rental_uris": {"ios": "https://dc.lft.to/lastmile_qr_scan", "android": "https://dc.lft.to/lastmile_qr_scan"}}, {"fusion_lat": 0.0, "is_disabled": 0, "lat": 38.88235783333333, "lon": -76.99500683333333, "fusion_lon": 0.0, "bike_id": "c3c87a6a69df50d4d9f62f7e88d76f47", "type": "electric_scooter", "name": "c3c87a6a69df50d4d9f62f7e88d76f47", "is_reserved": 0, "rental_uris": {"ios": "https://dc.lft.to/lastmile_qr_scan", "android": "https://dc.lft.to/lastmile_qr_scan"}}, {"fusion_lat": 0.0, "is_disabled": 0, "lat": 38.898144333333335, "lon": -77.02982316666667, "fusion_lon": 0.0, "bike_id": "889b8ce545a7e02bc88770826af4fcda", "type": "electric_scooter", "name": "889b8ce545a7e02bc88770826af4fcda", "is_reserved": 0, "rental_uris": {"ios": "https://dc.lft.to/lastmile_qr_scan", "android": "https://dc.lft.to/lastmile_qr_scan"}}, {"fusion_lat": 0.0, "is_disabled": 0, "lat": 38.9166065, "lon": -77.04367583333334, "fusion_lon": 0.0, "bike_id": "446c87f1b5ab2f34f93eeead15a0e761", "type": "electric_scooter", "name": "446c87f1b5ab2f34f93eeead15a0e761", "is_reserved": 0, "rental_uris": {"ios": "https://dc.lft.to/lastmile_qr_scan", "android": "https://dc.lft.to/lastmile_qr_scan"}}, {"fusion_lat": 0.0, "is_disabled": 0, "lat": 38.905923333333334, "lon": -77.04122816666667, "fusion_lon": 0.0, "bike_id": "6034b6edf7dbdf605428790665b77e78", "type": "electric_scooter", "name": "6034b6edf7dbdf605428790665b77e78", "is_reserved": 0, "rental_uris": {"ios": "https://dc.lft.to/lastmile_qr_scan", "android": "https://dc.lft.to/lastmile_qr_scan"}}, {"fusion_lat": 0.0, "is_disabled": 0, "lat": 38.894894, "lon": -76.9950545, "fusion_lon": 0.0, "bike_id": "48ba20dfdebb6a9a7b40337d8d400de0", "type": "electric_scooter", "name": "48ba20dfdebb6a9a7b40337d8d400de0", "is_reserved": 0, "rental_uris": {"ios": "https://dc.lft.to/lastmile_qr_scan", "android": "https://dc.lft.to/lastmile_qr_scan"}}, {"fusion_lat": 0.0, "is_disabled": 0, "lat": 38.92480033333333, "lon": -77.0226725, "fusion_lon": 0.0, "bike_id": "c428f03941784d1408f953f81398447e", "type": "electric_scooter", "name": "c428f03941784d1408f953f81398447e", "is_reserved": 0, "rental_uris": {"ios": "https://dc.lft.to/lastmile_qr_scan", "android": "https://dc.lft.to/lastmile_qr_scan"}}, {"fusion_lat": 0.0, "is_disabled": 0, "lat": 38.9190635, "lon": -77.0462875, "fusion_lon": 0.0, "bike_id": "f3ee2e9e8244fb1ff7df62e6e28ec314", "type": "electric_scooter", "name": "f3ee2e9e8244fb1ff7df62e6e28ec314", "is_reserved": 0, "rental_uris": {"ios": "https://dc.lft.to/lastmile_qr_scan", "android": "https://dc.lft.to/lastmile_qr_scan"}}, {"fusion_lat": 0.0, "is_disabled": 0, "lat": 38.897544333333336, "lon": -77.0257065, "fusion_lon": 0.0, "bike_id": "8fa749c9625a4d4a70abdb09c519cadd", "type": "electric_scooter", "name": "8fa749c9625a4d4a70abdb09c519cadd", "is_reserved": 0, "rental_uris": {"ios": "https://dc.lft.to/lastmile_qr_scan", "android": "https://dc.lft.to/lastmile_qr_scan"}}, {"fusion_lat": 0.0, "is_disabled": 0, "lat": 38.924516, "lon": -77.03286266666667, "fusion_lon": 0.0, "bike_id": "05ec345a22c91ebc7ab7b0ae3a02de51", "type": "electric_scooter", "name": "05ec345a22c91ebc7ab7b0ae3a02de51", "is_reserved": 0, "rental_uris": {"ios": "https://dc.lft.to/lastmile_qr_scan", "android": "https://dc.lft.to/lastmile_qr_scan"}}, {"fusion_lat": 0.0, "is_disabled": 0, "lat": 38.90894216666667, "lon": -77.072639, "fusion_lon": 0.0, "bike_id": "95a0dcb1dd40f92517509d19e255fc67", "type": "electric_scooter", "name": "95a0dcb1dd40f92517509d19e255fc67", "is_reserved": 0, "rental_uris": {"ios": "https://dc.lft.to/lastmile_qr_scan", "android": "https://dc.lft.to/lastmile_qr_scan"}}, {"fusion_lat": 0.0, "is_disabled": 0, "lat": 38.92949483333334, "lon": -77.05499783333333, "fusion_lon": 0.0, "bike_id": "84e3c47b9de681b285f934a1e3e5c6f0", "type": "electric_scooter", "name": "84e3c47b9de681b285f934a1e3e5c6f0", "is_reserved": 0, "rental_uris": {"ios": "https://dc.lft.to/lastmile_qr_scan", "android": "https://dc.lft.to/lastmile_qr_scan"}}, {"fusion_lat": 0.0, "is_disabled": 0, "lat": 38.918744333333336, "lon": -76.9643905, "fusion_lon": 0.0, "bike_id": "2d476e7b292d9d48fdcc5137faa5d628", "type": "electric_bike", "name": "2d476e7b292d9d48fdcc5137faa5d628", "is_reserved": 0, "rental_uris": {"ios": "https://dc.lft.to/lastmile_qr_scan", "android": "https://dc.lft.to/lastmile_qr_scan"}}, {"fusion_lat": 0.0, "is_disabled": 0, "lat": 38.8826635, "lon": -76.93235316666667, "fusion_lon": 0.0, "bike_id": "d57aa45cc8b47525daaafb4bf5cbc7ac", "type": "electric_bike", "name": "d57aa45cc8b47525daaafb4bf5cbc7ac", "is_reserved": 0, "rental_uris": {"ios": "https://dc.lft.to/lastmile_qr_scan", "android": "https://dc.lft.to/lastmile_qr_scan"}}, {"fusion_lat": 0.0, "is_disabled": 0, "lat": 38.916814, "lon": -77.02966, "fusion_lon": 0.0, "bike_id": "b264d0717237f7f10a8e2f995fb1fd2a", "type": "electric_scooter", "name": "b264d0717237f7f10a8e2f995fb1fd2a", "is_reserved": 0, "rental_uris": {"ios": "https://dc.lft.to/lastmile_qr_scan", "android": "https://dc.lft.to/lastmile_qr_scan"}}, {"fusion_lat": 0.0, "is_disabled": 0, "lat": 38.84691816666667, "lon": -76.99618766666667, "fusion_lon": 0.0, "bike_id": "5cff4a8ea94b9f07c9d05758d54bfcac", "type": "electric_bike", "name": "5cff4a8ea94b9f07c9d05758d54bfcac", "is_reserved": 0, "rental_uris": {"ios": "https://dc.lft.to/lastmile_qr_scan", "android": "https://dc.lft.to/lastmile_qr_scan"}}, {"fusion_lat": 0.0, "is_disabled": 0, "lat": 38.9368725, "lon": -76.9906275, "fusion_lon": 0.0, "bike_id": "5865bf8dccff8a3b165f44098990d10d", "type": "electric_bike", "name": "5865bf8dccff8a3b165f44098990d10d", "is_reserved": 0, "rental_uris": {"ios": "https://dc.lft.to/lastmile_qr_scan", "android": "https://dc.lft.to/lastmile_qr_scan"}}, {"fusion_lat": 0.0, "is_disabled": 0, "lat": 38.90235633333333, "lon": -77.00200566666666, "fusion_lon": 0.0, "bike_id": "33bdc3dc86c00ed1eb090fcfc92a1993", "type": "electric_scooter", "name": "33bdc3dc86c00ed1eb090fcfc92a1993", "is_reserved": 0, "rental_uris": {"ios": "https://dc.lft.to/lastmile_qr_scan", "android": "https://dc.lft.to/lastmile_qr_scan"}}, {"fusion_lat": 0.0, "is_disabled": 0, "lat": 38.897409333333336, "lon": -77.033237, "fusion_lon": 0.0, "bike_id": "1b78940bdcd09c75afb4a44570c1338c", "type": "electric_scooter", "name": "1b78940bdcd09c75afb4a44570c1338c", "is_reserved": 0, "rental_uris": {"ios": "https://dc.lft.to/lastmile_qr_scan", "android": "https://dc.lft.to/lastmile_qr_scan"}}, {"fusion_lat": 0.0, "is_disabled": 0, "lat": 38.9386035, "lon": -77.0304755, "fusion_lon": 0.0, "bike_id": "63df519265b25bb3b44e6257abc9a27f", "type": "electric_scooter", "name": "63df519265b25bb3b44e6257abc9a27f", "is_reserved": 0, "rental_uris": {"ios": "https://dc.lft.to/lastmile_qr_scan", "android": "https://dc.lft.to/lastmile_qr_scan"}}, {"fusion_lat": 0.0, "is_disabled": 0, "lat": 38.9397065, "lon": -77.03434233333333, "fusion_lon": 0.0, "bike_id": "769290e964b0b140a15485dec20b61f9", "type": "electric_scooter", "name": "769290e964b0b140a15485dec20b61f9", "is_reserved": 0, "rental_uris": {"ios": "https://dc.lft.to/lastmile_qr_scan", "android": "https://dc.lft.to/lastmile_qr_scan"}}, {"fusion_lat": 0.0, "is_disabled": 0, "lat": 38.89221116666667, "lon": -77.02634116666667, "fusion_lon": 0.0, "bike_id": "5288d8253d9f38537f8f90c37dcc34bb", "type": "electric_scooter", "name": "5288d8253d9f38537f8f90c37dcc34bb", "is_reserved": 0, "rental_uris": {"ios": "https://dc.lft.to/lastmile_qr_scan", "android": "https://dc.lft.to/lastmile_qr_scan"}}, {"fusion_lat": 0.0, "is_disabled": 0, "lat": 38.884177333333334, "lon": -76.99696733333333, "fusion_lon": 0.0, "bike_id": "ef136164af38930a777f1e360ca0310a", "type": "electric_scooter", "name": "ef136164af38930a777f1e360ca0310a", "is_reserved": 0, "rental_uris": {"ios": "https://dc.lft.to/lastmile_qr_scan", "android": "https://dc.lft.to/lastmile_qr_scan"}}, {"fusion_lat": 0.0, "is_disabled": 0, "lat": 39.003708833333334, "lon": -77.01292966666666, "fusion_lon": 0.0, "bike_id": "8b188d5fa9ec91464a864e4497113eaa", "type": "electric_bike", "name": "8b188d5fa9ec91464a864e4497113eaa", "is_reserved": 0, "rental_uris": {"ios": "https://dc.lft.to/lastmile_qr_scan", "android": "https://dc.lft.to/lastmile_qr_scan"}}, {"fusion_lat": 0.0, "is_disabled": 0, "lat": 38.91707183333333, "lon": -77.03224466666667, "fusion_lon": 0.0, "bike_id": "c31fe8f408e79d86dea6552b1c31138a", "type": "electric_scooter", "name": "c31fe8f408e79d86dea6552b1c31138a", "is_reserved": 0, "rental_uris": {"ios": "https://dc.lft.to/lastmile_qr_scan", "android": "https://dc.lft.to/lastmile_qr_scan"}}, {"fusion_lat": 0.0, "is_disabled": 0, "lat": 38.912587333333335, "lon": -77.0746215, "fusion_lon": 0.0, "bike_id": "443d2198ec92fd64d4429e79b4a7f4d9", "type": "electric_scooter", "name": "443d2198ec92fd64d4429e79b4a7f4d9", "is_reserved": 0, "rental_uris": {"ios": "https://dc.lft.to/lastmile_qr_scan", "android": "https://dc.lft.to/lastmile_qr_scan"}}, {"fusion_lat": 0.0, "is_disabled": 0, "lat": 38.8796195, "lon": -77.0052835, "fusion_lon": 0.0, "bike_id": "89905cf682e9d4bfed41f51c1ed9fbae", "type": "electric_scooter", "name": "89905cf682e9d4bfed41f51c1ed9fbae", "is_reserved": 0, "rental_uris": {"ios": "https://dc.lft.to/lastmile_qr_scan", "android": "https://dc.lft.to/lastmile_qr_scan"}}, {"fusion_lat": 0.0, "is_disabled": 0, "lat": 38.94564233333333, "lon": -77.07957566666667, "fusion_lon": 0.0, "bike_id": "64041f214bed84ac761a09c2efbd6d6e", "type": "electric_scooter", "name": "64041f214bed84ac761a09c2efbd6d6e", "is_reserved": 0, "rental_uris": {"ios": "https://dc.lft.to/lastmile_qr_scan", "android": "https://dc.lft.to/lastmile_qr_scan"}}, {"fusion_lat": 0.0, "is_disabled": 0, "lat": 38.837427166666664, "lon": -76.9986165, "fusion_lon": 0.0, "bike_id": "fb6a546d4e6e07b7b83e8abbaf89b597", "type": "electric_scooter", "name": "fb6a546d4e6e07b7b83e8abbaf89b597", "is_reserved": 0, "rental_uris": {"ios": "https://dc.lft.to/lastmile_qr_scan", "android": "https://dc.lft.to/lastmile_qr_scan"}}, {"fusion_lat": 0.0, "is_disabled": 0, "lat": 38.90390566666667, "lon": -77.046567, "fusion_lon": 0.0, "bike_id": "3aa9bf59d93db2f041964cc634ba4852", "type": "electric_scooter", "name": "3aa9bf59d93db2f041964cc634ba4852", "is_reserved": 0, "rental_uris": {"ios": "https://dc.lft.to/lastmile_qr_scan", "android": "https://dc.lft.to/lastmile_qr_scan"}}, {"fusion_lat": 0.0, "is_disabled": 0, "lat": 38.923634, "lon": -77.02981, "fusion_lon": 0.0, "bike_id": "3a0c3a86f07db00ee480823b2bb53004", "type": "electric_scooter", "name": "3a0c3a86f07db00ee480823b2bb53004", "is_reserved": 0, "rental_uris": {"ios": "https://dc.lft.to/lastmile_qr_scan", "android": "https://dc.lft.to/lastmile_qr_scan"}}, {"fusion_lat": 0.0, "is_disabled": 0, "lat": 38.90337483333333, "lon": -76.97574866666666, "fusion_lon": 0.0, "bike_id": "e3d45217509852de6180e486f023b01d", "type": "electric_scooter", "name": "e3d45217509852de6180e486f023b01d", "is_reserved": 0, "rental_uris": {"ios": "https://dc.lft.to/lastmile_qr_scan", "android": "https://dc.lft.to/lastmile_qr_scan"}}, {"fusion_lat": 0.0, "is_disabled": 0, "lat": 38.89515316666667, "lon": -77.01976716666667, "fusion_lon": 0.0, "bike_id": "03916c58aae7e9013d316ecbfa8929c0", "type": "electric_scooter", "name": "03916c58aae7e9013d316ecbfa8929c0", "is_reserved": 0, "rental_uris": {"ios": "https://dc.lft.to/lastmile_qr_scan", "android": "https://dc.lft.to/lastmile_qr_scan"}}, {"fusion_lat": 0.0, "is_disabled": 0, "lat": 38.89487416666667, "lon": -76.94894716666667, "fusion_lon": 0.0, "bike_id": "5fe2f6a0601fe76445c2e7628f3cc509", "type": "electric_scooter", "name": "5fe2f6a0601fe76445c2e7628f3cc509", "is_reserved": 0, "rental_uris": {"ios": "https://dc.lft.to/lastmile_qr_scan", "android": "https://dc.lft.to/lastmile_qr_scan"}}, {"fusion_lat": 0.0, "is_disabled": 0, "lat": 38.90978633333334, "lon": -77.0444175, "fusion_lon": 0.0, "bike_id": "1d01ad8cdbad1c70607fbafa3a8c5a2c", "type": "electric_scooter", "name": "1d01ad8cdbad1c70607fbafa3a8c5a2c", "is_reserved": 0, "rental_uris": {"ios": "https://dc.lft.to/lastmile_qr_scan", "android": "https://dc.lft.to/lastmile_qr_scan"}}, {"fusion_lat": 0.0, "is_disabled": 0, "lat": 38.912566, "lon": -77.07239466666667, "fusion_lon": 0.0, "bike_id": "16c6b2d072b4d9611176d9bda755c3fb", "type": "electric_scooter", "name": "16c6b2d072b4d9611176d9bda755c3fb", "is_reserved": 0, "rental_uris": {"ios": "https://dc.lft.to/lastmile_qr_scan", "android": "https://dc.lft.to/lastmile_qr_scan"}}, {"fusion_lat": 0.0, "is_disabled": 0, "lat": 38.9137315, "lon": -77.03207516666667, "fusion_lon": 0.0, "bike_id": "1213649c0bb56d5fb09f9c2195c77461", "type": "electric_scooter", "name": "1213649c0bb56d5fb09f9c2195c77461", "is_reserved": 0, "rental_uris": {"ios": "https://dc.lft.to/lastmile_qr_scan", "android": "https://dc.lft.to/lastmile_qr_scan"}}, {"fusion_lat": 0.0, "is_disabled": 0, "lat": 38.893932666666664, "lon": -77.02178266666667, "fusion_lon": 0.0, "bike_id": "c2e395715854bed16ec3937e5b2e4347", "type": "electric_scooter", "name": "c2e395715854bed16ec3937e5b2e4347", "is_reserved": 0, "rental_uris": {"ios": "https://dc.lft.to/lastmile_qr_scan", "android": "https://dc.lft.to/lastmile_qr_scan"}}, {"fusion_lat": 0.0, "is_disabled": 0, "lat": 38.88985183333333, "lon": -77.00339, "fusion_lon": 0.0, "bike_id": "951e3caf98c637c87275c4b381b31abb", "type": "electric_scooter", "name": "951e3caf98c637c87275c4b381b31abb", "is_reserved": 0, "rental_uris": {"ios": "https://dc.lft.to/lastmile_qr_scan", "android": "https://dc.lft.to/lastmile_qr_scan"}}, {"fusion_lat": 0.0, "is_disabled": 0, "lat": 38.9169375, "lon": -77.03781816666667, "fusion_lon": 0.0, "bike_id": "d5ea7c88dee92b71684d63e6f8ffc527", "type": "electric_scooter", "name": "d5ea7c88dee92b71684d63e6f8ffc527", "is_reserved": 0, "rental_uris": {"ios": "https://dc.lft.to/lastmile_qr_scan", "android": "https://dc.lft.to/lastmile_qr_scan"}}, {"fusion_lat": 0.0, "is_disabled": 0, "lat": 38.92700166666667, "lon": -77.0240865, "fusion_lon": 0.0, "bike_id": "394dd0d0732066718cdaa8d78ee1f349", "type": "electric_scooter", "name": "394dd0d0732066718cdaa8d78ee1f349", "is_reserved": 0, "rental_uris": {"ios": "https://dc.lft.to/lastmile_qr_scan", "android": "https://dc.lft.to/lastmile_qr_scan"}}, {"fusion_lat": 0.0, "is_disabled": 0, "lat": 38.90269266666667, "lon": -77.01540916666667, "fusion_lon": 0.0, "bike_id": "37b28034f90702cafba4647d624e117e", "type": "electric_scooter", "name": "37b28034f90702cafba4647d624e117e", "is_reserved": 0, "rental_uris": {"ios": "https://dc.lft.to/lastmile_qr_scan", "android": "https://dc.lft.to/lastmile_qr_scan"}}, {"fusion_lat": 0.0, "is_disabled": 0, "lat": 38.89964883333333, "lon": -77.03076916666667, "fusion_lon": 0.0, "bike_id": "174480999082e03748a483841c649ad2", "type": "electric_scooter", "name": "174480999082e03748a483841c649ad2", "is_reserved": 0, "rental_uris": {"ios": "https://dc.lft.to/lastmile_qr_scan", "android": "https://dc.lft.to/lastmile_qr_scan"}}, {"fusion_lat": 0.0, "is_disabled": 0, "lat": 38.90854, "lon": -77.0728885, "fusion_lon": 0.0, "bike_id": "4196dfcc0630adaea4626b9a97909216", "type": "electric_scooter", "name": "4196dfcc0630adaea4626b9a97909216", "is_reserved": 0, "rental_uris": {"ios": "https://dc.lft.to/lastmile_qr_scan", "android": "https://dc.lft.to/lastmile_qr_scan"}}, {"fusion_lat": 0.0, "is_disabled": 0, "lat": 38.92230083333333, "lon": -77.022106, "fusion_lon": 0.0, "bike_id": "ca899cc9b70da8edb522b9d1d640144b", "type": "electric_scooter", "name": "ca899cc9b70da8edb522b9d1d640144b", "is_reserved": 0, "rental_uris": {"ios": "https://dc.lft.to/lastmile_qr_scan", "android": "https://dc.lft.to/lastmile_qr_scan"}}, {"fusion_lat": 0.0, "is_disabled": 0, "lat": 38.901176, "lon": -77.0180125, "fusion_lon": 0.0, "bike_id": "1014b1b9ae52dce12ffa33514617315e", "type": "electric_scooter", "name": "1014b1b9ae52dce12ffa33514617315e", "is_reserved": 0, "rental_uris": {"ios": "https://dc.lft.to/lastmile_qr_scan", "android": "https://dc.lft.to/lastmile_qr_scan"}}, {"fusion_lat": 0.0, "is_disabled": 0, "lat": 38.8903665, "lon": -76.93758683333333, "fusion_lon": 0.0, "bike_id": "3cc8b6ed78a742d16fd5394f58de4f00", "type": "electric_scooter", "name": "3cc8b6ed78a742d16fd5394f58de4f00", "is_reserved": 0, "rental_uris": {"ios": "https://dc.lft.to/lastmile_qr_scan", "android": "https://dc.lft.to/lastmile_qr_scan"}}, {"fusion_lat": 0.0, "is_disabled": 0, "lat": 38.8921645, "lon": -77.03206566666667, "fusion_lon": 0.0, "bike_id": "d417c26b951197a7367bc168edf56a75", "type": "electric_scooter", "name": "d417c26b951197a7367bc168edf56a75", "is_reserved": 0, "rental_uris": {"ios": "https://dc.lft.to/lastmile_qr_scan", "android": "https://dc.lft.to/lastmile_qr_scan"}}, {"fusion_lat": 0.0, "is_disabled": 0, "lat": 38.89683483333334, "lon": -77.00499383333333, "fusion_lon": 0.0, "bike_id": "d751da0a3bc31084127f7354ed18fca4", "type": "electric_scooter", "name": "d751da0a3bc31084127f7354ed18fca4", "is_reserved": 0, "rental_uris": {"ios": "https://dc.lft.to/lastmile_qr_scan", "android": "https://dc.lft.to/lastmile_qr_scan"}}, {"fusion_lat": 0.0, "is_disabled": 0, "lat": 38.883472833333336, "lon": -77.03054366666667, "fusion_lon": 0.0, "bike_id": "ac267fc97b19f0d1944345a10d5e4dcd", "type": "electric_bike", "name": "ac267fc97b19f0d1944345a10d5e4dcd", "is_reserved": 0, "rental_uris": {"ios": "https://dc.lft.to/lastmile_qr_scan", "android": "https://dc.lft.to/lastmile_qr_scan"}}, {"fusion_lat": 0.0, "is_disabled": 0, "lat": 38.89663783333334, "lon": -76.93206983333333, "fusion_lon": 0.0, "bike_id": "be02acecd621fcd74b375b3b48b8da57", "type": "electric_scooter", "name": "be02acecd621fcd74b375b3b48b8da57", "is_reserved": 0, "rental_uris": {"ios": "https://dc.lft.to/lastmile_qr_scan", "android": "https://dc.lft.to/lastmile_qr_scan"}}, {"fusion_lat": 0.0, "is_disabled": 0, "lat": 38.9513055, "lon": -77.02727016666667, "fusion_lon": 0.0, "bike_id": "a2e12965e364b8b82010282621cae20f", "type": "electric_scooter", "name": "a2e12965e364b8b82010282621cae20f", "is_reserved": 0, "rental_uris": {"ios": "https://dc.lft.to/lastmile_qr_scan", "android": "https://dc.lft.to/lastmile_qr_scan"}}, {"fusion_lat": 0.0, "is_disabled": 0, "lat": 38.91045666666667, "lon": -77.04351983333333, "fusion_lon": 0.0, "bike_id": "acab3548e3b98842362ee88ad04653a9", "type": "electric_scooter", "name": "acab3548e3b98842362ee88ad04653a9", "is_reserved": 0, "rental_uris": {"ios": "https://dc.lft.to/lastmile_qr_scan", "android": "https://dc.lft.to/lastmile_qr_scan"}}, {"fusion_lat": 0.0, "is_disabled": 0, "lat": 38.92367516666667, "lon": -77.05135966666667, "fusion_lon": 0.0, "bike_id": "930be082a9b9c13986df90aa36f568e5", "type": "electric_scooter", "name": "930be082a9b9c13986df90aa36f568e5", "is_reserved": 0, "rental_uris": {"ios": "https://dc.lft.to/lastmile_qr_scan", "android": "https://dc.lft.to/lastmile_qr_scan"}}, {"fusion_lat": 0.0, "is_disabled": 0, "lat": 38.92900366666667, "lon": -77.01645366666666, "fusion_lon": 0.0, "bike_id": "96a0dba54a69aa8bc69d06bb02faaaf4", "type": "electric_scooter", "name": "96a0dba54a69aa8bc69d06bb02faaaf4", "is_reserved": 0, "rental_uris": {"ios": "https://dc.lft.to/lastmile_qr_scan", "android": "https://dc.lft.to/lastmile_qr_scan"}}, {"fusion_lat": 0.0, "is_disabled": 0, "lat": 38.924242, "lon": -77.02032416666667, "fusion_lon": 0.0, "bike_id": "e5f6a4ec673d2fb0db486a67f4661485", "type": "electric_scooter", "name": "e5f6a4ec673d2fb0db486a67f4661485", "is_reserved": 0, "rental_uris": {"ios": "https://dc.lft.to/lastmile_qr_scan", "android": "https://dc.lft.to/lastmile_qr_scan"}}, {"fusion_lat": 0.0, "is_disabled": 0, "lat": 38.90399633333333, "lon": -77.046674, "fusion_lon": 0.0, "bike_id": "217eec72c93aaa69cd2808ae03d7b05d", "type": "electric_scooter", "name": "217eec72c93aaa69cd2808ae03d7b05d", "is_reserved": 0, "rental_uris": {"ios": "https://dc.lft.to/lastmile_qr_scan", "android": "https://dc.lft.to/lastmile_qr_scan"}}, {"fusion_lat": 0.0, "is_disabled": 0, "lat": 38.90166283333333, "lon": -77.02105966666667, "fusion_lon": 0.0, "bike_id": "f4872c619b4a0fa8b76dc35428919f62", "type": "electric_scooter", "name": "f4872c619b4a0fa8b76dc35428919f62", "is_reserved": 0, "rental_uris": {"ios": "https://dc.lft.to/lastmile_qr_scan", "android": "https://dc.lft.to/lastmile_qr_scan"}}, {"fusion_lat": 0.0, "is_disabled": 0, "lat": 38.92648533333333, "lon": -77.09020383333333, "fusion_lon": 0.0, "bike_id": "351bb798734284a682b9a4ccfe648fe4", "type": "electric_bike", "name": "351bb798734284a682b9a4ccfe648fe4", "is_reserved": 0, "rental_uris": {"ios": "https://dc.lft.to/lastmile_qr_scan", "android": "https://dc.lft.to/lastmile_qr_scan"}}, {"fusion_lat": 0.0, "is_disabled": 0, "lat": 38.92336783333333, "lon": -77.02710783333333, "fusion_lon": 0.0, "bike_id": "f8f20c9ded3ba761feeb4d9011b17aa8", "type": "electric_scooter", "name": "f8f20c9ded3ba761feeb4d9011b17aa8", "is_reserved": 0, "rental_uris": {"ios": "https://dc.lft.to/lastmile_qr_scan", "android": "https://dc.lft.to/lastmile_qr_scan"}}, {"fusion_lat": 0.0, "is_disabled": 0, "lat": 38.898314, "lon": -76.94635383333333, "fusion_lon": 0.0, "bike_id": "ad3ecc9590fd9012c1cf3d4a0d57994d", "type": "electric_scooter", "name": "ad3ecc9590fd9012c1cf3d4a0d57994d", "is_reserved": 0, "rental_uris": {"ios": "https://dc.lft.to/lastmile_qr_scan", "android": "https://dc.lft.to/lastmile_qr_scan"}}, {"fusion_lat": 0.0, "is_disabled": 0, "lat": 38.86386616666667, "lon": -76.98817833333334, "fusion_lon": 0.0, "bike_id": "783ee959258c1d27716d790eec723f5f", "type": "electric_scooter", "name": "783ee959258c1d27716d790eec723f5f", "is_reserved": 0, "rental_uris": {"ios": "https://dc.lft.to/lastmile_qr_scan", "android": "https://dc.lft.to/lastmile_qr_scan"}}, {"fusion_lat": 0.0, "is_disabled": 0, "lat": 38.90026116666667, "lon": -76.98826966666667, "fusion_lon": 0.0, "bike_id": "1dc6f6b15e089dc41b853f307dce92ba", "type": "electric_scooter", "name": "1dc6f6b15e089dc41b853f307dce92ba", "is_reserved": 0, "rental_uris": {"ios": "https://dc.lft.to/lastmile_qr_scan", "android": "https://dc.lft.to/lastmile_qr_scan"}}, {"fusion_lat": 0.0, "is_disabled": 0, "lat": 38.902421833333335, "lon": -77.00183433333333, "fusion_lon": 0.0, "bike_id": "cc30f56031c680bbc9ef30a58697cf35", "type": "electric_scooter", "name": "cc30f56031c680bbc9ef30a58697cf35", "is_reserved": 0, "rental_uris": {"ios": "https://dc.lft.to/lastmile_qr_scan", "android": "https://dc.lft.to/lastmile_qr_scan"}}, {"fusion_lat": 0.0, "is_disabled": 0, "lat": 38.91260966666667, "lon": -77.044672, "fusion_lon": 0.0, "bike_id": "d63866f83466b3fbf33657b6b38af4a7", "type": "electric_scooter", "name": "d63866f83466b3fbf33657b6b38af4a7", "is_reserved": 0, "rental_uris": {"ios": "https://dc.lft.to/lastmile_qr_scan", "android": "https://dc.lft.to/lastmile_qr_scan"}}, {"fusion_lat": 0.0, "is_disabled": 0, "lat": 38.927043833333336, "lon": -77.020991, "fusion_lon": 0.0, "bike_id": "9b0d0650805f0cf15747183c25cfa8e8", "type": "electric_scooter", "name": "9b0d0650805f0cf15747183c25cfa8e8", "is_reserved": 0, "rental_uris": {"ios": "https://dc.lft.to/lastmile_qr_scan", "android": "https://dc.lft.to/lastmile_qr_scan"}}, {"fusion_lat": 0.0, "is_disabled": 0, "lat": 38.89806316666667, "lon": -77.00610133333333, "fusion_lon": 0.0, "bike_id": "ece4d3ffbd4b268b55a017a966616746", "type": "electric_bike", "name": "ece4d3ffbd4b268b55a017a966616746", "is_reserved": 0, "rental_uris": {"ios": "https://dc.lft.to/lastmile_qr_scan", "android": "https://dc.lft.to/lastmile_qr_scan"}}, {"fusion_lat": 0.0, "is_disabled": 0, "lat": 38.86217333333333, "lon": -76.99485183333333, "fusion_lon": 0.0, "bike_id": "7beec636e4d4cad5ef164df842c03777", "type": "electric_scooter", "name": "7beec636e4d4cad5ef164df842c03777", "is_reserved": 0, "rental_uris": {"ios": "https://dc.lft.to/lastmile_qr_scan", "android": "https://dc.lft.to/lastmile_qr_scan"}}, {"fusion_lat": 0.0, "is_disabled": 0, "lat": 38.921564833333335, "lon": -77.04218083333333, "fusion_lon": 0.0, "bike_id": "5b1ac384e321c4ab32ba1222bfb49cb8", "type": "electric_scooter", "name": "5b1ac384e321c4ab32ba1222bfb49cb8", "is_reserved": 0, "rental_uris": {"ios": "https://dc.lft.to/lastmile_qr_scan", "android": "https://dc.lft.to/lastmile_qr_scan"}}, {"fusion_lat": 0.0, "is_disabled": 0, "lat": 38.873737, "lon": -77.00073966666666, "fusion_lon": 0.0, "bike_id": "1092bd352791ca4e4313216886a26044", "type": "electric_scooter", "name": "1092bd352791ca4e4313216886a26044", "is_reserved": 0, "rental_uris": {"ios": "https://dc.lft.to/lastmile_qr_scan", "android": "https://dc.lft.to/lastmile_qr_scan"}}, {"fusion_lat": 0.0, "is_disabled": 0, "lat": 38.930452, "lon": -77.0363075, "fusion_lon": 0.0, "bike_id": "34dae3b301a851fa5f51edebf7c266a3", "type": "electric_scooter", "name": "34dae3b301a851fa5f51edebf7c266a3", "is_reserved": 0, "rental_uris": {"ios": "https://dc.lft.to/lastmile_qr_scan", "android": "https://dc.lft.to/lastmile_qr_scan"}}, {"fusion_lat": 0.0, "is_disabled": 0, "lat": 38.89221933333334, "lon": -77.02743716666667, "fusion_lon": 0.0, "bike_id": "2dc5aa0a34513d84573975647b112b60", "type": "electric_scooter", "name": "2dc5aa0a34513d84573975647b112b60", "is_reserved": 0, "rental_uris": {"ios": "https://dc.lft.to/lastmile_qr_scan", "android": "https://dc.lft.to/lastmile_qr_scan"}}, {"fusion_lat": 0.0, "is_disabled": 0, "lat": 38.878929666666664, "lon": -76.93532133333333, "fusion_lon": 0.0, "bike_id": "c5f5220596dc4ef6c20e77071422d23a", "type": "electric_scooter", "name": "c5f5220596dc4ef6c20e77071422d23a", "is_reserved": 0, "rental_uris": {"ios": "https://dc.lft.to/lastmile_qr_scan", "android": "https://dc.lft.to/lastmile_qr_scan"}}, {"fusion_lat": 0.0, "is_disabled": 0, "lat": 38.965064, "lon": -77.03367666666666, "fusion_lon": 0.0, "bike_id": "1e74a6a9302ab9e8e7901954a7fcb2d4", "type": "electric_bike", "name": "1e74a6a9302ab9e8e7901954a7fcb2d4", "is_reserved": 0, "rental_uris": {"ios": "https://dc.lft.to/lastmile_qr_scan", "android": "https://dc.lft.to/lastmile_qr_scan"}}, {"fusion_lat": 0.0, "is_disabled": 0, "lat": 38.9241975, "lon": -77.01950833333333, "fusion_lon": 0.0, "bike_id": "9c1d29245c1d388fa85aa62e1a73ebe4", "type": "electric_scooter", "name": "9c1d29245c1d388fa85aa62e1a73ebe4", "is_reserved": 0, "rental_uris": {"ios": "https://dc.lft.to/lastmile_qr_scan", "android": "https://dc.lft.to/lastmile_qr_scan"}}, {"fusion_lat": 0.0, "is_disabled": 0, "lat": 38.886467, "lon": -77.16229616666666, "fusion_lon": 0.0, "bike_id": "f65bc0371b66a9fef799a187b1b17aa4", "type": "electric_bike", "name": "f65bc0371b66a9fef799a187b1b17aa4", "is_reserved": 0, "rental_uris": {"ios": "https://dc.lft.to/lastmile_qr_scan", "android": "https://dc.lft.to/lastmile_qr_scan"}}, {"fusion_lat": 0.0, "is_disabled": 0, "lat": 38.895005, "lon": -77.04166333333333, "fusion_lon": 0.0, "bike_id": "c519de25d8d9c4fdc4677e203b104e9c", "type": "electric_scooter", "name": "c519de25d8d9c4fdc4677e203b104e9c", "is_reserved": 0, "rental_uris": {"ios": "https://dc.lft.to/lastmile_qr_scan", "android": "https://dc.lft.to/lastmile_qr_scan"}}, {"fusion_lat": 0.0, "is_disabled": 0, "lat": 38.890359333333336, "lon": -76.93756816666667, "fusion_lon": 0.0, "bike_id": "276c8b433f98f17e602456adfb50cc59", "type": "electric_scooter", "name": "276c8b433f98f17e602456adfb50cc59", "is_reserved": 0, "rental_uris": {"ios": "https://dc.lft.to/lastmile_qr_scan", "android": "https://dc.lft.to/lastmile_qr_scan"}}, {"fusion_lat": 0.0, "is_disabled": 0, "lat": 38.89637033333333, "lon": -77.023842, "fusion_lon": 0.0, "bike_id": "340b0f3560fd88609d5028049a459bd1", "type": "electric_scooter", "name": "340b0f3560fd88609d5028049a459bd1", "is_reserved": 0, "rental_uris": {"ios": "https://dc.lft.to/lastmile_qr_scan", "android": "https://dc.lft.to/lastmile_qr_scan"}}, {"fusion_lat": 0.0, "is_disabled": 0, "lat": 38.904226, "lon": -77.03446616666666, "fusion_lon": 0.0, "bike_id": "7065080729938be21e865527502fbc68", "type": "electric_scooter", "name": "7065080729938be21e865527502fbc68", "is_reserved": 0, "rental_uris": {"ios": "https://dc.lft.to/lastmile_qr_scan", "android": "https://dc.lft.to/lastmile_qr_scan"}}, {"fusion_lat": 0.0, "is_disabled": 0, "lat": 38.9096875, "lon": -77.02308333333333, "fusion_lon": 0.0, "bike_id": "8978a03553661c01e04ee0b7f6921594", "type": "electric_scooter", "name": "8978a03553661c01e04ee0b7f6921594", "is_reserved": 0, "rental_uris": {"ios": "https://dc.lft.to/lastmile_qr_scan", "android": "https://dc.lft.to/lastmile_qr_scan"}}, {"fusion_lat": 0.0, "is_disabled": 0, "lat": 38.87456733333333, "lon": -77.00937566666667, "fusion_lon": 0.0, "bike_id": "6f40dd1ab387c8f262ae73aba6610b22", "type": "electric_scooter", "name": "6f40dd1ab387c8f262ae73aba6610b22", "is_reserved": 0, "rental_uris": {"ios": "https://dc.lft.to/lastmile_qr_scan", "android": "https://dc.lft.to/lastmile_qr_scan"}}, {"fusion_lat": 0.0, "is_disabled": 0, "lat": 38.89002466666667, "lon": -76.9210685, "fusion_lon": 0.0, "bike_id": "479658f85f8fd622a31ecc6e80b34372", "type": "electric_scooter", "name": "479658f85f8fd622a31ecc6e80b34372", "is_reserved": 0, "rental_uris": {"ios": "https://dc.lft.to/lastmile_qr_scan", "android": "https://dc.lft.to/lastmile_qr_scan"}}, {"fusion_lat": 0.0, "is_disabled": 0, "lat": 38.899637, "lon": -77.01591033333334, "fusion_lon": 0.0, "bike_id": "7c9d0d83a265d9e37f3d747e9a02d86b", "type": "electric_scooter", "name": "7c9d0d83a265d9e37f3d747e9a02d86b", "is_reserved": 0, "rental_uris": {"ios": "https://dc.lft.to/lastmile_qr_scan", "android": "https://dc.lft.to/lastmile_qr_scan"}}, {"fusion_lat": 0.0, "is_disabled": 0, "lat": 38.898810166666664, "lon": -76.93175333333333, "fusion_lon": 0.0, "bike_id": "7ee8b86c3f45741a44ed35a310da3c51", "type": "electric_scooter", "name": "7ee8b86c3f45741a44ed35a310da3c51", "is_reserved": 0, "rental_uris": {"ios": "https://dc.lft.to/lastmile_qr_scan", "android": "https://dc.lft.to/lastmile_qr_scan"}}, {"fusion_lat": 0.0, "is_disabled": 0, "lat": 38.8989245, "lon": -77.029617, "fusion_lon": 0.0, "bike_id": "c7854c71349f89ddf02ca4fd8a63e2ab", "type": "electric_scooter", "name": "c7854c71349f89ddf02ca4fd8a63e2ab", "is_reserved": 0, "rental_uris": {"ios": "https://dc.lft.to/lastmile_qr_scan", "android": "https://dc.lft.to/lastmile_qr_scan"}}, {"fusion_lat": 0.0, "is_disabled": 0, "lat": 38.87994466666667, "lon": -76.98544916666667, "fusion_lon": 0.0, "bike_id": "61f92a776fc9892eee6aa45cd29f897b", "type": "electric_scooter", "name": "61f92a776fc9892eee6aa45cd29f897b", "is_reserved": 0, "rental_uris": {"ios": "https://dc.lft.to/lastmile_qr_scan", "android": "https://dc.lft.to/lastmile_qr_scan"}}, {"fusion_lat": 0.0, "is_disabled": 0, "lat": 38.8921865, "lon": -77.03136283333333, "fusion_lon": 0.0, "bike_id": "1ab20aaa96269e94f44551e79ca52fac", "type": "electric_scooter", "name": "1ab20aaa96269e94f44551e79ca52fac", "is_reserved": 0, "rental_uris": {"ios": "https://dc.lft.to/lastmile_qr_scan", "android": "https://dc.lft.to/lastmile_qr_scan"}}, {"fusion_lat": 0.0, "is_disabled": 0, "lat": 38.93390483333334, "lon": -77.02315416666667, "fusion_lon": 0.0, "bike_id": "3d5db4c2fe348999c1c405b212aad3b4", "type": "electric_scooter", "name": "3d5db4c2fe348999c1c405b212aad3b4", "is_reserved": 0, "rental_uris": {"ios": "https://dc.lft.to/lastmile_qr_scan", "android": "https://dc.lft.to/lastmile_qr_scan"}}, {"fusion_lat": 0.0, "is_disabled": 0, "lat": 38.885462833333335, "lon": -77.11696633333334, "fusion_lon": 0.0, "bike_id": "8a347151fbd0977e4e488d487e615870", "type": "electric_bike", "name": "8a347151fbd0977e4e488d487e615870", "is_reserved": 0, "rental_uris": {"ios": "https://dc.lft.to/lastmile_qr_scan", "android": "https://dc.lft.to/lastmile_qr_scan"}}, {"fusion_lat": 0.0, "is_disabled": 0, "lat": 38.892313, "lon": -77.04877033333334, "fusion_lon": 0.0, "bike_id": "93d5db73024dfa57cd07dd956de4d519", "type": "electric_scooter", "name": "93d5db73024dfa57cd07dd956de4d519", "is_reserved": 0, "rental_uris": {"ios": "https://dc.lft.to/lastmile_qr_scan", "android": "https://dc.lft.to/lastmile_qr_scan"}}, {"fusion_lat": 0.0, "is_disabled": 0, "lat": 38.9323945, "lon": -76.99720566666667, "fusion_lon": 0.0, "bike_id": "1fffad3b50ee2d76d970af8f8c841d7c", "type": "electric_bike", "name": "1fffad3b50ee2d76d970af8f8c841d7c", "is_reserved": 0, "rental_uris": {"ios": "https://dc.lft.to/lastmile_qr_scan", "android": "https://dc.lft.to/lastmile_qr_scan"}}, {"fusion_lat": 0.0, "is_disabled": 0, "lat": 38.902446166666664, "lon": -77.039152, "fusion_lon": 0.0, "bike_id": "f1423ddf7a49b6498efa683ae080873a", "type": "electric_scooter", "name": "f1423ddf7a49b6498efa683ae080873a", "is_reserved": 0, "rental_uris": {"ios": "https://dc.lft.to/lastmile_qr_scan", "android": "https://dc.lft.to/lastmile_qr_scan"}}, {"fusion_lat": 0.0, "is_disabled": 0, "lat": 38.924419, "lon": -77.02147166666667, "fusion_lon": 0.0, "bike_id": "33d3445616a4950aa46407b6490dea92", "type": "electric_scooter", "name": "33d3445616a4950aa46407b6490dea92", "is_reserved": 0, "rental_uris": {"ios": "https://dc.lft.to/lastmile_qr_scan", "android": "https://dc.lft.to/lastmile_qr_scan"}}, {"fusion_lat": 0.0, "is_disabled": 0, "lat": 38.91720766666667, "lon": -77.03340083333333, "fusion_lon": 0.0, "bike_id": "8c4d741a9f28416849e39df52b105dfe", "type": "electric_scooter", "name": "8c4d741a9f28416849e39df52b105dfe", "is_reserved": 0, "rental_uris": {"ios": "https://dc.lft.to/lastmile_qr_scan", "android": "https://dc.lft.to/lastmile_qr_scan"}}, {"fusion_lat": 0.0, "is_disabled": 0, "lat": 38.894831833333335, "lon": -77.00968933333333, "fusion_lon": 0.0, "bike_id": "490d897a7b9eee4409f0e6acdcc9e0e7", "type": "electric_scooter", "name": "490d897a7b9eee4409f0e6acdcc9e0e7", "is_reserved": 0, "rental_uris": {"ios": "https://dc.lft.to/lastmile_qr_scan", "android": "https://dc.lft.to/lastmile_qr_scan"}},