{"data": {"bikes": [{"bike_id": "4dec8ff21294b4eb8d8911ab06066652", "type": "electric_scooter", "is_disabled": 0, "lat": 38.92366716666667, "rental_uris": {"ios": "https://dc.lft.to/lastmile_qr_scan", "android": "https://dc.lft.to/lastmile_qr_scan"}, "is_reserved": 0, "fusion_lon": 0.0, "fusion_lat": 0.0, "lon": -77.05128233333333, "name": "4dec8ff21294b4eb8d8911ab06066652"}, {"bike_id": "420ba4abe89cf818e2f18ba953680b1d", "type": "electric_scooter", "is_disabled": 0, "lat": 38.9005915, "rental_uris": {"ios": "https://dc.lft.to/lastmile_qr_scan", "android": "https://dc.lft.to/lastmile_qr_scan"}, "is_reserved": 0, "fusion_lon": 0.0, "fusion_lat": 0.0, "lon": -77.03639166666666, "name": "420ba4abe89cf818e2f18ba953680b1d"}, {"bike_id": "4bd52b5a5a255ffdd799a9965dc3f7c1", "type": "electric_scooter", "is_disabled": 0, "lat": 38.905583, "rental_uris": {"ios": "https://dc.lft.to/lastmile_qr_scan", "android": "https://dc.lft.to/lastmile_qr_scan"}, "is_reserved": 0, "fusion_lon": 0.0, "fusion_lat": 0.0, "lon": -77.0652085, "name": "4bd52b5a5a255ffdd799a9965dc3f7c1"}, {"bike_id": "a866142b6872d2b39239e2ef340df62c", "type": "electric_scooter", "is_disabled": 0, "lat": 38.91281433333333, "rental_uris": {"ios": "https://dc.lft.to/lastmile_qr_scan", "android": "https://dc.lft.to/lastmile_qr_scan"}, "is_reserved": 0, "fusion_lon": 0.0, "fusion_lat": 0.0, "lon": -77.06102966666667, "name": "a866142b6872d2b39239e2ef340df62c"}, {"bike_id": "5159f6f6b3da87a2a5e9b20233d9ccd8", "type": "electric_scooter", "is_disabled": 0, "lat": 38.91403616666667, "rental_uris": {"ios": "https://dc.lft.to/lastmile_qr_scan", "android": "https://dc.lft.to/lastmile_qr_scan"}, "is_reserved": 0, "fusion_lon": 0.0, "fusion_lat": 0.0, "lon": -77.02115983333333, "name": "5159f6f6b3da87a2a5e9b20233d9ccd8"}, {"bike_id": "8061e782b984230d6659de02af9e3b0f", "type": "electric_scooter", "is_disabled": 0, "lat": 38.913090333333336, "rental_uris": {"ios": "https://dc.lft.to/lastmile_qr_scan", "android": "https://dc.lft.to/lastmile_qr_scan"}, "is_reserved": 0, "fusion_lon": 0.0, "fusion_lat": 0.0, "lon": -77.04484216666667, "name": "8061e782b984230d6659de02af9e3b0f"}, {"bike_id": "167508415a5ff10c0490057e4c96fa36", "type": "electric_scooter", "is_disabled": 0, "lat": 38.91402683333333, "rental_uris": {"ios": "https://dc.lft.to/lastmile_qr_scan", "android": "https://dc.lft.to/lastmile_qr_scan"}, "is_reserved": 0, "fusion_lon": 0.0, "fusion_lat": 0.0, "lon": -77.03595516666667, "name": "167508415a5ff10c0490057e4c96fa36"}, {"bike_id": "0c5d8395e5272c29f06b01adbb6f2edc", "type": "electric_scooter", "is_disabled": 0, "lat": 38.93509266666667, "rental_uris": {"ios": "https://dc.lft.to/lastmile_qr_scan", "android": "https://dc.lft.to/lastmile_qr_scan"}, "is_reserved": 0, "fusion_lon": 0.0, "fusion_lat": 0.0, "lon": -77.03456666666666, "name": "0c5d8395e5272c29f06b01adbb6f2edc"}, {"bike_id": "b50d2a65a8089f4015af4dd7ab7d3c2e", "type": "electric_scooter", "is_disabled": 0, "lat": 38.87176083333333, "rental_uris": {"ios": "https://dc.lft.to/lastmile_qr_scan", "android": "https://dc.lft.to/lastmile_qr_scan"}, "is_reserved": 0, "fusion_lon": 0.0, "fusion_lat": 0.0, "lon": -77.00612716666667, "name": "b50d2a65a8089f4015af4dd7ab7d3c2e"}, {"bike_id": "7eeff901bbfb5ab352a4e5d6f5ab4e23", "type": "electric_scooter", "is_disabled": 0, "lat": 38.843153, "rental_uris": {"ios": "https://dc.lft.to/lastmile_qr_scan", "android": "https://dc.lft.to/lastmile_qr_scan"}, "is_reserved": 0, "fusion_lon": 0.0, "fusion_lat": 0.0, "lon": -76.9992025, "name": "7eeff901bbfb5ab352a4e5d6f5ab4e23"}, {"bike_id": "91525438296f07f125eb69d56ce173da", "type": "electric_scooter", "is_disabled": 0, "lat": 38.908389666666665, "rental_uris": {"ios": "https://dc.lft.to/lastmile_qr_scan", "android": "https://dc.lft.to/lastmile_qr_scan"}, "is_reserved": 0, "fusion_lon": 0.0, "fusion_lat": 0.0, "lon": -77.02686816666667, "name": "91525438296f07f125eb69d56ce173da"}, {"bike_id": "9009b4ef19e6de867d4c127936c19e62", "type": "electric_bike", "is_disabled": 0, "lat": 38.842682333333336, "rental_uris": {"ios": "https://dc.lft.to/lastmile_qr_scan", "android": "https://dc.lft.to/lastmile_qr_scan"}, "is_reserved": 0, "fusion_lon": 0.0, "fusion_lat": 0.0, "lon": -76.98836333333334, "name": "9009b4ef19e6de867d4c127936c19e62"}, {"bike_id": "7fc80f674deeca502e36259859c3edb2", "type": "electric_bike", "is_disabled": 0, "lat": 38.87873966666667, "rental_uris": {"ios": "https://dc.lft.to/lastmile_qr_scan", "android": "https://dc.lft.to/lastmile_qr_scan"}, "is_reserved": 0, "fusion_lon": 0.0, "fusion_lat": 0.0, "lon": -77.00658616666666, "name": "7fc80f674deeca502e36259859c3edb2"}, {"bike_id": "f8f2d54a09782e30d0267afd5cb19b19", "type": "electric_scooter", "is_disabled": 0, "lat": 38.908052166666664, "rental_uris": {"ios": "https://dc.lft.to/lastmile_qr_scan", "android": "https://dc.lft.to/lastmile_qr_scan"}, "is_reserved": 0, "fusion_lon": 0.0, "fusion_lat": 0.0, "lon": -77.03061633333333, "name": "f8f2d54a09782e30d0267afd5cb19b19"}, {"bike_id": "94ba7ed5bcce8e715fc0588d04e6c7e7", "type": "electric_scooter", "is_disabled": 0, "lat": 38.916145666666665, "rental_uris": {"ios": "https://dc.lft.to/lastmile_qr_scan", "android": "https://dc.lft.to/lastmile_qr_scan"}, "is_reserved": 0, "fusion_lon": 0.0, "fusion_lat": 0.0, "lon": -77.0238385, "name": "94ba7ed5bcce8e715fc0588d04e6c7e7"}, {"bike_id": "744b54b24868528dfe6e05ea582b0f67", "type": "electric_scooter", "is_disabled": 0, "lat": 38.91273283333334, "rental_uris": {"ios": "https://dc.lft.to/lastmile_qr_scan", "android": "https://dc.lft.to/lastmile_qr_scan"}, "is_reserved": 0, "fusion_lon": 0.0, "fusion_lat": 0.0, "lon": -77.01225766666667, "name": "744b54b24868528dfe6e05ea582b0f67"}, {"bike_id": "7540fb486cd32fbf6bc7607cb1ec1bb4", "type": "electric_scooter", "is_disabled": 0, "lat": 38.89239233333333, "rental_uris": {"ios": "https://dc.lft.to/lastmile_qr_scan", "android": "https://dc.lft.to/lastmile_qr_scan"}, "is_reserved": 0, "fusion_lon": 0.0, "fusion_lat": 0.0, "lon": -76.9533125, "name": "7540fb486cd32fbf6bc7607cb1ec1bb4"}, {"bike_id": "a3acd802a001b7fa149237c97ccd5d65", "type": "electric_bike", "is_disabled": 0, "lat": 38.809093, "rental_uris": {"ios": "https://dc.lft.to/lastmile_qr_scan", "android": "https://dc.lft.to/lastmile_qr_scan"}, "is_reserved": 0, "fusion_lon": 0.0, "fusion_lat": 0.0, "lon": -77.08638766666667, "name": "a3acd802a001b7fa149237c97ccd5d65"}, {"bike_id": "8c9d43dc4804d222923b71d692893ce0", "type": "electric_scooter", "is_disabled": 0, "lat": 38.933672, "rental_uris": {"ios": "https://dc.lft.to/lastmile_qr_scan", "android": "https://dc.lft.to/lastmile_qr_scan"}, "is_reserved": 0, "fusion_lon": 0.0, "fusion_lat": 0.0, "lon": -77.0571855, "name": "8c9d43dc4804d222923b71d692893ce0"}, {"bike_id": "543a6e7f3a72bd099fa61c160f7cecae", "type": "electric_scooter", "is_disabled": 0, "lat": 38.88533833333334, "rental_uris": {"ios": "https://dc.lft.to/lastmile_qr_scan", "android": "https://dc.lft.to/lastmile_qr_scan"}, "is_reserved": 0, "fusion_lon": 0.0, "fusion_lat": 0.0, "lon": -76.998269, "name": "543a6e7f3a72bd099fa61c160f7cecae"}, {"bike_id": "b6d8f4d43f5bcbd6b1a1427b8381761b", "type": "electric_scooter", "is_disabled": 0, "lat": 38.911530666666664, "rental_uris": {"ios": "https://dc.lft.to/lastmile_qr_scan", "android": "https://dc.lft.to/lastmile_qr_scan"}, "is_reserved": 0, "fusion_lon": 0.0, "fusion_lat": 0.0, "lon": -77.02943933333333, "name": "b6d8f4d43f5bcbd6b1a1427b8381761b"}, {"bike_id": "65667c858551fd7b0f4eed6a4d749e16", "type": "electric_scooter", "is_disabled": 0, "lat": 38.92688866666667, "rental_uris": {"ios": "https://dc.lft.to/lastmile_qr_scan", "android": "https://dc.lft.to/lastmile_qr_scan"}, "is_reserved": 0, "fusion_lon": 0.0, "fusion_lat": 0.0, "lon": -77.07333183333333, "name": "65667c858551fd7b0f4eed6a4d749e16"}, {"bike_id": "ed7d6d2f000097ded4eb56c14df6ebda", "type": "electric_scooter", "is_disabled": 0, "lat": 38.911326833333334, "rental_uris": {"ios": "https://dc.lft.to/lastmile_qr_scan", "android": "https://dc.lft.to/lastmile_qr_scan"}, "is_reserved": 0, "fusion_lon": 0.0, "fusion_lat": 0.0, "lon": -77.02193583333333, "name": "ed7d6d2f000097ded4eb56c14df6ebda"}, {"bike_id": "3bd77a7be41883ad3b7c9718bb2c73f6", "type": "electric_scooter", "is_disabled": 0, "lat": 38.9222055, "rental_uris": {"ios": "https://dc.lft.to/lastmile_qr_scan", "android": "https://dc.lft.to/lastmile_qr_scan"}, "is_reserved": 0, "fusion_lon": 0.0, "fusion_lat": 0.0, "lon": -77.02214233333333, "name": "3bd77a7be41883ad3b7c9718bb2c73f6"}, {"bike_id": "5ab5175aedd4958d7eda8f4415f57d5c", "type": "electric_scooter", "is_disabled": 0, "lat": 38.90974833333333, "rental_uris": {"ios": "https://dc.lft.to/lastmile_qr_scan", "android": "https://dc.lft.to/lastmile_qr_scan"}, "is_reserved": 0, "fusion_lon": 0.0, "fusion_lat": 0.0, "lon": -77.03338816666667, "name": "5ab5175aedd4958d7eda8f4415f57d5c"}, {"bike_id": "d31c5664caa7c1f99aa9b0f245bae0a6", "type": "electric_scooter", "is_disabled": 0, "lat": 38.912032833333335, "rental_uris": {"ios": "https://dc.lft.to/lastmile_qr_scan", "android": "https://dc.lft.to/lastmile_qr_scan"}, "is_reserved": 0, "fusion_lon": 0.0, "fusion_lat": 0.0, "lon": -77.03187266666667, "name": "d31c5664caa7c1f99aa9b0f245bae0a6"}, {"bike_id": "c6cd92d5ec6d7db4e03a01047aad6b3d", "type": "electric_scooter", "is_disabled": 0, "lat": 38.90222716666667, "rental_uris": {"ios": "https://dc.lft.to/lastmile_qr_scan", "android": "https://dc.lft.to/lastmile_qr_scan"}, "is_reserved": 0, "fusion_lon": 0.0, "fusion_lat": 0.0, "lon": -77.04310016666666, "name": "c6cd92d5ec6d7db4e03a01047aad6b3d"}, {"bike_id": "835401546f100f71bf8e6d12b10b301e", "type": "electric_scooter", "is_disabled": 0, "lat": 38.92642983333333, "rental_uris": {"ios": "https://dc.lft.to/lastmile_qr_scan", "android": "https://dc.lft.to/lastmile_qr_scan"}, "is_reserved": 0, "fusion_lon": 0.0, "fusion_lat": 0.0, "lon": -77.01338833333334, "name": "835401546f100f71bf8e6d12b10b301e"}, {"bike_id": "8062293eaca3d4368fa69593a05164ec", "type": "electric_scooter", "is_disabled": 0, "lat": 38.942727, "rental_uris": {"ios": "https://dc.lft.to/lastmile_qr_scan", "android": "https://dc.lft.to/lastmile_qr_scan"}, "is_reserved": 0, "fusion_lon": 0.0, "fusion_lat": 0.0, "lon": -77.032579, "name": "8062293eaca3d4368fa69593a05164ec"}, {"bike_id": "ea89e9a389ff1587503d557b50ac903b", "type": "electric_scooter", "is_disabled": 0, "lat": 38.8786725, "rental_uris": {"ios": "https://dc.lft.to/lastmile_qr_scan", "android": "https://dc.lft.to/lastmile_qr_scan"}, "is_reserved": 0, "fusion_lon": 0.0, "fusion_lat": 0.0, "lon": -76.96980783333333, "name": "ea89e9a389ff1587503d557b50ac903b"}, {"bike_id": "0377efc6984a541248312654a6b4e8be", "type": "electric_scooter", "is_disabled": 0, "lat": 38.8532425, "rental_uris": {"ios": "https://dc.lft.to/lastmile_qr_scan", "android": "https://dc.lft.to/lastmile_qr_scan"}, "is_reserved": 0, "fusion_lon": 0.0, "fusion_lat": 0.0, "lon": -76.98006333333333, "name": "0377efc6984a541248312654a6b4e8be"}, {"bike_id": "27b2195eb264febd5d53f042b45de37d", "type": "electric_scooter", "is_disabled": 0, "lat": 38.866865833333335, "rental_uris": {"ios": "https://dc.lft.to/lastmile_qr_scan", "android": "https://dc.lft.to/lastmile_qr_scan"}, "is_reserved": 0, "fusion_lon": 0.0, "fusion_lat": 0.0, "lon": -76.98575516666666, "name": "27b2195eb264febd5d53f042b45de37d"}, {"bike_id": "aeb9bb9876c20f9f7caa9ca9b2715602", "type": "electric_scooter", "is_disabled": 0, "lat": 38.91500883333333, "rental_uris": {"ios": "https://dc.lft.to/lastmile_qr_scan", "android": "https://dc.lft.to/lastmile_qr_scan"}, "is_reserved": 0, "fusion_lon": 0.0, "fusion_lat": 0.0, "lon": -77.0091725, "name": "aeb9bb9876c20f9f7caa9ca9b2715602"}, {"bike_id": "c4123e432b67e8454515f07297575a19", "type": "electric_scooter", "is_disabled": 0, "lat": 38.91283, "rental_uris": {"ios": "https://dc.lft.to/lastmile_qr_scan", "android": "https://dc.lft.to/lastmile_qr_scan"}, "is_reserved": 0, "fusion_lon": 0.0, "fusion_lat": 0.0, "lon": -77.03757083333333, "name": "c4123e432b67e8454515f07297575a19"}, {"bike_id": "e4f050cc3a099024d48ad18a1636d3b4", "type": "electric_scooter", "is_disabled": 0, "lat": 38.888460333333335, "rental_uris": {"ios": "https://dc.lft.to/lastmile_qr_scan", "android": "https://dc.lft.to/lastmile_qr_scan"}, "is_reserved": 0, "fusion_lon": 0.0, "fusion_lat": 0.0, "lon": -76.92679383333333, "name": "e4f050cc3a099024d48ad18a1636d3b4"}, {"bike_id": "7c918ad6d707481191054806c7d2fa9b", "type": "electric_scooter", "is_disabled": 0, "lat": 38.8742125, "rental_uris": {"ios": "https://dc.lft.to/lastmile_qr_scan", "android": "https://dc.lft.to/lastmile_qr_scan"}, "is_reserved": 0, "fusion_lon": 0.0, "fusion_lat": 0.0, "lon": -76.9690355, "name": "7c918ad6d707481191054806c7d2fa9b"}, {"bike_id": "9f07f8d15ea1a40669d9507652157f09", "type": "electric_scooter", "is_disabled": 0, "lat": 38.90223366666667, "rental_uris": {"ios": "https://dc.lft.to/lastmile_qr_scan", "android": "https://dc.lft.to/lastmile_qr_scan"}, "is_reserved": 0, "fusion_lon": 0.0, "fusion_lat": 0.0, "lon": -77.043131, "name": "9f07f8d15ea1a40669d9507652157f09"}, {"bike_id": "933df6c57a42d211655396305a157dc6", "type": "electric_scooter", "is_disabled": 0, "lat": 38.9164355, "rental_uris": {"ios": "https://dc.lft.to/lastmile_qr_scan", "android": "https://dc.lft.to/lastmile_qr_scan"}, "is_reserved": 0, "fusion_lon": 0.0, "fusion_lat": 0.0, "lon": -77.02282716666667, "name": "933df6c57a42d211655396305a157dc6"}, {"bike_id": "be7af204d365fde78e895bbd62ef84ad", "type": "electric_scooter", "is_disabled": 0, "lat": 38.92470816666667, "rental_uris": {"ios": "https://dc.lft.to/lastmile_qr_scan", "android": "https://dc.lft.to/lastmile_qr_scan"}, "is_reserved": 0, "fusion_lon": 0.0, "fusion_lat": 0.0, "lon": -77.02825366666667, "name": "be7af204d365fde78e895bbd62ef84ad"}, {"bike_id": "6bc230377fac93fcd311bd6f0ac8203c", "type": "electric_scooter", "is_disabled": 0, "lat": 38.92911983333333, "rental_uris": {"ios": "https://dc.lft.to/lastmile_qr_scan", "android": "https://dc.lft.to/lastmile_qr_scan"}, "is_reserved": 0, "fusion_lon": 0.0, "fusion_lat": 0.0, "lon": -77.02084466666666, "name": "6bc230377fac93fcd311bd6f0ac8203c"}, {"bike_id": "0bb43588a2f3ef638febd8f471407e13", "type": "electric_scooter", "is_disabled": 0, "lat": 38.914318333333334, "rental_uris": {"ios": "https://dc.lft.to/lastmile_qr_scan", "android": "https://dc.lft.to/lastmile_qr_scan"}, "is_reserved": 0, "fusion_lon": 0.0, "fusion_lat": 0.0, "lon": -77.02290733333334, "name": "0bb43588a2f3ef638febd8f471407e13"}, {"bike_id": "67ad7731a7eea76a2be70aa21c2d389d", "type": "electric_scooter", "is_disabled": 0, "lat": 38.869746, "rental_uris": {"ios": "https://dc.lft.to/lastmile_qr_scan", "android": "https://dc.lft.to/lastmile_qr_scan"}, "is_reserved": 0, "fusion_lon": 0.0, "fusion_lat": 0.0, "lon": -76.98168933333334, "name": "67ad7731a7eea76a2be70aa21c2d389d"}, {"bike_id": "8876b9325fd87f1b1798868807396487", "type": "electric_scooter", "is_disabled": 0, "lat": 38.90956466666667, "rental_uris": {"ios": "https://dc.lft.to/lastmile_qr_scan", "android": "https://dc.lft.to/lastmile_qr_scan"}, "is_reserved": 0, "fusion_lon": 0.0, "fusion_lat": 0.0, "lon": -77.0270905, "name": "8876b9325fd87f1b1798868807396487"}, {"bike_id": "6d68802b457498a91efb75a3cbaf8cda", "type": "electric_scooter", "is_disabled": 0, "lat": 38.90019383333333, "rental_uris": {"ios": "https://dc.lft.to/lastmile_qr_scan", "android": "https://dc.lft.to/lastmile_qr_scan"}, "is_reserved": 0, "fusion_lon": 0.0, "fusion_lat": 0.0, "lon": -77.001709, "name": "6d68802b457498a91efb75a3cbaf8cda"}, {"bike_id": "5d65bbb2943e4256acc4370ec2568ffd", "type": "electric_scooter", "is_disabled": 0, "lat": 38.923732333333334, "rental_uris": {"ios": "https://dc.lft.to/lastmile_qr_scan", "android": "https://dc.lft.to/lastmile_qr_scan"}, "is_reserved": 0, "fusion_lon": 0.0, "fusion_lat": 0.0, "lon": -77.030433, "name": "5d65bbb2943e4256acc4370ec2568ffd"}, {"bike_id": "8f528b1147e30fded1baa722eccf2f6e", "type": "electric_scooter", "is_disabled": 0, "lat": 38.8821605, "rental_uris": {"ios": "https://dc.lft.to/lastmile_qr_scan", "android": "https://dc.lft.to/lastmile_qr_scan"}, "is_reserved": 0, "fusion_lon": 0.0, "fusion_lat": 0.0, "lon": -76.92659066666667, "name": "8f528b1147e30fded1baa722eccf2f6e"}, {"bike_id": "7797e08d3a0f5e12dddc0213e4449dd4", "type": "electric_scooter", "is_disabled": 0, "lat": 38.94792066666667, "rental_uris": {"ios": "https://dc.lft.to/lastmile_qr_scan", "android": "https://dc.lft.to/lastmile_qr_scan"}, "is_reserved": 0, "fusion_lon": 0.0, "fusion_lat": 0.0, "lon": -77.02134066666666, "name": "7797e08d3a0f5e12dddc0213e4449dd4"}, {"bike_id": "176e89398d056d27b76989441a589756", "type": "electric_scooter", "is_disabled": 0, "lat": 38.934006, "rental_uris": {"ios": "https://dc.lft.to/lastmile_qr_scan", "android": "https://dc.lft.to/lastmile_qr_scan"}, "is_reserved": 0, "fusion_lon": 0.0, "fusion_lat": 0.0, "lon": -77.02210333333333, "name": "176e89398d056d27b76989441a589756"}, {"bike_id": "cae43dbcfa08ecbacfd95921b7f2f7b5", "type": "electric_bike", "is_disabled": 0, "lat": 38.88060983333333, "rental_uris": {"ios": "https://dc.lft.to/lastmile_qr_scan", "android": "https://dc.lft.to/lastmile_qr_scan"}, "is_reserved": 0, "fusion_lon": 0.0, "fusion_lat": 0.0, "lon": -76.96243283333334, "name": "cae43dbcfa08ecbacfd95921b7f2f7b5"}, {"bike_id": "454a79dd79fe071cf723efc5be7f26e8", "type": "electric_scooter", "is_disabled": 0, "lat": 38.93340716666667, "rental_uris": {"ios": "https://dc.lft.to/lastmile_qr_scan", "android": "https://dc.lft.to/lastmile_qr_scan"}, "is_reserved": 0, "fusion_lon": 0.0, "fusion_lat": 0.0, "lon": -77.02616883333333, "name": "454a79dd79fe071cf723efc5be7f26e8"}, {"bike_id": "a78db9dc863f54980e4bc5d01340c4e2", "type": "electric_bike", "is_disabled": 0, "lat": 38.87279316666667, "rental_uris": {"ios": "https://dc.lft.to/lastmile_qr_scan", "android": "https://dc.lft.to/lastmile_qr_scan"}, "is_reserved": 0, "fusion_lon": 0.0, "fusion_lat": 0.0, "lon": -77.233203, "name": "a78db9dc863f54980e4bc5d01340c4e2"}, {"bike_id": "8126ebcbe5ac62a8396af7d2403c3b7c", "type": "electric_scooter", "is_disabled": 0, "lat": 38.91310516666667, "rental_uris": {"ios": "https://dc.lft.to/lastmile_qr_scan", "android": "https://dc.lft.to/lastmile_qr_scan"}, "is_reserved": 0, "fusion_lon": 0.0, "fusion_lat": 0.0, "lon": -77.04538616666666, "name": "8126ebcbe5ac62a8396af7d2403c3b7c"}, {"bike_id": "eedbc2da2b06e0f11645fc19195e6dfb", "type": "electric_scooter", "is_disabled": 0, "lat": 38.93300516666667, "rental_uris": {"ios": "https://dc.lft.to/lastmile_qr_scan", "android": "https://dc.lft.to/lastmile_qr_scan"}, "is_reserved": 0, "fusion_lon": 0.0, "fusion_lat": 0.0, "lon": -77.03256966666666, "name": "eedbc2da2b06e0f11645fc19195e6dfb"}, {"bike_id": "4343a19721c635b205a5f05bb7dcd004", "type": "electric_scooter", "is_disabled": 0, "lat": 38.914154333333336, "rental_uris": {"ios": "https://dc.lft.to/lastmile_qr_scan", "android": "https://dc.lft.to/lastmile_qr_scan"}, "is_reserved": 0, "fusion_lon": 0.0, "fusion_lat": 0.0, "lon": -77.0480345, "name": "4343a19721c635b205a5f05bb7dcd004"}, {"bike_id": "eaa959c7809b18310a69b80736e8ca99", "type": "electric_scooter", "is_disabled": 0, "lat": 38.902112333333335, "rental_uris": {"ios": "https://dc.lft.to/lastmile_qr_scan", "android": "https://dc.lft.to/lastmile_qr_scan"}, "is_reserved": 0, "fusion_lon": 0.0, "fusion_lat": 0.0, "lon": -77.0403375, "name": "eaa959c7809b18310a69b80736e8ca99"}, {"bike_id": "426d3f2d546eedf568586f3e5af5fa07", "type": "electric_scooter", "is_disabled": 0, "lat": 38.91029183333333, "rental_uris": {"ios": "https://dc.lft.to/lastmile_qr_scan", "android": "https://dc.lft.to/lastmile_qr_scan"}, "is_reserved": 0, "fusion_lon": 0.0, "fusion_lat": 0.0, "lon": -77.00762083333333, "name": "426d3f2d546eedf568586f3e5af5fa07"}, {"bike_id": "e8d77c2a21c24fea824353cc7b2604bb", "type": "electric_bike", "is_disabled": 0, "lat": 38.910182166666665, "rental_uris": {"ios": "https://dc.lft.to/lastmile_qr_scan", "android": "https://dc.lft.to/lastmile_qr_scan"}, "is_reserved": 0, "fusion_lon": 0.0, "fusion_lat": 0.0, "lon": -77.22803633333334, "name": "e8d77c2a21c24fea824353cc7b2604bb"}, {"bike_id": "90691e3677a6b2848a0ef002460a0f32", "type": "electric_scooter", "is_disabled": 0, "lat": 38.917861333333335, "rental_uris": {"ios": "https://dc.lft.to/lastmile_qr_scan", "android": "https://dc.lft.to/lastmile_qr_scan"}, "is_reserved": 0, "fusion_lon": 0.0, "fusion_lat": 0.0, "lon": -77.02312316666666, "name": "90691e3677a6b2848a0ef002460a0f32"}, {"bike_id": "16f98e9aabe801342be59627b956daae", "type": "electric_scooter", "is_disabled": 0, "lat": 38.966036333333335, "rental_uris": {"ios": "https://dc.lft.to/lastmile_qr_scan", "android": "https://dc.lft.to/lastmile_qr_scan"}, "is_reserved": 0, "fusion_lon": 0.0, "fusion_lat": 0.0, "lon": -77.01975466666667, "name": "16f98e9aabe801342be59627b956daae"}, {"bike_id": "80570ee131412585af044e5b01c98ad9", "type": "electric_scooter", "is_disabled": 0, "lat": 38.9202785, "rental_uris": {"ios": "https://dc.lft.to/lastmile_qr_scan", "android": "https://dc.lft.to/lastmile_qr_scan"}, "is_reserved": 0, "fusion_lon": 0.0, "fusion_lat": 0.0, "lon": -77.02326, "name": "80570ee131412585af044e5b01c98ad9"}, {"bike_id": "8895b68a50ed4f8fc9facac955f9df67", "type": "electric_scooter", "is_disabled": 0, "lat": 38.923208, "rental_uris": {"ios": "https://dc.lft.to/lastmile_qr_scan", "android": "https://dc.lft.to/lastmile_qr_scan"}, "is_reserved": 0, "fusion_lon": 0.0, "fusion_lat": 0.0, "lon": -77.02133666666667, "name": "8895b68a50ed4f8fc9facac955f9df67"}, {"bike_id": "eb6b5b780de0dd593aaa4d12dbb4286d", "type": "electric_scooter", "is_disabled": 0, "lat": 38.928444166666665, "rental_uris": {"ios": "https://dc.lft.to/lastmile_qr_scan", "android": "https://dc.lft.to/lastmile_qr_scan"}, "is_reserved": 0, "fusion_lon": 0.0, "fusion_lat": 0.0, "lon": -77.0200615, "name": "eb6b5b780de0dd593aaa4d12dbb4286d"}, {"bike_id": "f0af6cc06b052f49b1e8e7680de31eab", "type": "electric_scooter", "is_disabled": 0, "lat": 38.916193, "rental_uris": {"ios": "https://dc.lft.to/lastmile_qr_scan", "android": "https://dc.lft.to/lastmile_qr_scan"}, "is_reserved": 0, "fusion_lon": 0.0, "fusion_lat": 0.0, "lon": -77.036395, "name": "f0af6cc06b052f49b1e8e7680de31eab"}, {"bike_id": "5dd85a331c6a4dc1c74383811990aef3", "type": "electric_scooter", "is_disabled": 0, "lat": 38.919228, "rental_uris": {"ios": "https://dc.lft.to/lastmile_qr_scan", "android": "https://dc.lft.to/lastmile_qr_scan"}, "is_reserved": 0, "fusion_lon": 0.0, "fusion_lat": 0.0, "lon": -77.03419533333333, "name": "5dd85a331c6a4dc1c74383811990aef3"}, {"bike_id": "219e5bad163d303d3e9a40d0e62f7285", "type": "electric_scooter", "is_disabled": 0, "lat": 38.9071595, "rental_uris": {"ios": "https://dc.lft.to/lastmile_qr_scan", "android": "https://dc.lft.to/lastmile_qr_scan"}, "is_reserved": 0, "fusion_lon": 0.0, "fusion_lat": 0.0, "lon": -77.02886266666667, "name": "219e5bad163d303d3e9a40d0e62f7285"}, {"bike_id": "b9a1677c58ff3b523de0693e978e378b", "type": "electric_scooter", "is_disabled": 0, "lat": 38.9267715, "rental_uris": {"ios": "https://dc.lft.to/lastmile_qr_scan", "android": "https://dc.lft.to/lastmile_qr_scan"}, "is_reserved": 0, "fusion_lon": 0.0, "fusion_lat": 0.0, "lon": -77.02964133333333, "name": "b9a1677c58ff3b523de0693e978e378b"}, {"bike_id": "c770cca2d995fdaa4799fbd010116d6b", "type": "electric_bike", "is_disabled": 0, "lat": 38.845304666666664, "rental_uris": {"ios": "https://dc.lft.to/lastmile_qr_scan", "android": "https://dc.lft.to/lastmile_qr_scan"}, "is_reserved": 0, "fusion_lon": 0.0, "fusion_lat": 0.0, "lon": -76.97391783333333, "name": "c770cca2d995fdaa4799fbd010116d6b"}, {"bike_id": "d8adab607b82aa0594a6d709c0930f06", "type": "electric_scooter", "is_disabled": 0, "lat": 38.92620733333333, "rental_uris": {"ios": "https://dc.lft.to/lastmile_qr_scan", "android": "https://dc.lft.to/lastmile_qr_scan"}, "is_reserved": 0, "fusion_lon": 0.0, "fusion_lat": 0.0, "lon": -77.04183116666667, "name": "d8adab607b82aa0594a6d709c0930f06"}, {"bike_id": "2ed1d945ebc44007142b1c022aa6bc87", "type": "electric_scooter", "is_disabled": 0, "lat": 38.89833316666667, "rental_uris": {"ios": "https://dc.lft.to/lastmile_qr_scan", "android": "https://dc.lft.to/lastmile_qr_scan"}, "is_reserved": 0, "fusion_lon": 0.0, "fusion_lat": 0.0, "lon": -77.04060383333334, "name": "2ed1d945ebc44007142b1c022aa6bc87"}, {"bike_id": "0f61c3f8e68bbac6898af68a4466b0e9", "type": "electric_scooter", "is_disabled": 0, "lat": 38.947201, "rental_uris": {"ios": "https://dc.lft.to/lastmile_qr_scan", "android": "https://dc.lft.to/lastmile_qr_scan"}, "is_reserved": 0, "fusion_lon": 0.0, "fusion_lat": 0.0, "lon": -77.0332785, "name": "0f61c3f8e68bbac6898af68a4466b0e9"}, {"bike_id": "e30ceb6302dc988aa148f7ab8ebcb85e", "type": "electric_scooter", "is_disabled": 0, "lat": 38.907935333333334, "rental_uris": {"ios": "https://dc.lft.to/lastmile_qr_scan", "android": "https://dc.lft.to/lastmile_qr_scan"}, "is_reserved": 0, "fusion_lon": 0.0, "fusion_lat": 0.0, "lon": -77.04796183333333, "name": "e30ceb6302dc988aa148f7ab8ebcb85e"}, {"bike_id": "f086da76612b0e79022fca53911dfab6", "type": "electric_scooter", "is_disabled": 0, "lat": 38.910681833333335, "rental_uris": {"ios": "https://dc.lft.to/lastmile_qr_scan", "android": "https://dc.lft.to/lastmile_qr_scan"}, "is_reserved": 0, "fusion_lon": 0.0, "fusion_lat": 0.0, "lon": -77.03711316666667, "name": "f086da76612b0e79022fca53911dfab6"}, {"bike_id": "247b355f4223327cba637537ac2847db", "type": "electric_scooter", "is_disabled": 0, "lat": 38.905737333333335, "rental_uris": {"ios": "https://dc.lft.to/lastmile_qr_scan", "android": "https://dc.lft.to/lastmile_qr_scan"}, "is_reserved": 0, "fusion_lon": 0.0, "fusion_lat": 0.0, "lon": -76.976198, "name": "247b355f4223327cba637537ac2847db"}, {"bike_id": "430c0aad793d87d6cddd87a2c07567b2", "type": "electric_scooter", "is_disabled": 0, "lat": 38.87092966666667, "rental_uris": {"ios": "https://dc.lft.to/lastmile_qr_scan", "android": "https://dc.lft.to/lastmile_qr_scan"}, "is_reserved": 0, "fusion_lon": 0.0, "fusion_lat": 0.0, "lon": -77.0120635, "name": "430c0aad793d87d6cddd87a2c07567b2"}, {"bike_id": "597dcfbc9d1fd3b424fb298e632ae7d9", "type": "electric_scooter", "is_disabled": 0, "lat": 38.90073116666667, "rental_uris": {"ios": "https://dc.lft.to/lastmile_qr_scan", "android": "https://dc.lft.to/lastmile_qr_scan"}, "is_reserved": 0, "fusion_lon": 0.0, "fusion_lat": 0.0, "lon": -77.01832516666667, "name": "597dcfbc9d1fd3b424fb298e632ae7d9"}, {"bike_id": "aef744b6e7b59bf5b87ecb32ae0acdb6", "type": "electric_scooter", "is_disabled": 0, "lat": 38.9086795, "rental_uris": {"ios": "https://dc.lft.to/lastmile_qr_scan", "android": "https://dc.lft.to/lastmile_qr_scan"}, "is_reserved": 0, "fusion_lon": 0.0, "fusion_lat": 0.0, "lon": -77.08587116666666, "name": "aef744b6e7b59bf5b87ecb32ae0acdb6"}, {"bike_id": "87f764f0bb2dd81f71b968499a6b0b6c", "type": "electric_bike", "is_disabled": 0, "lat": 38.9081815, "rental_uris": {"ios": "https://dc.lft.to/lastmile_qr_scan", "android": "https://dc.lft.to/lastmile_qr_scan"}, "is_reserved": 0, "fusion_lon": 0.0, "fusion_lat": 0.0, "lon": -76.94028683333333, "name": "87f764f0bb2dd81f71b968499a6b0b6c"}, {"bike_id": "8fcde6e63f5c382c91cefbe9b3d14fb7", "type": "electric_scooter", "is_disabled": 0, "lat": 38.9257395, "rental_uris": {"ios": "https://dc.lft.to/lastmile_qr_scan", "android": "https://dc.lft.to/lastmile_qr_scan"}, "is_reserved": 0, "fusion_lon": 0.0, "fusion_lat": 0.0, "lon": -77.03776816666667, "name": "8fcde6e63f5c382c91cefbe9b3d14fb7"}, {"bike_id": "4068467e757ad1cd6ad8fd1fbe218f65", "type": "electric_scooter", "is_disabled": 0, "lat": 38.922596, "rental_uris": {"ios": "https://dc.lft.to/lastmile_qr_scan", "android": "https://dc.lft.to/lastmile_qr_scan"}, "is_reserved": 0, "fusion_lon": 0.0, "fusion_lat": 0.0, "lon": -77.04304516666667, "name": "4068467e757ad1cd6ad8fd1fbe218f65"}, {"bike_id": "dfa74af2754120a7e58b6235a668a572", "type": "electric_scooter", "is_disabled": 0, "lat": 38.8839895, "rental_uris": {"ios": "https://dc.lft.to/lastmile_qr_scan", "android": "https://dc.lft.to/lastmile_qr_scan"}, "is_reserved": 0, "fusion_lon": 0.0, "fusion_lat": 0.0, "lon": -76.95388833333334, "name": "dfa74af2754120a7e58b6235a668a572"}, {"bike_id": "49058361c02ac12773008d45f57ca313", "type": "electric_scooter", "is_disabled": 0, "lat": 38.89096766666667, "rental_uris": {"ios": "https://dc.lft.to/lastmile_qr_scan", "android": "https://dc.lft.to/lastmile_qr_scan"}, "is_reserved": 0, "fusion_lon": 0.0, "fusion_lat": 0.0, "lon": -76.9385065, "name": "49058361c02ac12773008d45f57ca313"}, {"bike_id": "817fd9403e8104db14883e008fe94234", "type": "electric_scooter", "is_disabled": 0, "lat": 38.932504333333334, "rental_uris": {"ios": "https://dc.lft.to/lastmile_qr_scan", "android": "https://dc.lft.to/lastmile_qr_scan"}, "is_reserved": 0, "fusion_lon": 0.0, "fusion_lat": 0.0, "lon": -77.03274833333333, "name": "817fd9403e8104db14883e008fe94234"}, {"bike_id": "2577c15375267e2b99d01894920ffd1c", "type": "electric_scooter", "is_disabled": 0, "lat": 38.915198333333336, "rental_uris": {"ios": "https://dc.lft.to/lastmile_qr_scan", "android": "https://dc.lft.to/lastmile_qr_scan"}, "is_reserved": 0, "fusion_lon": 0.0, "fusion_lat": 0.0, "lon": -77.04856483333333, "name": "2577c15375267e2b99d01894920ffd1c"}, {"bike_id": "13c48d2a65f838a31be32a7d06866d8b", "type": "electric_scooter", "is_disabled": 0, "lat": 38.921701, "rental_uris": {"ios": "https://dc.lft.to/lastmile_qr_scan", "android": "https://dc.lft.to/lastmile_qr_scan"}, "is_reserved": 0, "fusion_lon": 0.0, "fusion_lat": 0.0, "lon": -77.03855333333334, "name": "13c48d2a65f838a31be32a7d06866d8b"}, {"bike_id": "17652da3205eda58aaee6860d7f0df84", "type": "electric_scooter", "is_disabled": 0, "lat": 38.909583, "rental_uris": {"ios": "https://dc.lft.to/lastmile_qr_scan", "android": "https://dc.lft.to/lastmile_qr_scan"}, "is_reserved": 0, "fusion_lon": 0.0, "fusion_lat": 0.0, "lon": -77.02275116666667, "name": "17652da3205eda58aaee6860d7f0df84"}, {"bike_id": "3675611a231aa7a6098afce679a2f368", "type": "electric_scooter", "is_disabled": 0, "lat": 38.9052275, "rental_uris": {"ios": "https://dc.lft.to/lastmile_qr_scan", "android": "https://dc.lft.to/lastmile_qr_scan"}, "is_reserved": 0, "fusion_lon": 0.0, "fusion_lat": 0.0, "lon": -76.986231, "name": "3675611a231aa7a6098afce679a2f368"}, {"bike_id": "cce79d7766c7abe86274d18701f54fb5", "type": "electric_bike", "is_disabled": 0, "lat": 38.8633935, "rental_uris": {"ios": "https://dc.lft.to/lastmile_qr_scan", "android": "https://dc.lft.to/lastmile_qr_scan"}, "is_reserved": 0, "fusion_lon": 0.0, "fusion_lat": 0.0, "lon": -76.98723966666667, "name": "cce79d7766c7abe86274d18701f54fb5"}, {"bike_id": "a29f61bc789f3942de34554cdb5f887f", "type": "electric_bike", "is_disabled": 0, "lat": 38.906196666666666, "rental_uris": {"ios": "https://dc.lft.to/lastmile_qr_scan", "android": "https://dc.lft.to/lastmile_qr_scan"}, "is_reserved": 0, "fusion_lon": 0.0, "fusion_lat": 0.0, "lon": -76.98599183333333, "name": "a29f61bc789f3942de34554cdb5f887f"}, {"bike_id": "63883c02bf222b9cc84535cea2bbe2f0", "type": "electric_scooter", "is_disabled": 0, "lat": 38.862141333333334, "rental_uris": {"ios": "https://dc.lft.to/lastmile_qr_scan", "android": "https://dc.lft.to/lastmile_qr_scan"}, "is_reserved": 0, "fusion_lon": 0.0, "fusion_lat": 0.0, "lon": -76.994715, "name": "63883c02bf222b9cc84535cea2bbe2f0"}, {"bike_id": "8e6fbbee0c92dfb4b298c73b3dea82f2", "type": "electric_scooter", "is_disabled": 0, "lat": 38.866982166666666, "rental_uris": {"ios": "https://dc.lft.to/lastmile_qr_scan", "android": "https://dc.lft.to/lastmile_qr_scan"}, "is_reserved": 0, "fusion_lon": 0.0, "fusion_lat": 0.0, "lon": -76.987125, "name": "8e6fbbee0c92dfb4b298c73b3dea82f2"}, {"bike_id": "40e0c3e41948f595b40ebb0b1c98b609", "type": "electric_scooter", "is_disabled": 0, "lat": 38.916938333333334, "rental_uris": {"ios": "https://dc.lft.to/lastmile_qr_scan", "android": "https://dc.lft.to/lastmile_qr_scan"}, "is_reserved": 0, "fusion_lon": 0.0, "fusion_lat": 0.0, "lon": -77.025968, "name": "40e0c3e41948f595b40ebb0b1c98b609"}, {"bike_id": "27a035624a1c7da8179d8671dc9fa74e", "type": "electric_scooter", "is_disabled": 0, "lat": 38.94716616666667, "rental_uris": {"ios": "https://dc.lft.to/lastmile_qr_scan", "android": "https://dc.lft.to/lastmile_qr_scan"}, "is_reserved": 0, "fusion_lon": 0.0, "fusion_lat": 0.0, "lon": -77.02778583333334, "name": "27a035624a1c7da8179d8671dc9fa74e"}, {"bike_id": "0d92a34eee4dea92d394b5b7a396bad3", "type": "electric_scooter", "is_disabled": 0, "lat": 38.85759066666667, "rental_uris": {"ios": "https://dc.lft.to/lastmile_qr_scan", "android": "https://dc.lft.to/lastmile_qr_scan"}, "is_reserved": 0, "fusion_lon": 0.0, "fusion_lat": 0.0, "lon": -76.9929525, "name": "0d92a34eee4dea92d394b5b7a396bad3"}, {"bike_id": "77f3a3946c17f5005a0e62285ab524b5", "type": "electric_scooter", "is_disabled": 0, "lat": 38.89907916666667, "rental_uris": {"ios": "https://dc.lft.to/lastmile_qr_scan", "android": "https://dc.lft.to/lastmile_qr_scan"}, "is_reserved": 0, "fusion_lon": 0.0, "fusion_lat": 0.0, "lon": -77.00367283333334, "name": "77f3a3946c17f5005a0e62285ab524b5"}, {"bike_id": "0549b098f62f4233d967ba96b02253e9", "type": "electric_scooter", "is_disabled": 0, "lat": 38.9381695, "rental_uris": {"ios": "https://dc.lft.to/lastmile_qr_scan", "android": "https://dc.lft.to/lastmile_qr_scan"}, "is_reserved": 0, "fusion_lon": 0.0, "fusion_lat": 0.0, "lon": -77.027091, "name": "0549b098f62f4233d967ba96b02253e9"}, {"bike_id": "bad55cb05fecf011e7849728f152d1dd", "type": "electric_bike", "is_disabled": 0, "lat": 38.82951083333333, "rental_uris": {"ios": "https://dc.lft.to/lastmile_qr_scan", "android": "https://dc.lft.to/lastmile_qr_scan"}, "is_reserved": 0, "fusion_lon": 0.0, "fusion_lat": 0.0, "lon": -77.12355833333334, "name": "bad55cb05fecf011e7849728f152d1dd"}, {"bike_id": "cd7835d1ef06faba20b6a873854c013b", "type": "electric_scooter", "is_disabled": 0, "lat": 38.923661333333335, "rental_uris": {"ios": "https://dc.lft.to/lastmile_qr_scan", "android": "https://dc.lft.to/lastmile_qr_scan"}, "is_reserved": 0, "fusion_lon": 0.0, "fusion_lat": 0.0, "lon": -77.03519816666666, "name": "cd7835d1ef06faba20b6a873854c013b"}, {"bike_id": "5f92a13fe9dbf4bc1e4e3abf4125a4f1", "type": "electric_scooter", "is_disabled": 0, "lat": 38.931353, "rental_uris": {"ios": "https://dc.lft.to/lastmile_qr_scan", "android": "https://dc.lft.to/lastmile_qr_scan"}, "is_reserved": 0, "fusion_lon": 0.0, "fusion_lat": 0.0, "lon": -77.05732066666667, "name": "5f92a13fe9dbf4bc1e4e3abf4125a4f1"}, {"bike_id": "c52bc5c4666c51d92e77b0945a0d2561", "type": "electric_scooter", "is_disabled": 0, "lat": 38.894844, "rental_uris": {"ios": "https://dc.lft.to/lastmile_qr_scan", "android": "https://dc.lft.to/lastmile_qr_scan"}, "is_reserved": 0, "fusion_lon": 0.0, "fusion_lat": 0.0, "lon": -76.99513516666667, "name": "c52bc5c4666c51d92e77b0945a0d2561"}, {"bike_id": "56b489432150d71ee77b7f5f2ac60bee", "type": "electric_scooter", "is_disabled": 0, "lat": 38.915444666666666, "rental_uris": {"ios": "https://dc.lft.to/lastmile_qr_scan", "android": "https://dc.lft.to/lastmile_qr_scan"}, "is_reserved": 0, "fusion_lon": 0.0, "fusion_lat": 0.0, "lon": -77.0384295, "name": "56b489432150d71ee77b7f5f2ac60bee"}, {"bike_id": "0a84866014eb7b3414fc86d7973cb135", "type": "electric_scooter", "is_disabled": 0, "lat": 38.913496, "rental_uris": {"ios": "https://dc.lft.to/lastmile_qr_scan", "android": "https://dc.lft.to/lastmile_qr_scan"}, "is_reserved": 0, "fusion_lon": 0.0, "fusion_lat": 0.0, "lon": -77.03210933333334, "name": "0a84866014eb7b3414fc86d7973cb135"}, {"bike_id": "0eba62931b8e61a4f5239104f991bed9", "type": "electric_scooter", "is_disabled": 0, "lat": 38.9226905, "rental_uris": {"ios": "https://dc.lft.to/lastmile_qr_scan", "android": "https://dc.lft.to/lastmile_qr_scan"}, "is_reserved": 0, "fusion_lon": 0.0, "fusion_lat": 0.0, "lon": -77.01883016666666, "name": "0eba62931b8e61a4f5239104f991bed9"}, {"bike_id": "a144b90878fa1177aee810ad5570f857", "type": "electric_scooter", "is_disabled": 0, "lat": 38.93369216666667, "rental_uris": {"ios": "https://dc.lft.to/lastmile_qr_scan", "android": "https://dc.lft.to/lastmile_qr_scan"}, "is_reserved": 0, "fusion_lon": 0.0, "fusion_lat": 0.0, "lon": -77.05736933333333, "name": "a144b90878fa1177aee810ad5570f857"}, {"bike_id": "dbdc76564caf3c2a76e06c547b5da586", "type": "electric_scooter", "is_disabled": 0, "lat": 38.94226616666667, "rental_uris": {"ios": "https://dc.lft.to/lastmile_qr_scan", "android": "https://dc.lft.to/lastmile_qr_scan"}, "is_reserved": 0, "fusion_lon": 0.0, "fusion_lat": 0.0, "lon": -77.01440933333333, "name": "dbdc76564caf3c2a76e06c547b5da586"}, {"bike_id": "fe8a9eec0d4fd54390d79dcd76c5314f", "type": "electric_scooter", "is_disabled": 0, "lat": 38.90054216666667, "rental_uris": {"ios": "https://dc.lft.to/lastmile_qr_scan", "android": "https://dc.lft.to/lastmile_qr_scan"}, "is_reserved": 0, "fusion_lon": 0.0, "fusion_lat": 0.0, "lon": -77.01746116666666, "name": "fe8a9eec0d4fd54390d79dcd76c5314f"}, {"bike_id": "9d7ccceac2d47216a6f4c4422f3b0330", "type": "electric_scooter", "is_disabled": 0, "lat": 38.861824, "rental_uris": {"ios": "https://dc.lft.to/lastmile_qr_scan", "android": "https://dc.lft.to/lastmile_qr_scan"}, "is_reserved": 0, "fusion_lon": 0.0, "fusion_lat": 0.0, "lon": -77.08854216666667, "name": "9d7ccceac2d47216a6f4c4422f3b0330"}, {"bike_id": "1eb3c37ba75efe9c6d7269821e4b75ba", "type": "electric_scooter", "is_disabled": 0, "lat": 38.935327, "rental_uris": {"ios": "https://dc.lft.to/lastmile_qr_scan", "android": "https://dc.lft.to/lastmile_qr_scan"}, "is_reserved": 0, "fusion_lon": 0.0, "fusion_lat": 0.0, "lon": -77.034076, "name": "1eb3c37ba75efe9c6d7269821e4b75ba"}, {"bike_id": "f9729fa8d507755ad726e6224285f9fa", "type": "electric_scooter", "is_disabled": 0, "lat": 38.888889, "rental_uris": {"ios": "https://dc.lft.to/lastmile_qr_scan", "android": "https://dc.lft.to/lastmile_qr_scan"}, "is_reserved": 0, "fusion_lon": 0.0, "fusion_lat": 0.0, "lon": -77.03325983333333, "name": "f9729fa8d507755ad726e6224285f9fa"}, {"bike_id": "1569571b9ffab5122d49d497d8572665", "type": "electric_scooter", "is_disabled": 0, "lat": 38.925973, "rental_uris": {"ios": "https://dc.lft.to/lastmile_qr_scan", "android": "https://dc.lft.to/lastmile_qr_scan"}, "is_reserved": 0, "fusion_lon": 0.0, "fusion_lat": 0.0, "lon": -77.0731455, "name": "1569571b9ffab5122d49d497d8572665"}, {"bike_id": "84f5e167b5b5aa54f4a28a97dd041689", "type": "electric_scooter", "is_disabled": 0, "lat": 38.91110183333333, "rental_uris": {"ios": "https://dc.lft.to/lastmile_qr_scan", "android": "https://dc.lft.to/lastmile_qr_scan"}, "is_reserved": 0, "fusion_lon": 0.0, "fusion_lat": 0.0, "lon": -77.03826366666667, "name": "84f5e167b5b5aa54f4a28a97dd041689"}, {"bike_id": "00073b52d8dc8d2bff03ac0ea9fdcdaf", "type": "electric_scooter", "is_disabled": 0, "lat": 38.92141383333333, "rental_uris": {"ios": "https://dc.lft.to/lastmile_qr_scan", "android": "https://dc.lft.to/lastmile_qr_scan"}, "is_reserved": 0, "fusion_lon": 0.0, "fusion_lat": 0.0, "lon": -77.0181385, "name": "00073b52d8dc8d2bff03ac0ea9fdcdaf"}, {"bike_id": "52652d448554f26642bc276e6a546db4", "type": "electric_scooter", "is_disabled": 0, "lat": 38.92865833333333, "rental_uris": {"ios": "https://dc.lft.to/lastmile_qr_scan", "android": "https://dc.lft.to/lastmile_qr_scan"}, "is_reserved": 0, "fusion_lon": 0.0, "fusion_lat": 0.0, "lon": -77.02173266666667, "name": "52652d448554f26642bc276e6a546db4"}, {"bike_id": "dce6789fb9e81c18acbfb683b26d4b7a", "type": "electric_scooter", "is_disabled": 0, "lat": 38.916265333333335, "rental_uris": {"ios": "https://dc.lft.to/lastmile_qr_scan", "android": "https://dc.lft.to/lastmile_qr_scan"}, "is_reserved": 0, "fusion_lon": 0.0, "fusion_lat": 0.0, "lon": -77.0254355, "name": "dce6789fb9e81c18acbfb683b26d4b7a"}, {"bike_id": "3b7af89990033a7ca0472e1d4350490e", "type": "electric_scooter", "is_disabled": 0, "lat": 38.88179983333333, "rental_uris": {"ios": "https://dc.lft.to/lastmile_qr_scan", "android": "https://dc.lft.to/lastmile_qr_scan"}, "is_reserved": 0, "fusion_lon": 0.0, "fusion_lat": 0.0, "lon": -77.0373565, "name": "3b7af89990033a7ca0472e1d4350490e"}, {"bike_id": "4fa370928d6262d8dcd23592a6a6113e", "type": "electric_scooter", "is_disabled": 0, "lat": 38.96443216666667, "rental_uris": {"ios": "https://dc.lft.to/lastmile_qr_scan", "android": "https://dc.lft.to/lastmile_qr_scan"}, "is_reserved": 0, "fusion_lon": 0.0, "fusion_lat": 0.0, "lon": -77.020596, "name": "4fa370928d6262d8dcd23592a6a6113e"}, {"bike_id": "677afb3a4cf7868cc67df6864ab83c7b", "type": "electric_scooter", "is_disabled": 0, "lat": 38.923659, "rental_uris": {"ios": "https://dc.lft.to/lastmile_qr_scan", "android": "https://dc.lft.to/lastmile_qr_scan"}, "is_reserved": 0, "fusion_lon": 0.0, "fusion_lat": 0.0, "lon": -77.03898066666666, "name": "677afb3a4cf7868cc67df6864ab83c7b"}, {"bike_id": "3298127415a5ccd220f08c6dbeb35b45", "type": "electric_scooter", "is_disabled": 0, "lat": 38.95222033333334, "rental_uris": {"ios": "https://dc.lft.to/lastmile_qr_scan", "android": "https://dc.lft.to/lastmile_qr_scan"}, "is_reserved": 0, "fusion_lon": 0.0, "fusion_lat": 0.0, "lon": -77.07072666666667, "name": "3298127415a5ccd220f08c6dbeb35b45"}, {"bike_id": "62432fbff179bf8e14e291ef20ef2c93", "type": "electric_scooter", "is_disabled": 0, "lat": 38.898066, "rental_uris": {"ios": "https://dc.lft.to/lastmile_qr_scan", "android": "https://dc.lft.to/lastmile_qr_scan"}, "is_reserved": 0, "fusion_lon": 0.0, "fusion_lat": 0.0, "lon": -77.02211416666667, "name": "62432fbff179bf8e14e291ef20ef2c93"}, {"bike_id": "e6c07808806f1871240a3c6975177fd2", "type": "electric_scooter", "is_disabled": 0, "lat": 38.90187733333333, "rental_uris": {"ios": "https://dc.lft.to/lastmile_qr_scan", "android": "https://dc.lft.to/lastmile_qr_scan"}, "is_reserved": 0, "fusion_lon": 0.0, "fusion_lat": 0.0, "lon": -77.039303, "name": "e6c07808806f1871240a3c6975177fd2"}, {"bike_id": "72ac31ed7aa50b25be0338b1b0706680", "type": "electric_scooter", "is_disabled": 0, "lat": 38.91118933333333, "rental_uris": {"ios": "https://dc.lft.to/lastmile_qr_scan", "android": "https://dc.lft.to/lastmile_qr_scan"}, "is_reserved": 0, "fusion_lon": 0.0, "fusion_lat": 0.0, "lon": -77.04219133333334, "name": "72ac31ed7aa50b25be0338b1b0706680"}, {"bike_id": "9622f1c388d479e11578c8fb2e28e812", "type": "electric_scooter", "is_disabled": 0, "lat": 38.903801666666666, "rental_uris": {"ios": "https://dc.lft.to/lastmile_qr_scan", "android": "https://dc.lft.to/lastmile_qr_scan"}, "is_reserved": 0, "fusion_lon": 0.0, "fusion_lat": 0.0, "lon": -77.05338833333333, "name": "9622f1c388d479e11578c8fb2e28e812"}, {"bike_id": "ba825a066005e2ca5db11589b92c64a6", "type": "electric_scooter", "is_disabled": 0, "lat": 38.9174085, "rental_uris": {"ios": "https://dc.lft.to/lastmile_qr_scan", "android": "https://dc.lft.to/lastmile_qr_scan"}, "is_reserved": 0, "fusion_lon": 0.0, "fusion_lat": 0.0, "lon": -77.03188133333333, "name": "ba825a066005e2ca5db11589b92c64a6"}, {"bike_id": "26fea471917d18aeecd4a98bdcd8231a", "type": "electric_scooter", "is_disabled": 0, "lat": 38.92889866666667, "rental_uris": {"ios": "https://dc.lft.to/lastmile_qr_scan", "android": "https://dc.lft.to/lastmile_qr_scan"}, "is_reserved": 0, "fusion_lon": 0.0, "fusion_lat": 0.0, "lon": -77.03359833333333, "name": "26fea471917d18aeecd4a98bdcd8231a"}, {"bike_id": "8c4135679ed0889fb57dbf1c728bf02b", "type": "electric_bike", "is_disabled": 0, "lat": 38.857303333333334, "rental_uris": {"ios": "https://dc.lft.to/lastmile_qr_scan", "android": "https://dc.lft.to/lastmile_qr_scan"}, "is_reserved": 0, "fusion_lon": 0.0, "fusion_lat": 0.0, "lon": -77.07967866666667, "name": "8c4135679ed0889fb57dbf1c728bf02b"}, {"bike_id": "b37425409e1a4e9365d3b3c453bec797", "type": "electric_bike", "is_disabled": 0, "lat": 38.93688783333333, "rental_uris": {"ios": "https://dc.lft.to/lastmile_qr_scan", "android": "https://dc.lft.to/lastmile_qr_scan"}, "is_reserved": 0, "fusion_lon": 0.0, "fusion_lat": 0.0, "lon": -77.05640366666667, "name": "b37425409e1a4e9365d3b3c453bec797"}, {"bike_id": "1bb83ef6cbbf8728a1786f935e7b7b12", "type": "electric_scooter", "is_disabled": 0, "lat": 38.88067, "rental_uris": {"ios": "https://dc.lft.to/lastmile_qr_scan", "android": "https://dc.lft.to/lastmile_qr_scan"}, "is_reserved": 0, "fusion_lon": 0.0, "fusion_lat": 0.0, "lon": -77.02543833333333, "name": "1bb83ef6cbbf8728a1786f935e7b7b12"}, {"bike_id": "821d8d130dfe28b42e553f51e3ae7002", "type": "electric_scooter", "is_disabled": 0, "lat": 38.9171005, "rental_uris": {"ios": "https://dc.lft.to/lastmile_qr_scan", "android": "https://dc.lft.to/lastmile_qr_scan"}, "is_reserved": 0, "fusion_lon": 0.0, "fusion_lat": 0.0, "lon": -77.03150033333333, "name": "821d8d130dfe28b42e553f51e3ae7002"}, {"bike_id": "2db34f1a2d8fb55b6f5cffb304c0cb86", "type": "electric_scooter", "is_disabled": 0, "lat": 38.9346415, "rental_uris": {"ios": "https://dc.lft.to/lastmile_qr_scan", "android": "https://dc.lft.to/lastmile_qr_scan"}, "is_reserved": 0, "fusion_lon": 0.0, "fusion_lat": 0.0, "lon": -77.04534283333334, "name": "2db34f1a2d8fb55b6f5cffb304c0cb86"}, {"bike_id": "a4606ef7d6ce37378f8b0f2b33f1e979", "type": "electric_scooter", "is_disabled": 0, "lat": 38.899207833333335, "rental_uris": {"ios": "https://dc.lft.to/lastmile_qr_scan", "android": "https://dc.lft.to/lastmile_qr_scan"}, "is_reserved": 0, "fusion_lon": 0.0, "fusion_lat": 0.0, "lon": -76.933633, "name": "a4606ef7d6ce37378f8b0f2b33f1e979"}, {"bike_id": "389cba4160489078b180495f9dbd28e4", "type": "electric_scooter", "is_disabled": 0, "lat": 38.9199345, "rental_uris": {"ios": "https://dc.lft.to/lastmile_qr_scan", "android": "https://dc.lft.to/lastmile_qr_scan"}, "is_reserved": 0, "fusion_lon": 0.0, "fusion_lat": 0.0, "lon": -77.01779016666667, "name": "389cba4160489078b180495f9dbd28e4"}, {"bike_id": "f0ded84517aaca8e061c69900004c408", "type": "electric_scooter", "is_disabled": 0, "lat": 38.902047833333334, "rental_uris": {"ios": "https://dc.lft.to/lastmile_qr_scan", "android": "https://dc.lft.to/lastmile_qr_scan"}, "is_reserved": 0, "fusion_lon": 0.0, "fusion_lat": 0.0, "lon": -77.041052, "name": "f0ded84517aaca8e061c69900004c408"}, {"bike_id": "1c660e1a30abb95150412b4412666455", "type": "electric_scooter", "is_disabled": 0, "lat": 38.90877783333333, "rental_uris": {"ios": "https://dc.lft.to/lastmile_qr_scan", "android": "https://dc.lft.to/lastmile_qr_scan"}, "is_reserved": 0, "fusion_lon": 0.0, "fusion_lat": 0.0, "lon": -77.02222383333333, "name": "1c660e1a30abb95150412b4412666455"}, {"bike_id": "f739f1c5605a153c26d8f9a56a1620ad", "type": "electric_scooter", "is_disabled": 0, "lat": 38.90241866666667, "rental_uris": {"ios": "https://dc.lft.to/lastmile_qr_scan", "android": "https://dc.lft.to/lastmile_qr_scan"}, "is_reserved": 0, "fusion_lon": 0.0, "fusion_lat": 0.0, "lon": -77.00195666666667, "name": "f739f1c5605a153c26d8f9a56a1620ad"}, {"bike_id": "21202c041b1a8a92854dd950c053d645", "type": "electric_scooter", "is_disabled": 0, "lat": 38.906267666666665, "rental_uris": {"ios": "https://dc.lft.to/lastmile_qr_scan", "android": "https://dc.lft.to/lastmile_qr_scan"}, "is_reserved": 0, "fusion_lon": 0.0, "fusion_lat": 0.0, "lon": -77.05558166666667, "name": "21202c041b1a8a92854dd950c053d645"}, {"bike_id": "23f8b21755f8d6a01895912bf8328650", "type": "electric_scooter", "is_disabled": 0, "lat": 38.87690516666667, "rental_uris": {"ios": "https://dc.lft.to/lastmile_qr_scan", "android": "https://dc.lft.to/lastmile_qr_scan"}, "is_reserved": 0, "fusion_lon": 0.0, "fusion_lat": 0.0, "lon": -77.0165585, "name": "23f8b21755f8d6a01895912bf8328650"}, {"bike_id": "24312400d27902146d5729da69cf1fa6", "type": "electric_scooter", "is_disabled": 0, "lat": 38.9097845, "rental_uris": {"ios": "https://dc.lft.to/lastmile_qr_scan", "android": "https://dc.lft.to/lastmile_qr_scan"}, "is_reserved": 0, "fusion_lon": 0.0, "fusion_lat": 0.0, "lon": -77.01507733333334, "name": "24312400d27902146d5729da69cf1fa6"}, {"bike_id": "fb7969f6f12f122c1707b6c5a13557b0", "type": "electric_scooter", "is_disabled": 0, "lat": 38.92488483333333, "rental_uris": {"ios": "https://dc.lft.to/lastmile_qr_scan", "android": "https://dc.lft.to/lastmile_qr_scan"}, "is_reserved": 0, "fusion_lon": 0.0, "fusion_lat": 0.0, "lon": -77.05210516666666, "name": "fb7969f6f12f122c1707b6c5a13557b0"}, {"bike_id": "5dfac6693f2dda81512aa021b3bafb5e", "type": "electric_scooter", "is_disabled": 0, "lat": 38.965065, "rental_uris": {"ios": "https://dc.lft.to/lastmile_qr_scan", "android": "https://dc.lft.to/lastmile_qr_scan"}, "is_reserved": 0, "fusion_lon": 0.0, "fusion_lat": 0.0, "lon": -77.0020535, "name": "5dfac6693f2dda81512aa021b3bafb5e"}, {"bike_id": "8ce597c7a29ea4db6d9e0c24e9b92e71", "type": "electric_scooter", "is_disabled": 0, "lat": 38.9094925, "rental_uris": {"ios": "https://dc.lft.to/lastmile_qr_scan", "android": "https://dc.lft.to/lastmile_qr_scan"}, "is_reserved": 0, "fusion_lon": 0.0, "fusion_lat": 0.0, "lon": -77.05565466666667, "name": "8ce597c7a29ea4db6d9e0c24e9b92e71"}, {"bike_id": "f659366907cacb0f14f48fdb187006bd", "type": "electric_scooter", "is_disabled": 0, "lat": 38.91100633333333, "rental_uris": {"ios": "https://dc.lft.to/lastmile_qr_scan", "android": "https://dc.lft.to/lastmile_qr_scan"}, "is_reserved": 0, "fusion_lon": 0.0, "fusion_lat": 0.0, "lon": -77.01148866666666, "name": "f659366907cacb0f14f48fdb187006bd"}, {"bike_id": "6bc3a62aec8a07d5d63f73b47af9a218", "type": "electric_scooter", "is_disabled": 0, "lat": 38.84433666666666, "rental_uris": {"ios": "https://dc.lft.to/lastmile_qr_scan", "android": "https://dc.lft.to/lastmile_qr_scan"}, "is_reserved": 0, "fusion_lon": 0.0, "fusion_lat": 0.0, "lon": -76.998687, "name": "6bc3a62aec8a07d5d63f73b47af9a218"}, {"bike_id": "df8178843b47ddce06b6da0b9aad4284", "type": "electric_scooter", "is_disabled": 0, "lat": 38.93399766666667, "rental_uris": {"ios": "https://dc.lft.to/lastmile_qr_scan", "android": "https://dc.lft.to/lastmile_qr_scan"}, "is_reserved": 0, "fusion_lon": 0.0, "fusion_lat": 0.0, "lon": -77.03520283333333, "name": "df8178843b47ddce06b6da0b9aad4284"}, {"bike_id": "cad01c488cde41c9505056f4d5e428b7", "type": "electric_scooter", "is_disabled": 0, "lat": 38.906997, "rental_uris": {"ios": "https://dc.lft.to/lastmile_qr_scan", "android": "https://dc.lft.to/lastmile_qr_scan"}, "is_reserved": 0, "fusion_lon": 0.0, "fusion_lat": 0.0, "lon": -77.0418135, "name": "cad01c488cde41c9505056f4d5e428b7"}, {"bike_id": "d2bf49d5129256e1c58ded209ce04af3", "type": "electric_scooter", "is_disabled": 0, "lat": 38.908350166666665, "rental_uris": {"ios": "https://dc.lft.to/lastmile_qr_scan", "android": "https://dc.lft.to/lastmile_qr_scan"}, "is_reserved": 0, "fusion_lon": 0.0, "fusion_lat": 0.0, "lon": -77.01974633333333, "name": "d2bf49d5129256e1c58ded209ce04af3"}, {"bike_id": "fab7c03f9f1d8892c147362688eecd99", "type": "electric_scooter", "is_disabled": 0, "lat": 38.9172505, "rental_uris": {"ios": "https://dc.lft.to/lastmile_qr_scan", "android": "https://dc.lft.to/lastmile_qr_scan"}, "is_reserved": 0, "fusion_lon": 0.0, "fusion_lat": 0.0, "lon": -77.03660566666667, "name": "fab7c03f9f1d8892c147362688eecd99"}, {"bike_id": "c7b6a7b18594f8e692709684eda8d552", "type": "electric_scooter", "is_disabled": 0, "lat": 38.93846033333333, "rental_uris": {"ios": "https://dc.lft.to/lastmile_qr_scan", "android": "https://dc.lft.to/lastmile_qr_scan"}, "is_reserved": 0, "fusion_lon": 0.0, "fusion_lat": 0.0, "lon": -77.0722975, "name": "c7b6a7b18594f8e692709684eda8d552"}, {"bike_id": "2264835307365a7c44634a9d941ab81e", "type": "electric_bike", "is_disabled": 0, "lat": 38.874807, "rental_uris": {"ios": "https://dc.lft.to/lastmile_qr_scan", "android": "https://dc.lft.to/lastmile_qr_scan"}, "is_reserved": 0, "fusion_lon": 0.0, "fusion_lat": 0.0, "lon": -76.9652285, "name": "2264835307365a7c44634a9d941ab81e"}, {"bike_id": "648fb72c570d0d79d6796c6c5a8efb55", "type": "electric_scooter", "is_disabled": 0, "lat": 38.9224015, "rental_uris": {"ios": "https://dc.lft.to/lastmile_qr_scan", "android": "https://dc.lft.to/lastmile_qr_scan"}, "is_reserved": 0, "fusion_lon": 0.0, "fusion_lat": 0.0, "lon": -77.035203, "name": "648fb72c570d0d79d6796c6c5a8efb55"}, {"bike_id": "6307347a7586463c07643b744739d52b", "type": "electric_scooter", "is_disabled": 0, "lat": 38.9155425, "rental_uris": {"ios": "https://dc.lft.to/lastmile_qr_scan", "android": "https://dc.lft.to/lastmile_qr_scan"}, "is_reserved": 0, "fusion_lon": 0.0, "fusion_lat": 0.0, "lon": -77.04015, "name": "6307347a7586463c07643b744739d52b"}, {"bike_id": "0cc05e83cf790235350bb7bb76bc3cdb", "type": "electric_scooter", "is_disabled": 0, "lat": 38.956573666666664, "rental_uris": {"ios": "https://dc.lft.to/lastmile_qr_scan", "android": "https://dc.lft.to/lastmile_qr_scan"}, "is_reserved": 0, "fusion_lon": 0.0, "fusion_lat": 0.0, "lon": -77.01001916666667, "name": "0cc05e83cf790235350bb7bb76bc3cdb"}, {"bike_id": "66e8184263299256fc877a0485f811f2", "type": "electric_scooter", "is_disabled": 0, "lat": 38.901691666666665, "rental_uris": {"ios": "https://dc.lft.to/lastmile_qr_scan", "android": "https://dc.lft.to/lastmile_qr_scan"}, "is_reserved": 0, "fusion_lon": 0.0, "fusion_lat": 0.0, "lon": -76.93025683333333, "name": "66e8184263299256fc877a0485f811f2"}, {"bike_id": "3783118abf5e6169b43c93db50c2a591", "type": "electric_scooter", "is_disabled": 0, "lat": 38.916159, "rental_uris": {"ios": "https://dc.lft.to/lastmile_qr_scan", "android": "https://dc.lft.to/lastmile_qr_scan"}, "is_reserved": 0, "fusion_lon": 0.0, "fusion_lat": 0.0, "lon": -77.02160316666667, "name": "3783118abf5e6169b43c93db50c2a591"}, {"bike_id": "06856590f6811714b7a33f2750baa827", "type": "electric_scooter", "is_disabled": 0, "lat": 38.911038, "rental_uris": {"ios": "https://dc.lft.to/lastmile_qr_scan", "android": "https://dc.lft.to/lastmile_qr_scan"}, "is_reserved": 0, "fusion_lon": 0.0, "fusion_lat": 0.0, "lon": -77.038246, "name": "06856590f6811714b7a33f2750baa827"}, {"bike_id": "145f88f1fe3112c77ddd5a0ae9e9c612", "type": "electric_scooter", "is_disabled": 0, "lat": 38.91513, "rental_uris": {"ios": "https://dc.lft.to/lastmile_qr_scan", "android": "https://dc.lft.to/lastmile_qr_scan"}, "is_reserved": 0, "fusion_lon": 0.0, "fusion_lat": 0.0, "lon": -77.0176735, "name": "145f88f1fe3112c77ddd5a0ae9e9c612"}, {"bike_id": "fa79cbcc6cab32545bd1cdd28343a304", "type": "electric_scooter", "is_disabled": 0, "lat": 38.95637633333333, "rental_uris": {"ios": "https://dc.lft.to/lastmile_qr_scan", "android": "https://dc.lft.to/lastmile_qr_scan"}, "is_reserved": 0, "fusion_lon": 0.0, "fusion_lat": 0.0, "lon": -77.01147383333333, "name": "fa79cbcc6cab32545bd1cdd28343a304"}, {"bike_id": "c81ff471752cba627a431d07a75cc51e", "type": "electric_scooter", "is_disabled": 0, "lat": 38.88699966666667, "rental_uris": {"ios": "https://dc.lft.to/lastmile_qr_scan", "android": "https://dc.lft.to/lastmile_qr_scan"}, "is_reserved": 0, "fusion_lon": 0.0, "fusion_lat": 0.0, "lon": -76.99617, "name": "c81ff471752cba627a431d07a75cc51e"}, {"bike_id": "cba24df12f780445d57ad3b18a0b625b", "type": "electric_scooter", "is_disabled": 0, "lat": 38.932322, "rental_uris": {"ios": "https://dc.lft.to/lastmile_qr_scan", "android": "https://dc.lft.to/lastmile_qr_scan"}, "is_reserved": 0, "fusion_lon": 0.0, "fusion_lat": 0.0, "lon": -77.038738, "name": "cba24df12f780445d57ad3b18a0b625b"}, {"bike_id": "b7e9645820d0b85785d9569790d007d6", "type": "electric_scooter", "is_disabled": 0, "lat": 38.92436883333333, "rental_uris": {"ios": "https://dc.lft.to/lastmile_qr_scan", "android": "https://dc.lft.to/lastmile_qr_scan"}, "is_reserved": 0, "fusion_lon": 0.0, "fusion_lat": 0.0, "lon": -77.04248216666667, "name": "b7e9645820d0b85785d9569790d007d6"}, {"bike_id": "dff4bac8b48822a895cacbe1a809976e", "type": "electric_scooter", "is_disabled": 0, "lat": 38.8865455, "rental_uris": {"ios": "https://dc.lft.to/lastmile_qr_scan", "android": "https://dc.lft.to/lastmile_qr_scan"}, "is_reserved": 0, "fusion_lon": 0.0, "fusion_lat": 0.0, "lon": -77.0011185, "name": "dff4bac8b48822a895cacbe1a809976e"}, {"bike_id": "4c74819fb9088961ce564047050c090b", "type": "electric_bike", "is_disabled": 0, "lat": 38.81335966666666, "rental_uris": {"ios": "https://dc.lft.to/lastmile_qr_scan", "android": "https://dc.lft.to/lastmile_qr_scan"}, "is_reserved": 0, "fusion_lon": 0.0, "fusion_lat": 0.0, "lon": -77.05090516666667, "name": "4c74819fb9088961ce564047050c090b"}, {"bike_id": "ceb1577c28c00b531916ec405c898333", "type": "electric_scooter", "is_disabled": 0, "lat": 38.8873965, "rental_uris": {"ios": "https://dc.lft.to/lastmile_qr_scan", "android": "https://dc.lft.to/lastmile_qr_scan"}, "is_reserved": 0, "fusion_lon": 0.0, "fusion_lat": 0.0, "lon": -77.01529166666667, "name": "ceb1577c28c00b531916ec405c898333"}, {"bike_id": "8da2c4f75bdb7d3a12da2d85e0c6d9f4", "type": "electric_scooter", "is_disabled": 0, "lat": 38.90794233333333, "rental_uris": {"ios": "https://dc.lft.to/lastmile_qr_scan", "android": "https://dc.lft.to/lastmile_qr_scan"}, "is_reserved": 0, "fusion_lon": 0.0, "fusion_lat": 0.0, "lon": -77.03854016666666, "name": "8da2c4f75bdb7d3a12da2d85e0c6d9f4"}, {"bike_id": "753a813a8b0188bdf6db397cbf97a711", "type": "electric_scooter", "is_disabled": 0, "lat": 38.92534783333333, "rental_uris": {"ios": "https://dc.lft.to/lastmile_qr_scan", "android": "https://dc.lft.to/lastmile_qr_scan"}, "is_reserved": 0, "fusion_lon": 0.0, "fusion_lat": 0.0, "lon": -77.04272033333334, "name": "753a813a8b0188bdf6db397cbf97a711"}, {"bike_id": "c712486feedc240430e1073e421fde19", "type": "electric_scooter", "is_disabled": 0, "lat": 38.907148, "rental_uris": {"ios": "https://dc.lft.to/lastmile_qr_scan", "android": "https://dc.lft.to/lastmile_qr_scan"}, "is_reserved": 0, "fusion_lon": 0.0, "fusion_lat": 0.0, "lon": -77.031838, "name": "c712486feedc240430e1073e421fde19"}, {"bike_id": "7ef89c623a61e02e6e8ce753f76c5d7f", "type": "electric_bike", "is_disabled": 0, "lat": 38.875597166666665, "rental_uris": {"ios": "https://dc.lft.to/lastmile_qr_scan", "android": "https://dc.lft.to/lastmile_qr_scan"}, "is_reserved": 0, "fusion_lon": 0.0, "fusion_lat": 0.0, "lon": -76.96499, "name": "7ef89c623a61e02e6e8ce753f76c5d7f"}, {"bike_id": "6267bcf16908795781e00429b560dd8d", "type": "electric_scooter", "is_disabled": 0, "lat": 38.91933316666667, "rental_uris": {"ios": "https://dc.lft.to/lastmile_qr_scan", "android": "https://dc.lft.to/lastmile_qr_scan"}, "is_reserved": 0, "fusion_lon": 0.0, "fusion_lat": 0.0, "lon": -77.04484016666666, "name": "6267bcf16908795781e00429b560dd8d"}, {"bike_id": "2c2550fbcf94b1fa225b7d35f518334f", "type": "electric_scooter", "is_disabled": 0, "lat": 38.89842616666667, "rental_uris": {"ios": "https://dc.lft.to/lastmile_qr_scan", "android": "https://dc.lft.to/lastmile_qr_scan"}, "is_reserved": 0, "fusion_lon": 0.0, "fusion_lat": 0.0, "lon": -76.94628116666667, "name": "2c2550fbcf94b1fa225b7d35f518334f"}, {"bike_id": "d9d13924d686877257eb172a828c74af", "type": "electric_scooter", "is_disabled": 0, "lat": 38.90271383333334, "rental_uris": {"ios": "https://dc.lft.to/lastmile_qr_scan", "android": "https://dc.lft.to/lastmile_qr_scan"}, "is_reserved": 0, "fusion_lon": 0.0, "fusion_lat": 0.0, "lon": -77.05479616666666, "name": "d9d13924d686877257eb172a828c74af"}, {"bike_id": "4739d49a673abc82db4817dce8703d24", "type": "electric_scooter", "is_disabled": 0, "lat": 38.923478333333335, "rental_uris": {"ios": "https://dc.lft.to/lastmile_qr_scan", "android": "https://dc.lft.to/lastmile_qr_scan"}, "is_reserved": 0, "fusion_lon": 0.0, "fusion_lat": 0.0, "lon": -77.03346366666666, "name": "4739d49a673abc82db4817dce8703d24"}, {"bike_id": "021e659a387b03c2526b55db05802723", "type": "electric_scooter", "is_disabled": 0, "lat": 38.902825166666666, "rental_uris": {"ios": "https://dc.lft.to/lastmile_qr_scan", "android": "https://dc.lft.to/lastmile_qr_scan"}, "is_reserved": 0, "fusion_lon": 0.0, "fusion_lat": 0.0, "lon": -77.0161845, "name": "021e659a387b03c2526b55db05802723"}, {"bike_id": "a42a9fbde4e77bda6ffb6e138daee231", "type": "electric_scooter", "is_disabled": 0, "lat": 38.931871, "rental_uris": {"ios": "https://dc.lft.to/lastmile_qr_scan", "android": "https://dc.lft.to/lastmile_qr_scan"}, "is_reserved": 0, "fusion_lon": 0.0, "fusion_lat": 0.0, "lon": -77.025368, "name": "a42a9fbde4e77bda6ffb6e138daee231"}, {"bike_id": "a5288a0ea6a65ec3fbd53a7bd5b24fb8", "type": "electric_scooter", "is_disabled": 0, "lat": 38.8947805, "rental_uris": {"ios": "https://dc.lft.to/lastmile_qr_scan", "android": "https://dc.lft.to/lastmile_qr_scan"}, "is_reserved": 0, "fusion_lon": 0.0, "fusion_lat": 0.0, "lon": -76.94859216666667, "name": "a5288a0ea6a65ec3fbd53a7bd5b24fb8"}, {"bike_id": "e490db5cec2a64417ba4b23db56d3ad0", "type": "electric_scooter", "is_disabled": 0, "lat": 38.909532166666665, "rental_uris": {"ios": "https://dc.lft.to/lastmile_qr_scan", "android": "https://dc.lft.to/lastmile_qr_scan"}, "is_reserved": 0, "fusion_lon": 0.0, "fusion_lat": 0.0, "lon": -77.0271055, "name": "e490db5cec2a64417ba4b23db56d3ad0"}, {"bike_id": "d0384e2c9a609325941c8811b65de6a4", "type": "electric_scooter", "is_disabled": 0, "lat": 38.90769016666667, "rental_uris": {"ios": "https://dc.lft.to/lastmile_qr_scan", "android": "https://dc.lft.to/lastmile_qr_scan"}, "is_reserved": 0, "fusion_lon": 0.0, "fusion_lat": 0.0, "lon": -77.0715165, "name": "d0384e2c9a609325941c8811b65de6a4"}, {"bike_id": "19f3db998c7f2b49d4e9f2978d3c602d", "type": "electric_scooter", "is_disabled": 0, "lat": 38.896177333333334, "rental_uris": {"ios": "https://dc.lft.to/lastmile_qr_scan", "android": "https://dc.lft.to/lastmile_qr_scan"}, "is_reserved": 0, "fusion_lon": 0.0, "fusion_lat": 0.0, "lon": -76.98566616666666, "name": "19f3db998c7f2b49d4e9f2978d3c602d"}, {"bike_id": "761295b5df0c7afd4ca0cea8255e86f8", "type": "electric_scooter", "is_disabled": 0, "lat": 38.90730933333333, "rental_uris": {"ios": "https://dc.lft.to/lastmile_qr_scan", "android": "https://dc.lft.to/lastmile_qr_scan"}, "is_reserved": 0, "fusion_lon": 0.0, "fusion_lat": 0.0, "lon": -77.00935083333333, "name": "761295b5df0c7afd4ca0cea8255e86f8"}, {"bike_id": "5ccb19d1122726ff9fd51dda046120c4", "type": "electric_scooter", "is_disabled": 0, "lat": 38.909194666666664, "rental_uris": {"ios": "https://dc.lft.to/lastmile_qr_scan", "android": "https://dc.lft.to/lastmile_qr_scan"}, "is_reserved": 0, "fusion_lon": 0.0, "fusion_lat": 0.0, "lon": -77.0152655, "name": "5ccb19d1122726ff9fd51dda046120c4"}, {"bike_id": "aee4fd7204b3f677e35cdaae6fce6ea0", "type": "electric_scooter", "is_disabled": 0, "lat": 38.91182966666667, "rental_uris": {"ios": "https://dc.lft.to/lastmile_qr_scan", "android": "https://dc.lft.to/lastmile_qr_scan"}, "is_reserved": 0, "fusion_lon": 0.0, "fusion_lat": 0.0, "lon": -77.04027883333333, "name": "aee4fd7204b3f677e35cdaae6fce6ea0"}, {"bike_id": "196e4516ed7ec39a340351aaefaaf3a0", "type": "electric_scooter", "is_disabled": 0, "lat": 38.911439666666666, "rental_uris": {"ios": "https://dc.lft.to/lastmile_qr_scan", "android": "https://dc.lft.to/lastmile_qr_scan"}, "is_reserved": 0, "fusion_lon": 0.0, "fusion_lat": 0.0, "lon": -76.99013616666667, "name": "196e4516ed7ec39a340351aaefaaf3a0"}, {"bike_id": "3975f0de975f8bda4d5c17988afd187f", "type": "electric_scooter", "is_disabled": 0, "lat": 38.89507316666667, "rental_uris": {"ios": "https://dc.lft.to/lastmile_qr_scan", "android": "https://dc.lft.to/lastmile_qr_scan"}, "is_reserved": 0, "fusion_lon": 0.0, "fusion_lat": 0.0, "lon": -77.011485, "name": "3975f0de975f8bda4d5c17988afd187f"}, {"bike_id": "9702cf6e997dfca5c8fdec62406f50dc", "type": "electric_scooter", "is_disabled": 0, "lat": 38.953178666666666, "rental_uris": {"ios": "https://dc.lft.to/lastmile_qr_scan", "android": "https://dc.lft.to/lastmile_qr_scan"}, "is_reserved": 0, "fusion_lon": 0.0, "fusion_lat": 0.0, "lon": -77.06985533333334, "name": "9702cf6e997dfca5c8fdec62406f50dc"}, {"bike_id": "2c0d86dc4cc166b36e7267910dc51d40", "type": "electric_scooter", "is_disabled": 0, "lat": 38.93361016666667, "rental_uris": {"ios": "https://dc.lft.to/lastmile_qr_scan", "android": "https://dc.lft.to/lastmile_qr_scan"}, "is_reserved": 0, "fusion_lon": 0.0, "fusion_lat": 0.0, "lon": -77.0620125, "name": "2c0d86dc4cc166b36e7267910dc51d40"}, {"bike_id": "ba7ab795377c3b53e206abc8cae64252", "type": "electric_scooter", "is_disabled": 0, "lat": 38.936055, "rental_uris": {"ios": "https://dc.lft.to/lastmile_qr_scan", "android": "https://dc.lft.to/lastmile_qr_scan"}, "is_reserved": 0, "fusion_lon": 0.0, "fusion_lat": 0.0, "lon": -77.03815433333334, "name": "ba7ab795377c3b53e206abc8cae64252"}, {"bike_id": "cc91f37f1e52fad359f4d67d8235b412", "type": "electric_scooter", "is_disabled": 0, "lat": 38.938647333333336, "rental_uris": {"ios": "https://dc.lft.to/lastmile_qr_scan", "android": "https://dc.lft.to/lastmile_qr_scan"}, "is_reserved": 0, "fusion_lon": 0.0, "fusion_lat": 0.0, "lon": -77.0269725, "name": "cc91f37f1e52fad359f4d67d8235b412"}, {"bike_id": "e3406b48165ac4677fe3eaebdddaa596", "type": "electric_scooter", "is_disabled": 0, "lat": 38.9025255, "rental_uris": {"ios": "https://dc.lft.to/lastmile_qr_scan", "android": "https://dc.lft.to/lastmile_qr_scan"}, "is_reserved": 0, "fusion_lon": 0.0, "fusion_lat": 0.0, "lon": -77.026417, "name": "e3406b48165ac4677fe3eaebdddaa596"}, {"bike_id": "231ff9c2da7849d381a05acf721b1d0e", "type": "electric_scooter", "is_disabled": 0, "lat": 38.90736916666667, "rental_uris": {"ios": "https://dc.lft.to/lastmile_qr_scan", "android": "https://dc.lft.to/lastmile_qr_scan"}, "is_reserved": 0, "fusion_lon": 0.0, "fusion_lat": 0.0, "lon": -77.043287, "name": "231ff9c2da7849d381a05acf721b1d0e"}, {"bike_id": "aa768cce1728dc47e02674413779ff5e", "type": "electric_bike", "is_disabled": 0, "lat": 38.87297483333333, "rental_uris": {"ios": "https://dc.lft.to/lastmile_qr_scan", "android": "https://dc.lft.to/lastmile_qr_scan"}, "is_reserved": 0, "fusion_lon": 0.0, "fusion_lat": 0.0, "lon": -77.139265, "name": "aa768cce1728dc47e02674413779ff5e"}, {"bike_id": "d7d30f15c8f813157f4310654fdc544f", "type": "electric_scooter", "is_disabled": 0, "lat": 38.928726833333336, "rental_uris": {"ios": "https://dc.lft.to/lastmile_qr_scan", "android": "https://dc.lft.to/lastmile_qr_scan"}, "is_reserved": 0, "fusion_lon": 0.0, "fusion_lat": 0.0, "lon": -77.03418116666667, "name": "d7d30f15c8f813157f4310654fdc544f"}, {"bike_id": "db6c2e4d70c405ca35368370bcf5a32f", "type": "electric_scooter", "is_disabled": 0, "lat": 38.924300833333334, "rental_uris": {"ios": "https://dc.lft.to/lastmile_qr_scan", "android": "https://dc.lft.to/lastmile_qr_scan"}, "is_reserved": 0, "fusion_lon": 0.0, "fusion_lat": 0.0, "lon": -77.04247133333334, "name": "db6c2e4d70c405ca35368370bcf5a32f"}, {"bike_id": "e0019a49dcca3d7149458078434c6da5", "type": "electric_bike", "is_disabled": 0, "lat": 38.831603, "rental_uris": {"ios": "https://dc.lft.to/lastmile_qr_scan", "android": "https://dc.lft.to/lastmile_qr_scan"}, "is_reserved": 0, "fusion_lon": 0.0, "fusion_lat": 0.0, "lon": -76.99549983333333, "name": "e0019a49dcca3d7149458078434c6da5"}, {"bike_id": "b49887df5e37205baed5cead52101ed0", "type": "electric_scooter", "is_disabled": 0, "lat": 38.9023675, "rental_uris": {"ios": "https://dc.lft.to/lastmile_qr_scan", "android": "https://dc.lft.to/lastmile_qr_scan"}, "is_reserved": 0, "fusion_lon": 0.0, "fusion_lat": 0.0, "lon": -77.01820366666666, "name": "b49887df5e37205baed5cead52101ed0"}, {"bike_id": "8eef29b7707084bb0e1b243558b5f60a", "type": "electric_scooter", "is_disabled": 0, "lat": 38.897342333333334, "rental_uris": {"ios": "https://dc.lft.to/lastmile_qr_scan", "android": "https://dc.lft.to/lastmile_qr_scan"}, "is_reserved": 0, "fusion_lon": 0.0, "fusion_lat": 0.0, "lon": -77.02493583333333, "name": "8eef29b7707084bb0e1b243558b5f60a"}, {"bike_id": "833fe1515b965c3445a450475fdf759b", "type": "electric_scooter", "is_disabled": 0, "lat": 38.90067466666667, "rental_uris": {"ios": "https://dc.lft.to/lastmile_qr_scan", "android": "https://dc.lft.to/lastmile_qr_scan"}, "is_reserved": 0, "fusion_lon": 0.0, "fusion_lat": 0.0, "lon": -77.03095716666667, "name": "833fe1515b965c3445a450475fdf759b"}, {"bike_id": "270df8c0b043d048f2550e7977e2882f", "type": "electric_scooter", "is_disabled": 0, "lat": 38.9134965, "rental_uris": {"ios": "https://dc.lft.to/lastmile_qr_scan", "android": "https://dc.lft.to/lastmile_qr_scan"}, "is_reserved": 0, "fusion_lon": 0.0, "fusion_lat": 0.0, "lon": -77.00886633333333, "name": "270df8c0b043d048f2550e7977e2882f"}, {"bike_id": "4369692a33c20131554e2b15c298b4fe", "type": "electric_scooter", "is_disabled": 0, "lat": 38.915554, "rental_uris": {"ios": "https://dc.lft.to/lastmile_qr_scan", "android": "https://dc.lft.to/lastmile_qr_scan"}, "is_reserved": 0, "fusion_lon": 0.0, "fusion_lat": 0.0, "lon": -77.0311425, "name": "4369692a33c20131554e2b15c298b4fe"}, {"bike_id": "b0fdf3adea28e2697da4532f892f29e6", "type": "electric_scooter", "is_disabled": 0, "lat": 38.920352, "rental_uris": {"ios": "https://dc.lft.to/lastmile_qr_scan", "android": "https://dc.lft.to/lastmile_qr_scan"}, "is_reserved": 0, "fusion_lon": 0.0, "fusion_lat": 0.0, "lon": -77.03410816666667, "name": "b0fdf3adea28e2697da4532f892f29e6"}, {"bike_id": "4013c5ee08f406a14b5fd94b2032dbea", "type": "electric_scooter", "is_disabled": 0, "lat": 38.90721516666667, "rental_uris": {"ios": "https://dc.lft.to/lastmile_qr_scan", "android": "https://dc.lft.to/lastmile_qr_scan"}, "is_reserved": 0, "fusion_lon": 0.0, "fusion_lat": 0.0, "lon": -77.04341183333334, "name": "4013c5ee08f406a14b5fd94b2032dbea"}, {"bike_id": "fbd911594b93195ab760ff9395a0d737", "type": "electric_scooter", "is_disabled": 0, "lat": 38.90963566666667, "rental_uris": {"ios": "https://dc.lft.to/lastmile_qr_scan", "android": "https://dc.lft.to/lastmile_qr_scan"}, "is_reserved": 0, "fusion_lon": 0.0, "fusion_lat": 0.0, "lon": -77.04537183333333, "name": "fbd911594b93195ab760ff9395a0d737"}, {"bike_id": "37f925f9709cfcc5aa2040ada3d62f03", "type": "electric_scooter", "is_disabled": 0, "lat": 38.923625666666666, "rental_uris": {"ios": "https://dc.lft.to/lastmile_qr_scan", "android": "https://dc.lft.to/lastmile_qr_scan"}, "is_reserved": 0, "fusion_lon": 0.0, "fusion_lat": 0.0, "lon": -77.0503445, "name": "37f925f9709cfcc5aa2040ada3d62f03"}, {"bike_id": "63849c348ec636ea1fef69957bd74bb9", "type": "electric_scooter", "is_disabled": 0, "lat": 38.9114685, "rental_uris": {"ios": "https://dc.lft.to/lastmile_qr_scan", "android": "https://dc.lft.to/lastmile_qr_scan"}, "is_reserved": 0, "fusion_lon": 0.0, "fusion_lat": 0.0, "lon": -77.02945866666667, "name": "63849c348ec636ea1fef69957bd74bb9"}, {"bike_id": "6904cad6e61a196181034c044c54abde", "type": "electric_scooter", "is_disabled": 0, "lat": 38.8985835, "rental_uris": {"ios": "https://dc.lft.to/lastmile_qr_scan", "android": "https://dc.lft.to/lastmile_qr_scan"}, "is_reserved": 0, "fusion_lon": 0.0, "fusion_lat": 0.0, "lon": -77.02215733333334, "name": "6904cad6e61a196181034c044c54abde"}, {"bike_id": "7b586b3c9a0e84dc16f9866c93dbaa07", "type": "electric_scooter", "is_disabled": 0, "lat": 38.92783583333333, "rental_uris": {"ios": "https://dc.lft.to/lastmile_qr_scan", "android": "https://dc.lft.to/lastmile_qr_scan"}, "is_reserved": 0, "fusion_lon": 0.0, "fusion_lat": 0.0, "lon": -77.04314366666667, "name": "7b586b3c9a0e84dc16f9866c93dbaa07"}, {"bike_id": "dfb3cb941a80921688c38d7663f8a207", "type": "electric_bike", "is_disabled": 0, "lat": 38.8974325, "rental_uris": {"ios": "https://dc.lft.to/lastmile_qr_scan", "android": "https://dc.lft.to/lastmile_qr_scan"}, "is_reserved": 0, "fusion_lon": 0.0, "fusion_lat": 0.0, "lon": -76.92045133333333, "name": "dfb3cb941a80921688c38d7663f8a207"}, {"bike_id": "e30090a6db3e43a97a08aef116240564", "type": "electric_scooter", "is_disabled": 0, "lat": 38.92190466666667, "rental_uris": {"ios": "https://dc.lft.to/lastmile_qr_scan", "android": "https://dc.lft.to/lastmile_qr_scan"}, "is_reserved": 0, "fusion_lon": 0.0, "fusion_lat": 0.0, "lon": -77.01966966666667, "name": "e30090a6db3e43a97a08aef116240564"}, {"bike_id": "b5a803e78dc48b939457dd070a11a952", "type": "electric_scooter", "is_disabled": 0, "lat": 38.9047985, "rental_uris": {"ios": "https://dc.lft.to/lastmile_qr_scan", "android": "https://dc.lft.to/lastmile_qr_scan"}, "is_reserved": 0, "fusion_lon": 0.0, "fusion_lat": 0.0, "lon": -77.02697816666667, "name": "b5a803e78dc48b939457dd070a11a952"}, {"bike_id": "f58d4de4a7266b6364e07a88845dd5bb", "type": "electric_scooter", "is_disabled": 0, "lat": 38.8984435, "rental_uris": {"ios": "https://dc.lft.to/lastmile_qr_scan", "android": "https://dc.lft.to/lastmile_qr_scan"}, "is_reserved": 0, "fusion_lon": 0.0, "fusion_lat": 0.0, "lon": -77.04656983333334, "name": "f58d4de4a7266b6364e07a88845dd5bb"}, {"bike_id": "b98bba04738e6d03f045900a0e5edfa9", "type": "electric_scooter", "is_disabled": 0, "lat": 38.96419683333333, "rental_uris": {"ios": "https://dc.lft.to/lastmile_qr_scan", "android": "https://dc.lft.to/lastmile_qr_scan"}, "is_reserved": 0, "fusion_lon": 0.0, "fusion_lat": 0.0, "lon": -77.02425933333333, "name": "b98bba04738e6d03f045900a0e5edfa9"}, {"bike_id": "41e1471a7b0fc9343bb6600257585b52", "type": "electric_scooter", "is_disabled": 0, "lat": 38.89711633333334, "rental_uris": {"ios": "https://dc.lft.to/lastmile_qr_scan", "android": "https://dc.lft.to/lastmile_qr_scan"}, "is_reserved": 0, "fusion_lon": 0.0, "fusion_lat": 0.0, "lon": -77.024245, "name": "41e1471a7b0fc9343bb6600257585b52"}, {"bike_id": "60f86b86ee1e13b82ac67cfe6fc1624e", "type": "electric_scooter", "is_disabled": 0, "lat": 38.924513166666664, "rental_uris": {"ios": "https://dc.lft.to/lastmile_qr_scan", "android": "https://dc.lft.to/lastmile_qr_scan"}, "is_reserved": 0, "fusion_lon": 0.0, "fusion_lat": 0.0, "lon": -77.04200366666667, "name": "60f86b86ee1e13b82ac67cfe6fc1624e"}, {"bike_id": "c6acb253b39aca24f530d19e34ee4ae6", "type": "electric_scooter", "is_disabled": 0, "lat": 38.9222035, "rental_uris": {"ios": "https://dc.lft.to/lastmile_qr_scan", "android": "https://dc.lft.to/lastmile_qr_scan"}, "is_reserved": 0, "fusion_lon": 0.0, "fusion_lat": 0.0, "lon": -77.032854, "name": "c6acb253b39aca24f530d19e34ee4ae6"}, {"bike_id": "d5889550f4a37760a6ab056757274ef1", "type": "electric_scooter", "is_disabled": 0, "lat": 38.918201, "rental_uris": {"ios": "https://dc.lft.to/lastmile_qr_scan", "android": "https://dc.lft.to/lastmile_qr_scan"}, "is_reserved": 0, "fusion_lon": 0.0, "fusion_lat": 0.0, "lon": -77.04943433333334, "name": "d5889550f4a37760a6ab056757274ef1"}, {"bike_id": "40e24ffd268f6d6c6264472b10a9e34a", "type": "electric_scooter", "is_disabled": 0, "lat": 38.9112215, "rental_uris": {"ios": "https://dc.lft.to/lastmile_qr_scan", "android": "https://dc.lft.to/lastmile_qr_scan"}, "is_reserved": 0, "fusion_lon": 0.0, "fusion_lat": 0.0, "lon": -77.04460716666667, "name": "40e24ffd268f6d6c6264472b10a9e34a"}, {"bike_id": "a7bad874fdfdac2e102eab3bbdf2b29e", "type": "electric_scooter", "is_disabled": 0, "lat": 38.915682833333335, "rental_uris": {"ios": "https://dc.lft.to/lastmile_qr_scan", "android": "https://dc.lft.to/lastmile_qr_scan"}, "is_reserved": 0, "fusion_lon": 0.0, "fusion_lat": 0.0, "lon": -77.04459166666666, "name": "a7bad874fdfdac2e102eab3bbdf2b29e"}, {"bike_id": "3e61fc55b4aa4d9e218144904fc1560d", "type": "electric_scooter", "is_disabled": 0, "lat": 38.91419066666667, "rental_uris": {"ios": "https://dc.lft.to/lastmile_qr_scan", "android": "https://dc.lft.to/lastmile_qr_scan"}, "is_reserved": 0, "fusion_lon": 0.0, "fusion_lat": 0.0, "lon": -77.022033, "name": "3e61fc55b4aa4d9e218144904fc1560d"}, {"bike_id": "350207050fb3bee074fdd54428afbcc2", "type": "electric_scooter", "is_disabled": 0, "lat": 38.91797116666667, "rental_uris": {"ios": "https://dc.lft.to/lastmile_qr_scan", "android": "https://dc.lft.to/lastmile_qr_scan"}, "is_reserved": 0, "fusion_lon": 0.0, "fusion_lat": 0.0, "lon": -77.027076, "name": "350207050fb3bee074fdd54428afbcc2"}, {"bike_id": "4e68a06e726d68d0fc84fde61ddc8d54", "type": "electric_scooter", "is_disabled": 0, "lat": 38.90037, "rental_uris": {"ios": "https://dc.lft.to/lastmile_qr_scan", "android": "https://dc.lft.to/lastmile_qr_scan"}, "is_reserved": 0, "fusion_lon": 0.0, "fusion_lat": 0.0, "lon": -77.0366395, "name": "4e68a06e726d68d0fc84fde61ddc8d54"}, {"bike_id": "79e3c4e7bfe0a55d7a0d0890df33e3bd", "type": "electric_scooter", "is_disabled": 0, "lat": 38.909721833333336, "rental_uris": {"ios": "https://dc.lft.to/lastmile_qr_scan", "android": "https://dc.lft.to/lastmile_qr_scan"}, "is_reserved": 0, "fusion_lon": 0.0, "fusion_lat": 0.0, "lon": -77.03447166666666, "name": "79e3c4e7bfe0a55d7a0d0890df33e3bd"}, {"bike_id": "218c12ca34f95f2f96a6492c47ee10c2", "type": "electric_scooter", "is_disabled": 0, "lat": 38.873922, "rental_uris": {"ios": "https://dc.lft.to/lastmile_qr_scan", "android": "https://dc.lft.to/lastmile_qr_scan"}, "is_reserved": 0, "fusion_lon": 0.0, "fusion_lat": 0.0, "lon": -77.04353083333334, "name": "218c12ca34f95f2f96a6492c47ee10c2"}, {"bike_id": "ca7fe2c6b0468604353866ac1542a08a", "type": "electric_scooter", "is_disabled": 0, "lat": 38.936704, "rental_uris": {"ios": "https://dc.lft.to/lastmile_qr_scan", "android": "https://dc.lft.to/lastmile_qr_scan"}, "is_reserved": 0, "fusion_lon": 0.0, "fusion_lat": 0.0, "lon": -77.0244715, "name": "ca7fe2c6b0468604353866ac1542a08a"}, {"bike_id": "7dab34a7a6319a3326e8285f4a75a395", "type": "electric_scooter", "is_disabled": 0, "lat": 38.9169455, "rental_uris": {"ios": "https://dc.lft.to/lastmile_qr_scan", "android": "https://dc.lft.to/lastmile_qr_scan"}, "is_reserved": 0, "fusion_lon": 0.0, "fusion_lat": 0.0, "lon": -77.04669516666667, "name": "7dab34a7a6319a3326e8285f4a75a395"}, {"bike_id": "59892396229336d018d610558862d8e5", "type": "electric_scooter", "is_disabled": 0, "lat": 38.893372, "rental_uris": {"ios": "https://dc.lft.to/lastmile_qr_scan", "android": "https://dc.lft.to/lastmile_qr_scan"}, "is_reserved": 0, "fusion_lon": 0.0, "fusion_lat": 0.0, "lon": -76.95054283333333, "name": "59892396229336d018d610558862d8e5"}, {"bike_id": "aedc813a936d0be738633ccfa1ba5211", "type": "electric_scooter", "is_disabled": 0, "lat": 38.9351505, "rental_uris": {"ios": "https://dc.lft.to/lastmile_qr_scan", "android": "https://dc.lft.to/lastmile_qr_scan"}, "is_reserved": 0, "fusion_lon": 0.0, "fusion_lat": 0.0, "lon": -77.03343433333333, "name": "aedc813a936d0be738633ccfa1ba5211"}, {"bike_id": "5f41a4de6821ce7e2349f437d2e9f870", "type": "electric_scooter", "is_disabled": 0, "lat": 38.92471466666667, "rental_uris": {"ios": "https://dc.lft.to/lastmile_qr_scan", "android": "https://dc.lft.to/lastmile_qr_scan"}, "is_reserved": 0, "fusion_lon": 0.0, "fusion_lat": 0.0, "lon": -77.052006, "name": "5f41a4de6821ce7e2349f437d2e9f870"}, {"bike_id": "f16365f422ddc4e28124b88450276ab6", "type": "electric_scooter", "is_disabled": 0, "lat": 38.90264283333333, "rental_uris": {"ios": "https://dc.lft.to/lastmile_qr_scan", "android": "https://dc.lft.to/lastmile_qr_scan"}, "is_reserved": 0, "fusion_lon": 0.0, "fusion_lat": 0.0, "lon": -77.03363016666667, "name": "f16365f422ddc4e28124b88450276ab6"}, {"bike_id": "bd469ae4b22dbd3edbf59f5e75ee78e8", "type": "electric_scooter", "is_disabled": 0, "lat": 38.90088266666667, "rental_uris": {"ios": "https://dc.lft.to/lastmile_qr_scan", "android": "https://dc.lft.to/lastmile_qr_scan"}, "is_reserved": 0, "fusion_lon": 0.0, "fusion_lat": 0.0, "lon": -76.98336433333333, "name": "bd469ae4b22dbd3edbf59f5e75ee78e8"}, {"bike_id": "c81332e908a7f743e7badac3ddd4c08d", "type": "electric_scooter", "is_disabled": 0, "lat": 38.91404, "rental_uris": {"ios": "https://dc.lft.to/lastmile_qr_scan", "android": "https://dc.lft.to/lastmile_qr_scan"}, "is_reserved": 0, "fusion_lon": 0.0, "fusion_lat": 0.0, "lon": -77.03226583333333, "name": "c81332e908a7f743e7badac3ddd4c08d"}, {"bike_id": "7e890ecdec84a17a069dfc3b2aa413ef", "type": "electric_scooter", "is_disabled": 0, "lat": 38.92480166666667, "rental_uris": {"ios": "https://dc.lft.to/lastmile_qr_scan", "android": "https://dc.lft.to/lastmile_qr_scan"}, "is_reserved": 0, "fusion_lon": 0.0, "fusion_lat": 0.0, "lon": -77.02640933333333, "name": "7e890ecdec84a17a069dfc3b2aa413ef"}, {"bike_id": "47e8045901c2de938d28542f908d6438", "type": "electric_scooter", "is_disabled": 0, "lat": 38.956281, "rental_uris": {"ios": "https://dc.lft.to/lastmile_qr_scan", "android": "https://dc.lft.to/lastmile_qr_scan"}, "is_reserved": 0, "fusion_lon": 0.0, "fusion_lat": 0.0, "lon": -77.03614266666666, "name": "47e8045901c2de938d28542f908d6438"}, {"bike_id": "9f67b23c1936d87279823d7c031b2265", "type": "electric_scooter", "is_disabled": 0, "lat": 38.905728, "rental_uris": {"ios": "https://dc.lft.to/lastmile_qr_scan", "android": "https://dc.lft.to/lastmile_qr_scan"}, "is_reserved": 0, "fusion_lon": 0.0, "fusion_lat": 0.0, "lon": -77.0269695, "name": "9f67b23c1936d87279823d7c031b2265"}, {"bike_id": "5bf51dd1c756b4c240d5db212ed73704", "type": "electric_scooter", "is_disabled": 0, "lat": 38.885332, "rental_uris": {"ios": "https://dc.lft.to/lastmile_qr_scan", "android": "https://dc.lft.to/lastmile_qr_scan"}, "is_reserved": 0, "fusion_lon": 0.0, "fusion_lat": 0.0, "lon": -76.998216, "name": "5bf51dd1c756b4c240d5db212ed73704"}, {"bike_id": "1b3b31550c1fc785f6e40a0bcacf3009", "type": "electric_scooter", "is_disabled": 0, "lat": 38.9012, "rental_uris": {"ios": "https://dc.lft.to/lastmile_qr_scan", "android": "https://dc.lft.to/lastmile_qr_scan"}, "is_reserved": 0, "fusion_lon": 0.0, "fusion_lat": 0.0, "lon": -76.92948916666667, "name": "1b3b31550c1fc785f6e40a0bcacf3009"}, {"bike_id": "d920eb9c24306b2d04e7fdd1b7f60ad7", "type": "electric_scooter", "is_disabled": 0, "lat": 38.923321666666666, "rental_uris": {"ios": "https://dc.lft.to/lastmile_qr_scan", "android": "https://dc.lft.to/lastmile_qr_scan"}, "is_reserved": 0, "fusion_lon": 0.0, "fusion_lat": 0.0, "lon": -77.03784733333333, "name": "d920eb9c24306b2d04e7fdd1b7f60ad7"}, {"bike_id": "d7de59e5a2d988de7e2acb9711411ecc", "type": "electric_bike", "is_disabled": 0, "lat": 38.974014, "rental_uris": {"ios": "https://dc.lft.to/lastmile_qr_scan", "android": "https://dc.lft.to/lastmile_qr_scan"}, "is_reserved": 0, "fusion_lon": 0.0, "fusion_lat": 0.0, "lon": -77.06448066666667, "name": "d7de59e5a2d988de7e2acb9711411ecc"}, {"bike_id": "bd5d59075dd52469bff4bac83a47faf1", "type": "electric_scooter", "is_disabled": 0, "lat": 38.89891, "rental_uris": {"ios": "https://dc.lft.to/lastmile_qr_scan", "android": "https://dc.lft.to/lastmile_qr_scan"}, "is_reserved": 0, "fusion_lon": 0.0, "fusion_lat": 0.0, "lon": -77.03913316666667, "name": "bd5d59075dd52469bff4bac83a47faf1"}, {"bike_id": "1a16b33833faa4a8abf51280a5eedcf9", "type": "electric_scooter", "is_disabled": 0, "lat": 38.91217816666666, "rental_uris": {"ios": "https://dc.lft.to/lastmile_qr_scan", "android": "https://dc.lft.to/lastmile_qr_scan"}, "is_reserved": 0, "fusion_lon": 0.0, "fusion_lat": 0.0, "lon": -77.031764, "name": "1a16b33833faa4a8abf51280a5eedcf9"}, {"bike_id": "558afb601447729acf65afcb8058eea5", "type": "electric_bike", "is_disabled": 0, "lat": 38.931798, "rental_uris": {"ios": "https://dc.lft.to/lastmile_qr_scan", "android": "https://dc.lft.to/lastmile_qr_scan"}, "is_reserved": 0, "fusion_lon": 0.0, "fusion_lat": 0.0, "lon": -77.03545566666666, "name": "558afb601447729acf65afcb8058eea5"}, {"bike_id": "875e954fff0f9ef9cfbc143f8bd480f7", "type": "electric_scooter", "is_disabled": 0, "lat": 38.902998833333335, "rental_uris": {"ios": "https://dc.lft.to/lastmile_qr_scan", "android": "https://dc.lft.to/lastmile_qr_scan"}, "is_reserved": 0, "fusion_lon": 0.0, "fusion_lat": 0.0, "lon": -77.0653575, "name": "875e954fff0f9ef9cfbc143f8bd480f7"}, {"bike_id": "afdb754cc6be5eba2b268d8e2dee3039", "type": "electric_bike", "is_disabled": 0, "lat": 39.050980333333335, "rental_uris": {"ios": "https://dc.lft.to/lastmile_qr_scan", "android": "https://dc.lft.to/lastmile_qr_scan"}, "is_reserved": 0, "fusion_lon": 0.0, "fusion_lat": 0.0, "lon": -77.1175695, "name": "afdb754cc6be5eba2b268d8e2dee3039"}, {"bike_id": "cc8ca5cc8645aa2d545d1b6ec757589e", "type": "electric_scooter", "is_disabled": 0, "lat": 38.9110615, "rental_uris": {"ios": "https://dc.lft.to/lastmile_qr_scan", "android": "https://dc.lft.to/lastmile_qr_scan"}, "is_reserved": 0, "fusion_lon": 0.0, "fusion_lat": 0.0, "lon": -77.02767, "name": "cc8ca5cc8645aa2d545d1b6ec757589e"}, {"bike_id": "493b18bd0667bc497c137c90a5955c0e", "type": "electric_bike", "is_disabled": 0, "lat": 38.96213566666667, "rental_uris": {"ios": "https://dc.lft.to/lastmile_qr_scan", "android": "https://dc.lft.to/lastmile_qr_scan"}, "is_reserved": 0, "fusion_lon": 0.0, "fusion_lat": 0.0, "lon": -77.02235466666667, "name": "493b18bd0667bc497c137c90a5955c0e"}, {"bike_id": "804a9b767c9efcd1d3dda6697018dcf5", "type": "electric_scooter", "is_disabled": 0, "lat": 38.91271583333333, "rental_uris": {"ios": "https://dc.lft.to/lastmile_qr_scan", "android": "https://dc.lft.to/lastmile_qr_scan"}, "is_reserved": 0, "fusion_lon": 0.0, "fusion_lat": 0.0, "lon": -77.0220695, "name": "804a9b767c9efcd1d3dda6697018dcf5"}, {"bike_id": "877872eea05e10eee7e8c8ac5db064d8", "type": "electric_scooter", "is_disabled": 0, "lat": 38.9331615, "rental_uris": {"ios": "https://dc.lft.to/lastmile_qr_scan", "android": "https://dc.lft.to/lastmile_qr_scan"}, "is_reserved": 0, "fusion_lon": 0.0, "fusion_lat": 0.0, "lon": -77.02754583333333, "name": "877872eea05e10eee7e8c8ac5db064d8"}, {"bike_id": "a3627ade09be616a6e1a89f8c8328078", "type": "electric_scooter", "is_disabled": 0, "lat": 38.905539, "rental_uris": {"ios": "https://dc.lft.to/lastmile_qr_scan", "android": "https://dc.lft.to/lastmile_qr_scan"}, "is_reserved": 0, "fusion_lon": 0.0, "fusion_lat": 0.0, "lon": -77.0462015, "name": "a3627ade09be616a6e1a89f8c8328078"}, {"bike_id": "a73792dedc89df771fab7f2c40ba2d0f", "type": "electric_scooter", "is_disabled": 0, "lat": 38.92234033333333, "rental_uris": {"ios": "https://dc.lft.to/lastmile_qr_scan", "android": "https://dc.lft.to/lastmile_qr_scan"}, "is_reserved": 0, "fusion_lon": 0.0, "fusion_lat": 0.0, "lon": -76.97530916666666, "name": "a73792dedc89df771fab7f2c40ba2d0f"}, {"bike_id": "2cbafa7b0af164a888eedd6fbcd0fe58", "type": "electric_scooter", "is_disabled": 0, "lat": 38.895118333333336, "rental_uris": {"ios": "https://dc.lft.to/lastmile_qr_scan", "android": "https://dc.lft.to/lastmile_qr_scan"}, "is_reserved": 0, "fusion_lon": 0.0, "fusion_lat": 0.0, "lon": -77.04337266666667, "name": "2cbafa7b0af164a888eedd6fbcd0fe58"}, {"bike_id": "5ea18c398865be4cd9ca4d8d67c4f862", "type": "electric_scooter", "is_disabled": 0, "lat": 38.903550333333335, "rental_uris": {"ios": "https://dc.lft.to/lastmile_qr_scan", "android": "https://dc.lft.to/lastmile_qr_scan"}, "is_reserved": 0, "fusion_lon": 0.0, "fusion_lat": 0.0, "lon": -76.99215316666667, "name": "5ea18c398865be4cd9ca4d8d67c4f862"}, {"bike_id": "e3488b94621969bcc8f4fad47190b12e", "type": "electric_scooter", "is_disabled": 0, "lat": 38.905005833333334, "rental_uris": {"ios": "https://dc.lft.to/lastmile_qr_scan", "android": "https://dc.lft.to/lastmile_qr_scan"}, "is_reserved": 0, "fusion_lon": 0.0, "fusion_lat": 0.0, "lon": -76.99955816666667, "name": "e3488b94621969bcc8f4fad47190b12e"}, {"bike_id": "e44ba99eea4c57ab4aee60921a7af94c", "type": "electric_bike", "is_disabled": 0, "lat": 38.965043, "rental_uris": {"ios": "https://dc.lft.to/lastmile_qr_scan", "android": "https://dc.lft.to/lastmile_qr_scan"}, "is_reserved": 0, "fusion_lon": 0.0, "fusion_lat": 0.0, "lon": -77.02826966666667, "name": "e44ba99eea4c57ab4aee60921a7af94c"}, {"bike_id": "b68f03810c87373b04fde2aa5ba38dba", "type": "electric_scooter", "is_disabled": 0, "lat": 38.9115695, "rental_uris": {"ios": "https://dc.lft.to/lastmile_qr_scan", "android": "https://dc.lft.to/lastmile_qr_scan"}, "is_reserved": 0, "fusion_lon": 0.0, "fusion_lat": 0.0, "lon": -77.01617233333333, "name": "b68f03810c87373b04fde2aa5ba38dba"}, {"bike_id": "e06cfdb5ec5ab1bc36c3d6f7fd9ff101", "type": "electric_scooter", "is_disabled": 0, "lat": 38.91111883333333, "rental_uris": {"ios": "https://dc.lft.to/lastmile_qr_scan", "android": "https://dc.lft.to/lastmile_qr_scan"}, "is_reserved": 0, "fusion_lon": 0.0, "fusion_lat": 0.0, "lon": -77.040042, "name": "e06cfdb5ec5ab1bc36c3d6f7fd9ff101"}, {"bike_id": "5cb5301f457bcac797ddde6c371df4b3", "type": "electric_scooter", "is_disabled": 0, "lat": 38.9126425, "rental_uris": {"ios": "https://dc.lft.to/lastmile_qr_scan", "android": "https://dc.lft.to/lastmile_qr_scan"}, "is_reserved": 0, "fusion_lon": 0.0, "fusion_lat": 0.0, "lon": -77.04704333333333, "name": "5cb5301f457bcac797ddde6c371df4b3"}, {"bike_id": "73c32c153f5f7d51798fb6e0a6fd5e0c", "type": "electric_scooter", "is_disabled": 0, "lat": 38.92942583333333, "rental_uris": {"ios": "https://dc.lft.to/lastmile_qr_scan", "android": "https://dc.lft.to/lastmile_qr_scan"}, "is_reserved": 0, "fusion_lon": 0.0, "fusion_lat": 0.0, "lon": -77.02315416666667, "name": "73c32c153f5f7d51798fb6e0a6fd5e0c"}, {"bike_id": "31dddc13fc948229b30aca8e2e717ca2", "type": "electric_bike", "is_disabled": 0, "lat": 38.878833, "rental_uris": {"ios": "https://dc.lft.to/lastmile_qr_scan", "android": "https://dc.lft.to/lastmile_qr_scan"}, "is_reserved": 0, "fusion_lon": 0.0, "fusion_lat": 0.0, "lon": -77.09612616666666, "name": "31dddc13fc948229b30aca8e2e717ca2"}, {"bike_id": "d7dc5f3335f24f88281d681e26cd44bb", "type": "electric_scooter", "is_disabled": 0, "lat": 38.967414833333336, "rental_uris": {"ios": "https://dc.lft.to/lastmile_qr_scan", "android": "https://dc.lft.to/lastmile_qr_scan"}, "is_reserved": 0, "fusion_lon": 0.0, "fusion_lat": 0.0, "lon": -77.05518366666666, "name": "d7dc5f3335f24f88281d681e26cd44bb"}, {"bike_id": "ece30d9680d74c81dc3e0f34a96c598c", "type": "electric_scooter", "is_disabled": 0, "lat": 38.9283765, "rental_uris": {"ios": "https://dc.lft.to/lastmile_qr_scan", "android": "https://dc.lft.to/lastmile_qr_scan"}, "is_reserved": 0, "fusion_lon": 0.0, "fusion_lat": 0.0, "lon": -77.02977616666666, "name": "ece30d9680d74c81dc3e0f34a96c598c"}, {"bike_id": "f79db4305205bc266501e4e2d9ceb9b6", "type": "electric_scooter", "is_disabled": 0, "lat": 38.91943366666667, "rental_uris": {"ios": "https://dc.lft.to/lastmile_qr_scan", "android": "https://dc.lft.to/lastmile_qr_scan"}, "is_reserved": 0, "fusion_lon": 0.0, "fusion_lat": 0.0, "lon": -77.044961, "name": "f79db4305205bc266501e4e2d9ceb9b6"}, {"bike_id": "907c6302d68188bbabb577494ff55fb3", "type": "electric_scooter", "is_disabled": 0, "lat": 38.877876666666666, "rental_uris": {"ios": "https://dc.lft.to/lastmile_qr_scan", "android": "https://dc.lft.to/lastmile_qr_scan"}, "is_reserved": 0, "fusion_lon": 0.0, "fusion_lat": 0.0, "lon": -77.00129633333333, "name": "907c6302d68188bbabb577494ff55fb3"}, {"bike_id": "264e1eef8f35f46c1753d3ce295cec2d", "type": "electric_scooter", "is_disabled": 0, "lat": 38.90568733333333, "rental_uris": {"ios": "https://dc.lft.to/lastmile_qr_scan", "android": "https://dc.lft.to/lastmile_qr_scan"}, "is_reserved": 0, "fusion_lon": 0.0, "fusion_lat": 0.0, "lon": -76.97778733333334, "name": "264e1eef8f35f46c1753d3ce295cec2d"}, {"bike_id": "9b7462ba782599b75550b2417e021a02", "type": "electric_scooter", "is_disabled": 0, "lat": 38.93994283333333, "rental_uris": {"ios": "https://dc.lft.to/lastmile_qr_scan", "android": "https://dc.lft.to/lastmile_qr_scan"}, "is_reserved": 0, "fusion_lon": 0.0, "fusion_lat": 0.0, "lon": -77.0168955, "name": "9b7462ba782599b75550b2417e021a02"}, {"bike_id": "f7edf089d53fa32f06f2e983c32a20ec", "type": "electric_scooter", "is_disabled": 0, "lat": 38.90257166666667, "rental_uris": {"ios": "https://dc.lft.to/lastmile_qr_scan", "android": "https://dc.lft.to/lastmile_qr_scan"}, "is_reserved": 0, "fusion_lon": 0.0, "fusion_lat": 0.0, "lon": -77.01750216666667, "name": "f7edf089d53fa32f06f2e983c32a20ec"}, {"bike_id": "6b24ca5855e2b1230466706085c95d3c", "type": "electric_bike", "is_disabled": 0, "lat": 39.05056, "rental_uris": {"ios": "https://dc.lft.to/lastmile_qr_scan", "android": "https://dc.lft.to/lastmile_qr_scan"}, "is_reserved": 0, "fusion_lon": 0.0, "fusion_lat": 0.0, "lon": -77.05145666666667, "name": "6b24ca5855e2b1230466706085c95d3c"}, {"bike_id": "37d16c1e8e864dfc6459c171eeea331e", "type": "electric_scooter", "is_disabled": 0, "lat": 38.91662516666667, "rental_uris": {"ios": "https://dc.lft.to/lastmile_qr_scan", "android": "https://dc.lft.to/lastmile_qr_scan"}, "is_reserved": 0, "fusion_lon": 0.0, "fusion_lat": 0.0, "lon": -77.03855, "name": "37d16c1e8e864dfc6459c171eeea331e"}, {"bike_id": "6f4089fb6e1834957e372340d3996e88", "type": "electric_scooter", "is_disabled": 0, "lat": 38.9189355, "rental_uris": {"ios": "https://dc.lft.to/lastmile_qr_scan", "android": "https://dc.lft.to/lastmile_qr_scan"}, "is_reserved": 0, "fusion_lon": 0.0, "fusion_lat": 0.0, "lon": -77.031883, "name": "6f4089fb6e1834957e372340d3996e88"}, {"bike_id": "0216b11ea66fdd14e8710f94de94c6e8", "type": "electric_scooter", "is_disabled": 0, "lat": 38.89568883333333, "rental_uris": {"ios": "https://dc.lft.to/lastmile_qr_scan", "android": "https://dc.lft.to/lastmile_qr_scan"}, "is_reserved": 0, "fusion_lon": 0.0, "fusion_lat": 0.0, "lon": -76.930236, "name": "0216b11ea66fdd14e8710f94de94c6e8"}, {"bike_id": "a82d648671d31fe06d75a57d56bd0be9", "type": "electric_scooter", "is_disabled": 0, "lat": 38.90411266666667, "rental_uris": {"ios": "https://dc.lft.to/lastmile_qr_scan", "android": "https://dc.lft.to/lastmile_qr_scan"}, "is_reserved": 0, "fusion_lon": 0.0, "fusion_lat": 0.0, "lon": -76.97331216666667, "name": "a82d648671d31fe06d75a57d56bd0be9"}, {"bike_id": "fe33c3448d2e194ad7a2a2ef9e77babf", "type": "electric_scooter", "is_disabled": 0, "lat": 38.91616833333333, "rental_uris": {"ios": "https://dc.lft.to/lastmile_qr_scan", "android": "https://dc.lft.to/lastmile_qr_scan"}, "is_reserved": 0, "fusion_lon": 0.0, "fusion_lat": 0.0, "lon": -77.02393666666667, "name": "fe33c3448d2e194ad7a2a2ef9e77babf"}, {"bike_id": "876fc419e18397c827374b6601513178", "type": "electric_bike", "is_disabled": 0, "lat": 38.8323705, "rental_uris": {"ios": "https://dc.lft.to/lastmile_qr_scan", "android": "https://dc.lft.to/lastmile_qr_scan"}, "is_reserved": 0, "fusion_lon": 0.0, "fusion_lat": 0.0, "lon": -76.94629866666666, "name": "876fc419e18397c827374b6601513178"}, {"bike_id": "fc0fce75e3141fb0c9a2f525894149dd", "type": "electric_scooter", "is_disabled": 0, "lat": 38.90356833333333, "rental_uris": {"ios": "https://dc.lft.to/lastmile_qr_scan", "android": "https://dc.lft.to/lastmile_qr_scan"}, "is_reserved": 0, "fusion_lon": 0.0, "fusion_lat": 0.0, "lon": -77.00755366666667, "name": "fc0fce75e3141fb0c9a2f525894149dd"}, {"bike_id": "930fafd6428666fe1e63f07218bdf469", "type": "electric_scooter", "is_disabled": 0, "lat": 38.93084483333333, "rental_uris": {"ios": "https://dc.lft.to/lastmile_qr_scan", "android": "https://dc.lft.to/lastmile_qr_scan"}, "is_reserved": 0, "fusion_lon": 0.0, "fusion_lat": 0.0, "lon": -77.03658216666666, "name": "930fafd6428666fe1e63f07218bdf469"}, {"bike_id": "2afa494ef5f3ddfe9c233d53b1f3a510", "type": "electric_scooter", "is_disabled": 0, "lat": 38.92117733333333, "rental_uris": {"ios": "https://dc.lft.to/lastmile_qr_scan", "android": "https://dc.lft.to/lastmile_qr_scan"}, "is_reserved": 0, "fusion_lon": 0.0, "fusion_lat": 0.0, "lon": -77.012072, "name": "2afa494ef5f3ddfe9c233d53b1f3a510"}, {"bike_id": "cd11ec7a8681a6133e63857e42b3eb5f", "type": "electric_scooter", "is_disabled": 0, "lat": 38.915618333333335, "rental_uris": {"ios": "https://dc.lft.to/lastmile_qr_scan", "android": "https://dc.lft.to/lastmile_qr_scan"}, "is_reserved": 0, "fusion_lon": 0.0, "fusion_lat": 0.0, "lon": -77.00981316666666, "name": "cd11ec7a8681a6133e63857e42b3eb5f"}, {"bike_id": "63a3ec68406cde05addf29bbb14713b6", "type": "electric_scooter", "is_disabled": 0, "lat": 38.877553, "rental_uris": {"ios": "https://dc.lft.to/lastmile_qr_scan", "android": "https://dc.lft.to/lastmile_qr_scan"}, "is_reserved": 0, "fusion_lon": 0.0, "fusion_lat": 0.0, "lon": -76.986819, "name": "63a3ec68406cde05addf29bbb14713b6"}, {"bike_id": "25d653e7dbe1153ed1465516729b6c11", "type": "electric_scooter", "is_disabled": 0, "lat": 38.91677966666666, "rental_uris": {"ios": "https://dc.lft.to/lastmile_qr_scan", "android": "https://dc.lft.to/lastmile_qr_scan"}, "is_reserved": 0, "fusion_lon": 0.0, "fusion_lat": 0.0, "lon": -77.03678366666666, "name": "25d653e7dbe1153ed1465516729b6c11"}, {"bike_id": "f32991aa4127bb9c1cd3cb34ab08d6cd", "type": "electric_scooter", "is_disabled": 0, "lat": 38.93089666666667, "rental_uris": {"ios": "https://dc.lft.to/lastmile_qr_scan", "android": "https://dc.lft.to/lastmile_qr_scan"}, "is_reserved": 0, "fusion_lon": 0.0, "fusion_lat": 0.0, "lon": -77.03716916666667, "name": "f32991aa4127bb9c1cd3cb34ab08d6cd"}, {"bike_id": "7bb52fcc42ce56047ef21fc39dff851b", "type": "electric_scooter", "is_disabled": 0, "lat": 38.94258216666667, "rental_uris": {"ios": "https://dc.lft.to/lastmile_qr_scan", "android": "https://dc.lft.to/lastmile_qr_scan"}, "is_reserved": 0, "fusion_lon": 0.0, "fusion_lat": 0.0, "lon": -77.02529733333333, "name": "7bb52fcc42ce56047ef21fc39dff851b"}, {"bike_id": "078f2012cbbf84edac4fca50ddb56064", "type": "electric_scooter", "is_disabled": 0, "lat": 38.928165666666665, "rental_uris": {"ios": "https://dc.lft.to/lastmile_qr_scan", "android": "https://dc.lft.to/lastmile_qr_scan"}, "is_reserved": 0, "fusion_lon": 0.0, "fusion_lat": 0.0, "lon": -77.02812216666666, "name": "078f2012cbbf84edac4fca50ddb56064"}, {"bike_id": "c2e872deb063ee88ae248d161384ee09", "type": "electric_scooter", "is_disabled": 0, "lat": 38.91498083333333, "rental_uris": {"ios": "https://dc.lft.to/lastmile_qr_scan", "android": "https://dc.lft.to/lastmile_qr_scan"}, "is_reserved": 0, "fusion_lon": 0.0, "fusion_lat": 0.0, "lon": -77.02188633333333, "name": "c2e872deb063ee88ae248d161384ee09"}, {"bike_id": "dc08b54b0148c8120ede6fdebff5b64e", "type": "electric_scooter", "is_disabled": 0, "lat": 38.908166666666666, "rental_uris": {"ios": "https://dc.lft.to/lastmile_qr_scan", "android": "https://dc.lft.to/lastmile_qr_scan"}, "is_reserved": 0, "fusion_lon": 0.0, "fusion_lat": 0.0, "lon": -77.0344185, "name": "dc08b54b0148c8120ede6fdebff5b64e"}, {"bike_id": "b16cf74ed8ccb58b402d5885daa429ec", "type": "electric_scooter", "is_disabled": 0, "lat": 38.951908333333336, "rental_uris": {"ios": "https://dc.lft.to/lastmile_qr_scan", "android": "https://dc.lft.to/lastmile_qr_scan"}, "is_reserved": 0, "fusion_lon": 0.0, "fusion_lat": 0.0, "lon": -77.02606633333333, "name": "b16cf74ed8ccb58b402d5885daa429ec"}, {"bike_id": "c39c5f2a1162d3d9ecb6b13991886bab", "type": "electric_scooter", "is_disabled": 0, "lat": 38.908129833333334, "rental_uris": {"ios": "https://dc.lft.to/lastmile_qr_scan", "android": "https://dc.lft.to/lastmile_qr_scan"}, "is_reserved": 0, "fusion_lon": 0.0, "fusion_lat": 0.0, "lon": -77.03647416666666, "name": "c39c5f2a1162d3d9ecb6b13991886bab"}, {"bike_id": "2395ae87ed98b6ae3e525d9069d490ab", "type": "electric_scooter", "is_disabled": 0, "lat": 38.899163, "rental_uris": {"ios": "https://dc.lft.to/lastmile_qr_scan", "android": "https://dc.lft.to/lastmile_qr_scan"}, "is_reserved": 0, "fusion_lon": 0.0, "fusion_lat": 0.0, "lon": -76.9336285, "name": "2395ae87ed98b6ae3e525d9069d490ab"}, {"bike_id": "a2d7302f015c6d340b091174c832a72d", "type": "electric_scooter", "is_disabled": 0, "lat": 38.882797, "rental_uris": {"ios": "https://dc.lft.to/lastmile_qr_scan", "android": "https://dc.lft.to/lastmile_qr_scan"}, "is_reserved": 0, "fusion_lon": 0.0, "fusion_lat": 0.0, "lon": -76.9877335, "name": "a2d7302f015c6d340b091174c832a72d"}, {"bike_id": "d8223d63dbcb8d8b380267c9143e7e3c", "type": "electric_scooter", "is_disabled": 0, "lat": 38.9167985, "rental_uris": {"ios": "https://dc.lft.to/lastmile_qr_scan", "android": "https://dc.lft.to/lastmile_qr_scan"},