{"data": {"bikes": [{"bike_id": "0d2f895f3e94c9fed43eff7b22eef18a", "type": "electric_scooter", "is_disabled": 0, "lat": 38.91527283333333, "rental_uris": {"ios": "https://dc.lft.to/lastmile_qr_scan", "android": "https://dc.lft.to/lastmile_qr_scan"}, "is_reserved": 0, "fusion_lon": 0.0, "fusion_lat": 0.0, "lon": -77.02210883333333, "name": "0d2f895f3e94c9fed43eff7b22eef18a"}, {"bike_id": "ef0e817e7c09e3735c383e3466d8d66c", "type": "electric_scooter", "is_disabled": 0, "lat": 38.94138316666667, "rental_uris": {"ios": "https://dc.lft.to/lastmile_qr_scan", "android": "https://dc.lft.to/lastmile_qr_scan"}, "is_reserved": 0, "fusion_lon": 0.0, "fusion_lat": 0.0, "lon": -77.02327733333334, "name": "ef0e817e7c09e3735c383e3466d8d66c"}, {"bike_id": "225caf6a99c810df68b8991e0b898a48", "type": "electric_scooter", "is_disabled": 0, "lat": 38.929727166666666, "rental_uris": {"ios": "https://dc.lft.to/lastmile_qr_scan", "android": "https://dc.lft.to/lastmile_qr_scan"}, "is_reserved": 0, "fusion_lon": 0.0, "fusion_lat": 0.0, "lon": -77.013043, "name": "225caf6a99c810df68b8991e0b898a48"}, {"bike_id": "998b3af8bfb474be254875914db58a79", "type": "electric_scooter", "is_disabled": 0, "lat": 38.89526566666667, "rental_uris": {"ios": "https://dc.lft.to/lastmile_qr_scan", "android": "https://dc.lft.to/lastmile_qr_scan"}, "is_reserved": 0, "fusion_lon": 0.0, "fusion_lat": 0.0, "lon": -76.9489075, "name": "998b3af8bfb474be254875914db58a79"}, {"bike_id": "18ef6d687ec884decab9b0e537a3fa2f", "type": "electric_scooter", "is_disabled": 0, "lat": 38.904848666666666, "rental_uris": {"ios": "https://dc.lft.to/lastmile_qr_scan", "android": "https://dc.lft.to/lastmile_qr_scan"}, "is_reserved": 0, "fusion_lon": 0.0, "fusion_lat": 0.0, "lon": -77.0294805, "name": "18ef6d687ec884decab9b0e537a3fa2f"}, {"bike_id": "c5a44f3e4ab33163fcb1d11c5b2b1346", "type": "electric_scooter", "is_disabled": 0, "lat": 38.928798666666665, "rental_uris": {"ios": "https://dc.lft.to/lastmile_qr_scan", "android": "https://dc.lft.to/lastmile_qr_scan"}, "is_reserved": 0, "fusion_lon": 0.0, "fusion_lat": 0.0, "lon": -77.02710816666666, "name": "c5a44f3e4ab33163fcb1d11c5b2b1346"}, {"bike_id": "5c33290ac2209fef87fe888750b42510", "type": "electric_scooter", "is_disabled": 0, "lat": 38.897341833333336, "rental_uris": {"ios": "https://dc.lft.to/lastmile_qr_scan", "android": "https://dc.lft.to/lastmile_qr_scan"}, "is_reserved": 0, "fusion_lon": 0.0, "fusion_lat": 0.0, "lon": -76.94729216666667, "name": "5c33290ac2209fef87fe888750b42510"}, {"bike_id": "abfd02c2625aacde6eac96e6ef0bc8c8", "type": "electric_scooter", "is_disabled": 0, "lat": 38.907112166666664, "rental_uris": {"ios": "https://dc.lft.to/lastmile_qr_scan", "android": "https://dc.lft.to/lastmile_qr_scan"}, "is_reserved": 0, "fusion_lon": 0.0, "fusion_lat": 0.0, "lon": -77.02978333333333, "name": "abfd02c2625aacde6eac96e6ef0bc8c8"}, {"bike_id": "1e9d5692448bf42de174df2a9c285a8e", "type": "electric_scooter", "is_disabled": 0, "lat": 38.900514, "rental_uris": {"ios": "https://dc.lft.to/lastmile_qr_scan", "android": "https://dc.lft.to/lastmile_qr_scan"}, "is_reserved": 0, "fusion_lon": 0.0, "fusion_lat": 0.0, "lon": -77.00068483333334, "name": "1e9d5692448bf42de174df2a9c285a8e"}, {"bike_id": "d0df3259a684aeccb61f350ff97a892f", "type": "electric_scooter", "is_disabled": 0, "lat": 38.90354933333333, "rental_uris": {"ios": "https://dc.lft.to/lastmile_qr_scan", "android": "https://dc.lft.to/lastmile_qr_scan"}, "is_reserved": 0, "fusion_lon": 0.0, "fusion_lat": 0.0, "lon": -77.03540583333333, "name": "d0df3259a684aeccb61f350ff97a892f"}, {"bike_id": "c56fef224f88f2b6175531f2940a13f8", "type": "electric_bike", "is_disabled": 0, "lat": 38.880538, "rental_uris": {"ios": "https://dc.lft.to/lastmile_qr_scan", "android": "https://dc.lft.to/lastmile_qr_scan"}, "is_reserved": 0, "fusion_lon": 0.0, "fusion_lat": 0.0, "lon": -76.96241083333334, "name": "c56fef224f88f2b6175531f2940a13f8"}, {"bike_id": "fc34e5d2719a344ea252d50b9148dbd5", "type": "electric_bike", "is_disabled": 0, "lat": 38.872670166666666, "rental_uris": {"ios": "https://dc.lft.to/lastmile_qr_scan", "android": "https://dc.lft.to/lastmile_qr_scan"}, "is_reserved": 0, "fusion_lon": 0.0, "fusion_lat": 0.0, "lon": -77.23247883333333, "name": "fc34e5d2719a344ea252d50b9148dbd5"}, {"bike_id": "a90260138a75bb864b9924d6683b84cf", "type": "electric_scooter", "is_disabled": 0, "lat": 38.947941666666665, "rental_uris": {"ios": "https://dc.lft.to/lastmile_qr_scan", "android": "https://dc.lft.to/lastmile_qr_scan"}, "is_reserved": 0, "fusion_lon": 0.0, "fusion_lat": 0.0, "lon": -77.02139366666667, "name": "a90260138a75bb864b9924d6683b84cf"}, {"bike_id": "41d32e93380ed496ca1ba80147d402cc", "type": "electric_scooter", "is_disabled": 0, "lat": 38.913113833333334, "rental_uris": {"ios": "https://dc.lft.to/lastmile_qr_scan", "android": "https://dc.lft.to/lastmile_qr_scan"}, "is_reserved": 0, "fusion_lon": 0.0, "fusion_lat": 0.0, "lon": -77.04549883333334, "name": "41d32e93380ed496ca1ba80147d402cc"}, {"bike_id": "d5d33eb6e89cc2899707ca14932034a3", "type": "electric_bike", "is_disabled": 0, "lat": 38.9959815, "rental_uris": {"ios": "https://dc.lft.to/lastmile_qr_scan", "android": "https://dc.lft.to/lastmile_qr_scan"}, "is_reserved": 0, "fusion_lon": 0.0, "fusion_lat": 0.0, "lon": -77.02680883333333, "name": "d5d33eb6e89cc2899707ca14932034a3"}, {"bike_id": "23867114868867e0ea88fa60840170da", "type": "electric_scooter", "is_disabled": 0, "lat": 38.892316, "rental_uris": {"ios": "https://dc.lft.to/lastmile_qr_scan", "android": "https://dc.lft.to/lastmile_qr_scan"}, "is_reserved": 0, "fusion_lon": 0.0, "fusion_lat": 0.0, "lon": -77.022102, "name": "23867114868867e0ea88fa60840170da"}, {"bike_id": "9451cef272ab6588d35228820cf03ac5", "type": "electric_scooter", "is_disabled": 0, "lat": 38.901477, "rental_uris": {"ios": "https://dc.lft.to/lastmile_qr_scan", "android": "https://dc.lft.to/lastmile_qr_scan"}, "is_reserved": 0, "fusion_lon": 0.0, "fusion_lat": 0.0, "lon": -77.000764, "name": "9451cef272ab6588d35228820cf03ac5"}, {"bike_id": "d60515787189f6a7ed8e8874c86e30a1", "type": "electric_scooter", "is_disabled": 0, "lat": 38.90425833333333, "rental_uris": {"ios": "https://dc.lft.to/lastmile_qr_scan", "android": "https://dc.lft.to/lastmile_qr_scan"}, "is_reserved": 0, "fusion_lon": 0.0, "fusion_lat": 0.0, "lon": -76.99860683333333, "name": "d60515787189f6a7ed8e8874c86e30a1"}, {"bike_id": "be4ee22cd114194db4d2556abd841aa9", "type": "electric_scooter", "is_disabled": 0, "lat": 38.87714166666667, "rental_uris": {"ios": "https://dc.lft.to/lastmile_qr_scan", "android": "https://dc.lft.to/lastmile_qr_scan"}, "is_reserved": 0, "fusion_lon": 0.0, "fusion_lat": 0.0, "lon": -77.0188515, "name": "be4ee22cd114194db4d2556abd841aa9"}, {"bike_id": "579aa4895fd58b8c0d7bf2c91bb036e9", "type": "electric_scooter", "is_disabled": 0, "lat": 38.866535999999996, "rental_uris": {"ios": "https://dc.lft.to/lastmile_qr_scan", "android": "https://dc.lft.to/lastmile_qr_scan"}, "is_reserved": 0, "fusion_lon": 0.0, "fusion_lat": 0.0, "lon": -76.988977, "name": "579aa4895fd58b8c0d7bf2c91bb036e9"}, {"bike_id": "cd69cfe7e0d4e79f286b74eb196cc936", "type": "electric_scooter", "is_disabled": 0, "lat": 38.91849533333333, "rental_uris": {"ios": "https://dc.lft.to/lastmile_qr_scan", "android": "https://dc.lft.to/lastmile_qr_scan"}, "is_reserved": 0, "fusion_lon": 0.0, "fusion_lat": 0.0, "lon": -77.02535016666667, "name": "cd69cfe7e0d4e79f286b74eb196cc936"}, {"bike_id": "05e9660985c6334bfadc3dffe52b0be5", "type": "electric_scooter", "is_disabled": 0, "lat": 38.86978666666667, "rental_uris": {"ios": "https://dc.lft.to/lastmile_qr_scan", "android": "https://dc.lft.to/lastmile_qr_scan"}, "is_reserved": 0, "fusion_lon": 0.0, "fusion_lat": 0.0, "lon": -76.98175766666667, "name": "05e9660985c6334bfadc3dffe52b0be5"}, {"bike_id": "09ff977a33357743f0d1b1eecab09d54", "type": "electric_scooter", "is_disabled": 0, "lat": 38.93398666666667, "rental_uris": {"ios": "https://dc.lft.to/lastmile_qr_scan", "android": "https://dc.lft.to/lastmile_qr_scan"}, "is_reserved": 0, "fusion_lon": 0.0, "fusion_lat": 0.0, "lon": -77.02210783333334, "name": "09ff977a33357743f0d1b1eecab09d54"}, {"bike_id": "ba00f95e118ec1c4dcc482935c5674c1", "type": "electric_bike", "is_disabled": 0, "lat": 38.91016483333333, "rental_uris": {"ios": "https://dc.lft.to/lastmile_qr_scan", "android": "https://dc.lft.to/lastmile_qr_scan"}, "is_reserved": 0, "fusion_lon": 0.0, "fusion_lat": 0.0, "lon": -77.228038, "name": "ba00f95e118ec1c4dcc482935c5674c1"}, {"bike_id": "98bd52040d77c75c15fb944db508baa9", "type": "electric_scooter", "is_disabled": 0, "lat": 38.9141015, "rental_uris": {"ios": "https://dc.lft.to/lastmile_qr_scan", "android": "https://dc.lft.to/lastmile_qr_scan"}, "is_reserved": 0, "fusion_lon": 0.0, "fusion_lat": 0.0, "lon": -77.0482325, "name": "98bd52040d77c75c15fb944db508baa9"}, {"bike_id": "e3e6096babd43f8a7ddaf5bda0dfe167", "type": "electric_scooter", "is_disabled": 0, "lat": 38.92286083333333, "rental_uris": {"ios": "https://dc.lft.to/lastmile_qr_scan", "android": "https://dc.lft.to/lastmile_qr_scan"}, "is_reserved": 0, "fusion_lon": 0.0, "fusion_lat": 0.0, "lon": -77.02247583333333, "name": "e3e6096babd43f8a7ddaf5bda0dfe167"}, {"bike_id": "bbd3edc86ae206e9315a92c25918ad5b", "type": "electric_scooter", "is_disabled": 0, "lat": 38.9243745, "rental_uris": {"ios": "https://dc.lft.to/lastmile_qr_scan", "android": "https://dc.lft.to/lastmile_qr_scan"}, "is_reserved": 0, "fusion_lon": 0.0, "fusion_lat": 0.0, "lon": -77.04028033333333, "name": "bbd3edc86ae206e9315a92c25918ad5b"}, {"bike_id": "9480ae20a17ca19a0494f42c85f60a25", "type": "electric_scooter", "is_disabled": 0, "lat": 38.935187, "rental_uris": {"ios": "https://dc.lft.to/lastmile_qr_scan", "android": "https://dc.lft.to/lastmile_qr_scan"}, "is_reserved": 0, "fusion_lon": 0.0, "fusion_lat": 0.0, "lon": -77.03392866666667, "name": "9480ae20a17ca19a0494f42c85f60a25"}, {"bike_id": "4321fb737c8a574a9d280900372e17fb", "type": "electric_scooter", "is_disabled": 0, "lat": 38.90213283333333, "rental_uris": {"ios": "https://dc.lft.to/lastmile_qr_scan", "android": "https://dc.lft.to/lastmile_qr_scan"}, "is_reserved": 0, "fusion_lon": 0.0, "fusion_lat": 0.0, "lon": -77.04036766666667, "name": "4321fb737c8a574a9d280900372e17fb"}, {"bike_id": "beea99f97ac0ed8fa9a08140b375e5a1", "type": "electric_scooter", "is_disabled": 0, "lat": 38.900304, "rental_uris": {"ios": "https://dc.lft.to/lastmile_qr_scan", "android": "https://dc.lft.to/lastmile_qr_scan"}, "is_reserved": 0, "fusion_lon": 0.0, "fusion_lat": 0.0, "lon": -77.017277, "name": "beea99f97ac0ed8fa9a08140b375e5a1"}, {"bike_id": "5697176d4aca19bb75153a41f14dbe2c", "type": "electric_scooter", "is_disabled": 0, "lat": 38.92707383333333, "rental_uris": {"ios": "https://dc.lft.to/lastmile_qr_scan", "android": "https://dc.lft.to/lastmile_qr_scan"}, "is_reserved": 0, "fusion_lon": 0.0, "fusion_lat": 0.0, "lon": -77.02395966666667, "name": "5697176d4aca19bb75153a41f14dbe2c"}, {"bike_id": "d1782ffae81178264e45b3393f505730", "type": "electric_scooter", "is_disabled": 0, "lat": 38.92054783333333, "rental_uris": {"ios": "https://dc.lft.to/lastmile_qr_scan", "android": "https://dc.lft.to/lastmile_qr_scan"}, "is_reserved": 0, "fusion_lon": 0.0, "fusion_lat": 0.0, "lon": -77.04262166666666, "name": "d1782ffae81178264e45b3393f505730"}, {"bike_id": "b150d19413aabc4801fc2e75375c5f83", "type": "electric_scooter", "is_disabled": 0, "lat": 38.927468, "rental_uris": {"ios": "https://dc.lft.to/lastmile_qr_scan", "android": "https://dc.lft.to/lastmile_qr_scan"}, "is_reserved": 0, "fusion_lon": 0.0, "fusion_lat": 0.0, "lon": -77.0253555, "name": "b150d19413aabc4801fc2e75375c5f83"}, {"bike_id": "a57147647e3b9ee0ad1611b51fa2c244", "type": "electric_bike", "is_disabled": 0, "lat": 38.931487, "rental_uris": {"ios": "https://dc.lft.to/lastmile_qr_scan", "android": "https://dc.lft.to/lastmile_qr_scan"}, "is_reserved": 0, "fusion_lon": 0.0, "fusion_lat": 0.0, "lon": -77.03617883333334, "name": "a57147647e3b9ee0ad1611b51fa2c244"}, {"bike_id": "e954a408f9de2a8bc2ab38ba0ff5583e", "type": "electric_scooter", "is_disabled": 0, "lat": 38.9055265, "rental_uris": {"ios": "https://dc.lft.to/lastmile_qr_scan", "android": "https://dc.lft.to/lastmile_qr_scan"}, "is_reserved": 0, "fusion_lon": 0.0, "fusion_lat": 0.0, "lon": -77.03812216666667, "name": "e954a408f9de2a8bc2ab38ba0ff5583e"}, {"bike_id": "2e2a1c598bfc76f63f1b18ede10d2102", "type": "electric_scooter", "is_disabled": 0, "lat": 38.911217666666666, "rental_uris": {"ios": "https://dc.lft.to/lastmile_qr_scan", "android": "https://dc.lft.to/lastmile_qr_scan"}, "is_reserved": 0, "fusion_lon": 0.0, "fusion_lat": 0.0, "lon": -77.0471485, "name": "2e2a1c598bfc76f63f1b18ede10d2102"}, {"bike_id": "4a31a08fe7aa949bc11de4015c9517ce", "type": "electric_scooter", "is_disabled": 0, "lat": 38.907358, "rental_uris": {"ios": "https://dc.lft.to/lastmile_qr_scan", "android": "https://dc.lft.to/lastmile_qr_scan"}, "is_reserved": 0, "fusion_lon": 0.0, "fusion_lat": 0.0, "lon": -77.021822, "name": "4a31a08fe7aa949bc11de4015c9517ce"}, {"bike_id": "3036ca04237eea50c346fc869c8c2696", "type": "electric_bike", "is_disabled": 0, "lat": 38.853549, "rental_uris": {"ios": "https://dc.lft.to/lastmile_qr_scan", "android": "https://dc.lft.to/lastmile_qr_scan"}, "is_reserved": 0, "fusion_lon": 0.0, "fusion_lat": 0.0, "lon": -77.13468133333333, "name": "3036ca04237eea50c346fc869c8c2696"}, {"bike_id": "18443c95899aa787a97d63bc03f48c93", "type": "electric_scooter", "is_disabled": 0, "lat": 38.89740066666667, "rental_uris": {"ios": "https://dc.lft.to/lastmile_qr_scan", "android": "https://dc.lft.to/lastmile_qr_scan"}, "is_reserved": 0, "fusion_lon": 0.0, "fusion_lat": 0.0, "lon": -77.0036495, "name": "18443c95899aa787a97d63bc03f48c93"}, {"bike_id": "bd17c6edb671ed08e4a0ca0cdb25c36f", "type": "electric_scooter", "is_disabled": 0, "lat": 38.94289233333333, "rental_uris": {"ios": "https://dc.lft.to/lastmile_qr_scan", "android": "https://dc.lft.to/lastmile_qr_scan"}, "is_reserved": 0, "fusion_lon": 0.0, "fusion_lat": 0.0, "lon": -77.02169533333333, "name": "bd17c6edb671ed08e4a0ca0cdb25c36f"}, {"bike_id": "4725266fcb2b3c614ebe42ffad33ab82", "type": "electric_scooter", "is_disabled": 0, "lat": 38.917419833333334, "rental_uris": {"ios": "https://dc.lft.to/lastmile_qr_scan", "android": "https://dc.lft.to/lastmile_qr_scan"}, "is_reserved": 0, "fusion_lon": 0.0, "fusion_lat": 0.0, "lon": -77.04069466666667, "name": "4725266fcb2b3c614ebe42ffad33ab82"}, {"bike_id": "c502ebda251890f4c4451d4f78da7f36", "type": "electric_scooter", "is_disabled": 0, "lat": 38.89586216666667, "rental_uris": {"ios": "https://dc.lft.to/lastmile_qr_scan", "android": "https://dc.lft.to/lastmile_qr_scan"}, "is_reserved": 0, "fusion_lon": 0.0, "fusion_lat": 0.0, "lon": -77.00502933333334, "name": "c502ebda251890f4c4451d4f78da7f36"}, {"bike_id": "243d7633ed41d0ea26d2d6b664d9b86c", "type": "electric_scooter", "is_disabled": 0, "lat": 38.91687966666667, "rental_uris": {"ios": "https://dc.lft.to/lastmile_qr_scan", "android": "https://dc.lft.to/lastmile_qr_scan"}, "is_reserved": 0, "fusion_lon": 0.0, "fusion_lat": 0.0, "lon": -77.037721, "name": "243d7633ed41d0ea26d2d6b664d9b86c"}, {"bike_id": "aa05a6a14826eac31caf622875d4cbc8", "type": "electric_scooter", "is_disabled": 0, "lat": 38.907122333333334, "rental_uris": {"ios": "https://dc.lft.to/lastmile_qr_scan", "android": "https://dc.lft.to/lastmile_qr_scan"}, "is_reserved": 0, "fusion_lon": 0.0, "fusion_lat": 0.0, "lon": -77.0403115, "name": "aa05a6a14826eac31caf622875d4cbc8"}, {"bike_id": "9d78b82ba9e52cd70f82ba225cdecf3e", "type": "electric_scooter", "is_disabled": 0, "lat": 38.90194183333333, "rental_uris": {"ios": "https://dc.lft.to/lastmile_qr_scan", "android": "https://dc.lft.to/lastmile_qr_scan"}, "is_reserved": 0, "fusion_lon": 0.0, "fusion_lat": 0.0, "lon": -77.0218525, "name": "9d78b82ba9e52cd70f82ba225cdecf3e"}, {"bike_id": "f73a2ba51fb7690a5a5d502dc483792f", "type": "electric_scooter", "is_disabled": 0, "lat": 38.925153333333334, "rental_uris": {"ios": "https://dc.lft.to/lastmile_qr_scan", "android": "https://dc.lft.to/lastmile_qr_scan"}, "is_reserved": 0, "fusion_lon": 0.0, "fusion_lat": 0.0, "lon": -77.05130116666666, "name": "f73a2ba51fb7690a5a5d502dc483792f"}, {"bike_id": "2652d8e3794cbbc49ac17c9a15951956", "type": "electric_scooter", "is_disabled": 0, "lat": 38.897409333333336, "rental_uris": {"ios": "https://dc.lft.to/lastmile_qr_scan", "android": "https://dc.lft.to/lastmile_qr_scan"}, "is_reserved": 0, "fusion_lon": 0.0, "fusion_lat": 0.0, "lon": -76.97980766666667, "name": "2652d8e3794cbbc49ac17c9a15951956"}, {"bike_id": "39eb8a2b9e3726fa3d456719b7c2c5df", "type": "electric_scooter", "is_disabled": 0, "lat": 38.9175375, "rental_uris": {"ios": "https://dc.lft.to/lastmile_qr_scan", "android": "https://dc.lft.to/lastmile_qr_scan"}, "is_reserved": 0, "fusion_lon": 0.0, "fusion_lat": 0.0, "lon": -77.02288533333333, "name": "39eb8a2b9e3726fa3d456719b7c2c5df"}, {"bike_id": "8f4a572e9bdba0afa44d49acf334626b", "type": "electric_bike", "is_disabled": 0, "lat": 39.05102766666667, "rental_uris": {"ios": "https://dc.lft.to/lastmile_qr_scan", "android": "https://dc.lft.to/lastmile_qr_scan"}, "is_reserved": 0, "fusion_lon": 0.0, "fusion_lat": 0.0, "lon": -77.11730266666666, "name": "8f4a572e9bdba0afa44d49acf334626b"}, {"bike_id": "786ae5c531916df72d999a2afb2b9fc0", "type": "electric_scooter", "is_disabled": 0, "lat": 38.9564315, "rental_uris": {"ios": "https://dc.lft.to/lastmile_qr_scan", "android": "https://dc.lft.to/lastmile_qr_scan"}, "is_reserved": 0, "fusion_lon": 0.0, "fusion_lat": 0.0, "lon": -77.03634216666667, "name": "786ae5c531916df72d999a2afb2b9fc0"}, {"bike_id": "f72d941c0b0bb59d47eb166f0db8ceb1", "type": "electric_scooter", "is_disabled": 0, "lat": 38.933205666666666, "rental_uris": {"ios": "https://dc.lft.to/lastmile_qr_scan", "android": "https://dc.lft.to/lastmile_qr_scan"}, "is_reserved": 0, "fusion_lon": 0.0, "fusion_lat": 0.0, "lon": -77.02754683333333, "name": "f72d941c0b0bb59d47eb166f0db8ceb1"}, {"bike_id": "69ed6c0519b6946bb1b8c7f2c9ca34c5", "type": "electric_scooter", "is_disabled": 0, "lat": 38.89503833333333, "rental_uris": {"ios": "https://dc.lft.to/lastmile_qr_scan", "android": "https://dc.lft.to/lastmile_qr_scan"}, "is_reserved": 0, "fusion_lon": 0.0, "fusion_lat": 0.0, "lon": -77.04342133333333, "name": "69ed6c0519b6946bb1b8c7f2c9ca34c5"}, {"bike_id": "225467fad1ffbc24c59df8bf03bb664b", "type": "electric_scooter", "is_disabled": 0, "lat": 38.9223975, "rental_uris": {"ios": "https://dc.lft.to/lastmile_qr_scan", "android": "https://dc.lft.to/lastmile_qr_scan"}, "is_reserved": 0, "fusion_lon": 0.0, "fusion_lat": 0.0, "lon": -76.97538333333334, "name": "225467fad1ffbc24c59df8bf03bb664b"}, {"bike_id": "ef8890716e0f04847cf805992dafff5f", "type": "electric_scooter", "is_disabled": 0, "lat": 38.899857833333336, "rental_uris": {"ios": "https://dc.lft.to/lastmile_qr_scan", "android": "https://dc.lft.to/lastmile_qr_scan"}, "is_reserved": 0, "fusion_lon": 0.0, "fusion_lat": 0.0, "lon": -77.0270405, "name": "ef8890716e0f04847cf805992dafff5f"}, {"bike_id": "de3121f6490cf5b5ffb409b72cc0ac67", "type": "electric_scooter", "is_disabled": 0, "lat": 38.903535833333336, "rental_uris": {"ios": "https://dc.lft.to/lastmile_qr_scan", "android": "https://dc.lft.to/lastmile_qr_scan"}, "is_reserved": 0, "fusion_lon": 0.0, "fusion_lat": 0.0, "lon": -76.99220983333333, "name": "de3121f6490cf5b5ffb409b72cc0ac67"}, {"bike_id": "24f5da33dedf62c138f9898ff4ff4270", "type": "electric_scooter", "is_disabled": 0, "lat": 38.9113825, "rental_uris": {"ios": "https://dc.lft.to/lastmile_qr_scan", "android": "https://dc.lft.to/lastmile_qr_scan"}, "is_reserved": 0, "fusion_lon": 0.0, "fusion_lat": 0.0, "lon": -77.04491383333334, "name": "24f5da33dedf62c138f9898ff4ff4270"}, {"bike_id": "87eecc9f748128b1833f6e6659114679", "type": "electric_scooter", "is_disabled": 0, "lat": 38.87450916666667, "rental_uris": {"ios": "https://dc.lft.to/lastmile_qr_scan", "android": "https://dc.lft.to/lastmile_qr_scan"}, "is_reserved": 0, "fusion_lon": 0.0, "fusion_lat": 0.0, "lon": -77.00933666666667, "name": "87eecc9f748128b1833f6e6659114679"}, {"bike_id": "da0b929b95238acb8419cc7c4daf0709", "type": "electric_scooter", "is_disabled": 0, "lat": 38.8996215, "rental_uris": {"ios": "https://dc.lft.to/lastmile_qr_scan", "android": "https://dc.lft.to/lastmile_qr_scan"}, "is_reserved": 0, "fusion_lon": 0.0, "fusion_lat": 0.0, "lon": -77.02583166666666, "name": "da0b929b95238acb8419cc7c4daf0709"}, {"bike_id": "d407073d2bc78fb26a599f134ed56ef1", "type": "electric_scooter", "is_disabled": 0, "lat": 38.90335533333333, "rental_uris": {"ios": "https://dc.lft.to/lastmile_qr_scan", "android": "https://dc.lft.to/lastmile_qr_scan"}, "is_reserved": 0, "fusion_lon": 0.0, "fusion_lat": 0.0, "lon": -77.02148933333334, "name": "d407073d2bc78fb26a599f134ed56ef1"}, {"bike_id": "16d8b9e409450c871ed9d86d7e64d07c", "type": "electric_scooter", "is_disabled": 0, "lat": 38.90715383333333, "rental_uris": {"ios": "https://dc.lft.to/lastmile_qr_scan", "android": "https://dc.lft.to/lastmile_qr_scan"}, "is_reserved": 0, "fusion_lon": 0.0, "fusion_lat": 0.0, "lon": -77.04506266666667, "name": "16d8b9e409450c871ed9d86d7e64d07c"}, {"bike_id": "6a9b335ba9075791b42bc616ca924d02", "type": "electric_scooter", "is_disabled": 0, "lat": 38.930326, "rental_uris": {"ios": "https://dc.lft.to/lastmile_qr_scan", "android": "https://dc.lft.to/lastmile_qr_scan"}, "is_reserved": 0, "fusion_lon": 0.0, "fusion_lat": 0.0, "lon": -77.02966833333333, "name": "6a9b335ba9075791b42bc616ca924d02"}, {"bike_id": "016609f6ed9d614ea0b6a46b66c9b199", "type": "electric_scooter", "is_disabled": 0, "lat": 38.92055083333333, "rental_uris": {"ios": "https://dc.lft.to/lastmile_qr_scan", "android": "https://dc.lft.to/lastmile_qr_scan"}, "is_reserved": 0, "fusion_lon": 0.0, "fusion_lat": 0.0, "lon": -76.99877383333333, "name": "016609f6ed9d614ea0b6a46b66c9b199"}, {"bike_id": "a0898d18660ea169c9843b8ef65502f6", "type": "electric_scooter", "is_disabled": 0, "lat": 38.95616183333333, "rental_uris": {"ios": "https://dc.lft.to/lastmile_qr_scan", "android": "https://dc.lft.to/lastmile_qr_scan"}, "is_reserved": 0, "fusion_lon": 0.0, "fusion_lat": 0.0, "lon": -77.01020466666667, "name": "a0898d18660ea169c9843b8ef65502f6"}, {"bike_id": "0335626769159aa5b8c12934fa90846d", "type": "electric_scooter", "is_disabled": 0, "lat": 38.876252666666666, "rental_uris": {"ios": "https://dc.lft.to/lastmile_qr_scan", "android": "https://dc.lft.to/lastmile_qr_scan"}, "is_reserved": 0, "fusion_lon": 0.0, "fusion_lat": 0.0, "lon": -76.96527733333333, "name": "0335626769159aa5b8c12934fa90846d"}, {"bike_id": "d710a6eb017f08709209765eba7ac61e", "type": "electric_scooter", "is_disabled": 0, "lat": 38.939539333333336, "rental_uris": {"ios": "https://dc.lft.to/lastmile_qr_scan", "android": "https://dc.lft.to/lastmile_qr_scan"}, "is_reserved": 0, "fusion_lon": 0.0, "fusion_lat": 0.0, "lon": -77.06067933333334, "name": "d710a6eb017f08709209765eba7ac61e"}, {"bike_id": "40d6890584095c97221acf2e11a8c90f", "type": "electric_scooter", "is_disabled": 0, "lat": 38.87661516666667, "rental_uris": {"ios": "https://dc.lft.to/lastmile_qr_scan", "android": "https://dc.lft.to/lastmile_qr_scan"}, "is_reserved": 0, "fusion_lon": 0.0, "fusion_lat": 0.0, "lon": -77.00862633333334, "name": "40d6890584095c97221acf2e11a8c90f"}, {"bike_id": "a0af8adb456e77a7e836ee5eb5caa9b7", "type": "electric_scooter", "is_disabled": 0, "lat": 38.91727233333334, "rental_uris": {"ios": "https://dc.lft.to/lastmile_qr_scan", "android": "https://dc.lft.to/lastmile_qr_scan"}, "is_reserved": 0, "fusion_lon": 0.0, "fusion_lat": 0.0, "lon": -77.0189475, "name": "a0af8adb456e77a7e836ee5eb5caa9b7"}, {"bike_id": "561a888b83af377b89e4bc875aacf59f", "type": "electric_scooter", "is_disabled": 0, "lat": 38.94016416666667, "rental_uris": {"ios": "https://dc.lft.to/lastmile_qr_scan", "android": "https://dc.lft.to/lastmile_qr_scan"}, "is_reserved": 0, "fusion_lon": 0.0, "fusion_lat": 0.0, "lon": -77.02642283333333, "name": "561a888b83af377b89e4bc875aacf59f"}, {"bike_id": "80d0f3bdf85986cb975a80a49e1a2d07", "type": "electric_scooter", "is_disabled": 0, "lat": 38.9039145, "rental_uris": {"ios": "https://dc.lft.to/lastmile_qr_scan", "android": "https://dc.lft.to/lastmile_qr_scan"}, "is_reserved": 0, "fusion_lon": 0.0, "fusion_lat": 0.0, "lon": -77.00885516666666, "name": "80d0f3bdf85986cb975a80a49e1a2d07"}, {"bike_id": "285d88725d6c7d32ee15389b8972f297", "type": "electric_scooter", "is_disabled": 0, "lat": 38.91996016666667, "rental_uris": {"ios": "https://dc.lft.to/lastmile_qr_scan", "android": "https://dc.lft.to/lastmile_qr_scan"}, "is_reserved": 0, "fusion_lon": 0.0, "fusion_lat": 0.0, "lon": -77.024729, "name": "285d88725d6c7d32ee15389b8972f297"}, {"bike_id": "4bc57df240fdf2d3c08d71405c67e61a", "type": "electric_scooter", "is_disabled": 0, "lat": 38.920134166666664, "rental_uris": {"ios": "https://dc.lft.to/lastmile_qr_scan", "android": "https://dc.lft.to/lastmile_qr_scan"}, "is_reserved": 0, "fusion_lon": 0.0, "fusion_lat": 0.0, "lon": -77.01321016666667, "name": "4bc57df240fdf2d3c08d71405c67e61a"}, {"bike_id": "e4383eb086345e504ea7fc77c57c4d13", "type": "electric_scooter", "is_disabled": 0, "lat": 38.9132645, "rental_uris": {"ios": "https://dc.lft.to/lastmile_qr_scan", "android": "https://dc.lft.to/lastmile_qr_scan"}, "is_reserved": 0, "fusion_lon": 0.0, "fusion_lat": 0.0, "lon": -77.026904, "name": "e4383eb086345e504ea7fc77c57c4d13"}, {"bike_id": "3e2053af6e43e1fe724456e68a0cb53d", "type": "electric_scooter", "is_disabled": 0, "lat": 38.93250533333333, "rental_uris": {"ios": "https://dc.lft.to/lastmile_qr_scan", "android": "https://dc.lft.to/lastmile_qr_scan"}, "is_reserved": 0, "fusion_lon": 0.0, "fusion_lat": 0.0, "lon": -77.02721333333334, "name": "3e2053af6e43e1fe724456e68a0cb53d"}, {"bike_id": "1d4f6f77db38f62560fe2a166559bd65", "type": "electric_scooter", "is_disabled": 0, "lat": 38.9017165, "rental_uris": {"ios": "https://dc.lft.to/lastmile_qr_scan", "android": "https://dc.lft.to/lastmile_qr_scan"}, "is_reserved": 0, "fusion_lon": 0.0, "fusion_lat": 0.0, "lon": -77.03174716666666, "name": "1d4f6f77db38f62560fe2a166559bd65"}, {"bike_id": "fd42cdcb6c410f51268bcc3924525d71", "type": "electric_scooter", "is_disabled": 0, "lat": 38.91618483333333, "rental_uris": {"ios": "https://dc.lft.to/lastmile_qr_scan", "android": "https://dc.lft.to/lastmile_qr_scan"}, "is_reserved": 0, "fusion_lon": 0.0, "fusion_lat": 0.0, "lon": -77.03044483333333, "name": "fd42cdcb6c410f51268bcc3924525d71"}, {"bike_id": "a3a8118bb41c29fe6db0351028658a24", "type": "electric_scooter", "is_disabled": 0, "lat": 38.942093166666666, "rental_uris": {"ios": "https://dc.lft.to/lastmile_qr_scan", "android": "https://dc.lft.to/lastmile_qr_scan"}, "is_reserved": 0, "fusion_lon": 0.0, "fusion_lat": 0.0, "lon": -77.02585233333333, "name": "a3a8118bb41c29fe6db0351028658a24"}, {"bike_id": "698526926d093adde8b0a11ff9957605", "type": "electric_scooter", "is_disabled": 0, "lat": 38.91408033333333, "rental_uris": {"ios": "https://dc.lft.to/lastmile_qr_scan", "android": "https://dc.lft.to/lastmile_qr_scan"}, "is_reserved": 0, "fusion_lon": 0.0, "fusion_lat": 0.0, "lon": -77.0400725, "name": "698526926d093adde8b0a11ff9957605"}, {"bike_id": "66e7042666936a3474379a2f83409fbd", "type": "electric_scooter", "is_disabled": 0, "lat": 38.89734033333333, "rental_uris": {"ios": "https://dc.lft.to/lastmile_qr_scan", "android": "https://dc.lft.to/lastmile_qr_scan"}, "is_reserved": 0, "fusion_lon": 0.0, "fusion_lat": 0.0, "lon": -77.04585016666667, "name": "66e7042666936a3474379a2f83409fbd"}, {"bike_id": "43c1d787bdc517e2a759a9e218335cf6", "type": "electric_scooter", "is_disabled": 0, "lat": 38.942855333333334, "rental_uris": {"ios": "https://dc.lft.to/lastmile_qr_scan", "android": "https://dc.lft.to/lastmile_qr_scan"}, "is_reserved": 0, "fusion_lon": 0.0, "fusion_lat": 0.0, "lon": -77.02174133333334, "name": "43c1d787bdc517e2a759a9e218335cf6"}, {"bike_id": "6e4aa7e72b2b892b1bb1270d9ba68a70", "type": "electric_scooter", "is_disabled": 0, "lat": 38.9017565, "rental_uris": {"ios": "https://dc.lft.to/lastmile_qr_scan", "android": "https://dc.lft.to/lastmile_qr_scan"}, "is_reserved": 0, "fusion_lon": 0.0, "fusion_lat": 0.0, "lon": -76.98453466666666, "name": "6e4aa7e72b2b892b1bb1270d9ba68a70"}, {"bike_id": "935c1f990a9105863e40285af9186c13", "type": "electric_scooter", "is_disabled": 0, "lat": 38.915510833333336, "rental_uris": {"ios": "https://dc.lft.to/lastmile_qr_scan", "android": "https://dc.lft.to/lastmile_qr_scan"}, "is_reserved": 0, "fusion_lon": 0.0, "fusion_lat": 0.0, "lon": -77.02048783333333, "name": "935c1f990a9105863e40285af9186c13"}, {"bike_id": "8dee49b762268103faab0e3fa0c67960", "type": "electric_scooter", "is_disabled": 0, "lat": 38.922344333333335, "rental_uris": {"ios": "https://dc.lft.to/lastmile_qr_scan", "android": "https://dc.lft.to/lastmile_qr_scan"}, "is_reserved": 0, "fusion_lon": 0.0, "fusion_lat": 0.0, "lon": -77.0271925, "name": "8dee49b762268103faab0e3fa0c67960"}, {"bike_id": "5cc5b007dc82a40832451ba3e76cd1e6", "type": "electric_scooter", "is_disabled": 0, "lat": 38.893505, "rental_uris": {"ios": "https://dc.lft.to/lastmile_qr_scan", "android": "https://dc.lft.to/lastmile_qr_scan"}, "is_reserved": 0, "fusion_lon": 0.0, "fusion_lat": 0.0, "lon": -77.02216383333334, "name": "5cc5b007dc82a40832451ba3e76cd1e6"}, {"bike_id": "7ca69808e76e0fbbc7e2311009e2741d", "type": "electric_scooter", "is_disabled": 0, "lat": 38.90419466666667, "rental_uris": {"ios": "https://dc.lft.to/lastmile_qr_scan", "android": "https://dc.lft.to/lastmile_qr_scan"}, "is_reserved": 0, "fusion_lon": 0.0, "fusion_lat": 0.0, "lon": -76.97375766666667, "name": "7ca69808e76e0fbbc7e2311009e2741d"}, {"bike_id": "2a9cdff84d9b0b30f67a2ed95b192df1", "type": "electric_bike", "is_disabled": 0, "lat": 38.85437366666667, "rental_uris": {"ios": "https://dc.lft.to/lastmile_qr_scan", "android": "https://dc.lft.to/lastmile_qr_scan"}, "is_reserved": 0, "fusion_lon": 0.0, "fusion_lat": 0.0, "lon": -77.12081266666667, "name": "2a9cdff84d9b0b30f67a2ed95b192df1"}, {"bike_id": "8677585dca5cf495d85d1dcc4fa40137", "type": "electric_scooter", "is_disabled": 0, "lat": 38.90788466666667, "rental_uris": {"ios": "https://dc.lft.to/lastmile_qr_scan", "android": "https://dc.lft.to/lastmile_qr_scan"}, "is_reserved": 0, "fusion_lon": 0.0, "fusion_lat": 0.0, "lon": -77.00197816666666, "name": "8677585dca5cf495d85d1dcc4fa40137"}, {"bike_id": "d11c4dbd9ac9687edaef8c6dd27dd630", "type": "electric_scooter", "is_disabled": 0, "lat": 38.8972125, "rental_uris": {"ios": "https://dc.lft.to/lastmile_qr_scan", "android": "https://dc.lft.to/lastmile_qr_scan"}, "is_reserved": 0, "fusion_lon": 0.0, "fusion_lat": 0.0, "lon": -77.026894, "name": "d11c4dbd9ac9687edaef8c6dd27dd630"}, {"bike_id": "3ab46684179513f0c7793ecb6bff0279", "type": "electric_scooter", "is_disabled": 0, "lat": 38.91812516666667, "rental_uris": {"ios": "https://dc.lft.to/lastmile_qr_scan", "android": "https://dc.lft.to/lastmile_qr_scan"}, "is_reserved": 0, "fusion_lon": 0.0, "fusion_lat": 0.0, "lon": -77.02709916666667, "name": "3ab46684179513f0c7793ecb6bff0279"}, {"bike_id": "2b77917299a0266e1d2f8f9c604394c0", "type": "electric_scooter", "is_disabled": 0, "lat": 38.8665075, "rental_uris": {"ios": "https://dc.lft.to/lastmile_qr_scan", "android": "https://dc.lft.to/lastmile_qr_scan"}, "is_reserved": 0, "fusion_lon": 0.0, "fusion_lat": 0.0, "lon": -76.98897683333334, "name": "2b77917299a0266e1d2f8f9c604394c0"}, {"bike_id": "b42327bdb6006a68accfe8bb77ff4bf6", "type": "electric_scooter", "is_disabled": 0, "lat": 38.924521, "rental_uris": {"ios": "https://dc.lft.to/lastmile_qr_scan", "android": "https://dc.lft.to/lastmile_qr_scan"}, "is_reserved": 0, "fusion_lon": 0.0, "fusion_lat": 0.0, "lon": -77.02417683333333, "name": "b42327bdb6006a68accfe8bb77ff4bf6"}, {"bike_id": "3f1355a774ef685cffe8333634a8f41c", "type": "electric_scooter", "is_disabled": 0, "lat": 38.944437666666666, "rental_uris": {"ios": "https://dc.lft.to/lastmile_qr_scan", "android": "https://dc.lft.to/lastmile_qr_scan"}, "is_reserved": 0, "fusion_lon": 0.0, "fusion_lat": 0.0, "lon": -76.985727, "name": "3f1355a774ef685cffe8333634a8f41c"}, {"bike_id": "75b1730b735bef38ed782d1db4c0b5a7", "type": "electric_scooter", "is_disabled": 0, "lat": 38.86566666666667, "rental_uris": {"ios": "https://dc.lft.to/lastmile_qr_scan", "android": "https://dc.lft.to/lastmile_qr_scan"}, "is_reserved": 0, "fusion_lon": 0.0, "fusion_lat": 0.0, "lon": -76.98219583333334, "name": "75b1730b735bef38ed782d1db4c0b5a7"}, {"bike_id": "ecb026c1d2bdd49146ba7722aebba06f", "type": "electric_scooter", "is_disabled": 0, "lat": 38.90965083333333, "rental_uris": {"ios": "https://dc.lft.to/lastmile_qr_scan", "android": "https://dc.lft.to/lastmile_qr_scan"}, "is_reserved": 0, "fusion_lon": 0.0, "fusion_lat": 0.0, "lon": -77.02389066666667, "name": "ecb026c1d2bdd49146ba7722aebba06f"}, {"bike_id": "afd2bd01526c195eb8a753553d82a42f", "type": "electric_scooter", "is_disabled": 0, "lat": 38.922140166666665, "rental_uris": {"ios": "https://dc.lft.to/lastmile_qr_scan", "android": "https://dc.lft.to/lastmile_qr_scan"}, "is_reserved": 0, "fusion_lon": 0.0, "fusion_lat": 0.0, "lon": -77.03463666666667, "name": "afd2bd01526c195eb8a753553d82a42f"}, {"bike_id": "4d8fdecce8d6953218081c5757e19201", "type": "electric_scooter", "is_disabled": 0, "lat": 38.90744866666667, "rental_uris": {"ios": "https://dc.lft.to/lastmile_qr_scan", "android": "https://dc.lft.to/lastmile_qr_scan"}, "is_reserved": 0, "fusion_lon": 0.0, "fusion_lat": 0.0, "lon": -77.042004, "name": "4d8fdecce8d6953218081c5757e19201"}, {"bike_id": "a72c2d25a097ec5d5ea618ef7a72e6bb", "type": "electric_bike", "is_disabled": 0, "lat": 39.03987033333333, "rental_uris": {"ios": "https://dc.lft.to/lastmile_qr_scan", "android": "https://dc.lft.to/lastmile_qr_scan"}, "is_reserved": 0, "fusion_lon": 0.0, "fusion_lat": 0.0, "lon": -76.9993005, "name": "a72c2d25a097ec5d5ea618ef7a72e6bb"}, {"bike_id": "9fba6738166f9f9f142b259c2d8d7b55", "type": "electric_scooter", "is_disabled": 0, "lat": 38.916813166666664, "rental_uris": {"ios": "https://dc.lft.to/lastmile_qr_scan", "android": "https://dc.lft.to/lastmile_qr_scan"}, "is_reserved": 0, "fusion_lon": 0.0, "fusion_lat": 0.0, "lon": -77.037754, "name": "9fba6738166f9f9f142b259c2d8d7b55"}, {"bike_id": "799f4f4023545e4cc3c1506db71028ec", "type": "electric_scooter", "is_disabled": 0, "lat": 38.9149955, "rental_uris": {"ios": "https://dc.lft.to/lastmile_qr_scan", "android": "https://dc.lft.to/lastmile_qr_scan"}, "is_reserved": 0, "fusion_lon": 0.0, "fusion_lat": 0.0, "lon": -77.03184766666666, "name": "799f4f4023545e4cc3c1506db71028ec"}, {"bike_id": "cdc3c144a010d17a554b9ceccc7bd1fc", "type": "electric_scooter", "is_disabled": 0, "lat": 38.91699833333333, "rental_uris": {"ios": "https://dc.lft.to/lastmile_qr_scan", "android": "https://dc.lft.to/lastmile_qr_scan"}, "is_reserved": 0, "fusion_lon": 0.0, "fusion_lat": 0.0, "lon": -77.04608983333334, "name": "cdc3c144a010d17a554b9ceccc7bd1fc"}, {"bike_id": "6280f894430bd7da9271de9abace17a5", "type": "electric_scooter", "is_disabled": 0, "lat": 38.90061633333333, "rental_uris": {"ios": "https://dc.lft.to/lastmile_qr_scan", "android": "https://dc.lft.to/lastmile_qr_scan"}, "is_reserved": 0, "fusion_lon": 0.0, "fusion_lat": 0.0, "lon": -77.03659716666667, "name": "6280f894430bd7da9271de9abace17a5"}, {"bike_id": "d2853eeb60eefd6174c7c3ded8b418a7", "type": "electric_scooter", "is_disabled": 0, "lat": 38.9092605, "rental_uris": {"ios": "https://dc.lft.to/lastmile_qr_scan", "android": "https://dc.lft.to/lastmile_qr_scan"}, "is_reserved": 0, "fusion_lon": 0.0, "fusion_lat": 0.0, "lon": -76.99986566666666, "name": "d2853eeb60eefd6174c7c3ded8b418a7"}, {"bike_id": "48fe636644ca43db1609d8548ebf5700", "type": "electric_scooter", "is_disabled": 0, "lat": 38.89289683333333, "rental_uris": {"ios": "https://dc.lft.to/lastmile_qr_scan", "android": "https://dc.lft.to/lastmile_qr_scan"}, "is_reserved": 0, "fusion_lon": 0.0, "fusion_lat": 0.0, "lon": -77.04874316666667, "name": "48fe636644ca43db1609d8548ebf5700"}, {"bike_id": "26fa02b7a54979a6bf8fda5dbc485d87", "type": "electric_scooter", "is_disabled": 0, "lat": 38.90281, "rental_uris": {"ios": "https://dc.lft.to/lastmile_qr_scan", "android": "https://dc.lft.to/lastmile_qr_scan"}, "is_reserved": 0, "fusion_lon": 0.0, "fusion_lat": 0.0, "lon": -77.01745466666667, "name": "26fa02b7a54979a6bf8fda5dbc485d87"}, {"bike_id": "a5992da58526e03012646d992b2cbfbe", "type": "electric_scooter", "is_disabled": 0, "lat": 38.9097575, "rental_uris": {"ios": "https://dc.lft.to/lastmile_qr_scan", "android": "https://dc.lft.to/lastmile_qr_scan"}, "is_reserved": 0, "fusion_lon": 0.0, "fusion_lat": 0.0, "lon": -77.04876683333333, "name": "a5992da58526e03012646d992b2cbfbe"}, {"bike_id": "d939d017d98a04b58d139001b55da4c3", "type": "electric_scooter", "is_disabled": 0, "lat": 38.907104333333336, "rental_uris": {"ios": "https://dc.lft.to/lastmile_qr_scan", "android": "https://dc.lft.to/lastmile_qr_scan"}, "is_reserved": 0, "fusion_lon": 0.0, "fusion_lat": 0.0, "lon": -77.02405266666666, "name": "d939d017d98a04b58d139001b55da4c3"}, {"bike_id": "9c34378f552a4188ce7509b970f06488", "type": "electric_scooter", "is_disabled": 0, "lat": 38.909569833333336, "rental_uris": {"ios": "https://dc.lft.to/lastmile_qr_scan", "android": "https://dc.lft.to/lastmile_qr_scan"}, "is_reserved": 0, "fusion_lon": 0.0, "fusion_lat": 0.0, "lon": -77.045496, "name": "9c34378f552a4188ce7509b970f06488"}, {"bike_id": "16ebeed6e8ea8063c6e0bac2ea348551", "type": "electric_bike", "is_disabled": 0, "lat": 38.8315225, "rental_uris": {"ios": "https://dc.lft.to/lastmile_qr_scan", "android": "https://dc.lft.to/lastmile_qr_scan"}, "is_reserved": 0, "fusion_lon": 0.0, "fusion_lat": 0.0, "lon": -76.9954715, "name": "16ebeed6e8ea8063c6e0bac2ea348551"}, {"bike_id": "8241dd4bcfec8e081452a5241b76cf28", "type": "electric_scooter", "is_disabled": 0, "lat": 38.90085083333334, "rental_uris": {"ios": "https://dc.lft.to/lastmile_qr_scan", "android": "https://dc.lft.to/lastmile_qr_scan"}, "is_reserved": 0, "fusion_lon": 0.0, "fusion_lat": 0.0, "lon": -77.03079833333334, "name": "8241dd4bcfec8e081452a5241b76cf28"}, {"bike_id": "6d976eb7d8e18ddcca0796edec0f7229", "type": "electric_scooter", "is_disabled": 0, "lat": 38.92048616666667, "rental_uris": {"ios": "https://dc.lft.to/lastmile_qr_scan", "android": "https://dc.lft.to/lastmile_qr_scan"}, "is_reserved": 0, "fusion_lon": 0.0, "fusion_lat": 0.0, "lon": -77.034139, "name": "6d976eb7d8e18ddcca0796edec0f7229"}, {"bike_id": "9c16e3db529f0c161625ee96cc74cb55", "type": "electric_scooter", "is_disabled": 0, "lat": 38.91557233333333, "rental_uris": {"ios": "https://dc.lft.to/lastmile_qr_scan", "android": "https://dc.lft.to/lastmile_qr_scan"}, "is_reserved": 0, "fusion_lon": 0.0, "fusion_lat": 0.0, "lon": -77.03124833333334, "name": "9c16e3db529f0c161625ee96cc74cb55"}, {"bike_id": "98355d1fee93dde6cf5cc519db4b4693", "type": "electric_scooter", "is_disabled": 0, "lat": 38.876881, "rental_uris": {"ios": "https://dc.lft.to/lastmile_qr_scan", "android": "https://dc.lft.to/lastmile_qr_scan"}, "is_reserved": 0, "fusion_lon": 0.0, "fusion_lat": 0.0, "lon": -77.00718783333333, "name": "98355d1fee93dde6cf5cc519db4b4693"}, {"bike_id": "b4f685813cfc12dc01134fb942ea18cf", "type": "electric_scooter", "is_disabled": 0, "lat": 38.905001666666664, "rental_uris": {"ios": "https://dc.lft.to/lastmile_qr_scan", "android": "https://dc.lft.to/lastmile_qr_scan"}, "is_reserved": 0, "fusion_lon": 0.0, "fusion_lat": 0.0, "lon": -77.0688625, "name": "b4f685813cfc12dc01134fb942ea18cf"}, {"bike_id": "240d3c9d6d0f6bea0dfc972ca1fb8a33", "type": "electric_scooter", "is_disabled": 0, "lat": 38.90530183333333, "rental_uris": {"ios": "https://dc.lft.to/lastmile_qr_scan", "android": "https://dc.lft.to/lastmile_qr_scan"}, "is_reserved": 0, "fusion_lon": 0.0, "fusion_lat": 0.0, "lon": -77.06514983333334, "name": "240d3c9d6d0f6bea0dfc972ca1fb8a33"}, {"bike_id": "138ccb18ed48122d6f914647e2bef09a", "type": "electric_scooter", "is_disabled": 0, "lat": 38.88496883333333, "rental_uris": {"ios": "https://dc.lft.to/lastmile_qr_scan", "android": "https://dc.lft.to/lastmile_qr_scan"}, "is_reserved": 0, "fusion_lon": 0.0, "fusion_lat": 0.0, "lon": -77.02542566666666, "name": "138ccb18ed48122d6f914647e2bef09a"}, {"bike_id": "d2f4db3fab0932a99fcf2c21655247d6", "type": "electric_bike", "is_disabled": 0, "lat": 38.956911833333336, "rental_uris": {"ios": "https://dc.lft.to/lastmile_qr_scan", "android": "https://dc.lft.to/lastmile_qr_scan"}, "is_reserved": 0, "fusion_lon": 0.0, "fusion_lat": 0.0, "lon": -77.03344466666667, "name": "d2f4db3fab0932a99fcf2c21655247d6"}, {"bike_id": "bdd66a89af85e1282b83944406eb1704", "type": "electric_scooter", "is_disabled": 0, "lat": 38.9274995, "rental_uris": {"ios": "https://dc.lft.to/lastmile_qr_scan", "android": "https://dc.lft.to/lastmile_qr_scan"}, "is_reserved": 0, "fusion_lon": 0.0, "fusion_lat": 0.0, "lon": -77.02394883333334, "name": "bdd66a89af85e1282b83944406eb1704"}, {"bike_id": "603abcd7755e90192be4fe7a752e286f", "type": "electric_scooter", "is_disabled": 0, "lat": 38.903877333333334, "rental_uris": {"ios": "https://dc.lft.to/lastmile_qr_scan", "android": "https://dc.lft.to/lastmile_qr_scan"}, "is_reserved": 0, "fusion_lon": 0.0, "fusion_lat": 0.0, "lon": -77.00884316666667, "name": "603abcd7755e90192be4fe7a752e286f"}, {"bike_id": "1b4b864e577731cbb4e16121c0e5af8b", "type": "electric_scooter", "is_disabled": 0, "lat": 38.909302333333336, "rental_uris": {"ios": "https://dc.lft.to/lastmile_qr_scan", "android": "https://dc.lft.to/lastmile_qr_scan"}, "is_reserved": 0, "fusion_lon": 0.0, "fusion_lat": 0.0, "lon": -77.0494215, "name": "1b4b864e577731cbb4e16121c0e5af8b"}, {"bike_id": "56ed4424c4927c3444007308d1041ffb", "type": "electric_scooter", "is_disabled": 0, "lat": 38.91912683333334, "rental_uris": {"ios": "https://dc.lft.to/lastmile_qr_scan", "android": "https://dc.lft.to/lastmile_qr_scan"}, "is_reserved": 0, "fusion_lon": 0.0, "fusion_lat": 0.0, "lon": -77.04483516666667, "name": "56ed4424c4927c3444007308d1041ffb"}, {"bike_id": "5c1a5f6091cc1b3a065ce1ef1f9ec381", "type": "electric_scooter", "is_disabled": 0, "lat": 38.919215666666666, "rental_uris": {"ios": "https://dc.lft.to/lastmile_qr_scan", "android": "https://dc.lft.to/lastmile_qr_scan"}, "is_reserved": 0, "fusion_lon": 0.0, "fusion_lat": 0.0, "lon": -77.00251366666667, "name": "5c1a5f6091cc1b3a065ce1ef1f9ec381"}, {"bike_id": "22dcd2f0ea627d85a47e042fa31154f2", "type": "electric_scooter", "is_disabled": 0, "lat": 38.90280216666667, "rental_uris": {"ios": "https://dc.lft.to/lastmile_qr_scan", "android": "https://dc.lft.to/lastmile_qr_scan"}, "is_reserved": 0, "fusion_lon": 0.0, "fusion_lat": 0.0, "lon": -77.03677633333334, "name": "22dcd2f0ea627d85a47e042fa31154f2"}, {"bike_id": "83637de474838f76ff74dd6560e2b899", "type": "electric_scooter", "is_disabled": 0, "lat": 38.91133516666667, "rental_uris": {"ios": "https://dc.lft.to/lastmile_qr_scan", "android": "https://dc.lft.to/lastmile_qr_scan"}, "is_reserved": 0, "fusion_lon": 0.0, "fusion_lat": 0.0, "lon": -77.02191366666666, "name": "83637de474838f76ff74dd6560e2b899"}, {"bike_id": "6d9ce44f386f7fa26b7b151aff2a7204", "type": "electric_scooter", "is_disabled": 0, "lat": 38.9142485, "rental_uris": {"ios": "https://dc.lft.to/lastmile_qr_scan", "android": "https://dc.lft.to/lastmile_qr_scan"}, "is_reserved": 0, "fusion_lon": 0.0, "fusion_lat": 0.0, "lon": -77.03290533333333, "name": "6d9ce44f386f7fa26b7b151aff2a7204"}, {"bike_id": "41e0a307440b23643e830436d93e3c41", "type": "electric_scooter", "is_disabled": 0, "lat": 38.900037166666664, "rental_uris": {"ios": "https://dc.lft.to/lastmile_qr_scan", "android": "https://dc.lft.to/lastmile_qr_scan"}, "is_reserved": 0, "fusion_lon": 0.0, "fusion_lat": 0.0, "lon": -77.01131116666667, "name": "41e0a307440b23643e830436d93e3c41"}, {"bike_id": "dce5aad61750b91cd774704621012059", "type": "electric_scooter", "is_disabled": 0, "lat": 38.92190983333333, "rental_uris": {"ios": "https://dc.lft.to/lastmile_qr_scan", "android": "https://dc.lft.to/lastmile_qr_scan"}, "is_reserved": 0, "fusion_lon": 0.0, "fusion_lat": 0.0, "lon": -77.02111933333333, "name": "dce5aad61750b91cd774704621012059"}, {"bike_id": "87640b68945480a70ee7e389184769df", "type": "electric_scooter", "is_disabled": 0, "lat": 38.9245595, "rental_uris": {"ios": "https://dc.lft.to/lastmile_qr_scan", "android": "https://dc.lft.to/lastmile_qr_scan"}, "is_reserved": 0, "fusion_lon": 0.0, "fusion_lat": 0.0, "lon": -77.05206383333334, "name": "87640b68945480a70ee7e389184769df"}, {"bike_id": "19d7edefe9ca915fa202cb38d7fe5bbc", "type": "electric_scooter", "is_disabled": 0, "lat": 38.93464983333333, "rental_uris": {"ios": "https://dc.lft.to/lastmile_qr_scan", "android": "https://dc.lft.to/lastmile_qr_scan"}, "is_reserved": 0, "fusion_lon": 0.0, "fusion_lat": 0.0, "lon": -77.02764983333333, "name": "19d7edefe9ca915fa202cb38d7fe5bbc"}, {"bike_id": "bd3fe987da06e2bd4ce34aa0b4ac51da", "type": "electric_scooter", "is_disabled": 0, "lat": 38.952483, "rental_uris": {"ios": "https://dc.lft.to/lastmile_qr_scan", "android": "https://dc.lft.to/lastmile_qr_scan"}, "is_reserved": 0, "fusion_lon": 0.0, "fusion_lat": 0.0, "lon": -77.01974483333333, "name": "bd3fe987da06e2bd4ce34aa0b4ac51da"}, {"bike_id": "9d955e87674f0b40082101cae72c2413", "type": "electric_bike", "is_disabled": 0, "lat": 38.98354783333333, "rental_uris": {"ios": "https://dc.lft.to/lastmile_qr_scan", "android": "https://dc.lft.to/lastmile_qr_scan"}, "is_reserved": 0, "fusion_lon": 0.0, "fusion_lat": 0.0, "lon": -76.97213883333333, "name": "9d955e87674f0b40082101cae72c2413"}, {"bike_id": "ce511744515966daad51b7ae1b13e0db", "type": "electric_scooter", "is_disabled": 0, "lat": 38.8974285, "rental_uris": {"ios": "https://dc.lft.to/lastmile_qr_scan", "android": "https://dc.lft.to/lastmile_qr_scan"}, "is_reserved": 0, "fusion_lon": 0.0, "fusion_lat": 0.0, "lon": -77.04614366666667, "name": "ce511744515966daad51b7ae1b13e0db"}, {"bike_id": "935741bb73c879d824e97f6d0cf8385e", "type": "electric_scooter", "is_disabled": 0, "lat": 38.8667825, "rental_uris": {"ios": "https://dc.lft.to/lastmile_qr_scan", "android": "https://dc.lft.to/lastmile_qr_scan"}, "is_reserved": 0, "fusion_lon": 0.0, "fusion_lat": 0.0, "lon": -76.98579483333333, "name": "935741bb73c879d824e97f6d0cf8385e"}, {"bike_id": "d221337ef21f70644fd56bf07d401287", "type": "electric_scooter", "is_disabled": 0, "lat": 38.866409833333336, "rental_uris": {"ios": "https://dc.lft.to/lastmile_qr_scan", "android": "https://dc.lft.to/lastmile_qr_scan"}, "is_reserved": 0, "fusion_lon": 0.0, "fusion_lat": 0.0, "lon": -76.988244, "name": "d221337ef21f70644fd56bf07d401287"}, {"bike_id": "4d2f13b817d50c5bf9a00f6c43694baf", "type": "electric_scooter", "is_disabled": 0, "lat": 38.907715, "rental_uris": {"ios": "https://dc.lft.to/lastmile_qr_scan", "android": "https://dc.lft.to/lastmile_qr_scan"}, "is_reserved": 0, "fusion_lon": 0.0, "fusion_lat": 0.0, "lon": -77.03230733333334, "name": "4d2f13b817d50c5bf9a00f6c43694baf"}, {"bike_id": "bc7d4ca93201b6fbb9459d78b078c547", "type": "electric_scooter", "is_disabled": 0, "lat": 38.927407333333335, "rental_uris": {"ios": "https://dc.lft.to/lastmile_qr_scan", "android": "https://dc.lft.to/lastmile_qr_scan"}, "is_reserved": 0, "fusion_lon": 0.0, "fusion_lat": 0.0, "lon": -77.025349, "name": "bc7d4ca93201b6fbb9459d78b078c547"}, {"bike_id": "5f9ab595592e73fe7178658a02b20ffb", "type": "electric_scooter", "is_disabled": 0, "lat": 38.907086, "rental_uris": {"ios": "https://dc.lft.to/lastmile_qr_scan", "android": "https://dc.lft.to/lastmile_qr_scan"}, "is_reserved": 0, "fusion_lon": 0.0, "fusion_lat": 0.0, "lon": -77.024096, "name": "5f9ab595592e73fe7178658a02b20ffb"}, {"bike_id": "a6d5eed4c8b3646c4a401e1f29f92b40", "type": "electric_scooter", "is_disabled": 0, "lat": 38.923206666666665, "rental_uris": {"ios": "https://dc.lft.to/lastmile_qr_scan", "android": "https://dc.lft.to/lastmile_qr_scan"}, "is_reserved": 0, "fusion_lon": 0.0, "fusion_lat": 0.0, "lon": -77.029748, "name": "a6d5eed4c8b3646c4a401e1f29f92b40"}, {"bike_id": "bd66cd6ca044430818886ddaae3eee68", "type": "electric_scooter", "is_disabled": 0, "lat": 38.9214545, "rental_uris": {"ios": "https://dc.lft.to/lastmile_qr_scan", "android": "https://dc.lft.to/lastmile_qr_scan"}, "is_reserved": 0, "fusion_lon": 0.0, "fusion_lat": 0.0, "lon": -77.0343915, "name": "bd66cd6ca044430818886ddaae3eee68"}, {"bike_id": "dc18b0d6cd0cad3bc9e4715795e1b1da", "type": "electric_scooter", "is_disabled": 0, "lat": 38.91551183333333, "rental_uris": {"ios": "https://dc.lft.to/lastmile_qr_scan", "android": "https://dc.lft.to/lastmile_qr_scan"}, "is_reserved": 0, "fusion_lon": 0.0, "fusion_lat": 0.0, "lon": -77.03321533333333, "name": "dc18b0d6cd0cad3bc9e4715795e1b1da"}, {"bike_id": "bf6e49d7482091c1bf8c3303cb5842d0", "type": "electric_scooter", "is_disabled": 0, "lat": 38.88300133333333, "rental_uris": {"ios": "https://dc.lft.to/lastmile_qr_scan", "android": "https://dc.lft.to/lastmile_qr_scan"}, "is_reserved": 0, "fusion_lon": 0.0, "fusion_lat": 0.0, "lon": -76.9420895, "name": "bf6e49d7482091c1bf8c3303cb5842d0"}, {"bike_id": "963fa693a305a52b6f0ea599894da8c0", "type": "electric_scooter", "is_disabled": 0, "lat": 38.91218116666667, "rental_uris": {"ios": "https://dc.lft.to/lastmile_qr_scan", "android": "https://dc.lft.to/lastmile_qr_scan"}, "is_reserved": 0, "fusion_lon": 0.0, "fusion_lat": 0.0, "lon": -77.027053, "name": "963fa693a305a52b6f0ea599894da8c0"}, {"bike_id": "50c0a716b93e71d8adf288fc273dc1b8", "type": "electric_scooter", "is_disabled": 0, "lat": 38.91907966666667, "rental_uris": {"ios": "https://dc.lft.to/lastmile_qr_scan", "android": "https://dc.lft.to/lastmile_qr_scan"}, "is_reserved": 0, "fusion_lon": 0.0, "fusion_lat": 0.0, "lon": -77.03027783333333, "name": "50c0a716b93e71d8adf288fc273dc1b8"}, {"bike_id": "b7c79970f7ce0d2c4c71f8b9e5401fdc", "type": "electric_scooter", "is_disabled": 0, "lat": 38.91406883333333, "rental_uris": {"ios": "https://dc.lft.to/lastmile_qr_scan", "android": "https://dc.lft.to/lastmile_qr_scan"}, "is_reserved": 0, "fusion_lon": 0.0, "fusion_lat": 0.0, "lon": -77.0399965, "name": "b7c79970f7ce0d2c4c71f8b9e5401fdc"}, {"bike_id": "19e58faa52f4de01a0cb4c33c4413bdb", "type": "electric_scooter", "is_disabled": 0, "lat": 38.92861666666667, "rental_uris": {"ios": "https://dc.lft.to/lastmile_qr_scan", "android": "https://dc.lft.to/lastmile_qr_scan"}, "is_reserved": 0, "fusion_lon": 0.0, "fusion_lat": 0.0, "lon": -77.03307383333333, "name": "19e58faa52f4de01a0cb4c33c4413bdb"}, {"bike_id": "f11428e98829a967447d573eede14fea", "type": "electric_scooter", "is_disabled": 0, "lat": 38.927028166666666, "rental_uris": {"ios": "https://dc.lft.to/lastmile_qr_scan", "android": "https://dc.lft.to/lastmile_qr_scan"}, "is_reserved": 0, "fusion_lon": 0.0, "fusion_lat": 0.0, "lon": -77.02070333333333, "name": "f11428e98829a967447d573eede14fea"}, {"bike_id": "d43af305989bd09d2c4679887a367c75", "type": "electric_scooter", "is_disabled": 0, "lat": 38.9235775, "rental_uris": {"ios": "https://dc.lft.to/lastmile_qr_scan", "android": "https://dc.lft.to/lastmile_qr_scan"}, "is_reserved": 0, "fusion_lon": 0.0, "fusion_lat": 0.0, "lon": -77.07643183333333, "name": "d43af305989bd09d2c4679887a367c75"}, {"bike_id": "14692201e69b28cfe35cd0f3ee9044f3", "type": "electric_bike", "is_disabled": 0, "lat": 38.969572666666664, "rental_uris": {"ios": "https://dc.lft.to/lastmile_qr_scan", "android": "https://dc.lft.to/lastmile_qr_scan"}, "is_reserved": 0, "fusion_lon": 0.0, "fusion_lat": 0.0, "lon": -76.9575005, "name": "14692201e69b28cfe35cd0f3ee9044f3"}, {"bike_id": "dbb2103b25e1fba68ecbf47146694490", "type": "electric_scooter", "is_disabled": 0, "lat": 38.919777, "rental_uris": {"ios": "https://dc.lft.to/lastmile_qr_scan", "android": "https://dc.lft.to/lastmile_qr_scan"}, "is_reserved": 0, "fusion_lon": 0.0, "fusion_lat": 0.0, "lon": -77.03970683333333, "name": "dbb2103b25e1fba68ecbf47146694490"}, {"bike_id": "02196d9b707fb9a0980f389a6c49f9fc", "type": "electric_scooter", "is_disabled": 0, "lat": 38.9246645, "rental_uris": {"ios": "https://dc.lft.to/lastmile_qr_scan", "android": "https://dc.lft.to/lastmile_qr_scan"}, "is_reserved": 0, "fusion_lon": 0.0, "fusion_lat": 0.0, "lon": -77.02831566666667, "name": "02196d9b707fb9a0980f389a6c49f9fc"}, {"bike_id": "4e4c64228ae6b8cdbcec79176cc6335e", "type": "electric_scooter", "is_disabled": 0, "lat": 38.85458466666667, "rental_uris": {"ios": "https://dc.lft.to/lastmile_qr_scan", "android": "https://dc.lft.to/lastmile_qr_scan"}, "is_reserved": 0, "fusion_lon": 0.0, "fusion_lat": 0.0, "lon": -76.9722415, "name": "4e4c64228ae6b8cdbcec79176cc6335e"}, {"bike_id": "b349ab463e677f3aee475a84ffee7bb9", "type": "electric_scooter", "is_disabled": 0, "lat": 38.915969833333335, "rental_uris": {"ios": "https://dc.lft.to/lastmile_qr_scan", "android": "https://dc.lft.to/lastmile_qr_scan"}, "is_reserved": 0, "fusion_lon": 0.0, "fusion_lat": 0.0, "lon": -77.00196783333334, "name": "b349ab463e677f3aee475a84ffee7bb9"}, {"bike_id": "b3318fcb27a6481cacd316969bc6634d", "type": "electric_scooter", "is_disabled": 0, "lat": 38.916148, "rental_uris": {"ios": "https://dc.lft.to/lastmile_qr_scan", "android": "https://dc.lft.to/lastmile_qr_scan"}, "is_reserved": 0, "fusion_lon": 0.0, "fusion_lat": 0.0, "lon": -77.024114, "name": "b3318fcb27a6481cacd316969bc6634d"}, {"bike_id": "7391e35ac09afb9409b6ef3042720c8c", "type": "electric_scooter", "is_disabled": 0, "lat": 38.91053766666667, "rental_uris": {"ios": "https://dc.lft.to/lastmile_qr_scan", "android": "https://dc.lft.to/lastmile_qr_scan"}, "is_reserved": 0, "fusion_lon": 0.0, "fusion_lat": 0.0, "lon": -77.02197, "name": "7391e35ac09afb9409b6ef3042720c8c"}, {"bike_id": "1b2b4fc45ea06a630e84f8d7d8b5af14", "type": "electric_scooter", "is_disabled": 0, "lat": 38.9056005, "rental_uris": {"ios": "https://dc.lft.to/lastmile_qr_scan", "android": "https://dc.lft.to/lastmile_qr_scan"}, "is_reserved": 0, "fusion_lon": 0.0, "fusion_lat": 0.0, "lon": -77.0652315, "name": "1b2b4fc45ea06a630e84f8d7d8b5af14"}, {"bike_id": "645688aa9366b75415c95acee58da2ad", "type": "electric_scooter", "is_disabled": 0, "lat": 38.90412233333333, "rental_uris": {"ios": "https://dc.lft.to/lastmile_qr_scan", "android": "https://dc.lft.to/lastmile_qr_scan"}, "is_reserved": 0, "fusion_lon": 0.0, "fusion_lat": 0.0, "lon": -77.02647766666666, "name": "645688aa9366b75415c95acee58da2ad"}, {"bike_id": "d3e8ec08717068daaa498780ac94d2ac", "type": "electric_scooter", "is_disabled": 0, "lat": 38.84313816666667, "rental_uris": {"ios": "https://dc.lft.to/lastmile_qr_scan", "android": "https://dc.lft.to/lastmile_qr_scan"}, "is_reserved": 0, "fusion_lon": 0.0, "fusion_lat": 0.0, "lon": -76.99920266666666, "name": "d3e8ec08717068daaa498780ac94d2ac"}, {"bike_id": "f5716177d7ec89044cf9ba7da664df3a", "type": "electric_bike", "is_disabled": 0, "lat": 38.878943166666666, "rental_uris": {"ios": "https://dc.lft.to/lastmile_qr_scan", "android": "https://dc.lft.to/lastmile_qr_scan"}, "is_reserved": 0, "fusion_lon": 0.0, "fusion_lat": 0.0, "lon": -77.00690366666667, "name": "f5716177d7ec89044cf9ba7da664df3a"}, {"bike_id": "c2c2bcc4fdda4cf39f0dc551564fd69f", "type": "electric_scooter", "is_disabled": 0, "lat": 38.9236865, "rental_uris": {"ios": "https://dc.lft.to/lastmile_qr_scan", "android": "https://dc.lft.to/lastmile_qr_scan"}, "is_reserved": 0, "fusion_lon": 0.0, "fusion_lat": 0.0, "lon": -77.0514985, "name": "c2c2bcc4fdda4cf39f0dc551564fd69f"}, {"bike_id": "e724b0a62173fa3c287b49e2777aad62", "type": "electric_scooter", "is_disabled": 0, "lat": 38.871754, "rental_uris": {"ios": "https://dc.lft.to/lastmile_qr_scan", "android": "https://dc.lft.to/lastmile_qr_scan"}, "is_reserved": 0, "fusion_lon": 0.0, "fusion_lat": 0.0, "lon": -77.00617666666666, "name": "e724b0a62173fa3c287b49e2777aad62"}, {"bike_id": "a1b3d77f420efb7f15dbeba8fc00a798", "type": "electric_scooter", "is_disabled": 0, "lat": 38.914030333333336, "rental_uris": {"ios": "https://dc.lft.to/lastmile_qr_scan", "android": "https://dc.lft.to/lastmile_qr_scan"}, "is_reserved": 0, "fusion_lon": 0.0, "fusion_lat": 0.0, "lon": -77.02119983333333, "name": "a1b3d77f420efb7f15dbeba8fc00a798"}, {"bike_id": "a66082f2230af35c7270179464566acd", "type": "electric_scooter", "is_disabled": 0, "lat": 38.91403316666667, "rental_uris": {"ios": "https://dc.lft.to/lastmile_qr_scan", "android": "https://dc.lft.to/lastmile_qr_scan"}, "is_reserved": 0, "fusion_lon": 0.0, "fusion_lat": 0.0, "lon": -77.035989, "name": "a66082f2230af35c7270179464566acd"}, {"bike_id": "abf850434e16e4bd5bde899ddc6caa85", "type": "electric_scooter", "is_disabled": 0, "lat": 38.89842466666666, "rental_uris": {"ios": "https://dc.lft.to/lastmile_qr_scan", "android": "https://dc.lft.to/lastmile_qr_scan"}, "is_reserved": 0, "fusion_lon": 0.0, "fusion_lat": 0.0, "lon": -76.94638533333334, "name": "abf850434e16e4bd5bde899ddc6caa85"}, {"bike_id": "4e0980b79c52e97e3fe4bc83fdc369a9", "type": "electric_scooter", "is_disabled": 0, "lat": 38.91280316666667, "rental_uris": {"ios": "https://dc.lft.to/lastmile_qr_scan", "android": "https://dc.lft.to/lastmile_qr_scan"}, "is_reserved": 0, "fusion_lon": 0.0, "fusion_lat": 0.0, "lon": -77.061169, "name": "4e0980b79c52e97e3fe4bc83fdc369a9"}, {"bike_id": "78c666f2aae783f02309272b13b11a98", "type": "electric_scooter", "is_disabled": 0, "lat": 38.928504333333336, "rental_uris": {"ios": "https://dc.lft.to/lastmile_qr_scan", "android": "https://dc.lft.to/lastmile_qr_scan"}, "is_reserved": 0, "fusion_lon": 0.0, "fusion_lat": 0.0, "lon": -77.03189216666667, "name": "78c666f2aae783f02309272b13b11a98"}, {"bike_id": "3a7475e15878ba74dd5cc265051baa10", "type": "electric_bike", "is_disabled": 0, "lat": 38.842743666666664, "rental_uris": {"ios": "https://dc.lft.to/lastmile_qr_scan", "android": "https://dc.lft.to/lastmile_qr_scan"}, "is_reserved": 0, "fusion_lon": 0.0, "fusion_lat": 0.0, "lon": -76.98847, "name": "3a7475e15878ba74dd5cc265051baa10"}, {"bike_id": "0fd8a05cdaec78cbc2a7a2b90b4ccc68", "type": "electric_scooter", "is_disabled": 0, "lat": 38.9116985, "rental_uris": {"ios": "https://dc.lft.to/lastmile_qr_scan", "android": "https://dc.lft.to/lastmile_qr_scan"}, "is_reserved": 0, "fusion_lon": 0.0, "fusion_lat": 0.0, "lon": -77.03194916666666, "name": "0fd8a05cdaec78cbc2a7a2b90b4ccc68"}, {"bike_id": "de980463cd4ae5168be9c2c023e5d238", "type": "electric_scooter", "is_disabled": 0, "lat": 38.92362383333333, "rental_uris": {"ios": "https://dc.lft.to/lastmile_qr_scan", "android": "https://dc.lft.to/lastmile_qr_scan"}, "is_reserved": 0, "fusion_lon": 0.0, "fusion_lat": 0.0, "lon": -77.0513185, "name": "de980463cd4ae5168be9c2c023e5d238"}, {"bike_id": "8e2068c7d9a452b4dcc6aa6994858c01", "type": "electric_scooter", "is_disabled": 0, "lat": 38.91315383333333, "rental_uris": {"ios": "https://dc.lft.to/lastmile_qr_scan", "android": "https://dc.lft.to/lastmile_qr_scan"}, "is_reserved": 0, "fusion_lon": 0.0, "fusion_lat": 0.0, "lon": -77.045089, "name": "8e2068c7d9a452b4dcc6aa6994858c01"}, {"bike_id": "f1cd610e7ae7768c136de75be2bcb17e", "type": "electric_bike", "is_disabled": 0, "lat": 38.92065616666667, "rental_uris": {"ios": "https://dc.lft.to/lastmile_qr_scan", "android": "https://dc.lft.to/lastmile_qr_scan"}, "is_reserved": 0, "fusion_lon": 0.0, "fusion_lat": 0.0, "lon": -76.890739, "name": "f1cd610e7ae7768c136de75be2bcb17e"}, {"bike_id": "3c1b6b3a005ad3edbd2ef40fa1b019e0", "type": "electric_scooter", "is_disabled": 0, "lat": 38.90685233333333, "rental_uris": {"ios": "https://dc.lft.to/lastmile_qr_scan", "android": "https://dc.lft.to/lastmile_qr_scan"}, "is_reserved": 0, "fusion_lon": 0.0, "fusion_lat": 0.0, "lon": -77.023748, "name": "3c1b6b3a005ad3edbd2ef40fa1b019e0"}, {"bike_id": "981904fd336e70f9b10e51001daf12e1", "type": "electric_scooter", "is_disabled": 0, "lat": 38.90362566666667, "rental_uris": {"ios": "https://dc.lft.to/lastmile_qr_scan", "android": "https://dc.lft.to/lastmile_qr_scan"}, "is_reserved": 0, "fusion_lon": 0.0, "fusion_lat": 0.0, "lon": -77.02933516666667, "name": "981904fd336e70f9b10e51001daf12e1"}, {"bike_id": "6ae99ac19bcc27274591e3d649f65ff8", "type": "electric_bike", "is_disabled": 0, "lat": 38.936673166666665, "rental_uris": {"ios": "https://dc.lft.to/lastmile_qr_scan", "android": "https://dc.lft.to/lastmile_qr_scan"}, "is_reserved": 0, "fusion_lon": 0.0, "fusion_lat": 0.0, "lon": -76.952094, "name": "6ae99ac19bcc27274591e3d649f65ff8"}, {"bike_id": "a7925cb6eb7dad6ba4cf7207ee725407", "type": "electric_scooter", "is_disabled": 0, "lat": 38.91455783333333, "rental_uris": {"ios": "https://dc.lft.to/lastmile_qr_scan", "android": "https://dc.lft.to/lastmile_qr_scan"}, "is_reserved": 0, "fusion_lon": 0.0, "fusion_lat": 0.0, "lon": -77.02279483333334, "name": "a7925cb6eb7dad6ba4cf7207ee725407"}, {"bike_id": "54584a9074e0dfa6bf44b7f0dd03016b", "type": "electric_scooter", "is_disabled": 0, "lat": 38.91687116666667, "rental_uris": {"ios": "https://dc.lft.to/lastmile_qr_scan", "android": "https://dc.lft.to/lastmile_qr_scan"}, "is_reserved": 0, "fusion_lon": 0.0, "fusion_lat": 0.0, "lon": -77.02956966666666, "name": "54584a9074e0dfa6bf44b7f0dd03016b"}, {"bike_id": "ea597401bd59c15a95dd2740fb46db68", "type": "electric_scooter", "is_disabled": 0, "lat": 38.89839883333333, "rental_uris": {"ios": "https://dc.lft.to/lastmile_qr_scan", "android": "https://dc.lft.to/lastmile_qr_scan"}, "is_reserved": 0, "fusion_lon": 0.0, "fusion_lat": 0.0, "lon": -76.946365, "name": "ea597401bd59c15a95dd2740fb46db68"}, {"bike_id": "4fa009ff4ec7363aa7981cd0f3a29ede", "type": "electric_bike", "is_disabled": 0, "lat": 38.92638866666667, "rental_uris": {"ios": "https://dc.lft.to/lastmile_qr_scan", "android": "https://dc.lft.to/lastmile_qr_scan"}, "is_reserved": 0, "fusion_lon": 0.0, "fusion_lat": 0.0, "lon": -76.98426883333333, "name": "4fa009ff4ec7363aa7981cd0f3a29ede"}, {"bike_id": "1408d340569e4643dc929f1eef622129", "type": "electric_scooter", "is_disabled": 0, "lat": 38.90647516666667, "rental_uris": {"ios": "https://dc.lft.to/lastmile_qr_scan", "android": "https://dc.lft.to/lastmile_qr_scan"}, "is_reserved": 0, "fusion_lon": 0.0, "fusion_lat": 0.0, "lon": -77.009858, "name": "1408d340569e4643dc929f1eef622129"}, {"bike_id": "9f202fe440d544f75865a33c1d756e47", "type": "electric_bike", "is_disabled": 0, "lat": 38.92462416666667, "rental_uris": {"ios": "https://dc.lft.to/lastmile_qr_scan", "android": "https://dc.lft.to/lastmile_qr_scan"}, "is_reserved": 0, "fusion_lon": 0.0, "fusion_lat": 0.0, "lon": -77.2257245, "name": "9f202fe440d544f75865a33c1d756e47"}, {"bike_id": "ebca5bc50226b275524999833c8faf50", "type": "electric_scooter", "is_disabled": 0, "lat": 38.94191333333333, "rental_uris": {"ios": "https://dc.lft.to/lastmile_qr_scan", "android": "https://dc.lft.to/lastmile_qr_scan"}, "is_reserved": 0, "fusion_lon": 0.0, "fusion_lat": 0.0, "lon": -77.02431133333333, "name": "ebca5bc50226b275524999833c8faf50"}, {"bike_id": "06b2c93bc70c18cc4d46f6e43148557f", "type": "electric_scooter", "is_disabled": 0, "lat": 38.892952333333334, "rental_uris": {"ios": "https://dc.lft.to/lastmile_qr_scan", "android": "https://dc.lft.to/lastmile_qr_scan"}, "is_reserved": 0, "fusion_lon": 0.0, "fusion_lat": 0.0, "lon": -77.0487825, "name": "06b2c93bc70c18cc4d46f6e43148557f"}, {"bike_id": "a43338c6695299857cbc8997510b2654", "type": "electric_scooter", "is_disabled": 0, "lat": 38.906417166666664, "rental_uris": {"ios": "https://dc.lft.to/lastmile_qr_scan", "android": "https://dc.lft.to/lastmile_qr_scan"}, "is_reserved": 0, "fusion_lon": 0.0, "fusion_lat": 0.0, "lon": -77.01833583333334, "name": "a43338c6695299857cbc8997510b2654"}, {"bike_id": "4895d14daa0daeabad3d8e45946a9311", "type": "electric_scooter", "is_disabled": 0, "lat": 38.89257416666667, "rental_uris": {"ios": "https://dc.lft.to/lastmile_qr_scan", "android": "https://dc.lft.to/lastmile_qr_scan"}, "is_reserved": 0, "fusion_lon": 0.0, "fusion_lat": 0.0, "lon": -76.925749, "name": "4895d14daa0daeabad3d8e45946a9311"}, {"bike_id": "d15c5ed9fb10182ec9c54d84bc9e3e9c", "type": "electric_scooter", "is_disabled": 0, "lat": 38.90853583333333, "rental_uris": {"ios": "https://dc.lft.to/lastmile_qr_scan", "android": "https://dc.lft.to/lastmile_qr_scan"}, "is_reserved": 0, "fusion_lon": 0.0, "fusion_lat": 0.0, "lon": -77.03013616666667, "name": "d15c5ed9fb10182ec9c54d84bc9e3e9c"}, {"bike_id": "6d886d44e0572ca904855d64e41e523d", "type": "electric_scooter", "is_disabled": 0, "lat": 38.864436, "rental_uris": {"ios": "https://dc.lft.to/lastmile_qr_scan", "android": "https://dc.lft.to/lastmile_qr_scan"}, "is_reserved": 0, "fusion_lon": 0.0, "fusion_lat": 0.0, "lon": -76.97984133333334, "name": "6d886d44e0572ca904855d64e41e523d"}, {"bike_id": "b1d0d0a9217aec76264a398cbbceb9dc", "type": "electric_scooter", "is_disabled": 0, "lat": 38.874450833333334, "rental_uris": {"ios": "https://dc.lft.to/lastmile_qr_scan", "android": "https://dc.lft.to/lastmile_qr_scan"}, "is_reserved": 0, "fusion_lon": 0.0, "fusion_lat": 0.0, "lon": -77.00058533333333, "name": "b1d0d0a9217aec76264a398cbbceb9dc"}, {"bike_id": "aadb2d28bf4a5281eecd3da7fc3ca92f", "type": "electric_scooter", "is_disabled": 0, "lat": 38.9566405, "rental_uris": {"ios": "https://dc.lft.to/lastmile_qr_scan", "android": "https://dc.lft.to/lastmile_qr_scan"}, "is_reserved": 0, "fusion_lon": 0.0, "fusion_lat": 0.0, "lon": -77.024069, "name": "aadb2d28bf4a5281eecd3da7fc3ca92f"}, {"bike_id": "2f37c81fdcafafd446329602f76e903e", "type": "electric_scooter", "is_disabled": 0, "lat": 38.904849166666665, "rental_uris": {"ios": "https://dc.lft.to/lastmile_qr_scan", "android": "https://dc.lft.to/lastmile_qr_scan"}, "is_reserved": 0, "fusion_lon": 0.0, "fusion_lat": 0.0, "lon": -77.0294315, "name": "2f37c81fdcafafd446329602f76e903e"}, {"bike_id": "89530bc8a0b3c0b840a2a752be2fb11e", "type": "electric_scooter", "is_disabled": 0, "lat": 38.91398483333333, "rental_uris": {"ios": "https://dc.lft.to/lastmile_qr_scan", "android": "https://dc.lft.to/lastmile_qr_scan"}, "is_reserved": 0, "fusion_lon": 0.0, "fusion_lat": 0.0, "lon": -77.03183883333334, "name": "89530bc8a0b3c0b840a2a752be2fb11e"}, {"bike_id": "186925ba1fb8c12bdb6fae8f600fa70f", "type": "electric_scooter", "is_disabled": 0, "lat": 38.919981, "rental_uris": {"ios": "https://dc.lft.to/lastmile_qr_scan", "android": "https://dc.lft.to/lastmile_qr_scan"}, "is_reserved": 0, "fusion_lon": 0.0, "fusion_lat": 0.0, "lon": -77.04172933333334, "name": "186925ba1fb8c12bdb6fae8f600fa70f"}, {"bike_id": "d18f5fb75676fe076fdf502b1daa94f1", "type": "electric_scooter", "is_disabled": 0, "lat": 38.9159535, "rental_uris": {"ios": "https://dc.lft.to/lastmile_qr_scan", "android": "https://dc.lft.to/lastmile_qr_scan"}, "is_reserved": 0, "fusion_lon": 0.0, "fusion_lat": 0.0, "lon": -77.00199933333333, "name": "d18f5fb75676fe076fdf502b1daa94f1"}, {"bike_id": "34a9d96953015647df3080d9b276c822", "type": "electric_scooter", "is_disabled": 0, "lat": 38.91838833333333, "rental_uris": {"ios": "https://dc.lft.to/lastmile_qr_scan", "android": "https://dc.lft.to/lastmile_qr_scan"}, "is_reserved": 0, "fusion_lon": 0.0, "fusion_lat": 0.0, "lon": -76.965567, "name": "34a9d96953015647df3080d9b276c822"}, {"bike_id": "5913b5aa810a884cfd5444225a3e405b", "type": "electric_scooter", "is_disabled": 0, "lat": 38.920145166666664, "rental_uris": {"ios": "https://dc.lft.to/lastmile_qr_scan", "android": "https://dc.lft.to/lastmile_qr_scan"}, "is_reserved": 0, "fusion_lon": 0.0, "fusion_lat": 0.0, "lon": -77.03127433333333, "name": "5913b5aa810a884cfd5444225a3e405b"}, {"bike_id": "9ecba12930e77a55a1e93d591d00e6a2", "type": "electric_scooter", "is_disabled": 0, "lat": 38.9184145, "rental_uris": {"ios": "https://dc.lft.to/lastmile_qr_scan", "android": "https://dc.lft.to/lastmile_qr_scan"}, "is_reserved": 0, "fusion_lon": 0.0, "fusion_lat": 0.0, "lon": -76.96557916666667, "name": "9ecba12930e77a55a1e93d591d00e6a2"}, {"bike_id": "cb214aa87d6f539281903c5d9441bfa0", "type": "electric_scooter", "is_disabled": 0, "lat": 38.926643166666665, "rental_uris": {"ios": "https://dc.lft.to/lastmile_qr_scan", "android": "https://dc.lft.to/lastmile_qr_scan"}, "is_reserved": 0, "fusion_lon": 0.0, "fusion_lat": 0.0, "lon": -76.99555916666667, "name": "cb214aa87d6f539281903c5d9441bfa0"}, {"bike_id": "a6e1befcb84a6996d8bb036d9936048c", "type": "electric_scooter", "is_disabled": 0, "lat": 38.923616, "rental_uris": {"ios": "https://dc.lft.to/lastmile_qr_scan", "android": "https://dc.lft.to/lastmile_qr_scan"}, "is_reserved": 0, "fusion_lon": 0.0, "fusion_lat": 0.0, "lon": -77.03133983333333, "name": "a6e1befcb84a6996d8bb036d9936048c"}, {"bike_id": "c297b9609dc6c2fdc5d1d493397a7d5c", "type": "electric_scooter", "is_disabled": 0, "lat": 38.92927616666667, "rental_uris": {"ios": "https://dc.lft.to/lastmile_qr_scan", "android": "https://dc.lft.to/lastmile_qr_scan"}, "is_reserved": 0, "fusion_lon": 0.0, "fusion_lat": 0.0, "lon": -77.0326775, "name": "c297b9609dc6c2fdc5d1d493397a7d5c"}, {"bike_id": "69ed8dad66d209fb567855554b19f2e2", "type": "electric_scooter", "is_disabled": 0, "lat": 38.90560816666667, "rental_uris": {"ios": "https://dc.lft.to/lastmile_qr_scan", "android": "https://dc.lft.to/lastmile_qr_scan"}, "is_reserved": 0, "fusion_lon": 0.0, "fusion_lat": 0.0, "lon": -77.031002, "name": "69ed8dad66d209fb567855554b19f2e2"}, {"bike_id": "de1712eb8ada2383efe200f7d9019659", "type": "electric_scooter", "is_disabled": 0, "lat": 38.923695333333335, "rental_uris": {"ios": "https://dc.lft.to/lastmile_qr_scan", "android": "https://dc.lft.to/lastmile_qr_scan"}, "is_reserved": 0, "fusion_lon": 0.0, "fusion_lat": 0.0, "lon": -77.031379, "name": "de1712eb8ada2383efe200f7d9019659"}, {"bike_id": "d3087d58e148dc0dc15bfd931b2b218e", "type": "electric_scooter", "is_disabled": 0, "lat": 38.9039445, "rental_uris": {"ios": "https://dc.lft.to/lastmile_qr_scan", "android": "https://dc.lft.to/lastmile_qr_scan"}, "is_reserved": 0, "fusion_lon": 0.0, "fusion_lat": 0.0, "lon": -77.0628955, "name": "d3087d58e148dc0dc15bfd931b2b218e"}, {"bike_id": "4c7b339d6c7461bd0d12420f73e895c9", "type": "electric_scooter", "is_disabled": 0, "lat": 38.892228833333334, "rental_uris": {"ios": "https://dc.lft.to/lastmile_qr_scan", "android": "https://dc.lft.to/lastmile_qr_scan"}, "is_reserved": 0, "fusion_lon": 0.0, "fusion_lat": 0.0, "lon": -77.03977083333334, "name": "4c7b339d6c7461bd0d12420f73e895c9"}, {"bike_id": "ae4027713d95fca98605475ac7f1e947", "type": "electric_scooter", "is_disabled": 0, "lat": 38.896712666666666, "rental_uris": {"ios": "https://dc.lft.to/lastmile_qr_scan", "android": "https://dc.lft.to/lastmile_qr_scan"}, "is_reserved": 0, "fusion_lon": 0.0, "fusion_lat": 0.0, "lon": -76.93213016666667, "name": "ae4027713d95fca98605475ac7f1e947"}, {"bike_id": "845e364dda5879146596f70b733d4515", "type": "electric_scooter", "is_disabled": 0, "lat": 38.915723, "rental_uris": {"ios": "https://dc.lft.to/lastmile_qr_scan", "android": "https://dc.lft.to/lastmile_qr_scan"}, "is_reserved": 0, "fusion_lon": 0.0, "fusion_lat": 0.0, "lon": -77.0195285, "name": "845e364dda5879146596f70b733d4515"}, {"bike_id": "83acf9ebaa877763d9eef901a291f884", "type": "electric_scooter", "is_disabled": 0, "lat": 38.9210165, "rental_uris": {"ios": "https://dc.lft.to/lastmile_qr_scan", "android": "https://dc.lft.to/lastmile_qr_scan"}, "is_reserved": 0, "fusion_lon": 0.0, "fusion_lat": 0.0, "lon": -77.04702683333333, "name": "83acf9ebaa877763d9eef901a291f884"}, {"bike_id": "9b55eb789d6e8846a40712aa7cd38246", "type": "electric_scooter", "is_disabled": 0, "lat": 38.8973175, "rental_uris": {"ios": "https://dc.lft.to/lastmile_qr_scan", "android": "https://dc.lft.to/lastmile_qr_scan"}, "is_reserved": 0, "fusion_lon": 0.0, "fusion_lat": 0.0, "lon": -77.0245985, "name": "9b55eb789d6e8846a40712aa7cd38246"}, {"bike_id": "f917c919050f176d3c6a34d92b6c6d9a", "type": "electric_bike", "is_disabled": 0, "lat": 38.8593275, "rental_uris": {"ios": "https://dc.lft.to/lastmile_qr_scan", "android": "https://dc.lft.to/lastmile_qr_scan"}, "is_reserved": 0, "fusion_lon": 0.0, "fusion_lat": 0.0, "lon": -77.11831916666667, "name": "f917c919050f176d3c6a34d92b6c6d9a"}, {"bike_id": "cbbbc04d22b7409f4a12f9e1f705849f", "type": "electric_bike", "is_disabled": 0, "lat": 38.82364616666667, "rental_uris": {"ios": "https://dc.lft.to/lastmile_qr_scan", "android": "https://dc.lft.to/lastmile_qr_scan"}, "is_reserved": 0, "fusion_lon": 0.0, "fusion_lat": 0.0, "lon": -77.00219216666666, "name": "cbbbc04d22b7409f4a12f9e1f705849f"}, {"bike_id": "d31bf7ad8c1588459cfef77cb09b2246", "type": "electric_scooter", "is_disabled": 0, "lat": 38.88727433333333, "rental_uris": {"ios": "https://dc.lft.to/lastmile_qr_scan", "android": "https://dc.lft.to/lastmile_qr_scan"}, "is_reserved": 0, "fusion_lon": 0.0, "fusion_lat": 0.0, "lon": -77.031865, "name": "d31bf7ad8c1588459cfef77cb09b2246"}, {"bike_id": "7bc104f9b41659fd03d6a0b67c9ce9ce", "type": "electric_scooter", "is_disabled": 0, "lat": 38.92177316666667, "rental_uris": {"ios": "https://dc.lft.to/lastmile_qr_scan", "android": "https://dc.lft.to/lastmile_qr_scan"}, "is_reserved": 0, "fusion_lon": 0.0, "fusion_lat": 0.0, "lon": -76.99706416666666, "name": "7bc104f9b41659fd03d6a0b67c9ce9ce"}, {"bike_id": "0de427dfbe7cf1b463e40a0eb78927ab", "type": "electric_scooter", "is_disabled": 0, "lat": 38.90167316666667, "rental_uris": {"ios": "https://dc.lft.to/lastmile_qr_scan", "android": "https://dc.lft.to/lastmile_qr_scan"}, "is_reserved": 0, "fusion_lon": 0.0, "fusion_lat": 0.0, "lon": -76.93028316666667, "name": "0de427dfbe7cf1b463e40a0eb78927ab"}, {"bike_id": "d44c579256b0bb2270a22c49af685412", "type": "electric_bike", "is_disabled": 0, "lat": 38.79853166666667, "rental_uris": {"ios": "https://dc.lft.to/lastmile_qr_scan", "android": "https://dc.lft.to/lastmile_qr_scan"}, "is_reserved": 0, "fusion_lon": 0.0, "fusion_lat": 0.0, "lon": -77.06308516666667, "name": "d44c579256b0bb2270a22c49af685412"}, {"bike_id": "bb65b782084e5f956151a597af5b594f", "type": "electric_scooter", "is_disabled": 0, "lat": 38.95652316666666, "rental_uris": {"ios": "https://dc.lft.to/lastmile_qr_scan", "android": "https://dc.lft.to/lastmile_qr_scan"}, "is_reserved": 0, "fusion_lon": 0.0, "fusion_lat": 0.0, "lon": -77.01004783333333, "name": "bb65b782084e5f956151a597af5b594f"}, {"bike_id": "94ca25249be51557be84f5a19bb95616", "type": "electric_scooter", "is_disabled": 0, "lat": 38.956391333333336, "rental_uris": {"ios": "https://dc.lft.to/lastmile_qr_scan", "android": "https://dc.lft.to/lastmile_qr_scan"}, "is_reserved": 0, "fusion_lon": 0.0, "fusion_lat": 0.0, "lon": -77.011588, "name": "94ca25249be51557be84f5a19bb95616"}, {"bike_id": "792ede254e78251f2c040464efc4246c", "type": "electric_scooter", "is_disabled": 0, "lat": 38.905199833333334, "rental_uris": {"ios": "https://dc.lft.to/lastmile_qr_scan", "android": "https://dc.lft.to/lastmile_qr_scan"}, "is_reserved": 0, "fusion_lon": 0.0, "fusion_lat": 0.0, "lon": -77.06382266666667, "name": "792ede254e78251f2c040464efc4246c"}, {"bike_id": "f27a06d07b877a96659e14e0c7da0628", "type": "electric_scooter", "is_disabled": 0, "lat": 38.90063833333333, "rental_uris": {"ios": "https://dc.lft.to/lastmile_qr_scan", "android": "https://dc.lft.to/lastmile_qr_scan"}, "is_reserved": 0, "fusion_lon": 0.0, "fusion_lat": 0.0, "lon": -77.01224233333333, "name": "f27a06d07b877a96659e14e0c7da0628"}, {"bike_id": "521e2443dc1891583d80ee8f5d3c7a46", "type": "electric_bike", "is_disabled": 0, "lat": 38.87477616666666, "rental_uris": {"ios": "https://dc.lft.to/lastmile_qr_scan", "android": "https://dc.lft.to/lastmile_qr_scan"}, "is_reserved": 0, "fusion_lon": 0.0, "fusion_lat": 0.0, "lon": -76.96528566666667, "name": "521e2443dc1891583d80ee8f5d3c7a46"}, {"bike_id": "89c91c44ff4afca58934ac684cec135b", "type": "electric_scooter", "is_disabled": 0, "lat": 38.9150125, "rental_uris": {"ios": "https://dc.lft.to/lastmile_qr_scan", "android": "https://dc.lft.to/lastmile_qr_scan"}, "is_reserved": 0, "fusion_lon": 0.0, "fusion_lat": 0.0, "lon": -77.0177555, "name": "89c91c44ff4afca58934ac684cec135b"}, {"bike_id": "f423de6b52e9d0860e01b204964db180", "type": "electric_scooter", "is_disabled": 0, "lat": 38.9244995, "rental_uris": {"ios": "https://dc.lft.to/lastmile_qr_scan", "android": "https://dc.lft.to/lastmile_qr_scan"}, "is_reserved": 0, "fusion_lon": 0.0, "fusion_lat": 0.0, "lon": -77.0440245, "name": "f423de6b52e9d0860e01b204964db180"}, {"bike_id": "c40fbb866aa51e6b30c9e786ab580ee6", "type": "electric_scooter", "is_disabled": 0, "lat": 38.918370833333334, "rental_uris": {"ios": "https://dc.lft.to/lastmile_qr_scan", "android": "https://dc.lft.to/lastmile_qr_scan"}, "is_reserved": 0, "fusion_lon": 0.0, "fusion_lat": 0.0, "lon": -76.96550866666666, "name": "c40fbb866aa51e6b30c9e786ab580ee6"}, {"bike_id": "a2ffcdd12f7f10be5f6dd12ff7bd86d5", "type": "electric_scooter", "is_disabled": 0, "lat": 38.886515, "rental_uris": {"ios": "https://dc.lft.to/lastmile_qr_scan", "android": "https://dc.lft.to/lastmile_qr_scan"}, "is_reserved": 0, "fusion_lon": 0.0, "fusion_lat": 0.0, "lon": -77.00120983333333, "name": "a2ffcdd12f7f10be5f6dd12ff7bd86d5"}, {"bike_id": "e414893038f37fbf26f8b49e45e5577a", "type": "electric_scooter", "is_disabled": 0, "lat": 38.907222166666664, "rental_uris": {"ios": "https://dc.lft.to/lastmile_qr_scan", "android": "https://dc.lft.to/lastmile_qr_scan"}, "is_reserved": 0, "fusion_lon": 0.0, "fusion_lat": 0.0, "lon": -77.0394825, "name": "e414893038f37fbf26f8b49e45e5577a"}, {"bike_id": "60d41c81d06a67e1a5422977eba55b65", "type": "electric_scooter", "is_disabled": 0, "lat": 38.886957833333334, "rental_uris": {"ios": "https://dc.lft.to/lastmile_qr_scan", "android": "https://dc.lft.to/lastmile_qr_scan"}, "is_reserved": 0, "fusion_lon": 0.0, "fusion_lat": 0.0, "lon": -76.99622433333333, "name": "60d41c81d06a67e1a5422977eba55b65"}, {"bike_id": "50a7c438dca62ab724550911ef390239", "type": "electric_scooter", "is_disabled": 0, "lat": 38.884296666666664, "rental_uris": {"ios": "https://dc.lft.to/lastmile_qr_scan", "android": "https://dc.lft.to/lastmile_qr_scan"}, "is_reserved": 0, "fusion_lon": 0.0, "fusion_lat": 0.0, "lon": -76.95749066666667, "name": "50a7c438dca62ab724550911ef390239"}, {"bike_id": "82f9f6422e678a434266048761f72797", "type": "electric_scooter", "is_disabled": 0, "lat": 38.8873595, "rental_uris": {"ios": "https://dc.lft.to/lastmile_qr_scan", "android": "https://dc.lft.to/lastmile_qr_scan"}, "is_reserved": 0, "fusion_lon": 0.0, "fusion_lat": 0.0, "lon": -77.02397816666667, "name": "82f9f6422e678a434266048761f72797"}, {"bike_id": "746364bf713df8b82e3afe0d066483d2", "type": "electric_scooter", "is_disabled": 0, "lat": 38.91029416666667, "rental_uris": {"ios": "https://dc.lft.to/lastmile_qr_scan", "android": "https://dc.lft.to/lastmile_qr_scan"}, "is_reserved": 0, "fusion_lon": 0.0, "fusion_lat": 0.0, "lon": -77.03803066666667, "name": "746364bf713df8b82e3afe0d066483d2"}, {"bike_id": "10cbb27da97754a5da2868dbbeeae4b1", "type": "electric_scooter", "is_disabled": 0, "lat": 38.922321333333336, "rental_uris": {"ios": "https://dc.lft.to/lastmile_qr_scan", "android": "https://dc.lft.to/lastmile_qr_scan"}, "is_reserved": 0, "fusion_lon": 0.0, "fusion_lat": 0.0, "lon": -77.021253, "name": "10cbb27da97754a5da2868dbbeeae4b1"}, {"bike_id": "27ac8670c2f060ca1ce904160293e4a7", "type": "electric_scooter", "is_disabled": 0, "lat": 38.91791716666667, "rental_uris": {"ios": "https://dc.lft.to/lastmile_qr_scan", "android": "https://dc.lft.to/lastmile_qr_scan"}, "is_reserved": 0, "fusion_lon": 0.0, "fusion_lat": 0.0, "lon": -77.02302433333334, "name": "27ac8670c2f060ca1ce904160293e4a7"}, {"bike_id": "ac72a9738867e64c764fdf165deda6a2", "type": "electric_scooter", "is_disabled": 0, "lat": 38.91831616666666, "rental_uris": {"ios": "https://dc.lft.to/lastmile_qr_scan", "android": "https://dc.lft.to/lastmile_qr_scan"}, "is_reserved": 0, "fusion_lon": 0.0, "fusion_lat": 0.0, "lon": -77.04532916666666, "name": "ac72a9738867e64c764fdf165deda6a2"}, {"bike_id": "9af127bc546cf6a5c7064a0c5e42f5b8", "type": "electric_scooter", "is_disabled": 0, "lat": 38.9144785, "rental_uris": {"ios": "https://dc.lft.to/lastmile_qr_scan", "android": "https://dc.lft.to/lastmile_qr_scan"}, "is_reserved": 0, "fusion_lon": 0.0, "fusion_lat": 0.0, "lon": -77.02597533333334, "name": "9af127bc546cf6a5c7064a0c5e42f5b8"}, {"bike_id": "cc43872c5bbbc141fbf2a6e06f029f41", "type": "electric_scooter", "is_disabled": 0, "lat": 38.90129, "rental_uris": {"ios": "https://dc.lft.to/lastmile_qr_scan", "android": "https://dc.lft.to/lastmile_qr_scan"}, "is_reserved": 0, "fusion_lon": 0.0, "fusion_lat": 0.0, "lon": -77.018019, "name": "cc43872c5bbbc141fbf2a6e06f029f41"}, {"bike_id": "14bc1ecc3fe978030617230616395041", "type": "electric_scooter", "is_disabled": 0, "lat": 38.905030333333336, "rental_uris": {"ios": "https://dc.lft.to/lastmile_qr_scan", "android": "https://dc.lft.to/lastmile_qr_scan"}, "is_reserved": 0, "fusion_lon": 0.0, "fusion_lat": 0.0, "lon": -77.02984333333333, "name": "14bc1ecc3fe978030617230616395041"}, {"bike_id": "c56f3bedd58bfdda170575e288637a09", "type": "electric_scooter", "is_disabled": 0, "lat": 38.890044333333336, "rental_uris": {"ios": "https://dc.lft.to/lastmile_qr_scan", "android": "https://dc.lft.to/lastmile_qr_scan"}, "is_reserved": 0, "fusion_lon": 0.0, "fusion_lat": 0.0, "lon": -76.93744883333333, "name": "c56f3bedd58bfdda170575e288637a09"}, {"bike_id": "0f40efee730b3c4b124f2a2b83e0e0b7", "type": "electric_scooter", "is_disabled": 0, "lat": 38.9009005, "rental_uris": {"ios": "https://dc.lft.to/lastmile_qr_scan", "android": "https://dc.lft.to/lastmile_qr_scan"}, "is_reserved": 0, "fusion_lon": 0.0, "fusion_lat": 0.0, "lon": -77.01945266666667, "name": "0f40efee730b3c4b124f2a2b83e0e0b7"}, {"bike_id": "c92ed9ada1cc9fdd89cd253deb4398b3", "type": "electric_scooter", "is_disabled": 0, "lat": 38.92038433333333, "rental_uris": {"ios": "https://dc.lft.to/lastmile_qr_scan", "android": "https://dc.lft.to/lastmile_qr_scan"}, "is_reserved": 0, "fusion_lon": 0.0, "fusion_lat": 0.0, "lon": -77.0420045, "name": "c92ed9ada1cc9fdd89cd253deb4398b3"}, {"bike_id": "c58110c02c55a84f046c49a0d7a169d8", "type": "electric_scooter", "is_disabled": 0, "lat": 38.93139716666667, "rental_uris": {"ios": "https://dc.lft.to/lastmile_qr_scan", "android": "https://dc.lft.to/lastmile_qr_scan"}, "is_reserved": 0, "fusion_lon": 0.0, "fusion_lat": 0.0, "lon": -77.042474, "name": "c58110c02c55a84f046c49a0d7a169d8"}, {"bike_id": "5195c5ee96a484fac40a5bbdb05fcf27", "type": "electric_scooter", "is_disabled": 0, "lat": 38.89972216666666, "rental_uris": {"ios": "https://dc.lft.to/lastmile_qr_scan", "android": "https://dc.lft.to/lastmile_qr_scan"}, "is_reserved": 0, "fusion_lon": 0.0, "fusion_lat": 0.0, "lon": -77.01911883333334, "name": "5195c5ee96a484fac40a5bbdb05fcf27"}, {"bike_id": "0d402cbaaf6195c0401b1023eae4f6d7", "type": "electric_scooter", "is_disabled": 0, "lat": 38.921152666666664, "rental_uris": {"ios": "https://dc.lft.to/lastmile_qr_scan", "android": "https://dc.lft.to/lastmile_qr_scan"}, "is_reserved": 0, "fusion_lon": 0.0, "fusion_lat": 0.0, "lon": -76.99460233333333, "name": "0d402cbaaf6195c0401b1023eae4f6d7"}, {"bike_id": "d47dfe7e6f9fc180fd0f7f36a83321b6", "type": "electric_scooter", "is_disabled": 0, "lat": 38.92840433333333, "rental_uris": {"ios": "https://dc.lft.to/lastmile_qr_scan", "android": "https://dc.lft.to/lastmile_qr_scan"}, "is_reserved": 0, "fusion_lon": 0.0, "fusion_lat": 0.0, "lon": -77.03273233333333, "name": "d47dfe7e6f9fc180fd0f7f36a83321b6"}, {"bike_id": "cd3e7a5d1789abd975072b7adec2eaf7", "type": "electric_scooter", "is_disabled": 0, "lat": 38.9168675, "rental_uris": {"ios": "https://dc.lft.to/lastmile_qr_scan", "android": "https://dc.lft.to/lastmile_qr_scan"}, "is_reserved": 0, "fusion_lon": 0.0, "fusion_lat": 0.0, "lon": -77.0287575, "name": "cd3e7a5d1789abd975072b7adec2eaf7"}, {"bike_id": "1f41b3b34021dd156815f3c4163dff81", "type": "electric_bike", "is_disabled": 0, "lat": 38.957182333333336, "rental_uris": {"ios": "https://dc.lft.to/lastmile_qr_scan", "android": "https://dc.lft.to/lastmile_qr_scan"}, "is_reserved": 0, "fusion_lon": 0.0, "fusion_lat": 0.0, "lon": -77.02419166666667, "name": "1f41b3b34021dd156815f3c4163dff81"}, {"bike_id": "eae8a18e731c613e415b996137a645d3", "type": "electric_scooter", "is_disabled": 0, "lat": 38.91200666666667, "rental_uris": {"ios": "https://dc.lft.to/lastmile_qr_scan", "android": "https://dc.lft.to/lastmile_qr_scan"}, "is_reserved": 0, "fusion_lon": 0.0, "fusion_lat": 0.0, "lon": -77.032254, "name": "eae8a18e731c613e415b996137a645d3"}, {"bike_id": "f1d5f8ded7da39847464b2b105ef380f", "type": "electric_scooter", "is_disabled": 0, "lat": 38.9203135, "rental_uris": {"ios": "https://dc.lft.to/lastmile_qr_scan", "android": "https://dc.lft.to/lastmile_qr_scan"}, "is_reserved": 0, "fusion_lon": 0.0, "fusion_lat": 0.0, "lon": -76.995693, "name": "f1d5f8ded7da39847464b2b105ef380f"}, {"bike_id": "54f5a9bf86f1bd84d8daa5b05f9ef039", "type": "electric_scooter", "is_disabled": 0, "lat": 38.866936, "rental_uris": {"ios": "https://dc.lft.to/lastmile_qr_scan", "android": "https://dc.lft.to/lastmile_qr_scan"}, "is_reserved": 0, "fusion_lon": 0.0, "fusion_lat": 0.0, "lon": -76.9871555, "name": "54f5a9bf86f1bd84d8daa5b05f9ef039"}, {"bike_id": "a4cbe06ae58467e77a26c87f88603422", "type": "electric_scooter", "is_disabled": 0, "lat": 38.909548, "rental_uris": {"ios": "https://dc.lft.to/lastmile_qr_scan", "android": "https://dc.lft.to/lastmile_qr_scan"}, "is_reserved": 0, "fusion_lon": 0.0, "fusion_lat": 0.0, "lon": -77.02122, "name": "a4cbe06ae58467e77a26c87f88603422"}, {"bike_id": "d0d5ce8472ba4c09fc7697b2a01c7ece", "type": "electric_scooter", "is_disabled": 0, "lat": 38.9226095, "rental_uris": {"ios": "https://dc.lft.to/lastmile_qr_scan", "android": "https://dc.lft.to/lastmile_qr_scan"}, "is_reserved": 0, "fusion_lon": 0.0, "fusion_lat": 0.0, "lon": -77.03665783333334, "name": "d0d5ce8472ba4c09fc7697b2a01c7ece"}, {"bike_id": "91daa5c0567dc0e7492e4fecde36d6fc", "type": "electric_scooter", "is_disabled": 0, "lat": 38.91251, "rental_uris": {"ios": "https://dc.lft.to/lastmile_qr_scan", "android": "https://dc.lft.to/lastmile_qr_scan"}, "is_reserved": 0, "fusion_lon": 0.0, "fusion_lat": 0.0, "lon": -77.02956666666667, "name": "91daa5c0567dc0e7492e4fecde36d6fc"}, {"bike_id": "50b4d54a3d531013c624d765dc452600", "type": "electric_scooter", "is_disabled": 0, "lat": 38.90867866666667, "rental_uris": {"ios": "https://dc.lft.to/lastmile_qr_scan", "android": "https://dc.lft.to/lastmile_qr_scan"}, "is_reserved": 0, "fusion_lon": 0.0, "fusion_lat": 0.0, "lon": -77.03470283333333, "name": "50b4d54a3d531013c624d765dc452600"}, {"bike_id": "d3f274d0141c535008e82ef43475183f", "type": "electric_bike", "is_disabled": 0, "lat": 39.024323833333334, "rental_uris": {"ios": "https://dc.lft.to/lastmile_qr_scan", "android": "https://dc.lft.to/lastmile_qr_scan"}, "is_reserved": 0, "fusion_lon": 0.0, "fusion_lat": 0.0, "lon": -77.13104316666667, "name": "d3f274d0141c535008e82ef43475183f"}, {"bike_id": "ff60cf84ca27ec07fd3f58047e00af4c", "type": "electric_scooter", "is_disabled": 0, "lat": 38.90720566666667, "rental_uris": {"ios": "https://dc.lft.to/lastmile_qr_scan", "android": "https://dc.lft.to/lastmile_qr_scan"}, "is_reserved": 0, "fusion_lon": 0.0, "fusion_lat": 0.0, "lon": -77.041696, "name": "ff60cf84ca27ec07fd3f58047e00af4c"}, {"bike_id": "6e4de62437b458196fa7efab3c2b8937", "type": "electric_scooter", "is_disabled": 0, "lat": 38.91323033333333, "rental_uris": {"ios": "https://dc.lft.to/lastmile_qr_scan", "android": "https://dc.lft.to/lastmile_qr_scan"}, "is_reserved": 0, "fusion_lon": 0.0, "fusion_lat": 0.0, "lon": -77.03190733333334, "name": "6e4de62437b458196fa7efab3c2b8937"}, {"bike_id": "1cfdec27bc8ae8a8f3255f93307f7fb7", "type": "electric_scooter", "is_disabled": 0, "lat": 38.90973016666667, "rental_uris": {"ios": "https://dc.lft.to/lastmile_qr_scan", "android": "https://dc.lft.to/lastmile_qr_scan"}, "is_reserved": 0, "fusion_lon": 0.0, "fusion_lat": 0.0, "lon": -77.015153, "name": "1cfdec27bc8ae8a8f3255f93307f7fb7"}, {"bike_id": "d63e04246dc3fd0e6aaf2f94494fe81c", "type": "electric_scooter", "is_disabled": 0, "lat": 38.9115015, "rental_uris": {"ios": "https://dc.lft.to/lastmile_qr_scan", "android": "https://dc.lft.to/lastmile_qr_scan"}, "is_reserved": 0, "fusion_lon": 0.0, "fusion_lat": 0.0, "lon": -77.0445195, "name": "d63e04246dc3fd0e6aaf2f94494fe81c"}, {"bike_id": "1a55b311c677b226ab8971825fd5b270", "type": "electric_scooter", "is_disabled": 0, "lat": 38.899527, "rental_uris": {"ios": "https://dc.lft.to/lastmile_qr_scan", "android": "https://dc.lft.to/lastmile_qr_scan"}, "is_reserved": 0, "fusion_lon": 0.0, "fusion_lat": 0.0, "lon": -77.0160605, "name": "1a55b311c677b226ab8971825fd5b270"}, {"bike_id": "e5d17ec02e70c359d71e1e64afafeb44", "type": "electric_scooter", "is_disabled": 0, "lat": 38.90786833333333, "rental_uris": {"ios": "https://dc.lft.to/lastmile_qr_scan", "android": "https://dc.lft.to/lastmile_qr_scan"}, "is_reserved": 0, "fusion_lon": 0.0, "fusion_lat": 0.0, "lon": -77.03182966666667, "name": "e5d17ec02e70c359d71e1e64afafeb44"}, {"bike_id": "f79d44ceb20c694d430eaf3d50a2184e", "type": "electric_scooter", "is_disabled": 0, "lat": 38.844328833333336, "rental_uris": {"ios": "https://dc.lft.to/lastmile_qr_scan", "android": "https://dc.lft.to/lastmile_qr_scan"}, "is_reserved": 0, "fusion_lon": 0.0, "fusion_lat": 0.0, "lon": -76.99872283333333, "name": "f79d44ceb20c694d430eaf3d50a2184e"}, {"bike_id": "d72bb54fd245d99e325243fa6d7e3bb1", "type": "electric_scooter", "is_disabled": 0, "lat": 38.933987333333334, "rental_uris": {"ios": "https://dc.lft.to/lastmile_qr_scan", "android": "https://dc.lft.to/lastmile_qr_scan"}, "is_reserved": 0, "fusion_lon": 0.0, "fusion_lat": 0.0, "lon": -77.0352445, "name": "d72bb54fd245d99e325243fa6d7e3bb1"}, {"bike_id": "1ce13fcb342de9482222d02370842479", "type": "electric_bike", "is_disabled": 0, "lat": 38.93891216666667, "rental_uris": {"ios": "https://dc.lft.to/lastmile_qr_scan", "android": "https://dc.lft.to/lastmile_qr_scan"}, "is_reserved": 0, "fusion_lon": 0.0, "fusion_lat": 0.0, "lon": -77.06352483333333, "name": "1ce13fcb342de9482222d02370842479"}, {"bike_id": "aeef6d09f18b52e8d2c0b0b3db07a102", "type": "electric_scooter", "is_disabled": 0, "lat": 38.938472166666664, "rental_uris": {"ios": "https://dc.lft.to/lastmile_qr_scan", "android": "https://dc.lft.to/lastmile_qr_scan"}, "is_reserved": 0, "fusion_lon": 0.0, "fusion_lat": 0.0, "lon": -77.072321, "name": "aeef6d09f18b52e8d2c0b0b3db07a102"}, {"bike_id": "7ee52de0e5d432f203c764f9211e1461", "type": "electric_scooter", "is_disabled": 0, "lat": 38.9094735, "rental_uris": {"ios": "https://dc.lft.to/lastmile_qr_scan", "android": "https://dc.lft.to/lastmile_qr_scan"}, "is_reserved": 0, "fusion_lon": 0.0, "fusion_lat": 0.0, "lon": -77.055682, "name": "7ee52de0e5d432f203c764f9211e1461"}, {"bike_id": "d194f1eea4ce848d7c0d3bfcddff6124", "type": "electric_scooter", "is_disabled": 0, "lat": 38.9650195, "rental_uris": {"ios": "https://dc.lft.to/lastmile_qr_scan", "android": "https://dc.lft.to/lastmile_qr_scan"}, "is_reserved": 0, "fusion_lon": 0.0, "fusion_lat": 0.0, "lon": -77.00201666666666, "name": "d194f1eea4ce848d7c0d3bfcddff6124"}, {"bike_id": "4a5baa7c5fea004a7a46f986f28d0f8e", "type": "electric_scooter", "is_disabled": 0, "lat": 38.927397, "rental_uris": {"ios": "https://dc.lft.to/lastmile_qr_scan", "android": "https://dc.lft.to/lastmile_qr_scan"}, "is_reserved": 0, "fusion_lon": 0.0, "fusion_lat": 0.0, "lon": -77.03356666666667, "name": "4a5baa7c5fea004a7a46f986f28d0f8e"}, {"bike_id": "0001b5a5a2d9df638fbd08621ee91397", "type": "electric_bike", "is_disabled": 0, "lat": 38.99491583333333, "rental_uris": {"ios": "https://dc.lft.to/lastmile_qr_scan", "android": "https://dc.lft.to/lastmile_qr_scan"}, "is_reserved": 0, "fusion_lon": 0.0, "fusion_lat": 0.0, "lon": -77.02877566666666, "name": "0001b5a5a2d9df638fbd08621ee91397"}, {"bike_id": "0563287411b2991f3252f59404ea1b99", "type": "electric_scooter", "is_disabled": 0, "lat": 38.87647416666667, "rental_uris": {"ios": "https://dc.lft.to/lastmile_qr_scan", "android": "https://dc.lft.to/lastmile_qr_scan"}, "is_reserved": 0, "fusion_lon": 0.0, "fusion_lat": 0.0, "lon": -76.96507666666666, "name": "0563287411b2991f3252f59404ea1b99"}, {"bike_id": "08a929af9667f8056c6597a89074262f", "type": "electric_scooter", "is_disabled": 0, "lat": 38.86250366666667, "rental_uris": {"ios": "https://dc.lft.to/lastmile_qr_scan", "android": "https://dc.lft.to/lastmile_qr_scan"}, "is_reserved": 0, "fusion_lon": 0.0, "fusion_lat": 0.0, "lon": -76.99504083333333, "name": "08a929af9667f8056c6597a89074262f"}, {"bike_id": "ec045e7d69e82d0dfcc5512d9ebf431b", "type": "electric_scooter", "is_disabled": 0, "lat": 38.86201466666667, "rental_uris": {"ios": "https://dc.lft.to/lastmile_qr_scan", "android": "https://dc.lft.to/lastmile_qr_scan"}, "is_reserved": 0, "fusion_lon": 0.0, "fusion_lat": 0.0, "lon": -76.9595395, "name": "ec045e7d69e82d0dfcc5512d9ebf431b"}, {"bike_id": "cbc667a5d6cbbddec88d4fc2fc8f8f3b", "type": "electric_scooter", "is_disabled": 0, "lat": 38.968487, "rental_uris": {"ios": "https://dc.lft.to/lastmile_qr_scan", "android": "https://dc.lft.to/lastmile_qr_scan"}, "is_reserved": 0, "fusion_lon": 0.0, "fusion_lat": 0.0, "lon": -77.0272915, "name": "cbc667a5d6cbbddec88d4fc2fc8f8f3b"}, {"bike_id": "2cb8922b0ffba8563c09cf0d90ae1d0f", "type": "electric_bike", "is_disabled": 0, "lat": 38.9952515, "rental_uris": {"ios": "https://dc.lft.to/lastmile_qr_scan", "android": "https://dc.lft.to/lastmile_qr_scan"}, "is_reserved": 0, "fusion_lon": 0.0, "fusion_lat": 0.0, "lon": -77.06952883333334, "name": "2cb8922b0ffba8563c09cf0d90ae1d0f"}, {"bike_id": "8465d6c11ba21439e0d0deb6bb3c4d11", "type": "electric_scooter", "is_disabled": 0, "lat": 38.923716, "rental_uris": {"ios": "https://dc.lft.to/lastmile_qr_scan", "android": "https://dc.lft.to/lastmile_qr_scan"}, "is_reserved": 0, "fusion_lon": 0.0, "fusion_lat": 0.0, "lon": -77.05148266666667, "name": "8465d6c11ba21439e0d0deb6bb3c4d11"}, {"bike_id": "d6ec4e43409ef28fbb570bc8b30972ce", "type": "electric_scooter", "is_disabled": 0, "lat": 38.91122266666667, "rental_uris": {"ios": "https://dc.lft.to/lastmile_qr_scan", "android": "https://dc.lft.to/lastmile_qr_scan"}, "is_reserved": 0, "fusion_lon": 0.0, "fusion_lat": 0.0, "lon": -77.032111, "name": "d6ec4e43409ef28fbb570bc8b30972ce"}, {"bike_id": "065911ac5175fb0fdbb3deb067f8b6ed", "type": "electric_scooter", "is_disabled": 0, "lat": 38.926557833333334, "rental_uris": {"ios": "https://dc.lft.to/lastmile_qr_scan", "android": "https://dc.lft.to/lastmile_qr_scan"}, "is_reserved": 0, "fusion_lon": 0.0, "fusion_lat": 0.0, "lon": -77.0241125, "name": "065911ac5175fb0fdbb3deb067f8b6ed"}, {"bike_id": "f32e69c9fe8be7fd4d87441c8951d242", "type": "electric_scooter", "is_disabled": 0, "lat": 38.88774733333333, "rental_uris": {"ios": "https://dc.lft.to/lastmile_qr_scan", "android": "https://dc.lft.to/lastmile_qr_scan"}, "is_reserved": 0, "fusion_lon": 0.0, "fusion_lat": 0.0, "lon": -77.01724866666666, "name": "f32e69c9fe8be7fd4d87441c8951d242"}, {"bike_id": "a8d183fb0d2f775219919b1096260b3b", "type": "electric_scooter", "is_disabled": 0, "lat": 38.921576, "rental_uris": {"ios": "https://dc.lft.to/lastmile_qr_scan", "android": "https://dc.lft.to/lastmile_qr_scan"}, "is_reserved": 0, "fusion_lon": 0.0, "fusion_lat": 0.0, "lon": -77.03515416666667, "name": "a8d183fb0d2f775219919b1096260b3b"}, {"bike_id": "02da17b055acc2e8d8a8cc35d3a5a725", "type": "electric_scooter", "is_disabled": 0, "lat": 38.917662666666665, "rental_uris": {"ios": "https://dc.lft.to/lastmile_qr_scan", "android": "https://dc.lft.to/lastmile_qr_scan"}, "is_reserved": 0, "fusion_lon": 0.0, "fusion_lat": 0.0, "lon": -77.02283083333333, "name": "02da17b055acc2e8d8a8cc35d3a5a725"}, {"bike_id": "c554798c89e4f6987ac2bc06cea3d43d", "type": "electric_scooter", "is_disabled": 0, "lat": 38.96549516666666, "rental_uris": {"ios": "https://dc.lft.to/lastmile_qr_scan", "android": "https://dc.lft.to/lastmile_qr_scan"}, "is_reserved": 0, "fusion_lon": 0.0, "fusion_lat": 0.0, "lon": -77.0362545, "name": "c554798c89e4f6987ac2bc06cea3d43d"}, {"bike_id": "cd3dcb6373abe12bcd0a22cac660c0ac", "type": "electric_scooter", "is_disabled": 0, "lat": 38.91904683333333, "rental_uris": {"ios": "https://dc.lft.to/lastmile_qr_scan", "android": "https://dc.lft.to/lastmile_qr_scan"}, "is_reserved": 0, "fusion_lon": 0.0, "fusion_lat": 0.0, "lon": -77.03139366666667, "name": "cd3dcb6373abe12bcd0a22cac660c0ac"}, {"bike_id": "56e8079a32bef92ee1dd1f80f27edd17", "type": "electric_scooter", "is_disabled": 0, "lat": 38.916863666666664, "rental_uris": {"ios": "https://dc.lft.to/lastmile_qr_scan", "android": "https://dc.lft.to/lastmile_qr_scan"}, "is_reserved": 0, "fusion_lon": 0.0, "fusion_lat": 0.0, "lon": -77.03773583333333, "name": "56e8079a32bef92ee1dd1f80f27edd17"}, {"bike_id": "2b19d4e0b84d01ef08bf3a61c35b5545", "type": "electric_scooter", "is_disabled": 0, "lat": 38.916917, "rental_uris": {"ios": "https://dc.lft.to/lastmile_qr_scan", "android": "https://dc.lft.to/lastmile_qr_scan"}, "is_reserved": 0, "fusion_lon": 0.0, "fusion_lat": 0.0, "lon": -77.03170116666666, "name": "2b19d4e0b84d01ef08bf3a61c35b5545"}, {"bike_id": "294024f26cb58b708cdaec902debdb3f", "type": "electric_scooter", "is_disabled": 0, "lat": 38.90750933333333, "rental_uris": {"ios": "https://dc.lft.to/lastmile_qr_scan", "android": "https://dc.lft.to/lastmile_qr_scan"}, "is_reserved": 0, "fusion_lon": 0.0, "fusion_lat": 0.0, "lon": -76.99897483333334, "name": "294024f26cb58b708cdaec902debdb3f"}, {"bike_id": "06a039feadbb6a987ace22fffdfcfe3d", "type": "electric_scooter", "is_disabled": 0, "lat": 38.9020805, "rental_uris": {"ios": "https://dc.lft.to/lastmile_qr_scan", "android": "https://dc.lft.to/lastmile_qr_scan"}, "is_reserved": 0, "fusion_lon": 0.0, "fusion_lat": 0.0, "lon": -77.04109383333333, "name": "06a039feadbb6a987ace22fffdfcfe3d"}, {"bike_id": "1d960dd13d7c4def64aef08ae63c97bf", "type": "electric_scooter", "is_disabled": 0, "lat": 38.9154175, "rental_uris": {"ios": "https://dc.lft.to/lastmile_qr_scan", "android": "https://dc.lft.to/lastmile_qr_scan"}, "is_reserved": 0, "fusion_lon": 0.0, "fusion_lat": 0.0, "lon": -77.02210316666667, "name": "1d960dd13d7c4def64aef08ae63c97bf"}, {"bike_id": "d7017529a9e6baf2246316b32f05963c", "type": "electric_scooter", "is_disabled": 0, "lat": 38.900074000000004, "rental_uris": {"ios": "https://dc.lft.to/lastmile_qr_scan", "android": "https://dc.lft.to/lastmile_qr_scan"}, "is_reserved": 0, "fusion_lon": 0.0, "fusion_lat": 0.0, "lon": -76.98536816666666, "name": "d7017529a9e6baf2246316b32f05963c"}, {"bike_id": "41cf3ae3331d58d9849e22f74750f3f4", "type": "electric_scooter", "is_disabled": 0, "lat": 38.874508166666665, "rental_uris": {"ios": "https://dc.lft.to/lastmile_qr_scan", "android": "https://dc.lft.to/lastmile_qr_scan"}, "is_reserved": 0, "fusion_lon": 0.0, "fusion_lat": 0.0, "lon": -77.00067633333333, "name": "41cf3ae3331d58d9849e22f74750f3f4"}, {"bike_id": "06a4aed9449d4437b5aee4354f534519", "type": "electric_scooter", "is_disabled": 0, "lat": 38.924902, "rental_uris": {"ios": "https://dc.lft.to/lastmile_qr_scan", "android": "https://dc.lft.to/lastmile_qr_scan"}, "is_reserved": 0, "fusion_lon": 0.0, "fusion_lat": 0.0, "lon": -77.0244145, "name": "06a4aed9449d4437b5aee4354f534519"}, {"bike_id": "3c2669f865d9f668ede48f7d6adf9d6c", "type": "electric_scooter", "is_disabled": 0, "lat": 38.896855, "rental_uris": {"ios": "https://dc.lft.to/lastmile_qr_scan", "android": "https://dc.lft.to/lastmile_qr_scan"}, "is_reserved": 0, "fusion_lon": 0.0, "fusion_lat": 0.0, "lon": -76.99965516666667, "name": "3c2669f865d9f668ede48f7d6adf9d6c"},