{"data": {"bikes": [{"fusion_lon": 0.0, "name": "6063ad10044ff271747eae5f3447bdcf", "rental_uris": {"android": "https://dc.lft.to/lastmile_qr_scan", "ios": "https://dc.lft.to/lastmile_qr_scan"}, "lat": 38.93100866666666, "bike_id": "6063ad10044ff271747eae5f3447bdcf", "is_disabled": 0, "lon": -77.0237895, "is_reserved": 0, "fusion_lat": 0.0, "type": "electric_scooter"}, {"fusion_lon": 0.0, "name": "65bf0ec447b9bef3631d3f8282bd4a77", "rental_uris": {"android": "https://dc.lft.to/lastmile_qr_scan", "ios": "https://dc.lft.to/lastmile_qr_scan"}, "lat": 38.900551666666665, "bike_id": "65bf0ec447b9bef3631d3f8282bd4a77", "is_disabled": 0, "lon": -77.03945366666666, "is_reserved": 0, "fusion_lat": 0.0, "type": "electric_scooter"}, {"fusion_lon": 0.0, "name": "6fed6b79cd7d3a2816f50ff8599b7e38", "rental_uris": {"android": "https://dc.lft.to/lastmile_qr_scan", "ios": "https://dc.lft.to/lastmile_qr_scan"}, "lat": 38.921963, "bike_id": "6fed6b79cd7d3a2816f50ff8599b7e38", "is_disabled": 0, "lon": -77.03508333333333, "is_reserved": 0, "fusion_lat": 0.0, "type": "electric_scooter"}, {"fusion_lon": 0.0, "name": "8e58bc351eb999b5bd006adbf1c8c5db", "rental_uris": {"android": "https://dc.lft.to/lastmile_qr_scan", "ios": "https://dc.lft.to/lastmile_qr_scan"}, "lat": 38.87434183333333, "bike_id": "8e58bc351eb999b5bd006adbf1c8c5db", "is_disabled": 0, "lon": -77.0005805, "is_reserved": 0, "fusion_lat": 0.0, "type": "electric_scooter"}, {"fusion_lon": 0.0, "name": "77fd39a56c3a8015d13d4442e42e3a27", "rental_uris": {"android": "https://dc.lft.to/lastmile_qr_scan", "ios": "https://dc.lft.to/lastmile_qr_scan"}, "lat": 38.8747605, "bike_id": "77fd39a56c3a8015d13d4442e42e3a27", "is_disabled": 0, "lon": -77.00771783333333, "is_reserved": 0, "fusion_lat": 0.0, "type": "electric_bike"}, {"fusion_lon": 0.0, "name": "cc74b89e893ffb47f0ed5811dba91027", "rental_uris": {"android": "https://dc.lft.to/lastmile_qr_scan", "ios": "https://dc.lft.to/lastmile_qr_scan"}, "lat": 38.90075366666667, "bike_id": "cc74b89e893ffb47f0ed5811dba91027", "is_disabled": 0, "lon": -76.98837416666667, "is_reserved": 0, "fusion_lat": 0.0, "type": "electric_scooter"}, {"fusion_lon": 0.0, "name": "44dff2c48135aab82d5edff27d2733ca", "rental_uris": {"android": "https://dc.lft.to/lastmile_qr_scan", "ios": "https://dc.lft.to/lastmile_qr_scan"}, "lat": 38.882826, "bike_id": "44dff2c48135aab82d5edff27d2733ca", "is_disabled": 0, "lon": -76.93235683333333, "is_reserved": 0, "fusion_lat": 0.0, "type": "electric_bike"}, {"fusion_lon": 0.0, "name": "909564063c51458e22e0cb6d89329a5e", "rental_uris": {"android": "https://dc.lft.to/lastmile_qr_scan", "ios": "https://dc.lft.to/lastmile_qr_scan"}, "lat": 38.904785333333336, "bike_id": "909564063c51458e22e0cb6d89329a5e", "is_disabled": 0, "lon": -77.04048916666666, "is_reserved": 0, "fusion_lat": 0.0, "type": "electric_scooter"}, {"fusion_lon": 0.0, "name": "2539ecc64174e6e657f708a50f0d9eaf", "rental_uris": {"android": "https://dc.lft.to/lastmile_qr_scan", "ios": "https://dc.lft.to/lastmile_qr_scan"}, "lat": 38.8972115, "bike_id": "2539ecc64174e6e657f708a50f0d9eaf", "is_disabled": 0, "lon": -77.03191933333333, "is_reserved": 0, "fusion_lat": 0.0, "type": "electric_scooter"}, {"fusion_lon": 0.0, "name": "05bd9a8158283be3e1ba360b78ff7f56", "rental_uris": {"android": "https://dc.lft.to/lastmile_qr_scan", "ios": "https://dc.lft.to/lastmile_qr_scan"}, "lat": 38.92138466666667, "bike_id": "05bd9a8158283be3e1ba360b78ff7f56", "is_disabled": 0, "lon": -77.02863616666667, "is_reserved": 0, "fusion_lat": 0.0, "type": "electric_bike"}, {"fusion_lon": 0.0, "name": "23c923ee8bb5951443674367116eabf9", "rental_uris": {"android": "https://dc.lft.to/lastmile_qr_scan", "ios": "https://dc.lft.to/lastmile_qr_scan"}, "lat": 38.924174666666666, "bike_id": "23c923ee8bb5951443674367116eabf9", "is_disabled": 0, "lon": -77.02123533333334, "is_reserved": 0, "fusion_lat": 0.0, "type": "electric_scooter"}, {"fusion_lon": 0.0, "name": "5b86792c9b4774ae7c2c2669fd9fd6bb", "rental_uris": {"android": "https://dc.lft.to/lastmile_qr_scan", "ios": "https://dc.lft.to/lastmile_qr_scan"}, "lat": 38.90904716666667, "bike_id": "5b86792c9b4774ae7c2c2669fd9fd6bb", "is_disabled": 0, "lon": -77.07267066666667, "is_reserved": 0, "fusion_lat": 0.0, "type": "electric_scooter"}, {"fusion_lon": 0.0, "name": "905697088dcc59e0e402013e772a4d39", "rental_uris": {"android": "https://dc.lft.to/lastmile_qr_scan", "ios": "https://dc.lft.to/lastmile_qr_scan"}, "lat": 38.90124683333333, "bike_id": "905697088dcc59e0e402013e772a4d39", "is_disabled": 0, "lon": -77.04541033333334, "is_reserved": 0, "fusion_lat": 0.0, "type": "electric_scooter"}, {"fusion_lon": 0.0, "name": "68ff649489fce2fc52013a95583b65ed", "rental_uris": {"android": "https://dc.lft.to/lastmile_qr_scan", "ios": "https://dc.lft.to/lastmile_qr_scan"}, "lat": 38.88067066666667, "bike_id": "68ff649489fce2fc52013a95583b65ed", "is_disabled": 0, "lon": -76.9853115, "is_reserved": 0, "fusion_lat": 0.0, "type": "electric_bike"}, {"fusion_lon": 0.0, "name": "274915ee8441368d14204072a8a5ef95", "rental_uris": {"android": "https://dc.lft.to/lastmile_qr_scan", "ios": "https://dc.lft.to/lastmile_qr_scan"}, "lat": 38.9243895, "bike_id": "274915ee8441368d14204072a8a5ef95", "is_disabled": 0, "lon": -77.02031716666667, "is_reserved": 0, "fusion_lat": 0.0, "type": "electric_scooter"}, {"fusion_lon": 0.0, "name": "a03456fa915a0727327cd45d57722aab", "rental_uris": {"android": "https://dc.lft.to/lastmile_qr_scan", "ios": "https://dc.lft.to/lastmile_qr_scan"}, "lat": 38.9361915, "bike_id": "a03456fa915a0727327cd45d57722aab", "is_disabled": 0, "lon": -77.0320745, "is_reserved": 0, "fusion_lat": 0.0, "type": "electric_scooter"}, {"fusion_lon": 0.0, "name": "e06e1b0a34d31e496f6cacd0667e3d55", "rental_uris": {"android": "https://dc.lft.to/lastmile_qr_scan", "ios": "https://dc.lft.to/lastmile_qr_scan"}, "lat": 38.87549216666667, "bike_id": "e06e1b0a34d31e496f6cacd0667e3d55", "is_disabled": 0, "lon": -77.00572916666667, "is_reserved": 0, "fusion_lat": 0.0, "type": "electric_scooter"}, {"fusion_lon": 0.0, "name": "fae5e2d0793cef37fb50d15ef1f3c612", "rental_uris": {"android": "https://dc.lft.to/lastmile_qr_scan", "ios": "https://dc.lft.to/lastmile_qr_scan"}, "lat": 38.901224666666664, "bike_id": "fae5e2d0793cef37fb50d15ef1f3c612", "is_disabled": 0, "lon": -77.02990333333334, "is_reserved": 0, "fusion_lat": 0.0, "type": "electric_scooter"}, {"fusion_lon": 0.0, "name": "25399c4557f450a66a4513a23dde11d6", "rental_uris": {"android": "https://dc.lft.to/lastmile_qr_scan", "ios": "https://dc.lft.to/lastmile_qr_scan"}, "lat": 38.85216416666667, "bike_id": "25399c4557f450a66a4513a23dde11d6", "is_disabled": 0, "lon": -76.994283, "is_reserved": 0, "fusion_lat": 0.0, "type": "electric_scooter"}, {"fusion_lon": 0.0, "name": "6d43718a94ad1dd83e946ac54585ceaa", "rental_uris": {"android": "https://dc.lft.to/lastmile_qr_scan", "ios": "https://dc.lft.to/lastmile_qr_scan"}, "lat": 38.92847033333334, "bike_id": "6d43718a94ad1dd83e946ac54585ceaa", "is_disabled": 0, "lon": -77.05427, "is_reserved": 0, "fusion_lat": 0.0, "type": "electric_scooter"}, {"fusion_lon": 0.0, "name": "ae15140229016edeb2ee62b8891a8439", "rental_uris": {"android": "https://dc.lft.to/lastmile_qr_scan", "ios": "https://dc.lft.to/lastmile_qr_scan"}, "lat": 38.89830583333333, "bike_id": "ae15140229016edeb2ee62b8891a8439", "is_disabled": 0, "lon": -77.02935216666667, "is_reserved": 0, "fusion_lat": 0.0, "type": "electric_scooter"}, {"fusion_lon": 0.0, "name": "d18907854ba73ffc9e35eb62b3ccd904", "rental_uris": {"android": "https://dc.lft.to/lastmile_qr_scan", "ios": "https://dc.lft.to/lastmile_qr_scan"}, "lat": 38.9053025, "bike_id": "d18907854ba73ffc9e35eb62b3ccd904", "is_disabled": 0, "lon": -77.06170983333334, "is_reserved": 0, "fusion_lat": 0.0, "type": "electric_scooter"}, {"fusion_lon": 0.0, "name": "e7ec465bf592e5fa066996f64ea2c202", "rental_uris": {"android": "https://dc.lft.to/lastmile_qr_scan", "ios": "https://dc.lft.to/lastmile_qr_scan"}, "lat": 38.91342566666667, "bike_id": "e7ec465bf592e5fa066996f64ea2c202", "is_disabled": 0, "lon": -76.9889605, "is_reserved": 0, "fusion_lat": 0.0, "type": "electric_scooter"}, {"fusion_lon": 0.0, "name": "576f3753e443b0bdde01555bf4990e9d", "rental_uris": {"android": "https://dc.lft.to/lastmile_qr_scan", "ios": "https://dc.lft.to/lastmile_qr_scan"}, "lat": 38.884556333333336, "bike_id": "576f3753e443b0bdde01555bf4990e9d", "is_disabled": 0, "lon": -77.00037933333333, "is_reserved": 0, "fusion_lat": 0.0, "type": "electric_scooter"}, {"fusion_lon": 0.0, "name": "997ef27606ba9040e9f25cf744939dad", "rental_uris": {"android": "https://dc.lft.to/lastmile_qr_scan", "ios": "https://dc.lft.to/lastmile_qr_scan"}, "lat": 38.90655266666667, "bike_id": "997ef27606ba9040e9f25cf744939dad", "is_disabled": 0, "lon": -77.046104, "is_reserved": 0, "fusion_lat": 0.0, "type": "electric_scooter"}, {"fusion_lon": 0.0, "name": "d2831f48c74b6068e411fb739b49f7e6", "rental_uris": {"android": "https://dc.lft.to/lastmile_qr_scan", "ios": "https://dc.lft.to/lastmile_qr_scan"}, "lat": 38.903710333333336, "bike_id": "d2831f48c74b6068e411fb739b49f7e6", "is_disabled": 0, "lon": -77.01760616666667, "is_reserved": 0, "fusion_lat": 0.0, "type": "electric_scooter"}, {"fusion_lon": 0.0, "name": "aebb48c298b3878f3d9f86c2f902a522", "rental_uris": {"android": "https://dc.lft.to/lastmile_qr_scan", "ios": "https://dc.lft.to/lastmile_qr_scan"}, "lat": 38.9155525, "bike_id": "aebb48c298b3878f3d9f86c2f902a522", "is_disabled": 0, "lon": -77.03962716666666, "is_reserved": 0, "fusion_lat": 0.0, "type": "electric_scooter"}, {"fusion_lon": 0.0, "name": "2ddb412dd60bc5b304d6cbf88d082961", "rental_uris": {"android": "https://dc.lft.to/lastmile_qr_scan", "ios": "https://dc.lft.to/lastmile_qr_scan"}, "lat": 38.964034166666664, "bike_id": "2ddb412dd60bc5b304d6cbf88d082961", "is_disabled": 0, "lon": -77.02763916666666, "is_reserved": 0, "fusion_lat": 0.0, "type": "electric_scooter"}, {"fusion_lon": 0.0, "name": "dd6bdd245fbcc92e4c101de64cde8859", "rental_uris": {"android": "https://dc.lft.to/lastmile_qr_scan", "ios": "https://dc.lft.to/lastmile_qr_scan"}, "lat": 38.90033566666666, "bike_id": "dd6bdd245fbcc92e4c101de64cde8859", "is_disabled": 0, "lon": -76.98828483333334, "is_reserved": 0, "fusion_lat": 0.0, "type": "electric_scooter"}, {"fusion_lon": 0.0, "name": "88c4b30c7d981529a46148bdaaf08381", "rental_uris": {"android": "https://dc.lft.to/lastmile_qr_scan", "ios": "https://dc.lft.to/lastmile_qr_scan"}, "lat": 38.899194666666666, "bike_id": "88c4b30c7d981529a46148bdaaf08381", "is_disabled": 0, "lon": -77.0330625, "is_reserved": 0, "fusion_lat": 0.0, "type": "electric_scooter"}, {"fusion_lon": 0.0, "name": "31c5d165ec721a29bf9737c5ecd197e2", "rental_uris": {"android": "https://dc.lft.to/lastmile_qr_scan", "ios": "https://dc.lft.to/lastmile_qr_scan"}, "lat": 38.916985833333335, "bike_id": "31c5d165ec721a29bf9737c5ecd197e2", "is_disabled": 0, "lon": -77.042157, "is_reserved": 0, "fusion_lat": 0.0, "type": "electric_scooter"}, {"fusion_lon": 0.0, "name": "41f4d1a3e9864d1b2a4a092a5d51f1b9", "rental_uris": {"android": "https://dc.lft.to/lastmile_qr_scan", "ios": "https://dc.lft.to/lastmile_qr_scan"}, "lat": 38.91667983333333, "bike_id": "41f4d1a3e9864d1b2a4a092a5d51f1b9", "is_disabled": 0, "lon": -77.04608933333333, "is_reserved": 0, "fusion_lat": 0.0, "type": "electric_scooter"}, {"fusion_lon": 0.0, "name": "df2ec2595ac34590198b64ff31382f0f", "rental_uris": {"android": "https://dc.lft.to/lastmile_qr_scan", "ios": "https://dc.lft.to/lastmile_qr_scan"}, "lat": 38.806846166666666, "bike_id": "df2ec2595ac34590198b64ff31382f0f", "is_disabled": 0, "lon": -77.133839, "is_reserved": 0, "fusion_lat": 0.0, "type": "electric_bike"}, {"fusion_lon": 0.0, "name": "be209544ab8219b3099cd6f61040fb85", "rental_uris": {"android": "https://dc.lft.to/lastmile_qr_scan", "ios": "https://dc.lft.to/lastmile_qr_scan"}, "lat": 38.84715716666667, "bike_id": "be209544ab8219b3099cd6f61040fb85", "is_disabled": 0, "lon": -76.968132, "is_reserved": 0, "fusion_lat": 0.0, "type": "electric_scooter"}, {"fusion_lon": 0.0, "name": "396e0248e4ab133f651edf02315bcda5", "rental_uris": {"android": "https://dc.lft.to/lastmile_qr_scan", "ios": "https://dc.lft.to/lastmile_qr_scan"}, "lat": 38.87947316666666, "bike_id": "396e0248e4ab133f651edf02315bcda5", "is_disabled": 0, "lon": -77.0036715, "is_reserved": 0, "fusion_lat": 0.0, "type": "electric_scooter"}, {"fusion_lon": 0.0, "name": "388078d235fda49ddaa921aa86e4940c", "rental_uris": {"android": "https://dc.lft.to/lastmile_qr_scan", "ios": "https://dc.lft.to/lastmile_qr_scan"}, "lat": 38.883427166666664, "bike_id": "388078d235fda49ddaa921aa86e4940c", "is_disabled": 0, "lon": -76.9428175, "is_reserved": 0, "fusion_lat": 0.0, "type": "electric_scooter"}, {"fusion_lon": 0.0, "name": "2b9ab1cb84d7e678d744b693bb0433bf", "rental_uris": {"android": "https://dc.lft.to/lastmile_qr_scan", "ios": "https://dc.lft.to/lastmile_qr_scan"}, "lat": 38.89617, "bike_id": "2b9ab1cb84d7e678d744b693bb0433bf", "is_disabled": 0, "lon": -77.00335366666667, "is_reserved": 0, "fusion_lat": 0.0, "type": "electric_scooter"}, {"fusion_lon": 0.0, "name": "002dd3eacd9f68ab33d25462dd254bd8", "rental_uris": {"android": "https://dc.lft.to/lastmile_qr_scan", "ios": "https://dc.lft.to/lastmile_qr_scan"}, "lat": 38.884238833333335, "bike_id": "002dd3eacd9f68ab33d25462dd254bd8", "is_disabled": 0, "lon": -77.02566916666666, "is_reserved": 0, "fusion_lat": 0.0, "type": "electric_scooter"}, {"fusion_lon": 0.0, "name": "453e43a75b8fcafdb339d452522840e7", "rental_uris": {"android": "https://dc.lft.to/lastmile_qr_scan", "ios": "https://dc.lft.to/lastmile_qr_scan"}, "lat": 38.89578766666666, "bike_id": "453e43a75b8fcafdb339d452522840e7", "is_disabled": 0, "lon": -76.94842266666667, "is_reserved": 0, "fusion_lat": 0.0, "type": "electric_scooter"}, {"fusion_lon": 0.0, "name": "3b05fe163513bdefcc8319c993ce684a", "rental_uris": {"android": "https://dc.lft.to/lastmile_qr_scan", "ios": "https://dc.lft.to/lastmile_qr_scan"}, "lat": 38.965023, "bike_id": "3b05fe163513bdefcc8319c993ce684a", "is_disabled": 0, "lon": -77.0026015, "is_reserved": 0, "fusion_lat": 0.0, "type": "electric_scooter"}, {"fusion_lon": 0.0, "name": "6a234d2d7ad585400d761d9a665fd425", "rental_uris": {"android": "https://dc.lft.to/lastmile_qr_scan", "ios": "https://dc.lft.to/lastmile_qr_scan"}, "lat": 38.91838833333333, "bike_id": "6a234d2d7ad585400d761d9a665fd425", "is_disabled": 0, "lon": -77.02273883333334, "is_reserved": 0, "fusion_lat": 0.0, "type": "electric_scooter"}, {"fusion_lon": 0.0, "name": "b925a166dc15d382cf20c93c5dd915a3", "rental_uris": {"android": "https://dc.lft.to/lastmile_qr_scan", "ios": "https://dc.lft.to/lastmile_qr_scan"}, "lat": 38.8987905, "bike_id": "b925a166dc15d382cf20c93c5dd915a3", "is_disabled": 0, "lon": -76.93183233333333, "is_reserved": 0, "fusion_lat": 0.0, "type": "electric_bike"}, {"fusion_lon": 0.0, "name": "925bf67863fc1286807d850f2d3c4f84", "rental_uris": {"android": "https://dc.lft.to/lastmile_qr_scan", "ios": "https://dc.lft.to/lastmile_qr_scan"}, "lat": 38.900876, "bike_id": "925bf67863fc1286807d850f2d3c4f84", "is_disabled": 0, "lon": -77.04901983333333, "is_reserved": 0, "fusion_lat": 0.0, "type": "electric_scooter"}, {"fusion_lon": 0.0, "name": "bd817c03424f22e071bdc28ca145ae2d", "rental_uris": {"android": "https://dc.lft.to/lastmile_qr_scan", "ios": "https://dc.lft.to/lastmile_qr_scan"}, "lat": 38.908013833333335, "bike_id": "bd817c03424f22e071bdc28ca145ae2d", "is_disabled": 0, "lon": -77.08397183333334, "is_reserved": 0, "fusion_lat": 0.0, "type": "electric_scooter"}, {"fusion_lon": 0.0, "name": "f69dde9244a0a7038481ca35ff9fac30", "rental_uris": {"android": "https://dc.lft.to/lastmile_qr_scan", "ios": "https://dc.lft.to/lastmile_qr_scan"}, "lat": 38.90863383333333, "bike_id": "f69dde9244a0a7038481ca35ff9fac30", "is_disabled": 0, "lon": -77.08075466666666, "is_reserved": 0, "fusion_lat": 0.0, "type": "electric_bike"}, {"fusion_lon": 0.0, "name": "cbd50bd5b0300edd36668db266af4736", "rental_uris": {"android": "https://dc.lft.to/lastmile_qr_scan", "ios": "https://dc.lft.to/lastmile_qr_scan"}, "lat": 38.897335166666664, "bike_id": "cbd50bd5b0300edd36668db266af4736", "is_disabled": 0, "lon": -77.03116283333334, "is_reserved": 0, "fusion_lat": 0.0, "type": "electric_scooter"}, {"fusion_lon": 0.0, "name": "80ee79a91d6defb9e7aa6a13ab9f1d35", "rental_uris": {"android": "https://dc.lft.to/lastmile_qr_scan", "ios": "https://dc.lft.to/lastmile_qr_scan"}, "lat": 38.9234805, "bike_id": "80ee79a91d6defb9e7aa6a13ab9f1d35", "is_disabled": 0, "lon": -77.021083, "is_reserved": 0, "fusion_lat": 0.0, "type": "electric_scooter"}, {"fusion_lon": 0.0, "name": "d30b0725f1ba202fe8725db212ae0ca1", "rental_uris": {"android": "https://dc.lft.to/lastmile_qr_scan", "ios": "https://dc.lft.to/lastmile_qr_scan"}, "lat": 38.972567833333336, "bike_id": "d30b0725f1ba202fe8725db212ae0ca1", "is_disabled": 0, "lon": -76.992776, "is_reserved": 0, "fusion_lat": 0.0, "type": "electric_bike"}, {"fusion_lon": 0.0, "name": "1e42a75c89cb5cb0857d9afba9300a92", "rental_uris": {"android": "https://dc.lft.to/lastmile_qr_scan", "ios": "https://dc.lft.to/lastmile_qr_scan"}, "lat": 38.92426233333333, "bike_id": "1e42a75c89cb5cb0857d9afba9300a92", "is_disabled": 0, "lon": -77.02130333333334, "is_reserved": 0, "fusion_lat": 0.0, "type": "electric_scooter"}, {"fusion_lon": 0.0, "name": "3019c86e49355e5a48f2e23b2cfb4eae", "rental_uris": {"android": "https://dc.lft.to/lastmile_qr_scan", "ios": "https://dc.lft.to/lastmile_qr_scan"}, "lat": 38.87927166666667, "bike_id": "3019c86e49355e5a48f2e23b2cfb4eae", "is_disabled": 0, "lon": -77.0234985, "is_reserved": 0, "fusion_lat": 0.0, "type": "electric_bike"}, {"fusion_lon": 0.0, "name": "41683a6eb5d05b6cbf95a845eb7bf51c", "rental_uris": {"android": "https://dc.lft.to/lastmile_qr_scan", "ios": "https://dc.lft.to/lastmile_qr_scan"}, "lat": 38.92424916666667, "bike_id": "41683a6eb5d05b6cbf95a845eb7bf51c", "is_disabled": 0, "lon": -77.0196315, "is_reserved": 0, "fusion_lat": 0.0, "type": "electric_scooter"}, {"fusion_lon": 0.0, "name": "02656340cb4805bf691f303a5b91f9cf", "rental_uris": {"android": "https://dc.lft.to/lastmile_qr_scan", "ios": "https://dc.lft.to/lastmile_qr_scan"}, "lat": 38.893872333333334, "bike_id": "02656340cb4805bf691f303a5b91f9cf", "is_disabled": 0, "lon": -77.02252283333333, "is_reserved": 0, "fusion_lat": 0.0, "type": "electric_scooter"}, {"fusion_lon": 0.0, "name": "0b5aaae58c7ff1f3337c6aae78e113bb", "rental_uris": {"android": "https://dc.lft.to/lastmile_qr_scan", "ios": "https://dc.lft.to/lastmile_qr_scan"}, "lat": 38.90560333333333, "bike_id": "0b5aaae58c7ff1f3337c6aae78e113bb", "is_disabled": 0, "lon": -77.00212066666667, "is_reserved": 0, "fusion_lat": 0.0, "type": "electric_scooter"}, {"fusion_lon": 0.0, "name": "04536509468bba084ed7c25e01f57045", "rental_uris": {"android": "https://dc.lft.to/lastmile_qr_scan", "ios": "https://dc.lft.to/lastmile_qr_scan"}, "lat": 38.9061775, "bike_id": "04536509468bba084ed7c25e01f57045", "is_disabled": 0, "lon": -77.07033383333334, "is_reserved": 0, "fusion_lat": 0.0, "type": "electric_scooter"}, {"fusion_lon": 0.0, "name": "0df8d5170649717845fff03f4688f86d", "rental_uris": {"android": "https://dc.lft.to/lastmile_qr_scan", "ios": "https://dc.lft.to/lastmile_qr_scan"}, "lat": 38.918586166666664, "bike_id": "0df8d5170649717845fff03f4688f86d", "is_disabled": 0, "lon": -77.04470333333333, "is_reserved": 0, "fusion_lat": 0.0, "type": "electric_scooter"}, {"fusion_lon": 0.0, "name": "de7bea99cfdfb999368672a5c4cd22d4", "rental_uris": {"android": "https://dc.lft.to/lastmile_qr_scan", "ios": "https://dc.lft.to/lastmile_qr_scan"}, "lat": 38.91870883333333, "bike_id": "de7bea99cfdfb999368672a5c4cd22d4", "is_disabled": 0, "lon": -77.03188166666666, "is_reserved": 0, "fusion_lat": 0.0, "type": "electric_scooter"}, {"fusion_lon": 0.0, "name": "2a0505ff7769d6ae55ebc9e25a21faba", "rental_uris": {"android": "https://dc.lft.to/lastmile_qr_scan", "ios": "https://dc.lft.to/lastmile_qr_scan"}, "lat": 38.88965, "bike_id": "2a0505ff7769d6ae55ebc9e25a21faba", "is_disabled": 0, "lon": -76.92735933333333, "is_reserved": 0, "fusion_lat": 0.0, "type": "electric_scooter"}, {"fusion_lon": 0.0, "name": "ec90f32f22c30d0338253d9ccb62cdf8", "rental_uris": {"android": "https://dc.lft.to/lastmile_qr_scan", "ios": "https://dc.lft.to/lastmile_qr_scan"}, "lat": 38.915617833333336, "bike_id": "ec90f32f22c30d0338253d9ccb62cdf8", "is_disabled": 0, "lon": -77.067808, "is_reserved": 0, "fusion_lat": 0.0, "type": "electric_scooter"}, {"fusion_lon": 0.0, "name": "a33ee7676fff39718b5b3aa365a01967", "rental_uris": {"android": "https://dc.lft.to/lastmile_qr_scan", "ios": "https://dc.lft.to/lastmile_qr_scan"}, "lat": 38.90670716666666, "bike_id": "a33ee7676fff39718b5b3aa365a01967", "is_disabled": 0, "lon": -77.02714383333333, "is_reserved": 0, "fusion_lat": 0.0, "type": "electric_scooter"}, {"fusion_lon": 0.0, "name": "26324cb47a9438eab4441c767361cf02", "rental_uris": {"android": "https://dc.lft.to/lastmile_qr_scan", "ios": "https://dc.lft.to/lastmile_qr_scan"}, "lat": 38.917944166666665, "bike_id": "26324cb47a9438eab4441c767361cf02", "is_disabled": 0, "lon": -77.02701816666666, "is_reserved": 0, "fusion_lat": 0.0, "type": "electric_scooter"}, {"fusion_lon": 0.0, "name": "ce36de0d0e1af93a56b336c710bc74f0", "rental_uris": {"android": "https://dc.lft.to/lastmile_qr_scan", "ios": "https://dc.lft.to/lastmile_qr_scan"}, "lat": 38.882376, "bike_id": "ce36de0d0e1af93a56b336c710bc74f0", "is_disabled": 0, "lon": -76.99484966666667, "is_reserved": 0, "fusion_lat": 0.0, "type": "electric_scooter"}, {"fusion_lon": 0.0, "name": "f15e1afc34a8a34696d42cba84e5f4aa", "rental_uris": {"android": "https://dc.lft.to/lastmile_qr_scan", "ios": "https://dc.lft.to/lastmile_qr_scan"}, "lat": 38.86473983333333, "bike_id": "f15e1afc34a8a34696d42cba84e5f4aa", "is_disabled": 0, "lon": -76.982275, "is_reserved": 0, "fusion_lat": 0.0, "type": "electric_scooter"}, {"fusion_lon": 0.0, "name": "8ab9a93e080658add8b64840c7b8868a", "rental_uris": {"android": "https://dc.lft.to/lastmile_qr_scan", "ios": "https://dc.lft.to/lastmile_qr_scan"}, "lat": 38.8570785, "bike_id": "8ab9a93e080658add8b64840c7b8868a", "is_disabled": 0, "lon": -76.981283, "is_reserved": 0, "fusion_lat": 0.0, "type": "electric_scooter"}, {"fusion_lon": 0.0, "name": "894e9148a506d3c64fbcd70cc2201eca", "rental_uris": {"android": "https://dc.lft.to/lastmile_qr_scan", "ios": "https://dc.lft.to/lastmile_qr_scan"}, "lat": 38.923836, "bike_id": "894e9148a506d3c64fbcd70cc2201eca", "is_disabled": 0, "lon": -77.0272705, "is_reserved": 0, "fusion_lat": 0.0, "type": "electric_scooter"}, {"fusion_lon": 0.0, "name": "d8b7b0195c6c00f846a197ec5aef8593", "rental_uris": {"android": "https://dc.lft.to/lastmile_qr_scan", "ios": "https://dc.lft.to/lastmile_qr_scan"}, "lat": 38.919124, "bike_id": "d8b7b0195c6c00f846a197ec5aef8593", "is_disabled": 0, "lon": -77.04623333333333, "is_reserved": 0, "fusion_lat": 0.0, "type": "electric_scooter"}, {"fusion_lon": 0.0, "name": "b468ed39d4f01b5b9e6f457f3e4f7d0d", "rental_uris": {"android": "https://dc.lft.to/lastmile_qr_scan", "ios": "https://dc.lft.to/lastmile_qr_scan"}, "lat": 38.89667383333333, "bike_id": "b468ed39d4f01b5b9e6f457f3e4f7d0d", "is_disabled": 0, "lon": -77.03233683333333, "is_reserved": 0, "fusion_lat": 0.0, "type": "electric_scooter"}, {"fusion_lon": 0.0, "name": "45ef94a8c5413e2ea372c834f0a676f3", "rental_uris": {"android": "https://dc.lft.to/lastmile_qr_scan", "ios": "https://dc.lft.to/lastmile_qr_scan"}, "lat": 38.929919166666664, "bike_id": "45ef94a8c5413e2ea372c834f0a676f3", "is_disabled": 0, "lon": -77.03231283333334, "is_reserved": 0, "fusion_lat": 0.0, "type": "electric_scooter"}, {"fusion_lon": 0.0, "name": "52a51ddfdc08a52a46760e0edee5f72a", "rental_uris": {"android": "https://dc.lft.to/lastmile_qr_scan", "ios": "https://dc.lft.to/lastmile_qr_scan"}, "lat": 38.926001666666664, "bike_id": "52a51ddfdc08a52a46760e0edee5f72a", "is_disabled": 0, "lon": -77.0395045, "is_reserved": 0, "fusion_lat": 0.0, "type": "electric_scooter"}, {"fusion_lon": 0.0, "name": "61cae00e36fe269bbc17bca71d740cf0", "rental_uris": {"android": "https://dc.lft.to/lastmile_qr_scan", "ios": "https://dc.lft.to/lastmile_qr_scan"}, "lat": 38.918822166666665, "bike_id": "61cae00e36fe269bbc17bca71d740cf0", "is_disabled": 0, "lon": -77.0189145, "is_reserved": 0, "fusion_lat": 0.0, "type": "electric_scooter"}, {"fusion_lon": 0.0, "name": "afb4f755a0de48a70c7402e8edfe7ac7", "rental_uris": {"android": "https://dc.lft.to/lastmile_qr_scan", "ios": "https://dc.lft.to/lastmile_qr_scan"}, "lat": 38.9346075, "bike_id": "afb4f755a0de48a70c7402e8edfe7ac7", "is_disabled": 0, "lon": -77.03498233333333, "is_reserved": 0, "fusion_lat": 0.0, "type": "electric_scooter"}, {"fusion_lon": 0.0, "name": "0fd648076028098fd099353621bc9d1d", "rental_uris": {"android": "https://dc.lft.to/lastmile_qr_scan", "ios": "https://dc.lft.to/lastmile_qr_scan"}, "lat": 38.92676433333333, "bike_id": "0fd648076028098fd099353621bc9d1d", "is_disabled": 0, "lon": -77.02575683333333, "is_reserved": 0, "fusion_lat": 0.0, "type": "electric_scooter"}, {"fusion_lon": 0.0, "name": "393ca108e207a5e1db6b9e570dc62bc7", "rental_uris": {"android": "https://dc.lft.to/lastmile_qr_scan", "ios": "https://dc.lft.to/lastmile_qr_scan"}, "lat": 38.90053866666667, "bike_id": "393ca108e207a5e1db6b9e570dc62bc7", "is_disabled": 0, "lon": -76.9869825, "is_reserved": 0, "fusion_lat": 0.0, "type": "electric_scooter"}, {"fusion_lon": 0.0, "name": "f475bb5e8f5959c207c6b3f55b2d64f2", "rental_uris": {"android": "https://dc.lft.to/lastmile_qr_scan", "ios": "https://dc.lft.to/lastmile_qr_scan"}, "lat": 38.9238235, "bike_id": "f475bb5e8f5959c207c6b3f55b2d64f2", "is_disabled": 0, "lon": -77.03056716666667, "is_reserved": 0, "fusion_lat": 0.0, "type": "electric_scooter"}, {"fusion_lon": 0.0, "name": "a31c37d1a56cd6f747a780bff881bb33", "rental_uris": {"android": "https://dc.lft.to/lastmile_qr_scan", "ios": "https://dc.lft.to/lastmile_qr_scan"}, "lat": 38.92568383333333, "bike_id": "a31c37d1a56cd6f747a780bff881bb33", "is_disabled": 0, "lon": -76.99958016666666, "is_reserved": 0, "fusion_lat": 0.0, "type": "electric_scooter"}, {"fusion_lon": 0.0, "name": "bcd24f6cf6fe26c6da3c69bdd081d21a", "rental_uris": {"android": "https://dc.lft.to/lastmile_qr_scan", "ios": "https://dc.lft.to/lastmile_qr_scan"}, "lat": 38.92439616666667, "bike_id": "bcd24f6cf6fe26c6da3c69bdd081d21a", "is_disabled": 0, "lon": -77.0378915, "is_reserved": 0, "fusion_lat": 0.0, "type": "electric_scooter"}, {"fusion_lon": 0.0, "name": "0b2d36009f6ca2f5d7f954a545404229", "rental_uris": {"android": "https://dc.lft.to/lastmile_qr_scan", "ios": "https://dc.lft.to/lastmile_qr_scan"}, "lat": 38.882992333333334, "bike_id": "0b2d36009f6ca2f5d7f954a545404229", "is_disabled": 0, "lon": -77.02578733333333, "is_reserved": 0, "fusion_lat": 0.0, "type": "electric_scooter"}, {"fusion_lon": 0.0, "name": "c97722924a919075787fbd1142333072", "rental_uris": {"android": "https://dc.lft.to/lastmile_qr_scan", "ios": "https://dc.lft.to/lastmile_qr_scan"}, "lat": 38.915564, "bike_id": "c97722924a919075787fbd1142333072", "is_disabled": 0, "lon": -77.02117666666666, "is_reserved": 0, "fusion_lat": 0.0, "type": "electric_scooter"}, {"fusion_lon": 0.0, "name": "4d3a13dc0ecd2d57e7b701d016765496", "rental_uris": {"android": "https://dc.lft.to/lastmile_qr_scan", "ios": "https://dc.lft.to/lastmile_qr_scan"}, "lat": 38.89744133333333, "bike_id": "4d3a13dc0ecd2d57e7b701d016765496", "is_disabled": 0, "lon": -77.04688066666667, "is_reserved": 0, "fusion_lat": 0.0, "type": "electric_scooter"}, {"fusion_lon": 0.0, "name": "c52d2a55d114653d35358d5e6be2fea7", "rental_uris": {"android": "https://dc.lft.to/lastmile_qr_scan", "ios": "https://dc.lft.to/lastmile_qr_scan"}, "lat": 38.9018915, "bike_id": "c52d2a55d114653d35358d5e6be2fea7", "is_disabled": 0, "lon": -77.05932233333333, "is_reserved": 0, "fusion_lat": 0.0, "type": "electric_scooter"}, {"fusion_lon": 0.0, "name": "793aec11365db058288b024f9461f678", "rental_uris": {"android": "https://dc.lft.to/lastmile_qr_scan", "ios": "https://dc.lft.to/lastmile_qr_scan"}, "lat": 38.90600033333333, "bike_id": "793aec11365db058288b024f9461f678", "is_disabled": 0, "lon": -77.12886933333333, "is_reserved": 0, "fusion_lat": 0.0, "type": "electric_bike"}, {"fusion_lon": 0.0, "name": "c42210e5b23df3172f46bbf48c9495d8", "rental_uris": {"android": "https://dc.lft.to/lastmile_qr_scan", "ios": "https://dc.lft.to/lastmile_qr_scan"}, "lat": 38.880644333333336, "bike_id": "c42210e5b23df3172f46bbf48c9495d8", "is_disabled": 0, "lon": -77.011761, "is_reserved": 0, "fusion_lat": 0.0, "type": "electric_scooter"}, {"fusion_lon": 0.0, "name": "e60b0c953b3d860c42f5d9150d8e3927", "rental_uris": {"android": "https://dc.lft.to/lastmile_qr_scan", "ios": "https://dc.lft.to/lastmile_qr_scan"}, "lat": 38.8963125, "bike_id": "e60b0c953b3d860c42f5d9150d8e3927", "is_disabled": 0, "lon": -77.03227483333333, "is_reserved": 0, "fusion_lat": 0.0, "type": "electric_scooter"}, {"fusion_lon": 0.0, "name": "98ecf0688351c4a550a0780ef1835af8", "rental_uris": {"android": "https://dc.lft.to/lastmile_qr_scan", "ios": "https://dc.lft.to/lastmile_qr_scan"}, "lat": 38.90960616666667, "bike_id": "98ecf0688351c4a550a0780ef1835af8", "is_disabled": 0, "lon": -77.02278116666666, "is_reserved": 0, "fusion_lat": 0.0, "type": "electric_scooter"}, {"fusion_lon": 0.0, "name": "1d472de8175912a59efacad40607f262", "rental_uris": {"android": "https://dc.lft.to/lastmile_qr_scan", "ios": "https://dc.lft.to/lastmile_qr_scan"}, "lat": 38.89564633333333, "bike_id": "1d472de8175912a59efacad40607f262", "is_disabled": 0, "lon": -76.9941145, "is_reserved": 0, "fusion_lat": 0.0, "type": "electric_scooter"}, {"fusion_lon": 0.0, "name": "608ca7d9aef70a4e9874a59236af0cb7", "rental_uris": {"android": "https://dc.lft.to/lastmile_qr_scan", "ios": "https://dc.lft.to/lastmile_qr_scan"}, "lat": 38.909612333333335, "bike_id": "608ca7d9aef70a4e9874a59236af0cb7", "is_disabled": 0, "lon": -77.0733795, "is_reserved": 0, "fusion_lat": 0.0, "type": "electric_scooter"}, {"fusion_lon": 0.0, "name": "8df7700657813192133869b4622bef28", "rental_uris": {"android": "https://dc.lft.to/lastmile_qr_scan", "ios": "https://dc.lft.to/lastmile_qr_scan"}, "lat": 38.907892, "bike_id": "8df7700657813192133869b4622bef28", "is_disabled": 0, "lon": -77.002041, "is_reserved": 0, "fusion_lat": 0.0, "type": "electric_scooter"}, {"fusion_lon": 0.0, "name": "9a4b1158f40db7fd3c7a4f745cc70fe6", "rental_uris": {"android": "https://dc.lft.to/lastmile_qr_scan", "ios": "https://dc.lft.to/lastmile_qr_scan"}, "lat": 38.90728566666667, "bike_id": "9a4b1158f40db7fd3c7a4f745cc70fe6", "is_disabled": 0, "lon": -77.0406905, "is_reserved": 0, "fusion_lat": 0.0, "type": "electric_scooter"}, {"fusion_lon": 0.0, "name": "26b9975c129e4c0f9f9b0cb8bc98074c", "rental_uris": {"android": "https://dc.lft.to/lastmile_qr_scan", "ios": "https://dc.lft.to/lastmile_qr_scan"}, "lat": 38.894678, "bike_id": "26b9975c129e4c0f9f9b0cb8bc98074c", "is_disabled": 0, "lon": -77.02012416666666, "is_reserved": 0, "fusion_lat": 0.0, "type": "electric_scooter"}, {"fusion_lon": 0.0, "name": "621ba04d243441811308aa83dc7d379f", "rental_uris": {"android": "https://dc.lft.to/lastmile_qr_scan", "ios": "https://dc.lft.to/lastmile_qr_scan"}, "lat": 38.9231555, "bike_id": "621ba04d243441811308aa83dc7d379f", "is_disabled": 0, "lon": -77.03901333333333, "is_reserved": 0, "fusion_lat": 0.0, "type": "electric_scooter"}, {"fusion_lon": 0.0, "name": "1f55fef5732733d6fb4c9a0cc8095e40", "rental_uris": {"android": "https://dc.lft.to/lastmile_qr_scan", "ios": "https://dc.lft.to/lastmile_qr_scan"}, "lat": 38.911024166666664, "bike_id": "1f55fef5732733d6fb4c9a0cc8095e40", "is_disabled": 0, "lon": -77.0250325, "is_reserved": 0, "fusion_lat": 0.0, "type": "electric_scooter"}, {"fusion_lon": 0.0, "name": "52c664da0e760db146542a63694be19a", "rental_uris": {"android": "https://dc.lft.to/lastmile_qr_scan", "ios": "https://dc.lft.to/lastmile_qr_scan"}, "lat": 38.901816833333335, "bike_id": "52c664da0e760db146542a63694be19a", "is_disabled": 0, "lon": -76.93004083333334, "is_reserved": 0, "fusion_lat": 0.0, "type": "electric_scooter"}, {"fusion_lon": 0.0, "name": "d7c64ab6dbcd2436106675c6ce45eb97", "rental_uris": {"android": "https://dc.lft.to/lastmile_qr_scan", "ios": "https://dc.lft.to/lastmile_qr_scan"}, "lat": 38.909585166666666, "bike_id": "d7c64ab6dbcd2436106675c6ce45eb97", "is_disabled": 0, "lon": -77.02312316666666, "is_reserved": 0, "fusion_lat": 0.0, "type": "electric_scooter"}, {"fusion_lon": 0.0, "name": "c62b1f1c0fe703b02d8ee934e3260477", "rental_uris": {"android": "https://dc.lft.to/lastmile_qr_scan", "ios": "https://dc.lft.to/lastmile_qr_scan"}, "lat": 38.9056595, "bike_id": "c62b1f1c0fe703b02d8ee934e3260477", "is_disabled": 0, "lon": -77.0063405, "is_reserved": 0, "fusion_lat": 0.0, "type": "electric_scooter"}, {"fusion_lon": 0.0, "name": "3d70eaf9c6072b7a866e0df5e0666d94", "rental_uris": {"android": "https://dc.lft.to/lastmile_qr_scan", "ios": "https://dc.lft.to/lastmile_qr_scan"}, "lat": 38.89605683333333, "bike_id": "3d70eaf9c6072b7a866e0df5e0666d94", "is_disabled": 0, "lon": -77.0092525, "is_reserved": 0, "fusion_lat": 0.0, "type": "electric_scooter"}, {"fusion_lon": 0.0, "name": "9319f450dcf7e9ab91a5931f536f2196", "rental_uris": {"android": "https://dc.lft.to/lastmile_qr_scan", "ios": "https://dc.lft.to/lastmile_qr_scan"}, "lat": 38.92401916666667, "bike_id": "9319f450dcf7e9ab91a5931f536f2196", "is_disabled": 0, "lon": -77.0236565, "is_reserved": 0, "fusion_lat": 0.0, "type": "electric_scooter"}, {"fusion_lon": 0.0, "name": "2690e36eadf74dd001d6f274eaba0959", "rental_uris": {"android": "https://dc.lft.to/lastmile_qr_scan", "ios": "https://dc.lft.to/lastmile_qr_scan"}, "lat": 38.905023166666666, "bike_id": "2690e36eadf74dd001d6f274eaba0959", "is_disabled": 0, "lon": -77.02947383333333, "is_reserved": 0, "fusion_lat": 0.0, "type": "electric_scooter"}, {"fusion_lon": 0.0, "name": "b96d6f40e3d315e30f3fa91e8c239ea2", "rental_uris": {"android": "https://dc.lft.to/lastmile_qr_scan", "ios": "https://dc.lft.to/lastmile_qr_scan"}, "lat": 38.933187333333336, "bike_id": "b96d6f40e3d315e30f3fa91e8c239ea2", "is_disabled": 0, "lon": -77.0379025, "is_reserved": 0, "fusion_lat": 0.0, "type": "electric_scooter"}, {"fusion_lon": 0.0, "name": "57ab2479d8e884cbf369b00787dfdebc", "rental_uris": {"android": "https://dc.lft.to/lastmile_qr_scan", "ios": "https://dc.lft.to/lastmile_qr_scan"}, "lat": 38.93607883333333, "bike_id": "57ab2479d8e884cbf369b00787dfdebc", "is_disabled": 0, "lon": -77.03657383333334, "is_reserved": 0, "fusion_lat": 0.0, "type": "electric_scooter"}, {"fusion_lon": 0.0, "name": "64a0e4fb25bf234134a8ced2a768fcbc", "rental_uris": {"android": "https://dc.lft.to/lastmile_qr_scan", "ios": "https://dc.lft.to/lastmile_qr_scan"}, "lat": 38.91321516666667, "bike_id": "64a0e4fb25bf234134a8ced2a768fcbc", "is_disabled": 0, "lon": -77.0448415, "is_reserved": 0, "fusion_lat": 0.0, "type": "electric_scooter"}, {"fusion_lon": 0.0, "name": "f13d35116195606335d154b7a9d29e52", "rental_uris": {"android": "https://dc.lft.to/lastmile_qr_scan", "ios": "https://dc.lft.to/lastmile_qr_scan"}, "lat": 38.910662333333335, "bike_id": "f13d35116195606335d154b7a9d29e52", "is_disabled": 0, "lon": -77.04600183333334, "is_reserved": 0, "fusion_lat": 0.0, "type": "electric_scooter"}, {"fusion_lon": 0.0, "name": "e1c0c04fc7f6fba514e657277821c5fd", "rental_uris": {"android": "https://dc.lft.to/lastmile_qr_scan", "ios": "https://dc.lft.to/lastmile_qr_scan"}, "lat": 38.90128883333333, "bike_id": "e1c0c04fc7f6fba514e657277821c5fd", "is_disabled": 0, "lon": -76.9903715, "is_reserved": 0, "fusion_lat": 0.0, "type": "electric_scooter"}, {"fusion_lon": 0.0, "name": "050b1c989ff3bc8eef158a9788414987", "rental_uris": {"android": "https://dc.lft.to/lastmile_qr_scan", "ios": "https://dc.lft.to/lastmile_qr_scan"}, "lat": 38.9166385, "bike_id": "050b1c989ff3bc8eef158a9788414987", "is_disabled": 0, "lon": -77.03843083333334, "is_reserved": 0, "fusion_lat": 0.0, "type": "electric_scooter"}, {"fusion_lon": 0.0, "name": "caaca07b5735d139836c1d87fec8941b", "rental_uris": {"android": "https://dc.lft.to/lastmile_qr_scan", "ios": "https://dc.lft.to/lastmile_qr_scan"}, "lat": 38.85787466666667, "bike_id": "caaca07b5735d139836c1d87fec8941b", "is_disabled": 0, "lon": -77.09961516666667, "is_reserved": 0, "fusion_lat": 0.0, "type": "electric_bike"}, {"fusion_lon": 0.0, "name": "c02fcedcc40f0fd5d60e04cab0a21960", "rental_uris": {"android": "https://dc.lft.to/lastmile_qr_scan", "ios": "https://dc.lft.to/lastmile_qr_scan"}, "lat": 38.93291083333333, "bike_id": "c02fcedcc40f0fd5d60e04cab0a21960", "is_disabled": 0, "lon": -77.0399925, "is_reserved": 0, "fusion_lat": 0.0, "type": "electric_scooter"}, {"fusion_lon": 0.0, "name": "413a3f6cbe32a80e40dd9345f92f96df", "rental_uris": {"android": "https://dc.lft.to/lastmile_qr_scan", "ios": "https://dc.lft.to/lastmile_qr_scan"}, "lat": 38.950296, "bike_id": "413a3f6cbe32a80e40dd9345f92f96df", "is_disabled": 0, "lon": -76.97093366666667, "is_reserved": 0, "fusion_lat": 0.0, "type": "electric_bike"}, {"fusion_lon": 0.0, "name": "94c9f31c327f378804e43fef0f834c5c", "rental_uris": {"android": "https://dc.lft.to/lastmile_qr_scan", "ios": "https://dc.lft.to/lastmile_qr_scan"}, "lat": 38.8577975, "bike_id": "94c9f31c327f378804e43fef0f834c5c", "is_disabled": 0, "lon": -76.98754666666666, "is_reserved": 0, "fusion_lat": 0.0, "type": "electric_bike"}, {"fusion_lon": 0.0, "name": "aba570cc04a74fb2b763ca6d3af1ae3c", "rental_uris": {"android": "https://dc.lft.to/lastmile_qr_scan", "ios": "https://dc.lft.to/lastmile_qr_scan"}, "lat": 38.870694666666665, "bike_id": "aba570cc04a74fb2b763ca6d3af1ae3c", "is_disabled": 0, "lon": -76.98002833333334, "is_reserved": 0, "fusion_lat": 0.0, "type": "electric_scooter"}, {"fusion_lon": 0.0, "name": "1ac290ba55d363adcf2cfbe0c761ceb8", "rental_uris": {"android": "https://dc.lft.to/lastmile_qr_scan", "ios": "https://dc.lft.to/lastmile_qr_scan"}, "lat": 38.871999, "bike_id": "1ac290ba55d363adcf2cfbe0c761ceb8", "is_disabled": 0, "lon": -77.0092915, "is_reserved": 0, "fusion_lat": 0.0, "type": "electric_scooter"}, {"fusion_lon": 0.0, "name": "6eb4a1dea1ab71b99f8f7634505cc9d2", "rental_uris": {"android": "https://dc.lft.to/lastmile_qr_scan", "ios": "https://dc.lft.to/lastmile_qr_scan"}, "lat": 38.924732166666665, "bike_id": "6eb4a1dea1ab71b99f8f7634505cc9d2", "is_disabled": 0, "lon": -77.02108133333333, "is_reserved": 0, "fusion_lat": 0.0, "type": "electric_scooter"}, {"fusion_lon": 0.0, "name": "b4b60f26c36ac24b457a7566c6dca8e2", "rental_uris": {"android": "https://dc.lft.to/lastmile_qr_scan", "ios": "https://dc.lft.to/lastmile_qr_scan"}, "lat": 38.90022366666667, "bike_id": "b4b60f26c36ac24b457a7566c6dca8e2", "is_disabled": 0, "lon": -77.000881, "is_reserved": 0, "fusion_lat": 0.0, "type": "electric_scooter"}, {"fusion_lon": 0.0, "name": "0960aadbe3864c162e76a40ec6414666", "rental_uris": {"android": "https://dc.lft.to/lastmile_qr_scan", "ios": "https://dc.lft.to/lastmile_qr_scan"}, "lat": 38.939719, "bike_id": "0960aadbe3864c162e76a40ec6414666", "is_disabled": 0, "lon": -76.98615316666667, "is_reserved": 0, "fusion_lat": 0.0, "type": "electric_bike"}, {"fusion_lon": 0.0, "name": "da20cfa01056c87359ff8d6b1b8a3f5b", "rental_uris": {"android": "https://dc.lft.to/lastmile_qr_scan", "ios": "https://dc.lft.to/lastmile_qr_scan"}, "lat": 38.8242995, "bike_id": "da20cfa01056c87359ff8d6b1b8a3f5b", "is_disabled": 0, "lon": -77.1204115, "is_reserved": 0, "fusion_lat": 0.0, "type": "electric_bike"}, {"fusion_lon": 0.0, "name": "cf52886f793f1f7818d2721eb9e311fe", "rental_uris": {"android": "https://dc.lft.to/lastmile_qr_scan", "ios": "https://dc.lft.to/lastmile_qr_scan"}, "lat": 38.9249455, "bike_id": "cf52886f793f1f7818d2721eb9e311fe", "is_disabled": 0, "lon": -77.03928283333333, "is_reserved": 0, "fusion_lat": 0.0, "type": "electric_scooter"}, {"fusion_lon": 0.0, "name": "58c91e44a87b11a731e07b68f69a1347", "rental_uris": {"android": "https://dc.lft.to/lastmile_qr_scan", "ios": "https://dc.lft.to/lastmile_qr_scan"}, "lat": 38.911006666666665, "bike_id": "58c91e44a87b11a731e07b68f69a1347", "is_disabled": 0, "lon": -77.03207583333334, "is_reserved": 0, "fusion_lat": 0.0, "type": "electric_scooter"}, {"fusion_lon": 0.0, "name": "811ed535b232048bcec4d253a52e3045", "rental_uris": {"android": "https://dc.lft.to/lastmile_qr_scan", "ios": "https://dc.lft.to/lastmile_qr_scan"}, "lat": 38.89886283333333, "bike_id": "811ed535b232048bcec4d253a52e3045", "is_disabled": 0, "lon": -76.93171383333333, "is_reserved": 0, "fusion_lat": 0.0, "type": "electric_scooter"}, {"fusion_lon": 0.0, "name": "28897a9b508e6d7c052d0ebb7181d258", "rental_uris": {"android": "https://dc.lft.to/lastmile_qr_scan", "ios": "https://dc.lft.to/lastmile_qr_scan"}, "lat": 38.90887033333333, "bike_id": "28897a9b508e6d7c052d0ebb7181d258", "is_disabled": 0, "lon": -77.07541283333333, "is_reserved": 0, "fusion_lat": 0.0, "type": "electric_scooter"}, {"fusion_lon": 0.0, "name": "646cb5eacbf12e4518f7340fbe9a01d0", "rental_uris": {"android": "https://dc.lft.to/lastmile_qr_scan", "ios": "https://dc.lft.to/lastmile_qr_scan"}, "lat": 38.924702833333335, "bike_id": "646cb5eacbf12e4518f7340fbe9a01d0", "is_disabled": 0, "lon": -77.0393685, "is_reserved": 0, "fusion_lat": 0.0, "type": "electric_scooter"}, {"fusion_lon": 0.0, "name": "26fde05b38f5dd82457e630e7b0c384a", "rental_uris": {"android": "https://dc.lft.to/lastmile_qr_scan", "ios": "https://dc.lft.to/lastmile_qr_scan"}, "lat": 38.90033233333333, "bike_id": "26fde05b38f5dd82457e630e7b0c384a", "is_disabled": 0, "lon": -77.03298816666667, "is_reserved": 0, "fusion_lat": 0.0, "type": "electric_scooter"}, {"fusion_lon": 0.0, "name": "f73ff872983a961acf33fe4b9e096992", "rental_uris": {"android": "https://dc.lft.to/lastmile_qr_scan", "ios": "https://dc.lft.to/lastmile_qr_scan"}, "lat": 38.8987985, "bike_id": "f73ff872983a961acf33fe4b9e096992", "is_disabled": 0, "lon": -77.02967016666666, "is_reserved": 0, "fusion_lat": 0.0, "type": "electric_scooter"}, {"fusion_lon": 0.0, "name": "23a19a10aabb17889e2d7844f58b6161", "rental_uris": {"android": "https://dc.lft.to/lastmile_qr_scan", "ios": "https://dc.lft.to/lastmile_qr_scan"}, "lat": 38.89964116666667, "bike_id": "23a19a10aabb17889e2d7844f58b6161", "is_disabled": 0, "lon": -77.04855116666667, "is_reserved": 0, "fusion_lat": 0.0, "type": "electric_scooter"}, {"fusion_lon": 0.0, "name": "dd0da15ca7b48cc984577f1d41f16719", "rental_uris": {"android": "https://dc.lft.to/lastmile_qr_scan", "ios": "https://dc.lft.to/lastmile_qr_scan"}, "lat": 38.90776833333334, "bike_id": "dd0da15ca7b48cc984577f1d41f16719", "is_disabled": 0, "lon": -77.03757183333333, "is_reserved": 0, "fusion_lat": 0.0, "type": "electric_scooter"}, {"fusion_lon": 0.0, "name": "5558c59852931e2af554b5b225a2a1d9", "rental_uris": {"android": "https://dc.lft.to/lastmile_qr_scan", "ios": "https://dc.lft.to/lastmile_qr_scan"}, "lat": 38.900495666666664, "bike_id": "5558c59852931e2af554b5b225a2a1d9", "is_disabled": 0, "lon": -77.0481215, "is_reserved": 0, "fusion_lat": 0.0, "type": "electric_scooter"}, {"fusion_lon": 0.0, "name": "09976df2fe912024fbad3e5ded11a280", "rental_uris": {"android": "https://dc.lft.to/lastmile_qr_scan", "ios": "https://dc.lft.to/lastmile_qr_scan"}, "lat": 38.92114633333333, "bike_id": "09976df2fe912024fbad3e5ded11a280", "is_disabled": 0, "lon": -76.9887825, "is_reserved": 0, "fusion_lat": 0.0, "type": "electric_bike"}, {"fusion_lon": 0.0, "name": "deebaaac4cbcdf89a8ddf490d2c5eba3", "rental_uris": {"android": "https://dc.lft.to/lastmile_qr_scan", "ios": "https://dc.lft.to/lastmile_qr_scan"}, "lat": 38.937553333333334, "bike_id": "deebaaac4cbcdf89a8ddf490d2c5eba3", "is_disabled": 0, "lon": -77.0247995, "is_reserved": 0, "fusion_lat": 0.0, "type": "electric_scooter"}, {"fusion_lon": 0.0, "name": "4dd6c98d8bf7a7c89288da9590219abf", "rental_uris": {"android": "https://dc.lft.to/lastmile_qr_scan", "ios": "https://dc.lft.to/lastmile_qr_scan"}, "lat": 38.922821166666665, "bike_id": "4dd6c98d8bf7a7c89288da9590219abf", "is_disabled": 0, "lon": -77.04214466666667, "is_reserved": 0, "fusion_lat": 0.0, "type": "electric_scooter"}, {"fusion_lon": 0.0, "name": "925658dfdf89264235740e0f495fb081", "rental_uris": {"android": "https://dc.lft.to/lastmile_qr_scan", "ios": "https://dc.lft.to/lastmile_qr_scan"}, "lat": 38.919353666666666, "bike_id": "925658dfdf89264235740e0f495fb081", "is_disabled": 0, "lon": -77.01774916666666, "is_reserved": 0, "fusion_lat": 0.0, "type": "electric_scooter"}, {"fusion_lon": 0.0, "name": "86eb0cdc4a7393086c28aef8080ad45c", "rental_uris": {"android": "https://dc.lft.to/lastmile_qr_scan", "ios": "https://dc.lft.to/lastmile_qr_scan"}, "lat": 38.890415, "bike_id": "86eb0cdc4a7393086c28aef8080ad45c", "is_disabled": 0, "lon": -76.99013366666667, "is_reserved": 0, "fusion_lat": 0.0, "type": "electric_scooter"}, {"fusion_lon": 0.0, "name": "7e5a5b6d84450cc711ac9697d84a434b", "rental_uris": {"android": "https://dc.lft.to/lastmile_qr_scan", "ios": "https://dc.lft.to/lastmile_qr_scan"}, "lat": 38.956317166666665, "bike_id": "7e5a5b6d84450cc711ac9697d84a434b", "is_disabled": 0, "lon": -77.03299783333334, "is_reserved": 0, "fusion_lat": 0.0, "type": "electric_scooter"}, {"fusion_lon": 0.0, "name": "ac251589b64c6d49e0056c11f70514ab", "rental_uris": {"android": "https://dc.lft.to/lastmile_qr_scan", "ios": "https://dc.lft.to/lastmile_qr_scan"}, "lat": 38.90777883333333, "bike_id": "ac251589b64c6d49e0056c11f70514ab", "is_disabled": 0, "lon": -77.03778433333333, "is_reserved": 0, "fusion_lat": 0.0, "type": "electric_scooter"}, {"fusion_lon": 0.0, "name": "853d7458c9f2ce251cd0385a9e01d90a", "rental_uris": {"android": "https://dc.lft.to/lastmile_qr_scan", "ios": "https://dc.lft.to/lastmile_qr_scan"}, "lat": 38.88867583333333, "bike_id": "853d7458c9f2ce251cd0385a9e01d90a", "is_disabled": 0, "lon": -77.03995716666667, "is_reserved": 0, "fusion_lat": 0.0, "type": "electric_scooter"}, {"fusion_lon": 0.0, "name": "63cc976bc4202e424dee3e09ec178fb1", "rental_uris": {"android": "https://dc.lft.to/lastmile_qr_scan", "ios": "https://dc.lft.to/lastmile_qr_scan"}, "lat": 38.92360083333333, "bike_id": "63cc976bc4202e424dee3e09ec178fb1", "is_disabled": 0, "lon": -77.05031033333333, "is_reserved": 0, "fusion_lat": 0.0, "type": "electric_scooter"}, {"fusion_lon": 0.0, "name": "91cf36d8c6ccc5df2f02d6dc476afe85", "rental_uris": {"android": "https://dc.lft.to/lastmile_qr_scan", "ios": "https://dc.lft.to/lastmile_qr_scan"}, "lat": 38.89228966666667, "bike_id": "91cf36d8c6ccc5df2f02d6dc476afe85", "is_disabled": 0, "lon": -77.049009, "is_reserved": 0, "fusion_lat": 0.0, "type": "electric_scooter"}, {"fusion_lon": 0.0, "name": "57b08f6e98c9ccb6e28f0efaa36adaa1", "rental_uris": {"android": "https://dc.lft.to/lastmile_qr_scan", "ios": "https://dc.lft.to/lastmile_qr_scan"}, "lat": 38.891962666666664, "bike_id": "57b08f6e98c9ccb6e28f0efaa36adaa1", "is_disabled": 0, "lon": -76.99383016666667, "is_reserved": 0, "fusion_lat": 0.0, "type": "electric_scooter"}, {"fusion_lon": 0.0, "name": "5283092904f784f9efa1a63c627b9184", "rental_uris": {"android": "https://dc.lft.to/lastmile_qr_scan", "ios": "https://dc.lft.to/lastmile_qr_scan"}, "lat": 38.893191, "bike_id": "5283092904f784f9efa1a63c627b9184", "is_disabled": 0, "lon": -76.93965833333333, "is_reserved": 0, "fusion_lat": 0.0, "type": "electric_scooter"}, {"fusion_lon": 0.0, "name": "28c43c567e1ffb60c709585d19b27d7e", "rental_uris": {"android": "https://dc.lft.to/lastmile_qr_scan", "ios": "https://dc.lft.to/lastmile_qr_scan"}, "lat": 38.922687333333336, "bike_id": "28c43c567e1ffb60c709585d19b27d7e", "is_disabled": 0, "lon": -77.02964783333333, "is_reserved": 0, "fusion_lat": 0.0, "type": "electric_scooter"}, {"fusion_lon": 0.0, "name": "2ff6af85b6e4c00a7bb83e6981152949", "rental_uris": {"android": "https://dc.lft.to/lastmile_qr_scan", "ios": "https://dc.lft.to/lastmile_qr_scan"}, "lat": 38.896253333333334, "bike_id": "2ff6af85b6e4c00a7bb83e6981152949", "is_disabled": 0, "lon": -77.0321815, "is_reserved": 0, "fusion_lat": 0.0, "type": "electric_scooter"}, {"fusion_lon": 0.0, "name": "583b4ae7c5dae73c02b641d4bfa6c8d7", "rental_uris": {"android": "https://dc.lft.to/lastmile_qr_scan", "ios": "https://dc.lft.to/lastmile_qr_scan"}, "lat": 38.943483, "bike_id": "583b4ae7c5dae73c02b641d4bfa6c8d7", "is_disabled": 0, "lon": -77.06132316666667, "is_reserved": 0, "fusion_lat": 0.0, "type": "electric_scooter"}, {"fusion_lon": 0.0, "name": "71cd5c7501aac0cff93e6511c590af11", "rental_uris": {"android": "https://dc.lft.to/lastmile_qr_scan", "ios": "https://dc.lft.to/lastmile_qr_scan"}, "lat": 38.84758983333333, "bike_id": "71cd5c7501aac0cff93e6511c590af11", "is_disabled": 0, "lon": -77.05369383333333, "is_reserved": 0, "fusion_lat": 0.0, "type": "electric_bike"}, {"fusion_lon": 0.0, "name": "6268dbfdf2268fd493e75c82cb0041ae", "rental_uris": {"android": "https://dc.lft.to/lastmile_qr_scan", "ios": "https://dc.lft.to/lastmile_qr_scan"}, "lat": 38.89491, "bike_id": "6268dbfdf2268fd493e75c82cb0041ae", "is_disabled": 0, "lon": -76.94890033333333, "is_reserved": 0, "fusion_lat": 0.0, "type": "electric_scooter"}, {"fusion_lon": 0.0, "name": "05d8eaa4a8c5d201b0ec5069aacac438", "rental_uris": {"android": "https://dc.lft.to/lastmile_qr_scan", "ios": "https://dc.lft.to/lastmile_qr_scan"}, "lat": 38.93978366666666, "bike_id": "05d8eaa4a8c5d201b0ec5069aacac438", "is_disabled": 0, "lon": -77.02833883333334, "is_reserved": 0, "fusion_lat": 0.0, "type": "electric_scooter"}, {"fusion_lon": 0.0, "name": "85274a68fa610cb59077beb8f1619fec", "rental_uris": {"android": "https://dc.lft.to/lastmile_qr_scan", "ios": "https://dc.lft.to/lastmile_qr_scan"}, "lat": 38.9157575, "bike_id": "85274a68fa610cb59077beb8f1619fec", "is_disabled": 0, "lon": -77.04435316666667, "is_reserved": 0, "fusion_lat": 0.0, "type": "electric_scooter"}, {"fusion_lon": 0.0, "name": "a6323c0019f6bd6cd4e42c71ba56204a", "rental_uris": {"android": "https://dc.lft.to/lastmile_qr_scan", "ios": "https://dc.lft.to/lastmile_qr_scan"}, "lat": 38.89931516666667, "bike_id": "a6323c0019f6bd6cd4e42c71ba56204a", "is_disabled": 0, "lon": -77.0220825, "is_reserved": 0, "fusion_lat": 0.0, "type": "electric_scooter"}, {"fusion_lon": 0.0, "name": "6e4e151d59f29915997eb9e88bd88643", "rental_uris": {"android": "https://dc.lft.to/lastmile_qr_scan", "ios": "https://dc.lft.to/lastmile_qr_scan"}, "lat": 38.87532983333333, "bike_id": "6e4e151d59f29915997eb9e88bd88643", "is_disabled": 0, "lon": -77.01749683333334, "is_reserved": 0, "fusion_lat": 0.0, "type": "electric_scooter"}, {"fusion_lon": 0.0, "name": "a80db5b69614fb9dd07f309b6a45f98b", "rental_uris": {"android": "https://dc.lft.to/lastmile_qr_scan", "ios": "https://dc.lft.to/lastmile_qr_scan"}, "lat": 38.90002033333333, "bike_id": "a80db5b69614fb9dd07f309b6a45f98b", "is_disabled": 0, "lon": -77.04099616666667, "is_reserved": 0, "fusion_lat": 0.0, "type": "electric_scooter"}, {"fusion_lon": 0.0, "name": "8b4e4a27656f5739ae535eb9d92d5300", "rental_uris": {"android": "https://dc.lft.to/lastmile_qr_scan", "ios": "https://dc.lft.to/lastmile_qr_scan"}, "lat": 38.92391216666667, "bike_id": "8b4e4a27656f5739ae535eb9d92d5300", "is_disabled": 0, "lon": -77.03402016666666, "is_reserved": 0, "fusion_lat": 0.0, "type": "electric_scooter"}, {"fusion_lon": 0.0, "name": "dd1fb08e644f53531a4aeccddcb04479", "rental_uris": {"android": "https://dc.lft.to/lastmile_qr_scan", "ios": "https://dc.lft.to/lastmile_qr_scan"}, "lat": 38.902619666666666, "bike_id": "dd1fb08e644f53531a4aeccddcb04479", "is_disabled": 0, "lon": -77.03033116666667, "is_reserved": 0, "fusion_lat": 0.0, "type": "electric_scooter"}, {"fusion_lon": 0.0, "name": "cc01ade1c0b11dc3ad3c2888fbd49ed2", "rental_uris": {"android": "https://dc.lft.to/lastmile_qr_scan", "ios": "https://dc.lft.to/lastmile_qr_scan"}, "lat": 38.926869333333336, "bike_id": "cc01ade1c0b11dc3ad3c2888fbd49ed2", "is_disabled": 0, "lon": -77.029598, "is_reserved": 0, "fusion_lat": 0.0, "type": "electric_scooter"}, {"fusion_lon": 0.0, "name": "00217062bf5c5e8796d5df146afad558", "rental_uris": {"android": "https://dc.lft.to/lastmile_qr_scan", "ios": "https://dc.lft.to/lastmile_qr_scan"}, "lat": 38.92973766666667, "bike_id": "00217062bf5c5e8796d5df146afad558", "is_disabled": 0, "lon": -77.0233585, "is_reserved": 0, "fusion_lat": 0.0, "type": "electric_scooter"}, {"fusion_lon": 0.0, "name": "b173681bbee68c0272b1e06dc7ef1c64", "rental_uris": {"android": "https://dc.lft.to/lastmile_qr_scan", "ios": "https://dc.lft.to/lastmile_qr_scan"}, "lat": 38.936569166666665, "bike_id": "b173681bbee68c0272b1e06dc7ef1c64", "is_disabled": 0, "lon": -77.05578483333333, "is_reserved": 0, "fusion_lat": 0.0, "type": "electric_scooter"}, {"fusion_lon": 0.0, "name": "31c5c293c2555b04a729301889da43f3", "rental_uris": {"android": "https://dc.lft.to/lastmile_qr_scan", "ios": "https://dc.lft.to/lastmile_qr_scan"}, "lat": 38.89837166666667, "bike_id": "31c5c293c2555b04a729301889da43f3", "is_disabled": 0, "lon": -77.03032766666666, "is_reserved": 0, "fusion_lat": 0.0, "type": "electric_scooter"}, {"fusion_lon": 0.0, "name": "1aed803c408553569a1ff83a6bfe00e0", "rental_uris": {"android": "https://dc.lft.to/lastmile_qr_scan", "ios": "https://dc.lft.to/lastmile_qr_scan"}, "lat": 38.917064833333335, "bike_id": "1aed803c408553569a1ff83a6bfe00e0", "is_disabled": 0, "lon": -77.037303, "is_reserved": 0, "fusion_lat": 0.0, "type": "electric_scooter"}, {"fusion_lon": 0.0, "name": "79d81cea6ff2ef548541623d8b503226", "rental_uris": {"android": "https://dc.lft.to/lastmile_qr_scan", "ios": "https://dc.lft.to/lastmile_qr_scan"}, "lat": 38.908726333333334, "bike_id": "79d81cea6ff2ef548541623d8b503226", "is_disabled": 0, "lon": -77.07150666666666, "is_reserved": 0, "fusion_lat": 0.0, "type": "electric_scooter"}, {"fusion_lon": 0.0, "name": "c8b84306e5b2fa874c31d5b7c0a17647", "rental_uris": {"android": "https://dc.lft.to/lastmile_qr_scan", "ios": "https://dc.lft.to/lastmile_qr_scan"}, "lat": 38.923853333333334, "bike_id": "c8b84306e5b2fa874c31d5b7c0a17647", "is_disabled": 0, "lon": -77.02957, "is_reserved": 0, "fusion_lat": 0.0, "type": "electric_scooter"}, {"fusion_lon": 0.0, "name": "f002ae4f922ddcd7ebc3acf92fa1719c", "rental_uris": {"android": "https://dc.lft.to/lastmile_qr_scan", "ios": "https://dc.lft.to/lastmile_qr_scan"}, "lat": 38.87061516666667, "bike_id": "f002ae4f922ddcd7ebc3acf92fa1719c", "is_disabled": 0, "lon": -77.11035633333333, "is_reserved": 0, "fusion_lat": 0.0, "type": "electric_bike"}, {"fusion_lon": 0.0, "name": "141d5a3a47c6e5c4ba62b342aabe7f8b", "rental_uris": {"android": "https://dc.lft.to/lastmile_qr_scan", "ios": "https://dc.lft.to/lastmile_qr_scan"}, "lat": 38.923312833333334, "bike_id": "141d5a3a47c6e5c4ba62b342aabe7f8b", "is_disabled": 0, "lon": -77.0288825, "is_reserved": 0, "fusion_lat": 0.0, "type": "electric_scooter"}, {"fusion_lon": 0.0, "name": "bf1a77df473dc925fac86b49a59160ae", "rental_uris": {"android": "https://dc.lft.to/lastmile_qr_scan", "ios": "https://dc.lft.to/lastmile_qr_scan"}, "lat": 38.906815333333334, "bike_id": "bf1a77df473dc925fac86b49a59160ae", "is_disabled": 0, "lon": -77.03457316666666, "is_reserved": 0, "fusion_lat": 0.0, "type": "electric_scooter"}, {"fusion_lon": 0.0, "name": "7bd09e4655bc343b346e9447615ba6f6", "rental_uris": {"android": "https://dc.lft.to/lastmile_qr_scan", "ios": "https://dc.lft.to/lastmile_qr_scan"}, "lat": 38.90071316666667, "bike_id": "7bd09e4655bc343b346e9447615ba6f6", "is_disabled": 0, "lon": -77.04750566666667, "is_reserved": 0, "fusion_lat": 0.0, "type": "electric_scooter"}, {"fusion_lon": 0.0, "name": "09430f8d25704928061d49ead86c7c7e", "rental_uris": {"android": "https://dc.lft.to/lastmile_qr_scan", "ios": "https://dc.lft.to/lastmile_qr_scan"}, "lat": 38.91989266666667, "bike_id": "09430f8d25704928061d49ead86c7c7e", "is_disabled": 0, "lon": -77.03255366666667, "is_reserved": 0, "fusion_lat": 0.0, "type": "electric_scooter"}, {"fusion_lon": 0.0, "name": "f47bfce6b3cc48269f5103f5f9684bc0", "rental_uris": {"android": "https://dc.lft.to/lastmile_qr_scan", "ios": "https://dc.lft.to/lastmile_qr_scan"}, "lat": 38.874972166666666, "bike_id": "f47bfce6b3cc48269f5103f5f9684bc0", "is_disabled": 0, "lon": -76.99792766666667, "is_reserved": 0, "fusion_lat": 0.0, "type": "electric_scooter"}, {"fusion_lon": 0.0, "name": "da39a409dd19e30913801cfe2b260fff", "rental_uris": {"android": "https://dc.lft.to/lastmile_qr_scan", "ios": "https://dc.lft.to/lastmile_qr_scan"}, "lat": 38.964090166666665, "bike_id": "da39a409dd19e30913801cfe2b260fff", "is_disabled": 0, "lon": -77.0329275, "is_reserved": 0, "fusion_lat": 0.0, "type": "electric_scooter"}, {"fusion_lon": 0.0, "name": "ba5fe63db8eb59b0fa767c1e2d529b6d", "rental_uris": {"android": "https://dc.lft.to/lastmile_qr_scan", "ios": "https://dc.lft.to/lastmile_qr_scan"}, "lat": 38.92683316666667, "bike_id": "ba5fe63db8eb59b0fa767c1e2d529b6d", "is_disabled": 0, "lon": -77.02266433333334, "is_reserved": 0, "fusion_lat": 0.0, "type": "electric_scooter"}, {"fusion_lon": 0.0, "name": "87261a247c7b69d8183849c378bf96f1", "rental_uris": {"android": "https://dc.lft.to/lastmile_qr_scan", "ios": "https://dc.lft.to/lastmile_qr_scan"}, "lat": 38.89943, "bike_id": "87261a247c7b69d8183849c378bf96f1", "is_disabled": 0, "lon": -77.02939733333334, "is_reserved": 0, "fusion_lat": 0.0, "type": "electric_scooter"}, {"fusion_lon": 0.0, "name": "33eee585d3f2e76717c28afd69aeffb1", "rental_uris": {"android": "https://dc.lft.to/lastmile_qr_scan", "ios": "https://dc.lft.to/lastmile_qr_scan"}, "lat": 38.92444233333333, "bike_id": "33eee585d3f2e76717c28afd69aeffb1", "is_disabled": 0, "lon": -77.04029616666666, "is_reserved": 0, "fusion_lat": 0.0, "type": "electric_scooter"}, {"fusion_lon": 0.0, "name": "2e9df4fe5764732024fe24a40ba3593f", "rental_uris": {"android": "https://dc.lft.to/lastmile_qr_scan", "ios": "https://dc.lft.to/lastmile_qr_scan"}, "lat": 38.935427, "bike_id": "2e9df4fe5764732024fe24a40ba3593f", "is_disabled": 0, "lon": -77.07293216666666, "is_reserved": 0, "fusion_lat": 0.0, "type": "electric_scooter"}, {"fusion_lon": 0.0, "name": "3196fde0456af68fddc07fa209a646da", "rental_uris": {"android": "https://dc.lft.to/lastmile_qr_scan", "ios": "https://dc.lft.to/lastmile_qr_scan"}, "lat": 38.89737366666667, "bike_id": "3196fde0456af68fddc07fa209a646da", "is_disabled": 0, "lon": -77.02490966666667, "is_reserved": 0, "fusion_lat": 0.0, "type": "electric_scooter"}, {"fusion_lon": 0.0, "name": "2479e75b56c3a0a8f486049e6809f61e", "rental_uris": {"android": "https://dc.lft.to/lastmile_qr_scan", "ios": "https://dc.lft.to/lastmile_qr_scan"}, "lat": 38.924335, "bike_id": "2479e75b56c3a0a8f486049e6809f61e", "is_disabled": 0, "lon": -77.00314883333333, "is_reserved": 0, "fusion_lat": 0.0, "type": "electric_scooter"}, {"fusion_lon": 0.0, "name": "5c2b1c7c49308dcd3758e53274eb3666", "rental_uris": {"android": "https://dc.lft.to/lastmile_qr_scan", "ios": "https://dc.lft.to/lastmile_qr_scan"}, "lat": 38.90524816666667, "bike_id": "5c2b1c7c49308dcd3758e53274eb3666", "is_disabled": 0, "lon": -77.06098983333334, "is_reserved": 0, "fusion_lat": 0.0, "type": "electric_scooter"}, {"fusion_lon": 0.0, "name": "22ffce83175855c312939087d9c0c06a", "rental_uris": {"android": "https://dc.lft.to/lastmile_qr_scan", "ios": "https://dc.lft.to/lastmile_qr_scan"}, "lat": 38.923613833333334, "bike_id": "22ffce83175855c312939087d9c0c06a", "is_disabled": 0, "lon": -77.02052416666666, "is_reserved": 0, "fusion_lat": 0.0, "type": "electric_scooter"}, {"fusion_lon": 0.0, "name": "833325b9e8f6574790485b4cdf7a5e20", "rental_uris": {"android": "https://dc.lft.to/lastmile_qr_scan", "ios": "https://dc.lft.to/lastmile_qr_scan"}, "lat": 38.874485166666666, "bike_id": "833325b9e8f6574790485b4cdf7a5e20", "is_disabled": 0, "lon": -77.000512, "is_reserved": 0, "fusion_lat": 0.0, "type": "electric_scooter"}, {"fusion_lon": 0.0, "name": "50526a10be45e6463c8cb774b403c2bb", "rental_uris": {"android": "https://dc.lft.to/lastmile_qr_scan", "ios": "https://dc.lft.to/lastmile_qr_scan"}, "lat": 38.8862235, "bike_id": "50526a10be45e6463c8cb774b403c2bb", "is_disabled": 0, "lon": -77.03209316666667, "is_reserved": 0, "fusion_lat": 0.0, "type": "electric_scooter"}, {"fusion_lon": 0.0, "name": "a2d0f5d29009060e86a7df1e924db893", "rental_uris": {"android": "https://dc.lft.to/lastmile_qr_scan", "ios": "https://dc.lft.to/lastmile_qr_scan"}, "lat": 38.88903966666667, "bike_id": "a2d0f5d29009060e86a7df1e924db893", "is_disabled": 0, "lon": -76.9521765, "is_reserved": 0, "fusion_lat": 0.0, "type": "electric_scooter"}, {"fusion_lon": 0.0, "name": "b3e5c4a4165838dce6fdf02d0ad6f837", "rental_uris": {"android": "https://dc.lft.to/lastmile_qr_scan", "ios": "https://dc.lft.to/lastmile_qr_scan"}, "lat": 38.911277, "bike_id": "b3e5c4a4165838dce6fdf02d0ad6f837", "is_disabled": 0, "lon": -77.04433683333333, "is_reserved": 0, "fusion_lat": 0.0, "type": "electric_scooter"}, {"fusion_lon": 0.0, "name": "bb068cc0aa1a089756530670eb64a5c7", "rental_uris": {"android": "https://dc.lft.to/lastmile_qr_scan", "ios": "https://dc.lft.to/lastmile_qr_scan"}, "lat": 38.9560245, "bike_id": "bb068cc0aa1a089756530670eb64a5c7", "is_disabled": 0, "lon": -76.964741, "is_reserved": 0, "fusion_lat": 0.0, "type": "electric_bike"}, {"fusion_lon": 0.0, "name": "07a5dbf5e82adc6ee1c43366a26ba239", "rental_uris": {"android": "https://dc.lft.to/lastmile_qr_scan", "ios": "https://dc.lft.to/lastmile_qr_scan"}, "lat": 38.9013425, "bike_id": "07a5dbf5e82adc6ee1c43366a26ba239", "is_disabled": 0, "lon": -76.98958733333333, "is_reserved": 0, "fusion_lat": 0.0, "type": "electric_scooter"}, {"fusion_lon": 0.0, "name": "5d24324f9b80e6fe3752b7a876c718f3", "rental_uris": {"android": "https://dc.lft.to/lastmile_qr_scan", "ios": "https://dc.lft.to/lastmile_qr_scan"}, "lat": 38.903969833333335, "bike_id": "5d24324f9b80e6fe3752b7a876c718f3", "is_disabled": 0, "lon": -76.98092483333333, "is_reserved": 0, "fusion_lat": 0.0, "type": "electric_scooter"}, {"fusion_lon": 0.0, "name": "7bc4e5fb29d6ce5021d5695cfdb082c0", "rental_uris": {"android": "https://dc.lft.to/lastmile_qr_scan", "ios": "https://dc.lft.to/lastmile_qr_scan"}, "lat": 39.0943585, "bike_id": "7bc4e5fb29d6ce5021d5695cfdb082c0", "is_disabled": 0, "lon": -77.1345835, "is_reserved": 0, "fusion_lat": 0.0, "type": "electric_bike"}, {"fusion_lon": 0.0, "name": "af203226f067913fd56895b79344826b", "rental_uris": {"android": "https://dc.lft.to/lastmile_qr_scan", "ios": "https://dc.lft.to/lastmile_qr_scan"}, "lat": 38.897059, "bike_id": "af203226f067913fd56895b79344826b", "is_disabled": 0, "lon": -76.99116383333333, "is_reserved": 0, "fusion_lat": 0.0, "type": "electric_scooter"}, {"fusion_lon": 0.0, "name": "5e7a79c22c5e2008fb24f29323c14540", "rental_uris": {"android": "https://dc.lft.to/lastmile_qr_scan", "ios": "https://dc.lft.to/lastmile_qr_scan"}, "lat": 38.89909933333333, "bike_id": "5e7a79c22c5e2008fb24f29323c14540", "is_disabled": 0, "lon": -77.03303333333334, "is_reserved": 0, "fusion_lat": 0.0, "type": "electric_scooter"}, {"fusion_lon": 0.0, "name": "9df34fc9f3d37d6a0475089a82e50450", "rental_uris": {"android": "https://dc.lft.to/lastmile_qr_scan", "ios": "https://dc.lft.to/lastmile_qr_scan"}, "lat": 38.918855666666666, "bike_id": "9df34fc9f3d37d6a0475089a82e50450", "is_disabled": 0, "lon": -77.02204433333333, "is_reserved": 0, "fusion_lat": 0.0, "type": "electric_scooter"}, {"fusion_lon": 0.0, "name": "7ee91f3990c6fe680ac100f406e31525", "rental_uris": {"android": "https://dc.lft.to/lastmile_qr_scan", "ios": "https://dc.lft.to/lastmile_qr_scan"}, "lat": 38.942604833333334, "bike_id": "7ee91f3990c6fe680ac100f406e31525", "is_disabled": 0, "lon": -77.0284045, "is_reserved": 0, "fusion_lat": 0.0, "type": "electric_scooter"}, {"fusion_lon": 0.0, "name": "b660863f00571b86fc48470f195ba7e9", "rental_uris": {"android": "https://dc.lft.to/lastmile_qr_scan", "ios": "https://dc.lft.to/lastmile_qr_scan"}, "lat": 38.89578866666667, "bike_id": "b660863f00571b86fc48470f195ba7e9", "is_disabled": 0, "lon": -77.03176183333333, "is_reserved": 0, "fusion_lat": 0.0, "type": "electric_scooter"}, {"fusion_lon": 0.0, "name": "bd62a9caa53dd51ff79d4c2dda6fa9b8", "rental_uris": {"android": "https://dc.lft.to/lastmile_qr_scan", "ios": "https://dc.lft.to/lastmile_qr_scan"}, "lat": 38.91546316666667, "bike_id": "bd62a9caa53dd51ff79d4c2dda6fa9b8", "is_disabled": 0, "lon": -77.04414233333334, "is_reserved": 0, "fusion_lat": 0.0, "type": "electric_scooter"}, {"fusion_lon": 0.0, "name": "0dd3317c66dda3ec0238fa44cefbbf3d", "rental_uris": {"android": "https://dc.lft.to/lastmile_qr_scan", "ios": "https://dc.lft.to/lastmile_qr_scan"}, "lat": 38.975174833333334, "bike_id": "0dd3317c66dda3ec0238fa44cefbbf3d", "is_disabled": 0, "lon": -77.01690033333334, "is_reserved": 0, "fusion_lat": 0.0, "type": "electric_scooter"}, {"fusion_lon": 0.0, "name": "2d5497a66dbb3f74626d3959666c699f", "rental_uris": {"android": "https://dc.lft.to/lastmile_qr_scan", "ios": "https://dc.lft.to/lastmile_qr_scan"}, "lat": 38.92183283333333, "bike_id": "2d5497a66dbb3f74626d3959666c699f", "is_disabled": 0, "lon": -77.04229333333333, "is_reserved": 0, "fusion_lat": 0.0, "type": "electric_scooter"}, {"fusion_lon": 0.0, "name": "de447aa47bcfc52f326c55327ea2bf23", "rental_uris": {"android": "https://dc.lft.to/lastmile_qr_scan", "ios": "https://dc.lft.to/lastmile_qr_scan"}, "lat": 38.86244216666667, "bike_id": "de447aa47bcfc52f326c55327ea2bf23", "is_disabled": 0, "lon": -76.995502, "is_reserved": 0, "fusion_lat": 0.0, "type": "electric_scooter"}, {"fusion_lon": 0.0, "name": "baca304df0e3a20d5124025052159600", "rental_uris": {"android": "https://dc.lft.to/lastmile_qr_scan", "ios": "https://dc.lft.to/lastmile_qr_scan"}, "lat": 38.91936366666667, "bike_id": "baca304df0e3a20d5124025052159600", "is_disabled": 0, "lon": -77.01777116666666, "is_reserved": 0, "fusion_lat": 0.0, "type": "electric_scooter"}, {"fusion_lon": 0.0, "name": "553bff871046ebcb79d9ae134cbf6dbc", "rental_uris": {"android": "https://dc.lft.to/lastmile_qr_scan", "ios": "https://dc.lft.to/lastmile_qr_scan"}, "lat": 38.90610266666667, "bike_id": "553bff871046ebcb79d9ae134cbf6dbc", "is_disabled": 0, "lon": -77.02384366666666, "is_reserved": 0, "fusion_lat": 0.0, "type": "electric_scooter"}, {"fusion_lon": 0.0, "name": "dfffd2502028646c4ca72e8a0b63e224", "rental_uris": {"android": "https://dc.lft.to/lastmile_qr_scan", "ios": "https://dc.lft.to/lastmile_qr_scan"}, "lat": 38.8133745, "bike_id": "dfffd2502028646c4ca72e8a0b63e224", "is_disabled": 0, "lon": -77.0509035, "is_reserved": 0, "fusion_lat": 0.0, "type": "electric_bike"}, {"fusion_lon": 0.0, "name": "e29f5af1e5a53830cae9fcc9cf7b9578", "rental_uris": {"android": "https://dc.lft.to/lastmile_qr_scan", "ios": "https://dc.lft.to/lastmile_qr_scan"}, "lat": 39.010982166666665, "bike_id": "e29f5af1e5a53830cae9fcc9cf7b9578", "is_disabled": 0, "lon": -77.04953883333333, "is_reserved": 0, "fusion_lat": 0.0, "type": "electric_bike"}, {"fusion_lon": 0.0, "name": "6cd137c0e8923524de357ba8edb7be78", "rental_uris": {"android": "https://dc.lft.to/lastmile_qr_scan", "ios": "https://dc.lft.to/lastmile_qr_scan"}, "lat": 38.924225166666666, "bike_id": "6cd137c0e8923524de357ba8edb7be78", "is_disabled": 0, "lon": -77.022867, "is_reserved": 0, "fusion_lat": 0.0, "type": "electric_scooter"}, {"fusion_lon": 0.0, "name": "7a67cd2c9e9b469ee5b33c4fb4521942", "rental_uris": {"android": "https://dc.lft.to/lastmile_qr_scan", "ios": "https://dc.lft.to/lastmile_qr_scan"}, "lat": 38.93402583333334, "bike_id": "7a67cd2c9e9b469ee5b33c4fb4521942", "is_disabled": 0, "lon": -77.04550483333334, "is_reserved": 0, "fusion_lat": 0.0, "type": "electric_scooter"}, {"fusion_lon": 0.0, "name": "3069a96c263007392ff9383f031f17ad", "rental_uris": {"android": "https://dc.lft.to/lastmile_qr_scan", "ios": "https://dc.lft.to/lastmile_qr_scan"}, "lat": 38.905428, "bike_id": "3069a96c263007392ff9383f031f17ad", "is_disabled": 0, "lon": -77.022153, "is_reserved": 0, "fusion_lat": 0.0, "type": "electric_scooter"}, {"fusion_lon": 0.0, "name": "fc190815437e04ee0392fae5f1d33589", "rental_uris": {"android": "https://dc.lft.to/lastmile_qr_scan", "ios": "https://dc.lft.to/lastmile_qr_scan"}, "lat": 38.922497, "bike_id": "fc190815437e04ee0392fae5f1d33589", "is_disabled": 0, "lon": -77.01936616666667, "is_reserved": 0, "fusion_lat": 0.0, "type": "electric_scooter"}, {"fusion_lon": 0.0, "name": "b9ddc44e48b24205f2f23f5dcad0e415", "rental_uris": {"android": "https://dc.lft.to/lastmile_qr_scan", "ios": "https://dc.lft.to/lastmile_qr_scan"}, "lat": 38.87806, "bike_id": "b9ddc44e48b24205f2f23f5dcad0e415", "is_disabled": 0, "lon": -76.98822983333334, "is_reserved": 0, "fusion_lat": 0.0, "type": "electric_scooter"}, {"fusion_lon": 0.0, "name": "df46adeb072718118bdfbbc9cb892154", "rental_uris": {"android": "https://dc.lft.to/lastmile_qr_scan", "ios": "https://dc.lft.to/lastmile_qr_scan"}, "lat": 38.894777833333336, "bike_id": "df46adeb072718118bdfbbc9cb892154", "is_disabled": 0, "lon": -76.97774933333334, "is_reserved": 0, "fusion_lat": 0.0, "type": "electric_bike"}, {"fusion_lon": 0.0, "name": "f2b7e0dc8c45a7ac36fe2301c618e739", "rental_uris": {"android": "https://dc.lft.to/lastmile_qr_scan", "ios": "https://dc.lft.to/lastmile_qr_scan"}, "lat": 38.914843, "bike_id": "f2b7e0dc8c45a7ac36fe2301c618e739", "is_disabled": 0, "lon": -77.0324345, "is_reserved": 0, "fusion_lat": 0.0, "type": "electric_scooter"}, {"fusion_lon": 0.0, "name": "086cac0e3a5f77a520bac5186a3ee816", "rental_uris": {"android": "https://dc.lft.to/lastmile_qr_scan", "ios": "https://dc.lft.to/lastmile_qr_scan"}, "lat": 38.907999833333335, "bike_id": "086cac0e3a5f77a520bac5186a3ee816", "is_disabled": 0, "lon": -77.0319235, "is_reserved": 0, "fusion_lat": 0.0, "type": "electric_scooter"}, {"fusion_lon": 0.0, "name": "6f43b9f52b82bcfff20b83316a8c285e", "rental_uris": {"android": "https://dc.lft.to/lastmile_qr_scan", "ios": "https://dc.lft.to/lastmile_qr_scan"}, "lat": 38.90572383333333, "bike_id": "6f43b9f52b82bcfff20b83316a8c285e", "is_disabled": 0, "lon": -77.04069983333333, "is_reserved": 0, "fusion_lat": 0.0, "type": "electric_scooter"}, {"fusion_lon": 0.0, "name": "2f07714f9456a995518264f5ad72a248", "rental_uris": {"android": "https://dc.lft.to/lastmile_qr_scan", "ios": "https://dc.lft.to/lastmile_qr_scan"}, "lat": 38.93126066666667, "bike_id": "2f07714f9456a995518264f5ad72a248", "is_disabled": 0, "lon": -77.03875133333334, "is_reserved": 0, "fusion_lat": 0.0, "type": "electric_scooter"}, {"fusion_lon": 0.0, "name": "7c373ce8f2ddf159f6c78aea55c6ff59", "rental_uris": {"android": "https://dc.lft.to/lastmile_qr_scan", "ios": "https://dc.lft.to/lastmile_qr_scan"}, "lat": 38.90062566666667, "bike_id": "7c373ce8f2ddf159f6c78aea55c6ff59", "is_disabled": 0, "lon": -77.04844583333333, "is_reserved": 0, "fusion_lat": 0.0, "type": "electric_scooter"}, {"fusion_lon": 0.0, "name": "e52ca6009ad4da995389dca1381a84ef", "rental_uris": {"android": "https://dc.lft.to/lastmile_qr_scan", "ios": "https://dc.lft.to/lastmile_qr_scan"}, "lat": 38.964161, "bike_id": "e52ca6009ad4da995389dca1381a84ef", "is_disabled": 0, "lon": -77.03251233333333, "is_reserved": 0, "fusion_lat": 0.0, "type": "electric_scooter"}, {"fusion_lon": 0.0, "name": "4b6714f8927de32c9f3b593846df6732", "rental_uris": {"android": "https://dc.lft.to/lastmile_qr_scan", "ios": "https://dc.lft.to/lastmile_qr_scan"}, "lat": 38.906052833333334, "bike_id": "4b6714f8927de32c9f3b593846df6732", "is_disabled": 0, "lon": -77.01320216666667, "is_reserved": 0, "fusion_lat": 0.0, "type": "electric_scooter"}, {"fusion_lon": 0.0, "name": "a92582fa9e4ff0908d0ea288a7dac430", "rental_uris": {"android": "https://dc.lft.to/lastmile_qr_scan", "ios": "https://dc.lft.to/lastmile_qr_scan"}, "lat": 38.901962833333336, "bike_id": "a92582fa9e4ff0908d0ea288a7dac430", "is_disabled": 0, "lon": -77.06114, "is_reserved": 0, "fusion_lat": 0.0, "type": "electric_scooter"}, {"fusion_lon": 0.0, "name": "9c85a452d37ab2c0516f6aed19d6de30", "rental_uris": {"android": "https://dc.lft.to/lastmile_qr_scan", "ios": "https://dc.lft.to/lastmile_qr_scan"}, "lat": 38.86868616666667, "bike_id": "9c85a452d37ab2c0516f6aed19d6de30", "is_disabled": 0, "lon": -76.9865725, "is_reserved": 0, "fusion_lat": 0.0, "type": "electric_scooter"}, {"fusion_lon": 0.0, "name": "95dc5b416e67bddfbe2e17c1e6620d50", "rental_uris": {"android": "https://dc.lft.to/lastmile_qr_scan", "ios": "https://dc.lft.to/lastmile_qr_scan"}, "lat": 38.90146516666667, "bike_id": "95dc5b416e67bddfbe2e17c1e6620d50", "is_disabled": 0, "lon": -77.04484266666667, "is_reserved": 0, "fusion_lat": 0.0, "type": "electric_scooter"}, {"fusion_lon": 0.0, "name": "df42d277d95e1efbfac4a3aa2cdd906f", "rental_uris": {"android": "https://dc.lft.to/lastmile_qr_scan", "ios": "https://dc.lft.to/lastmile_qr_scan"}, "lat": 38.895505166666666, "bike_id": "df42d277d95e1efbfac4a3aa2cdd906f", "is_disabled": 0, "lon": -77.00913616666666, "is_reserved": 0, "fusion_lat": 0.0, "type": "electric_scooter"}, {"fusion_lon": 0.0, "name": "654aa33e739bb38ebcfe7c3806ba26a4", "rental_uris": {"android": "https://dc.lft.to/lastmile_qr_scan", "ios": "https://dc.lft.to/lastmile_qr_scan"}, "lat": 38.92239166666667, "bike_id": "654aa33e739bb38ebcfe7c3806ba26a4", "is_disabled": 0, "lon": -77.02112816666667, "is_reserved": 0, "fusion_lat": 0.0, "type": "electric_scooter"}, {"fusion_lon": 0.0, "name": "688da71e454e0d790c4f0ecaff2a3e64", "rental_uris": {"android": "https://dc.lft.to/lastmile_qr_scan", "ios": "https://dc.lft.to/lastmile_qr_scan"}, "lat": 38.89613083333333, "bike_id": "688da71e454e0d790c4f0ecaff2a3e64", "is_disabled": 0, "lon": -77.0090875, "is_reserved": 0, "fusion_lat": 0.0, "type": "electric_scooter"}, {"fusion_lon": 0.0, "name": "029120fb33a9eef38b2dec57a325b6f5", "rental_uris": {"android": "https://dc.lft.to/lastmile_qr_scan", "ios": "https://dc.lft.to/lastmile_qr_scan"}, "lat": 38.93265366666667, "bike_id": "029120fb33a9eef38b2dec57a325b6f5", "is_disabled": 0, "lon": -77.03260966666667, "is_reserved": 0, "fusion_lat": 0.0, "type": "electric_scooter"}, {"fusion_lon": 0.0, "name": "f2f318edc1b10bfd011033de72ae403b", "rental_uris": {"android": "https://dc.lft.to/lastmile_qr_scan", "ios": "https://dc.lft.to/lastmile_qr_scan"}, "lat": 38.938232, "bike_id": "f2f318edc1b10bfd011033de72ae403b", "is_disabled": 0, "lon": -77.10171483333333, "is_reserved": 0, "fusion_lat": 0.0, "type": "electric_bike"}, {"fusion_lon": 0.0, "name": "724a501d27eb3f8871bace57ec402de4", "rental_uris": {"android": "https://dc.lft.to/lastmile_qr_scan", "ios": "https://dc.lft.to/lastmile_qr_scan"}, "lat": 38.9326675, "bike_id": "724a501d27eb3f8871bace57ec402de4", "is_disabled": 0, "lon": -77.02096533333334, "is_reserved": 0, "fusion_lat": 0.0, "type": "electric_scooter"}, {"fusion_lon": 0.0, "name": "e132b03b8802d315501f4d25de5b7a8e", "rental_uris": {"android": "https://dc.lft.to/lastmile_qr_scan", "ios": "https://dc.lft.to/lastmile_qr_scan"}, "lat": 38.90697733333333, "bike_id": "e132b03b8802d315501f4d25de5b7a8e", "is_disabled": 0, "lon": -77.01114666666666, "is_reserved": 0, "fusion_lat": 0.0, "type": "electric_scooter"}, {"fusion_lon": 0.0, "name": "8e8eababc423ae031d8a47aca7033d85", "rental_uris": {"android": "https://dc.lft.to/lastmile_qr_scan", "ios": "https://dc.lft.to/lastmile_qr_scan"}, "lat": 38.89254616666667, "bike_id": "8e8eababc423ae031d8a47aca7033d85", "is_disabled": 0, "lon": -77.00216, "is_reserved": 0, "fusion_lat": 0.0, "type": "electric_scooter"}, {"fusion_lon": 0.0, "name": "b4e04a3f576f7a8606351a1ac6410c77", "rental_uris": {"android": "https://dc.lft.to/lastmile_qr_scan", "ios": "https://dc.lft.to/lastmile_qr_scan"}, "lat": 38.907745, "bike_id": "b4e04a3f576f7a8606351a1ac6410c77", "is_disabled": 0, "lon": -77.07167483333333, "is_reserved": 0, "fusion_lat": 0.0, "type": "electric_scooter"}, {"fusion_lon": 0.0, "name": "5121e5c8cf244f438712d1ea4ff722b2", "rental_uris": {"android": "https://dc.lft.to/lastmile_qr_scan", "ios": "https://dc.lft.to/lastmile_qr_scan"}, "lat": 38.927945333333334, "bike_id": "5121e5c8cf244f438712d1ea4ff722b2", "is_disabled": 0, "lon": -77.01405516666667, "is_reserved": 0, "fusion_lat": 0.0, "type": "electric_scooter"}, {"fusion_lon": 0.0, "name": "a91028b7c4bcc38fadb16bae0491264e", "rental_uris": {"android": "https://dc.lft.to/lastmile_qr_scan", "ios": "https://dc.lft.to/lastmile_qr_scan"}, "lat": 38.876413666666664, "bike_id": "a91028b7c4bcc38fadb16bae0491264e", "is_disabled": 0, "lon": -77.01224366666666, "is_reserved": 0, "fusion_lat": 0.0, "type": "electric_bike"}, {"fusion_lon": 0.0, "name": "36ad0f1469fa2e95f3fd20c593ed250e", "rental_uris": {"android": "https://dc.lft.to/lastmile_qr_scan", "ios": "https://dc.lft.to/lastmile_qr_scan"}, "lat": 38.897286333333334, "bike_id": "36ad0f1469fa2e95f3fd20c593ed250e", "is_disabled": 0, "lon": -77.05524383333334, "is_reserved": 0, "fusion_lat": 0.0, "type": "electric_scooter"}, {"fusion_lon": 0.0, "name": "9fb58b96118363cc2ae3f0495282d7e2", "rental_uris": {"android": "https://dc.lft.to/lastmile_qr_scan", "ios": "https://dc.lft.to/lastmile_qr_scan"}, "lat": 38.910802333333336, "bike_id": "9fb58b96118363cc2ae3f0495282d7e2", "is_disabled": 0, "lon": -77.04473683333333, "is_reserved": 0, "fusion_lat": 0.0, "type": "electric_scooter"}, {"fusion_lon": 0.0, "name": "4286bcbd003b8230bdbe6db87119b312", "rental_uris": {"android": "https://dc.lft.to/lastmile_qr_scan", "ios": "https://dc.lft.to/lastmile_qr_scan"}, "lat": 38.854431166666664, "bike_id": "4286bcbd003b8230bdbe6db87119b312", "is_disabled": 0, "lon": -77.08320666666667, "is_reserved": 0, "fusion_lat": 0.0, "type": "electric_bike"}, {"fusion_lon": 0.0, "name": "06d38ec14071c66e0908ceabc29fb9f0", "rental_uris": {"android": "https://dc.lft.to/lastmile_qr_scan", "ios": "https://dc.lft.to/lastmile_qr_scan"}, "lat": 38.89611466666667, "bike_id": "06d38ec14071c66e0908ceabc29fb9f0", "is_disabled": 0, "lon": -77.05081183333333, "is_reserved": 0, "fusion_lat": 0.0, "type": "electric_scooter"}, {"fusion_lon": 0.0, "name": "d693f9bc28b21de6c7c5a8e22e666447", "rental_uris": {"android": "https://dc.lft.to/lastmile_qr_scan", "ios": "https://dc.lft.to/lastmile_qr_scan"}, "lat": 38.973159833333334, "bike_id": "d693f9bc28b21de6c7c5a8e22e666447", "is_disabled": 0, "lon": -77.026928, "is_reserved": 0, "fusion_lat": 0.0, "type": "electric_scooter"}, {"fusion_lon": 0.0, "name": "0d625051d99f1b14df815233ecf22bcc", "rental_uris": {"android": "https://dc.lft.to/lastmile_qr_scan", "ios": "https://dc.lft.to/lastmile_qr_scan"}, "lat": 38.904203, "bike_id": "0d625051d99f1b14df815233ecf22bcc", "is_disabled": 0, "lon": -77.02547833333334, "is_reserved": 0, "fusion_lat": 0.0, "type": "electric_scooter"}, {"fusion_lon": 0.0, "name": "23e7248d2cd7164949f6615761e41a5d", "rental_uris": {"android": "https://dc.lft.to/lastmile_qr_scan", "ios": "https://dc.lft.to/lastmile_qr_scan"}, "lat": 38.91398483333333, "bike_id": "23e7248d2cd7164949f6615761e41a5d", "is_disabled": 0, "lon": -77.03209666666666, "is_reserved": 0, "fusion_lat": 0.0, "type": "electric_scooter"}, {"fusion_lon": 0.0, "name": "fe000de0f3d9b4be4e40a6bf1f672aa7", "rental_uris": {"android": "https://dc.lft.to/lastmile_qr_scan", "ios": "https://dc.lft.to/lastmile_qr_scan"}, "lat": 38.926647333333335, "bike_id": "fe000de0f3d9b4be4e40a6bf1f672aa7", "is_disabled": 0, "lon": -77.0150225, "is_reserved": 0, "fusion_lat": 0.0, "type": "electric_scooter"}, {"fusion_lon": 0.0, "name": "541cbf0060437adfd2962bbcf46c511f", "rental_uris": {"android": "https://dc.lft.to/lastmile_qr_scan", "ios": "https://dc.lft.to/lastmile_qr_scan"}, "lat": 38.91998616666667, "bike_id": "541cbf0060437adfd2962bbcf46c511f", "is_disabled": 0, "lon": -77.03217266666667, "is_reserved": 0, "fusion_lat": 0.0, "type": "electric_scooter"}, {"fusion_lon": 0.0, "name": "17875d13d2a3d13e3d05d9f5e35dcc28", "rental_uris": {"android": "https://dc.lft.to/lastmile_qr_scan", "ios": "https://dc.lft.to/lastmile_qr_scan"}, "lat": 38.927524, "bike_id": "17875d13d2a3d13e3d05d9f5e35dcc28", "is_disabled": 0, "lon": -77.0231985, "is_reserved": 0, "fusion_lat": 0.0, "type": "electric_bike"}, {"fusion_lon": 0.0, "name": "b9466d0649bf554d48827d135303db3e", "rental_uris": {"android": "https://dc.lft.to/lastmile_qr_scan", "ios": "https://dc.lft.to/lastmile_qr_scan"}, "lat": 38.90143316666666, "bike_id": "b9466d0649bf554d48827d135303db3e", "is_disabled": 0, "lon": -77.02184233333334, "is_reserved": 0, "fusion_lat": 0.0, "type": "electric_scooter"}, {"fusion_lon": 0.0, "name": "8d70d1f3388af42e0720f2411f079de6", "rental_uris": {"android": "https://dc.lft.to/lastmile_qr_scan", "ios": "https://dc.lft.to/lastmile_qr_scan"}, "lat": 38.93792933333334, "bike_id": "8d70d1f3388af42e0720f2411f079de6", "is_disabled": 0, "lon": -77.03265, "is_reserved": 0, "fusion_lat": 0.0, "type": "electric_scooter"}, {"fusion_lon": 0.0, "name": "5e7488e294bf86d99cb0e52adb954de9", "rental_uris": {"android": "https://dc.lft.to/lastmile_qr_scan", "ios": "https://dc.lft.to/lastmile_qr_scan"}, "lat": 38.92420166666667, "bike_id": "5e7488e294bf86d99cb0e52adb954de9", "is_disabled": 0, "lon": -77.02012483333333, "is_reserved": 0, "fusion_lat": 0.0, "type": "electric_scooter"}, {"fusion_lon": 0.0, "name": "d7973d0ce8563625bed5378ddad0ed26", "rental_uris": {"android": "https://dc.lft.to/lastmile_qr_scan", "ios": "https://dc.lft.to/lastmile_qr_scan"}, "lat": 38.901253833333335, "bike_id": "d7973d0ce8563625bed5378ddad0ed26", "is_disabled": 0, "lon": -77.04344966666666, "is_reserved": 0, "fusion_lat": 0.0, "type": "electric_scooter"}, {"fusion_lon": 0.0, "name": "5dc9a5976db86ac23b8b0f9f1819a367", "rental_uris": {"android": "https://dc.lft.to/lastmile_qr_scan", "ios": "https://dc.lft.to/lastmile_qr_scan"}, "lat": 38.905233, "bike_id": "5dc9a5976db86ac23b8b0f9f1819a367", "is_disabled": 0, "lon": -77.0599735, "is_reserved": 0, "fusion_lat": 0.0, "type": "electric_scooter"}, {"fusion_lon": 0.0, "name": "005c8f92bf787a4369adc69be1e6a233", "rental_uris": {"android": "https://dc.lft.to/lastmile_qr_scan", "ios": "https://dc.lft.to/lastmile_qr_scan"}, "lat": 38.918660333333335, "bike_id": "005c8f92bf787a4369adc69be1e6a233", "is_disabled": 0, "lon": -77.0319795, "is_reserved": 0, "fusion_lat": 0.0, "type": "electric_scooter"}, {"fusion_lon": 0.0, "name": "966f452c9574a9ea7ee712136d17b67e", "rental_uris": {"android": "https://dc.lft.to/lastmile_qr_scan", "ios": "https://dc.lft.to/lastmile_qr_scan"}, "lat": 38.93447533333333, "bike_id": "966f452c9574a9ea7ee712136d17b67e", "is_disabled": 0, "lon": -77.08962916666667, "is_reserved": 0, "fusion_lat": 0.0, "type": "electric_scooter"}, {"fusion_lon": 0.0, "name": "bc76e75ca260547dae471f67f55b2620", "rental_uris": {"android": "https://dc.lft.to/lastmile_qr_scan", "ios": "https://dc.lft.to/lastmile_qr_scan"}, "lat": 38.917060666666664, "bike_id": "bc76e75ca260547dae471f67f55b2620", "is_disabled": 0, "lon": -77.04618433333333, "is_reserved": 0, "fusion_lat": 0.0, "type": "electric_scooter"}, {"fusion_lon": 0.0, "name": "fc752f3bf357f2d9759d3737ac813a4c", "rental_uris": {"android": "https://dc.lft.to/lastmile_qr_scan", "ios": "https://dc.lft.to/lastmile_qr_scan"}, "lat": 38.90045116666667, "bike_id": "fc752f3bf357f2d9759d3737ac813a4c", "is_disabled": 0, "lon": -76.985508, "is_reserved": 0, "fusion_lat": 0.0, "type": "electric_scooter"}, {"fusion_lon": 0.0, "name": "3a63d4f00ec559bc243629ac95d66b11", "rental_uris": {"android": "https://dc.lft.to/lastmile_qr_scan", "ios": "https://dc.lft.to/lastmile_qr_scan"}, "lat": 38.90125866666666, "bike_id": "3a63d4f00ec559bc243629ac95d66b11", "is_disabled": 0, "lon": -77.03042633333334, "is_reserved": 0, "fusion_lat": 0.0, "type": "electric_scooter"}, {"fusion_lon": 0.0, "name": "7fd5b41d40fe5facc0a3464f3bb6be5d", "rental_uris": {"android": "https://dc.lft.to/lastmile_qr_scan", "ios": "https://dc.lft.to/lastmile_qr_scan"}, "lat": 38.9287945, "bike_id": "7fd5b41d40fe5facc0a3464f3bb6be5d", "is_disabled": 0, "lon": -77.0347465, "is_reserved": 0, "fusion_lat": 0.0, "type": "electric_scooter"}, {"fusion_lon": 0.0, "name": "2ceaeb4f01c356ea9d505a0f7a81548c", "rental_uris": {"android": "https://dc.lft.to/lastmile_qr_scan", "ios": "https://dc.lft.to/lastmile_qr_scan"}, "lat": 38.899108, "bike_id": "2ceaeb4f01c356ea9d505a0f7a81548c", "is_disabled": 0, "lon": -76.933922, "is_reserved": 0, "fusion_lat": 0.0, "type": "electric_scooter"}, {"fusion_lon": 0.0, "name": "a1a3695d5e8f1778e511ec4c87e93ae6", "rental_uris": {"android": "https://dc.lft.to/lastmile_qr_scan", "ios": "https://dc.lft.to/lastmile_qr_scan"}, "lat": 38.90239183333333, "bike_id": "a1a3695d5e8f1778e511ec4c87e93ae6", "is_disabled": 0, "lon": -77.01997783333333, "is_reserved": 0, "fusion_lat": 0.0, "type": "electric_scooter"}, {"fusion_lon": 0.0, "name": "316ead46f2c0d986d487b1114204ed35", "rental_uris": {"android": "https://dc.lft.to/lastmile_qr_scan", "ios": "https://dc.lft.to/lastmile_qr_scan"}, "lat": 38.93358633333333, "bike_id": "316ead46f2c0d986d487b1114204ed35", "is_disabled": 0, "lon": -77.08572883333333, "is_reserved": 0, "fusion_lat": 0.0, "type": "electric_scooter"}, {"fusion_lon": 0.0, "name": "8c65bb2e1c85fc62e70b9eaec76e6f29", "rental_uris": {"android": "https://dc.lft.to/lastmile_qr_scan", "ios": "https://dc.lft.to/lastmile_qr_scan"}, "lat": 38.90439116666667, "bike_id": "8c65bb2e1c85fc62e70b9eaec76e6f29", "is_disabled": 0, "lon": -77.05325716666667, "is_reserved": 0, "fusion_lat": 0.0, "type": "electric_scooter"}, {"fusion_lon": 0.0, "name": "ff606bbd2db12a9badc51ffcead9ccb5", "rental_uris": {"android": "https://dc.lft.to/lastmile_qr_scan", "ios": "https://dc.lft.to/lastmile_qr_scan"}, "lat": 38.98730066666667, "bike_id": "ff606bbd2db12a9badc51ffcead9ccb5", "is_disabled": 0, "lon": -77.0091635, "is_reserved": 0, "fusion_lat": 0.0, "type": "electric_bike"}, {"fusion_lon": 0.0, "name": "b7e1f990f1b7e33f064e8b05b7419fc5", "rental_uris": {"android": "https://dc.lft.to/lastmile_qr_scan", "ios": "https://dc.lft.to/lastmile_qr_scan"}, "lat": 38.893481333333334, "bike_id": "b7e1f990f1b7e33f064e8b05b7419fc5", "is_disabled": 0, "lon": -77.02212183333333, "is_reserved": 0, "fusion_lat": 0.0, "type": "electric_scooter"}, {"fusion_lon": 0.0, "name": "232a2ea679909cee6b9dacc453ac8938", "rental_uris": {"android": "https://dc.lft.to/lastmile_qr_scan", "ios": "https://dc.lft.to/lastmile_qr_scan"}, "lat": 38.911341166666666, "bike_id": "232a2ea679909cee6b9dacc453ac8938", "is_disabled": 0, "lon": -77.065711, "is_reserved": 0, "fusion_lat": 0.0, "type": "electric_bike"}, {"fusion_lon": 0.0, "name": "4f1cb39b8f7848b3664baa5016aa4b85", "rental_uris": {"android": "https://dc.lft.to/lastmile_qr_scan", "ios": "https://dc.lft.to/lastmile_qr_scan"}, "lat": 38.9304625, "bike_id": "4f1cb39b8f7848b3664baa5016aa4b85", "is_disabled": 0, "lon": -76.958371, "is_reserved": 0, "fusion_lat": 0.0, "type": "electric_scooter"}, {"fusion_lon": 0.0, "name": "fb20bac0772d2889ea1b37ba551ae352", "rental_uris": {"android": "https://dc.lft.to/lastmile_qr_scan", "ios": "https://dc.lft.to/lastmile_qr_scan"}, "lat": 38.913234833333334, "bike_id": "fb20bac0772d2889ea1b37ba551ae352", "is_disabled": 0, "lon": -77.04540583333333, "is_reserved": 0, "fusion_lat": 0.0, "type": "electric_scooter"}, {"fusion_lon": 0.0, "name": "798c2cef542a65fdddd9397b0141cd25", "rental_uris": {"android": "https://dc.lft.to/lastmile_qr_scan", "ios": "https://dc.lft.to/lastmile_qr_scan"}, "lat": 38.923345, "bike_id": "798c2cef542a65fdddd9397b0141cd25", "is_disabled": 0, "lon": -77.04701783333333, "is_reserved": 0, "fusion_lat": 0.0, "type": "electric_scooter"}, {"fusion_lon": 0.0, "name": "de327b334d49625820a5285ed41f1c81", "rental_uris": {"android": "https://dc.lft.to/lastmile_qr_scan", "ios": "https://dc.lft.to/lastmile_qr_scan"}, "lat": 38.9040955, "bike_id": "de327b334d49625820a5285ed41f1c81", "is_disabled": 0, "lon": -76.97326183333334, "is_reserved": 0, "fusion_lat": 0.0, "type": "electric_scooter"}, {"fusion_lon": 0.0, "name": "548ae2b8978d7127ebf4a451476b376c", "rental_uris": {"android": "https://dc.lft.to/lastmile_qr_scan", "ios": "https://dc.lft.to/lastmile_qr_scan"}, "lat": 38.8467275, "bike_id": "548ae2b8978d7127ebf4a451476b376c", "is_disabled": 0, "lon": -77.1391925, "is_reserved": 0, "fusion_lat": 0.0, "type": "electric_bike"}, {"fusion_lon": 0.0, "name": "9b970c628c3312e7131201b730387a11", "rental_uris": {"android": "https://dc.lft.to/lastmile_qr_scan", "ios": "https://dc.lft.to/lastmile_qr_scan"}, "lat": 38.88226366666667, "bike_id": "9b970c628c3312e7131201b730387a11", "is_disabled": 0, "lon": -76.9908775, "is_reserved": 0, "fusion_lat": 0.0, "type": "electric_scooter"}, {"fusion_lon": 0.0, "name": "074d7b9a71706a7d08f5fcf216199852", "rental_uris": {"android": "https://dc.lft.to/lastmile_qr_scan", "ios": "https://dc.lft.to/lastmile_qr_scan"}, "lat": 38.90956666666666, "bike_id": "074d7b9a71706a7d08f5fcf216199852", "is_disabled": 0, "lon": -77.0443195, "is_reserved": 0, "fusion_lat": 0.0, "type": "electric_bike"}, {"fusion_lon": 0.0, "name": "c20c2faf80dc425a6fd81d099600e4e4", "rental_uris": {"android": "https://dc.lft.to/lastmile_qr_scan", "ios": "https://dc.lft.to/lastmile_qr_scan"}, "lat": 38.9167625, "bike_id": "c20c2faf80dc425a6fd81d099600e4e4", "is_disabled": 0, "lon": -77.03218283333334, "is_reserved": 0, "fusion_lat": 0.0, "type": "electric_scooter"}, {"fusion_lon": 0.0, "name": "dac3f3f1a5fc7f69548993fc5d649434", "rental_uris": {"android": "https://dc.lft.to/lastmile_qr_scan", "ios": "https://dc.lft.to/lastmile_qr_scan"}, "lat": 38.91856116666666, "bike_id": "dac3f3f1a5fc7f69548993fc5d649434", "is_disabled": 0, "lon": -76.96083816666666, "is_reserved": 0, "fusion_lat": 0.0, "type": "electric_bike"}, {"fusion_lon": 0.0, "name": "2d74dad61acd4bf7ba010f19eaabf726", "rental_uris": {"android": "https://dc.lft.to/lastmile_qr_scan", "ios": "https://dc.lft.to/lastmile_qr_scan"}, "lat": 38.91884783333333, "bike_id": "2d74dad61acd4bf7ba010f19eaabf726", "is_disabled": 0, "lon": -77.0417285, "is_reserved": 0, "fusion_lat": 0.0, "type": "electric_scooter"}, {"fusion_lon": 0.0, "name": "4e75d7f5e4e5a6fe3225141ff450b4bc", "rental_uris": {"android": "https://dc.lft.to/lastmile_qr_scan", "ios": "https://dc.lft.to/lastmile_qr_scan"}, "lat": 38.93281183333333, "bike_id": "4e75d7f5e4e5a6fe3225141ff450b4bc", "is_disabled": 0, "lon": -77.0255795, "is_reserved": 0, "fusion_lat": 0.0, "type": "electric_scooter"}, {"fusion_lon": 0.0, "name": "deacbd755a66b94fde8d821ae82fd423", "rental_uris": {"android": "https://dc.lft.to/lastmile_qr_scan", "ios": "https://dc.lft.to/lastmile_qr_scan"}, "lat": 38.914807333333336, "bike_id": "deacbd755a66b94fde8d821ae82fd423", "is_disabled": 0, "lon": -77.03212683333334, "is_reserved": 0, "fusion_lat": 0.0, "type": "electric_scooter"}, {"fusion_lon": 0.0, "name": "95db418ad351ef31851856ca4906cde4", "rental_uris": {"android": "https://dc.lft.to/lastmile_qr_scan", "ios": "https://dc.lft.to/lastmile_qr_scan"}, "lat": 38.92659716666667, "bike_id": "95db418ad351ef31851856ca4906cde4", "is_disabled": 0, "lon": -77.0229975, "is_reserved": 0, "fusion_lat": 0.0, "type": "electric_scooter"}, {"fusion_lon": 0.0, "name": "4d9423cc6be99322176e2c9ad2024d2e", "rental_uris": {"android": "https://dc.lft.to/lastmile_qr_scan", "ios": "https://dc.lft.to/lastmile_qr_scan"}, "lat": 38.91737883333333, "bike_id": "4d9423cc6be99322176e2c9ad2024d2e", "is_disabled": 0, "lon": -77.02116816666667, "is_reserved": 0, "fusion_lat": 0.0, "type": "electric_scooter"}, {"fusion_lon": 0.0, "name": "1f0e3725253d5c68b9be021b2cbd986a", "rental_uris": {"android": "https://dc.lft.to/lastmile_qr_scan", "ios": "https://dc.lft.to/lastmile_qr_scan"}, "lat": 38.909688, "bike_id": "1f0e3725253d5c68b9be021b2cbd986a", "is_disabled": 0, "lon": -77.04521216666667, "is_reserved": 0, "fusion_lat": 0.0, "type": "electric_scooter"}, {"fusion_lon": 0.0, "name": "4b1810d7de447e6525894b2f0f46669b", "rental_uris": {"android": "https://dc.lft.to/lastmile_qr_scan", "ios": "https://dc.lft.to/lastmile_qr_scan"}, "lat": 38.927627, "bike_id": "4b1810d7de447e6525894b2f0f46669b", "is_disabled": 0, "lon": -77.03123766666667, "is_reserved": 0, "fusion_lat": 0.0, "type": "electric_scooter"}, {"fusion_lon": 0.0, "name": "24f05cb5ad1c17538100a44b47187c9a", "rental_uris": {"android": "https://dc.lft.to/lastmile_qr_scan", "ios": "https://dc.lft.to/lastmile_qr_scan"}, "lat": 38.91471716666667, "bike_id": "24f05cb5ad1c17538100a44b47187c9a", "is_disabled": 0, "lon": -77.0320315, "is_reserved": 0, "fusion_lat": 0.0, "type": "electric_scooter"}, {"fusion_lon": 0.0, "name": "d150191416ad5bd0bdaf99548b3b5afc", "rental_uris": {"android": "https://dc.lft.to/lastmile_qr_scan", "ios": "https://dc.lft.to/lastmile_qr_scan"}, "lat": 38.948988, "bike_id": "d150191416ad5bd0bdaf99548b3b5afc", "is_disabled": 0, "lon": -77.03334333333333, "is_reserved": 0, "fusion_lat": 0.0, "type": "electric_scooter"}, {"fusion_lon": 0.0, "name": "3d1ede8b249efb1ac774b6fb41dae7a6", "rental_uris": {"android": "https://dc.lft.to/lastmile_qr_scan", "ios": "https://dc.lft.to/lastmile_qr_scan"}, "lat": 38.8999955, "bike_id": "3d1ede8b249efb1ac774b6fb41dae7a6", "is_disabled": 0, "lon": -77.04131, "is_reserved": 0, "fusion_lat": 0.0, "type": "electric_scooter"}, {"fusion_lon": 0.0, "name": "ef4e0f01c1e0df996f7257ef9def4b5f", "rental_uris": {"android": "https://dc.lft.to/lastmile_qr_scan", "ios": "https://dc.lft.to/lastmile_qr_scan"}, "lat": 38.90147733333333, "bike_id": "ef4e0f01c1e0df996f7257ef9def4b5f", "is_disabled": 0, "lon": -76.974158, "is_reserved": 0, "fusion_lat": 0.0, "type": "electric_scooter"}, {"fusion_lon": 0.0, "name": "773e1ee249086e17bc6aa6a571caeb91", "rental_uris": {"android": "https://dc.lft.to/lastmile_qr_scan", "ios": "https://dc.lft.to/lastmile_qr_scan"}, "lat": 38.895807166666664, "bike_id": "773e1ee249086e17bc6aa6a571caeb91", "is_disabled": 0, "lon": -77.041337, "is_reserved": 0, "fusion_lat": 0.0, "type": "electric_scooter"}, {"fusion_lon": 0.0, "name": "f1cc8bc5762c0bb4ff28ff37739cb7c8", "rental_uris": {"android": "https://dc.lft.to/lastmile_qr_scan", "ios": "https://dc.lft.to/lastmile_qr_scan"}, "lat": 38.9036275, "bike_id": "f1cc8bc5762c0bb4ff28ff37739cb7c8", "is_disabled": 0, "lon": -77.03534716666667, "is_reserved": 0, "fusion_lat": 0.0, "type": "electric_scooter"}, {"fusion_lon": 0.0, "name": "68a682d84b99effd41efa6d93b99c0ae", "rental_uris": {"android": "https://dc.lft.to/lastmile_qr_scan", "ios": "https://dc.lft.to/lastmile_qr_scan"}, "lat": 38.902624833333334, "bike_id": "68a682d84b99effd41efa6d93b99c0ae", "is_disabled": 0, "lon": -77.02692733333333, "is_reserved": 0, "fusion_lat": 0.0, "type": "electric_scooter"}, {"fusion_lon": 0.0, "name": "a1b6c3295c91d0a3c6bf9909ee042e4e", "rental_uris": {"android": "https://dc.lft.to/lastmile_qr_scan", "ios": "https://dc.lft.to/lastmile_qr_scan"}, "lat": 38.9576045, "bike_id": "a1b6c3295c91d0a3c6bf9909ee042e4e", "is_disabled": 0, "lon": -77.00912133333334, "is_reserved": 0, "fusion_lat": 0.0, "type": "electric_scooter"}, {"fusion_lon": 0.0, "name": "1a540b45c47d4842631ac71b32b32ebe", "rental_uris": {"android": "https://dc.lft.to/lastmile_qr_scan", "ios": "https://dc.lft.to/lastmile_qr_scan"}, "lat": 38.92171883333334, "bike_id": "1a540b45c47d4842631ac71b32b32ebe", "is_disabled": 0, "lon": -77.02667616666666, "is_reserved": 0, "fusion_lat": 0.0, "type": "electric_scooter"}, {"fusion_lon": 0.0, "name": "828cd0f53278920ff461612c2cae504c", "rental_uris": {"android": "https://dc.lft.to/lastmile_qr_scan", "ios": "https://dc.lft.to/lastmile_qr_scan"}, "lat": 38.8875555, "bike_id": "828cd0f53278920ff461612c2cae504c", "is_disabled": 0, "lon": -77.00259933333334, "is_reserved": 0, "fusion_lat": 0.0, "type": "electric_scooter"}, {"fusion_lon": 0.0, "name": "5e212fdc76da0517366db06602412872", "rental_uris": {"android": "https://dc.lft.to/lastmile_qr_scan", "ios": "https://dc.lft.to/lastmile_qr_scan"}, "lat": 38.921685333333336, "bike_id": "5e212fdc76da0517366db06602412872", "is_disabled": 0, "lon": -77.02083, "is_reserved": 0, "fusion_lat": 0.0, "type": "electric_scooter"}, {"fusion_lon": 0.0, "name": "65e1b6915bcb62d18f8d0fd5723c8159", "rental_uris": {"android": "https://dc.lft.to/lastmile_qr_scan", "ios": "https://dc.lft.to/lastmile_qr_scan"}, "lat": 38.906940166666665, "bike_id": "65e1b6915bcb62d18f8d0fd5723c8159", "is_disabled": 0, "lon": -77.02985666666666, "is_reserved": 0, "fusion_lat": 0.0, "type": "electric_scooter"}, {"fusion_lon": 0.0, "name": "281222dcdf31e127fa491b6112d28553", "rental_uris": {"android": "https://dc.lft.to/lastmile_qr_scan", "ios": "https://dc.lft.to/lastmile_qr_scan"}, "lat": 38.9204155, "bike_id": "281222dcdf31e127fa491b6112d28553", "is_disabled": 0, "lon": -77.02429583333333, "is_reserved": 0, "fusion_lat": 0.0, "type": "electric_scooter"}, {"fusion_lon": 0.0, "name": "5bd5fab671b5b738b537751b0a7b15eb", "rental_uris": {"android": "https://dc.lft.to/lastmile_qr_scan", "ios": "https://dc.lft.to/lastmile_qr_scan"}, "lat": 38.915028666666664, "bike_id": "5bd5fab671b5b738b537751b0a7b15eb", "is_disabled": 0, "lon": -77.00619683333333, "is_reserved": 0, "fusion_lat": 0.0, "type": "electric_scooter"}, {"fusion_lon": 0.0, "name": "bb496cf0be46a6a4dde67c6c3ec66591", "rental_uris": {"android": "https://dc.lft.to/lastmile_qr_scan", "ios": "https://dc.lft.to/lastmile_qr_scan"}, "lat": 38.926140333333336, "bike_id": "bb496cf0be46a6a4dde67c6c3ec66591", "is_disabled": 0, "lon": -77.0215865, "is_reserved": 0, "fusion_lat": 0.0, "type": "electric_scooter"}, {"fusion_lon": 0.0, "name": "245e62999865950d5997017923495c9a", "rental_uris": {"android": "https://dc.lft.to/lastmile_qr_scan", "ios": "https://dc.lft.to/lastmile_qr_scan"}, "lat": 38.955183, "bike_id": "245e62999865950d5997017923495c9a", "is_disabled": 0, "lon": -77.01024266666667, "is_reserved": 0, "fusion_lat": 0.0, "type": "electric_scooter"}, {"fusion_lon": 0.0, "name": "75c43588e501e8e00b25242808fc4700", "rental_uris": {"android": "https://dc.lft.to/lastmile_qr_scan", "ios": "https://dc.lft.to/lastmile_qr_scan"}, "lat": 38.89232883333333, "bike_id": "75c43588e501e8e00b25242808fc4700", "is_disabled": 0, "lon": -77.023842, "is_reserved": 0, "fusion_lat": 0.0, "type": "electric_scooter"}, {"fusion_lon": 0.0, "name": "8baed1b4e2afb9d6d21bdd66f859c813", "rental_uris": {"android": "https://dc.lft.to/lastmile_qr_scan", "ios": "https://dc.lft.to/lastmile_qr_scan"}, "lat": 38.94354633333333, "bike_id": "8baed1b4e2afb9d6d21bdd66f859c813", "is_disabled": 0, "lon": -77.0611615, "is_reserved": 0, "fusion_lat": 0.0, "type": "electric_scooter"}, {"fusion_lon": 0.0, "name": "ff38704597b9c9f1bcacefd9d4a64464", "rental_uris": {"android": "https://dc.lft.to/lastmile_qr_scan", "ios": "https://dc.lft.to/lastmile_qr_scan"}, "lat": 38.92154016666667, "bike_id": "ff38704597b9c9f1bcacefd9d4a64464", "is_disabled": 0, "lon": -77.033806, "is_reserved": 0, "fusion_lat": 0.0, "type": "electric_scooter"}, {"fusion_lon": 0.0, "name": "3e2c968d3d5b268be140a15afdd31b65", "rental_uris": {"android": "https://dc.lft.to/lastmile_qr_scan", "ios": "https://dc.lft.to/lastmile_qr_scan"}, "lat": 38.896716, "bike_id": "3e2c968d3d5b268be140a15afdd31b65", "is_disabled": 0, "lon": -77.043448, "is_reserved": 0, "fusion_lat": 0.0, "type": "electric_scooter"}, {"fusion_lon": 0.0, "name": "23cc6eab363e3f6895ed3690de170fc5", "rental_uris": {"android": "https://dc.lft.to/lastmile_qr_scan", "ios": "https://dc.lft.to/lastmile_qr_scan"}, "lat": 38.89671583333333, "bike_id": "23cc6eab363e3f6895ed3690de170fc5", "is_disabled": 0, "lon": -77.054621, "is_reserved": 0, "fusion_lat": 0.0, "type": "electric_scooter"}, {"fusion_lon": 0.0, "name": "404d8a8f038739fdfb45add0ba95d428", "rental_uris": {"android": "https://dc.lft.to/lastmile_qr_scan", "ios": "https://dc.lft.to/lastmile_qr_scan"}, "lat": 38.9242135, "bike_id": "404d8a8f038739fdfb45add0ba95d428", "is_disabled": 0, "lon": -77.019452, "is_reserved": 0, "fusion_lat": 0.0, "type": "electric_scooter"},