{"data": {"bikes": [{"bike_id": "117ff0e9d21bc4ba907ddf213aa868ee", "is_reserved": 0, "fusion_lon": 0.0, "lat": 38.92862066666667, "is_disabled": 0, "name": "117ff0e9d21bc4ba907ddf213aa868ee", "fusion_lat": 0.0, "rental_uris": {"ios": "https://dc.lft.to/lastmile_qr_scan", "android": "https://dc.lft.to/lastmile_qr_scan"}, "lon": -77.01377916666667, "type": "electric_scooter"}, {"bike_id": "2264d2e534508380d40f45ed8ce71a3c", "is_reserved": 0, "fusion_lon": 0.0, "lat": 38.896856, "is_disabled": 0, "name": "2264d2e534508380d40f45ed8ce71a3c", "fusion_lat": 0.0, "rental_uris": {"ios": "https://dc.lft.to/lastmile_qr_scan", "android": "https://dc.lft.to/lastmile_qr_scan"}, "lon": -76.99624516666667, "type": "electric_scooter"}, {"bike_id": "8e2db0bad429efd5f0856b4cf3fa9a33", "is_reserved": 0, "fusion_lon": 0.0, "lat": 38.868315, "is_disabled": 0, "name": "8e2db0bad429efd5f0856b4cf3fa9a33", "fusion_lat": 0.0, "rental_uris": {"ios": "https://dc.lft.to/lastmile_qr_scan", "android": "https://dc.lft.to/lastmile_qr_scan"}, "lon": -76.9802335, "type": "electric_bike"}, {"bike_id": "6e9b47b987a88b586ff6e7f15688aa25", "is_reserved": 0, "fusion_lon": 0.0, "lat": 38.892228, "is_disabled": 0, "name": "6e9b47b987a88b586ff6e7f15688aa25", "fusion_lat": 0.0, "rental_uris": {"ios": "https://dc.lft.to/lastmile_qr_scan", "android": "https://dc.lft.to/lastmile_qr_scan"}, "lon": -77.04197, "type": "electric_scooter"}, {"bike_id": "1ce72c90e19fdd41a8320d0661d0735c", "is_reserved": 0, "fusion_lon": 0.0, "lat": 38.8845085, "is_disabled": 0, "name": "1ce72c90e19fdd41a8320d0661d0735c", "fusion_lat": 0.0, "rental_uris": {"ios": "https://dc.lft.to/lastmile_qr_scan", "android": "https://dc.lft.to/lastmile_qr_scan"}, "lon": -76.95098366666667, "type": "electric_scooter"}, {"bike_id": "aff4d35c21cfba77cd93bf3487378fd1", "is_reserved": 0, "fusion_lon": 0.0, "lat": 38.89994433333333, "is_disabled": 0, "name": "aff4d35c21cfba77cd93bf3487378fd1", "fusion_lat": 0.0, "rental_uris": {"ios": "https://dc.lft.to/lastmile_qr_scan", "android": "https://dc.lft.to/lastmile_qr_scan"}, "lon": -77.0224545, "type": "electric_scooter"}, {"bike_id": "2594e80266989f636bf2cac1fac46f62", "is_reserved": 0, "fusion_lon": 0.0, "lat": 38.896088, "is_disabled": 0, "name": "2594e80266989f636bf2cac1fac46f62", "fusion_lat": 0.0, "rental_uris": {"ios": "https://dc.lft.to/lastmile_qr_scan", "android": "https://dc.lft.to/lastmile_qr_scan"}, "lon": -77.00927233333333, "type": "electric_scooter"}, {"bike_id": "9c75321e5ace8e45225c7a4d97025b8b", "is_reserved": 0, "fusion_lon": 0.0, "lat": 38.924135166666666, "is_disabled": 0, "name": "9c75321e5ace8e45225c7a4d97025b8b", "fusion_lat": 0.0, "rental_uris": {"ios": "https://dc.lft.to/lastmile_qr_scan", "android": "https://dc.lft.to/lastmile_qr_scan"}, "lon": -77.0363945, "type": "electric_scooter"}, {"bike_id": "a570d53a36c1e423cb83bfc9826129ac", "is_reserved": 0, "fusion_lon": 0.0, "lat": 38.891039666666664, "is_disabled": 0, "name": "a570d53a36c1e423cb83bfc9826129ac", "fusion_lat": 0.0, "rental_uris": {"ios": "https://dc.lft.to/lastmile_qr_scan", "android": "https://dc.lft.to/lastmile_qr_scan"}, "lon": -76.98708583333334, "type": "electric_scooter"}, {"bike_id": "4b6c96e792f305914a926b1f50c0b5b5", "is_reserved": 0, "fusion_lon": 0.0, "lat": 38.911342833333336, "is_disabled": 0, "name": "4b6c96e792f305914a926b1f50c0b5b5", "fusion_lat": 0.0, "rental_uris": {"ios": "https://dc.lft.to/lastmile_qr_scan", "android": "https://dc.lft.to/lastmile_qr_scan"}, "lon": -77.038501, "type": "electric_scooter"}, {"bike_id": "877ccf086c731d63ef47579f193ce140", "is_reserved": 0, "fusion_lon": 0.0, "lat": 38.918597166666665, "is_disabled": 0, "name": "877ccf086c731d63ef47579f193ce140", "fusion_lat": 0.0, "rental_uris": {"ios": "https://dc.lft.to/lastmile_qr_scan", "android": "https://dc.lft.to/lastmile_qr_scan"}, "lon": -77.04175616666667, "type": "electric_scooter"}, {"bike_id": "ae6c120f9c77bde4ba763293ff011688", "is_reserved": 0, "fusion_lon": 0.0, "lat": 38.87921033333333, "is_disabled": 0, "name": "ae6c120f9c77bde4ba763293ff011688", "fusion_lat": 0.0, "rental_uris": {"ios": "https://dc.lft.to/lastmile_qr_scan", "android": "https://dc.lft.to/lastmile_qr_scan"}, "lon": -76.9950895, "type": "electric_scooter"}, {"bike_id": "94ec132cc0166ae00f9c9ec3dd5e7c09", "is_reserved": 0, "fusion_lon": 0.0, "lat": 38.9255085, "is_disabled": 0, "name": "94ec132cc0166ae00f9c9ec3dd5e7c09", "fusion_lat": 0.0, "rental_uris": {"ios": "https://dc.lft.to/lastmile_qr_scan", "android": "https://dc.lft.to/lastmile_qr_scan"}, "lon": -77.02586533333333, "type": "electric_scooter"}, {"bike_id": "4e8443652e3964a8f0752ff81001bc08", "is_reserved": 0, "fusion_lon": 0.0, "lat": 38.870780333333336, "is_disabled": 0, "name": "4e8443652e3964a8f0752ff81001bc08", "fusion_lat": 0.0, "rental_uris": {"ios": "https://dc.lft.to/lastmile_qr_scan", "android": "https://dc.lft.to/lastmile_qr_scan"}, "lon": -77.01220133333334, "type": "electric_bike"}, {"bike_id": "9250fec9ea5c790f33037c70c7d3bcee", "is_reserved": 0, "fusion_lon": 0.0, "lat": 38.909717, "is_disabled": 0, "name": "9250fec9ea5c790f33037c70c7d3bcee", "fusion_lat": 0.0, "rental_uris": {"ios": "https://dc.lft.to/lastmile_qr_scan", "android": "https://dc.lft.to/lastmile_qr_scan"}, "lon": -77.04811766666667, "type": "electric_scooter"}, {"bike_id": "11852e28f6ffd8dae982f157757376d6", "is_reserved": 0, "fusion_lon": 0.0, "lat": 38.86186033333333, "is_disabled": 0, "name": "11852e28f6ffd8dae982f157757376d6", "fusion_lat": 0.0, "rental_uris": {"ios": "https://dc.lft.to/lastmile_qr_scan", "android": "https://dc.lft.to/lastmile_qr_scan"}, "lon": -76.99451133333334, "type": "electric_scooter"}, {"bike_id": "328a60915368aa95d8f51c4d7ac53f9c", "is_reserved": 0, "fusion_lon": 0.0, "lat": 38.9241865, "is_disabled": 0, "name": "328a60915368aa95d8f51c4d7ac53f9c", "fusion_lat": 0.0, "rental_uris": {"ios": "https://dc.lft.to/lastmile_qr_scan", "android": "https://dc.lft.to/lastmile_qr_scan"}, "lon": -77.02268083333334, "type": "electric_scooter"}, {"bike_id": "263df451b5ea4903e817a0d97b590850", "is_reserved": 0, "fusion_lon": 0.0, "lat": 38.8982195, "is_disabled": 0, "name": "263df451b5ea4903e817a0d97b590850", "fusion_lat": 0.0, "rental_uris": {"ios": "https://dc.lft.to/lastmile_qr_scan", "android": "https://dc.lft.to/lastmile_qr_scan"}, "lon": -77.00930166666667, "type": "electric_scooter"}, {"bike_id": "39b6f48a663d3565bbbfae8e721af7f0", "is_reserved": 0, "fusion_lon": 0.0, "lat": 38.91805, "is_disabled": 0, "name": "39b6f48a663d3565bbbfae8e721af7f0", "fusion_lat": 0.0, "rental_uris": {"ios": "https://dc.lft.to/lastmile_qr_scan", "android": "https://dc.lft.to/lastmile_qr_scan"}, "lon": -77.034427, "type": "electric_scooter"}, {"bike_id": "eb9853eb293ceac357a836433572edb5", "is_reserved": 0, "fusion_lon": 0.0, "lat": 38.884927833333336, "is_disabled": 0, "name": "eb9853eb293ceac357a836433572edb5", "fusion_lat": 0.0, "rental_uris": {"ios": "https://dc.lft.to/lastmile_qr_scan", "android": "https://dc.lft.to/lastmile_qr_scan"}, "lon": -77.00724733333334, "type": "electric_scooter"}, {"bike_id": "32b9914332de72d99ae7ca824de08438", "is_reserved": 0, "fusion_lon": 0.0, "lat": 38.9340125, "is_disabled": 0, "name": "32b9914332de72d99ae7ca824de08438", "fusion_lat": 0.0, "rental_uris": {"ios": "https://dc.lft.to/lastmile_qr_scan", "android": "https://dc.lft.to/lastmile_qr_scan"}, "lon": -77.03890116666666, "type": "electric_scooter"}, {"bike_id": "ce039aab75fca08e3d66d9086eca89d8", "is_reserved": 0, "fusion_lon": 0.0, "lat": 38.92064, "is_disabled": 0, "name": "ce039aab75fca08e3d66d9086eca89d8", "fusion_lat": 0.0, "rental_uris": {"ios": "https://dc.lft.to/lastmile_qr_scan", "android": "https://dc.lft.to/lastmile_qr_scan"}, "lon": -77.04189066666666, "type": "electric_scooter"}, {"bike_id": "baf147177fbdcbf27204df8983973fa8", "is_reserved": 0, "fusion_lon": 0.0, "lat": 38.898741333333334, "is_disabled": 0, "name": "baf147177fbdcbf27204df8983973fa8", "fusion_lat": 0.0, "rental_uris": {"ios": "https://dc.lft.to/lastmile_qr_scan", "android": "https://dc.lft.to/lastmile_qr_scan"}, "lon": -76.93159616666667, "type": "electric_scooter"}, {"bike_id": "3b8f068b1ebc6a551bb823fece0b7fa9", "is_reserved": 0, "fusion_lon": 0.0, "lat": 38.92501883333333, "is_disabled": 0, "name": "3b8f068b1ebc6a551bb823fece0b7fa9", "fusion_lat": 0.0, "rental_uris": {"ios": "https://dc.lft.to/lastmile_qr_scan", "android": "https://dc.lft.to/lastmile_qr_scan"}, "lon": -77.00897266666666, "type": "electric_scooter"}, {"bike_id": "59c898647af0ab02a2d46e0a8d1e0374", "is_reserved": 0, "fusion_lon": 0.0, "lat": 38.934326666666664, "is_disabled": 0, "name": "59c898647af0ab02a2d46e0a8d1e0374", "fusion_lat": 0.0, "rental_uris": {"ios": "https://dc.lft.to/lastmile_qr_scan", "android": "https://dc.lft.to/lastmile_qr_scan"}, "lon": -77.03451583333333, "type": "electric_scooter"}, {"bike_id": "bcb6f1a3e0e285cb28c1dba4eea39325", "is_reserved": 0, "fusion_lon": 0.0, "lat": 38.90037366666667, "is_disabled": 0, "name": "bcb6f1a3e0e285cb28c1dba4eea39325", "fusion_lat": 0.0, "rental_uris": {"ios": "https://dc.lft.to/lastmile_qr_scan", "android": "https://dc.lft.to/lastmile_qr_scan"}, "lon": -76.99872116666667, "type": "electric_scooter"}, {"bike_id": "18d04aa32ed3e6c50a07d0d046705b82", "is_reserved": 0, "fusion_lon": 0.0, "lat": 38.905213, "is_disabled": 0, "name": "18d04aa32ed3e6c50a07d0d046705b82", "fusion_lat": 0.0, "rental_uris": {"ios": "https://dc.lft.to/lastmile_qr_scan", "android": "https://dc.lft.to/lastmile_qr_scan"}, "lon": -77.04358566666667, "type": "electric_scooter"}, {"bike_id": "7cb7ee5e1d7a83940c138525642b2edd", "is_reserved": 0, "fusion_lon": 0.0, "lat": 38.96170466666667, "is_disabled": 0, "name": "7cb7ee5e1d7a83940c138525642b2edd", "fusion_lat": 0.0, "rental_uris": {"ios": "https://dc.lft.to/lastmile_qr_scan", "android": "https://dc.lft.to/lastmile_qr_scan"}, "lon": -76.9959125, "type": "electric_bike"}, {"bike_id": "f0979f8051c74f47bb0accae62d7aa52", "is_reserved": 0, "fusion_lon": 0.0, "lat": 38.8996065, "is_disabled": 0, "name": "f0979f8051c74f47bb0accae62d7aa52", "fusion_lat": 0.0, "rental_uris": {"ios": "https://dc.lft.to/lastmile_qr_scan", "android": "https://dc.lft.to/lastmile_qr_scan"}, "lon": -77.03357216666667, "type": "electric_scooter"}, {"bike_id": "53580db1d9b0e42c1fc06b589eca8a72", "is_reserved": 0, "fusion_lon": 0.0, "lat": 38.90069183333333, "is_disabled": 0, "name": "53580db1d9b0e42c1fc06b589eca8a72", "fusion_lat": 0.0, "rental_uris": {"ios": "https://dc.lft.to/lastmile_qr_scan", "android": "https://dc.lft.to/lastmile_qr_scan"}, "lon": -76.93394083333334, "type": "electric_scooter"}, {"bike_id": "747675ce041ba4d74fc6d7c6865a1b1c", "is_reserved": 0, "fusion_lon": 0.0, "lat": 38.973234833333336, "is_disabled": 0, "name": "747675ce041ba4d74fc6d7c6865a1b1c", "fusion_lat": 0.0, "rental_uris": {"ios": "https://dc.lft.to/lastmile_qr_scan", "android": "https://dc.lft.to/lastmile_qr_scan"}, "lon": -77.02150433333334, "type": "electric_bike"}, {"bike_id": "52ad8d80a31e3cad04f118cf745eefda", "is_reserved": 0, "fusion_lon": 0.0, "lat": 38.90308383333333, "is_disabled": 0, "name": "52ad8d80a31e3cad04f118cf745eefda", "fusion_lat": 0.0, "rental_uris": {"ios": "https://dc.lft.to/lastmile_qr_scan", "android": "https://dc.lft.to/lastmile_qr_scan"}, "lon": -77.03839, "type": "electric_scooter"}, {"bike_id": "a002c27ab439c9c6e460dc50d6ea1d09", "is_reserved": 0, "fusion_lon": 0.0, "lat": 38.918097833333334, "is_disabled": 0, "name": "a002c27ab439c9c6e460dc50d6ea1d09", "fusion_lat": 0.0, "rental_uris": {"ios": "https://dc.lft.to/lastmile_qr_scan", "android": "https://dc.lft.to/lastmile_qr_scan"}, "lon": -77.01017, "type": "electric_scooter"}, {"bike_id": "29567e5a70a9f28f9308ddbff0818917", "is_reserved": 0, "fusion_lon": 0.0, "lat": 38.92550333333333, "is_disabled": 0, "name": "29567e5a70a9f28f9308ddbff0818917", "fusion_lat": 0.0, "rental_uris": {"ios": "https://dc.lft.to/lastmile_qr_scan", "android": "https://dc.lft.to/lastmile_qr_scan"}, "lon": -76.98129666666667, "type": "electric_scooter"}, {"bike_id": "b22d1fd6da9a7f20d02ddba46d371a93", "is_reserved": 0, "fusion_lon": 0.0, "lat": 38.9110405, "is_disabled": 0, "name": "b22d1fd6da9a7f20d02ddba46d371a93", "fusion_lat": 0.0, "rental_uris": {"ios": "https://dc.lft.to/lastmile_qr_scan", "android": "https://dc.lft.to/lastmile_qr_scan"}, "lon": -77.02201683333334, "type": "electric_scooter"}, {"bike_id": "32909d751c7974aa392fd5bf1c3e9969", "is_reserved": 0, "fusion_lon": 0.0, "lat": 38.91418916666667, "is_disabled": 0, "name": "32909d751c7974aa392fd5bf1c3e9969", "fusion_lat": 0.0, "rental_uris": {"ios": "https://dc.lft.to/lastmile_qr_scan", "android": "https://dc.lft.to/lastmile_qr_scan"}, "lon": -77.03149283333333, "type": "electric_scooter"}, {"bike_id": "1a10a3da5adfde4ad8b1b6eb6c07ef32", "is_reserved": 0, "fusion_lon": 0.0, "lat": 38.9110985, "is_disabled": 0, "name": "1a10a3da5adfde4ad8b1b6eb6c07ef32", "fusion_lat": 0.0, "rental_uris": {"ios": "https://dc.lft.to/lastmile_qr_scan", "android": "https://dc.lft.to/lastmile_qr_scan"}, "lon": -77.00357916666667, "type": "electric_scooter"}, {"bike_id": "30c6db3e379fb21e48e8870978aca622", "is_reserved": 0, "fusion_lon": 0.0, "lat": 38.925443666666666, "is_disabled": 0, "name": "30c6db3e379fb21e48e8870978aca622", "fusion_lat": 0.0, "rental_uris": {"ios": "https://dc.lft.to/lastmile_qr_scan", "android": "https://dc.lft.to/lastmile_qr_scan"}, "lon": -77.04251333333333, "type": "electric_scooter"}, {"bike_id": "ac6c826011d435c0837d3a324b99a54d", "is_reserved": 0, "fusion_lon": 0.0, "lat": 38.892215, "is_disabled": 0, "name": "ac6c826011d435c0837d3a324b99a54d", "fusion_lat": 0.0, "rental_uris": {"ios": "https://dc.lft.to/lastmile_qr_scan", "android": "https://dc.lft.to/lastmile_qr_scan"}, "lon": -77.048721, "type": "electric_scooter"}, {"bike_id": "9bbba2e12c1494fedc7e3e5c75e45187", "is_reserved": 0, "fusion_lon": 0.0, "lat": 38.95901633333333, "is_disabled": 0, "name": "9bbba2e12c1494fedc7e3e5c75e45187", "fusion_lat": 0.0, "rental_uris": {"ios": "https://dc.lft.to/lastmile_qr_scan", "android": "https://dc.lft.to/lastmile_qr_scan"}, "lon": -76.9249715, "type": "electric_bike"}, {"bike_id": "92029fb24129e41771622f8ffcf72ec6", "is_reserved": 0, "fusion_lon": 0.0, "lat": 38.855193, "is_disabled": 0, "name": "92029fb24129e41771622f8ffcf72ec6", "fusion_lat": 0.0, "rental_uris": {"ios": "https://dc.lft.to/lastmile_qr_scan", "android": "https://dc.lft.to/lastmile_qr_scan"}, "lon": -76.9843055, "type": "electric_bike"}, {"bike_id": "dc28bf6c8b766bb25fe3628581c7b58f", "is_reserved": 0, "fusion_lon": 0.0, "lat": 38.89742066666667, "is_disabled": 0, "name": "dc28bf6c8b766bb25fe3628581c7b58f", "fusion_lat": 0.0, "rental_uris": {"ios": "https://dc.lft.to/lastmile_qr_scan", "android": "https://dc.lft.to/lastmile_qr_scan"}, "lon": -77.00769116666666, "type": "electric_scooter"}, {"bike_id": "ef13999cc6f5dccb51032c38cf37e588", "is_reserved": 0, "fusion_lon": 0.0, "lat": 38.9396965, "is_disabled": 0, "name": "ef13999cc6f5dccb51032c38cf37e588", "fusion_lat": 0.0, "rental_uris": {"ios": "https://dc.lft.to/lastmile_qr_scan", "android": "https://dc.lft.to/lastmile_qr_scan"}, "lon": -77.03260266666666, "type": "electric_scooter"}, {"bike_id": "69ddd269f4c44741479d58a2916a31c0", "is_reserved": 0, "fusion_lon": 0.0, "lat": 38.9047955, "is_disabled": 0, "name": "69ddd269f4c44741479d58a2916a31c0", "fusion_lat": 0.0, "rental_uris": {"ios": "https://dc.lft.to/lastmile_qr_scan", "android": "https://dc.lft.to/lastmile_qr_scan"}, "lon": -77.04058283333333, "type": "electric_scooter"}, {"bike_id": "5e1e6410852407f2f3bbd2dc31e705ea", "is_reserved": 0, "fusion_lon": 0.0, "lat": 38.885119, "is_disabled": 0, "name": "5e1e6410852407f2f3bbd2dc31e705ea", "fusion_lat": 0.0, "rental_uris": {"ios": "https://dc.lft.to/lastmile_qr_scan", "android": "https://dc.lft.to/lastmile_qr_scan"}, "lon": -77.005753, "type": "electric_scooter"}, {"bike_id": "e2d1a562425a86e417fabd9688180fb2", "is_reserved": 0, "fusion_lon": 0.0, "lat": 38.934292166666665, "is_disabled": 0, "name": "e2d1a562425a86e417fabd9688180fb2", "fusion_lat": 0.0, "rental_uris": {"ios": "https://dc.lft.to/lastmile_qr_scan", "android": "https://dc.lft.to/lastmile_qr_scan"}, "lon": -77.03994333333333, "type": "electric_scooter"}, {"bike_id": "ad3d2d710a4ece5151b6019866f000cf", "is_reserved": 0, "fusion_lon": 0.0, "lat": 38.95079283333333, "is_disabled": 0, "name": "ad3d2d710a4ece5151b6019866f000cf", "fusion_lat": 0.0, "rental_uris": {"ios": "https://dc.lft.to/lastmile_qr_scan", "android": "https://dc.lft.to/lastmile_qr_scan"}, "lon": -77.01239, "type": "electric_bike"}, {"bike_id": "9219e1bccb183ce13125c8c7c4e69cd8", "is_reserved": 0, "fusion_lon": 0.0, "lat": 38.91383066666667, "is_disabled": 0, "name": "9219e1bccb183ce13125c8c7c4e69cd8", "fusion_lat": 0.0, "rental_uris": {"ios": "https://dc.lft.to/lastmile_qr_scan", "android": "https://dc.lft.to/lastmile_qr_scan"}, "lon": -77.01702033333333, "type": "electric_scooter"}, {"bike_id": "ded7f0791434f3c24367e793d442a443", "is_reserved": 0, "fusion_lon": 0.0, "lat": 38.889949666666666, "is_disabled": 0, "name": "ded7f0791434f3c24367e793d442a443", "fusion_lat": 0.0, "rental_uris": {"ios": "https://dc.lft.to/lastmile_qr_scan", "android": "https://dc.lft.to/lastmile_qr_scan"}, "lon": -76.95571, "type": "electric_scooter"}, {"bike_id": "eae9bece0d5bc884b6495650cae80648", "is_reserved": 0, "fusion_lon": 0.0, "lat": 38.8849655, "is_disabled": 0, "name": "eae9bece0d5bc884b6495650cae80648", "fusion_lat": 0.0, "rental_uris": {"ios": "https://dc.lft.to/lastmile_qr_scan", "android": "https://dc.lft.to/lastmile_qr_scan"}, "lon": -77.00346016666667, "type": "electric_scooter"}, {"bike_id": "20d4edca8f2abe7b9cf2ead41a2cde91", "is_reserved": 0, "fusion_lon": 0.0, "lat": 38.90250916666667, "is_disabled": 0, "name": "20d4edca8f2abe7b9cf2ead41a2cde91", "fusion_lat": 0.0, "rental_uris": {"ios": "https://dc.lft.to/lastmile_qr_scan", "android": "https://dc.lft.to/lastmile_qr_scan"}, "lon": -77.01927016666667, "type": "electric_scooter"}, {"bike_id": "37bfb952ec28310ddd92b6d57de4aec1", "is_reserved": 0, "fusion_lon": 0.0, "lat": 38.8372355, "is_disabled": 0, "name": "37bfb952ec28310ddd92b6d57de4aec1", "fusion_lat": 0.0, "rental_uris": {"ios": "https://dc.lft.to/lastmile_qr_scan", "android": "https://dc.lft.to/lastmile_qr_scan"}, "lon": -76.9976085, "type": "electric_bike"}, {"bike_id": "026c239f8265b5436ea3212341b26ed0", "is_reserved": 0, "fusion_lon": 0.0, "lat": 38.89805283333333, "is_disabled": 0, "name": "026c239f8265b5436ea3212341b26ed0", "fusion_lat": 0.0, "rental_uris": {"ios": "https://dc.lft.to/lastmile_qr_scan", "android": "https://dc.lft.to/lastmile_qr_scan"}, "lon": -77.02222616666667, "type": "electric_scooter"}, {"bike_id": "122e2d57cd1c27af7b9115ff17fde444", "is_reserved": 0, "fusion_lon": 0.0, "lat": 38.93707916666666, "is_disabled": 0, "name": "122e2d57cd1c27af7b9115ff17fde444", "fusion_lat": 0.0, "rental_uris": {"ios": "https://dc.lft.to/lastmile_qr_scan", "android": "https://dc.lft.to/lastmile_qr_scan"}, "lon": -77.02935866666667, "type": "electric_scooter"}, {"bike_id": "b09467eef52f937df6666d29f4aab782", "is_reserved": 0, "fusion_lon": 0.0, "lat": 38.9284445, "is_disabled": 0, "name": "b09467eef52f937df6666d29f4aab782", "fusion_lat": 0.0, "rental_uris": {"ios": "https://dc.lft.to/lastmile_qr_scan", "android": "https://dc.lft.to/lastmile_qr_scan"}, "lon": -77.01387933333334, "type": "electric_scooter"}, {"bike_id": "4d80dea75658d9fe39a928323f4e5ff9", "is_reserved": 0, "fusion_lon": 0.0, "lat": 38.89824016666667, "is_disabled": 0, "name": "4d80dea75658d9fe39a928323f4e5ff9", "fusion_lat": 0.0, "rental_uris": {"ios": "https://dc.lft.to/lastmile_qr_scan", "android": "https://dc.lft.to/lastmile_qr_scan"}, "lon": -77.0076415, "type": "electric_scooter"}, {"bike_id": "69ac96bb74b12ad6b02af1b1963322ba", "is_reserved": 0, "fusion_lon": 0.0, "lat": 38.8939095, "is_disabled": 0, "name": "69ac96bb74b12ad6b02af1b1963322ba", "fusion_lat": 0.0, "rental_uris": {"ios": "https://dc.lft.to/lastmile_qr_scan", "android": "https://dc.lft.to/lastmile_qr_scan"}, "lon": -77.0233775, "type": "electric_scooter"}, {"bike_id": "1d47f19a6a66aeaa309680b9a87485d4", "is_reserved": 0, "fusion_lon": 0.0, "lat": 38.928144833333334, "is_disabled": 0, "name": "1d47f19a6a66aeaa309680b9a87485d4", "fusion_lat": 0.0, "rental_uris": {"ios": "https://dc.lft.to/lastmile_qr_scan", "android": "https://dc.lft.to/lastmile_qr_scan"}, "lon": -77.0370205, "type": "electric_scooter"}, {"bike_id": "20dd03ba517f09b634b93890e0b1b730", "is_reserved": 0, "fusion_lon": 0.0, "lat": 38.902708, "is_disabled": 0, "name": "20dd03ba517f09b634b93890e0b1b730", "fusion_lat": 0.0, "rental_uris": {"ios": "https://dc.lft.to/lastmile_qr_scan", "android": "https://dc.lft.to/lastmile_qr_scan"}, "lon": -77.03445283333333, "type": "electric_scooter"}, {"bike_id": "aeb41736bb52a87fa578673fad189828", "is_reserved": 0, "fusion_lon": 0.0, "lat": 38.92257816666667, "is_disabled": 0, "name": "aeb41736bb52a87fa578673fad189828", "fusion_lat": 0.0, "rental_uris": {"ios": "https://dc.lft.to/lastmile_qr_scan", "android": "https://dc.lft.to/lastmile_qr_scan"}, "lon": -77.0319415, "type": "electric_scooter"}, {"bike_id": "1df135bbf4ef252835d9bb7ec82ba457", "is_reserved": 0, "fusion_lon": 0.0, "lat": 38.92355933333333, "is_disabled": 0, "name": "1df135bbf4ef252835d9bb7ec82ba457", "fusion_lat": 0.0, "rental_uris": {"ios": "https://dc.lft.to/lastmile_qr_scan", "android": "https://dc.lft.to/lastmile_qr_scan"}, "lon": -77.05346033333333, "type": "electric_scooter"}, {"bike_id": "a80e3ab27940c849e55acabecb044e12", "is_reserved": 0, "fusion_lon": 0.0, "lat": 38.9057455, "is_disabled": 0, "name": "a80e3ab27940c849e55acabecb044e12", "fusion_lat": 0.0, "rental_uris": {"ios": "https://dc.lft.to/lastmile_qr_scan", "android": "https://dc.lft.to/lastmile_qr_scan"}, "lon": -77.04137133333333, "type": "electric_scooter"}, {"bike_id": "81b55e15e293a3d2717af17d7714004c", "is_reserved": 0, "fusion_lon": 0.0, "lat": 38.917334, "is_disabled": 0, "name": "81b55e15e293a3d2717af17d7714004c", "fusion_lat": 0.0, "rental_uris": {"ios": "https://dc.lft.to/lastmile_qr_scan", "android": "https://dc.lft.to/lastmile_qr_scan"}, "lon": -77.0079615, "type": "electric_scooter"}, {"bike_id": "ae75558a5765f4e32e8a1124bd21a016", "is_reserved": 0, "fusion_lon": 0.0, "lat": 38.932609666666664, "is_disabled": 0, "name": "ae75558a5765f4e32e8a1124bd21a016", "fusion_lat": 0.0, "rental_uris": {"ios": "https://dc.lft.to/lastmile_qr_scan", "android": "https://dc.lft.to/lastmile_qr_scan"}, "lon": -77.03268616666666, "type": "electric_scooter"}, {"bike_id": "51f8d0412d686a9dd867c3daa9699b9c", "is_reserved": 0, "fusion_lon": 0.0, "lat": 38.92129033333333, "is_disabled": 0, "name": "51f8d0412d686a9dd867c3daa9699b9c", "fusion_lat": 0.0, "rental_uris": {"ios": "https://dc.lft.to/lastmile_qr_scan", "android": "https://dc.lft.to/lastmile_qr_scan"}, "lon": -77.04132433333334, "type": "electric_scooter"}, {"bike_id": "140e1262cd7191285dbd4ec7fcee0563", "is_reserved": 0, "fusion_lon": 0.0, "lat": 38.90047766666667, "is_disabled": 0, "name": "140e1262cd7191285dbd4ec7fcee0563", "fusion_lat": 0.0, "rental_uris": {"ios": "https://dc.lft.to/lastmile_qr_scan", "android": "https://dc.lft.to/lastmile_qr_scan"}, "lon": -77.00071183333333, "type": "electric_scooter"}, {"bike_id": "7ec4e6c9940cdd430b0117eba489919c", "is_reserved": 0, "fusion_lon": 0.0, "lat": 38.89351466666667, "is_disabled": 0, "name": "7ec4e6c9940cdd430b0117eba489919c", "fusion_lat": 0.0, "rental_uris": {"ios": "https://dc.lft.to/lastmile_qr_scan", "android": "https://dc.lft.to/lastmile_qr_scan"}, "lon": -76.949355, "type": "electric_scooter"}, {"bike_id": "31d6f4b33c05a4980ac6d1d365619929", "is_reserved": 0, "fusion_lon": 0.0, "lat": 38.885076, "is_disabled": 0, "name": "31d6f4b33c05a4980ac6d1d365619929", "fusion_lat": 0.0, "rental_uris": {"ios": "https://dc.lft.to/lastmile_qr_scan", "android": "https://dc.lft.to/lastmile_qr_scan"}, "lon": -77.00569, "type": "electric_scooter"}, {"bike_id": "6a96435450d0eb77f10b40b0547e58aa", "is_reserved": 0, "fusion_lon": 0.0, "lat": 38.9443785, "is_disabled": 0, "name": "6a96435450d0eb77f10b40b0547e58aa", "fusion_lat": 0.0, "rental_uris": {"ios": "https://dc.lft.to/lastmile_qr_scan", "android": "https://dc.lft.to/lastmile_qr_scan"}, "lon": -76.99231, "type": "electric_scooter"}, {"bike_id": "71776c6085ec59122c5555e501df6f00", "is_reserved": 0, "fusion_lon": 0.0, "lat": 38.90260633333333, "is_disabled": 0, "name": "71776c6085ec59122c5555e501df6f00", "fusion_lat": 0.0, "rental_uris": {"ios": "https://dc.lft.to/lastmile_qr_scan", "android": "https://dc.lft.to/lastmile_qr_scan"}, "lon": -77.03847983333333, "type": "electric_scooter"}, {"bike_id": "1740be1e6fcb55aba95a538d38d0ce10", "is_reserved": 0, "fusion_lon": 0.0, "lat": 38.919467833333336, "is_disabled": 0, "name": "1740be1e6fcb55aba95a538d38d0ce10", "fusion_lat": 0.0, "rental_uris": {"ios": "https://dc.lft.to/lastmile_qr_scan", "android": "https://dc.lft.to/lastmile_qr_scan"}, "lon": -77.04154933333334, "type": "electric_scooter"}, {"bike_id": "906625ef1a197d11f69156f6b90161a8", "is_reserved": 0, "fusion_lon": 0.0, "lat": 38.965631, "is_disabled": 0, "name": "906625ef1a197d11f69156f6b90161a8", "fusion_lat": 0.0, "rental_uris": {"ios": "https://dc.lft.to/lastmile_qr_scan", "android": "https://dc.lft.to/lastmile_qr_scan"}, "lon": -77.02301166666666, "type": "electric_bike"}, {"bike_id": "c50a63874426a19b9e47a642282721c9", "is_reserved": 0, "fusion_lon": 0.0, "lat": 38.878674833333335, "is_disabled": 0, "name": "c50a63874426a19b9e47a642282721c9", "fusion_lat": 0.0, "rental_uris": {"ios": "https://dc.lft.to/lastmile_qr_scan", "android": "https://dc.lft.to/lastmile_qr_scan"}, "lon": -76.98986633333334, "type": "electric_scooter"}, {"bike_id": "966c35d4eb72a0415c9bb54d5f54f1ef", "is_reserved": 0, "fusion_lon": 0.0, "lat": 38.9002885, "is_disabled": 0, "name": "966c35d4eb72a0415c9bb54d5f54f1ef", "fusion_lat": 0.0, "rental_uris": {"ios": "https://dc.lft.to/lastmile_qr_scan", "android": "https://dc.lft.to/lastmile_qr_scan"}, "lon": -77.04337166666667, "type": "electric_scooter"}, {"bike_id": "a09e60d4ca4787e4a5f89bb3f3611540", "is_reserved": 0, "fusion_lon": 0.0, "lat": 38.881338666666664, "is_disabled": 0, "name": "a09e60d4ca4787e4a5f89bb3f3611540", "fusion_lat": 0.0, "rental_uris": {"ios": "https://dc.lft.to/lastmile_qr_scan", "android": "https://dc.lft.to/lastmile_qr_scan"}, "lon": -77.001007, "type": "electric_scooter"}, {"bike_id": "ac84ff8e842cd129a1670ec132eeefb0", "is_reserved": 0, "fusion_lon": 0.0, "lat": 38.948061833333334, "is_disabled": 0, "name": "ac84ff8e842cd129a1670ec132eeefb0", "fusion_lat": 0.0, "rental_uris": {"ios": "https://dc.lft.to/lastmile_qr_scan", "android": "https://dc.lft.to/lastmile_qr_scan"}, "lon": -77.07910166666667, "type": "electric_scooter"}, {"bike_id": "f437d8ae1baa298722b1d79a81865be8", "is_reserved": 0, "fusion_lon": 0.0, "lat": 38.93072883333333, "is_disabled": 0, "name": "f437d8ae1baa298722b1d79a81865be8", "fusion_lat": 0.0, "rental_uris": {"ios": "https://dc.lft.to/lastmile_qr_scan", "android": "https://dc.lft.to/lastmile_qr_scan"}, "lon": -77.03104516666667, "type": "electric_scooter"}, {"bike_id": "9d3aa73cdcd65c8594e2787a9b9357b1", "is_reserved": 0, "fusion_lon": 0.0, "lat": 38.893759833333334, "is_disabled": 0, "name": "9d3aa73cdcd65c8594e2787a9b9357b1", "fusion_lat": 0.0, "rental_uris": {"ios": "https://dc.lft.to/lastmile_qr_scan", "android": "https://dc.lft.to/lastmile_qr_scan"}, "lon": -77.04785083333333, "type": "electric_scooter"}, {"bike_id": "10b97119fd743e9775ead4b04db8ba0f", "is_reserved": 0, "fusion_lon": 0.0, "lat": 38.91980016666667, "is_disabled": 0, "name": "10b97119fd743e9775ead4b04db8ba0f", "fusion_lat": 0.0, "rental_uris": {"ios": "https://dc.lft.to/lastmile_qr_scan", "android": "https://dc.lft.to/lastmile_qr_scan"}, "lon": -77.04191016666667, "type": "electric_scooter"}, {"bike_id": "eb3af00045d875cd06988f8ba242e0ac", "is_reserved": 0, "fusion_lon": 0.0, "lat": 38.907608, "is_disabled": 0, "name": "eb3af00045d875cd06988f8ba242e0ac", "fusion_lat": 0.0, "rental_uris": {"ios": "https://dc.lft.to/lastmile_qr_scan", "android": "https://dc.lft.to/lastmile_qr_scan"}, "lon": -77.00125133333333, "type": "electric_scooter"}, {"bike_id": "1e83855755e23bc2a27a74ccbe1358f3", "is_reserved": 0, "fusion_lon": 0.0, "lat": 38.94969433333333, "is_disabled": 0, "name": "1e83855755e23bc2a27a74ccbe1358f3", "fusion_lat": 0.0, "rental_uris": {"ios": "https://dc.lft.to/lastmile_qr_scan", "android": "https://dc.lft.to/lastmile_qr_scan"}, "lon": -76.97286816666667, "type": "electric_bike"}, {"bike_id": "8c356b23e25bd78e07a6495c0c326946", "is_reserved": 0, "fusion_lon": 0.0, "lat": 38.86618266666667, "is_disabled": 0, "name": "8c356b23e25bd78e07a6495c0c326946", "fusion_lat": 0.0, "rental_uris": {"ios": "https://dc.lft.to/lastmile_qr_scan", "android": "https://dc.lft.to/lastmile_qr_scan"}, "lon": -76.9457505, "type": "electric_bike"}, {"bike_id": "8abbf4151fb8ba49f7a770b8d4b95599", "is_reserved": 0, "fusion_lon": 0.0, "lat": 38.90364616666667, "is_disabled": 0, "name": "8abbf4151fb8ba49f7a770b8d4b95599", "fusion_lat": 0.0, "rental_uris": {"ios": "https://dc.lft.to/lastmile_qr_scan", "android": "https://dc.lft.to/lastmile_qr_scan"}, "lon": -77.0449795, "type": "electric_scooter"}, {"bike_id": "943aa0b41efe24e6b7c94f6f84456a78", "is_reserved": 0, "fusion_lon": 0.0, "lat": 38.897381, "is_disabled": 0, "name": "943aa0b41efe24e6b7c94f6f84456a78", "fusion_lat": 0.0, "rental_uris": {"ios": "https://dc.lft.to/lastmile_qr_scan", "android": "https://dc.lft.to/lastmile_qr_scan"}, "lon": -77.05572566666666, "type": "electric_scooter"}, {"bike_id": "e66452be170e89277d3a40fdc0a3ff8b", "is_reserved": 0, "fusion_lon": 0.0, "lat": 38.86462383333333, "is_disabled": 0, "name": "e66452be170e89277d3a40fdc0a3ff8b", "fusion_lat": 0.0, "rental_uris": {"ios": "https://dc.lft.to/lastmile_qr_scan", "android": "https://dc.lft.to/lastmile_qr_scan"}, "lon": -76.9824805, "type": "electric_scooter"}, {"bike_id": "53fb8ac5806a424b5ccf3ed64b75e803", "is_reserved": 0, "fusion_lon": 0.0, "lat": 38.911950166666664, "is_disabled": 0, "name": "53fb8ac5806a424b5ccf3ed64b75e803", "fusion_lat": 0.0, "rental_uris": {"ios": "https://dc.lft.to/lastmile_qr_scan", "android": "https://dc.lft.to/lastmile_qr_scan"}, "lon": -77.012112, "type": "electric_scooter"}, {"bike_id": "54ab60e022239533ea0b77fdae46b3c8", "is_reserved": 0, "fusion_lon": 0.0, "lat": 38.9365105, "is_disabled": 0, "name": "54ab60e022239533ea0b77fdae46b3c8", "fusion_lat": 0.0, "rental_uris": {"ios": "https://dc.lft.to/lastmile_qr_scan", "android": "https://dc.lft.to/lastmile_qr_scan"}, "lon": -77.03677866666666, "type": "electric_scooter"}, {"bike_id": "a64040d297b4d5fc1b30a5eda5e1c4cf", "is_reserved": 0, "fusion_lon": 0.0, "lat": 38.91697333333333, "is_disabled": 0, "name": "a64040d297b4d5fc1b30a5eda5e1c4cf", "fusion_lat": 0.0, "rental_uris": {"ios": "https://dc.lft.to/lastmile_qr_scan", "android": "https://dc.lft.to/lastmile_qr_scan"}, "lon": -77.03484416666667, "type": "electric_scooter"}, {"bike_id": "2275d1b16fc83ab9f805b06a61c4c264", "is_reserved": 0, "fusion_lon": 0.0, "lat": 38.94205383333333, "is_disabled": 0, "name": "2275d1b16fc83ab9f805b06a61c4c264", "fusion_lat": 0.0, "rental_uris": {"ios": "https://dc.lft.to/lastmile_qr_scan", "android": "https://dc.lft.to/lastmile_qr_scan"}, "lon": -77.01831383333334, "type": "electric_bike"}, {"bike_id": "0d12b87b36ce6cd70ef6905fd469cb91", "is_reserved": 0, "fusion_lon": 0.0, "lat": 38.832388333333334, "is_disabled": 0, "name": "0d12b87b36ce6cd70ef6905fd469cb91", "fusion_lat": 0.0, "rental_uris": {"ios": "https://dc.lft.to/lastmile_qr_scan", "android": "https://dc.lft.to/lastmile_qr_scan"}, "lon": -76.94624733333333, "type": "electric_bike"}, {"bike_id": "86448754709cab0d4d4e656f56714832", "is_reserved": 0, "fusion_lon": 0.0, "lat": 38.90919816666667, "is_disabled": 0, "name": "86448754709cab0d4d4e656f56714832", "fusion_lat": 0.0, "rental_uris": {"ios": "https://dc.lft.to/lastmile_qr_scan", "android": "https://dc.lft.to/lastmile_qr_scan"}, "lon": -77.04410566666667, "type": "electric_scooter"}, {"bike_id": "fc2d554cf4a1e5f69a0677d58e0dda2a", "is_reserved": 0, "fusion_lon": 0.0, "lat": 38.91046333333333, "is_disabled": 0, "name": "fc2d554cf4a1e5f69a0677d58e0dda2a", "fusion_lat": 0.0, "rental_uris": {"ios": "https://dc.lft.to/lastmile_qr_scan", "android": "https://dc.lft.to/lastmile_qr_scan"}, "lon": -77.015132, "type": "electric_scooter"}, {"bike_id": "87f989e52196884cad605c71efb8f9bf", "is_reserved": 0, "fusion_lon": 0.0, "lat": 38.907961, "is_disabled": 0, "name": "87f989e52196884cad605c71efb8f9bf", "fusion_lat": 0.0, "rental_uris": {"ios": "https://dc.lft.to/lastmile_qr_scan", "android": "https://dc.lft.to/lastmile_qr_scan"}, "lon": -77.0487635, "type": "electric_scooter"}, {"bike_id": "18c1386f04e6126fae9e2888e79d45e9", "is_reserved": 0, "fusion_lon": 0.0, "lat": 38.945119166666665, "is_disabled": 0, "name": "18c1386f04e6126fae9e2888e79d45e9", "fusion_lat": 0.0, "rental_uris": {"ios": "https://dc.lft.to/lastmile_qr_scan", "android": "https://dc.lft.to/lastmile_qr_scan"}, "lon": -77.03363983333334, "type": "electric_scooter"}, {"bike_id": "987522f7d3a8457c9dfa822c0732b4bf", "is_reserved": 0, "fusion_lon": 0.0, "lat": 38.925574833333336, "is_disabled": 0, "name": "987522f7d3a8457c9dfa822c0732b4bf", "fusion_lat": 0.0, "rental_uris": {"ios": "https://dc.lft.to/lastmile_qr_scan", "android": "https://dc.lft.to/lastmile_qr_scan"}, "lon": -77.03355833333333, "type": "electric_scooter"}, {"bike_id": "c6855eb1505ae7f313cb4ddd009ba184", "is_reserved": 0, "fusion_lon": 0.0, "lat": 38.915776666666666, "is_disabled": 0, "name": "c6855eb1505ae7f313cb4ddd009ba184", "fusion_lat": 0.0, "rental_uris": {"ios": "https://dc.lft.to/lastmile_qr_scan", "android": "https://dc.lft.to/lastmile_qr_scan"}, "lon": -77.04696133333333, "type": "electric_scooter"}, {"bike_id": "cc143ccce9e1367cc8dd404a53035095", "is_reserved": 0, "fusion_lon": 0.0, "lat": 38.978800666666665, "is_disabled": 0, "name": "cc143ccce9e1367cc8dd404a53035095", "fusion_lat": 0.0, "rental_uris": {"ios": "https://dc.lft.to/lastmile_qr_scan", "android": "https://dc.lft.to/lastmile_qr_scan"}, "lon": -77.02552616666667, "type": "electric_scooter"}, {"bike_id": "696bcb341a98d7bea3132969ca3b1c4a", "is_reserved": 0, "fusion_lon": 0.0, "lat": 38.899661, "is_disabled": 0, "name": "696bcb341a98d7bea3132969ca3b1c4a", "fusion_lat": 0.0, "rental_uris": {"ios": "https://dc.lft.to/lastmile_qr_scan", "android": "https://dc.lft.to/lastmile_qr_scan"}, "lon": -76.98681033333334, "type": "electric_bike"}, {"bike_id": "9de1d11daaeccf5f4a227937c655735c", "is_reserved": 0, "fusion_lon": 0.0, "lat": 38.889934833333335, "is_disabled": 0, "name": "9de1d11daaeccf5f4a227937c655735c", "fusion_lat": 0.0, "rental_uris": {"ios": "https://dc.lft.to/lastmile_qr_scan", "android": "https://dc.lft.to/lastmile_qr_scan"}, "lon": -76.94707283333334, "type": "electric_scooter"}, {"bike_id": "176cae837c2bd2183edd1e4ac8584a3b", "is_reserved": 0, "fusion_lon": 0.0, "lat": 38.924605166666666, "is_disabled": 0, "name": "176cae837c2bd2183edd1e4ac8584a3b", "fusion_lat": 0.0, "rental_uris": {"ios": "https://dc.lft.to/lastmile_qr_scan", "android": "https://dc.lft.to/lastmile_qr_scan"}, "lon": -77.02025783333333, "type": "electric_scooter"}, {"bike_id": "e497369e4758c9e32285572d15154128", "is_reserved": 0, "fusion_lon": 0.0, "lat": 38.90360716666667, "is_disabled": 0, "name": "e497369e4758c9e32285572d15154128", "fusion_lat": 0.0, "rental_uris": {"ios": "https://dc.lft.to/lastmile_qr_scan", "android": "https://dc.lft.to/lastmile_qr_scan"}, "lon": -77.043621, "type": "electric_scooter"}, {"bike_id": "82693c7084df051b45cd43a192446318", "is_reserved": 0, "fusion_lon": 0.0, "lat": 38.91452816666666, "is_disabled": 0, "name": "82693c7084df051b45cd43a192446318", "fusion_lat": 0.0, "rental_uris": {"ios": "https://dc.lft.to/lastmile_qr_scan", "android": "https://dc.lft.to/lastmile_qr_scan"}, "lon": -77.021923, "type": "electric_scooter"}, {"bike_id": "7756c86698d9fe52b14d194c74f0d0ee", "is_reserved": 0, "fusion_lon": 0.0, "lat": 38.92670716666667, "is_disabled": 0, "name": "7756c86698d9fe52b14d194c74f0d0ee", "fusion_lat": 0.0, "rental_uris": {"ios": "https://dc.lft.to/lastmile_qr_scan", "android": "https://dc.lft.to/lastmile_qr_scan"}, "lon": -76.99535433333334, "type": "electric_scooter"}, {"bike_id": "5a417e7066b0650b86ff63c40873b656", "is_reserved": 0, "fusion_lon": 0.0, "lat": 38.876311666666666, "is_disabled": 0, "name": "5a417e7066b0650b86ff63c40873b656", "fusion_lat": 0.0, "rental_uris": {"ios": "https://dc.lft.to/lastmile_qr_scan", "android": "https://dc.lft.to/lastmile_qr_scan"}, "lon": -76.965269, "type": "electric_scooter"}, {"bike_id": "8a2cc0f53731b426188b4777dc2263cb", "is_reserved": 0, "fusion_lon": 0.0, "lat": 38.898418666666664, "is_disabled": 0, "name": "8a2cc0f53731b426188b4777dc2263cb", "fusion_lat": 0.0, "rental_uris": {"ios": "https://dc.lft.to/lastmile_qr_scan", "android": "https://dc.lft.to/lastmile_qr_scan"}, "lon": -77.00734983333334, "type": "electric_scooter"}, {"bike_id": "c17d386dd66553334c779272a1ec1e59", "is_reserved": 0, "fusion_lon": 0.0, "lat": 38.87379466666667, "is_disabled": 0, "name": "c17d386dd66553334c779272a1ec1e59", "fusion_lat": 0.0, "rental_uris": {"ios": "https://dc.lft.to/lastmile_qr_scan", "android": "https://dc.lft.to/lastmile_qr_scan"}, "lon": -77.00089183333333, "type": "electric_scooter"}, {"bike_id": "e021591154ddb75a356d1e79db7d122d", "is_reserved": 0, "fusion_lon": 0.0, "lat": 38.893315, "is_disabled": 0, "name": "e021591154ddb75a356d1e79db7d122d", "fusion_lat": 0.0, "rental_uris": {"ios": "https://dc.lft.to/lastmile_qr_scan", "android": "https://dc.lft.to/lastmile_qr_scan"}, "lon": -76.929905, "type": "electric_scooter"}, {"bike_id": "2ae1431da63eacdcad9cdcd1512cd798", "is_reserved": 0, "fusion_lon": 0.0, "lat": 38.90855616666666, "is_disabled": 0, "name": "2ae1431da63eacdcad9cdcd1512cd798", "fusion_lat": 0.0, "rental_uris": {"ios": "https://dc.lft.to/lastmile_qr_scan", "android": "https://dc.lft.to/lastmile_qr_scan"}, "lon": -77.05540266666667, "type": "electric_bike"}, {"bike_id": "770c52779c5a260de78886f5d5e9768c", "is_reserved": 0, "fusion_lon": 0.0, "lat": 38.905096, "is_disabled": 0, "name": "770c52779c5a260de78886f5d5e9768c", "fusion_lat": 0.0, "rental_uris": {"ios": "https://dc.lft.to/lastmile_qr_scan", "android": "https://dc.lft.to/lastmile_qr_scan"}, "lon": -77.05131416666667, "type": "electric_scooter"}, {"bike_id": "a1f5b3317d302f52c78ec75a86e5c84f", "is_reserved": 0, "fusion_lon": 0.0, "lat": 38.9171805, "is_disabled": 0, "name": "a1f5b3317d302f52c78ec75a86e5c84f", "fusion_lat": 0.0, "rental_uris": {"ios": "https://dc.lft.to/lastmile_qr_scan", "android": "https://dc.lft.to/lastmile_qr_scan"}, "lon": -77.0318225, "type": "electric_scooter"}, {"bike_id": "000b3173d6b8f066a5a4992a774b1dbd", "is_reserved": 0, "fusion_lon": 0.0, "lat": 38.9154665, "is_disabled": 0, "name": "000b3173d6b8f066a5a4992a774b1dbd", "fusion_lat": 0.0, "rental_uris": {"ios": "https://dc.lft.to/lastmile_qr_scan", "android": "https://dc.lft.to/lastmile_qr_scan"}, "lon": -77.02154833333333, "type": "electric_scooter"}, {"bike_id": "5c27f592bab04d910c9ff7342a45c701", "is_reserved": 0, "fusion_lon": 0.0, "lat": 38.89829616666667, "is_disabled": 0, "name": "5c27f592bab04d910c9ff7342a45c701", "fusion_lat": 0.0, "rental_uris": {"ios": "https://dc.lft.to/lastmile_qr_scan", "android": "https://dc.lft.to/lastmile_qr_scan"}, "lon": -77.032719, "type": "electric_scooter"}, {"bike_id": "9a45ea79119b62dd708fa29f08598e33", "is_reserved": 0, "fusion_lon": 0.0, "lat": 38.89737, "is_disabled": 0, "name": "9a45ea79119b62dd708fa29f08598e33", "fusion_lat": 0.0, "rental_uris": {"ios": "https://dc.lft.to/lastmile_qr_scan", "android": "https://dc.lft.to/lastmile_qr_scan"}, "lon": -77.05574066666667, "type": "electric_scooter"}, {"bike_id": "5d447ee4bfd409c43e64252b517bd6f8", "is_reserved": 0, "fusion_lon": 0.0, "lat": 38.91155233333333, "is_disabled": 0, "name": "5d447ee4bfd409c43e64252b517bd6f8", "fusion_lat": 0.0, "rental_uris": {"ios": "https://dc.lft.to/lastmile_qr_scan", "android": "https://dc.lft.to/lastmile_qr_scan"}, "lon": -76.98656866666667, "type": "electric_scooter"}, {"bike_id": "1671df231ee2d729d41871d9f5dc93a8", "is_reserved": 0, "fusion_lon": 0.0, "lat": 38.905135, "is_disabled": 0, "name": "1671df231ee2d729d41871d9f5dc93a8", "fusion_lat": 0.0, "rental_uris": {"ios": "https://dc.lft.to/lastmile_qr_scan", "android": "https://dc.lft.to/lastmile_qr_scan"}, "lon": -77.06527216666667, "type": "electric_scooter"}, {"bike_id": "e39396d1b7af8d0479b7c6fa556d1394", "is_reserved": 0, "fusion_lon": 0.0, "lat": 38.891957833333336, "is_disabled": 0, "name": "e39396d1b7af8d0479b7c6fa556d1394", "fusion_lat": 0.0, "rental_uris": {"ios": "https://dc.lft.to/lastmile_qr_scan", "android": "https://dc.lft.to/lastmile_qr_scan"}, "lon": -77.022434, "type": "electric_scooter"}, {"bike_id": "ea7728232b9200d750c860588700584a", "is_reserved": 0, "fusion_lon": 0.0, "lat": 38.92271233333334, "is_disabled": 0, "name": "ea7728232b9200d750c860588700584a", "fusion_lat": 0.0, "rental_uris": {"ios": "https://dc.lft.to/lastmile_qr_scan", "android": "https://dc.lft.to/lastmile_qr_scan"}, "lon": -77.018268, "type": "electric_scooter"}, {"bike_id": "85a846acf086a541c38e7672bb3182c1", "is_reserved": 0, "fusion_lon": 0.0, "lat": 38.901318833333335, "is_disabled": 0, "name": "85a846acf086a541c38e7672bb3182c1", "fusion_lat": 0.0, "rental_uris": {"ios": "https://dc.lft.to/lastmile_qr_scan", "android": "https://dc.lft.to/lastmile_qr_scan"}, "lon": -76.99711016666667, "type": "electric_scooter"}, {"bike_id": "08c66ba55aaea22d9f610ea7ab1286b4", "is_reserved": 0, "fusion_lon": 0.0, "lat": 38.89219833333333, "is_disabled": 0, "name": "08c66ba55aaea22d9f610ea7ab1286b4", "fusion_lat": 0.0, "rental_uris": {"ios": "https://dc.lft.to/lastmile_qr_scan", "android": "https://dc.lft.to/lastmile_qr_scan"}, "lon": -77.0487025, "type": "electric_scooter"}, {"bike_id": "609c59542c0442a7bbbb1a80a97a8e4d", "is_reserved": 0, "fusion_lon": 0.0, "lat": 38.92714983333333, "is_disabled": 0, "name": "609c59542c0442a7bbbb1a80a97a8e4d", "fusion_lat": 0.0, "rental_uris": {"ios": "https://dc.lft.to/lastmile_qr_scan", "android": "https://dc.lft.to/lastmile_qr_scan"}, "lon": -77.04052216666666, "type": "electric_scooter"}, {"bike_id": "a42f5b711c53b7856d707958380e1a61", "is_reserved": 0, "fusion_lon": 0.0, "lat": 38.90930616666667, "is_disabled": 0, "name": "a42f5b711c53b7856d707958380e1a61", "fusion_lat": 0.0, "rental_uris": {"ios": "https://dc.lft.to/lastmile_qr_scan", "android": "https://dc.lft.to/lastmile_qr_scan"}, "lon": -76.99970083333334, "type": "electric_scooter"}, {"bike_id": "1c16e044159a6f1fb38368b275bc9a5b", "is_reserved": 0, "fusion_lon": 0.0, "lat": 38.914834166666665, "is_disabled": 0, "name": "1c16e044159a6f1fb38368b275bc9a5b", "fusion_lat": 0.0, "rental_uris": {"ios": "https://dc.lft.to/lastmile_qr_scan", "android": "https://dc.lft.to/lastmile_qr_scan"}, "lon": -76.98579366666667, "type": "electric_scooter"}, {"bike_id": "0b5fcf493dad6d2544817a0ef03f891f", "is_reserved": 0, "fusion_lon": 0.0, "lat": 38.910478499999996, "is_disabled": 0, "name": "0b5fcf493dad6d2544817a0ef03f891f", "fusion_lat": 0.0, "rental_uris": {"ios": "https://dc.lft.to/lastmile_qr_scan", "android": "https://dc.lft.to/lastmile_qr_scan"}, "lon": -77.0151295, "type": "electric_scooter"}, {"bike_id": "582223c2b1405d8b0198a49bede9d2d7", "is_reserved": 0, "fusion_lon": 0.0, "lat": 38.92502533333333, "is_disabled": 0, "name": "582223c2b1405d8b0198a49bede9d2d7", "fusion_lat": 0.0, "rental_uris": {"ios": "https://dc.lft.to/lastmile_qr_scan", "android": "https://dc.lft.to/lastmile_qr_scan"}, "lon": -77.02184233333334, "type": "electric_scooter"}, {"bike_id": "3f84e61016de52f4d9591f9600d06ffc", "is_reserved": 0, "fusion_lon": 0.0, "lat": 39.0581345, "is_disabled": 0, "name": "3f84e61016de52f4d9591f9600d06ffc", "fusion_lat": 0.0, "rental_uris": {"ios": "https://dc.lft.to/lastmile_qr_scan", "android": "https://dc.lft.to/lastmile_qr_scan"}, "lon": -77.12627833333333, "type": "electric_bike"}, {"bike_id": "1a4dd6ac951622ae13785e2dc6702164", "is_reserved": 0, "fusion_lon": 0.0, "lat": 38.846116, "is_disabled": 0, "name": "1a4dd6ac951622ae13785e2dc6702164", "fusion_lat": 0.0, "rental_uris": {"ios": "https://dc.lft.to/lastmile_qr_scan", "android": "https://dc.lft.to/lastmile_qr_scan"}, "lon": -76.97825033333334, "type": "electric_bike"}, {"bike_id": "8a455ccd4b0e7a2dce9350b83a6845e1", "is_reserved": 0, "fusion_lon": 0.0, "lat": 38.895554, "is_disabled": 0, "name": "8a455ccd4b0e7a2dce9350b83a6845e1", "fusion_lat": 0.0, "rental_uris": {"ios": "https://dc.lft.to/lastmile_qr_scan", "android": "https://dc.lft.to/lastmile_qr_scan"}, "lon": -76.93045233333333, "type": "electric_scooter"}, {"bike_id": "3265f9f99f0f35c1ef53156afa9ecb76", "is_reserved": 0, "fusion_lon": 0.0, "lat": 38.95354366666667, "is_disabled": 0, "name": "3265f9f99f0f35c1ef53156afa9ecb76", "fusion_lat": 0.0, "rental_uris": {"ios": "https://dc.lft.to/lastmile_qr_scan", "android": "https://dc.lft.to/lastmile_qr_scan"}, "lon": -76.98091966666667, "type": "electric_bike"}, {"bike_id": "5499e70377e49fb2cb95679d85efdf93", "is_reserved": 0, "fusion_lon": 0.0, "lat": 38.90091566666667, "is_disabled": 0, "name": "5499e70377e49fb2cb95679d85efdf93", "fusion_lat": 0.0, "rental_uris": {"ios": "https://dc.lft.to/lastmile_qr_scan", "android": "https://dc.lft.to/lastmile_qr_scan"}, "lon": -77.05061, "type": "electric_scooter"}, {"bike_id": "ce7b8b0ddf2d0c7bca00cdb47d136fe3", "is_reserved": 0, "fusion_lon": 0.0, "lat": 38.846119333333334, "is_disabled": 0, "name": "ce7b8b0ddf2d0c7bca00cdb47d136fe3", "fusion_lat": 0.0, "rental_uris": {"ios": "https://dc.lft.to/lastmile_qr_scan", "android": "https://dc.lft.to/lastmile_qr_scan"}, "lon": -76.9691065, "type": "electric_bike"}, {"bike_id": "ef77535eb9fd3be6ad4c077e7d8885c5", "is_reserved": 0, "fusion_lon": 0.0, "lat": 38.90985966666667, "is_disabled": 0, "name": "ef77535eb9fd3be6ad4c077e7d8885c5", "fusion_lat": 0.0, "rental_uris": {"ios": "https://dc.lft.to/lastmile_qr_scan", "android": "https://dc.lft.to/lastmile_qr_scan"}, "lon": -77.00916, "type": "electric_scooter"}, {"bike_id": "4e84c9d80bb4063f7cde359ef5658c0b", "is_reserved": 0, "fusion_lon": 0.0, "lat": 38.896269833333335, "is_disabled": 0, "name": "4e84c9d80bb4063f7cde359ef5658c0b", "fusion_lat": 0.0, "rental_uris": {"ios": "https://dc.lft.to/lastmile_qr_scan", "android": "https://dc.lft.to/lastmile_qr_scan"}, "lon": -77.04060283333334, "type": "electric_scooter"}, {"bike_id": "3868627bf62116cb0bb3ad6fc591bf5c", "is_reserved": 0, "fusion_lon": 0.0, "lat": 38.905646833333336, "is_disabled": 0, "name": "3868627bf62116cb0bb3ad6fc591bf5c", "fusion_lat": 0.0, "rental_uris": {"ios": "https://dc.lft.to/lastmile_qr_scan", "android": "https://dc.lft.to/lastmile_qr_scan"}, "lon": -77.02485466666667, "type": "electric_scooter"}, {"bike_id": "f1c5dc5971ac2a17a401849458890e77", "is_reserved": 0, "fusion_lon": 0.0, "lat": 38.932351, "is_disabled": 0, "name": "f1c5dc5971ac2a17a401849458890e77", "fusion_lat": 0.0, "rental_uris": {"ios": "https://dc.lft.to/lastmile_qr_scan", "android": "https://dc.lft.to/lastmile_qr_scan"}, "lon": -77.03266683333334, "type": "electric_scooter"}, {"bike_id": "aba492dfa2d3fd87d465b04d5a0b8b7e", "is_reserved": 0, "fusion_lon": 0.0, "lat": 38.90386083333333, "is_disabled": 0, "name": "aba492dfa2d3fd87d465b04d5a0b8b7e", "fusion_lat": 0.0, "rental_uris": {"ios": "https://dc.lft.to/lastmile_qr_scan", "android": "https://dc.lft.to/lastmile_qr_scan"}, "lon": -77.043813, "type": "electric_scooter"}, {"bike_id": "e90d6050b48c6ef52174c3ab97e9309d", "is_reserved": 0, "fusion_lon": 0.0, "lat": 38.95924483333334, "is_disabled": 0, "name": "e90d6050b48c6ef52174c3ab97e9309d", "fusion_lat": 0.0, "rental_uris": {"ios": "https://dc.lft.to/lastmile_qr_scan", "android": "https://dc.lft.to/lastmile_qr_scan"}, "lon": -77.03326, "type": "electric_scooter"}, {"bike_id": "b8ff61208cc2104ba1c4ab15c70e1234", "is_reserved": 0, "fusion_lon": 0.0, "lat": 38.86561316666667, "is_disabled": 0, "name": "b8ff61208cc2104ba1c4ab15c70e1234", "fusion_lat": 0.0, "rental_uris": {"ios": "https://dc.lft.to/lastmile_qr_scan", "android": "https://dc.lft.to/lastmile_qr_scan"}, "lon": -76.989512, "type": "electric_scooter"}, {"bike_id": "09e6846f67a19ab2e0a8625c08c85df9", "is_reserved": 0, "fusion_lon": 0.0, "lat": 38.9004205, "is_disabled": 0, "name": "09e6846f67a19ab2e0a8625c08c85df9", "fusion_lat": 0.0, "rental_uris": {"ios": "https://dc.lft.to/lastmile_qr_scan", "android": "https://dc.lft.to/lastmile_qr_scan"}, "lon": -77.00210866666667, "type": "electric_scooter"}, {"bike_id": "5b78256a0a421581cc8583096a546093", "is_reserved": 0, "fusion_lon": 0.0, "lat": 38.90628433333333, "is_disabled": 0, "name": "5b78256a0a421581cc8583096a546093", "fusion_lat": 0.0, "rental_uris": {"ios": "https://dc.lft.to/lastmile_qr_scan", "android": "https://dc.lft.to/lastmile_qr_scan"}, "lon": -77.03882483333334, "type": "electric_scooter"}, {"bike_id": "23b0da5e69b182f9b13a80720097315d", "is_reserved": 0, "fusion_lon": 0.0, "lat": 38.9096735, "is_disabled": 0, "name": "23b0da5e69b182f9b13a80720097315d", "fusion_lat": 0.0, "rental_uris": {"ios": "https://dc.lft.to/lastmile_qr_scan", "android": "https://dc.lft.to/lastmile_qr_scan"}, "lon": -77.040258, "type": "electric_scooter"}, {"bike_id": "c0d53cfc3d1a842386f48be736954cee", "is_reserved": 0, "fusion_lon": 0.0, "lat": 38.95737033333333, "is_disabled": 0, "name": "c0d53cfc3d1a842386f48be736954cee", "fusion_lat": 0.0, "rental_uris": {"ios": "https://dc.lft.to/lastmile_qr_scan", "android": "https://dc.lft.to/lastmile_qr_scan"}, "lon": -77.02391533333333, "type": "electric_scooter"}, {"bike_id": "2a51ae521b4eb57d5f6f1ffb47a54de0", "is_reserved": 0, "fusion_lon": 0.0, "lat": 38.90677933333333, "is_disabled": 0, "name": "2a51ae521b4eb57d5f6f1ffb47a54de0", "fusion_lat": 0.0, "rental_uris": {"ios": "https://dc.lft.to/lastmile_qr_scan", "android": "https://dc.lft.to/lastmile_qr_scan"}, "lon": -77.0628325, "type": "electric_bike"}, {"bike_id": "efbd35f5cf6f848d343e33589d5f726b", "is_reserved": 0, "fusion_lon": 0.0, "lat": 38.938535, "is_disabled": 0, "name": "efbd35f5cf6f848d343e33589d5f726b", "fusion_lat": 0.0, "rental_uris": {"ios": "https://dc.lft.to/lastmile_qr_scan", "android": "https://dc.lft.to/lastmile_qr_scan"}, "lon": -77.02453333333334, "type": "electric_scooter"}, {"bike_id": "09ec94139221e7a01601375c32df2551", "is_reserved": 0, "fusion_lon": 0.0, "lat": 38.912216666666666, "is_disabled": 0, "name": "09ec94139221e7a01601375c32df2551", "fusion_lat": 0.0, "rental_uris": {"ios": "https://dc.lft.to/lastmile_qr_scan", "android": "https://dc.lft.to/lastmile_qr_scan"}, "lon": -77.02801883333333, "type": "electric_scooter"}, {"bike_id": "7a16e0606312562332061e21796c1c76", "is_reserved": 0, "fusion_lon": 0.0, "lat": 38.9035315, "is_disabled": 0, "name": "7a16e0606312562332061e21796c1c76", "fusion_lat": 0.0, "rental_uris": {"ios": "https://dc.lft.to/lastmile_qr_scan", "android": "https://dc.lft.to/lastmile_qr_scan"}, "lon": -77.02994366666667, "type": "electric_scooter"}, {"bike_id": "ca9ac2373db468826cb9effb7eeda856", "is_reserved": 0, "fusion_lon": 0.0, "lat": 38.928583333333336, "is_disabled": 0, "name": "ca9ac2373db468826cb9effb7eeda856", "fusion_lat": 0.0, "rental_uris": {"ios": "https://dc.lft.to/lastmile_qr_scan", "android": "https://dc.lft.to/lastmile_qr_scan"}, "lon": -77.03713433333333, "type": "electric_scooter"}, {"bike_id": "47c0efc6692804f761734ee7acf27cdd", "is_reserved": 0, "fusion_lon": 0.0, "lat": 38.91740933333333, "is_disabled": 0, "name": "47c0efc6692804f761734ee7acf27cdd", "fusion_lat": 0.0, "rental_uris": {"ios": "https://dc.lft.to/lastmile_qr_scan", "android": "https://dc.lft.to/lastmile_qr_scan"}, "lon": -77.01716266666666, "type": "electric_scooter"}, {"bike_id": "e1fe9ff728115b2e770775bc76d10bd0", "is_reserved": 0, "fusion_lon": 0.0, "lat": 38.909754666666664, "is_disabled": 0, "name": "e1fe9ff728115b2e770775bc76d10bd0", "fusion_lat": 0.0, "rental_uris": {"ios": "https://dc.lft.to/lastmile_qr_scan", "android": "https://dc.lft.to/lastmile_qr_scan"}, "lon": -77.03475633333333, "type": "electric_scooter"}, {"bike_id": "d0dceaa06caa549b69704040501927ca", "is_reserved": 0, "fusion_lon": 0.0, "lat": 38.918203166666665, "is_disabled": 0, "name": "d0dceaa06caa549b69704040501927ca", "fusion_lat": 0.0, "rental_uris": {"ios": "https://dc.lft.to/lastmile_qr_scan", "android": "https://dc.lft.to/lastmile_qr_scan"}, "lon": -77.033037, "type": "electric_scooter"}, {"bike_id": "7f76ba7999cfe357a28be95eedc71fb4", "is_reserved": 0, "fusion_lon": 0.0, "lat": 38.93707216666667, "is_disabled": 0, "name": "7f76ba7999cfe357a28be95eedc71fb4", "fusion_lat": 0.0, "rental_uris": {"ios": "https://dc.lft.to/lastmile_qr_scan", "android": "https://dc.lft.to/lastmile_qr_scan"}, "lon": -77.05955116666667, "type": "electric_scooter"}, {"bike_id": "7c5b5d70fd700ebdc80ded568cdcf51c", "is_reserved": 0, "fusion_lon": 0.0, "lat": 38.91681633333334, "is_disabled": 0, "name": "7c5b5d70fd700ebdc80ded568cdcf51c", "fusion_lat": 0.0, "rental_uris": {"ios": "https://dc.lft.to/lastmile_qr_scan", "android": "https://dc.lft.to/lastmile_qr_scan"}, "lon": -77.03684216666667, "type": "electric_scooter"}, {"bike_id": "38860677e5bf6a473d7a8ae056f22b43", "is_reserved": 0, "fusion_lon": 0.0, "lat": 38.92924933333333, "is_disabled": 0, "name": "38860677e5bf6a473d7a8ae056f22b43", "fusion_lat": 0.0, "rental_uris": {"ios": "https://dc.lft.to/lastmile_qr_scan", "android": "https://dc.lft.to/lastmile_qr_scan"}, "lon": -77.03267433333333, "type": "electric_scooter"}, {"bike_id": "4331f9b6e46559d955bedddfb48b4732", "is_reserved": 0, "fusion_lon": 0.0, "lat": 38.91103583333334, "is_disabled": 0, "name": "4331f9b6e46559d955bedddfb48b4732", "fusion_lat": 0.0, "rental_uris": {"ios": "https://dc.lft.to/lastmile_qr_scan", "android": "https://dc.lft.to/lastmile_qr_scan"}, "lon": -77.03844366666667, "type": "electric_scooter"}, {"bike_id": "b508d9cbbac169613bc759b08015bf2f", "is_reserved": 0, "fusion_lon": 0.0, "lat": 38.91490433333333, "is_disabled": 0, "name": "b508d9cbbac169613bc759b08015bf2f", "fusion_lat": 0.0, "rental_uris": {"ios": "https://dc.lft.to/lastmile_qr_scan", "android": "https://dc.lft.to/lastmile_qr_scan"}, "lon": -77.01715016666667, "type": "electric_scooter"}, {"bike_id": "2acb4706ed4a69a148c8e7ced5ca97e6", "is_reserved": 0, "fusion_lon": 0.0, "lat": 38.859631666666665, "is_disabled": 0, "name": "2acb4706ed4a69a148c8e7ced5ca97e6", "fusion_lat": 0.0, "rental_uris": {"ios": "https://dc.lft.to/lastmile_qr_scan", "android": "https://dc.lft.to/lastmile_qr_scan"}, "lon": -76.991077, "type": "electric_scooter"}, {"bike_id": "ae08a3d03c54c2d9251cdfc73319a840", "is_reserved": 0, "fusion_lon": 0.0, "lat": 38.910448833333334, "is_disabled": 0, "name": "ae08a3d03c54c2d9251cdfc73319a840", "fusion_lat": 0.0, "rental_uris": {"ios": "https://dc.lft.to/lastmile_qr_scan", "android": "https://dc.lft.to/lastmile_qr_scan"}, "lon": -77.04836483333334, "type": "electric_scooter"}, {"bike_id": "2363436abe4b0cf8184f3ad4667c5994", "is_reserved": 0, "fusion_lon": 0.0, "lat": 38.90347583333333, "is_disabled": 0, "name": "2363436abe4b0cf8184f3ad4667c5994", "fusion_lat": 0.0, "rental_uris": {"ios": "https://dc.lft.to/lastmile_qr_scan", "android": "https://dc.lft.to/lastmile_qr_scan"}, "lon": -77.04531383333334, "type": "electric_scooter"}, {"bike_id": "4f047ed7ff2399919510685415ad347c", "is_reserved": 0, "fusion_lon": 0.0, "lat": 38.90793866666667, "is_disabled": 0, "name": "4f047ed7ff2399919510685415ad347c", "fusion_lat": 0.0, "rental_uris": {"ios": "https://dc.lft.to/lastmile_qr_scan", "android": "https://dc.lft.to/lastmile_qr_scan"}, "lon": -77.04232066666667, "type": "electric_scooter"}, {"bike_id": "def337f633383eb8b5a6a96a27561a09", "is_reserved": 0, "fusion_lon": 0.0, "lat": 38.896049, "is_disabled": 0, "name": "def337f633383eb8b5a6a96a27561a09", "fusion_lat": 0.0, "rental_uris": {"ios": "https://dc.lft.to/lastmile_qr_scan", "android": "https://dc.lft.to/lastmile_qr_scan"}, "lon": -77.04240566666667, "type": "electric_scooter"}, {"bike_id": "d36addb21cbc5d20f64e667446c0655f", "is_reserved": 0, "fusion_lon": 0.0, "lat": 38.93724783333333, "is_disabled": 0, "name": "d36addb21cbc5d20f64e667446c0655f", "fusion_lat": 0.0, "rental_uris": {"ios": "https://dc.lft.to/lastmile_qr_scan", "android": "https://dc.lft.to/lastmile_qr_scan"}, "lon": -77.02453433333334, "type": "electric_scooter"}, {"bike_id": "292f60580632fedcb151a2c996b6589f", "is_reserved": 0, "fusion_lon": 0.0, "lat": 38.920383666666666, "is_disabled": 0, "name": "292f60580632fedcb151a2c996b6589f", "fusion_lat": 0.0, "rental_uris": {"ios": "https://dc.lft.to/lastmile_qr_scan", "android": "https://dc.lft.to/lastmile_qr_scan"}, "lon": -77.04184633333334, "type": "electric_scooter"}, {"bike_id": "e9721bec340f2feda57f52b1bfc546ee", "is_reserved": 0, "fusion_lon": 0.0, "lat": 38.87685416666667, "is_disabled": 0, "name": "e9721bec340f2feda57f52b1bfc546ee", "fusion_lat": 0.0, "rental_uris": {"ios": "https://dc.lft.to/lastmile_qr_scan", "android": "https://dc.lft.to/lastmile_qr_scan"}, "lon": -77.01788616666667, "type": "electric_scooter"}, {"bike_id": "97161d8057dc2aac7f84ac3c3cc9b595", "is_reserved": 0, "fusion_lon": 0.0, "lat": 38.91578883333333, "is_disabled": 0, "name": "97161d8057dc2aac7f84ac3c3cc9b595", "fusion_lat": 0.0, "rental_uris": {"ios": "https://dc.lft.to/lastmile_qr_scan", "android": "https://dc.lft.to/lastmile_qr_scan"}, "lon": -77.01234866666667, "type": "electric_scooter"}, {"bike_id": "6836692853b862f9e86afdd20d29be42", "is_reserved": 0, "fusion_lon": 0.0, "lat": 38.899009666666664, "is_disabled": 0, "name": "6836692853b862f9e86afdd20d29be42", "fusion_lat": 0.0, "rental_uris": {"ios": "https://dc.lft.to/lastmile_qr_scan", "android": "https://dc.lft.to/lastmile_qr_scan"}, "lon": -77.00354433333334, "type": "electric_scooter"}, {"bike_id": "fe500b6a5553aa25ccff4612b6314822", "is_reserved": 0, "fusion_lon": 0.0, "lat": 38.934061166666666, "is_disabled": 0, "name": "fe500b6a5553aa25ccff4612b6314822", "fusion_lat": 0.0, "rental_uris": {"ios": "https://dc.lft.to/lastmile_qr_scan", "android": "https://dc.lft.to/lastmile_qr_scan"}, "lon": -77.02062566666666, "type": "electric_scooter"}, {"bike_id": "87433f88dffe65ed4d4c81a3c85b6fa2", "is_reserved": 0, "fusion_lon": 0.0, "lat": 38.96152383333333, "is_disabled": 0, "name": "87433f88dffe65ed4d4c81a3c85b6fa2", "fusion_lat": 0.0, "rental_uris": {"ios": "https://dc.lft.to/lastmile_qr_scan", "android": "https://dc.lft.to/lastmile_qr_scan"}, "lon": -76.997767, "type": "electric_scooter"}, {"bike_id": "9fa53579d3fb9741a5241d3d0079be4a", "is_reserved": 0, "fusion_lon": 0.0, "lat": 38.940448, "is_disabled": 0, "name": "9fa53579d3fb9741a5241d3d0079be4a", "fusion_lat": 0.0, "rental_uris": {"ios": "https://dc.lft.to/lastmile_qr_scan", "android": "https://dc.lft.to/lastmile_qr_scan"}, "lon": -77.02983583333334, "type": "electric_scooter"}, {"bike_id": "5d6a6b5881a8c159dc3c7e0899aa34c5", "is_reserved": 0, "fusion_lon": 0.0, "lat": 38.85321583333333, "is_disabled": 0, "name": "5d6a6b5881a8c159dc3c7e0899aa34c5", "fusion_lat": 0.0, "rental_uris": {"ios": "https://dc.lft.to/lastmile_qr_scan", "android": "https://dc.lft.to/lastmile_qr_scan"}, "lon": -76.98007316666667, "type": "electric_scooter"}, {"bike_id": "811dd157a95df299d481850666cd0837", "is_reserved": 0, "fusion_lon": 0.0, "lat": 38.92220833333333, "is_disabled": 0, "name": "811dd157a95df299d481850666cd0837", "fusion_lat": 0.0, "rental_uris": {"ios": "https://dc.lft.to/lastmile_qr_scan", "android": "https://dc.lft.to/lastmile_qr_scan"}, "lon": -77.04313033333334, "type": "electric_scooter"}, {"bike_id": "5e9f4d7f69da516ada9702b26c60a8a7", "is_reserved": 0, "fusion_lon": 0.0, "lat": 38.922594833333335, "is_disabled": 0, "name": "5e9f4d7f69da516ada9702b26c60a8a7", "fusion_lat": 0.0, "rental_uris": {"ios": "https://dc.lft.to/lastmile_qr_scan", "android": "https://dc.lft.to/lastmile_qr_scan"}, "lon": -77.04130633333334, "type": "electric_scooter"}, {"bike_id": "3604570827bfc4590f11cc933737468d", "is_reserved": 0, "fusion_lon": 0.0, "lat": 38.906564333333336, "is_disabled": 0, "name": "3604570827bfc4590f11cc933737468d", "fusion_lat": 0.0, "rental_uris": {"ios": "https://dc.lft.to/lastmile_qr_scan", "android": "https://dc.lft.to/lastmile_qr_scan"}, "lon": -77.00056083333334, "type": "electric_scooter"}, {"bike_id": "1f5e417a7d8f0adba8dd0bf990459e0e", "is_reserved": 0, "fusion_lon": 0.0, "lat": 38.93540983333333, "is_disabled": 0, "name": "1f5e417a7d8f0adba8dd0bf990459e0e", "fusion_lat": 0.0, "rental_uris": {"ios": "https://dc.lft.to/lastmile_qr_scan", "android": "https://dc.lft.to/lastmile_qr_scan"}, "lon": -77.02366183333334, "type": "electric_scooter"}, {"bike_id": "738447005d67852247497a714893ea5b", "is_reserved": 0, "fusion_lon": 0.0, "lat": 38.9039765, "is_disabled": 0, "name": "738447005d67852247497a714893ea5b", "fusion_lat": 0.0, "rental_uris": {"ios": "https://dc.lft.to/lastmile_qr_scan", "android": "https://dc.lft.to/lastmile_qr_scan"}, "lon": -77.02071316666667, "type": "electric_scooter"}, {"bike_id": "c8a83bc66f7c283f3427689830814c1a", "is_reserved": 0, "fusion_lon": 0.0, "lat": 38.920149333333335, "is_disabled": 0, "name": "c8a83bc66f7c283f3427689830814c1a", "fusion_lat": 0.0, "rental_uris": {"ios": "https://dc.lft.to/lastmile_qr_scan", "android": "https://dc.lft.to/lastmile_qr_scan"}, "lon": -77.0312325, "type": "electric_scooter"}, {"bike_id": "b663bda591bae99d21a157e9eced3292", "is_reserved": 0, "fusion_lon": 0.0, "lat": 38.90402683333333, "is_disabled": 0, "name": "b663bda591bae99d21a157e9eced3292", "fusion_lat": 0.0, "rental_uris": {"ios": "https://dc.lft.to/lastmile_qr_scan", "android": "https://dc.lft.to/lastmile_qr_scan"}, "lon": -77.03265516666667, "type": "electric_scooter"}, {"bike_id": "a7066f7380a4ec93a17d3043de2534ac", "is_reserved": 0, "fusion_lon": 0.0, "lat": 38.910497166666666, "is_disabled": 0, "name": "a7066f7380a4ec93a17d3043de2534ac", "fusion_lat": 0.0, "rental_uris": {"ios": "https://dc.lft.to/lastmile_qr_scan", "android": "https://dc.lft.to/lastmile_qr_scan"}, "lon": -77.02201166666667, "type": "electric_scooter"}, {"bike_id": "441a4b922c414435ca97c5b21e5d8d23", "is_reserved": 0, "fusion_lon": 0.0, "lat": 38.89713833333333, "is_disabled": 0, "name": "441a4b922c414435ca97c5b21e5d8d23", "fusion_lat": 0.0, "rental_uris": {"ios": "https://dc.lft.to/lastmile_qr_scan", "android": "https://dc.lft.to/lastmile_qr_scan"}, "lon": -77.02403433333333, "type": "electric_scooter"}, {"bike_id": "31eeab2511324146848f27fd08722310", "is_reserved": 0, "fusion_lon": 0.0, "lat": 38.89731183333333, "is_disabled": 0, "name": "31eeab2511324146848f27fd08722310", "fusion_lat": 0.0, "rental_uris": {"ios": "https://dc.lft.to/lastmile_qr_scan", "android": "https://dc.lft.to/lastmile_qr_scan"}, "lon": -77.05476633333333, "type": "electric_scooter"}, {"bike_id": "3915f8ca6c026d5fd7ed35d7d727cd96", "is_reserved": 0, "fusion_lon": 0.0, "lat": 38.92262566666667, "is_disabled": 0, "name": "3915f8ca6c026d5fd7ed35d7d727cd96", "fusion_lat": 0.0, "rental_uris": {"ios": "https://dc.lft.to/lastmile_qr_scan", "android": "https://dc.lft.to/lastmile_qr_scan"}, "lon": -77.04308616666667, "type": "electric_scooter"}, {"bike_id": "4a194ebc5e2a9d4bfb8991e25df2df1c", "is_reserved": 0, "fusion_lon": 0.0, "lat": 38.95934, "is_disabled": 0, "name": "4a194ebc5e2a9d4bfb8991e25df2df1c", "fusion_lat": 0.0, "rental_uris": {"ios": "https://dc.lft.to/lastmile_qr_scan", "android": "https://dc.lft.to/lastmile_qr_scan"}, "lon": -77.0311995, "type": "electric_scooter"}, {"bike_id": "ffe982e312a73cb31e4f18745ae6c742", "is_reserved": 0, "fusion_lon": 0.0, "lat": 38.906228666666664, "is_disabled": 0, "name": "ffe982e312a73cb31e4f18745ae6c742", "fusion_lat": 0.0, "rental_uris": {"ios": "https://dc.lft.to/lastmile_qr_scan", "android": "https://dc.lft.to/lastmile_qr_scan"}, "lon": -76.98610666666667, "type": "electric_bike"}, {"bike_id": "a4c2d08d9bb75a8ee45df0fb2125491a", "is_reserved": 0, "fusion_lon": 0.0, "lat": 38.8974915, "is_disabled": 0, "name": "a4c2d08d9bb75a8ee45df0fb2125491a", "fusion_lat": 0.0, "rental_uris": {"ios": "https://dc.lft.to/lastmile_qr_scan", "android": "https://dc.lft.to/lastmile_qr_scan"}, "lon": -77.04503866666667, "type": "electric_scooter"}, {"bike_id": "32124dc566373026eecca03b48fd42b0", "is_reserved": 0, "fusion_lon": 0.0, "lat": 38.9050275, "is_disabled": 0, "name": "32124dc566373026eecca03b48fd42b0", "fusion_lat": 0.0, "rental_uris": {"ios": "https://dc.lft.to/lastmile_qr_scan", "android": "https://dc.lft.to/lastmile_qr_scan"}, "lon": -76.99013816666667, "type": "electric_scooter"}, {"bike_id": "7eba6a71273c577f0e42e227ff51340a", "is_reserved": 0, "fusion_lon": 0.0, "lat": 38.911897833333335, "is_disabled": 0, "name": "7eba6a71273c577f0e42e227ff51340a", "fusion_lat": 0.0, "rental_uris": {"ios": "https://dc.lft.to/lastmile_qr_scan", "android": "https://dc.lft.to/lastmile_qr_scan"}, "lon": -77.038391, "type": "electric_scooter"}, {"bike_id": "360668eedab33dd4c7787e179e219ddc", "is_reserved": 0, "fusion_lon": 0.0, "lat": 38.9059125, "is_disabled": 0, "name": "360668eedab33dd4c7787e179e219ddc", "fusion_lat": 0.0, "rental_uris": {"ios": "https://dc.lft.to/lastmile_qr_scan", "android": "https://dc.lft.to/lastmile_qr_scan"}, "lon": -77.0628115, "type": "electric_scooter"}, {"bike_id": "cd04ca27c6e05c1faf76d52eae1a40ad", "is_reserved": 0, "fusion_lon": 0.0, "lat": 38.92340216666667, "is_disabled": 0, "name": "cd04ca27c6e05c1faf76d52eae1a40ad", "fusion_lat": 0.0, "rental_uris": {"ios": "https://dc.lft.to/lastmile_qr_scan", "android": "https://dc.lft.to/lastmile_qr_scan"}, "lon": -77.019012, "type": "electric_scooter"}, {"bike_id": "1df0c8bcbfe00792ed8b8a30efdacc71", "is_reserved": 0, "fusion_lon": 0.0, "lat": 38.88872333333333, "is_disabled": 0, "name": "1df0c8bcbfe00792ed8b8a30efdacc71", "fusion_lat": 0.0, "rental_uris": {"ios": "https://dc.lft.to/lastmile_qr_scan", "android": "https://dc.lft.to/lastmile_qr_scan"}, "lon": -76.99036366666667, "type": "electric_scooter"}, {"bike_id": "575bc5add345de7019a2e51469e34d2b", "is_reserved": 0, "fusion_lon": 0.0, "lat": 38.87681633333333, "is_disabled": 0, "name": "575bc5add345de7019a2e51469e34d2b", "fusion_lat": 0.0, "rental_uris": {"ios": "https://dc.lft.to/lastmile_qr_scan", "android": "https://dc.lft.to/lastmile_qr_scan"}, "lon": -77.0179165, "type": "electric_scooter"}, {"bike_id": "615d65b958fdc6c7725b79e2de088122", "is_reserved": 0, "fusion_lon": 0.0, "lat": 38.89645183333333, "is_disabled": 0, "name": "615d65b958fdc6c7725b79e2de088122", "fusion_lat": 0.0, "rental_uris": {"ios": "https://dc.lft.to/lastmile_qr_scan", "android": "https://dc.lft.to/lastmile_qr_scan"}, "lon": -77.02940366666667, "type": "electric_scooter"}, {"bike_id": "a4f4ffde109c0cf47b73a4f5d588869e", "is_reserved": 0, "fusion_lon": 0.0, "lat": 38.91875566666667, "is_disabled": 0, "name": "a4f4ffde109c0cf47b73a4f5d588869e", "fusion_lat": 0.0, "rental_uris": {"ios": "https://dc.lft.to/lastmile_qr_scan", "android": "https://dc.lft.to/lastmile_qr_scan"}, "lon": -77.04180583333333, "type": "electric_scooter"}, {"bike_id": "7cccac7009b97f60ae57c9c35449643a", "is_reserved": 0, "fusion_lon": 0.0, "lat": 38.89759383333333, "is_disabled": 0, "name": "7cccac7009b97f60ae57c9c35449643a", "fusion_lat": 0.0, "rental_uris": {"ios": "https://dc.lft.to/lastmile_qr_scan", "android": "https://dc.lft.to/lastmile_qr_scan"}, "lon": -77.03176233333333, "type": "electric_scooter"}, {"bike_id": "9d3331e0dcac080a175dcf6f3bf92964", "is_reserved": 0, "fusion_lon": 0.0, "lat": 38.8989945, "is_disabled": 0, "name": "9d3331e0dcac080a175dcf6f3bf92964", "fusion_lat": 0.0, "rental_uris": {"ios": "https://dc.lft.to/lastmile_qr_scan", "android": "https://dc.lft.to/lastmile_qr_scan"}, "lon": -77.04075216666666, "type": "electric_scooter"}, {"bike_id": "22c505274aa526060ed44ab4d3365772", "is_reserved": 0, "fusion_lon": 0.0, "lat": 38.90580216666667, "is_disabled": 0, "name": "22c505274aa526060ed44ab4d3365772", "fusion_lat": 0.0, "rental_uris": {"ios": "https://dc.lft.to/lastmile_qr_scan", "android": "https://dc.lft.to/lastmile_qr_scan"}, "lon": -77.06521033333334, "type": "electric_scooter"}, {"bike_id": "65f11c02148aaf337013ccdbad33f1f1", "is_reserved": 0, "fusion_lon": 0.0, "lat": 38.910139, "is_disabled": 0, "name": "65f11c02148aaf337013ccdbad33f1f1", "fusion_lat": 0.0, "rental_uris": {"ios": "https://dc.lft.to/lastmile_qr_scan", "android": "https://dc.lft.to/lastmile_qr_scan"}, "lon": -76.99390183333334, "type": "electric_scooter"}, {"bike_id": "d9cc14215d52c10db9323a5e0c809773", "is_reserved": 0, "fusion_lon": 0.0, "lat": 38.86106, "is_disabled": 0, "name": "d9cc14215d52c10db9323a5e0c809773", "fusion_lat": 0.0, "rental_uris": {"ios": "https://dc.lft.to/lastmile_qr_scan", "android": "https://dc.lft.to/lastmile_qr_scan"}, "lon": -76.98366066666667, "type": "electric_scooter"}, {"bike_id": "a5f2f2360432fe97b86e823d37994a74", "is_reserved": 0, "fusion_lon": 0.0, "lat": 38.883341, "is_disabled": 0, "name": "a5f2f2360432fe97b86e823d37994a74", "fusion_lat": 0.0, "rental_uris": {"ios": "https://dc.lft.to/lastmile_qr_scan", "android": "https://dc.lft.to/lastmile_qr_scan"}, "lon": -77.03154383333333, "type": "electric_scooter"}, {"bike_id": "b3be11fab62087855bbe7276b427f9e5", "is_reserved": 0, "fusion_lon": 0.0, "lat": 38.91178983333333, "is_disabled": 0, "name": "b3be11fab62087855bbe7276b427f9e5", "fusion_lat": 0.0, "rental_uris": {"ios": "https://dc.lft.to/lastmile_qr_scan", "android": "https://dc.lft.to/lastmile_qr_scan"}, "lon": -77.0319885, "type": "electric_scooter"}, {"bike_id": "2ddfe812024ee5abf08b327d794d737d", "is_reserved": 0, "fusion_lon": 0.0, "lat": 38.8843825, "is_disabled": 0, "name": "2ddfe812024ee5abf08b327d794d737d", "fusion_lat": 0.0, "rental_uris": {"ios": "https://dc.lft.to/lastmile_qr_scan", "android": "https://dc.lft.to/lastmile_qr_scan"}, "lon": -77.030441, "type": "electric_scooter"}, {"bike_id": "bd1dbfe9725df70880c0eb88cacbfe34", "is_reserved": 0, "fusion_lon": 0.0, "lat": 38.919172833333334, "is_disabled": 0, "name": "bd1dbfe9725df70880c0eb88cacbfe34", "fusion_lat": 0.0, "rental_uris": {"ios": "https://dc.lft.to/lastmile_qr_scan", "android": "https://dc.lft.to/lastmile_qr_scan"}, "lon": -77.03390883333333, "type": "electric_scooter"}, {"bike_id": "780e60bf0f4672c32144289efaafa257", "is_reserved": 0, "fusion_lon": 0.0, "lat": 38.90169566666667, "is_disabled": 0, "name": "780e60bf0f4672c32144289efaafa257", "fusion_lat": 0.0, "rental_uris": {"ios": "https://dc.lft.to/lastmile_qr_scan", "android": "https://dc.lft.to/lastmile_qr_scan"}, "lon": -77.00017216666667, "type": "electric_scooter"}, {"bike_id": "5b520d1b704f1ee8df8007683c89f12e", "is_reserved": 0, "fusion_lon": 0.0, "lat": 38.864174166666665, "is_disabled": 0, "name": "5b520d1b704f1ee8df8007683c89f12e", "fusion_lat": 0.0, "rental_uris": {"ios": "https://dc.lft.to/lastmile_qr_scan", "android": "https://dc.lft.to/lastmile_qr_scan"}, "lon": -77.01353333333333, "type": "electric_scooter"}, {"bike_id": "2f631ba5fe39992097d6483b3a82d3aa", "is_reserved": 0, "fusion_lon": 0.0, "lat": 38.8922325, "is_disabled": 0, "name": "2f631ba5fe39992097d6483b3a82d3aa", "fusion_lat": 0.0, "rental_uris": {"ios": "https://dc.lft.to/lastmile_qr_scan", "android": "https://dc.lft.to/lastmile_qr_scan"}, "lon": -77.0465185, "type": "electric_scooter"}, {"bike_id": "0bb428c78951cf7d17028f51aed753cf", "is_reserved": 0, "fusion_lon": 0.0, "lat": 38.904012333333334, "is_disabled": 0, "name": "0bb428c78951cf7d17028f51aed753cf", "fusion_lat": 0.0, "rental_uris": {"ios": "https://dc.lft.to/lastmile_qr_scan", "android": "https://dc.lft.to/lastmile_qr_scan"}, "lon": -77.0436285, "type": "electric_scooter"}, {"bike_id": "b55257ef53bf823935597778dab57a07", "is_reserved": 0, "fusion_lon": 0.0, "lat": 38.89468816666667, "is_disabled": 0, "name": "b55257ef53bf823935597778dab57a07", "fusion_lat": 0.0, "rental_uris": {"ios": "https://dc.lft.to/lastmile_qr_scan", "android": "https://dc.lft.to/lastmile_qr_scan"}, "lon": -77.00061916666667, "type": "electric_scooter"}, {"bike_id": "8f434c060dae9e7e15ed2efa4c1471e9", "is_reserved": 0, "fusion_lon": 0.0, "lat": 38.9170565, "is_disabled": 0, "name": "8f434c060dae9e7e15ed2efa4c1471e9", "fusion_lat": 0.0, "rental_uris": {"ios": "https://dc.lft.to/lastmile_qr_scan", "android": "https://dc.lft.to/lastmile_qr_scan"}, "lon": -77.03494066666667, "type": "electric_scooter"}, {"bike_id": "9884258062e7a7f45fc34a5c322bcb69", "is_reserved": 0, "fusion_lon": 0.0, "lat": 38.9257975, "is_disabled": 0, "name": "9884258062e7a7f45fc34a5c322bcb69", "fusion_lat": 0.0, "rental_uris": {"ios": "https://dc.lft.to/lastmile_qr_scan", "android": "https://dc.lft.to/lastmile_qr_scan"}, "lon": -77.05758716666666, "type": "electric_scooter"}, {"bike_id": "a60b51caf19ba41113fc8daebd4151ce", "is_reserved": 0, "fusion_lon": 0.0, "lat": 38.935372, "is_disabled": 0, "name": "a60b51caf19ba41113fc8daebd4151ce", "fusion_lat": 0.0, "rental_uris": {"ios": "https://dc.lft.to/lastmile_qr_scan", "android": "https://dc.lft.to/lastmile_qr_scan"}, "lon": -77.02353966666666, "type": "electric_scooter"}, {"bike_id": "2c77c4735985552320fe11bb23f1b14d", "is_reserved": 0, "fusion_lon": 0.0, "lat": 38.90244833333333, "is_disabled": 0, "name": "2c77c4735985552320fe11bb23f1b14d", "fusion_lat": 0.0, "rental_uris": {"ios": "https://dc.lft.to/lastmile_qr_scan", "android": "https://dc.lft.to/lastmile_qr_scan"}, "lon": -77.02695133333333, "type": "electric_scooter"}, {"bike_id": "0484e4c4173e7a0048cb4f55cb774f83", "is_reserved": 0, "fusion_lon": 0.0, "lat": 38.91930966666666, "is_disabled": 0, "name": "0484e4c4173e7a0048cb4f55cb774f83", "fusion_lat": 0.0, "rental_uris": {"ios": "https://dc.lft.to/lastmile_qr_scan", "android": "https://dc.lft.to/lastmile_qr_scan"}, "lon": -77.03190916666667, "type": "electric_scooter"}, {"bike_id": "18adcb2319be39f980c19dd5f700311b", "is_reserved": 0, "fusion_lon": 0.0, "lat": 38.91948466666667, "is_disabled": 0, "name": "18adcb2319be39f980c19dd5f700311b", "fusion_lat": 0.0, "rental_uris": {"ios": "https://dc.lft.to/lastmile_qr_scan", "android": "https://dc.lft.to/lastmile_qr_scan"}, "lon": -77.03212233333333, "type": "electric_scooter"}, {"bike_id": "caa29988403ed8170302dabdafa372af", "is_reserved": 0, "fusion_lon": 0.0, "lat": 38.8208885, "is_disabled": 0, "name": "caa29988403ed8170302dabdafa372af", "fusion_lat": 0.0, "rental_uris": {"ios": "https://dc.lft.to/lastmile_qr_scan", "android": "https://dc.lft.to/lastmile_qr_scan"}, "lon": -77.0536835, "type": "electric_bike"}, {"bike_id": "57e9e6a7fe90fcabbd379945d90e23bc", "is_reserved": 0, "fusion_lon": 0.0, "lat": 38.89895033333333, "is_disabled": 0, "name": "57e9e6a7fe90fcabbd379945d90e23bc", "fusion_lat": 0.0, "rental_uris": {"ios": "https://dc.lft.to/lastmile_qr_scan", "android": "https://dc.lft.to/lastmile_qr_scan"}, "lon": -77.007294, "type": "electric_scooter"}, {"bike_id": "b4ebc93827f9c68919225e299be89854", "is_reserved": 0, "fusion_lon": 0.0, "lat": 38.90375516666667, "is_disabled": 0, "name": "b4ebc93827f9c68919225e299be89854", "fusion_lat": 0.0, "rental_uris": {"ios": "https://dc.lft.to/lastmile_qr_scan", "android": "https://dc.lft.to/lastmile_qr_scan"}, "lon": -77.02021583333334, "type": "electric_scooter"}, {"bike_id": "5bff58167ba59835c2f87de8d2e81abf", "is_reserved": 0, "fusion_lon": 0.0, "lat": 38.919302333333334, "is_disabled": 0, "name": "5bff58167ba59835c2f87de8d2e81abf", "fusion_lat": 0.0, "rental_uris": {"ios": "https://dc.lft.to/lastmile_qr_scan", "android": "https://dc.lft.to/lastmile_qr_scan"}, "lon": -77.03191816666667, "type": "electric_scooter"}, {"bike_id": "9657d914ff7c1893e4ece32b87147a8b", "is_reserved": 0, "fusion_lon": 0.0, "lat": 38.95088833333333, "is_disabled": 0, "name": "9657d914ff7c1893e4ece32b87147a8b", "fusion_lat": 0.0, "rental_uris": {"ios": "https://dc.lft.to/lastmile_qr_scan", "android": "https://dc.lft.to/lastmile_qr_scan"}, "lon": -77.02832966666666, "type": "electric_scooter"}, {"bike_id": "2f1261db7193dcb1119b5f20285bca2e", "is_reserved": 0, "fusion_lon": 0.0, "lat": 38.89837466666667, "is_disabled": 0, "name": "2f1261db7193dcb1119b5f20285bca2e", "fusion_lat": 0.0, "rental_uris": {"ios": "https://dc.lft.to/lastmile_qr_scan", "android": "https://dc.lft.to/lastmile_qr_scan"}, "lon": -77.0435225, "type": "electric_scooter"}, {"bike_id": "3f1a236be575d47f27bd446f5ad0363a", "is_reserved": 0, "fusion_lon": 0.0, "lat": 38.918237166666664, "is_disabled": 0, "name": "3f1a236be575d47f27bd446f5ad0363a", "fusion_lat": 0.0, "rental_uris": {"ios": "https://dc.lft.to/lastmile_qr_scan", "android": "https://dc.lft.to/lastmile_qr_scan"}, "lon": -77.0353365, "type": "electric_scooter"}, {"bike_id": "68360a7d4f3024b883b9755876d6be2e", "is_reserved": 0, "fusion_lon": 0.0, "lat": 38.8982725, "is_disabled": 0, "name": "68360a7d4f3024b883b9755876d6be2e", "fusion_lat": 0.0, "rental_uris": {"ios": "https://dc.lft.to/lastmile_qr_scan", "android": "https://dc.lft.to/lastmile_qr_scan"}, "lon": -77.03337066666667, "type": "electric_scooter"}, {"bike_id": "7a6d5ea8856ec2ea35fa05dbd8c7aa5d", "is_reserved": 0, "fusion_lon": 0.0, "lat": 38.921893833333336, "is_disabled": 0, "name": "7a6d5ea8856ec2ea35fa05dbd8c7aa5d", "fusion_lat": 0.0, "rental_uris": {"ios": "https://dc.lft.to/lastmile_qr_scan", "android": "https://dc.lft.to/lastmile_qr_scan"}, "lon": -77.04257483333333, "type": "electric_scooter"}, {"bike_id": "79214f65d3fee104e8d41b8a0f3ede20", "is_reserved": 0, "fusion_lon": 0.0, "lat": 38.89835583333333, "is_disabled": 0, "name": "79214f65d3fee104e8d41b8a0f3ede20", "fusion_lat": 0.0, "rental_uris": {"ios": "https://dc.lft.to/lastmile_qr_scan", "android": "https://dc.lft.to/lastmile_qr_scan"}, "lon": -77.03267183333334, "type": "electric_scooter"}, {"bike_id": "62fc8a2ed9f44992525b22d089e3ab88", "is_reserved": 0, "fusion_lon": 0.0, "lat": 38.8837055, "is_disabled": 0, "name": "62fc8a2ed9f44992525b22d089e3ab88", "fusion_lat": 0.0, "rental_uris": {"ios": "https://dc.lft.to/lastmile_qr_scan", "android": "https://dc.lft.to/lastmile_qr_scan"}, "lon": -76.99519883333333, "type": "electric_scooter"}, {"bike_id": "024a304f613193322baa10df2266cc6e", "is_reserved": 0, "fusion_lon": 0.0, "lat": 38.910299333333334, "is_disabled": 0, "name": "024a304f613193322baa10df2266cc6e", "fusion_lat": 0.0, "rental_uris": {"ios": "https://dc.lft.to/lastmile_qr_scan", "android": "https://dc.lft.to/lastmile_qr_scan"}, "lon": -77.038592, "type": "electric_scooter"}, {"bike_id": "fa8146ea02bfba1d739bee88aa921152", "is_reserved": 0, "fusion_lon": 0.0, "lat": 38.871153, "is_disabled": 0, "name": "fa8146ea02bfba1d739bee88aa921152", "fusion_lat": 0.0, "rental_uris": {"ios": "https://dc.lft.to/lastmile_qr_scan", "android": "https://dc.lft.to/lastmile_qr_scan"}, "lon": -76.97747733333334, "type": "electric_scooter"}, {"bike_id": "fe84df7ca3928d47e21dc4f0e6a47958", "is_reserved": 0, "fusion_lon": 0.0, "lat": 38.92874233333333, "is_disabled": 0, "name": "fe84df7ca3928d47e21dc4f0e6a47958", "fusion_lat": 0.0, "rental_uris": {"ios": "https://dc.lft.to/lastmile_qr_scan", "android": "https://dc.lft.to/lastmile_qr_scan"}, "lon": -77.03259, "type": "electric_scooter"}, {"bike_id": "bfbdda4033dc74d7b1cd8a3e1ff6035a", "is_reserved": 0, "fusion_lon": 0.0, "lat": 38.92482116666667, "is_disabled": 0, "name": "bfbdda4033dc74d7b1cd8a3e1ff6035a", "fusion_lat": 0.0, "rental_uris": {"ios": "https://dc.lft.to/lastmile_qr_scan", "android": "https://dc.lft.to/lastmile_qr_scan"}, "lon": -77.05209466666666, "type": "electric_scooter"}, {"bike_id": "a53135bb9a265f5a9717cda3d7021137", "is_reserved": 0, "fusion_lon": 0.0, "lat": 38.85684466666667, "is_disabled": 0, "name": "a53135bb9a265f5a9717cda3d7021137", "fusion_lat": 0.0, "rental_uris": {"ios": "https://dc.lft.to/lastmile_qr_scan", "android": "https://dc.lft.to/lastmile_qr_scan"}, "lon": -77.085714, "type": "electric_bike"}, {"bike_id": "9dc084862f60c0451d8af5b9115deb57", "is_reserved": 0, "fusion_lon": 0.0, "lat": 38.863800499999996, "is_disabled": 0, "name": "9dc084862f60c0451d8af5b9115deb57", "fusion_lat": 0.0, "rental_uris": {"ios": "https://dc.lft.to/lastmile_qr_scan", "android": "https://dc.lft.to/lastmile_qr_scan"}, "lon": -76.99054366666667, "type": "electric_scooter"}, {"bike_id": "753d25a2e412a459c06ae080d23ea106", "is_reserved": 0, "fusion_lon": 0.0, "lat": 38.8528675, "is_disabled": 0, "name": "753d25a2e412a459c06ae080d23ea106", "fusion_lat": 0.0, "rental_uris": {"ios": "https://dc.lft.to/lastmile_qr_scan", "android": "https://dc.lft.to/lastmile_qr_scan"}, "lon": -77.05280383333333, "type": "electric_bike"}, {"bike_id": "63d92e5d314f712eae1ff745bcf5ddf5", "is_reserved": 0, "fusion_lon": 0.0, "lat": 38.9002285, "is_disabled": 0, "name": "63d92e5d314f712eae1ff745bcf5ddf5", "fusion_lat": 0.0, "rental_uris": {"ios": "https://dc.lft.to/lastmile_qr_scan", "android": "https://dc.lft.to/lastmile_qr_scan"}, "lon": -76.9984335, "type": "electric_scooter"}, {"bike_id": "d6ae3204fff3e3d2799d641972d580f0", "is_reserved": 0, "fusion_lon": 0.0, "lat": 38.8651865, "is_disabled": 0, "name": "d6ae3204fff3e3d2799d641972d580f0", "fusion_lat": 0.0, "rental_uris": {"ios": "https://dc.lft.to/lastmile_qr_scan", "android": "https://dc.lft.to/lastmile_qr_scan"}, "lon": -76.99042383333334, "type": "electric_scooter"}, {"bike_id": "14558c9ddbc9c639cda58ba18fc8fe55", "is_reserved": 0, "fusion_lon": 0.0, "lat": 38.92115033333333, "is_disabled": 0, "name": "14558c9ddbc9c639cda58ba18fc8fe55", "fusion_lat": 0.0, "rental_uris": {"ios": "https://dc.lft.to/lastmile_qr_scan", "android": "https://dc.lft.to/lastmile_qr_scan"}, "lon": -77.03186033333333, "type": "electric_scooter"}, {"bike_id": "ea193f33d94d3d1f3a4d6ba5d8a2e811", "is_reserved": 0, "fusion_lon": 0.0, "lat": 38.923587, "is_disabled": 0, "name": "ea193f33d94d3d1f3a4d6ba5d8a2e811", "fusion_lat": 0.0, "rental_uris": {"ios": "https://dc.lft.to/lastmile_qr_scan", "android": "https://dc.lft.to/lastmile_qr_scan"}, "lon": -77.05052266666667, "type": "electric_scooter"}, {"bike_id": "5a51c579230a68aaa06ef388ba57896f", "is_reserved": 0, "fusion_lon": 0.0, "lat": 38.905032166666665, "is_disabled": 0, "name": "5a51c579230a68aaa06ef388ba57896f", "fusion_lat": 0.0, "rental_uris": {"ios": "https://dc.lft.to/lastmile_qr_scan", "android": "https://dc.lft.to/lastmile_qr_scan"}, "lon": -77.04157616666667, "type": "electric_scooter"}, {"bike_id": "34b124094a468e0c9da24b92f6d3a1b1", "is_reserved": 0, "fusion_lon": 0.0, "lat": 38.906947, "is_disabled": 0, "name": "34b124094a468e0c9da24b92f6d3a1b1", "fusion_lat": 0.0, "rental_uris": {"ios": "https://dc.lft.to/lastmile_qr_scan", "android": "https://dc.lft.to/lastmile_qr_scan"}, "lon": -77.02983733333333, "type": "electric_scooter"}, {"bike_id": "72c7f1860bac4bc1cd48f57968bb2f5a", "is_reserved": 0, "fusion_lon": 0.0, "lat": 38.92635633333333, "is_disabled": 0, "name": "72c7f1860bac4bc1cd48f57968bb2f5a", "fusion_lat": 0.0, "rental_uris": {"ios": "https://dc.lft.to/lastmile_qr_scan", "android": "https://dc.lft.to/lastmile_qr_scan"}, "lon": -77.03505516666667, "type": "electric_scooter"}, {"bike_id": "fe8ba0f547390a04144ee7bdfb2b639e", "is_reserved": 0, "fusion_lon": 0.0, "lat": 38.89843716666667, "is_disabled": 0, "name": "fe8ba0f547390a04144ee7bdfb2b639e", "fusion_lat": 0.0, "rental_uris": {"ios": "https://dc.lft.to/lastmile_qr_scan", "android": "https://dc.lft.to/lastmile_qr_scan"}, "lon": -77.03345666666667, "type": "electric_scooter"}, {"bike_id": "84cfffe51bf1ebdbf23d36198ea50318", "is_reserved": 0, "fusion_lon": 0.0, "lat": 38.93352633333333, "is_disabled": 0, "name": "84cfffe51bf1ebdbf23d36198ea50318", "fusion_lat": 0.0, "rental_uris": {"ios": "https://dc.lft.to/lastmile_qr_scan", "android": "https://dc.lft.to/lastmile_qr_scan"}, "lon": -77.05867966666666, "type": "electric_scooter"}, {"bike_id": "ed4b5011037dde9197927f11ce3a1b7c", "is_reserved": 0, "fusion_lon": 0.0, "lat": 38.900157166666666, "is_disabled": 0, "name": "ed4b5011037dde9197927f11ce3a1b7c", "fusion_lat": 0.0, "rental_uris": {"ios": "https://dc.lft.to/lastmile_qr_scan", "android": "https://dc.lft.to/lastmile_qr_scan"}, "lon": -77.04042783333334, "type": "electric_scooter"}, {"bike_id": "52b7b6c325e0a1e4ed0feb05f20d866a", "is_reserved": 0, "fusion_lon": 0.0, "lat": 38.84420633333333, "is_disabled": 0, "name": "52b7b6c325e0a1e4ed0feb05f20d866a", "fusion_lat": 0.0, "rental_uris": {"ios": "https://dc.lft.to/lastmile_qr_scan", "android": "https://dc.lft.to/lastmile_qr_scan"}, "lon": -76.997799, "type": "electric_scooter"}, {"bike_id": "dea6b78b4c5a6950bf8c625e69e00c02", "is_reserved": 0, "fusion_lon": 0.0, "lat": 38.90282966666667, "is_disabled": 0, "name": "dea6b78b4c5a6950bf8c625e69e00c02", "fusion_lat": 0.0, "rental_uris": {"ios": "https://dc.lft.to/lastmile_qr_scan", "android": "https://dc.lft.to/lastmile_qr_scan"}, "lon": -77.04012616666667, "type": "electric_scooter"}, {"bike_id": "90d425af52f2019b635ec80097f2340c", "is_reserved": 0, "fusion_lon": 0.0, "lat": 38.924868000000004, "is_disabled": 0, "name": "90d425af52f2019b635ec80097f2340c", "fusion_lat": 0.0, "rental_uris": {"ios": "https://dc.lft.to/lastmile_qr_scan", "android": "https://dc.lft.to/lastmile_qr_scan"}, "lon": -77.021465, "type": "electric_scooter"}, {"bike_id": "4f1b49148ae767546b3423443060b67e", "is_reserved": 0, "fusion_lon": 0.0, "lat": 38.92335583333333, "is_disabled": 0, "name": "4f1b49148ae767546b3423443060b67e", "fusion_lat": 0.0, "rental_uris": {"ios": "https://dc.lft.to/lastmile_qr_scan", "android": "https://dc.lft.to/lastmile_qr_scan"}, "lon": -77.03620883333333, "type": "electric_scooter"}, {"bike_id": "d2fb8edbe83bb7bf3ce5932b745adb71", "is_reserved": 0, "fusion_lon": 0.0, "lat": 38.902354333333335, "is_disabled": 0, "name": "d2fb8edbe83bb7bf3ce5932b745adb71", "fusion_lat": 0.0, "rental_uris": {"ios": "https://dc.lft.to/lastmile_qr_scan", "android": "https://dc.lft.to/lastmile_qr_scan"}, "lon": -77.02697933333333, "type": "electric_scooter"}, {"bike_id": "86d3b9bab86834364781329e1cbec3d7", "is_reserved": 0, "fusion_lon": 0.0, "lat": 38.919419833333336, "is_disabled": 0, "name": "86d3b9bab86834364781329e1cbec3d7", "fusion_lat": 0.0, "rental_uris": {"ios": "https://dc.lft.to/lastmile_qr_scan", "android": "https://dc.lft.to/lastmile_qr_scan"}, "lon": -77.04491416666667, "type": "electric_scooter"}, {"bike_id": "2c6c9e69effa7f695e13def5947c8681", "is_reserved": 0, "fusion_lon": 0.0, "lat": 38.91834033333333, "is_disabled": 0, "name": "2c6c9e69effa7f695e13def5947c8681", "fusion_lat": 0.0, "rental_uris": {"ios": "https://dc.lft.to/lastmile_qr_scan", "android": "https://dc.lft.to/lastmile_qr_scan"}, "lon": -77.0415605, "type": "electric_scooter"}, {"bike_id": "b7b759fb86b730d11a4403113b941bf2", "is_reserved": 0, "fusion_lon": 0.0, "lat": 38.917219, "is_disabled": 0, "name": "b7b759fb86b730d11a4403113b941bf2", "fusion_lat": 0.0, "rental_uris": {"ios": "https://dc.lft.to/lastmile_qr_scan", "android": "https://dc.lft.to/lastmile_qr_scan"}, "lon": -77.03443416666667, "type": "electric_scooter"}, {"bike_id": "236bf2bb5de2bd95df121e35fa2e5ce1", "is_reserved": 0, "fusion_lon": 0.0, "lat": 38.88137116666667, "is_disabled": 0, "name": "236bf2bb5de2bd95df121e35fa2e5ce1", "fusion_lat": 0.0, "rental_uris": {"ios": "https://dc.lft.to/lastmile_qr_scan", "android": "https://dc.lft.to/lastmile_qr_scan"}, "lon": -76.98092333333334, "type": "electric_bike"}, {"bike_id": "4863542213f34f32143110a4ef86205b", "is_reserved": 0, "fusion_lon": 0.0, "lat": 38.90355483333333, "is_disabled": 0, "name": "4863542213f34f32143110a4ef86205b", "fusion_lat": 0.0, "rental_uris": {"ios": "https://dc.lft.to/lastmile_qr_scan", "android": "https://dc.lft.to/lastmile_qr_scan"}, "lon": -77.029514, "type": "electric_scooter"}, {"bike_id": "b2a048d540e517504af763794bd08c22", "is_reserved": 0, "fusion_lon": 0.0, "lat": 38.898261833333336, "is_disabled": 0, "name": "b2a048d540e517504af763794bd08c22", "fusion_lat": 0.0, "rental_uris": {"ios": "https://dc.lft.to/lastmile_qr_scan", "android": "https://dc.lft.to/lastmile_qr_scan"}, "lon": -76.94651183333333, "type": "electric_scooter"}, {"bike_id": "41feb0f5faaca7b00f67642a398ba6e0", "is_reserved": 0, "fusion_lon": 0.0, "lat": 38.937579666666664, "is_disabled": 0, "name": "41feb0f5faaca7b00f67642a398ba6e0", "fusion_lat": 0.0, "rental_uris": {"ios": "https://dc.lft.to/lastmile_qr_scan", "android": "https://dc.lft.to/lastmile_qr_scan"}, "lon": -77.0248795, "type": "electric_scooter"}, {"bike_id": "09260091fc296a7ec183f4c6a611d803", "is_reserved": 0, "fusion_lon": 0.0, "lat": 38.900482333333336, "is_disabled": 0, "name": "09260091fc296a7ec183f4c6a611d803", "fusion_lat": 0.0, "rental_uris": {"ios": "https://dc.lft.to/lastmile_qr_scan", "android": "https://dc.lft.to/lastmile_qr_scan"}, "lon": -77.050809, "type": "electric_scooter"}, {"bike_id": "22d8ffc27e10a7f25d0bc8df0c97020c", "is_reserved": 0, "fusion_lon": 0.0, "lat": 38.91686166666667, "is_disabled": 0, "name": "22d8ffc27e10a7f25d0bc8df0c97020c", "fusion_lat": 0.0, "rental_uris": {"ios": "https://dc.lft.to/lastmile_qr_scan", "android": "https://dc.lft.to/lastmile_qr_scan"}, "lon": -77.02350416666667, "type": "electric_scooter"}, {"bike_id": "acc8d8b56afddc71e507e4d66f59fd52", "is_reserved": 0, "fusion_lon": 0.0, "lat": 38.8398415, "is_disabled": 0, "name": "acc8d8b56afddc71e507e4d66f59fd52", "fusion_lat": 0.0, "rental_uris": {"ios": "https://dc.lft.to/lastmile_qr_scan", "android": "https://dc.lft.to/lastmile_qr_scan"}, "lon": -77.0056695, "type": "electric_bike"}, {"bike_id": "ce4de1545212e07a32db301242e70917", "is_reserved": 0, "fusion_lon": 0.0, "lat": 38.91617766666667, "is_disabled": 0, "name": "ce4de1545212e07a32db301242e70917", "fusion_lat": 0.0, "rental_uris": {"ios": "https://dc.lft.to/lastmile_qr_scan", "android": "https://dc.lft.to/lastmile_qr_scan"}, "lon": -77.03204183333334, "type": "electric_scooter"}, {"bike_id": "a087c2d4aa79e8548bd543b06ab87bd3", "is_reserved": 0, "fusion_lon": 0.0, "lat": 38.866587833333334, "is_disabled": 0, "name": "a087c2d4aa79e8548bd543b06ab87bd3", "fusion_lat": 0.0, "rental_uris": {"ios": "https://dc.lft.to/lastmile_qr_scan", "android": "https://dc.lft.to/lastmile_qr_scan"}, "lon": -76.99019866666667, "type": "electric_scooter"}, {"bike_id": "3948cf2dcbe33caa98c8f01f848f945a", "is_reserved": 0, "fusion_lon": 0.0, "lat": 38.89985983333333, "is_disabled": 0, "name": "3948cf2dcbe33caa98c8f01f848f945a", "fusion_lat": 0.0, "rental_uris": {"ios": "https://dc.lft.to/lastmile_qr_scan", "android": "https://dc.lft.to/lastmile_qr_scan"}, "lon": -77.052419, "type": "electric_scooter"}, {"bike_id": "e817262fe49d578c12b217b0eb77d185", "is_reserved": 0, "fusion_lon": 0.0, "lat": 38.943228500000004, "is_disabled": 0, "name": "e817262fe49d578c12b217b0eb77d185", "fusion_lat": 0.0, "rental_uris": {"ios": "https://dc.lft.to/lastmile_qr_scan", "android": "https://dc.lft.to/lastmile_qr_scan"}, "lon": -77.07388566666667, "type": "electric_scooter"}, {"bike_id": "4001aa665b75b221f6af10037d6a0a47", "is_reserved": 0, "fusion_lon": 0.0, "lat": 38.93641083333333, "is_disabled": 0, "name": "4001aa665b75b221f6af10037d6a0a47", "fusion_lat": 0.0, "rental_uris": {"ios": "https://dc.lft.to/lastmile_qr_scan", "android": "https://dc.lft.to/lastmile_qr_scan"}, "lon": -77.0209, "type": "electric_scooter"}, {"bike_id": "fb5aafb8d5c58f5dbe7bcc528cdd42ec", "is_reserved": 0, "fusion_lon": 0.0, "lat": 38.909875166666666, "is_disabled": 0, "name": "fb5aafb8d5c58f5dbe7bcc528cdd42ec", "fusion_lat": 0.0, "rental_uris": {"ios": "https://dc.lft.to/lastmile_qr_scan", "android": "https://dc.lft.to/lastmile_qr_scan"}, "lon": -77.06716833333333, "type": "electric_scooter"}, {"bike_id": "da698efdca859ded977befc6f7801191", "is_reserved": 0, "fusion_lon": 0.0, "lat": 38.91884133333333, "is_disabled": 0, "name": "da698efdca859ded977befc6f7801191", "fusion_lat": 0.0, "rental_uris": {"ios": "https://dc.lft.to/lastmile_qr_scan", "android": "https://dc.lft.to/lastmile_qr_scan"}, "lon": -76.97165383333333, "type": "electric_scooter"}, {"bike_id": "cbc0625930fd513fc79ea74f561fa24c", "is_reserved": 0, "fusion_lon": 0.0, "lat": 38.882842333333336, "is_disabled": 0, "name": "cbc0625930fd513fc79ea74f561fa24c", "fusion_lat": 0.0, "rental_uris": {"ios": "https://dc.lft.to/lastmile_qr_scan", "android": "https://dc.lft.to/lastmile_qr_scan"}, "lon": -77.04159783333333, "type": "electric_scooter"}, {"bike_id": "31a97ed7e6b0d2d64291e4af0cc36537", "is_reserved": 0, "fusion_lon": 0.0, "lat": 38.87488183333333, "is_disabled": 0, "name": "31a97ed7e6b0d2d64291e4af0cc36537", "fusion_lat": 0.0, "rental_uris": {"ios": "https://dc.lft.to/lastmile_qr_scan", "android": "https://dc.lft.to/lastmile_qr_scan"}, "lon": -77.0018315, "type": "electric_scooter"}, {"bike_id": "2b6e97c87111e7bac6a805c4f0189989", "is_reserved": 0, "fusion_lon": 0.0, "lat": 38.902594, "is_disabled": 0, "name": "2b6e97c87111e7bac6a805c4f0189989", "fusion_lat": 0.0, "rental_uris": {"ios": "https://dc.lft.to/lastmile_qr_scan", "android": "https://dc.lft.to/lastmile_qr_scan"}, "lon": -77.03848566666667, "type": "electric_scooter"}, {"bike_id": "e5e0de4ba8b03d24129150de51794f9b", "is_reserved": 0, "fusion_lon": 0.0, "lat": 38.926217333333334, "is_disabled": 0, "name": "e5e0de4ba8b03d24129150de51794f9b", "fusion_lat": 0.0, "rental_uris": {"ios": "https://dc.lft.to/lastmile_qr_scan", "android": "https://dc.lft.to/lastmile_qr_scan"}, "lon": -77.00563516666666, "type": "electric_scooter"}, {"bike_id": "c41fb7cd04f06c8e00f454a7df3eadcd", "is_reserved": 0, "fusion_lon": 0.0, "lat": 38.89921116666667, "is_disabled": 0, "name": "c41fb7cd04f06c8e00f454a7df3eadcd", "fusion_lat": 0.0, "rental_uris": {"ios": "https://dc.lft.to/lastmile_qr_scan", "android": "https://dc.lft.to/lastmile_qr_scan"}, "lon": -77.05430083333333, "type": "electric_scooter"}, {"bike_id": "68cc0d1d29a558e7fa7527ee19518caa", "is_reserved": 0, "fusion_lon": 0.0, "lat": 38.94618766666667, "is_disabled": 0, "name": "68cc0d1d29a558e7fa7527ee19518caa", "fusion_lat": 0.0, "rental_uris": {"ios": "https://dc.lft.to/lastmile_qr_scan", "android": "https://dc.lft.to/lastmile_qr_scan"}, "lon": -77.03511866666666, "type": "electric_scooter"}, {"bike_id": "f85b9b499f88fea2ba484833fcf9fd25", "is_reserved": 0, "fusion_lon": 0.0, "lat": 38.86364116666667, "is_disabled": 0, "name": "f85b9b499f88fea2ba484833fcf9fd25", "fusion_lat": 0.0, "rental_uris": {"ios": "https://dc.lft.to/lastmile_qr_scan", "android": "https://dc.lft.to/lastmile_qr_scan"}, "lon": -76.99042083333333, "type": "electric_scooter"}, {"bike_id": "a96425b3945a244a35c532d83371be4f", "is_reserved": 0, "fusion_lon": 0.0, "lat": 38.90858983333333, "is_disabled": 0, "name": "a96425b3945a244a35c532d83371be4f", "fusion_lat": 0.0, "rental_uris": {"ios": "https://dc.lft.to/lastmile_qr_scan", "android": "https://dc.lft.to/lastmile_qr_scan"}, "lon": -77.02450533333334, "type": "electric_scooter"}, {"bike_id": "0d8404dacb97fb4ef940d94b2e261d0d", "is_reserved": 0, "fusion_lon": 0.0, "lat": 38.888423833333334, "is_disabled": 0, "name": "0d8404dacb97fb4ef940d94b2e261d0d", "fusion_lat": 0.0, "rental_uris": {"ios": "https://dc.lft.to/lastmile_qr_scan", "android": "https://dc.lft.to/lastmile_qr_scan"}, "lon": -77.0491035, "type": "electric_scooter"}, {"bike_id": "f3934ab72f16babaf9f8936d0c3b1f50", "is_reserved": 0, "fusion_lon": 0.0, "lat": 38.92246983333333, "is_disabled": 0, "name": "f3934ab72f16babaf9f8936d0c3b1f50", "fusion_lat": 0.0, "rental_uris": {"ios": "https://dc.lft.to/lastmile_qr_scan", "android": "https://dc.lft.to/lastmile_qr_scan"}, "lon": -77.0306805, "type": "electric_scooter"}, {"bike_id": "c2b96e4a018edefd2a97968cbad00681", "is_reserved": 0, "fusion_lon": 0.0, "lat": 38.938789666666665, "is_disabled": 0, "name": "c2b96e4a018edefd2a97968cbad00681", "fusion_lat": 0.0, "rental_uris": {"ios": "https://dc.lft.to/lastmile_qr_scan", "android": "https://dc.lft.to/lastmile_qr_scan"}, "lon": -77.03279233333333, "type": "electric_scooter"}, {"bike_id": "c1b641fdaab33fe76c5e0bc9fbfc312f", "is_reserved": 0, "fusion_lon": 0.0, "lat": 38.902721666666665, "is_disabled": 0, "name": "c1b641fdaab33fe76c5e0bc9fbfc312f", "fusion_lat": 0.0, "rental_uris": {"ios": "https://dc.lft.to/lastmile_qr_scan", "android": "https://dc.lft.to/lastmile_qr_scan"}, "lon": -77.04061466666667, "type": "electric_scooter"}, {"bike_id": "2525fcdab58ae5cfa031a5e5d315dc5e", "is_reserved": 0, "fusion_lon": 0.0, "lat": 38.98598233333333, "is_disabled": 0, "name": "2525fcdab58ae5cfa031a5e5d315dc5e", "fusion_lat": 0.0, "rental_uris": {"ios": "https://dc.lft.to/lastmile_qr_scan", "android": "https://dc.lft.to/lastmile_qr_scan"}, "lon": -77.0375315, "type": "electric_bike"}, {"bike_id": "14d1c841245b49e8e34253148b8a934f", "is_reserved": 0, "fusion_lon": 0.0, "lat": 38.903764833333334, "is_disabled": 0, "name": "14d1c841245b49e8e34253148b8a934f", "fusion_lat": 0.0, "rental_uris": {"ios": "https://dc.lft.to/lastmile_qr_scan", "android": "https://dc.lft.to/lastmile_qr_scan"}, "lon": -77.04444333333333, "type": "electric_scooter"}, {"bike_id": "117cd014309c29302ebecc4a75c13911", "is_reserved": 0, "fusion_lon": 0.0, "lat": 38.922576, "is_disabled": 0, "name": "117cd014309c29302ebecc4a75c13911", "fusion_lat": 0.0, "rental_uris": {"ios": "https://dc.lft.to/lastmile_qr_scan", "android": "https://dc.lft.to/lastmile_qr_scan"}, "lon": -77.02982283333333, "type": "electric_scooter"}, {"bike_id": "2631c305f31965931c220c4c937ec793", "is_reserved": 0, "fusion_lon": 0.0, "lat": 38.984623666666664, "is_disabled": 0, "name": "2631c305f31965931c220c4c937ec793", "fusion_lat": 0.0, "rental_uris": {"ios": "https://dc.lft.to/lastmile_qr_scan", "android": "https://dc.lft.to/lastmile_qr_scan"}, "lon": -76.955319, "type": "electric_bike"}, {"bike_id": "55947f5ca1d926ee4421dd5d52dbe73a", "is_reserved": 0, "fusion_lon": 0.0, "lat": 38.865573499999996, "is_disabled": 0, "name": "55947f5ca1d926ee4421dd5d52dbe73a", "fusion_lat": 0.0, "rental_uris": {"ios": "https://dc.lft.to/lastmile_qr_scan", "android": "https://dc.lft.to/lastmile_qr_scan"}, "lon": -76.98948783333333, "type": "electric_scooter"}, {"bike_id": "6f9a414bab00d24d52f73408682e6a77", "is_reserved": 0, "fusion_lon": 0.0, "lat": 38.90038283333333, "is_disabled": 0, "name": "6f9a414bab00d24d52f73408682e6a77", "fusion_lat": 0.0, "rental_uris": {"ios": "https://dc.lft.to/lastmile_qr_scan", "android": "https://dc.lft.to/lastmile_qr_scan"}, "lon": -77.007727, "type": "electric_scooter"}, {"bike_id": "59b056402f34f6f33d93dcfbc7df080c", "is_reserved": 0, "fusion_lon": 0.0, "lat": 38.852276833333335, "is_disabled": 0, "name": "59b056402f34f6f33d93dcfbc7df080c", "fusion_lat": 0.0, "rental_uris": {"ios": "https://dc.lft.to/lastmile_qr_scan", "android": "https://dc.lft.to/lastmile_qr_scan"}, "lon": -77.1296775, "type": "electric_bike"}, {"bike_id": "7325b32a81d54870de28ee0f09342923", "is_reserved": 0, "fusion_lon": 0.0, "lat": 38.865973, "is_disabled": 0, "name": "7325b32a81d54870de28ee0f09342923", "fusion_lat": 0.0, "rental_uris": {"ios": "https://dc.lft.to/lastmile_qr_scan", "android": "https://dc.lft.to/lastmile_qr_scan"}, "lon": -76.93231416666667, "type": "electric_bike"}, {"bike_id": "e622280542c37d00e8474f71919947a3", "is_reserved": 0, "fusion_lon": 0.0, "lat": 38.9211305, "is_disabled": 0, "name": "e622280542c37d00e8474f71919947a3", "fusion_lat": 0.0, "rental_uris": {"ios": "https://dc.lft.to/lastmile_qr_scan", "android": "https://dc.lft.to/lastmile_qr_scan"}, "lon": -77.042057, "type": "electric_scooter"}, {"bike_id": "a9eb90d0cba91a73e06dee5d4c9a2f53", "is_reserved": 0, "fusion_lon": 0.0, "lat": 38.92791733333333, "is_disabled": 0, "name": "a9eb90d0cba91a73e06dee5d4c9a2f53", "fusion_lat": 0.0, "rental_uris": {"ios": "https://dc.lft.to/lastmile_qr_scan", "android": "https://dc.lft.to/lastmile_qr_scan"}, "lon": -77.03151266666667, "type": "electric_scooter"},