{"data": {"bikes": [{"is_disabled": 0, "fusion_lon": 0.0, "fusion_lat": 0.0, "lat": 38.922880666666664, "type": "electric_scooter", "lon": -77.04040383333333, "bike_id": "f7be6d0ed8b9eeb9d4f5a6d3f329f919", "rental_uris": {"android": "https://dc.lft.to/lastmile_qr_scan", "ios": "https://dc.lft.to/lastmile_qr_scan"}, "name": "f7be6d0ed8b9eeb9d4f5a6d3f329f919", "is_reserved": 0}, {"is_disabled": 0, "fusion_lon": 0.0, "fusion_lat": 0.0, "lat": 38.905108166666665, "type": "electric_scooter", "lon": -77.02605816666667, "bike_id": "fd14eb734f41ecf6a1c0eebe28d997e6", "rental_uris": {"android": "https://dc.lft.to/lastmile_qr_scan", "ios": "https://dc.lft.to/lastmile_qr_scan"}, "name": "fd14eb734f41ecf6a1c0eebe28d997e6", "is_reserved": 0}, {"is_disabled": 0, "fusion_lon": 0.0, "fusion_lat": 0.0, "lat": 38.903721, "type": "electric_scooter", "lon": -77.02546466666666, "bike_id": "9f73e5e46426040c5957a934141135b3", "rental_uris": {"android": "https://dc.lft.to/lastmile_qr_scan", "ios": "https://dc.lft.to/lastmile_qr_scan"}, "name": "9f73e5e46426040c5957a934141135b3", "is_reserved": 0}, {"is_disabled": 0, "fusion_lon": 0.0, "fusion_lat": 0.0, "lat": 38.887578166666664, "type": "electric_scooter", "lon": -77.03384033333333, "bike_id": "4a86800a491deba9ead348b12097fd47", "rental_uris": {"android": "https://dc.lft.to/lastmile_qr_scan", "ios": "https://dc.lft.to/lastmile_qr_scan"}, "name": "4a86800a491deba9ead348b12097fd47", "is_reserved": 0}, {"is_disabled": 0, "fusion_lon": 0.0, "fusion_lat": 0.0, "lat": 38.918501166666665, "type": "electric_scooter", "lon": -77.03511066666667, "bike_id": "22b6957acd3a7eb89b3c4a94ff173c87", "rental_uris": {"android": "https://dc.lft.to/lastmile_qr_scan", "ios": "https://dc.lft.to/lastmile_qr_scan"}, "name": "22b6957acd3a7eb89b3c4a94ff173c87", "is_reserved": 0}, {"is_disabled": 0, "fusion_lon": 0.0, "fusion_lat": 0.0, "lat": 39.058133833333336, "type": "electric_bike", "lon": -77.126268, "bike_id": "0a2bd8d30a23eea435d7c060e4b622d7", "rental_uris": {"android": "https://dc.lft.to/lastmile_qr_scan", "ios": "https://dc.lft.to/lastmile_qr_scan"}, "name": "0a2bd8d30a23eea435d7c060e4b622d7", "is_reserved": 0}, {"is_disabled": 0, "fusion_lon": 0.0, "fusion_lat": 0.0, "lat": 38.876858, "type": "electric_bike", "lon": -77.01466633333334, "bike_id": "968dbae16502795d714be2e4666e85c5", "rental_uris": {"android": "https://dc.lft.to/lastmile_qr_scan", "ios": "https://dc.lft.to/lastmile_qr_scan"}, "name": "968dbae16502795d714be2e4666e85c5", "is_reserved": 0}, {"is_disabled": 0, "fusion_lon": 0.0, "fusion_lat": 0.0, "lat": 38.941521333333334, "type": "electric_bike", "lon": -77.00194983333333, "bike_id": "893d63665c32fc82598ff86b428e6284", "rental_uris": {"android": "https://dc.lft.to/lastmile_qr_scan", "ios": "https://dc.lft.to/lastmile_qr_scan"}, "name": "893d63665c32fc82598ff86b428e6284", "is_reserved": 0}, {"is_disabled": 0, "fusion_lon": 0.0, "fusion_lat": 0.0, "lat": 38.926551833333335, "type": "electric_scooter", "lon": -77.02435033333333, "bike_id": "bcc62c7ab1dc31965385d4baf83f65a6", "rental_uris": {"android": "https://dc.lft.to/lastmile_qr_scan", "ios": "https://dc.lft.to/lastmile_qr_scan"}, "name": "bcc62c7ab1dc31965385d4baf83f65a6", "is_reserved": 0}, {"is_disabled": 0, "fusion_lon": 0.0, "fusion_lat": 0.0, "lat": 38.89730983333333, "type": "electric_scooter", "lon": -77.049409, "bike_id": "29def733d2c51f67ec16deab78d2f058", "rental_uris": {"android": "https://dc.lft.to/lastmile_qr_scan", "ios": "https://dc.lft.to/lastmile_qr_scan"}, "name": "29def733d2c51f67ec16deab78d2f058", "is_reserved": 0}, {"is_disabled": 0, "fusion_lon": 0.0, "fusion_lat": 0.0, "lat": 38.861315833333336, "type": "electric_scooter", "lon": -76.98531433333333, "bike_id": "9f1eef3da851197f4d30bc4c0946e51c", "rental_uris": {"android": "https://dc.lft.to/lastmile_qr_scan", "ios": "https://dc.lft.to/lastmile_qr_scan"}, "name": "9f1eef3da851197f4d30bc4c0946e51c", "is_reserved": 0}, {"is_disabled": 0, "fusion_lon": 0.0, "fusion_lat": 0.0, "lat": 38.91188283333334, "type": "electric_scooter", "lon": -77.03501016666667, "bike_id": "3826d5abcf79402eea1c4c3f7d8f652a", "rental_uris": {"android": "https://dc.lft.to/lastmile_qr_scan", "ios": "https://dc.lft.to/lastmile_qr_scan"}, "name": "3826d5abcf79402eea1c4c3f7d8f652a", "is_reserved": 0}, {"is_disabled": 0, "fusion_lon": 0.0, "fusion_lat": 0.0, "lat": 38.93631116666667, "type": "electric_scooter", "lon": -77.05912233333333, "bike_id": "9932830d2a3bfdd4ab4a7582d6b69c6b", "rental_uris": {"android": "https://dc.lft.to/lastmile_qr_scan", "ios": "https://dc.lft.to/lastmile_qr_scan"}, "name": "9932830d2a3bfdd4ab4a7582d6b69c6b", "is_reserved": 0}, {"is_disabled": 0, "fusion_lon": 0.0, "fusion_lat": 0.0, "lat": 38.89043083333333, "type": "electric_scooter", "lon": -76.95245416666667, "bike_id": "e94093e8e1f626cfc587112f434a2771", "rental_uris": {"android": "https://dc.lft.to/lastmile_qr_scan", "ios": "https://dc.lft.to/lastmile_qr_scan"}, "name": "e94093e8e1f626cfc587112f434a2771", "is_reserved": 0}, {"is_disabled": 0, "fusion_lon": 0.0, "fusion_lat": 0.0, "lat": 38.896709, "type": "electric_scooter", "lon": -76.997851, "bike_id": "17fbeaac74c694e055ac3bdb9fc93c0a", "rental_uris": {"android": "https://dc.lft.to/lastmile_qr_scan", "ios": "https://dc.lft.to/lastmile_qr_scan"}, "name": "17fbeaac74c694e055ac3bdb9fc93c0a", "is_reserved": 0}, {"is_disabled": 0, "fusion_lon": 0.0, "fusion_lat": 0.0, "lat": 38.9318325, "type": "electric_scooter", "lon": -77.0234875, "bike_id": "e765b83ea3812fc15d8a939cb2f4ba94", "rental_uris": {"android": "https://dc.lft.to/lastmile_qr_scan", "ios": "https://dc.lft.to/lastmile_qr_scan"}, "name": "e765b83ea3812fc15d8a939cb2f4ba94", "is_reserved": 0}, {"is_disabled": 0, "fusion_lon": 0.0, "fusion_lat": 0.0, "lat": 38.92832116666666, "type": "electric_scooter", "lon": -77.01408616666667, "bike_id": "e8d82b4d652dfa8c1c4f39478ea3b35f", "rental_uris": {"android": "https://dc.lft.to/lastmile_qr_scan", "ios": "https://dc.lft.to/lastmile_qr_scan"}, "name": "e8d82b4d652dfa8c1c4f39478ea3b35f", "is_reserved": 0}, {"is_disabled": 0, "fusion_lon": 0.0, "fusion_lat": 0.0, "lat": 38.9346935, "type": "electric_scooter", "lon": -77.07211366666667, "bike_id": "a706959dbb1293a63064257d529048cf", "rental_uris": {"android": "https://dc.lft.to/lastmile_qr_scan", "ios": "https://dc.lft.to/lastmile_qr_scan"}, "name": "a706959dbb1293a63064257d529048cf", "is_reserved": 0}, {"is_disabled": 0, "fusion_lon": 0.0, "fusion_lat": 0.0, "lat": 38.90139883333333, "type": "electric_scooter", "lon": -77.0293115, "bike_id": "f893319dea2aadb6232b5291451c8063", "rental_uris": {"android": "https://dc.lft.to/lastmile_qr_scan", "ios": "https://dc.lft.to/lastmile_qr_scan"}, "name": "f893319dea2aadb6232b5291451c8063", "is_reserved": 0}, {"is_disabled": 0, "fusion_lon": 0.0, "fusion_lat": 0.0, "lat": 38.900454333333336, "type": "electric_scooter", "lon": -76.92271783333334, "bike_id": "9609211d176164f331e2d25798e2a6ab", "rental_uris": {"android": "https://dc.lft.to/lastmile_qr_scan", "ios": "https://dc.lft.to/lastmile_qr_scan"}, "name": "9609211d176164f331e2d25798e2a6ab", "is_reserved": 0}, {"is_disabled": 0, "fusion_lon": 0.0, "fusion_lat": 0.0, "lat": 38.893719833333336, "type": "electric_scooter", "lon": -76.949976, "bike_id": "651e8c80ea39af9d9768b49dd0a2a5ce", "rental_uris": {"android": "https://dc.lft.to/lastmile_qr_scan", "ios": "https://dc.lft.to/lastmile_qr_scan"}, "name": "651e8c80ea39af9d9768b49dd0a2a5ce", "is_reserved": 0}, {"is_disabled": 0, "fusion_lon": 0.0, "fusion_lat": 0.0, "lat": 38.9368245, "type": "electric_scooter", "lon": -77.0245895, "bike_id": "abe0a09e4772bbe015f197cdbe53b1ba", "rental_uris": {"android": "https://dc.lft.to/lastmile_qr_scan", "ios": "https://dc.lft.to/lastmile_qr_scan"}, "name": "abe0a09e4772bbe015f197cdbe53b1ba", "is_reserved": 0}, {"is_disabled": 0, "fusion_lon": 0.0, "fusion_lat": 0.0, "lat": 38.9270895, "type": "electric_scooter", "lon": -77.02329333333333, "bike_id": "3379661699a929f04033fafa3166fd24", "rental_uris": {"android": "https://dc.lft.to/lastmile_qr_scan", "ios": "https://dc.lft.to/lastmile_qr_scan"}, "name": "3379661699a929f04033fafa3166fd24", "is_reserved": 0}, {"is_disabled": 0, "fusion_lon": 0.0, "fusion_lat": 0.0, "lat": 38.9273655, "type": "electric_scooter", "lon": -77.02244716666667, "bike_id": "fa696c1a0817cb97981cc51a6eda0bf6", "rental_uris": {"android": "https://dc.lft.to/lastmile_qr_scan", "ios": "https://dc.lft.to/lastmile_qr_scan"}, "name": "fa696c1a0817cb97981cc51a6eda0bf6", "is_reserved": 0}, {"is_disabled": 0, "fusion_lon": 0.0, "fusion_lat": 0.0, "lat": 38.90880666666666, "type": "electric_scooter", "lon": -77.00267383333333, "bike_id": "8e0fa2cb0bda48b70471bc4236e0cb2b", "rental_uris": {"android": "https://dc.lft.to/lastmile_qr_scan", "ios": "https://dc.lft.to/lastmile_qr_scan"}, "name": "8e0fa2cb0bda48b70471bc4236e0cb2b", "is_reserved": 0}, {"is_disabled": 0, "fusion_lon": 0.0, "fusion_lat": 0.0, "lat": 38.93415683333333, "type": "electric_scooter", "lon": -77.01968616666667, "bike_id": "6a61427ff1c9bb55d5026330762ca377", "rental_uris": {"android": "https://dc.lft.to/lastmile_qr_scan", "ios": "https://dc.lft.to/lastmile_qr_scan"}, "name": "6a61427ff1c9bb55d5026330762ca377", "is_reserved": 0}, {"is_disabled": 0, "fusion_lon": 0.0, "fusion_lat": 0.0, "lat": 38.953269666666664, "type": "electric_scooter", "lon": -77.06856166666667, "bike_id": "fce7275d25380a1aeab46e5861f764f9", "rental_uris": {"android": "https://dc.lft.to/lastmile_qr_scan", "ios": "https://dc.lft.to/lastmile_qr_scan"}, "name": "fce7275d25380a1aeab46e5861f764f9", "is_reserved": 0}, {"is_disabled": 0, "fusion_lon": 0.0, "fusion_lat": 0.0, "lat": 39.038812666666665, "type": "electric_bike", "lon": -77.10912366666666, "bike_id": "872028ec2de573093684072f35096f9c", "rental_uris": {"android": "https://dc.lft.to/lastmile_qr_scan", "ios": "https://dc.lft.to/lastmile_qr_scan"}, "name": "872028ec2de573093684072f35096f9c", "is_reserved": 0}, {"is_disabled": 0, "fusion_lon": 0.0, "fusion_lat": 0.0, "lat": 38.89293833333333, "type": "electric_bike", "lon": -77.001445, "bike_id": "b11c50d7835ad29bb193b8f32c570ba4", "rental_uris": {"android": "https://dc.lft.to/lastmile_qr_scan", "ios": "https://dc.lft.to/lastmile_qr_scan"}, "name": "b11c50d7835ad29bb193b8f32c570ba4", "is_reserved": 0}, {"is_disabled": 0, "fusion_lon": 0.0, "fusion_lat": 0.0, "lat": 38.904723, "type": "electric_scooter", "lon": -77.027239, "bike_id": "7fddee606c5aa61b9f4b05fc4b73e941", "rental_uris": {"android": "https://dc.lft.to/lastmile_qr_scan", "ios": "https://dc.lft.to/lastmile_qr_scan"}, "name": "7fddee606c5aa61b9f4b05fc4b73e941", "is_reserved": 0}, {"is_disabled": 0, "fusion_lon": 0.0, "fusion_lat": 0.0, "lat": 38.8620455, "type": "electric_bike", "lon": -77.0567245, "bike_id": "def2c07299997e540a0bcd296eff0191", "rental_uris": {"android": "https://dc.lft.to/lastmile_qr_scan", "ios": "https://dc.lft.to/lastmile_qr_scan"}, "name": "def2c07299997e540a0bcd296eff0191", "is_reserved": 0}, {"is_disabled": 0, "fusion_lon": 0.0, "fusion_lat": 0.0, "lat": 38.87087416666667, "type": "electric_bike", "lon": -77.11031633333333, "bike_id": "7b7630175a8363722bad8f674687e3b7", "rental_uris": {"android": "https://dc.lft.to/lastmile_qr_scan", "ios": "https://dc.lft.to/lastmile_qr_scan"}, "name": "7b7630175a8363722bad8f674687e3b7", "is_reserved": 0}, {"is_disabled": 0, "fusion_lon": 0.0, "fusion_lat": 0.0, "lat": 38.90388516666667, "type": "electric_scooter", "lon": -77.0178165, "bike_id": "8151a348068bf68d65eec88642afb471", "rental_uris": {"android": "https://dc.lft.to/lastmile_qr_scan", "ios": "https://dc.lft.to/lastmile_qr_scan"}, "name": "8151a348068bf68d65eec88642afb471", "is_reserved": 0}, {"is_disabled": 0, "fusion_lon": 0.0, "fusion_lat": 0.0, "lat": 38.93670816666667, "type": "electric_bike", "lon": -76.95205616666667, "bike_id": "5a9e63b381d4ccdcadea44aceb98959b", "rental_uris": {"android": "https://dc.lft.to/lastmile_qr_scan", "ios": "https://dc.lft.to/lastmile_qr_scan"}, "name": "5a9e63b381d4ccdcadea44aceb98959b", "is_reserved": 0}, {"is_disabled": 0, "fusion_lon": 0.0, "fusion_lat": 0.0, "lat": 38.885756666666666, "type": "electric_scooter", "lon": -76.91907866666666, "bike_id": "c8a6836d8f18bde8b8a3cd834e0f8969", "rental_uris": {"android": "https://dc.lft.to/lastmile_qr_scan", "ios": "https://dc.lft.to/lastmile_qr_scan"}, "name": "c8a6836d8f18bde8b8a3cd834e0f8969", "is_reserved": 0}, {"is_disabled": 0, "fusion_lon": 0.0, "fusion_lat": 0.0, "lat": 38.95611916666667, "type": "electric_scooter", "lon": -77.02783133333334, "bike_id": "bab25ab26bcbbdb7c757c29d09b35600", "rental_uris": {"android": "https://dc.lft.to/lastmile_qr_scan", "ios": "https://dc.lft.to/lastmile_qr_scan"}, "name": "bab25ab26bcbbdb7c757c29d09b35600", "is_reserved": 0}, {"is_disabled": 0, "fusion_lon": 0.0, "fusion_lat": 0.0, "lat": 38.931766833333334, "type": "electric_scooter", "lon": -77.072549, "bike_id": "07bfe5ea91611aea2ec96ba9f03c65e2", "rental_uris": {"android": "https://dc.lft.to/lastmile_qr_scan", "ios": "https://dc.lft.to/lastmile_qr_scan"}, "name": "07bfe5ea91611aea2ec96ba9f03c65e2", "is_reserved": 0}, {"is_disabled": 0, "fusion_lon": 0.0, "fusion_lat": 0.0, "lat": 38.91258, "type": "electric_scooter", "lon": -77.00931933333334, "bike_id": "1ad1a516abaed4c7031210f0476aa75b", "rental_uris": {"android": "https://dc.lft.to/lastmile_qr_scan", "ios": "https://dc.lft.to/lastmile_qr_scan"}, "name": "1ad1a516abaed4c7031210f0476aa75b", "is_reserved": 0}, {"is_disabled": 0, "fusion_lon": 0.0, "fusion_lat": 0.0, "lat": 38.903139, "type": "electric_scooter", "lon": -76.98240866666667, "bike_id": "a6a302c208841944d911601d97dac593", "rental_uris": {"android": "https://dc.lft.to/lastmile_qr_scan", "ios": "https://dc.lft.to/lastmile_qr_scan"}, "name": "a6a302c208841944d911601d97dac593", "is_reserved": 0}, {"is_disabled": 0, "fusion_lon": 0.0, "fusion_lat": 0.0, "lat": 38.8733585, "type": "electric_bike", "lon": -77.01852583333333, "bike_id": "9043760c3e1f8494bc2f4e72cad2fb68", "rental_uris": {"android": "https://dc.lft.to/lastmile_qr_scan", "ios": "https://dc.lft.to/lastmile_qr_scan"}, "name": "9043760c3e1f8494bc2f4e72cad2fb68", "is_reserved": 0}, {"is_disabled": 0, "fusion_lon": 0.0, "fusion_lat": 0.0, "lat": 38.898444166666664, "type": "electric_scooter", "lon": -76.94634916666666, "bike_id": "7f22a5929bade6d0791e7d9baae83ae6", "rental_uris": {"android": "https://dc.lft.to/lastmile_qr_scan", "ios": "https://dc.lft.to/lastmile_qr_scan"}, "name": "7f22a5929bade6d0791e7d9baae83ae6", "is_reserved": 0}, {"is_disabled": 0, "fusion_lon": 0.0, "fusion_lat": 0.0, "lat": 38.927874833333334, "type": "electric_scooter", "lon": -77.03146466666666, "bike_id": "a7c7a5a61ca44754f11ad3c8dc3f951e", "rental_uris": {"android": "https://dc.lft.to/lastmile_qr_scan", "ios": "https://dc.lft.to/lastmile_qr_scan"}, "name": "a7c7a5a61ca44754f11ad3c8dc3f951e", "is_reserved": 0}, {"is_disabled": 0, "fusion_lon": 0.0, "fusion_lat": 0.0, "lat": 38.950882, "type": "electric_bike", "lon": -76.96560583333333, "bike_id": "a88bf4e6dc2f4f8fd5ddb64133cbbbb4", "rental_uris": {"android": "https://dc.lft.to/lastmile_qr_scan", "ios": "https://dc.lft.to/lastmile_qr_scan"}, "name": "a88bf4e6dc2f4f8fd5ddb64133cbbbb4", "is_reserved": 0}, {"is_disabled": 0, "fusion_lon": 0.0, "fusion_lat": 0.0, "lat": 38.908007166666664, "type": "electric_scooter", "lon": -77.0409665, "bike_id": "f6c4506bde29208f4b4c90f8fbd51470", "rental_uris": {"android": "https://dc.lft.to/lastmile_qr_scan", "ios": "https://dc.lft.to/lastmile_qr_scan"}, "name": "f6c4506bde29208f4b4c90f8fbd51470", "is_reserved": 0}, {"is_disabled": 0, "fusion_lon": 0.0, "fusion_lat": 0.0, "lat": 38.90538566666667, "type": "electric_scooter", "lon": -77.00539816666667, "bike_id": "7d1958334910564b0986ff5589021be0", "rental_uris": {"android": "https://dc.lft.to/lastmile_qr_scan", "ios": "https://dc.lft.to/lastmile_qr_scan"}, "name": "7d1958334910564b0986ff5589021be0", "is_reserved": 0}, {"is_disabled": 0, "fusion_lon": 0.0, "fusion_lat": 0.0, "lat": 38.906372, "type": "electric_scooter", "lon": -77.045218, "bike_id": "af94f0163f47d936620698c84eda05fe", "rental_uris": {"android": "https://dc.lft.to/lastmile_qr_scan", "ios": "https://dc.lft.to/lastmile_qr_scan"}, "name": "af94f0163f47d936620698c84eda05fe", "is_reserved": 0}, {"is_disabled": 0, "fusion_lon": 0.0, "fusion_lat": 0.0, "lat": 38.91924083333333, "type": "electric_scooter", "lon": -77.0309505, "bike_id": "50c26c518ce44c9b4a13ce7e0b3e4461", "rental_uris": {"android": "https://dc.lft.to/lastmile_qr_scan", "ios": "https://dc.lft.to/lastmile_qr_scan"}, "name": "50c26c518ce44c9b4a13ce7e0b3e4461", "is_reserved": 0}, {"is_disabled": 0, "fusion_lon": 0.0, "fusion_lat": 0.0, "lat": 39.007865333333335, "type": "electric_bike", "lon": -76.99567066666667, "bike_id": "e7b84a4310aa188de39ae6b5ef617e0d", "rental_uris": {"android": "https://dc.lft.to/lastmile_qr_scan", "ios": "https://dc.lft.to/lastmile_qr_scan"}, "name": "e7b84a4310aa188de39ae6b5ef617e0d", "is_reserved": 0}, {"is_disabled": 0, "fusion_lon": 0.0, "fusion_lat": 0.0, "lat": 38.90513683333333, "type": "electric_scooter", "lon": -76.98249783333333, "bike_id": "66e430f58674d1bd50bda44f0da8ac97", "rental_uris": {"android": "https://dc.lft.to/lastmile_qr_scan", "ios": "https://dc.lft.to/lastmile_qr_scan"}, "name": "66e430f58674d1bd50bda44f0da8ac97", "is_reserved": 0}, {"is_disabled": 0, "fusion_lon": 0.0, "fusion_lat": 0.0, "lat": 38.834319, "type": "electric_bike", "lon": -77.10352016666667, "bike_id": "bb1cb07c8dad7584df77207dbec7ce28", "rental_uris": {"android": "https://dc.lft.to/lastmile_qr_scan", "ios": "https://dc.lft.to/lastmile_qr_scan"}, "name": "bb1cb07c8dad7584df77207dbec7ce28", "is_reserved": 0}, {"is_disabled": 0, "fusion_lon": 0.0, "fusion_lat": 0.0, "lat": 38.923342, "type": "electric_scooter", "lon": -77.03580633333333, "bike_id": "d16d7e72eb42c9eb7a01fbfa1d3485d9", "rental_uris": {"android": "https://dc.lft.to/lastmile_qr_scan", "ios": "https://dc.lft.to/lastmile_qr_scan"}, "name": "d16d7e72eb42c9eb7a01fbfa1d3485d9", "is_reserved": 0}, {"is_disabled": 0, "fusion_lon": 0.0, "fusion_lat": 0.0, "lat": 38.9164815, "type": "electric_scooter", "lon": -77.038578, "bike_id": "a3d0aca539cce83beee7ef53a32748bd", "rental_uris": {"android": "https://dc.lft.to/lastmile_qr_scan", "ios": "https://dc.lft.to/lastmile_qr_scan"}, "name": "a3d0aca539cce83beee7ef53a32748bd", "is_reserved": 0}, {"is_disabled": 0, "fusion_lon": 0.0, "fusion_lat": 0.0, "lat": 38.928430166666665, "type": "electric_scooter", "lon": -77.0562375, "bike_id": "f9e4bedf8e55f31d08f9b44a6a75343c", "rental_uris": {"android": "https://dc.lft.to/lastmile_qr_scan", "ios": "https://dc.lft.to/lastmile_qr_scan"}, "name": "f9e4bedf8e55f31d08f9b44a6a75343c", "is_reserved": 0}, {"is_disabled": 0, "fusion_lon": 0.0, "fusion_lat": 0.0, "lat": 38.91702566666667, "type": "electric_scooter", "lon": -77.04302133333333, "bike_id": "e9caaf365b193432bc1fc30851a30219", "rental_uris": {"android": "https://dc.lft.to/lastmile_qr_scan", "ios": "https://dc.lft.to/lastmile_qr_scan"}, "name": "e9caaf365b193432bc1fc30851a30219", "is_reserved": 0}, {"is_disabled": 0, "fusion_lon": 0.0, "fusion_lat": 0.0, "lat": 38.94555716666667, "type": "electric_scooter", "lon": -77.04262533333333, "bike_id": "a9336d740aeef94becf27a6143f87984", "rental_uris": {"android": "https://dc.lft.to/lastmile_qr_scan", "ios": "https://dc.lft.to/lastmile_qr_scan"}, "name": "a9336d740aeef94becf27a6143f87984", "is_reserved": 0}, {"is_disabled": 0, "fusion_lon": 0.0, "fusion_lat": 0.0, "lat": 38.917967, "type": "electric_scooter", "lon": -77.0346265, "bike_id": "c453a97a7ec9d12734529d5bdcc6c2a7", "rental_uris": {"android": "https://dc.lft.to/lastmile_qr_scan", "ios": "https://dc.lft.to/lastmile_qr_scan"}, "name": "c453a97a7ec9d12734529d5bdcc6c2a7", "is_reserved": 0}, {"is_disabled": 0, "fusion_lon": 0.0, "fusion_lat": 0.0, "lat": 38.92959666666667, "type": "electric_scooter", "lon": -77.02337933333334, "bike_id": "1bcf2f5f43c07027b3ee830aadc9d4a1", "rental_uris": {"android": "https://dc.lft.to/lastmile_qr_scan", "ios": "https://dc.lft.to/lastmile_qr_scan"}, "name": "1bcf2f5f43c07027b3ee830aadc9d4a1", "is_reserved": 0}, {"is_disabled": 0, "fusion_lon": 0.0, "fusion_lat": 0.0, "lat": 38.904736166666666, "type": "electric_scooter", "lon": -77.0271875, "bike_id": "75d140df017f7d6811ad48205a497ab8", "rental_uris": {"android": "https://dc.lft.to/lastmile_qr_scan", "ios": "https://dc.lft.to/lastmile_qr_scan"}, "name": "75d140df017f7d6811ad48205a497ab8", "is_reserved": 0}, {"is_disabled": 0, "fusion_lon": 0.0, "fusion_lat": 0.0, "lat": 38.915071, "type": "electric_scooter", "lon": -76.98364266666667, "bike_id": "734d45770ff368f5a7ee17b2d2a7ff3a", "rental_uris": {"android": "https://dc.lft.to/lastmile_qr_scan", "ios": "https://dc.lft.to/lastmile_qr_scan"}, "name": "734d45770ff368f5a7ee17b2d2a7ff3a", "is_reserved": 0}, {"is_disabled": 0, "fusion_lon": 0.0, "fusion_lat": 0.0, "lat": 38.870838666666664, "type": "electric_bike", "lon": -77.012113, "bike_id": "a23f6ee3b1c85ae856c40013a7b6c140", "rental_uris": {"android": "https://dc.lft.to/lastmile_qr_scan", "ios": "https://dc.lft.to/lastmile_qr_scan"}, "name": "a23f6ee3b1c85ae856c40013a7b6c140", "is_reserved": 0}, {"is_disabled": 0, "fusion_lon": 0.0, "fusion_lat": 0.0, "lat": 38.87677433333333, "type": "electric_scooter", "lon": -77.01790833333334, "bike_id": "0842fa3c60db0bdf51c8d519a7629bf0", "rental_uris": {"android": "https://dc.lft.to/lastmile_qr_scan", "ios": "https://dc.lft.to/lastmile_qr_scan"}, "name": "0842fa3c60db0bdf51c8d519a7629bf0", "is_reserved": 0}, {"is_disabled": 0, "fusion_lon": 0.0, "fusion_lat": 0.0, "lat": 38.926759, "type": "electric_scooter", "lon": -77.0430065, "bike_id": "359d879c842dbca0b9105abd86efc83e", "rental_uris": {"android": "https://dc.lft.to/lastmile_qr_scan", "ios": "https://dc.lft.to/lastmile_qr_scan"}, "name": "359d879c842dbca0b9105abd86efc83e", "is_reserved": 0}, {"is_disabled": 0, "fusion_lon": 0.0, "fusion_lat": 0.0, "lat": 38.90569716666667, "type": "electric_scooter", "lon": -77.02464016666667, "bike_id": "ae4e6d7f9af41d97470c5c644f4f8db9", "rental_uris": {"android": "https://dc.lft.to/lastmile_qr_scan", "ios": "https://dc.lft.to/lastmile_qr_scan"}, "name": "ae4e6d7f9af41d97470c5c644f4f8db9", "is_reserved": 0}, {"is_disabled": 0, "fusion_lon": 0.0, "fusion_lat": 0.0, "lat": 38.9185655, "type": "electric_bike", "lon": -76.96088383333333, "bike_id": "e8d986f6572b9012dd2f979aa404c8a7", "rental_uris": {"android": "https://dc.lft.to/lastmile_qr_scan", "ios": "https://dc.lft.to/lastmile_qr_scan"}, "name": "e8d986f6572b9012dd2f979aa404c8a7", "is_reserved": 0}, {"is_disabled": 0, "fusion_lon": 0.0, "fusion_lat": 0.0, "lat": 38.91097716666667, "type": "electric_bike", "lon": -77.0876395, "bike_id": "3394e0ec0782289a1430a31dd1641258", "rental_uris": {"android": "https://dc.lft.to/lastmile_qr_scan", "ios": "https://dc.lft.to/lastmile_qr_scan"}, "name": "3394e0ec0782289a1430a31dd1641258", "is_reserved": 0}, {"is_disabled": 0, "fusion_lon": 0.0, "fusion_lat": 0.0, "lat": 38.94517466666667, "type": "electric_scooter", "lon": -77.02979083333334, "bike_id": "4da3033ce01b22a9b2d76340a4a2e58a", "rental_uris": {"android": "https://dc.lft.to/lastmile_qr_scan", "ios": "https://dc.lft.to/lastmile_qr_scan"}, "name": "4da3033ce01b22a9b2d76340a4a2e58a", "is_reserved": 0}, {"is_disabled": 0, "fusion_lon": 0.0, "fusion_lat": 0.0, "lat": 38.925656833333335, "type": "electric_scooter", "lon": -77.05263633333334, "bike_id": "3937225548c07f48a35c2578b0a3f1e9", "rental_uris": {"android": "https://dc.lft.to/lastmile_qr_scan", "ios": "https://dc.lft.to/lastmile_qr_scan"}, "name": "3937225548c07f48a35c2578b0a3f1e9", "is_reserved": 0}, {"is_disabled": 0, "fusion_lon": 0.0, "fusion_lat": 0.0, "lat": 38.918064333333334, "type": "electric_scooter", "lon": -77.03435916666666, "bike_id": "9e596759c37516daba2b357c374e4c1f", "rental_uris": {"android": "https://dc.lft.to/lastmile_qr_scan", "ios": "https://dc.lft.to/lastmile_qr_scan"}, "name": "9e596759c37516daba2b357c374e4c1f", "is_reserved": 0}, {"is_disabled": 0, "fusion_lon": 0.0, "fusion_lat": 0.0, "lat": 38.9025715, "type": "electric_scooter", "lon": -77.0542805, "bike_id": "0e258fe3d30529a6c733e91b0beb0519", "rental_uris": {"android": "https://dc.lft.to/lastmile_qr_scan", "ios": "https://dc.lft.to/lastmile_qr_scan"}, "name": "0e258fe3d30529a6c733e91b0beb0519", "is_reserved": 0}, {"is_disabled": 0, "fusion_lon": 0.0, "fusion_lat": 0.0, "lat": 38.883743833333334, "type": "electric_scooter", "lon": -76.92371416666667, "bike_id": "592a49534d3b40982c5bbad4afa26b09", "rental_uris": {"android": "https://dc.lft.to/lastmile_qr_scan", "ios": "https://dc.lft.to/lastmile_qr_scan"}, "name": "592a49534d3b40982c5bbad4afa26b09", "is_reserved": 0}, {"is_disabled": 0, "fusion_lon": 0.0, "fusion_lat": 0.0, "lat": 38.916325666666665, "type": "electric_scooter", "lon": -77.04088283333333, "bike_id": "280ecbb7b7ae30b8438a814392c27f05", "rental_uris": {"android": "https://dc.lft.to/lastmile_qr_scan", "ios": "https://dc.lft.to/lastmile_qr_scan"}, "name": "280ecbb7b7ae30b8438a814392c27f05", "is_reserved": 0}, {"is_disabled": 0, "fusion_lon": 0.0, "fusion_lat": 0.0, "lat": 38.91621266666667, "type": "electric_scooter", "lon": -77.03189083333334, "bike_id": "198c0c5bb03e658bcd4a671289cfe645", "rental_uris": {"android": "https://dc.lft.to/lastmile_qr_scan", "ios": "https://dc.lft.to/lastmile_qr_scan"}, "name": "198c0c5bb03e658bcd4a671289cfe645", "is_reserved": 0}, {"is_disabled": 0, "fusion_lon": 0.0, "fusion_lat": 0.0, "lat": 38.90722983333333, "type": "electric_scooter", "lon": -77.02867433333333, "bike_id": "ff645dbf324c4ac6a838d6665ee9f8b8", "rental_uris": {"android": "https://dc.lft.to/lastmile_qr_scan", "ios": "https://dc.lft.to/lastmile_qr_scan"}, "name": "ff645dbf324c4ac6a838d6665ee9f8b8", "is_reserved": 0}, {"is_disabled": 0, "fusion_lon": 0.0, "fusion_lat": 0.0, "lat": 38.9202735, "type": "electric_scooter", "lon": -77.038839, "bike_id": "393eb4195c199b4b80e21307d26335f8", "rental_uris": {"android": "https://dc.lft.to/lastmile_qr_scan", "ios": "https://dc.lft.to/lastmile_qr_scan"}, "name": "393eb4195c199b4b80e21307d26335f8", "is_reserved": 0}, {"is_disabled": 0, "fusion_lon": 0.0, "fusion_lat": 0.0, "lat": 38.933970333333335, "type": "electric_scooter", "lon": -77.03111366666667, "bike_id": "3098b19286dbfef050eaa59e739000fa", "rental_uris": {"android": "https://dc.lft.to/lastmile_qr_scan", "ios": "https://dc.lft.to/lastmile_qr_scan"}, "name": "3098b19286dbfef050eaa59e739000fa", "is_reserved": 0}, {"is_disabled": 0, "fusion_lon": 0.0, "fusion_lat": 0.0, "lat": 38.907017833333335, "type": "electric_scooter", "lon": -77.026924, "bike_id": "f6f70dfbcfcc96dbf315a81b17a4726b", "rental_uris": {"android": "https://dc.lft.to/lastmile_qr_scan", "ios": "https://dc.lft.to/lastmile_qr_scan"}, "name": "f6f70dfbcfcc96dbf315a81b17a4726b", "is_reserved": 0}, {"is_disabled": 0, "fusion_lon": 0.0, "fusion_lat": 0.0, "lat": 38.92031816666667, "type": "electric_scooter", "lon": -77.02587816666667, "bike_id": "844f7c3dbb10264d411c73f791a89475", "rental_uris": {"android": "https://dc.lft.to/lastmile_qr_scan", "ios": "https://dc.lft.to/lastmile_qr_scan"}, "name": "844f7c3dbb10264d411c73f791a89475", "is_reserved": 0}, {"is_disabled": 0, "fusion_lon": 0.0, "fusion_lat": 0.0, "lat": 38.9882895, "type": "electric_bike", "lon": -76.98754, "bike_id": "2502d36c2d8e9dee2b680e45cb468930", "rental_uris": {"android": "https://dc.lft.to/lastmile_qr_scan", "ios": "https://dc.lft.to/lastmile_qr_scan"}, "name": "2502d36c2d8e9dee2b680e45cb468930", "is_reserved": 0}, {"is_disabled": 0, "fusion_lon": 0.0, "fusion_lat": 0.0, "lat": 38.90028933333333, "type": "electric_scooter", "lon": -77.028922, "bike_id": "3aaff7e11d50f0774b0e78eb5f0f863f", "rental_uris": {"android": "https://dc.lft.to/lastmile_qr_scan", "ios": "https://dc.lft.to/lastmile_qr_scan"}, "name": "3aaff7e11d50f0774b0e78eb5f0f863f", "is_reserved": 0}, {"is_disabled": 0, "fusion_lon": 0.0, "fusion_lat": 0.0, "lat": 38.88509583333333, "type": "electric_scooter", "lon": -76.99849433333333, "bike_id": "e23688a0ed9b81b58dbffe4df6e90758", "rental_uris": {"android": "https://dc.lft.to/lastmile_qr_scan", "ios": "https://dc.lft.to/lastmile_qr_scan"}, "name": "e23688a0ed9b81b58dbffe4df6e90758", "is_reserved": 0}, {"is_disabled": 0, "fusion_lon": 0.0, "fusion_lat": 0.0, "lat": 38.879439166666664, "type": "electric_scooter", "lon": -77.013436, "bike_id": "3fb47a108f0e5c1dd103f2911fcc55a0", "rental_uris": {"android": "https://dc.lft.to/lastmile_qr_scan", "ios": "https://dc.lft.to/lastmile_qr_scan"}, "name": "3fb47a108f0e5c1dd103f2911fcc55a0", "is_reserved": 0}, {"is_disabled": 0, "fusion_lon": 0.0, "fusion_lat": 0.0, "lat": 38.897375833333335, "type": "electric_scooter", "lon": -77.009998, "bike_id": "42a9b5336f411ca2222a4133ef233712", "rental_uris": {"android": "https://dc.lft.to/lastmile_qr_scan", "ios": "https://dc.lft.to/lastmile_qr_scan"}, "name": "42a9b5336f411ca2222a4133ef233712", "is_reserved": 0}, {"is_disabled": 0, "fusion_lon": 0.0, "fusion_lat": 0.0, "lat": 38.91769383333333, "type": "electric_scooter", "lon": -77.0474345, "bike_id": "897fef1343d97fc56e79a1ff59ad4d1e", "rental_uris": {"android": "https://dc.lft.to/lastmile_qr_scan", "ios": "https://dc.lft.to/lastmile_qr_scan"}, "name": "897fef1343d97fc56e79a1ff59ad4d1e", "is_reserved": 0}, {"is_disabled": 0, "fusion_lon": 0.0, "fusion_lat": 0.0, "lat": 38.93468766666667, "type": "electric_scooter", "lon": -77.06880416666667, "bike_id": "abd28bed42ed930929a644257e3d907c", "rental_uris": {"android": "https://dc.lft.to/lastmile_qr_scan", "ios": "https://dc.lft.to/lastmile_qr_scan"}, "name": "abd28bed42ed930929a644257e3d907c", "is_reserved": 0}, {"is_disabled": 0, "fusion_lon": 0.0, "fusion_lat": 0.0, "lat": 38.894278, "type": "electric_scooter", "lon": -77.01100883333334, "bike_id": "4371c5041305d186e305a70b9b0bc93d", "rental_uris": {"android": "https://dc.lft.to/lastmile_qr_scan", "ios": "https://dc.lft.to/lastmile_qr_scan"}, "name": "4371c5041305d186e305a70b9b0bc93d", "is_reserved": 0}, {"is_disabled": 0, "fusion_lon": 0.0, "fusion_lat": 0.0, "lat": 38.91925783333333, "type": "electric_scooter", "lon": -77.03391433333333, "bike_id": "00d9aba6cff0b6491774f7daa5e78ed6", "rental_uris": {"android": "https://dc.lft.to/lastmile_qr_scan", "ios": "https://dc.lft.to/lastmile_qr_scan"}, "name": "00d9aba6cff0b6491774f7daa5e78ed6", "is_reserved": 0}, {"is_disabled": 0, "fusion_lon": 0.0, "fusion_lat": 0.0, "lat": 38.9036175, "type": "electric_scooter", "lon": -77.016272, "bike_id": "26fa98d7a1f9a3a7dfd400aec67e9c8e", "rental_uris": {"android": "https://dc.lft.to/lastmile_qr_scan", "ios": "https://dc.lft.to/lastmile_qr_scan"}, "name": "26fa98d7a1f9a3a7dfd400aec67e9c8e", "is_reserved": 0}, {"is_disabled": 0, "fusion_lon": 0.0, "fusion_lat": 0.0, "lat": 38.97262766666667, "type": "electric_bike", "lon": -76.99168866666666, "bike_id": "f205bef3d466d663b0ab25b19f5dbe2f", "rental_uris": {"android": "https://dc.lft.to/lastmile_qr_scan", "ios": "https://dc.lft.to/lastmile_qr_scan"}, "name": "f205bef3d466d663b0ab25b19f5dbe2f", "is_reserved": 0}, {"is_disabled": 0, "fusion_lon": 0.0, "fusion_lat": 0.0, "lat": 38.895201166666666, "type": "electric_scooter", "lon": -77.0108655, "bike_id": "8e0ebe1afff8ed9d3253e93ad2735171", "rental_uris": {"android": "https://dc.lft.to/lastmile_qr_scan", "ios": "https://dc.lft.to/lastmile_qr_scan"}, "name": "8e0ebe1afff8ed9d3253e93ad2735171", "is_reserved": 0}, {"is_disabled": 0, "fusion_lon": 0.0, "fusion_lat": 0.0, "lat": 38.83941433333333, "type": "electric_bike", "lon": -77.07903316666666, "bike_id": "388e4af0f377546040a7c045f0976635", "rental_uris": {"android": "https://dc.lft.to/lastmile_qr_scan", "ios": "https://dc.lft.to/lastmile_qr_scan"}, "name": "388e4af0f377546040a7c045f0976635", "is_reserved": 0}, {"is_disabled": 0, "fusion_lon": 0.0, "fusion_lat": 0.0, "lat": 38.86954183333334, "type": "electric_scooter", "lon": -76.9793795, "bike_id": "bb23562141824c296dc957ad565fd107", "rental_uris": {"android": "https://dc.lft.to/lastmile_qr_scan", "ios": "https://dc.lft.to/lastmile_qr_scan"}, "name": "bb23562141824c296dc957ad565fd107", "is_reserved": 0}, {"is_disabled": 0, "fusion_lon": 0.0, "fusion_lat": 0.0, "lat": 38.9255895, "type": "electric_scooter", "lon": -77.0256075, "bike_id": "d984c5a205e2baa67d087eed7e735076", "rental_uris": {"android": "https://dc.lft.to/lastmile_qr_scan", "ios": "https://dc.lft.to/lastmile_qr_scan"}, "name": "d984c5a205e2baa67d087eed7e735076", "is_reserved": 0}, {"is_disabled": 0, "fusion_lon": 0.0, "fusion_lat": 0.0, "lat": 38.918057166666664, "type": "electric_scooter", "lon": -77.02398416666666, "bike_id": "ec471704212c8327c414847c8a760751", "rental_uris": {"android": "https://dc.lft.to/lastmile_qr_scan", "ios": "https://dc.lft.to/lastmile_qr_scan"}, "name": "ec471704212c8327c414847c8a760751", "is_reserved": 0}, {"is_disabled": 0, "fusion_lon": 0.0, "fusion_lat": 0.0, "lat": 38.90670983333333, "type": "electric_scooter", "lon": -77.02711266666667, "bike_id": "a0c6ad543f6bc32f0d398c26c28cd2ef", "rental_uris": {"android": "https://dc.lft.to/lastmile_qr_scan", "ios": "https://dc.lft.to/lastmile_qr_scan"}, "name": "a0c6ad543f6bc32f0d398c26c28cd2ef", "is_reserved": 0}, {"is_disabled": 0, "fusion_lon": 0.0, "fusion_lat": 0.0, "lat": 38.92827183333333, "type": "electric_scooter", "lon": -77.0225645, "bike_id": "db47d1e5025e3b75b2dcfa6c9acb996d", "rental_uris": {"android": "https://dc.lft.to/lastmile_qr_scan", "ios": "https://dc.lft.to/lastmile_qr_scan"}, "name": "db47d1e5025e3b75b2dcfa6c9acb996d", "is_reserved": 0}, {"is_disabled": 0, "fusion_lon": 0.0, "fusion_lat": 0.0, "lat": 38.9038535, "type": "electric_scooter", "lon": -77.034326, "bike_id": "1b6d851bc05e0b26c2dd518b84a34562", "rental_uris": {"android": "https://dc.lft.to/lastmile_qr_scan", "ios": "https://dc.lft.to/lastmile_qr_scan"}, "name": "1b6d851bc05e0b26c2dd518b84a34562", "is_reserved": 0}, {"is_disabled": 0, "fusion_lon": 0.0, "fusion_lat": 0.0, "lat": 38.9263805, "type": "electric_bike", "lon": -77.03335833333334, "bike_id": "f646877fa348b5f8467165c27895a121", "rental_uris": {"android": "https://dc.lft.to/lastmile_qr_scan", "ios": "https://dc.lft.to/lastmile_qr_scan"}, "name": "f646877fa348b5f8467165c27895a121", "is_reserved": 0}, {"is_disabled": 0, "fusion_lon": 0.0, "fusion_lat": 0.0, "lat": 38.84895433333333, "type": "electric_scooter", "lon": -77.00521916666666, "bike_id": "c1c703d279eea311059a8362d307e515", "rental_uris": {"android": "https://dc.lft.to/lastmile_qr_scan", "ios": "https://dc.lft.to/lastmile_qr_scan"}, "name": "c1c703d279eea311059a8362d307e515", "is_reserved": 0}, {"is_disabled": 0, "fusion_lon": 0.0, "fusion_lat": 0.0, "lat": 38.98146466666667, "type": "electric_bike", "lon": -77.0077225, "bike_id": "d90e5817dd27275a41f57bc82fd60d5d", "rental_uris": {"android": "https://dc.lft.to/lastmile_qr_scan", "ios": "https://dc.lft.to/lastmile_qr_scan"}, "name": "d90e5817dd27275a41f57bc82fd60d5d", "is_reserved": 0}, {"is_disabled": 0, "fusion_lon": 0.0, "fusion_lat": 0.0, "lat": 38.86364016666667, "type": "electric_scooter", "lon": -76.99064583333333, "bike_id": "cdd3ebb62b7f878a6808e119939b88cc", "rental_uris": {"android": "https://dc.lft.to/lastmile_qr_scan", "ios": "https://dc.lft.to/lastmile_qr_scan"}, "name": "cdd3ebb62b7f878a6808e119939b88cc", "is_reserved": 0}, {"is_disabled": 0, "fusion_lon": 0.0, "fusion_lat": 0.0, "lat": 38.8992465, "type": "electric_scooter", "lon": -77.039137, "bike_id": "3475f37821fcfd8b550904fd43f8ad1c", "rental_uris": {"android": "https://dc.lft.to/lastmile_qr_scan", "ios": "https://dc.lft.to/lastmile_qr_scan"}, "name": "3475f37821fcfd8b550904fd43f8ad1c", "is_reserved": 0}, {"is_disabled": 0, "fusion_lon": 0.0, "fusion_lat": 0.0, "lat": 38.91413766666667, "type": "electric_scooter", "lon": -77.035814, "bike_id": "b865c391debcd652996fe258dbb89ae4", "rental_uris": {"android": "https://dc.lft.to/lastmile_qr_scan", "ios": "https://dc.lft.to/lastmile_qr_scan"}, "name": "b865c391debcd652996fe258dbb89ae4", "is_reserved": 0}, {"is_disabled": 0, "fusion_lon": 0.0, "fusion_lat": 0.0, "lat": 38.931012, "type": "electric_scooter", "lon": -77.0247135, "bike_id": "3870350ff5e17e1b5768f43e61393dd0", "rental_uris": {"android": "https://dc.lft.to/lastmile_qr_scan", "ios": "https://dc.lft.to/lastmile_qr_scan"}, "name": "3870350ff5e17e1b5768f43e61393dd0", "is_reserved": 0}, {"is_disabled": 0, "fusion_lon": 0.0, "fusion_lat": 0.0, "lat": 38.905872, "type": "electric_scooter", "lon": -77.05103983333333, "bike_id": "192d9b6269a5ef504c7661212165f686", "rental_uris": {"android": "https://dc.lft.to/lastmile_qr_scan", "ios": "https://dc.lft.to/lastmile_qr_scan"}, "name": "192d9b6269a5ef504c7661212165f686", "is_reserved": 0}, {"is_disabled": 0, "fusion_lon": 0.0, "fusion_lat": 0.0, "lat": 38.93551466666667, "type": "electric_scooter", "lon": -77.0580575, "bike_id": "57ff5772e3745606ed7be4cb33a9148f", "rental_uris": {"android": "https://dc.lft.to/lastmile_qr_scan", "ios": "https://dc.lft.to/lastmile_qr_scan"}, "name": "57ff5772e3745606ed7be4cb33a9148f", "is_reserved": 0}, {"is_disabled": 0, "fusion_lon": 0.0, "fusion_lat": 0.0, "lat": 38.8777805, "type": "electric_scooter", "lon": -77.01437216666666, "bike_id": "febb53f36e6761b64b568847e81cab3f", "rental_uris": {"android": "https://dc.lft.to/lastmile_qr_scan", "ios": "https://dc.lft.to/lastmile_qr_scan"}, "name": "febb53f36e6761b64b568847e81cab3f", "is_reserved": 0}, {"is_disabled": 0, "fusion_lon": 0.0, "fusion_lat": 0.0, "lat": 38.89837133333333, "type": "electric_scooter", "lon": -77.00746766666667, "bike_id": "56834877f3f1b2ee522548c533f3471c", "rental_uris": {"android": "https://dc.lft.to/lastmile_qr_scan", "ios": "https://dc.lft.to/lastmile_qr_scan"}, "name": "56834877f3f1b2ee522548c533f3471c", "is_reserved": 0}, {"is_disabled": 0, "fusion_lon": 0.0, "fusion_lat": 0.0, "lat": 38.89366483333333, "type": "electric_scooter", "lon": -77.02264466666666, "bike_id": "e27c5e02080e147bfd75a4cea525f430", "rental_uris": {"android": "https://dc.lft.to/lastmile_qr_scan", "ios": "https://dc.lft.to/lastmile_qr_scan"}, "name": "e27c5e02080e147bfd75a4cea525f430", "is_reserved": 0}, {"is_disabled": 0, "fusion_lon": 0.0, "fusion_lat": 0.0, "lat": 38.9071105, "type": "electric_scooter", "lon": -77.03065716666667, "bike_id": "7583662403a3db4b3e5c571d4827c3e1", "rental_uris": {"android": "https://dc.lft.to/lastmile_qr_scan", "ios": "https://dc.lft.to/lastmile_qr_scan"}, "name": "7583662403a3db4b3e5c571d4827c3e1", "is_reserved": 0}, {"is_disabled": 0, "fusion_lon": 0.0, "fusion_lat": 0.0, "lat": 38.905566666666665, "type": "electric_scooter", "lon": -77.03010066666667, "bike_id": "0a629132566e5ffafcec572311d78977", "rental_uris": {"android": "https://dc.lft.to/lastmile_qr_scan", "ios": "https://dc.lft.to/lastmile_qr_scan"}, "name": "0a629132566e5ffafcec572311d78977", "is_reserved": 0}, {"is_disabled": 0, "fusion_lon": 0.0, "fusion_lat": 0.0, "lat": 38.88862116666667, "type": "electric_scooter", "lon": -76.977369, "bike_id": "83961baceef5a813e902836649333df3", "rental_uris": {"android": "https://dc.lft.to/lastmile_qr_scan", "ios": "https://dc.lft.to/lastmile_qr_scan"}, "name": "83961baceef5a813e902836649333df3", "is_reserved": 0}, {"is_disabled": 0, "fusion_lon": 0.0, "fusion_lat": 0.0, "lat": 38.9312785, "type": "electric_scooter", "lon": -77.05710733333333, "bike_id": "33b1aa5bf0cc9ffc2068a1e625f17d48", "rental_uris": {"android": "https://dc.lft.to/lastmile_qr_scan", "ios": "https://dc.lft.to/lastmile_qr_scan"}, "name": "33b1aa5bf0cc9ffc2068a1e625f17d48", "is_reserved": 0}, {"is_disabled": 0, "fusion_lon": 0.0, "fusion_lat": 0.0, "lat": 38.906723666666664, "type": "electric_scooter", "lon": -77.0271125, "bike_id": "fe558da531c7c2cfda48ebe152983c1e", "rental_uris": {"android": "https://dc.lft.to/lastmile_qr_scan", "ios": "https://dc.lft.to/lastmile_qr_scan"}, "name": "fe558da531c7c2cfda48ebe152983c1e", "is_reserved": 0}, {"is_disabled": 0, "fusion_lon": 0.0, "fusion_lat": 0.0, "lat": 38.9024, "type": "electric_scooter", "lon": -77.01893766666667, "bike_id": "a52f1f432a0eddf90552d432e53e0b79", "rental_uris": {"android": "https://dc.lft.to/lastmile_qr_scan", "ios": "https://dc.lft.to/lastmile_qr_scan"}, "name": "a52f1f432a0eddf90552d432e53e0b79", "is_reserved": 0}, {"is_disabled": 0, "fusion_lon": 0.0, "fusion_lat": 0.0, "lat": 38.8963975, "type": "electric_scooter", "lon": -77.04325516666667, "bike_id": "2f6c7d545170a8607aa81ebd23c20bd0", "rental_uris": {"android": "https://dc.lft.to/lastmile_qr_scan", "ios": "https://dc.lft.to/lastmile_qr_scan"}, "name": "2f6c7d545170a8607aa81ebd23c20bd0", "is_reserved": 0}, {"is_disabled": 0, "fusion_lon": 0.0, "fusion_lat": 0.0, "lat": 38.91197016666667, "type": "electric_scooter", "lon": -77.01211766666667, "bike_id": "06c6aa1f25b7735ceede58ce1cafcfd0", "rental_uris": {"android": "https://dc.lft.to/lastmile_qr_scan", "ios": "https://dc.lft.to/lastmile_qr_scan"}, "name": "06c6aa1f25b7735ceede58ce1cafcfd0", "is_reserved": 0}, {"is_disabled": 0, "fusion_lon": 0.0, "fusion_lat": 0.0, "lat": 38.827299833333335, "type": "electric_bike", "lon": -77.00865133333333, "bike_id": "806619c5479ecf31305a380c23a2b40f", "rental_uris": {"android": "https://dc.lft.to/lastmile_qr_scan", "ios": "https://dc.lft.to/lastmile_qr_scan"}, "name": "806619c5479ecf31305a380c23a2b40f", "is_reserved": 0}, {"is_disabled": 0, "fusion_lon": 0.0, "fusion_lat": 0.0, "lat": 38.92085066666667, "type": "electric_bike", "lon": -77.00339183333334, "bike_id": "97553d0c6a80e5c7ccfd2e350e19aa08", "rental_uris": {"android": "https://dc.lft.to/lastmile_qr_scan", "ios": "https://dc.lft.to/lastmile_qr_scan"}, "name": "97553d0c6a80e5c7ccfd2e350e19aa08", "is_reserved": 0}, {"is_disabled": 0, "fusion_lon": 0.0, "fusion_lat": 0.0, "lat": 38.90619233333334, "type": "electric_scooter", "lon": -77.02802916666667, "bike_id": "7f5e9e9a3319eb90ac9569e002b5289e", "rental_uris": {"android": "https://dc.lft.to/lastmile_qr_scan", "ios": "https://dc.lft.to/lastmile_qr_scan"}, "name": "7f5e9e9a3319eb90ac9569e002b5289e", "is_reserved": 0}, {"is_disabled": 0, "fusion_lon": 0.0, "fusion_lat": 0.0, "lat": 38.9352435, "type": "electric_scooter", "lon": -77.02377433333334, "bike_id": "ef9f5e1c8f84348f86b5431aec674ba8", "rental_uris": {"android": "https://dc.lft.to/lastmile_qr_scan", "ios": "https://dc.lft.to/lastmile_qr_scan"}, "name": "ef9f5e1c8f84348f86b5431aec674ba8", "is_reserved": 0}, {"is_disabled": 0, "fusion_lon": 0.0, "fusion_lat": 0.0, "lat": 38.89723866666667, "type": "electric_scooter", "lon": -77.02695783333333, "bike_id": "9f136cfedfc0f0d503acbcaa8d770dd5", "rental_uris": {"android": "https://dc.lft.to/lastmile_qr_scan", "ios": "https://dc.lft.to/lastmile_qr_scan"}, "name": "9f136cfedfc0f0d503acbcaa8d770dd5", "is_reserved": 0}, {"is_disabled": 0, "fusion_lon": 0.0, "fusion_lat": 0.0, "lat": 38.914798166666664, "type": "electric_bike", "lon": -77.0092165, "bike_id": "bebb2f0aeb0ae046fc870f4d5bcf2027", "rental_uris": {"android": "https://dc.lft.to/lastmile_qr_scan", "ios": "https://dc.lft.to/lastmile_qr_scan"}, "name": "bebb2f0aeb0ae046fc870f4d5bcf2027", "is_reserved": 0}, {"is_disabled": 0, "fusion_lon": 0.0, "fusion_lat": 0.0, "lat": 38.896244833333334, "type": "electric_scooter", "lon": -76.95637116666667, "bike_id": "2da6fe4e5f540cd157773e4eb179cad2", "rental_uris": {"android": "https://dc.lft.to/lastmile_qr_scan", "ios": "https://dc.lft.to/lastmile_qr_scan"}, "name": "2da6fe4e5f540cd157773e4eb179cad2", "is_reserved": 0}, {"is_disabled": 0, "fusion_lon": 0.0, "fusion_lat": 0.0, "lat": 38.93191816666667, "type": "electric_bike", "lon": -77.22941716666666, "bike_id": "d0580840a7642f7cf8c7b8060727add3", "rental_uris": {"android": "https://dc.lft.to/lastmile_qr_scan", "ios": "https://dc.lft.to/lastmile_qr_scan"}, "name": "d0580840a7642f7cf8c7b8060727add3", "is_reserved": 0}, {"is_disabled": 0, "fusion_lon": 0.0, "fusion_lat": 0.0, "lat": 38.950795, "type": "electric_scooter", "lon": -77.02873866666667, "bike_id": "7caee14549f236fc7999b19f67f04a2e", "rental_uris": {"android": "https://dc.lft.to/lastmile_qr_scan", "ios": "https://dc.lft.to/lastmile_qr_scan"}, "name": "7caee14549f236fc7999b19f67f04a2e", "is_reserved": 0}, {"is_disabled": 0, "fusion_lon": 0.0, "fusion_lat": 0.0, "lat": 38.917592, "type": "electric_scooter", "lon": -77.03607533333333, "bike_id": "f93f787defebe826ad5916187ff74814", "rental_uris": {"android": "https://dc.lft.to/lastmile_qr_scan", "ios": "https://dc.lft.to/lastmile_qr_scan"}, "name": "f93f787defebe826ad5916187ff74814", "is_reserved": 0}, {"is_disabled": 0, "fusion_lon": 0.0, "fusion_lat": 0.0, "lat": 38.91881816666667, "type": "electric_scooter", "lon": -77.01595383333333, "bike_id": "379c3a2c5767a609888e20b83e668baf", "rental_uris": {"android": "https://dc.lft.to/lastmile_qr_scan", "ios": "https://dc.lft.to/lastmile_qr_scan"}, "name": "379c3a2c5767a609888e20b83e668baf", "is_reserved": 0}, {"is_disabled": 0, "fusion_lon": 0.0, "fusion_lat": 0.0, "lat": 38.92056133333333, "type": "electric_scooter", "lon": -76.998785, "bike_id": "789539d1ea0fd7212c6b0196032f237d", "rental_uris": {"android": "https://dc.lft.to/lastmile_qr_scan", "ios": "https://dc.lft.to/lastmile_qr_scan"}, "name": "789539d1ea0fd7212c6b0196032f237d", "is_reserved": 0}, {"is_disabled": 0, "fusion_lon": 0.0, "fusion_lat": 0.0, "lat": 38.883762, "type": "electric_scooter", "lon": -76.92645716666667, "bike_id": "91e79243426611a7345fe60d3dcbf65b", "rental_uris": {"android": "https://dc.lft.to/lastmile_qr_scan", "ios": "https://dc.lft.to/lastmile_qr_scan"}, "name": "91e79243426611a7345fe60d3dcbf65b", "is_reserved": 0}, {"is_disabled": 0, "fusion_lon": 0.0, "fusion_lat": 0.0, "lat": 38.99251833333334, "type": "electric_bike", "lon": -77.04996866666667, "bike_id": "76bdfbee6f9540821556cabd2fe75745", "rental_uris": {"android": "https://dc.lft.to/lastmile_qr_scan", "ios": "https://dc.lft.to/lastmile_qr_scan"}, "name": "76bdfbee6f9540821556cabd2fe75745", "is_reserved": 0}, {"is_disabled": 0, "fusion_lon": 0.0, "fusion_lat": 0.0, "lat": 38.93630016666667, "type": "electric_scooter", "lon": -77.02461283333334, "bike_id": "1084b4ae60b068ee941b0e1bef62e0f1", "rental_uris": {"android": "https://dc.lft.to/lastmile_qr_scan", "ios": "https://dc.lft.to/lastmile_qr_scan"}, "name": "1084b4ae60b068ee941b0e1bef62e0f1", "is_reserved": 0}, {"is_disabled": 0, "fusion_lon": 0.0, "fusion_lat": 0.0, "lat": 38.84508433333333, "type": "electric_bike", "lon": -76.9721375, "bike_id": "4566131234fe4d78350c1f032144819a", "rental_uris": {"android": "https://dc.lft.to/lastmile_qr_scan", "ios": "https://dc.lft.to/lastmile_qr_scan"}, "name": "4566131234fe4d78350c1f032144819a", "is_reserved": 0}, {"is_disabled": 0, "fusion_lon": 0.0, "fusion_lat": 0.0, "lat": 38.91662983333333, "type": "electric_scooter", "lon": -77.028067, "bike_id": "82a3d8f033939d61621cb1e95ad78c06", "rental_uris": {"android": "https://dc.lft.to/lastmile_qr_scan", "ios": "https://dc.lft.to/lastmile_qr_scan"}, "name": "82a3d8f033939d61621cb1e95ad78c06", "is_reserved": 0}, {"is_disabled": 0, "fusion_lon": 0.0, "fusion_lat": 0.0, "lat": 38.90713616666667, "type": "electric_scooter", "lon": -77.02714583333334, "bike_id": "6f92d68b6fde2da141a918d82485b59d", "rental_uris": {"android": "https://dc.lft.to/lastmile_qr_scan", "ios": "https://dc.lft.to/lastmile_qr_scan"}, "name": "6f92d68b6fde2da141a918d82485b59d", "is_reserved": 0}, {"is_disabled": 0, "fusion_lon": 0.0, "fusion_lat": 0.0, "lat": 38.9142765, "type": "electric_scooter", "lon": -77.0140985, "bike_id": "3c9cb9442c9fe7905c40813e68b1ce24", "rental_uris": {"android": "https://dc.lft.to/lastmile_qr_scan", "ios": "https://dc.lft.to/lastmile_qr_scan"}, "name": "3c9cb9442c9fe7905c40813e68b1ce24", "is_reserved": 0}, {"is_disabled": 0, "fusion_lon": 0.0, "fusion_lat": 0.0, "lat": 38.90578266666667, "type": "electric_scooter", "lon": -77.0259985, "bike_id": "a15deaad757b290efce4aa44450a3170", "rental_uris": {"android": "https://dc.lft.to/lastmile_qr_scan", "ios": "https://dc.lft.to/lastmile_qr_scan"}, "name": "a15deaad757b290efce4aa44450a3170", "is_reserved": 0}, {"is_disabled": 0, "fusion_lon": 0.0, "fusion_lat": 0.0, "lat": 38.916945, "type": "electric_scooter", "lon": -77.00643883333333, "bike_id": "b0631613f406afd37e2c47509fe09d57", "rental_uris": {"android": "https://dc.lft.to/lastmile_qr_scan", "ios": "https://dc.lft.to/lastmile_qr_scan"}, "name": "b0631613f406afd37e2c47509fe09d57", "is_reserved": 0}, {"is_disabled": 0, "fusion_lon": 0.0, "fusion_lat": 0.0, "lat": 38.86598333333333, "type": "electric_bike", "lon": -76.93214283333333, "bike_id": "14b87a70a988b43f1da94966654646e0", "rental_uris": {"android": "https://dc.lft.to/lastmile_qr_scan", "ios": "https://dc.lft.to/lastmile_qr_scan"}, "name": "14b87a70a988b43f1da94966654646e0", "is_reserved": 0}, {"is_disabled": 0, "fusion_lon": 0.0, "fusion_lat": 0.0, "lat": 38.8521035, "type": "electric_bike", "lon": -77.12762233333333, "bike_id": "ce472cdd592a61b4e2ed1ec592c0bda4", "rental_uris": {"android": "https://dc.lft.to/lastmile_qr_scan", "ios": "https://dc.lft.to/lastmile_qr_scan"}, "name": "ce472cdd592a61b4e2ed1ec592c0bda4", "is_reserved": 0}, {"is_disabled": 0, "fusion_lon": 0.0, "fusion_lat": 0.0, "lat": 38.892509, "type": "electric_scooter", "lon": -76.99850966666666, "bike_id": "51d214254d59d0936fb2ed21bdc04910", "rental_uris": {"android": "https://dc.lft.to/lastmile_qr_scan", "ios": "https://dc.lft.to/lastmile_qr_scan"}, "name": "51d214254d59d0936fb2ed21bdc04910", "is_reserved": 0}, {"is_disabled": 0, "fusion_lon": 0.0, "fusion_lat": 0.0, "lat": 38.9029415, "type": "electric_scooter", "lon": -77.0507235, "bike_id": "fb0129e9aaaaa1cd6cb92e9785d9fdc9", "rental_uris": {"android": "https://dc.lft.to/lastmile_qr_scan", "ios": "https://dc.lft.to/lastmile_qr_scan"}, "name": "fb0129e9aaaaa1cd6cb92e9785d9fdc9", "is_reserved": 0}, {"is_disabled": 0, "fusion_lon": 0.0, "fusion_lat": 0.0, "lat": 38.92695833333333, "type": "electric_scooter", "lon": -77.03770866666666, "bike_id": "290030f794cbb0d029db9aa8d1103d9b", "rental_uris": {"android": "https://dc.lft.to/lastmile_qr_scan", "ios": "https://dc.lft.to/lastmile_qr_scan"}, "name": "290030f794cbb0d029db9aa8d1103d9b", "is_reserved": 0}, {"is_disabled": 0, "fusion_lon": 0.0, "fusion_lat": 0.0, "lat": 38.93609133333333, "type": "electric_scooter", "lon": -77.058608, "bike_id": "298e6328e317f28a753c772e026b0394", "rental_uris": {"android": "https://dc.lft.to/lastmile_qr_scan", "ios": "https://dc.lft.to/lastmile_qr_scan"}, "name": "298e6328e317f28a753c772e026b0394", "is_reserved": 0}, {"is_disabled": 0, "fusion_lon": 0.0, "fusion_lat": 0.0, "lat": 38.89751483333333, "type": "electric_scooter", "lon": -77.05165216666667, "bike_id": "2b9f8a4725b7b783cee0549dbb507a9e", "rental_uris": {"android": "https://dc.lft.to/lastmile_qr_scan", "ios": "https://dc.lft.to/lastmile_qr_scan"}, "name": "2b9f8a4725b7b783cee0549dbb507a9e", "is_reserved": 0}, {"is_disabled": 0, "fusion_lon": 0.0, "fusion_lat": 0.0, "lat": 38.94496616666667, "type": "electric_bike", "lon": -77.0067555, "bike_id": "a1c2190daee4420d215d4b6cf257a735", "rental_uris": {"android": "https://dc.lft.to/lastmile_qr_scan", "ios": "https://dc.lft.to/lastmile_qr_scan"}, "name": "a1c2190daee4420d215d4b6cf257a735", "is_reserved": 0}, {"is_disabled": 0, "fusion_lon": 0.0, "fusion_lat": 0.0, "lat": 38.900323, "type": "electric_scooter", "lon": -76.99169183333333, "bike_id": "8c199937a1ffbb7fa37545053527742d", "rental_uris": {"android": "https://dc.lft.to/lastmile_qr_scan", "ios": "https://dc.lft.to/lastmile_qr_scan"}, "name": "8c199937a1ffbb7fa37545053527742d", "is_reserved": 0}, {"is_disabled": 0, "fusion_lon": 0.0, "fusion_lat": 0.0, "lat": 38.9111055, "type": "electric_scooter", "lon": -77.04500083333333, "bike_id": "2652fcc6940de061eedfe0286ba52733", "rental_uris": {"android": "https://dc.lft.to/lastmile_qr_scan", "ios": "https://dc.lft.to/lastmile_qr_scan"}, "name": "2652fcc6940de061eedfe0286ba52733", "is_reserved": 0}, {"is_disabled": 0, "fusion_lon": 0.0, "fusion_lat": 0.0, "lat": 38.95631733333333, "type": "electric_scooter", "lon": -77.0297495, "bike_id": "3175d68cc4174ebb0bfd86aeca795d4c", "rental_uris": {"android": "https://dc.lft.to/lastmile_qr_scan", "ios": "https://dc.lft.to/lastmile_qr_scan"}, "name": "3175d68cc4174ebb0bfd86aeca795d4c", "is_reserved": 0}, {"is_disabled": 0, "fusion_lon": 0.0, "fusion_lat": 0.0, "lat": 38.84600616666667, "type": "electric_bike", "lon": -76.9688475, "bike_id": "7b360f750c99769a6d82010e54b314a1", "rental_uris": {"android": "https://dc.lft.to/lastmile_qr_scan", "ios": "https://dc.lft.to/lastmile_qr_scan"}, "name": "7b360f750c99769a6d82010e54b314a1", "is_reserved": 0}, {"is_disabled": 0, "fusion_lon": 0.0, "fusion_lat": 0.0, "lat": 38.8950795, "type": "electric_scooter", "lon": -77.01606066666666, "bike_id": "9338b4311dfe47041e1030bf87265998", "rental_uris": {"android": "https://dc.lft.to/lastmile_qr_scan", "ios": "https://dc.lft.to/lastmile_qr_scan"}, "name": "9338b4311dfe47041e1030bf87265998", "is_reserved": 0}, {"is_disabled": 0, "fusion_lon": 0.0, "fusion_lat": 0.0, "lat": 38.899035, "type": "electric_scooter", "lon": -76.93389866666666, "bike_id": "f3b66c1662e03b259798c9e98d6d3cba", "rental_uris": {"android": "https://dc.lft.to/lastmile_qr_scan", "ios": "https://dc.lft.to/lastmile_qr_scan"}, "name": "f3b66c1662e03b259798c9e98d6d3cba", "is_reserved": 0}, {"is_disabled": 0, "fusion_lon": 0.0, "fusion_lat": 0.0, "lat": 38.927530833333336, "type": "electric_scooter", "lon": -77.0759645, "bike_id": "f4263a603af07acca8280e8fe0ed4b51", "rental_uris": {"android": "https://dc.lft.to/lastmile_qr_scan", "ios": "https://dc.lft.to/lastmile_qr_scan"}, "name": "f4263a603af07acca8280e8fe0ed4b51", "is_reserved": 0}, {"is_disabled": 0, "fusion_lon": 0.0, "fusion_lat": 0.0, "lat": 38.9212305, "type": "electric_scooter", "lon": -77.0121105, "bike_id": "f50b00c3d562dcc14a12ec1753423566", "rental_uris": {"android": "https://dc.lft.to/lastmile_qr_scan", "ios": "https://dc.lft.to/lastmile_qr_scan"}, "name": "f50b00c3d562dcc14a12ec1753423566", "is_reserved": 0}, {"is_disabled": 0, "fusion_lon": 0.0, "fusion_lat": 0.0, "lat": 38.95962183333333, "type": "electric_scooter", "lon": -77.02108783333334, "bike_id": "d1b4f13b51667a50c0b78129f8371621", "rental_uris": {"android": "https://dc.lft.to/lastmile_qr_scan", "ios": "https://dc.lft.to/lastmile_qr_scan"}, "name": "d1b4f13b51667a50c0b78129f8371621", "is_reserved": 0}, {"is_disabled": 0, "fusion_lon": 0.0, "fusion_lat": 0.0, "lat": 38.907562166666665, "type": "electric_scooter", "lon": -77.0360375, "bike_id": "98ad53f7e23d686623996338cb280e32", "rental_uris": {"android": "https://dc.lft.to/lastmile_qr_scan", "ios": "https://dc.lft.to/lastmile_qr_scan"}, "name": "98ad53f7e23d686623996338cb280e32", "is_reserved": 0}, {"is_disabled": 0, "fusion_lon": 0.0, "fusion_lat": 0.0, "lat": 38.935613000000004, "type": "electric_scooter", "lon": -77.0819795, "bike_id": "38f3f6a3cf9b23cedc6e2fd1644bf485", "rental_uris": {"android": "https://dc.lft.to/lastmile_qr_scan", "ios": "https://dc.lft.to/lastmile_qr_scan"}, "name": "38f3f6a3cf9b23cedc6e2fd1644bf485", "is_reserved": 0}, {"is_disabled": 0, "fusion_lon": 0.0, "fusion_lat": 0.0, "lat": 38.883609166666666, "type": "electric_bike", "lon": -77.03063483333334, "bike_id": "488a6a89c4b05da1acbf39cb1d619648", "rental_uris": {"android": "https://dc.lft.to/lastmile_qr_scan", "ios": "https://dc.lft.to/lastmile_qr_scan"}, "name": "488a6a89c4b05da1acbf39cb1d619648", "is_reserved": 0}, {"is_disabled": 0, "fusion_lon": 0.0, "fusion_lat": 0.0, "lat": 38.906352, "type": "electric_scooter", "lon": -77.025009, "bike_id": "b9aedd123f1d320f08d50bf02487f01f", "rental_uris": {"android": "https://dc.lft.to/lastmile_qr_scan", "ios": "https://dc.lft.to/lastmile_qr_scan"}, "name": "b9aedd123f1d320f08d50bf02487f01f", "is_reserved": 0}, {"is_disabled": 0, "fusion_lon": 0.0, "fusion_lat": 0.0, "lat": 38.89850366666667, "type": "electric_scooter", "lon": -76.94562333333333, "bike_id": "97edb6b1d00996d21d692a0058e52016", "rental_uris": {"android": "https://dc.lft.to/lastmile_qr_scan", "ios": "https://dc.lft.to/lastmile_qr_scan"}, "name": "97edb6b1d00996d21d692a0058e52016", "is_reserved": 0}, {"is_disabled": 0, "fusion_lon": 0.0, "fusion_lat": 0.0, "lat": 38.8950315, "type": "electric_scooter", "lon": -76.94878033333333, "bike_id": "414251659bfd64125cf1e4c780641299", "rental_uris": {"android": "https://dc.lft.to/lastmile_qr_scan", "ios": "https://dc.lft.to/lastmile_qr_scan"}, "name": "414251659bfd64125cf1e4c780641299", "is_reserved": 0}, {"is_disabled": 0, "fusion_lon": 0.0, "fusion_lat": 0.0, "lat": 38.8603125, "type": "electric_scooter", "lon": -76.99692766666666, "bike_id": "fe1c34bb6395d4bc5dbe06ade4a65ff4", "rental_uris": {"android": "https://dc.lft.to/lastmile_qr_scan", "ios": "https://dc.lft.to/lastmile_qr_scan"}, "name": "fe1c34bb6395d4bc5dbe06ade4a65ff4", "is_reserved": 0}, {"is_disabled": 0, "fusion_lon": 0.0, "fusion_lat": 0.0, "lat": 38.99936366666667, "type": "electric_bike", "lon": -77.00123433333333, "bike_id": "06e8bab410a514d8c7b577b26d085a67", "rental_uris": {"android": "https://dc.lft.to/lastmile_qr_scan", "ios": "https://dc.lft.to/lastmile_qr_scan"}, "name": "06e8bab410a514d8c7b577b26d085a67", "is_reserved": 0}, {"is_disabled": 0, "fusion_lon": 0.0, "fusion_lat": 0.0, "lat": 39.09589533333333, "type": "electric_bike", "lon": -77.147773, "bike_id": "3f54df84378f0f242262e1103b0fc92b", "rental_uris": {"android": "https://dc.lft.to/lastmile_qr_scan", "ios": "https://dc.lft.to/lastmile_qr_scan"}, "name": "3f54df84378f0f242262e1103b0fc92b", "is_reserved": 0}, {"is_disabled": 0, "fusion_lon": 0.0, "fusion_lat": 0.0, "lat": 38.85561366666667, "type": "electric_bike", "lon": -77.107053, "bike_id": "c4c1d81a3224fbe3ca6c62a633b8850f", "rental_uris": {"android": "https://dc.lft.to/lastmile_qr_scan", "ios": "https://dc.lft.to/lastmile_qr_scan"}, "name": "c4c1d81a3224fbe3ca6c62a633b8850f", "is_reserved": 0}, {"is_disabled": 0, "fusion_lon": 0.0, "fusion_lat": 0.0, "lat": 38.91937033333333, "type": "electric_scooter", "lon": -77.08129133333334, "bike_id": "b49c4b93ce3ffbb53c77dbee2313ceed", "rental_uris": {"android": "https://dc.lft.to/lastmile_qr_scan", "ios": "https://dc.lft.to/lastmile_qr_scan"}, "name": "b49c4b93ce3ffbb53c77dbee2313ceed", "is_reserved": 0}, {"is_disabled": 0, "fusion_lon": 0.0, "fusion_lat": 0.0, "lat": 38.916069666666665, "type": "electric_scooter", "lon": -77.04859066666667, "bike_id": "cd77261f190903cb993b0212fef9cd1a", "rental_uris": {"android": "https://dc.lft.to/lastmile_qr_scan", "ios": "https://dc.lft.to/lastmile_qr_scan"}, "name": "cd77261f190903cb993b0212fef9cd1a", "is_reserved": 0}, {"is_disabled": 0, "fusion_lon": 0.0, "fusion_lat": 0.0, "lat": 38.9232395, "type": "electric_scooter", "lon": -77.04524233333333, "bike_id": "1cd216fc6bfa3fab86e2ea9845ab8a35", "rental_uris": {"android": "https://dc.lft.to/lastmile_qr_scan", "ios": "https://dc.lft.to/lastmile_qr_scan"}, "name": "1cd216fc6bfa3fab86e2ea9845ab8a35", "is_reserved": 0}, {"is_disabled": 0, "fusion_lon": 0.0, "fusion_lat": 0.0, "lat": 38.85915, "type": "electric_scooter", "lon": -76.98786716666666, "bike_id": "be09c634071cdf58ebf43289e444849d", "rental_uris": {"android": "https://dc.lft.to/lastmile_qr_scan", "ios": "https://dc.lft.to/lastmile_qr_scan"}, "name": "be09c634071cdf58ebf43289e444849d", "is_reserved": 0}, {"is_disabled": 0, "fusion_lon": 0.0, "fusion_lat": 0.0, "lat": 38.926063666666664, "type": "electric_scooter", "lon": -77.02155133333333, "bike_id": "afb33efd8c0e3feb3f31aa8e53d4f016", "rental_uris": {"android": "https://dc.lft.to/lastmile_qr_scan", "ios": "https://dc.lft.to/lastmile_qr_scan"}, "name": "afb33efd8c0e3feb3f31aa8e53d4f016", "is_reserved": 0}, {"is_disabled": 0, "fusion_lon": 0.0, "fusion_lat": 0.0, "lat": 38.902681, "type": "electric_scooter", "lon": -77.016839, "bike_id": "dc4f981838bf3aa931b07561f0e4b7b1", "rental_uris": {"android": "https://dc.lft.to/lastmile_qr_scan", "ios": "https://dc.lft.to/lastmile_qr_scan"}, "name": "dc4f981838bf3aa931b07561f0e4b7b1", "is_reserved": 0}, {"is_disabled": 0, "fusion_lon": 0.0, "fusion_lat": 0.0, "lat": 38.883870333333334, "type": "electric_scooter", "lon": -77.01711933333333, "bike_id": "f35755e2794ac0817401e7bbff399e08", "rental_uris": {"android": "https://dc.lft.to/lastmile_qr_scan", "ios": "https://dc.lft.to/lastmile_qr_scan"}, "name": "f35755e2794ac0817401e7bbff399e08", "is_reserved": 0}, {"is_disabled": 0, "fusion_lon": 0.0, "fusion_lat": 0.0, "lat": 38.928103, "type": "electric_scooter", "lon": -77.014146, "bike_id": "eba015160467ebd3c6b3773134633b2b", "rental_uris": {"android": "https://dc.lft.to/lastmile_qr_scan", "ios": "https://dc.lft.to/lastmile_qr_scan"}, "name": "eba015160467ebd3c6b3773134633b2b", "is_reserved": 0}, {"is_disabled": 0, "fusion_lon": 0.0, "fusion_lat": 0.0, "lat": 38.935004, "type": "electric_scooter", "lon": -77.02608666666667, "bike_id": "595a82a967cf79b982dd3665dbfe48aa", "rental_uris": {"android": "https://dc.lft.to/lastmile_qr_scan", "ios": "https://dc.lft.to/lastmile_qr_scan"}, "name": "595a82a967cf79b982dd3665dbfe48aa", "is_reserved": 0}, {"is_disabled": 0, "fusion_lon": 0.0, "fusion_lat": 0.0, "lat": 38.923791, "type": "electric_scooter", "lon": -77.028352, "bike_id": "05503962442a55c93e5b16d7c57ad612", "rental_uris": {"android": "https://dc.lft.to/lastmile_qr_scan", "ios": "https://dc.lft.to/lastmile_qr_scan"}, "name": "05503962442a55c93e5b16d7c57ad612", "is_reserved": 0}, {"is_disabled": 0, "fusion_lon": 0.0, "fusion_lat": 0.0, "lat": 38.907943, "type": "electric_scooter", "lon": -77.04983416666667, "bike_id": "46534c051b7de858f382e352ddc08f53", "rental_uris": {"android": "https://dc.lft.to/lastmile_qr_scan", "ios": "https://dc.lft.to/lastmile_qr_scan"}, "name": "46534c051b7de858f382e352ddc08f53", "is_reserved": 0}, {"is_disabled": 0, "fusion_lon": 0.0, "fusion_lat": 0.0, "lat": 38.92151783333333, "type": "electric_scooter", "lon": -77.033803, "bike_id": "562adcda68318065ff2bc0bf608e327d", "rental_uris": {"android": "https://dc.lft.to/lastmile_qr_scan", "ios": "https://dc.lft.to/lastmile_qr_scan"}, "name": "562adcda68318065ff2bc0bf608e327d", "is_reserved": 0}, {"is_disabled": 0, "fusion_lon": 0.0, "fusion_lat": 0.0, "lat": 38.89465933333334, "type": "electric_scooter", "lon": -76.99486366666666, "bike_id": "60e4b76d7bc4256c5e735b2e1269f27c", "rental_uris": {"android": "https://dc.lft.to/lastmile_qr_scan", "ios": "https://dc.lft.to/lastmile_qr_scan"}, "name": "60e4b76d7bc4256c5e735b2e1269f27c", "is_reserved": 0}, {"is_disabled": 0, "fusion_lon": 0.0, "fusion_lat": 0.0, "lat": 38.886329833333335, "type": "electric_scooter", "lon": -76.998534, "bike_id": "53e3b8248d70afbc2eea99048998ad36", "rental_uris": {"android": "https://dc.lft.to/lastmile_qr_scan", "ios": "https://dc.lft.to/lastmile_qr_scan"}, "name": "53e3b8248d70afbc2eea99048998ad36", "is_reserved": 0}, {"is_disabled": 0, "fusion_lon": 0.0, "fusion_lat": 0.0, "lat": 39.09943716666667, "type": "electric_bike", "lon": -77.18790366666667, "bike_id": "d9ffc6102d59ecd9b23640b97db114d6", "rental_uris": {"android": "https://dc.lft.to/lastmile_qr_scan", "ios": "https://dc.lft.to/lastmile_qr_scan"}, "name": "d9ffc6102d59ecd9b23640b97db114d6", "is_reserved": 0}, {"is_disabled": 0, "fusion_lon": 0.0, "fusion_lat": 0.0, "lat": 38.8381325, "type": "electric_scooter", "lon": -77.00429916666667, "bike_id": "cb1b727b561ba07479fd379beebf4879", "rental_uris": {"android": "https://dc.lft.to/lastmile_qr_scan", "ios": "https://dc.lft.to/lastmile_qr_scan"}, "name": "cb1b727b561ba07479fd379beebf4879", "is_reserved": 0}, {"is_disabled": 0, "fusion_lon": 0.0, "fusion_lat": 0.0, "lat": 38.946583, "type": "electric_scooter", "lon": -77.06540666666666, "bike_id": "0978cbed2d89a3dafa34583aea174590", "rental_uris": {"android": "https://dc.lft.to/lastmile_qr_scan", "ios": "https://dc.lft.to/lastmile_qr_scan"}, "name": "0978cbed2d89a3dafa34583aea174590", "is_reserved": 0}, {"is_disabled": 0, "fusion_lon": 0.0, "fusion_lat": 0.0, "lat": 38.93509866666667, "type": "electric_bike", "lon": -76.949581, "bike_id": "47457324b9f96808da7b99cc8723873e", "rental_uris": {"android": "https://dc.lft.to/lastmile_qr_scan", "ios": "https://dc.lft.to/lastmile_qr_scan"}, "name": "47457324b9f96808da7b99cc8723873e", "is_reserved": 0}, {"is_disabled": 0, "fusion_lon": 0.0, "fusion_lat": 0.0, "lat": 38.84292666666666, "type": "electric_scooter", "lon": -76.99945733333334, "bike_id": "b5f8993f2072f6acd038241ca28d9581", "rental_uris": {"android": "https://dc.lft.to/lastmile_qr_scan", "ios": "https://dc.lft.to/lastmile_qr_scan"}, "name": "b5f8993f2072f6acd038241ca28d9581", "is_reserved": 0}, {"is_disabled": 0, "fusion_lon": 0.0, "fusion_lat": 0.0, "lat": 38.89735316666667, "type": "electric_scooter", "lon": -77.02830016666667, "bike_id": "c976ccb74ccab7bfc0152883ab14d3d0", "rental_uris": {"android": "https://dc.lft.to/lastmile_qr_scan", "ios": "https://dc.lft.to/lastmile_qr_scan"}, "name": "c976ccb74ccab7bfc0152883ab14d3d0", "is_reserved": 0}, {"is_disabled": 0, "fusion_lon": 0.0, "fusion_lat": 0.0, "lat": 38.895182166666665, "type": "electric_scooter", "lon": -77.01089033333334, "bike_id": "ef1bbbb6dd0b3aafc02b2e6fcd956c2a", "rental_uris": {"android": "https://dc.lft.to/lastmile_qr_scan", "ios": "https://dc.lft.to/lastmile_qr_scan"}, "name": "ef1bbbb6dd0b3aafc02b2e6fcd956c2a", "is_reserved": 0}, {"is_disabled": 0, "fusion_lon": 0.0, "fusion_lat": 0.0, "lat": 38.920087, "type": "electric_scooter", "lon": -76.98494533333333, "bike_id": "a4cb7b4ddc1e2cc6132c1ac1f01a5080", "rental_uris": {"android": "https://dc.lft.to/lastmile_qr_scan", "ios": "https://dc.lft.to/lastmile_qr_scan"}, "name": "a4cb7b4ddc1e2cc6132c1ac1f01a5080", "is_reserved": 0}, {"is_disabled": 0, "fusion_lon": 0.0, "fusion_lat": 0.0, "lat": 38.91917683333333, "type": "electric_scooter", "lon": -77.048116, "bike_id": "74c2d4d805049c1fbceb729f3da2a597", "rental_uris": {"android": "https://dc.lft.to/lastmile_qr_scan", "ios": "https://dc.lft.to/lastmile_qr_scan"}, "name": "74c2d4d805049c1fbceb729f3da2a597", "is_reserved": 0}, {"is_disabled": 0, "fusion_lon": 0.0, "fusion_lat": 0.0, "lat": 38.85207883333333, "type": "electric_bike", "lon": -77.10127416666667, "bike_id": "25fd0c5edd6b27d4873f6721adbf876d", "rental_uris": {"android": "https://dc.lft.to/lastmile_qr_scan", "ios": "https://dc.lft.to/lastmile_qr_scan"}, "name": "25fd0c5edd6b27d4873f6721adbf876d", "is_reserved": 0}, {"is_disabled": 0, "fusion_lon": 0.0, "fusion_lat": 0.0, "lat": 38.908688833333336, "type": "electric_scooter", "lon": -77.03552166666667, "bike_id": "65fb168d104c79da07b11fbb410c92ff", "rental_uris": {"android": "https://dc.lft.to/lastmile_qr_scan", "ios": "https://dc.lft.to/lastmile_qr_scan"}, "name": "65fb168d104c79da07b11fbb410c92ff", "is_reserved": 0}, {"is_disabled": 0, "fusion_lon": 0.0, "fusion_lat": 0.0, "lat": 38.876160666666664, "type": "electric_scooter", "lon": -76.96537916666666, "bike_id": "c64c11a2ab0ab228ee6d8404b6bd24d9", "rental_uris": {"android": "https://dc.lft.to/lastmile_qr_scan", "ios": "https://dc.lft.to/lastmile_qr_scan"}, "name": "c64c11a2ab0ab228ee6d8404b6bd24d9", "is_reserved": 0}, {"is_disabled": 0, "fusion_lon": 0.0, "fusion_lat": 0.0, "lat": 38.91133383333333, "type": "electric_scooter", "lon": -77.05936883333334, "bike_id": "efc723d194e2e4d0224763c2a1cfcb9f", "rental_uris": {"android": "https://dc.lft.to/lastmile_qr_scan", "ios": "https://dc.lft.to/lastmile_qr_scan"}, "name": "efc723d194e2e4d0224763c2a1cfcb9f", "is_reserved": 0}, {"is_disabled": 0, "fusion_lon": 0.0, "fusion_lat": 0.0, "lat": 38.884853166666666, "type": "electric_scooter", "lon": -76.92978616666667, "bike_id": "faf116595cfabb397235e2f02a3d017b", "rental_uris": {"android": "https://dc.lft.to/lastmile_qr_scan", "ios": "https://dc.lft.to/lastmile_qr_scan"}, "name": "faf116595cfabb397235e2f02a3d017b", "is_reserved": 0}, {"is_disabled": 0, "fusion_lon": 0.0, "fusion_lat": 0.0, "lat": 38.89657166666667, "type": "electric_scooter", "lon": -77.0120085, "bike_id": "1f0b7eb83ddbd00395dd91bf78b8383d", "rental_uris": {"android": "https://dc.lft.to/lastmile_qr_scan", "ios": "https://dc.lft.to/lastmile_qr_scan"}, "name": "1f0b7eb83ddbd00395dd91bf78b8383d", "is_reserved": 0}, {"is_disabled": 0, "fusion_lon": 0.0, "fusion_lat": 0.0, "lat": 38.872900333333334, "type": "electric_scooter", "lon": -77.0098655, "bike_id": "269a8c37a182eaa04b184189882ae6a6", "rental_uris": {"android": "https://dc.lft.to/lastmile_qr_scan", "ios": "https://dc.lft.to/lastmile_qr_scan"}, "name": "269a8c37a182eaa04b184189882ae6a6", "is_reserved": 0}, {"is_disabled": 0, "fusion_lon": 0.0, "fusion_lat": 0.0, "lat": 38.9099245, "type": "electric_scooter", "lon": -77.03729366666667, "bike_id": "37bd5b5642c15ad9e0669e3ec68c5692", "rental_uris": {"android": "https://dc.lft.to/lastmile_qr_scan", "ios": "https://dc.lft.to/lastmile_qr_scan"}, "name": "37bd5b5642c15ad9e0669e3ec68c5692", "is_reserved": 0}, {"is_disabled": 0, "fusion_lon": 0.0, "fusion_lat": 0.0, "lat": 38.90376083333334, "type": "electric_scooter", "lon": -77.0175335, "bike_id": "6510a160dc5ff48cb77444f389410485", "rental_uris": {"android": "https://dc.lft.to/lastmile_qr_scan", "ios": "https://dc.lft.to/lastmile_qr_scan"}, "name": "6510a160dc5ff48cb77444f389410485", "is_reserved": 0}, {"is_disabled": 0, "fusion_lon": 0.0, "fusion_lat": 0.0, "lat": 38.921532, "type": "electric_scooter", "lon": -77.03397966666667, "bike_id": "ec0961983c2bd81d7905fcd62a77e192", "rental_uris": {"android": "https://dc.lft.to/lastmile_qr_scan", "ios": "https://dc.lft.to/lastmile_qr_scan"}, "name": "ec0961983c2bd81d7905fcd62a77e192", "is_reserved": 0}, {"is_disabled": 0, "fusion_lon": 0.0, "fusion_lat": 0.0, "lat": 38.90269466666667, "type": "electric_scooter", "lon": -77.0532995, "bike_id": "e01581ae8908de1119d894b5275f0d7e", "rental_uris": {"android": "https://dc.lft.to/lastmile_qr_scan", "ios": "https://dc.lft.to/lastmile_qr_scan"}, "name": "e01581ae8908de1119d894b5275f0d7e", "is_reserved": 0}, {"is_disabled": 0, "fusion_lon": 0.0, "fusion_lat": 0.0, "lat": 38.966123833333334, "type": "electric_scooter", "lon": -77.03530616666667, "bike_id": "0e3f9fd5f63fc8a02dbf8f2412b39d0c", "rental_uris": {"android": "https://dc.lft.to/lastmile_qr_scan", "ios": "https://dc.lft.to/lastmile_qr_scan"}, "name": "0e3f9fd5f63fc8a02dbf8f2412b39d0c", "is_reserved": 0}, {"is_disabled": 0, "fusion_lon": 0.0, "fusion_lat": 0.0, "lat": 38.93435983333333, "type": "electric_scooter", "lon": -77.025933, "bike_id": "b5d989d210118f91c2d537891ddab273", "rental_uris": {"android": "https://dc.lft.to/lastmile_qr_scan", "ios": "https://dc.lft.to/lastmile_qr_scan"}, "name": "b5d989d210118f91c2d537891ddab273", "is_reserved": 0}, {"is_disabled": 0, "fusion_lon": 0.0, "fusion_lat": 0.0, "lat": 38.9131015, "type": "electric_scooter", "lon": -77.0085455, "bike_id": "013729e4f13a05504a5d70d590f3cefc", "rental_uris": {"android": "https://dc.lft.to/lastmile_qr_scan", "ios": "https://dc.lft.to/lastmile_qr_scan"}, "name": "013729e4f13a05504a5d70d590f3cefc", "is_reserved": 0}, {"is_disabled": 0, "fusion_lon": 0.0, "fusion_lat": 0.0, "lat": 38.91266916666667, "type": "electric_scooter", "lon": -77.03367383333334, "bike_id": "7cc553246a46860d91f9fa5523c292ca", "rental_uris": {"android": "https://dc.lft.to/lastmile_qr_scan", "ios": "https://dc.lft.to/lastmile_qr_scan"}, "name": "7cc553246a46860d91f9fa5523c292ca", "is_reserved": 0}, {"is_disabled": 0, "fusion_lon": 0.0, "fusion_lat": 0.0, "lat": 38.95173483333333, "type": "electric_scooter", "lon": -77.033304, "bike_id": "475009e66abf9baeecee103b277c5d22", "rental_uris": {"android": "https://dc.lft.to/lastmile_qr_scan", "ios": "https://dc.lft.to/lastmile_qr_scan"}, "name": "475009e66abf9baeecee103b277c5d22", "is_reserved": 0}, {"is_disabled": 0, "fusion_lon": 0.0, "fusion_lat": 0.0, "lat": 38.92968666666667, "type": "electric_scooter", "lon": -77.042036, "bike_id": "8314048f3a7528afe37a184398cf7535", "rental_uris": {"android": "https://dc.lft.to/lastmile_qr_scan", "ios": "https://dc.lft.to/lastmile_qr_scan"}, "name": "8314048f3a7528afe37a184398cf7535", "is_reserved": 0}, {"is_disabled": 0, "fusion_lon": 0.0, "fusion_lat": 0.0, "lat": 38.91538083333333, "type": "electric_scooter", "lon": -77.03796933333334, "bike_id": "c1f09cf8c48bbfd8a72a1757a0244ae3", "rental_uris": {"android": "https://dc.lft.to/lastmile_qr_scan", "ios": "https://dc.lft.to/lastmile_qr_scan"}, "name": "c1f09cf8c48bbfd8a72a1757a0244ae3", "is_reserved": 0}, {"is_disabled": 0, "fusion_lon": 0.0, "fusion_lat": 0.0, "lat": 38.94617183333333, "type": "electric_scooter", "lon": -77.03624933333333, "bike_id": "a41c0a7bef52cf25e0b5184000d66930", "rental_uris": {"android": "https://dc.lft.to/lastmile_qr_scan", "ios": "https://dc.lft.to/lastmile_qr_scan"}, "name": "a41c0a7bef52cf25e0b5184000d66930", "is_reserved": 0}, {"is_disabled": 0, "fusion_lon": 0.0, "fusion_lat": 0.0, "lat": 38.9079905, "type": "electric_scooter", "lon": -77.03383566666666, "bike_id": "a5a57b500d40ca8d516255a11ca131fd", "rental_uris": {"android": "https://dc.lft.to/lastmile_qr_scan", "ios": "https://dc.lft.to/lastmile_qr_scan"}, "name": "a5a57b500d40ca8d516255a11ca131fd", "is_reserved": 0}, {"is_disabled": 0, "fusion_lon": 0.0, "fusion_lat": 0.0, "lat": 38.94786766666667, "type": "electric_scooter", "lon": -77.0927685, "bike_id": "b01348092dab444d49569a05bda244c3", "rental_uris": {"android": "https://dc.lft.to/lastmile_qr_scan", "ios": "https://dc.lft.to/lastmile_qr_scan"}, "name": "b01348092dab444d49569a05bda244c3", "is_reserved": 0}, {"is_disabled": 0, "fusion_lon": 0.0, "fusion_lat": 0.0, "lat": 38.89992383333333, "type": "electric_scooter", "lon": -76.99258583333334, "bike_id": "8eb7b41c6b53719bef92c0c3c77c126a", "rental_uris": {"android": "https://dc.lft.to/lastmile_qr_scan", "ios": "https://dc.lft.to/lastmile_qr_scan"}, "name": "8eb7b41c6b53719bef92c0c3c77c126a", "is_reserved": 0}, {"is_disabled": 0, "fusion_lon": 0.0, "fusion_lat": 0.0, "lat": 38.905405, "type": "electric_scooter", "lon": -77.046599, "bike_id": "afff59074a93fb5ded285b7902b1cc2f", "rental_uris": {"android": "https://dc.lft.to/lastmile_qr_scan", "ios": "https://dc.lft.to/lastmile_qr_scan"}, "name": "afff59074a93fb5ded285b7902b1cc2f", "is_reserved": 0}, {"is_disabled": 0, "fusion_lon": 0.0, "fusion_lat": 0.0, "lat": 38.9167305, "type": "electric_scooter", "lon": -77.02713033333333, "bike_id": "8c287b93991b735bc59f5d541ac8a6ae", "rental_uris": {"android": "https://dc.lft.to/lastmile_qr_scan", "ios": "https://dc.lft.to/lastmile_qr_scan"}, "name": "8c287b93991b735bc59f5d541ac8a6ae", "is_reserved": 0}, {"is_disabled": 0, "fusion_lon": 0.0, "fusion_lat": 0.0, "lat": 38.865933166666665, "type": "electric_scooter", "lon": -76.99038516666667, "bike_id": "4cbcb0facbe2249f99b63f39de965b63", "rental_uris": {"android": "https://dc.lft.to/lastmile_qr_scan", "ios": "https://dc.lft.to/lastmile_qr_scan"}, "name": "4cbcb0facbe2249f99b63f39de965b63", "is_reserved": 0}, {"is_disabled": 0, "fusion_lon": 0.0, "fusion_lat": 0.0, "lat": 38.90182166666666, "type": "electric_scooter", "lon": -76.92828083333333, "bike_id": "f2442521bf55d3b4770cf76ba63c9df8", "rental_uris": {"android": "https://dc.lft.to/lastmile_qr_scan", "ios": "https://dc.lft.to/lastmile_qr_scan"}, "name": "f2442521bf55d3b4770cf76ba63c9df8", "is_reserved": 0}, {"is_disabled": 0, "fusion_lon": 0.0, "fusion_lat": 0.0, "lat": 38.920717, "type": "electric_scooter", "lon": -77.0180485, "bike_id": "c780ea702c517915200b1c0bbe1b658f", "rental_uris": {"android": "https://dc.lft.to/lastmile_qr_scan", "ios": "https://dc.lft.to/lastmile_qr_scan"}, "name": "c780ea702c517915200b1c0bbe1b658f", "is_reserved": 0}, {"is_disabled": 0, "fusion_lon": 0.0, "fusion_lat": 0.0, "lat": 38.91874116666666, "type": "electric_bike", "lon": -76.96123466666667, "bike_id": "d168795e7100aca5a7b30163aa049047", "rental_uris": {"android": "https://dc.lft.to/lastmile_qr_scan", "ios": "https://dc.lft.to/lastmile_qr_scan"}, "name": "d168795e7100aca5a7b30163aa049047", "is_reserved": 0}, {"is_disabled": 0, "fusion_lon": 0.0, "fusion_lat": 0.0, "lat": 38.931053166666665, "type": "electric_scooter", "lon": -77.03485916666666, "bike_id": "3dd94fe96dcd69168dd45cc12c307e90", "rental_uris": {"android": "https://dc.lft.to/lastmile_qr_scan", "ios": "https://dc.lft.to/lastmile_qr_scan"}, "name": "3dd94fe96dcd69168dd45cc12c307e90", "is_reserved": 0}, {"is_disabled": 0, "fusion_lon": 0.0, "fusion_lat": 0.0, "lat": 38.8872, "type": "electric_scooter", "lon": -77.02835283333333, "bike_id": "1ebe89388469ad2e828d60748ae558b3", "rental_uris": {"android": "https://dc.lft.to/lastmile_qr_scan", "ios": "https://dc.lft.to/lastmile_qr_scan"}, "name": "1ebe89388469ad2e828d60748ae558b3", "is_reserved": 0}, {"is_disabled": 0, "fusion_lon": 0.0, "fusion_lat": 0.0, "lat": 38.932072833333336, "type": "electric_scooter", "lon": -77.036759, "bike_id": "f6f1cae207a46b9f496508b5e8db900a", "rental_uris": {"android": "https://dc.lft.to/lastmile_qr_scan", "ios": "https://dc.lft.to/lastmile_qr_scan"}, "name": "f6f1cae207a46b9f496508b5e8db900a", "is_reserved": 0}, {"is_disabled": 0, "fusion_lon": 0.0, "fusion_lat": 0.0, "lat": 38.896162333333336, "type": "electric_scooter", "lon": -76.99635783333333, "bike_id": "9241d6f4efc5e5df1099d255e95bd900", "rental_uris": {"android": "https://dc.lft.to/lastmile_qr_scan", "ios": "https://dc.lft.to/lastmile_qr_scan"}, "name": "9241d6f4efc5e5df1099d255e95bd900", "is_reserved": 0}, {"is_disabled": 0, "fusion_lon": 0.0, "fusion_lat": 0.0, "lat": 38.918831, "type": "electric_scooter", "lon": -77.04417466666666, "bike_id": "80302308a65039a3c2168ded8f7e0ba6", "rental_uris": {"android": "https://dc.lft.to/lastmile_qr_scan", "ios": "https://dc.lft.to/lastmile_qr_scan"}, "name": "80302308a65039a3c2168ded8f7e0ba6", "is_reserved": 0}, {"is_disabled": 0, "fusion_lon": 0.0, "fusion_lat": 0.0, "lat": 38.905666, "type": "electric_scooter", "lon": -77.046751, "bike_id": "27c9840d51315748429e195759918845", "rental_uris": {"android": "https://dc.lft.to/lastmile_qr_scan", "ios": "https://dc.lft.to/lastmile_qr_scan"}, "name": "27c9840d51315748429e195759918845", "is_reserved": 0}, {"is_disabled": 0, "fusion_lon": 0.0, "fusion_lat": 0.0, "lat": 38.93395683333333, "type": "electric_scooter", "lon": -77.04003616666667, "bike_id": "0ed023d654be775098af387bd2a828af", "rental_uris": {"android": "https://dc.lft.to/lastmile_qr_scan", "ios": "https://dc.lft.to/lastmile_qr_scan"}, "name": "0ed023d654be775098af387bd2a828af", "is_reserved": 0}, {"is_disabled": 0, "fusion_lon": 0.0, "fusion_lat": 0.0, "lat": 38.9066995, "type": "electric_scooter", "lon": -77.027062, "bike_id": "2459f7c664295a10dc96db1c997a8de4", "rental_uris": {"android": "https://dc.lft.to/lastmile_qr_scan", "ios": "https://dc.lft.to/lastmile_qr_scan"}, "name": "2459f7c664295a10dc96db1c997a8de4", "is_reserved": 0}, {"is_disabled": 0, "fusion_lon": 0.0, "fusion_lat": 0.0, "lat": 38.94929033333333, "type": "electric_scooter", "lon": -77.02298016666667, "bike_id": "6357f9aab02571f8e7c7404e51970b9d", "rental_uris": {"android": "https://dc.lft.to/lastmile_qr_scan", "ios": "https://dc.lft.to/lastmile_qr_scan"}, "name": "6357f9aab02571f8e7c7404e51970b9d", "is_reserved": 0}, {"is_disabled": 0, "fusion_lon": 0.0, "fusion_lat": 0.0, "lat": 38.880492, "type": "electric_scooter", "lon": -77.00371866666667, "bike_id": "65626cd0f4c981ed1b18280b80840fbb", "rental_uris": {"android": "https://dc.lft.to/lastmile_qr_scan", "ios": "https://dc.lft.to/lastmile_qr_scan"}, "name": "65626cd0f4c981ed1b18280b80840fbb", "is_reserved": 0}, {"is_disabled": 0, "fusion_lon": 0.0, "fusion_lat": 0.0, "lat": 38.9308145, "type": "electric_scooter", "lon": -77.058229, "bike_id": "2c4a8e12de0a249b60bb86561078ab85", "rental_uris": {"android": "https://dc.lft.to/lastmile_qr_scan", "ios": "https://dc.lft.to/lastmile_qr_scan"}, "name": "2c4a8e12de0a249b60bb86561078ab85", "is_reserved": 0}, {"is_disabled": 0, "fusion_lon": 0.0, "fusion_lat": 0.0, "lat": 38.90005633333333, "type": "electric_scooter", "lon": -77.03977416666666, "bike_id": "fe797bf5a78ed30d06865101a183729d", "rental_uris": {"android": "https://dc.lft.to/lastmile_qr_scan", "ios": "https://dc.lft.to/lastmile_qr_scan"}, "name": "fe797bf5a78ed30d06865101a183729d", "is_reserved": 0}, {"is_disabled": 0, "fusion_lon": 0.0, "fusion_lat": 0.0, "lat": 38.925773, "type": "electric_scooter", "lon": -77.08059916666667, "bike_id": "39050670906e74ff8f19d4cfa7ed0383", "rental_uris": {"android": "https://dc.lft.to/lastmile_qr_scan", "ios": "https://dc.lft.to/lastmile_qr_scan"}, "name": "39050670906e74ff8f19d4cfa7ed0383", "is_reserved": 0}, {"is_disabled": 0, "fusion_lon": 0.0, "fusion_lat": 0.0, "lat": 38.93968183333333, "type": "electric_bike", "lon": -77.36094983333334, "bike_id": "bae9f1a784e28babd2ecc09c76ea5ced", "rental_uris": {"android": "https://dc.lft.to/lastmile_qr_scan", "ios": "https://dc.lft.to/lastmile_qr_scan"}, "name": "bae9f1a784e28babd2ecc09c76ea5ced", "is_reserved": 0}, {"is_disabled": 0, "fusion_lon": 0.0, "fusion_lat": 0.0, "lat": 38.853240666666665, "type": "electric_bike", "lon": -77.0533205, "bike_id": "3e76f7cb16735bc7b4767aff9b183551", "rental_uris": {"android": "https://dc.lft.to/lastmile_qr_scan", "ios": "https://dc.lft.to/lastmile_qr_scan"}, "name": "3e76f7cb16735bc7b4767aff9b183551", "is_reserved": 0}, {"is_disabled": 0, "fusion_lon": 0.0, "fusion_lat": 0.0, "lat": 38.922845833333334, "type": "electric_scooter", "lon": -77.04462283333334, "bike_id": "8835609e22ea768444ee6bfa85d9ad42", "rental_uris": {"android": "https://dc.lft.to/lastmile_qr_scan", "ios": "https://dc.lft.to/lastmile_qr_scan"}, "name": "8835609e22ea768444ee6bfa85d9ad42", "is_reserved": 0}, {"is_disabled": 0, "fusion_lon": 0.0, "fusion_lat": 0.0, "lat": 38.9246365, "type": "electric_scooter", "lon": -77.07864883333333, "bike_id": "cb63d4bc70b29cac898eb9de2520a632", "rental_uris": {"android": "https://dc.lft.to/lastmile_qr_scan", "ios": "https://dc.lft.to/lastmile_qr_scan"}, "name": "cb63d4bc70b29cac898eb9de2520a632", "is_reserved": 0}, {"is_disabled": 0, "fusion_lon": 0.0, "fusion_lat": 0.0, "lat": 38.90582366666667, "type": "electric_scooter", "lon": -77.055899, "bike_id": "8ea26bf7a22f7c4e626a97c27a7f2e8c", "rental_uris": {"android": "https://dc.lft.to/lastmile_qr_scan", "ios": "https://dc.lft.to/lastmile_qr_scan"}, "name": "8ea26bf7a22f7c4e626a97c27a7f2e8c", "is_reserved": 0}, {"is_disabled": 0, "fusion_lon": 0.0, "fusion_lat": 0.0, "lat": 38.94071983333333, "type": "electric_scooter", "lon": -77.02877833333334, "bike_id": "ea893f8662d44ec0f5aa3ebfa87a2adb", "rental_uris": {"android": "https://dc.lft.to/lastmile_qr_scan", "ios": "https://dc.lft.to/lastmile_qr_scan"}, "name": "ea893f8662d44ec0f5aa3ebfa87a2adb", "is_reserved": 0}, {"is_disabled": 0, "fusion_lon": 0.0, "fusion_lat": 0.0, "lat": 38.902870166666666, "type": "electric_scooter", "lon": -77.04885966666667, "bike_id": "0ae5b3937fc1171024e8100726d87421", "rental_uris": {"android": "https://dc.lft.to/lastmile_qr_scan", "ios": "https://dc.lft.to/lastmile_qr_scan"}, "name": "0ae5b3937fc1171024e8100726d87421", "is_reserved": 0}, {"is_disabled": 0, "fusion_lon": 0.0, "fusion_lat": 0.0, "lat": 38.89527133333333, "type": "electric_scooter", "lon": -77.04854, "bike_id": "9266d28e5fd10c4e698a80495868c486", "rental_uris": {"android": "https://dc.lft.to/lastmile_qr_scan", "ios": "https://dc.lft.to/lastmile_qr_scan"}, "name": "9266d28e5fd10c4e698a80495868c486", "is_reserved": 0}, {"is_disabled": 0, "fusion_lon": 0.0, "fusion_lat": 0.0, "lat": 38.877646, "type": "electric_bike", "lon": -76.98004916666666, "bike_id": "30fe64856649575631d155a16d807748", "rental_uris": {"android": "https://dc.lft.to/lastmile_qr_scan", "ios": "https://dc.lft.to/lastmile_qr_scan"}, "name": "30fe64856649575631d155a16d807748", "is_reserved": 0}, {"is_disabled": 0, "fusion_lon": 0.0, "fusion_lat": 0.0, "lat": 38.91467983333333, "type": "electric_scooter", "lon": -76.984464, "bike_id": "249d63426534844e75b6c3e4fdb441d3", "rental_uris": {"android": "https://dc.lft.to/lastmile_qr_scan", "ios": "https://dc.lft.to/lastmile_qr_scan"}, "name": "249d63426534844e75b6c3e4fdb441d3", "is_reserved": 0}, {"is_disabled": 0, "fusion_lon": 0.0, "fusion_lat": 0.0, "lat": 38.921183666666664, "type": "electric_scooter", "lon": -77.01769916666667, "bike_id": "e338c96734dd8bea7a5ec2bcadc94a8e", "rental_uris": {"android": "https://dc.lft.to/lastmile_qr_scan", "ios": "https://dc.lft.to/lastmile_qr_scan"}, "name": "e338c96734dd8bea7a5ec2bcadc94a8e", "is_reserved": 0}, {"is_disabled": 0, "fusion_lon": 0.0, "fusion_lat": 0.0, "lat": 38.93000083333333, "type": "electric_scooter", "lon": -77.02404066666666, "bike_id": "117508f52f2bf980db74956e92c620f4", "rental_uris": {"android": "https://dc.lft.to/lastmile_qr_scan", "ios": "https://dc.lft.to/lastmile_qr_scan"}, "name": "117508f52f2bf980db74956e92c620f4", "is_reserved": 0}, {"is_disabled": 0, "fusion_lon": 0.0, "fusion_lat": 0.0, "lat": 38.89495566666667, "type": "electric_scooter", "lon": -77.00947583333334, "bike_id": "af05d7b7d60cc563c3a90f1de4a0df0d", "rental_uris": {"android": "https://dc.lft.to/lastmile_qr_scan", "ios": "https://dc.lft.to/lastmile_qr_scan"}, "name": "af05d7b7d60cc563c3a90f1de4a0df0d", "is_reserved": 0}, {"is_disabled": 0, "fusion_lon": 0.0, "fusion_lat": 0.0, "lat": 38.92118983333334, "type": "electric_scooter", "lon": -77.01210116666667, "bike_id": "cf8939670687183c730b537611463694", "rental_uris": {"android": "https://dc.lft.to/lastmile_qr_scan", "ios": "https://dc.lft.to/lastmile_qr_scan"}, "name": "cf8939670687183c730b537611463694", "is_reserved": 0}, {"is_disabled": 0, "fusion_lon": 0.0, "fusion_lat": 0.0, "lat": 38.929953, "type": "electric_scooter", "lon": -77.037973, "bike_id": "ba1c8bf297a961b9f23d041124e161e9", "rental_uris": {"android": "https://dc.lft.to/lastmile_qr_scan", "ios": "https://dc.lft.to/lastmile_qr_scan"}, "name": "ba1c8bf297a961b9f23d041124e161e9", "is_reserved": 0}, {"is_disabled": 0, "fusion_lon": 0.0, "fusion_lat": 0.0, "lat": 38.9171275, "type": "electric_scooter", "lon": -77.033367, "bike_id": "31e64b73a910061d04fbf556a9ff2b02", "rental_uris": {"android": "https://dc.lft.to/lastmile_qr_scan", "ios": "https://dc.lft.to/lastmile_qr_scan"}, "name": "31e64b73a910061d04fbf556a9ff2b02", "is_reserved": 0}, {"is_disabled": 0, "fusion_lon": 0.0, "fusion_lat": 0.0, "lat": 38.9005495, "type": "electric_scooter", "lon": -76.98342533333333, "bike_id": "6c9d45e12af7988d0e5f2bd836c7574b", "rental_uris": {"android": "https://dc.lft.to/lastmile_qr_scan", "ios": "https://dc.lft.to/lastmile_qr_scan"}, "name": "6c9d45e12af7988d0e5f2bd836c7574b", "is_reserved": 0}, {"is_disabled": 0, "fusion_lon": 0.0, "fusion_lat": 0.0, "lat": 38.9314805, "type": "electric_scooter", "lon": -77.0784065, "bike_id": "f7a525d595a16d05ab84a4b2098dd463", "rental_uris": {"android": "https://dc.lft.to/lastmile_qr_scan", "ios": "https://dc.lft.to/lastmile_qr_scan"}, "name": "f7a525d595a16d05ab84a4b2098dd463", "is_reserved": 0}, {"is_disabled": 0, "fusion_lon": 0.0, "fusion_lat": 0.0, "lat": 38.93085583333333, "type": "electric_scooter", "lon": -77.02536083333334, "bike_id": "77d0256f0171b5b06b7438a857556d31", "rental_uris": {"android": "https://dc.lft.to/lastmile_qr_scan", "ios": "https://dc.lft.to/lastmile_qr_scan"}, "name": "77d0256f0171b5b06b7438a857556d31", "is_reserved": 0}, {"is_disabled": 0, "fusion_lon": 0.0, "fusion_lat": 0.0, "lat": 38.932192666666666, "type": "electric_scooter", "lon": -77.036533, "bike_id": "4b8b1d9b4ec52fb5fc01da1db2e245d1", "rental_uris": {"android": "https://dc.lft.to/lastmile_qr_scan", "ios": "https://dc.lft.to/lastmile_qr_scan"}, "name": "4b8b1d9b4ec52fb5fc01da1db2e245d1", "is_reserved": 0}, {"is_disabled": 0, "fusion_lon": 0.0, "fusion_lat": 0.0, "lat": 38.9051525, "type": "electric_scooter", "lon": -77.04865716666667, "bike_id": "ebae739cc4f6d6332a73b35745d291aa", "rental_uris": {"android": "https://dc.lft.to/lastmile_qr_scan", "ios": "https://dc.lft.to/lastmile_qr_scan"}, "name": "ebae739cc4f6d6332a73b35745d291aa", "is_reserved": 0}, {"is_disabled": 0, "fusion_lon": 0.0, "fusion_lat": 0.0, "lat": 38.87499783333333, "type": "electric_scooter", "lon": -76.99797233333334, "bike_id": "b8177c0ccda73f0e6af716bb0546bee8", "rental_uris": {"android": "https://dc.lft.to/lastmile_qr_scan", "ios": "https://dc.lft.to/lastmile_qr_scan"}, "name": "b8177c0ccda73f0e6af716bb0546bee8", "is_reserved": 0}, {"is_disabled": 0, "fusion_lon": 0.0, "fusion_lat": 0.0, "lat": 38.90828116666667, "type": "electric_scooter", "lon": -77.03337533333334, "bike_id": "8fab6ce9b778ff52296f3f014aa92ea7", "rental_uris": {"android": "https://dc.lft.to/lastmile_qr_scan", "ios": "https://dc.lft.to/lastmile_qr_scan"}, "name": "8fab6ce9b778ff52296f3f014aa92ea7", "is_reserved": 0}, {"is_disabled": 0, "fusion_lon": 0.0, "fusion_lat": 0.0, "lat": 38.9037405, "type": "electric_scooter", "lon": -77.0380645, "bike_id": "964bc42ad2723c0bc2d021bf9f62acc5", "rental_uris": {"android": "https://dc.lft.to/lastmile_qr_scan", "ios": "https://dc.lft.to/lastmile_qr_scan"}, "name": "964bc42ad2723c0bc2d021bf9f62acc5", "is_reserved": 0}, {"is_disabled": 0, "fusion_lon": 0.0, "fusion_lat": 0.0, "lat": 38.898514166666665, "type": "electric_bike", "lon": -76.93188533333333, "bike_id": "b51c4b1b846d62d0a12a9e905d312cb4", "rental_uris": {"android": "https://dc.lft.to/lastmile_qr_scan", "ios": "https://dc.lft.to/lastmile_qr_scan"}, "name": "b51c4b1b846d62d0a12a9e905d312cb4", "is_reserved": 0}, {"is_disabled": 0, "fusion_lon": 0.0, "fusion_lat": 0.0, "lat": 38.906561833333335, "type": "electric_scooter", "lon": -77.02531033333334, "bike_id": "e74647a97f50e6c2f970ba51a7845929", "rental_uris": {"android": "https://dc.lft.to/lastmile_qr_scan", "ios": "https://dc.lft.to/lastmile_qr_scan"}, "name": "e74647a97f50e6c2f970ba51a7845929", "is_reserved": 0}, {"is_disabled": 0, "fusion_lon": 0.0, "fusion_lat": 0.0, "lat": 38.91383666666667, "type": "electric_scooter", "lon": -77.02965783333333, "bike_id": "896b3f0c2fa34e93782e9538f39f2910", "rental_uris": {"android": "https://dc.lft.to/lastmile_qr_scan", "ios": "https://dc.lft.to/lastmile_qr_scan"}, "name": "896b3f0c2fa34e93782e9538f39f2910", "is_reserved": 0}, {"is_disabled": 0, "fusion_lon": 0.0, "fusion_lat": 0.0, "lat": 38.831718333333335, "type": "electric_bike", "lon": -76.99754, "bike_id": "c8062ea7c033e1e4470e979690094837", "rental_uris": {"android": "https://dc.lft.to/lastmile_qr_scan", "ios": "https://dc.lft.to/lastmile_qr_scan"}, "name": "c8062ea7c033e1e4470e979690094837", "is_reserved": 0}, {"is_disabled": 0, "fusion_lon": 0.0, "fusion_lat": 0.0, "lat": 38.923881, "type": "electric_scooter", "lon": -77.027616, "bike_id": "7d8e866ac2375ef0e928efdbdac109a0", "rental_uris": {"android": "https://dc.lft.to/lastmile_qr_scan", "ios": "https://dc.lft.to/lastmile_qr_scan"}, "name": "7d8e866ac2375ef0e928efdbdac109a0", "is_reserved": 0}, {"is_disabled": 0, "fusion_lon": 0.0, "fusion_lat": 0.0, "lat": 38.909440833333335, "type": "electric_scooter", "lon": -77.01525183333334, "bike_id": "1f76754ec4440e90d286942fdfba56a0", "rental_uris": {"android": "https://dc.lft.to/lastmile_qr_scan", "ios": "https://dc.lft.to/lastmile_qr_scan"}, "name": "1f76754ec4440e90d286942fdfba56a0", "is_reserved": 0}, {"is_disabled": 0, "fusion_lon": 0.0, "fusion_lat": 0.0, "lat": 38.883525166666665, "type": "electric_scooter", "lon": -76.9278635, "bike_id": "c20eec2377a8f5ab961dd15f840a28f5", "rental_uris": {"android": "https://dc.lft.to/lastmile_qr_scan", "ios": "https://dc.lft.to/lastmile_qr_scan"}, "name": "c20eec2377a8f5ab961dd15f840a28f5", "is_reserved": 0}, {"is_disabled": 0, "fusion_lon": 0.0, "fusion_lat": 0.0, "lat": 38.879179666666666, "type": "electric_scooter", "lon": -77.0058225, "bike_id": "61180694ea2e0ba453e484b52405a6a3", "rental_uris": {"android": "https://dc.lft.to/lastmile_qr_scan", "ios": "https://dc.lft.to/lastmile_qr_scan"}, "name": "61180694ea2e0ba453e484b52405a6a3", "is_reserved": 0}, {"is_disabled": 0, "fusion_lon": 0.0, "fusion_lat": 0.0, "lat": 38.89258266666667, "type": "electric_scooter", "lon": -76.94154316666666, "bike_id": "8a31c34e3d74d1ec843650b25aefb808", "rental_uris": {"android": "https://dc.lft.to/lastmile_qr_scan", "ios": "https://dc.lft.to/lastmile_qr_scan"}, "name": "8a31c34e3d74d1ec843650b25aefb808", "is_reserved": 0}, {"is_disabled": 0, "fusion_lon": 0.0, "fusion_lat": 0.0, "lat": 38.848508833333334, "type": "electric_bike", "lon": -77.08039733333334, "bike_id": "d45026a63cd1cf0dd184859b9574c61c", "rental_uris": {"android": "https://dc.lft.to/lastmile_qr_scan", "ios": "https://dc.lft.to/lastmile_qr_scan"}, "name": "d45026a63cd1cf0dd184859b9574c61c", "is_reserved": 0}, {"is_disabled": 0, "fusion_lon": 0.0, "fusion_lat": 0.0, "lat": 38.905591333333334, "type": "electric_scooter", "lon": -77.02714233333333, "bike_id": "e5127299f55307b80e9253d2b84f1447", "rental_uris": {"android": "https://dc.lft.to/lastmile_qr_scan", "ios": "https://dc.lft.to/lastmile_qr_scan"}, "name": "e5127299f55307b80e9253d2b84f1447", "is_reserved": 0}, {"is_disabled": 0, "fusion_lon": 0.0, "fusion_lat": 0.0, "lat": 38.930634833333336, "type": "electric_scooter", "lon": -77.02661366666666, "bike_id": "6ead7a927e0d1b566128031e2530cb64", "rental_uris": {"android": "https://dc.lft.to/lastmile_qr_scan", "ios": "https://dc.lft.to/lastmile_qr_scan"}, "name": "6ead7a927e0d1b566128031e2530cb64", "is_reserved": 0}, {"is_disabled": 0, "fusion_lon": 0.0, "fusion_lat": 0.0, "lat": 38.92996616666667, "type": "electric_scooter", "lon": -77.021804, "bike_id": "2e37a412900beb4a0b604c43c5eaec38", "rental_uris": {"android": "https://dc.lft.to/lastmile_qr_scan", "ios": "https://dc.lft.to/lastmile_qr_scan"}, "name": "2e37a412900beb4a0b604c43c5eaec38", "is_reserved": 0}, {"is_disabled": 0, "fusion_lon": 0.0, "fusion_lat": 0.0, "lat": 38.90705533333333, "type": "electric_scooter", "lon": -77.02689383333333, "bike_id": "c849927ef6a207f6d8d2128dc4a07000", "rental_uris": {"android": "https://dc.lft.to/lastmile_qr_scan", "ios": "https://dc.lft.to/lastmile_qr_scan"}, "name": "c849927ef6a207f6d8d2128dc4a07000", "is_reserved": 0}, {"is_disabled": 0, "fusion_lon": 0.0, "fusion_lat": 0.0, "lat": 38.917689333333335, "type": "electric_scooter", "lon": -77.023393, "bike_id": "20d374f81d60484f2eeb0122cf492d84", "rental_uris": {"android": "https://dc.lft.to/lastmile_qr_scan", "ios": "https://dc.lft.to/lastmile_qr_scan"}, "name": "20d374f81d60484f2eeb0122cf492d84", "is_reserved": 0}, {"is_disabled": 0, "fusion_lon": 0.0, "fusion_lat": 0.0, "lat": 38.933988, "type": "electric_scooter", "lon": -77.02733766666667, "bike_id": "5d4f62ab25809d63663e0a595cc4523a", "rental_uris": {"android": "https://dc.lft.to/lastmile_qr_scan", "ios": "https://dc.lft.to/lastmile_qr_scan"}, "name": "5d4f62ab25809d63663e0a595cc4523a", "is_reserved": 0}, {"is_disabled": 0, "fusion_lon": 0.0, "fusion_lat": 0.0, "lat": 38.87625633333333, "type": "electric_scooter", "lon": -76.96538716666667, "bike_id": "c47eba5a9eac9a744caa366ee5638ccf", "rental_uris": {"android": "https://dc.lft.to/lastmile_qr_scan", "ios": "https://dc.lft.to/lastmile_qr_scan"}, "name": "c47eba5a9eac9a744caa366ee5638ccf", "is_reserved": 0}, {"is_disabled": 0, "fusion_lon": 0.0, "fusion_lat": 0.0, "lat": 38.884865833333336, "type": "electric_scooter", "lon": -77.022165, "bike_id": "033f6b653a92a76d93db99d82eeb7e6f", "rental_uris": {"android": "https://dc.lft.to/lastmile_qr_scan", "ios": "https://dc.lft.to/lastmile_qr_scan"}, "name": "033f6b653a92a76d93db99d82eeb7e6f", "is_reserved": 0}, {"is_disabled": 0, "fusion_lon": 0.0, "fusion_lat": 0.0, "lat": 38.90046, "type": "electric_scooter", "lon": -77.03431016666667, "bike_id": "5f3953f81c1d6001af956abc27ac8dfb", "rental_uris": {"android": "https://dc.lft.to/lastmile_qr_scan", "ios": "https://dc.lft.to/lastmile_qr_scan"}, "name": "5f3953f81c1d6001af956abc27ac8dfb", "is_reserved": 0}, {"is_disabled": 0, "fusion_lon": 0.0, "fusion_lat": 0.0, "lat": 38.90244966666667, "type": "electric_bike", "lon": -76.97016633333334, "bike_id": "a913faa9a5bd4c356b1f112ae0fc448d", "rental_uris": {"android": "https://dc.lft.to/lastmile_qr_scan", "ios": "https://dc.lft.to/lastmile_qr_scan"}, "name": "a913faa9a5bd4c356b1f112ae0fc448d", "is_reserved": 0}, {"is_disabled": 0, "fusion_lon": 0.0, "fusion_lat": 0.0, "lat": 38.89515333333333, "type": "electric_scooter", "lon": -77.0283005, "bike_id": "c41d90e77d8cd237ac661683ae0198e7", "rental_uris": {"android": "https://dc.lft.to/lastmile_qr_scan", "ios": "https://dc.lft.to/lastmile_qr_scan"}, "name": "c41d90e77d8cd237ac661683ae0198e7", "is_reserved": 0}, {"is_disabled": 0, "fusion_lon": 0.0, "fusion_lat": 0.0, "lat": 38.970494333333335, "type": "electric_bike", "lon": -77.03080766666666, "bike_id": "ad3bd3ea7052e85ce713e66c94b3745b", "rental_uris": {"android": "https://dc.lft.to/lastmile_qr_scan", "ios": "https://dc.lft.to/lastmile_qr_scan"}, "name": "ad3bd3ea7052e85ce713e66c94b3745b", "is_reserved": 0}, {"is_disabled": 0, "fusion_lon": 0.0, "fusion_lat": 0.0, "lat": 38.92874483333333, "type": "electric_scooter", "lon": -77.03440033333334, "bike_id": "446b2aa279a2db94a849ee1779583cbf", "rental_uris": {"android": "https://dc.lft.to/lastmile_qr_scan", "ios": "https://dc.lft.to/lastmile_qr_scan"}, "name": "446b2aa279a2db94a849ee1779583cbf", "is_reserved": 0}, {"is_disabled": 0, "fusion_lon": 0.0, "fusion_lat": 0.0, "lat": 38.89991283333333, "type": "electric_scooter", "lon": -77.0333355, "bike_id": "fdd00bb99134818315e2efca5667f82a", "rental_uris": {"android": "https://dc.lft.to/lastmile_qr_scan", "ios": "https://dc.lft.to/lastmile_qr_scan"}, "name": "fdd00bb99134818315e2efca5667f82a", "is_reserved": 0}, {"is_disabled": 0, "fusion_lon": 0.0, "fusion_lat": 0.0, "lat": 38.81029783333334, "type": "electric_bike", "lon": -77.0843465, "bike_id": "88d6c1962e8fb7faa162b9464f8e601f", "rental_uris": {"android": "https://dc.lft.to/lastmile_qr_scan", "ios": "https://dc.lft.to/lastmile_qr_scan"}, "name": "88d6c1962e8fb7faa162b9464f8e601f", "is_reserved": 0}, {"is_disabled": 0, "fusion_lon": 0.0, "fusion_lat": 0.0, "lat": 38.90959333333333, "type": "electric_scooter", "lon": -77.0237895, "bike_id": "cb516df553ff4ee7486cc249b0f0fafd", "rental_uris": {"android": "https://dc.lft.to/lastmile_qr_scan", "ios": "https://dc.lft.to/lastmile_qr_scan"}, "name": "cb516df553ff4ee7486cc249b0f0fafd", "is_reserved": 0}, {"is_disabled": 0, "fusion_lon": 0.0, "fusion_lat": 0.0, "lat": 38.91898, "type": "electric_scooter", "lon": -77.071127, "bike_id": "587b7ee4e11e9f84413500b0bc5c30de", "rental_uris": {"android": "https://dc.lft.to/lastmile_qr_scan", "ios": "https://dc.lft.to/lastmile_qr_scan"}, "name": "587b7ee4e11e9f84413500b0bc5c30de", "is_reserved": 0}, {"is_disabled": 0, "fusion_lon": 0.0, "fusion_lat": 0.0, "lat": 38.919383333333336, "type": "electric_bike", "lon": -76.97501033333333, "bike_id": "7aceef3fab6303a5996978926875f607", "rental_uris": {"android": "https://dc.lft.to/lastmile_qr_scan", "ios": "https://dc.lft.to/lastmile_qr_scan"}, "name": "7aceef3fab6303a5996978926875f607", "is_reserved": 0}, {"is_disabled": 0, "fusion_lon": 0.0, "fusion_lat": 0.0, "lat": 38.905092, "type": "electric_scooter", "lon": -77.053147, "bike_id": "f3076784f7ad2a9392e9fdadee89ef17", "rental_uris": {"android": "https://dc.lft.to/lastmile_qr_scan", "ios": "https://dc.lft.to/lastmile_qr_scan"}, "name": "f3076784f7ad2a9392e9fdadee89ef17", "is_reserved": 0}, {"is_disabled": 0, "fusion_lon": 0.0, "fusion_lat": 0.0, "lat": 38.943032, "type": "electric_scooter", "lon": -77.0275805, "bike_id": "291527fd16b9c2dce08c3f19e22bbccb", "rental_uris": {"android": "https://dc.lft.to/lastmile_qr_scan", "ios": "https://dc.lft.to/lastmile_qr_scan"}, "name": "291527fd16b9c2dce08c3f19e22bbccb", "is_reserved": 0}, {"is_disabled": 0, "fusion_lon": 0.0, "fusion_lat": 0.0, "lat": 38.920692333333335, "type": "electric_scooter", "lon": -77.0438115, "bike_id": "957bc0e3cb9e121399abdb3f0b4ef5cd", "rental_uris": {"android": "https://dc.lft.to/lastmile_qr_scan", "ios": "https://dc.lft.to/lastmile_qr_scan"},