{"data": {"bikes": [{"bike_id": "5bb8d0a9c8a8137df81ae6f9c9d7f8a3", "fusion_lon": 0.0, "type": "electric_scooter", "name": "5bb8d0a9c8a8137df81ae6f9c9d7f8a3", "rental_uris": {"android": "https://dc.lft.to/lastmile_qr_scan", "ios": "https://dc.lft.to/lastmile_qr_scan"}, "fusion_lat": 0.0, "lat": 38.905238, "is_disabled": 0, "lon": -77.01695266666667, "is_reserved": 0}, {"bike_id": "769966550bbd1f232118f7dc7dd0ffbe", "fusion_lon": 0.0, "type": "electric_scooter", "name": "769966550bbd1f232118f7dc7dd0ffbe", "rental_uris": {"android": "https://dc.lft.to/lastmile_qr_scan", "ios": "https://dc.lft.to/lastmile_qr_scan"}, "fusion_lat": 0.0, "lat": 38.896804333333336, "is_disabled": 0, "lon": -76.94718733333333, "is_reserved": 0}, {"bike_id": "38371e5d8026869378f6585b7963e57f", "fusion_lon": 0.0, "type": "electric_bike", "name": "38371e5d8026869378f6585b7963e57f", "rental_uris": {"android": "https://dc.lft.to/lastmile_qr_scan", "ios": "https://dc.lft.to/lastmile_qr_scan"}, "fusion_lat": 0.0, "lat": 38.8653175, "is_disabled": 0, "lon": -77.128096, "is_reserved": 0}, {"bike_id": "d90d4a0dde2f2a47b6147393ccdeaa1b", "fusion_lon": 0.0, "type": "electric_scooter", "name": "d90d4a0dde2f2a47b6147393ccdeaa1b", "rental_uris": {"android": "https://dc.lft.to/lastmile_qr_scan", "ios": "https://dc.lft.to/lastmile_qr_scan"}, "fusion_lat": 0.0, "lat": 38.90562083333333, "is_disabled": 0, "lon": -77.0400085, "is_reserved": 0}, {"bike_id": "33648be463f500c3b8f9a7e95850dabd", "fusion_lon": 0.0, "type": "electric_scooter", "name": "33648be463f500c3b8f9a7e95850dabd", "rental_uris": {"android": "https://dc.lft.to/lastmile_qr_scan", "ios": "https://dc.lft.to/lastmile_qr_scan"}, "fusion_lat": 0.0, "lat": 38.940337166666666, "is_disabled": 0, "lon": -77.068898, "is_reserved": 0}, {"bike_id": "9c2a6c50736b062a1aa9f4d610f5e1c9", "fusion_lon": 0.0, "type": "electric_scooter", "name": "9c2a6c50736b062a1aa9f4d610f5e1c9", "rental_uris": {"android": "https://dc.lft.to/lastmile_qr_scan", "ios": "https://dc.lft.to/lastmile_qr_scan"}, "fusion_lat": 0.0, "lat": 38.929084, "is_disabled": 0, "lon": -77.06388483333333, "is_reserved": 0}, {"bike_id": "0fa074d2e70d091225a6d56d051e93f6", "fusion_lon": 0.0, "type": "electric_bike", "name": "0fa074d2e70d091225a6d56d051e93f6", "rental_uris": {"android": "https://dc.lft.to/lastmile_qr_scan", "ios": "https://dc.lft.to/lastmile_qr_scan"}, "fusion_lat": 0.0, "lat": 38.92848816666667, "is_disabled": 0, "lon": -77.02053866666667, "is_reserved": 0}, {"bike_id": "88c8a5c13dc3b96c1d323a97995530f8", "fusion_lon": 0.0, "type": "electric_bike", "name": "88c8a5c13dc3b96c1d323a97995530f8", "rental_uris": {"android": "https://dc.lft.to/lastmile_qr_scan", "ios": "https://dc.lft.to/lastmile_qr_scan"}, "fusion_lat": 0.0, "lat": 38.82448766666667, "is_disabled": 0, "lon": -77.0704655, "is_reserved": 0}, {"bike_id": "4dbb0ce0b94394d5baf58eea93e56493", "fusion_lon": 0.0, "type": "electric_bike", "name": "4dbb0ce0b94394d5baf58eea93e56493", "rental_uris": {"android": "https://dc.lft.to/lastmile_qr_scan", "ios": "https://dc.lft.to/lastmile_qr_scan"}, "fusion_lat": 0.0, "lat": 38.79994633333333, "is_disabled": 0, "lon": -77.12983583333333, "is_reserved": 0}, {"bike_id": "af47519385491fe160a6e2cd72525de3", "fusion_lon": 0.0, "type": "electric_bike", "name": "af47519385491fe160a6e2cd72525de3", "rental_uris": {"android": "https://dc.lft.to/lastmile_qr_scan", "ios": "https://dc.lft.to/lastmile_qr_scan"}, "fusion_lat": 0.0, "lat": 38.879788, "is_disabled": 0, "lon": -76.91599733333334, "is_reserved": 0}, {"bike_id": "004e5a03b80eefc5f866dc73d91eb850", "fusion_lon": 0.0, "type": "electric_scooter", "name": "004e5a03b80eefc5f866dc73d91eb850", "rental_uris": {"android": "https://dc.lft.to/lastmile_qr_scan", "ios": "https://dc.lft.to/lastmile_qr_scan"}, "fusion_lat": 0.0, "lat": 38.92048916666667, "is_disabled": 0, "lon": -77.03383966666667, "is_reserved": 0}, {"bike_id": "5dc939673a04d79e8c90452f60adb941", "fusion_lon": 0.0, "type": "electric_bike", "name": "5dc939673a04d79e8c90452f60adb941", "rental_uris": {"android": "https://dc.lft.to/lastmile_qr_scan", "ios": "https://dc.lft.to/lastmile_qr_scan"}, "fusion_lat": 0.0, "lat": 39.054503, "is_disabled": 0, "lon": -77.04306633333333, "is_reserved": 0}, {"bike_id": "bd4e6f9519b33a17238b6ec25012b6d9", "fusion_lon": 0.0, "type": "electric_scooter", "name": "bd4e6f9519b33a17238b6ec25012b6d9", "rental_uris": {"android": "https://dc.lft.to/lastmile_qr_scan", "ios": "https://dc.lft.to/lastmile_qr_scan"}, "fusion_lat": 0.0, "lat": 38.894657, "is_disabled": 0, "lon": -77.00349433333334, "is_reserved": 0}, {"bike_id": "fd2f46db1f15056a52e84aad86a414a5", "fusion_lon": 0.0, "type": "electric_bike", "name": "fd2f46db1f15056a52e84aad86a414a5", "rental_uris": {"android": "https://dc.lft.to/lastmile_qr_scan", "ios": "https://dc.lft.to/lastmile_qr_scan"}, "fusion_lat": 0.0, "lat": 39.088629166666664, "is_disabled": 0, "lon": -77.178391, "is_reserved": 0}, {"bike_id": "370ff8629746ee13a57a9817e8270e11", "fusion_lon": 0.0, "type": "electric_scooter", "name": "370ff8629746ee13a57a9817e8270e11", "rental_uris": {"android": "https://dc.lft.to/lastmile_qr_scan", "ios": "https://dc.lft.to/lastmile_qr_scan"}, "fusion_lat": 0.0, "lat": 38.91417966666667, "is_disabled": 0, "lon": -77.0420555, "is_reserved": 0}, {"bike_id": "4761f2ebeb2b23fd9e5704af2b565363", "fusion_lon": 0.0, "type": "electric_scooter", "name": "4761f2ebeb2b23fd9e5704af2b565363", "rental_uris": {"android": "https://dc.lft.to/lastmile_qr_scan", "ios": "https://dc.lft.to/lastmile_qr_scan"}, "fusion_lat": 0.0, "lat": 38.94996783333333, "is_disabled": 0, "lon": -77.027035, "is_reserved": 0}, {"bike_id": "b3d1228dd21988250165183b5d744c3e", "fusion_lon": 0.0, "type": "electric_scooter", "name": "b3d1228dd21988250165183b5d744c3e", "rental_uris": {"android": "https://dc.lft.to/lastmile_qr_scan", "ios": "https://dc.lft.to/lastmile_qr_scan"}, "fusion_lat": 0.0, "lat": 38.9355085, "is_disabled": 0, "lon": -77.0821035, "is_reserved": 0}, {"bike_id": "3985b2cfe43b47728d79249fe71504d8", "fusion_lon": 0.0, "type": "electric_scooter", "name": "3985b2cfe43b47728d79249fe71504d8", "rental_uris": {"android": "https://dc.lft.to/lastmile_qr_scan", "ios": "https://dc.lft.to/lastmile_qr_scan"}, "fusion_lat": 0.0, "lat": 38.876981666666666, "is_disabled": 0, "lon": -77.0067805, "is_reserved": 0}, {"bike_id": "e0c34f7ae161001dd5afd616c1407a4b", "fusion_lon": 0.0, "type": "electric_scooter", "name": "e0c34f7ae161001dd5afd616c1407a4b", "rental_uris": {"android": "https://dc.lft.to/lastmile_qr_scan", "ios": "https://dc.lft.to/lastmile_qr_scan"}, "fusion_lat": 0.0, "lat": 38.8971785, "is_disabled": 0, "lon": -77.03134633333333, "is_reserved": 0}, {"bike_id": "3ca8b0b1bb34ca8c03957123f36ad351", "fusion_lon": 0.0, "type": "electric_scooter", "name": "3ca8b0b1bb34ca8c03957123f36ad351", "rental_uris": {"android": "https://dc.lft.to/lastmile_qr_scan", "ios": "https://dc.lft.to/lastmile_qr_scan"}, "fusion_lat": 0.0, "lat": 38.91923516666667, "is_disabled": 0, "lon": -77.03406516666666, "is_reserved": 0}, {"bike_id": "7f1d15ae250871c908113150f48949bf", "fusion_lon": 0.0, "type": "electric_scooter", "name": "7f1d15ae250871c908113150f48949bf", "rental_uris": {"android": "https://dc.lft.to/lastmile_qr_scan", "ios": "https://dc.lft.to/lastmile_qr_scan"}, "fusion_lat": 0.0, "lat": 38.86891766666667, "is_disabled": 0, "lon": -76.98311933333333, "is_reserved": 0}, {"bike_id": "b20f36b090f274f341e8296b1ab443bf", "fusion_lon": 0.0, "type": "electric_scooter", "name": "b20f36b090f274f341e8296b1ab443bf", "rental_uris": {"android": "https://dc.lft.to/lastmile_qr_scan", "ios": "https://dc.lft.to/lastmile_qr_scan"}, "fusion_lat": 0.0, "lat": 38.8873935, "is_disabled": 0, "lon": -77.031798, "is_reserved": 0}, {"bike_id": "1c4458e5fcb6c3131b55a0a8f201b92c", "fusion_lon": 0.0, "type": "electric_scooter", "name": "1c4458e5fcb6c3131b55a0a8f201b92c", "rental_uris": {"android": "https://dc.lft.to/lastmile_qr_scan", "ios": "https://dc.lft.to/lastmile_qr_scan"}, "fusion_lat": 0.0, "lat": 38.92246216666667, "is_disabled": 0, "lon": -77.035152, "is_reserved": 0}, {"bike_id": "3ae3689b7c8722298561d5938466afad", "fusion_lon": 0.0, "type": "electric_scooter", "name": "3ae3689b7c8722298561d5938466afad", "rental_uris": {"android": "https://dc.lft.to/lastmile_qr_scan", "ios": "https://dc.lft.to/lastmile_qr_scan"}, "fusion_lat": 0.0, "lat": 38.909486333333334, "is_disabled": 0, "lon": -76.99907816666666, "is_reserved": 0}, {"bike_id": "ede27aaa43216c81fcab1dad85cb3553", "fusion_lon": 0.0, "type": "electric_scooter", "name": "ede27aaa43216c81fcab1dad85cb3553", "rental_uris": {"android": "https://dc.lft.to/lastmile_qr_scan", "ios": "https://dc.lft.to/lastmile_qr_scan"}, "fusion_lat": 0.0, "lat": 38.932522666666664, "is_disabled": 0, "lon": -77.03854116666666, "is_reserved": 0}, {"bike_id": "040152484483146354d95278be19e11d", "fusion_lon": 0.0, "type": "electric_bike", "name": "040152484483146354d95278be19e11d", "rental_uris": {"android": "https://dc.lft.to/lastmile_qr_scan", "ios": "https://dc.lft.to/lastmile_qr_scan"}, "fusion_lat": 0.0, "lat": 38.8616365, "is_disabled": 0, "lon": -77.13092216666666, "is_reserved": 0}, {"bike_id": "5d139cd4a859f3642d2b3a2a9ff6afa0", "fusion_lon": 0.0, "type": "electric_scooter", "name": "5d139cd4a859f3642d2b3a2a9ff6afa0", "rental_uris": {"android": "https://dc.lft.to/lastmile_qr_scan", "ios": "https://dc.lft.to/lastmile_qr_scan"}, "fusion_lat": 0.0, "lat": 38.90598216666667, "is_disabled": 0, "lon": -77.06263883333334, "is_reserved": 0}, {"bike_id": "a92c1163410f2b15aec016c4024de833", "fusion_lon": 0.0, "type": "electric_scooter", "name": "a92c1163410f2b15aec016c4024de833", "rental_uris": {"android": "https://dc.lft.to/lastmile_qr_scan", "ios": "https://dc.lft.to/lastmile_qr_scan"}, "fusion_lat": 0.0, "lat": 38.93865783333333, "is_disabled": 0, "lon": -77.02465516666666, "is_reserved": 0}, {"bike_id": "592ff01f7d4c1719e606e031c3201135", "fusion_lon": 0.0, "type": "electric_bike", "name": "592ff01f7d4c1719e606e031c3201135", "rental_uris": {"android": "https://dc.lft.to/lastmile_qr_scan", "ios": "https://dc.lft.to/lastmile_qr_scan"}, "fusion_lat": 0.0, "lat": 38.81606383333333, "is_disabled": 0, "lon": -77.14120883333334, "is_reserved": 0}, {"bike_id": "8bfef3b8072a4ceabf63ff9a3fc22265", "fusion_lon": 0.0, "type": "electric_scooter", "name": "8bfef3b8072a4ceabf63ff9a3fc22265", "rental_uris": {"android": "https://dc.lft.to/lastmile_qr_scan", "ios": "https://dc.lft.to/lastmile_qr_scan"}, "fusion_lat": 0.0, "lat": 38.90247883333333, "is_disabled": 0, "lon": -76.98964966666666, "is_reserved": 0}, {"bike_id": "90e2d9ff6731250550aef622ab033b67", "fusion_lon": 0.0, "type": "electric_scooter", "name": "90e2d9ff6731250550aef622ab033b67", "rental_uris": {"android": "https://dc.lft.to/lastmile_qr_scan", "ios": "https://dc.lft.to/lastmile_qr_scan"}, "fusion_lat": 0.0, "lat": 38.9351665, "is_disabled": 0, "lon": -77.025491, "is_reserved": 0}, {"bike_id": "0e8599f52f095b00d3dd93cdba01f50a", "fusion_lon": 0.0, "type": "electric_scooter", "name": "0e8599f52f095b00d3dd93cdba01f50a", "rental_uris": {"android": "https://dc.lft.to/lastmile_qr_scan", "ios": "https://dc.lft.to/lastmile_qr_scan"}, "fusion_lat": 0.0, "lat": 38.874933, "is_disabled": 0, "lon": -77.0067435, "is_reserved": 0}, {"bike_id": "40499bec22704d3121e0aad40bc87f35", "fusion_lon": 0.0, "type": "electric_scooter", "name": "40499bec22704d3121e0aad40bc87f35", "rental_uris": {"android": "https://dc.lft.to/lastmile_qr_scan", "ios": "https://dc.lft.to/lastmile_qr_scan"}, "fusion_lat": 0.0, "lat": 38.91234266666667, "is_disabled": 0, "lon": -77.03837316666667, "is_reserved": 0}, {"bike_id": "a9ded1273c30d6a08b2fc2f21b9dfc4a", "fusion_lon": 0.0, "type": "electric_scooter", "name": "a9ded1273c30d6a08b2fc2f21b9dfc4a", "rental_uris": {"android": "https://dc.lft.to/lastmile_qr_scan", "ios": "https://dc.lft.to/lastmile_qr_scan"}, "fusion_lat": 0.0, "lat": 38.9064405, "is_disabled": 0, "lon": -77.01789933333333, "is_reserved": 0}, {"bike_id": "6c40e0d4053215dac6d537281e475a03", "fusion_lon": 0.0, "type": "electric_scooter", "name": "6c40e0d4053215dac6d537281e475a03", "rental_uris": {"android": "https://dc.lft.to/lastmile_qr_scan", "ios": "https://dc.lft.to/lastmile_qr_scan"}, "fusion_lat": 0.0, "lat": 38.925217, "is_disabled": 0, "lon": -77.05238933333334, "is_reserved": 0}, {"bike_id": "8de6ba2c6870ffda1e5baa623e608d71", "fusion_lon": 0.0, "type": "electric_scooter", "name": "8de6ba2c6870ffda1e5baa623e608d71", "rental_uris": {"android": "https://dc.lft.to/lastmile_qr_scan", "ios": "https://dc.lft.to/lastmile_qr_scan"}, "fusion_lat": 0.0, "lat": 38.9012515, "is_disabled": 0, "lon": -77.049917, "is_reserved": 0}, {"bike_id": "379c7334beff4b40cf9b08e2890dd632", "fusion_lon": 0.0, "type": "electric_scooter", "name": "379c7334beff4b40cf9b08e2890dd632", "rental_uris": {"android": "https://dc.lft.to/lastmile_qr_scan", "ios": "https://dc.lft.to/lastmile_qr_scan"}, "fusion_lat": 0.0, "lat": 38.87458816666667, "is_disabled": 0, "lon": -77.006011, "is_reserved": 0}, {"bike_id": "47e90a6b602ba64e9324c0879cd33fb4", "fusion_lon": 0.0, "type": "electric_scooter", "name": "47e90a6b602ba64e9324c0879cd33fb4", "rental_uris": {"android": "https://dc.lft.to/lastmile_qr_scan", "ios": "https://dc.lft.to/lastmile_qr_scan"}, "fusion_lat": 0.0, "lat": 38.90080433333333, "is_disabled": 0, "lon": -77.04815866666667, "is_reserved": 0}, {"bike_id": "65a11cf791ceae1824cd6ebef2d56183", "fusion_lon": 0.0, "type": "electric_scooter", "name": "65a11cf791ceae1824cd6ebef2d56183", "rental_uris": {"android": "https://dc.lft.to/lastmile_qr_scan", "ios": "https://dc.lft.to/lastmile_qr_scan"}, "fusion_lat": 0.0, "lat": 38.9333195, "is_disabled": 0, "lon": -77.02348233333333, "is_reserved": 0}, {"bike_id": "3f36e5971b898b503a3744a35b54e7f2", "fusion_lon": 0.0, "type": "electric_scooter", "name": "3f36e5971b898b503a3744a35b54e7f2", "rental_uris": {"android": "https://dc.lft.to/lastmile_qr_scan", "ios": "https://dc.lft.to/lastmile_qr_scan"}, "fusion_lat": 0.0, "lat": 38.911364, "is_disabled": 0, "lon": -77.0218685, "is_reserved": 0}, {"bike_id": "a4ff0daf8e775dc1a2e13f8e9bd32991", "fusion_lon": 0.0, "type": "electric_scooter", "name": "a4ff0daf8e775dc1a2e13f8e9bd32991", "rental_uris": {"android": "https://dc.lft.to/lastmile_qr_scan", "ios": "https://dc.lft.to/lastmile_qr_scan"}, "fusion_lat": 0.0, "lat": 38.89682233333333, "is_disabled": 0, "lon": -76.935338, "is_reserved": 0}, {"bike_id": "47babff7c1d142d1cf1f5d6fc3762adb", "fusion_lon": 0.0, "type": "electric_scooter", "name": "47babff7c1d142d1cf1f5d6fc3762adb", "rental_uris": {"android": "https://dc.lft.to/lastmile_qr_scan", "ios": "https://dc.lft.to/lastmile_qr_scan"}, "fusion_lat": 0.0, "lat": 38.92655216666667, "is_disabled": 0, "lon": -77.02474683333334, "is_reserved": 0}, {"bike_id": "05352ecf370bb6361d9e00821a943346", "fusion_lon": 0.0, "type": "electric_scooter", "name": "05352ecf370bb6361d9e00821a943346", "rental_uris": {"android": "https://dc.lft.to/lastmile_qr_scan", "ios": "https://dc.lft.to/lastmile_qr_scan"}, "fusion_lat": 0.0, "lat": 38.8876365, "is_disabled": 0, "lon": -77.03367733333333, "is_reserved": 0}, {"bike_id": "3f9fb6eedbcc74ff898fe0a0b9dc7186", "fusion_lon": 0.0, "type": "electric_scooter", "name": "3f9fb6eedbcc74ff898fe0a0b9dc7186", "rental_uris": {"android": "https://dc.lft.to/lastmile_qr_scan", "ios": "https://dc.lft.to/lastmile_qr_scan"}, "fusion_lat": 0.0, "lat": 38.90131566666667, "is_disabled": 0, "lon": -77.04168066666666, "is_reserved": 0}, {"bike_id": "975c2d8e508e0d3a150d7c94e807316c", "fusion_lon": 0.0, "type": "electric_scooter", "name": "975c2d8e508e0d3a150d7c94e807316c", "rental_uris": {"android": "https://dc.lft.to/lastmile_qr_scan", "ios": "https://dc.lft.to/lastmile_qr_scan"}, "fusion_lat": 0.0, "lat": 38.911654666666664, "is_disabled": 0, "lon": -77.023875, "is_reserved": 0}, {"bike_id": "0477e84b5e10a0f29fb440022af62749", "fusion_lon": 0.0, "type": "electric_scooter", "name": "0477e84b5e10a0f29fb440022af62749", "rental_uris": {"android": "https://dc.lft.to/lastmile_qr_scan", "ios": "https://dc.lft.to/lastmile_qr_scan"}, "fusion_lat": 0.0, "lat": 38.895270833333335, "is_disabled": 0, "lon": -76.9489895, "is_reserved": 0}, {"bike_id": "6aab83421705512d26ac7f7677b9d7ad", "fusion_lon": 0.0, "type": "electric_scooter", "name": "6aab83421705512d26ac7f7677b9d7ad", "rental_uris": {"android": "https://dc.lft.to/lastmile_qr_scan", "ios": "https://dc.lft.to/lastmile_qr_scan"}, "fusion_lat": 0.0, "lat": 38.916043, "is_disabled": 0, "lon": -77.0269665, "is_reserved": 0}, {"bike_id": "da851e720461fc747fed1dcdb789ca5c", "fusion_lon": 0.0, "type": "electric_scooter", "name": "da851e720461fc747fed1dcdb789ca5c", "rental_uris": {"android": "https://dc.lft.to/lastmile_qr_scan", "ios": "https://dc.lft.to/lastmile_qr_scan"}, "fusion_lat": 0.0, "lat": 38.90225083333333, "is_disabled": 0, "lon": -77.02375966666666, "is_reserved": 0}, {"bike_id": "1471f213de32daaded2854cd7c2af1e5", "fusion_lon": 0.0, "type": "electric_scooter", "name": "1471f213de32daaded2854cd7c2af1e5", "rental_uris": {"android": "https://dc.lft.to/lastmile_qr_scan", "ios": "https://dc.lft.to/lastmile_qr_scan"}, "fusion_lat": 0.0, "lat": 38.892282, "is_disabled": 0, "lon": -77.02770916666667, "is_reserved": 0}, {"bike_id": "df71285cfdd3d1cf53335a349c1473b5", "fusion_lon": 0.0, "type": "electric_scooter", "name": "df71285cfdd3d1cf53335a349c1473b5", "rental_uris": {"android": "https://dc.lft.to/lastmile_qr_scan", "ios": "https://dc.lft.to/lastmile_qr_scan"}, "fusion_lat": 0.0, "lat": 38.91062766666667, "is_disabled": 0, "lon": -77.03856716666667, "is_reserved": 0}, {"bike_id": "486277a614d3a265a539c4ac695c6475", "fusion_lon": 0.0, "type": "electric_scooter", "name": "486277a614d3a265a539c4ac695c6475", "rental_uris": {"android": "https://dc.lft.to/lastmile_qr_scan", "ios": "https://dc.lft.to/lastmile_qr_scan"}, "fusion_lat": 0.0, "lat": 38.924817833333336, "is_disabled": 0, "lon": -77.02898766666667, "is_reserved": 0}, {"bike_id": "eff294c7b7b2566f58954efd801e1bd9", "fusion_lon": 0.0, "type": "electric_scooter", "name": "eff294c7b7b2566f58954efd801e1bd9", "rental_uris": {"android": "https://dc.lft.to/lastmile_qr_scan", "ios": "https://dc.lft.to/lastmile_qr_scan"}, "fusion_lat": 0.0, "lat": 38.907253833333336, "is_disabled": 0, "lon": -77.02371483333333, "is_reserved": 0}, {"bike_id": "31c791084accd3f1b816c261bde20032", "fusion_lon": 0.0, "type": "electric_scooter", "name": "31c791084accd3f1b816c261bde20032", "rental_uris": {"android": "https://dc.lft.to/lastmile_qr_scan", "ios": "https://dc.lft.to/lastmile_qr_scan"}, "fusion_lat": 0.0, "lat": 38.90348083333333, "is_disabled": 0, "lon": -76.9884865, "is_reserved": 0}, {"bike_id": "926cf6e61b89770dd360a8c46926ab9f", "fusion_lon": 0.0, "type": "electric_scooter", "name": "926cf6e61b89770dd360a8c46926ab9f", "rental_uris": {"android": "https://dc.lft.to/lastmile_qr_scan", "ios": "https://dc.lft.to/lastmile_qr_scan"}, "fusion_lat": 0.0, "lat": 38.914084333333335, "is_disabled": 0, "lon": -77.04179666666667, "is_reserved": 0}, {"bike_id": "c3d9b44da7ed70365952ffa0c9827fe3", "fusion_lon": 0.0, "type": "electric_bike", "name": "c3d9b44da7ed70365952ffa0c9827fe3", "rental_uris": {"android": "https://dc.lft.to/lastmile_qr_scan", "ios": "https://dc.lft.to/lastmile_qr_scan"}, "fusion_lat": 0.0, "lat": 38.864132166666664, "is_disabled": 0, "lon": -76.97435666666667, "is_reserved": 0}, {"bike_id": "a40c9bc745f971ffb5ec5f6529fd2ea9", "fusion_lon": 0.0, "type": "electric_scooter", "name": "a40c9bc745f971ffb5ec5f6529fd2ea9", "rental_uris": {"android": "https://dc.lft.to/lastmile_qr_scan", "ios": "https://dc.lft.to/lastmile_qr_scan"}, "fusion_lat": 0.0, "lat": 38.90350266666667, "is_disabled": 0, "lon": -77.02685483333333, "is_reserved": 0}, {"bike_id": "18373fb7eb78a5d1b967353df2e6aa7d", "fusion_lon": 0.0, "type": "electric_scooter", "name": "18373fb7eb78a5d1b967353df2e6aa7d", "rental_uris": {"android": "https://dc.lft.to/lastmile_qr_scan", "ios": "https://dc.lft.to/lastmile_qr_scan"}, "fusion_lat": 0.0, "lat": 38.935914333333336, "is_disabled": 0, "lon": -77.03519033333333, "is_reserved": 0}, {"bike_id": "ebadfb7cb68a514322d4538bf61bcbb3", "fusion_lon": 0.0, "type": "electric_scooter", "name": "ebadfb7cb68a514322d4538bf61bcbb3", "rental_uris": {"android": "https://dc.lft.to/lastmile_qr_scan", "ios": "https://dc.lft.to/lastmile_qr_scan"}, "fusion_lat": 0.0, "lat": 38.932921666666665, "is_disabled": 0, "lon": -77.03630666666666, "is_reserved": 0}, {"bike_id": "a1089237430e4121fc6b16e2ff4fa278", "fusion_lon": 0.0, "type": "electric_scooter", "name": "a1089237430e4121fc6b16e2ff4fa278", "rental_uris": {"android": "https://dc.lft.to/lastmile_qr_scan", "ios": "https://dc.lft.to/lastmile_qr_scan"}, "fusion_lat": 0.0, "lat": 38.90679983333333, "is_disabled": 0, "lon": -77.03637016666667, "is_reserved": 0}, {"bike_id": "60358f705968e5d75383360621d870f4", "fusion_lon": 0.0, "type": "electric_scooter", "name": "60358f705968e5d75383360621d870f4", "rental_uris": {"android": "https://dc.lft.to/lastmile_qr_scan", "ios": "https://dc.lft.to/lastmile_qr_scan"}, "fusion_lat": 0.0, "lat": 38.9386745, "is_disabled": 0, "lon": -77.02487733333334, "is_reserved": 0}, {"bike_id": "e8e61d93aef0a747339385551c04cce7", "fusion_lon": 0.0, "type": "electric_bike", "name": "e8e61d93aef0a747339385551c04cce7", "rental_uris": {"android": "https://dc.lft.to/lastmile_qr_scan", "ios": "https://dc.lft.to/lastmile_qr_scan"}, "fusion_lat": 0.0, "lat": 38.86624583333333, "is_disabled": 0, "lon": -76.945713, "is_reserved": 0}, {"bike_id": "83634554d8096194eff19bd3169d960c", "fusion_lon": 0.0, "type": "electric_scooter", "name": "83634554d8096194eff19bd3169d960c", "rental_uris": {"android": "https://dc.lft.to/lastmile_qr_scan", "ios": "https://dc.lft.to/lastmile_qr_scan"}, "fusion_lat": 0.0, "lat": 38.89200566666667, "is_disabled": 0, "lon": -77.01548933333333, "is_reserved": 0}, {"bike_id": "6404ca6ee52c745b69f6f457dcfa4e79", "fusion_lon": 0.0, "type": "electric_scooter", "name": "6404ca6ee52c745b69f6f457dcfa4e79", "rental_uris": {"android": "https://dc.lft.to/lastmile_qr_scan", "ios": "https://dc.lft.to/lastmile_qr_scan"}, "fusion_lat": 0.0, "lat": 38.896983166666665, "is_disabled": 0, "lon": -77.022989, "is_reserved": 0}, {"bike_id": "f468707a658085671243a59c808727b5", "fusion_lon": 0.0, "type": "electric_scooter", "name": "f468707a658085671243a59c808727b5", "rental_uris": {"android": "https://dc.lft.to/lastmile_qr_scan", "ios": "https://dc.lft.to/lastmile_qr_scan"}, "fusion_lat": 0.0, "lat": 38.8922815, "is_disabled": 0, "lon": -77.032237, "is_reserved": 0}, {"bike_id": "267a8a628dd78e5355df83e3e050c254", "fusion_lon": 0.0, "type": "electric_scooter", "name": "267a8a628dd78e5355df83e3e050c254", "rental_uris": {"android": "https://dc.lft.to/lastmile_qr_scan", "ios": "https://dc.lft.to/lastmile_qr_scan"}, "fusion_lat": 0.0, "lat": 38.941683, "is_disabled": 0, "lon": -77.06192933333334, "is_reserved": 0}, {"bike_id": "6a98c1a347f23c709134bfabcff329c1", "fusion_lon": 0.0, "type": "electric_scooter", "name": "6a98c1a347f23c709134bfabcff329c1", "rental_uris": {"android": "https://dc.lft.to/lastmile_qr_scan", "ios": "https://dc.lft.to/lastmile_qr_scan"}, "fusion_lat": 0.0, "lat": 38.946507833333335, "is_disabled": 0, "lon": -77.03034683333334, "is_reserved": 0}, {"bike_id": "39a54e2ef4b82d056b94762ae752409e", "fusion_lon": 0.0, "type": "electric_scooter", "name": "39a54e2ef4b82d056b94762ae752409e", "rental_uris": {"android": "https://dc.lft.to/lastmile_qr_scan", "ios": "https://dc.lft.to/lastmile_qr_scan"}, "fusion_lat": 0.0, "lat": 38.91993516666667, "is_disabled": 0, "lon": -76.9730015, "is_reserved": 0}, {"bike_id": "4beabcd673ef9ebaed9637aabb7fe69a", "fusion_lon": 0.0, "type": "electric_scooter", "name": "4beabcd673ef9ebaed9637aabb7fe69a", "rental_uris": {"android": "https://dc.lft.to/lastmile_qr_scan", "ios": "https://dc.lft.to/lastmile_qr_scan"}, "fusion_lat": 0.0, "lat": 38.899077, "is_disabled": 0, "lon": -76.93342566666666, "is_reserved": 0}, {"bike_id": "71b08801a676c065cc5f524ac5bf467a", "fusion_lon": 0.0, "type": "electric_scooter", "name": "71b08801a676c065cc5f524ac5bf467a", "rental_uris": {"android": "https://dc.lft.to/lastmile_qr_scan", "ios": "https://dc.lft.to/lastmile_qr_scan"}, "fusion_lat": 0.0, "lat": 38.93217333333333, "is_disabled": 0, "lon": -77.03266116666667, "is_reserved": 0}, {"bike_id": "e9b6906ccd26dcb1fafe0da7bc54c72b", "fusion_lon": 0.0, "type": "electric_bike", "name": "e9b6906ccd26dcb1fafe0da7bc54c72b", "rental_uris": {"android": "https://dc.lft.to/lastmile_qr_scan", "ios": "https://dc.lft.to/lastmile_qr_scan"}, "fusion_lat": 0.0, "lat": 38.841309, "is_disabled": 0, "lon": -77.0631405, "is_reserved": 0}, {"bike_id": "cbaf54f464cc6285c47e588502f054e8", "fusion_lon": 0.0, "type": "electric_scooter", "name": "cbaf54f464cc6285c47e588502f054e8", "rental_uris": {"android": "https://dc.lft.to/lastmile_qr_scan", "ios": "https://dc.lft.to/lastmile_qr_scan"}, "fusion_lat": 0.0, "lat": 38.883353166666666, "is_disabled": 0, "lon": -77.00509716666667, "is_reserved": 0}, {"bike_id": "b35bc0f54de0d427ab0e88d6ccffafe4", "fusion_lon": 0.0, "type": "electric_scooter", "name": "b35bc0f54de0d427ab0e88d6ccffafe4", "rental_uris": {"android": "https://dc.lft.to/lastmile_qr_scan", "ios": "https://dc.lft.to/lastmile_qr_scan"}, "fusion_lat": 0.0, "lat": 38.897070666666664, "is_disabled": 0, "lon": -77.02132916666666, "is_reserved": 0}, {"bike_id": "763f5bc85fae1d66a08550da08362f44", "fusion_lon": 0.0, "type": "electric_scooter", "name": "763f5bc85fae1d66a08550da08362f44", "rental_uris": {"android": "https://dc.lft.to/lastmile_qr_scan", "ios": "https://dc.lft.to/lastmile_qr_scan"}, "fusion_lat": 0.0, "lat": 38.90263483333333, "is_disabled": 0, "lon": -77.01819416666666, "is_reserved": 0}, {"bike_id": "e1c36e54cea76bcac60938097464ec48", "fusion_lon": 0.0, "type": "electric_bike", "name": "e1c36e54cea76bcac60938097464ec48", "rental_uris": {"android": "https://dc.lft.to/lastmile_qr_scan", "ios": "https://dc.lft.to/lastmile_qr_scan"}, "fusion_lat": 0.0, "lat": 38.85542383333333, "is_disabled": 0, "lon": -77.10724383333333, "is_reserved": 0}, {"bike_id": "de0d9460260ae415af146b518c8aeb39", "fusion_lon": 0.0, "type": "electric_scooter", "name": "de0d9460260ae415af146b518c8aeb39", "rental_uris": {"android": "https://dc.lft.to/lastmile_qr_scan", "ios": "https://dc.lft.to/lastmile_qr_scan"}, "fusion_lat": 0.0, "lat": 38.90041316666667, "is_disabled": 0, "lon": -77.01762233333334, "is_reserved": 0}, {"bike_id": "dd3c029fca252fd6ffe59d0e5e54560b", "fusion_lon": 0.0, "type": "electric_scooter", "name": "dd3c029fca252fd6ffe59d0e5e54560b", "rental_uris": {"android": "https://dc.lft.to/lastmile_qr_scan", "ios": "https://dc.lft.to/lastmile_qr_scan"}, "fusion_lat": 0.0, "lat": 38.90173433333333, "is_disabled": 0, "lon": -76.98071433333334, "is_reserved": 0}, {"bike_id": "b29c63405971427303302ecc5bb80f90", "fusion_lon": 0.0, "type": "electric_scooter", "name": "b29c63405971427303302ecc5bb80f90", "rental_uris": {"android": "https://dc.lft.to/lastmile_qr_scan", "ios": "https://dc.lft.to/lastmile_qr_scan"}, "fusion_lat": 0.0, "lat": 38.9291045, "is_disabled": 0, "lon": -77.06386333333333, "is_reserved": 0}, {"bike_id": "f520eea0e8e1b1bdd2180b4db665f106", "fusion_lon": 0.0, "type": "electric_scooter", "name": "f520eea0e8e1b1bdd2180b4db665f106", "rental_uris": {"android": "https://dc.lft.to/lastmile_qr_scan", "ios": "https://dc.lft.to/lastmile_qr_scan"}, "fusion_lat": 0.0, "lat": 38.8778415, "is_disabled": 0, "lon": -76.9941335, "is_reserved": 0}, {"bike_id": "61be90def0993aad11c7f1d77943dfc3", "fusion_lon": 0.0, "type": "electric_scooter", "name": "61be90def0993aad11c7f1d77943dfc3", "rental_uris": {"android": "https://dc.lft.to/lastmile_qr_scan", "ios": "https://dc.lft.to/lastmile_qr_scan"}, "fusion_lat": 0.0, "lat": 38.89921066666667, "is_disabled": 0, "lon": -76.9860115, "is_reserved": 0}, {"bike_id": "e95432b3db34f943da7aa5f508fd3cc9", "fusion_lon": 0.0, "type": "electric_scooter", "name": "e95432b3db34f943da7aa5f508fd3cc9", "rental_uris": {"android": "https://dc.lft.to/lastmile_qr_scan", "ios": "https://dc.lft.to/lastmile_qr_scan"}, "fusion_lat": 0.0, "lat": 38.898832, "is_disabled": 0, "lon": -77.05298216666667, "is_reserved": 0}, {"bike_id": "360c12c28a4e1cd21e8d631db342437b", "fusion_lon": 0.0, "type": "electric_bike", "name": "360c12c28a4e1cd21e8d631db342437b", "rental_uris": {"android": "https://dc.lft.to/lastmile_qr_scan", "ios": "https://dc.lft.to/lastmile_qr_scan"}, "fusion_lat": 0.0, "lat": 38.8928535, "is_disabled": 0, "lon": -76.9762525, "is_reserved": 0}, {"bike_id": "479b7cbb66745a093522e85888e9a87b", "fusion_lon": 0.0, "type": "electric_bike", "name": "479b7cbb66745a093522e85888e9a87b", "rental_uris": {"android": "https://dc.lft.to/lastmile_qr_scan", "ios": "https://dc.lft.to/lastmile_qr_scan"}, "fusion_lat": 0.0, "lat": 38.953495333333336, "is_disabled": 0, "lon": -77.00980166666666, "is_reserved": 0}, {"bike_id": "b90500d30f4cad31885ef0b0251e5be9", "fusion_lon": 0.0, "type": "electric_scooter", "name": "b90500d30f4cad31885ef0b0251e5be9", "rental_uris": {"android": "https://dc.lft.to/lastmile_qr_scan", "ios": "https://dc.lft.to/lastmile_qr_scan"}, "fusion_lat": 0.0, "lat": 38.919645333333335, "is_disabled": 0, "lon": -77.041454, "is_reserved": 0}, {"bike_id": "0a96eea27ad0c892fedec5bc80b08fe4", "fusion_lon": 0.0, "type": "electric_scooter", "name": "0a96eea27ad0c892fedec5bc80b08fe4", "rental_uris": {"android": "https://dc.lft.to/lastmile_qr_scan", "ios": "https://dc.lft.to/lastmile_qr_scan"}, "fusion_lat": 0.0, "lat": 38.933823833333335, "is_disabled": 0, "lon": -77.0373205, "is_reserved": 0}, {"bike_id": "7dfb75ca339cf50a4ba47aa3802d8b37", "fusion_lon": 0.0, "type": "electric_scooter", "name": "7dfb75ca339cf50a4ba47aa3802d8b37", "rental_uris": {"android": "https://dc.lft.to/lastmile_qr_scan", "ios": "https://dc.lft.to/lastmile_qr_scan"}, "fusion_lat": 0.0, "lat": 38.91828433333333, "is_disabled": 0, "lon": -77.026898, "is_reserved": 0}, {"bike_id": "11e60f3b5c958b95b950974ff751c6f8", "fusion_lon": 0.0, "type": "electric_scooter", "name": "11e60f3b5c958b95b950974ff751c6f8", "rental_uris": {"android": "https://dc.lft.to/lastmile_qr_scan", "ios": "https://dc.lft.to/lastmile_qr_scan"}, "fusion_lat": 0.0, "lat": 38.9076435, "is_disabled": 0, "lon": -77.032099, "is_reserved": 0}, {"bike_id": "638bf77d39a6080826a21b441d30acc6", "fusion_lon": 0.0, "type": "electric_scooter", "name": "638bf77d39a6080826a21b441d30acc6", "rental_uris": {"android": "https://dc.lft.to/lastmile_qr_scan", "ios": "https://dc.lft.to/lastmile_qr_scan"}, "fusion_lat": 0.0, "lat": 38.84429516666667, "is_disabled": 0, "lon": -76.997695, "is_reserved": 0}, {"bike_id": "26dcab265d88e8cddb90a66af8fed463", "fusion_lon": 0.0, "type": "electric_scooter", "name": "26dcab265d88e8cddb90a66af8fed463", "rental_uris": {"android": "https://dc.lft.to/lastmile_qr_scan", "ios": "https://dc.lft.to/lastmile_qr_scan"}, "fusion_lat": 0.0, "lat": 38.908722166666664, "is_disabled": 0, "lon": -77.02383483333334, "is_reserved": 0}, {"bike_id": "3b564fef28d9632043dac724337d528d", "fusion_lon": 0.0, "type": "electric_scooter", "name": "3b564fef28d9632043dac724337d528d", "rental_uris": {"android": "https://dc.lft.to/lastmile_qr_scan", "ios": "https://dc.lft.to/lastmile_qr_scan"}, "fusion_lat": 0.0, "lat": 38.8963815, "is_disabled": 0, "lon": -76.94773566666667, "is_reserved": 0}, {"bike_id": "ea7c550d4e3f9c0e87d0b16cb92ec131", "fusion_lon": 0.0, "type": "electric_scooter", "name": "ea7c550d4e3f9c0e87d0b16cb92ec131", "rental_uris": {"android": "https://dc.lft.to/lastmile_qr_scan", "ios": "https://dc.lft.to/lastmile_qr_scan"}, "fusion_lat": 0.0, "lat": 38.907388, "is_disabled": 0, "lon": -77.04279416666667, "is_reserved": 0}, {"bike_id": "e78ab4312a64bd21ebd301a03c5c4023", "fusion_lon": 0.0, "type": "electric_scooter", "name": "e78ab4312a64bd21ebd301a03c5c4023", "rental_uris": {"android": "https://dc.lft.to/lastmile_qr_scan", "ios": "https://dc.lft.to/lastmile_qr_scan"}, "fusion_lat": 0.0, "lat": 38.9067585, "is_disabled": 0, "lon": -77.02697, "is_reserved": 0}, {"bike_id": "c09bb2e905fd956650aff884127056aa", "fusion_lon": 0.0, "type": "electric_bike", "name": "c09bb2e905fd956650aff884127056aa", "rental_uris": {"android": "https://dc.lft.to/lastmile_qr_scan", "ios": "https://dc.lft.to/lastmile_qr_scan"}, "fusion_lat": 0.0, "lat": 38.836141166666664, "is_disabled": 0, "lon": -77.00367333333334, "is_reserved": 0}, {"bike_id": "3599560c427b12c0c98e3b0feceb647b", "fusion_lon": 0.0, "type": "electric_bike", "name": "3599560c427b12c0c98e3b0feceb647b", "rental_uris": {"android": "https://dc.lft.to/lastmile_qr_scan", "ios": "https://dc.lft.to/lastmile_qr_scan"}, "fusion_lat": 0.0, "lat": 38.9759285, "is_disabled": 0, "lon": -77.03512433333333, "is_reserved": 0}, {"bike_id": "2c5cf7f68695050aee285a0fdbd5d900", "fusion_lon": 0.0, "type": "electric_scooter", "name": "2c5cf7f68695050aee285a0fdbd5d900", "rental_uris": {"android": "https://dc.lft.to/lastmile_qr_scan", "ios": "https://dc.lft.to/lastmile_qr_scan"}, "fusion_lat": 0.0, "lat": 38.89345733333333, "is_disabled": 0, "lon": -77.011582, "is_reserved": 0}, {"bike_id": "01869a77e13f26c142d0ae08a0097d16", "fusion_lon": 0.0, "type": "electric_scooter", "name": "01869a77e13f26c142d0ae08a0097d16", "rental_uris": {"android": "https://dc.lft.to/lastmile_qr_scan", "ios": "https://dc.lft.to/lastmile_qr_scan"}, "fusion_lat": 0.0, "lat": 38.883214, "is_disabled": 0, "lon": -76.949417, "is_reserved": 0}, {"bike_id": "637aa15a9281fb9736326423c398f2c4", "fusion_lon": 0.0, "type": "electric_scooter", "name": "637aa15a9281fb9736326423c398f2c4", "rental_uris": {"android": "https://dc.lft.to/lastmile_qr_scan", "ios": "https://dc.lft.to/lastmile_qr_scan"}, "fusion_lat": 0.0, "lat": 38.956539666666664, "is_disabled": 0, "lon": -77.03288766666667, "is_reserved": 0}, {"bike_id": "ec71b853e7f97df7d48b56a1521ea489", "fusion_lon": 0.0, "type": "electric_bike", "name": "ec71b853e7f97df7d48b56a1521ea489", "rental_uris": {"android": "https://dc.lft.to/lastmile_qr_scan", "ios": "https://dc.lft.to/lastmile_qr_scan"}, "fusion_lat": 0.0, "lat": 38.837407166666665, "is_disabled": 0, "lon": -77.09548166666667, "is_reserved": 0}, {"bike_id": "b3d00e4c134df8576487fbd14667c14d", "fusion_lon": 0.0, "type": "electric_scooter", "name": "b3d00e4c134df8576487fbd14667c14d", "rental_uris": {"android": "https://dc.lft.to/lastmile_qr_scan", "ios": "https://dc.lft.to/lastmile_qr_scan"}, "fusion_lat": 0.0, "lat": 38.8922395, "is_disabled": 0, "lon": -77.02718516666667, "is_reserved": 0}, {"bike_id": "2f81370d021e72c61a1af13ffcd4f896", "fusion_lon": 0.0, "type": "electric_scooter", "name": "2f81370d021e72c61a1af13ffcd4f896", "rental_uris": {"android": "https://dc.lft.to/lastmile_qr_scan", "ios": "https://dc.lft.to/lastmile_qr_scan"}, "fusion_lat": 0.0, "lat": 38.8923745, "is_disabled": 0, "lon": -77.049974, "is_reserved": 0}, {"bike_id": "f9605c966003e9abaff6cb62e4c4b072", "fusion_lon": 0.0, "type": "electric_scooter", "name": "f9605c966003e9abaff6cb62e4c4b072", "rental_uris": {"android": "https://dc.lft.to/lastmile_qr_scan", "ios": "https://dc.lft.to/lastmile_qr_scan"}, "fusion_lat": 0.0, "lat": 38.90253533333333, "is_disabled": 0, "lon": -77.025954, "is_reserved": 0}, {"bike_id": "f346e3792e6c603ab738b57f481b2abd", "fusion_lon": 0.0, "type": "electric_scooter", "name": "f346e3792e6c603ab738b57f481b2abd", "rental_uris": {"android": "https://dc.lft.to/lastmile_qr_scan", "ios": "https://dc.lft.to/lastmile_qr_scan"}, "fusion_lat": 0.0, "lat": 38.9355585, "is_disabled": 0, "lon": -77.08213833333333, "is_reserved": 0}, {"bike_id": "63d0e56cc507db54c17aed0f021d8a22", "fusion_lon": 0.0, "type": "electric_scooter", "name": "63d0e56cc507db54c17aed0f021d8a22", "rental_uris": {"android": "https://dc.lft.to/lastmile_qr_scan", "ios": "https://dc.lft.to/lastmile_qr_scan"}, "fusion_lat": 0.0, "lat": 38.92479083333333, "is_disabled": 0, "lon": -77.02831566666667, "is_reserved": 0}, {"bike_id": "9fc486062aba2d1865514a4435d7fc17", "fusion_lon": 0.0, "type": "electric_scooter", "name": "9fc486062aba2d1865514a4435d7fc17", "rental_uris": {"android": "https://dc.lft.to/lastmile_qr_scan", "ios": "https://dc.lft.to/lastmile_qr_scan"}, "fusion_lat": 0.0, "lat": 38.9446465, "is_disabled": 0, "lon": -77.0280785, "is_reserved": 0}, {"bike_id": "f04e39b4d2d4a31e9873f20cbd92839f", "fusion_lon": 0.0, "type": "electric_scooter", "name": "f04e39b4d2d4a31e9873f20cbd92839f", "rental_uris": {"android": "https://dc.lft.to/lastmile_qr_scan", "ios": "https://dc.lft.to/lastmile_qr_scan"}, "fusion_lat": 0.0, "lat": 38.91841083333333, "is_disabled": 0, "lon": -77.03918716666666, "is_reserved": 0}, {"bike_id": "13082f39717c34e7215afa64eeb4b784", "fusion_lon": 0.0, "type": "electric_scooter", "name": "13082f39717c34e7215afa64eeb4b784", "rental_uris": {"android": "https://dc.lft.to/lastmile_qr_scan", "ios": "https://dc.lft.to/lastmile_qr_scan"}, "fusion_lat": 0.0, "lat": 38.89438633333333, "is_disabled": 0, "lon": -77.0011735, "is_reserved": 0}, {"bike_id": "205a98911b89a67f84333d58cbc39330", "fusion_lon": 0.0, "type": "electric_scooter", "name": "205a98911b89a67f84333d58cbc39330", "rental_uris": {"android": "https://dc.lft.to/lastmile_qr_scan", "ios": "https://dc.lft.to/lastmile_qr_scan"}, "fusion_lat": 0.0, "lat": 38.90216816666667, "is_disabled": 0, "lon": -77.0237555, "is_reserved": 0}, {"bike_id": "41193e3e0f56afd1e4a5625612c6b1b0", "fusion_lon": 0.0, "type": "electric_scooter", "name": "41193e3e0f56afd1e4a5625612c6b1b0", "rental_uris": {"android": "https://dc.lft.to/lastmile_qr_scan", "ios": "https://dc.lft.to/lastmile_qr_scan"}, "fusion_lat": 0.0, "lat": 38.908221, "is_disabled": 0, "lon": -77.03941516666667, "is_reserved": 0}, {"bike_id": "4babbfbf3c957ce4d417b7a066036e46", "fusion_lon": 0.0, "type": "electric_scooter", "name": "4babbfbf3c957ce4d417b7a066036e46", "rental_uris": {"android": "https://dc.lft.to/lastmile_qr_scan", "ios": "https://dc.lft.to/lastmile_qr_scan"}, "fusion_lat": 0.0, "lat": 38.8987295, "is_disabled": 0, "lon": -76.9466435, "is_reserved": 0}, {"bike_id": "641f5c6e5f9f0f671c74ff35aaf60aac", "fusion_lon": 0.0, "type": "electric_scooter", "name": "641f5c6e5f9f0f671c74ff35aaf60aac", "rental_uris": {"android": "https://dc.lft.to/lastmile_qr_scan", "ios": "https://dc.lft.to/lastmile_qr_scan"}, "fusion_lat": 0.0, "lat": 38.93083766666667, "is_disabled": 0, "lon": -77.02792483333333, "is_reserved": 0}, {"bike_id": "dc0bd35d0900c8e3e63da97fece8bd2b", "fusion_lon": 0.0, "type": "electric_scooter", "name": "dc0bd35d0900c8e3e63da97fece8bd2b", "rental_uris": {"android": "https://dc.lft.to/lastmile_qr_scan", "ios": "https://dc.lft.to/lastmile_qr_scan"}, "fusion_lat": 0.0, "lat": 38.921322, "is_disabled": 0, "lon": -77.04683333333334, "is_reserved": 0}, {"bike_id": "44794aed9a89b01f5592813739ef0636", "fusion_lon": 0.0, "type": "electric_scooter", "name": "44794aed9a89b01f5592813739ef0636", "rental_uris": {"android": "https://dc.lft.to/lastmile_qr_scan", "ios": "https://dc.lft.to/lastmile_qr_scan"}, "fusion_lat": 0.0, "lat": 38.91434, "is_disabled": 0, "lon": -77.00198383333333, "is_reserved": 0}, {"bike_id": "7abf522b683c455a85e7d47c285a264c", "fusion_lon": 0.0, "type": "electric_scooter", "name": "7abf522b683c455a85e7d47c285a264c", "rental_uris": {"android": "https://dc.lft.to/lastmile_qr_scan", "ios": "https://dc.lft.to/lastmile_qr_scan"}, "fusion_lat": 0.0, "lat": 38.912578, "is_disabled": 0, "lon": -77.04734866666666, "is_reserved": 0}, {"bike_id": "833cdb696797b339b19d7ec7e1ab92e5", "fusion_lon": 0.0, "type": "electric_scooter", "name": "833cdb696797b339b19d7ec7e1ab92e5", "rental_uris": {"android": "https://dc.lft.to/lastmile_qr_scan", "ios": "https://dc.lft.to/lastmile_qr_scan"}, "fusion_lat": 0.0, "lat": 38.9014815, "is_disabled": 0, "lon": -76.99410016666667, "is_reserved": 0}, {"bike_id": "8fbce536ab3b72a5fd3717467f68cfb4", "fusion_lon": 0.0, "type": "electric_scooter", "name": "8fbce536ab3b72a5fd3717467f68cfb4", "rental_uris": {"android": "https://dc.lft.to/lastmile_qr_scan", "ios": "https://dc.lft.to/lastmile_qr_scan"}, "fusion_lat": 0.0, "lat": 38.898563, "is_disabled": 0, "lon": -76.97666733333334, "is_reserved": 0}, {"bike_id": "6da465c41e8595a3a264f73e52a412d6", "fusion_lon": 0.0, "type": "electric_scooter", "name": "6da465c41e8595a3a264f73e52a412d6", "rental_uris": {"android": "https://dc.lft.to/lastmile_qr_scan", "ios": "https://dc.lft.to/lastmile_qr_scan"}, "fusion_lat": 0.0, "lat": 38.89967516666667, "is_disabled": 0, "lon": -76.93430933333333, "is_reserved": 0}, {"bike_id": "baa51ab1ffd1cbc7fe31b80a54a8d3b1", "fusion_lon": 0.0, "type": "electric_scooter", "name": "baa51ab1ffd1cbc7fe31b80a54a8d3b1", "rental_uris": {"android": "https://dc.lft.to/lastmile_qr_scan", "ios": "https://dc.lft.to/lastmile_qr_scan"}, "fusion_lat": 0.0, "lat": 38.90803233333333, "is_disabled": 0, "lon": -77.05143533333333, "is_reserved": 0}, {"bike_id": "837ae4e23456e13be56550c8ccc74489", "fusion_lon": 0.0, "type": "electric_scooter", "name": "837ae4e23456e13be56550c8ccc74489", "rental_uris": {"android": "https://dc.lft.to/lastmile_qr_scan", "ios": "https://dc.lft.to/lastmile_qr_scan"}, "fusion_lat": 0.0, "lat": 38.914788333333334, "is_disabled": 0, "lon": -77.01453916666667, "is_reserved": 0}, {"bike_id": "87b9b872a86451cb6ce949e73db0549d", "fusion_lon": 0.0, "type": "electric_scooter", "name": "87b9b872a86451cb6ce949e73db0549d", "rental_uris": {"android": "https://dc.lft.to/lastmile_qr_scan", "ios": "https://dc.lft.to/lastmile_qr_scan"}, "fusion_lat": 0.0, "lat": 38.933204833333335, "is_disabled": 0, "lon": -76.99106416666666, "is_reserved": 0}, {"bike_id": "070c7cafa0a2c9b9a4a89f1c1a9d65f5", "fusion_lon": 0.0, "type": "electric_scooter", "name": "070c7cafa0a2c9b9a4a89f1c1a9d65f5", "rental_uris": {"android": "https://dc.lft.to/lastmile_qr_scan", "ios": "https://dc.lft.to/lastmile_qr_scan"}, "fusion_lat": 0.0, "lat": 38.9348365, "is_disabled": 0, "lon": -77.024086, "is_reserved": 0}, {"bike_id": "ea5aafd652be27092980439562faa760", "fusion_lon": 0.0, "type": "electric_scooter", "name": "ea5aafd652be27092980439562faa760", "rental_uris": {"android": "https://dc.lft.to/lastmile_qr_scan", "ios": "https://dc.lft.to/lastmile_qr_scan"}, "fusion_lat": 0.0, "lat": 38.904861833333335, "is_disabled": 0, "lon": -77.01975616666667, "is_reserved": 0}, {"bike_id": "57f377ec8f7ad5c4bbdab3d28b3c5052", "fusion_lon": 0.0, "type": "electric_scooter", "name": "57f377ec8f7ad5c4bbdab3d28b3c5052", "rental_uris": {"android": "https://dc.lft.to/lastmile_qr_scan", "ios": "https://dc.lft.to/lastmile_qr_scan"}, "fusion_lat": 0.0, "lat": 38.900287666666664, "is_disabled": 0, "lon": -76.9986745, "is_reserved": 0}, {"bike_id": "d091df9c1d04c8aae34ba999c5832f68", "fusion_lon": 0.0, "type": "electric_scooter", "name": "d091df9c1d04c8aae34ba999c5832f68", "rental_uris": {"android": "https://dc.lft.to/lastmile_qr_scan", "ios": "https://dc.lft.to/lastmile_qr_scan"}, "fusion_lat": 0.0, "lat": 38.8650825, "is_disabled": 0, "lon": -76.99000633333333, "is_reserved": 0}, {"bike_id": "e9a4d5e8dbfe6d6d92fb778153d63810", "fusion_lon": 0.0, "type": "electric_bike", "name": "e9a4d5e8dbfe6d6d92fb778153d63810", "rental_uris": {"android": "https://dc.lft.to/lastmile_qr_scan", "ios": "https://dc.lft.to/lastmile_qr_scan"}, "fusion_lat": 0.0, "lat": 38.90573533333333, "is_disabled": 0, "lon": -77.01699583333334, "is_reserved": 0}, {"bike_id": "471e71306f75661f590982b3254736b5", "fusion_lon": 0.0, "type": "electric_scooter", "name": "471e71306f75661f590982b3254736b5", "rental_uris": {"android": "https://dc.lft.to/lastmile_qr_scan", "ios": "https://dc.lft.to/lastmile_qr_scan"}, "fusion_lat": 0.0, "lat": 38.9279235, "is_disabled": 0, "lon": -77.0307745, "is_reserved": 0}, {"bike_id": "9fac1277c2244d1512b9f615425af470", "fusion_lon": 0.0, "type": "electric_scooter", "name": "9fac1277c2244d1512b9f615425af470", "rental_uris": {"android": "https://dc.lft.to/lastmile_qr_scan", "ios": "https://dc.lft.to/lastmile_qr_scan"}, "fusion_lat": 0.0, "lat": 38.93363316666667, "is_disabled": 0, "lon": -77.037232, "is_reserved": 0}, {"bike_id": "082dcea4bf51aa371c824aa93aa7c101", "fusion_lon": 0.0, "type": "electric_bike", "name": "082dcea4bf51aa371c824aa93aa7c101", "rental_uris": {"android": "https://dc.lft.to/lastmile_qr_scan", "ios": "https://dc.lft.to/lastmile_qr_scan"}, "fusion_lat": 0.0, "lat": 38.9192425, "is_disabled": 0, "lon": -77.07062466666666, "is_reserved": 0}, {"bike_id": "3a341de8181ceea62587ddab09565991", "fusion_lon": 0.0, "type": "electric_scooter", "name": "3a341de8181ceea62587ddab09565991", "rental_uris": {"android": "https://dc.lft.to/lastmile_qr_scan", "ios": "https://dc.lft.to/lastmile_qr_scan"}, "fusion_lat": 0.0, "lat": 38.902555666666665, "is_disabled": 0, "lon": -77.02932466666667, "is_reserved": 0}, {"bike_id": "d2dc8b2872d60c9ca3895caeefe810cd", "fusion_lon": 0.0, "type": "electric_scooter", "name": "d2dc8b2872d60c9ca3895caeefe810cd", "rental_uris": {"android": "https://dc.lft.to/lastmile_qr_scan", "ios": "https://dc.lft.to/lastmile_qr_scan"}, "fusion_lat": 0.0, "lat": 38.854659, "is_disabled": 0, "lon": -76.98613283333333, "is_reserved": 0}, {"bike_id": "9b0ec74cab3e8c120524b4e92e053b69", "fusion_lon": 0.0, "type": "electric_scooter", "name": "9b0ec74cab3e8c120524b4e92e053b69", "rental_uris": {"android": "https://dc.lft.to/lastmile_qr_scan", "ios": "https://dc.lft.to/lastmile_qr_scan"}, "fusion_lat": 0.0, "lat": 38.90277066666667, "is_disabled": 0, "lon": -77.03200583333333, "is_reserved": 0}, {"bike_id": "f95dce55adff48516a0e378cb5a49c3c", "fusion_lon": 0.0, "type": "electric_scooter", "name": "f95dce55adff48516a0e378cb5a49c3c", "rental_uris": {"android": "https://dc.lft.to/lastmile_qr_scan", "ios": "https://dc.lft.to/lastmile_qr_scan"}, "fusion_lat": 0.0, "lat": 38.91045833333333, "is_disabled": 0, "lon": -77.00909816666666, "is_reserved": 0}, {"bike_id": "47cc8091f54ec511de837742837d8253", "fusion_lon": 0.0, "type": "electric_bike", "name": "47cc8091f54ec511de837742837d8253", "rental_uris": {"android": "https://dc.lft.to/lastmile_qr_scan", "ios": "https://dc.lft.to/lastmile_qr_scan"}, "fusion_lat": 0.0, "lat": 38.839226, "is_disabled": 0, "lon": -76.99835566666667, "is_reserved": 0}, {"bike_id": "59e4ee10ebc6440aaac7bd5d18b8208b", "fusion_lon": 0.0, "type": "electric_scooter", "name": "59e4ee10ebc6440aaac7bd5d18b8208b", "rental_uris": {"android": "https://dc.lft.to/lastmile_qr_scan", "ios": "https://dc.lft.to/lastmile_qr_scan"}, "fusion_lat": 0.0, "lat": 38.887448, "is_disabled": 0, "lon": -77.02825783333333, "is_reserved": 0}, {"bike_id": "b08da9a90409a5ea21db0d4fe70c038c", "fusion_lon": 0.0, "type": "electric_scooter", "name": "b08da9a90409a5ea21db0d4fe70c038c", "rental_uris": {"android": "https://dc.lft.to/lastmile_qr_scan", "ios": "https://dc.lft.to/lastmile_qr_scan"}, "fusion_lat": 0.0, "lat": 38.903829, "is_disabled": 0, "lon": -76.98016266666667, "is_reserved": 0}, {"bike_id": "f52f5f8a6c09a94cf3c7622ae546ed33", "fusion_lon": 0.0, "type": "electric_scooter", "name": "f52f5f8a6c09a94cf3c7622ae546ed33", "rental_uris": {"android": "https://dc.lft.to/lastmile_qr_scan", "ios": "https://dc.lft.to/lastmile_qr_scan"}, "fusion_lat": 0.0, "lat": 38.91674166666667, "is_disabled": 0, "lon": -77.02394466666667, "is_reserved": 0}, {"bike_id": "2d76b982f05573bf3c8a0788ab9ce3b5", "fusion_lon": 0.0, "type": "electric_scooter", "name": "2d76b982f05573bf3c8a0788ab9ce3b5", "rental_uris": {"android": "https://dc.lft.to/lastmile_qr_scan", "ios": "https://dc.lft.to/lastmile_qr_scan"}, "fusion_lat": 0.0, "lat": 38.9056675, "is_disabled": 0, "lon": -77.0167645, "is_reserved": 0}, {"bike_id": "22e48924cc6531e5160f529f10d3f2c3", "fusion_lon": 0.0, "type": "electric_bike", "name": "22e48924cc6531e5160f529f10d3f2c3", "rental_uris": {"android": "https://dc.lft.to/lastmile_qr_scan", "ios": "https://dc.lft.to/lastmile_qr_scan"}, "fusion_lat": 0.0, "lat": 38.885304833333336, "is_disabled": 0, "lon": -76.9357265, "is_reserved": 0}, {"bike_id": "7c3aa5b45a172df25eae67b48c47767b", "fusion_lon": 0.0, "type": "electric_bike", "name": "7c3aa5b45a172df25eae67b48c47767b", "rental_uris": {"android": "https://dc.lft.to/lastmile_qr_scan", "ios": "https://dc.lft.to/lastmile_qr_scan"}, "fusion_lat": 0.0, "lat": 38.96265266666666, "is_disabled": 0, "lon": -77.010747, "is_reserved": 0}, {"bike_id": "d19dcdca44db030a9b4be4a837cb4723", "fusion_lon": 0.0, "type": "electric_scooter", "name": "d19dcdca44db030a9b4be4a837cb4723", "rental_uris": {"android": "https://dc.lft.to/lastmile_qr_scan", "ios": "https://dc.lft.to/lastmile_qr_scan"}, "fusion_lat": 0.0, "lat": 38.965062833333334, "is_disabled": 0, "lon": -77.0285095, "is_reserved": 0}, {"bike_id": "e0bd5423e203731a0c9489c5cf0922c1", "fusion_lon": 0.0, "type": "electric_scooter", "name": "e0bd5423e203731a0c9489c5cf0922c1", "rental_uris": {"android": "https://dc.lft.to/lastmile_qr_scan", "ios": "https://dc.lft.to/lastmile_qr_scan"}, "fusion_lat": 0.0, "lat": 38.905743333333334, "is_disabled": 0, "lon": -76.97630133333334, "is_reserved": 0}, {"bike_id": "c7358c7672624c8507593b6dbeeed471", "fusion_lon": 0.0, "type": "electric_scooter", "name": "c7358c7672624c8507593b6dbeeed471", "rental_uris": {"android": "https://dc.lft.to/lastmile_qr_scan", "ios": "https://dc.lft.to/lastmile_qr_scan"}, "fusion_lat": 0.0, "lat": 38.895208, "is_disabled": 0, "lon": -77.0110185, "is_reserved": 0}, {"bike_id": "8c456780a098deca35366b88a3ae371c", "fusion_lon": 0.0, "type": "electric_scooter", "name": "8c456780a098deca35366b88a3ae371c", "rental_uris": {"android": "https://dc.lft.to/lastmile_qr_scan", "ios": "https://dc.lft.to/lastmile_qr_scan"}, "fusion_lat": 0.0, "lat": 38.91874933333333, "is_disabled": 0, "lon": -77.04182266666666, "is_reserved": 0}, {"bike_id": "7a53fa0e2e8e72d0e23b104169d2a49b", "fusion_lon": 0.0, "type": "electric_scooter", "name": "7a53fa0e2e8e72d0e23b104169d2a49b", "rental_uris": {"android": "https://dc.lft.to/lastmile_qr_scan", "ios": "https://dc.lft.to/lastmile_qr_scan"}, "fusion_lat": 0.0, "lat": 38.8821195, "is_disabled": 0, "lon": -76.98687366666667, "is_reserved": 0}, {"bike_id": "85e906120ff3dba25b3e700d0c4034fd", "fusion_lon": 0.0, "type": "electric_scooter", "name": "85e906120ff3dba25b3e700d0c4034fd", "rental_uris": {"android": "https://dc.lft.to/lastmile_qr_scan", "ios": "https://dc.lft.to/lastmile_qr_scan"}, "fusion_lat": 0.0, "lat": 38.918487, "is_disabled": 0, "lon": -76.96557433333334, "is_reserved": 0}, {"bike_id": "45fa9400c8d06af2cca512144c7faf43", "fusion_lon": 0.0, "type": "electric_scooter", "name": "45fa9400c8d06af2cca512144c7faf43", "rental_uris": {"android": "https://dc.lft.to/lastmile_qr_scan", "ios": "https://dc.lft.to/lastmile_qr_scan"}, "fusion_lat": 0.0, "lat": 38.91040133333333, "is_disabled": 0, "lon": -77.03269633333333, "is_reserved": 0}, {"bike_id": "e8f54f91ef1fce349615519e9ea5c4a9", "fusion_lon": 0.0, "type": "electric_scooter", "name": "e8f54f91ef1fce349615519e9ea5c4a9", "rental_uris": {"android": "https://dc.lft.to/lastmile_qr_scan", "ios": "https://dc.lft.to/lastmile_qr_scan"}, "fusion_lat": 0.0, "lat": 38.939932666666664, "is_disabled": 0, "lon": -77.032827, "is_reserved": 0}, {"bike_id": "b57e7fc1e8bb274baadb92de84111ba0", "fusion_lon": 0.0, "type": "electric_scooter", "name": "b57e7fc1e8bb274baadb92de84111ba0", "rental_uris": {"android": "https://dc.lft.to/lastmile_qr_scan", "ios": "https://dc.lft.to/lastmile_qr_scan"}, "fusion_lat": 0.0, "lat": 38.9077715, "is_disabled": 0, "lon": -77.0385995, "is_reserved": 0}, {"bike_id": "a667e87031fe9193a37d6ed37a08c827", "fusion_lon": 0.0, "type": "electric_scooter", "name": "a667e87031fe9193a37d6ed37a08c827", "rental_uris": {"android": "https://dc.lft.to/lastmile_qr_scan", "ios": "https://dc.lft.to/lastmile_qr_scan"}, "fusion_lat": 0.0, "lat": 38.9027925, "is_disabled": 0, "lon": -77.022055, "is_reserved": 0}, {"bike_id": "ae12245f418900b41639d7b65e5058df", "fusion_lon": 0.0, "type": "electric_scooter", "name": "ae12245f418900b41639d7b65e5058df", "rental_uris": {"android": "https://dc.lft.to/lastmile_qr_scan", "ios": "https://dc.lft.to/lastmile_qr_scan"}, "fusion_lat": 0.0, "lat": 38.902063, "is_disabled": 0, "lon": -77.02200833333333, "is_reserved": 0}, {"bike_id": "8f212b44736f39a3e8e748a33304e71f", "fusion_lon": 0.0, "type": "electric_scooter", "name": "8f212b44736f39a3e8e748a33304e71f", "rental_uris": {"android": "https://dc.lft.to/lastmile_qr_scan", "ios": "https://dc.lft.to/lastmile_qr_scan"}, "fusion_lat": 0.0, "lat": 38.90117333333333, "is_disabled": 0, "lon": -77.049959, "is_reserved": 0}, {"bike_id": "879d4bbf832ae58f406e63ada31fda5c", "fusion_lon": 0.0, "type": "electric_scooter", "name": "879d4bbf832ae58f406e63ada31fda5c", "rental_uris": {"android": "https://dc.lft.to/lastmile_qr_scan", "ios": "https://dc.lft.to/lastmile_qr_scan"}, "fusion_lat": 0.0, "lat": 38.89888116666667, "is_disabled": 0, "lon": -76.9317255, "is_reserved": 0}, {"bike_id": "bedd0115699cc6a9efb6f52bc63b7d32", "fusion_lon": 0.0, "type": "electric_scooter", "name": "bedd0115699cc6a9efb6f52bc63b7d32", "rental_uris": {"android": "https://dc.lft.to/lastmile_qr_scan", "ios": "https://dc.lft.to/lastmile_qr_scan"}, "fusion_lat": 0.0, "lat": 38.879803833333334, "is_disabled": 0, "lon": -76.995024, "is_reserved": 0}, {"bike_id": "8a919adf96a344605db4e807667cd348", "fusion_lon": 0.0, "type": "electric_scooter", "name": "8a919adf96a344605db4e807667cd348", "rental_uris": {"android": "https://dc.lft.to/lastmile_qr_scan", "ios": "https://dc.lft.to/lastmile_qr_scan"}, "fusion_lat": 0.0, "lat": 38.886302666666666, "is_disabled": 0, "lon": -77.03164916666667, "is_reserved": 0}, {"bike_id": "fd667c9e7354e00b01076183a5ebf53b", "fusion_lon": 0.0, "type": "electric_scooter", "name": "fd667c9e7354e00b01076183a5ebf53b", "rental_uris": {"android": "https://dc.lft.to/lastmile_qr_scan", "ios": "https://dc.lft.to/lastmile_qr_scan"}, "fusion_lat": 0.0, "lat": 38.915407, "is_disabled": 0, "lon": -77.01225716666667, "is_reserved": 0}, {"bike_id": "d8af2fadbddf2e29d0041f8da9b565ba", "fusion_lon": 0.0, "type": "electric_scooter", "name": "d8af2fadbddf2e29d0041f8da9b565ba", "rental_uris": {"android": "https://dc.lft.to/lastmile_qr_scan", "ios": "https://dc.lft.to/lastmile_qr_scan"}, "fusion_lat": 0.0, "lat": 38.903991833333336, "is_disabled": 0, "lon": -77.03263583333333, "is_reserved": 0}, {"bike_id": "2c9e6f57fb72e1a0853389472b77484f", "fusion_lon": 0.0, "type": "electric_scooter", "name": "2c9e6f57fb72e1a0853389472b77484f", "rental_uris": {"android": "https://dc.lft.to/lastmile_qr_scan", "ios": "https://dc.lft.to/lastmile_qr_scan"}, "fusion_lat": 0.0, "lat": 38.89335616666666, "is_disabled": 0, "lon": -77.04660933333334, "is_reserved": 0}, {"bike_id": "b6eb39fbbb3125b606529b471b1e7bea", "fusion_lon": 0.0, "type": "electric_scooter", "name": "b6eb39fbbb3125b606529b471b1e7bea", "rental_uris": {"android": "https://dc.lft.to/lastmile_qr_scan", "ios": "https://dc.lft.to/lastmile_qr_scan"}, "fusion_lat": 0.0, "lat": 38.90228483333333, "is_disabled": 0, "lon": -77.00210116666666, "is_reserved": 0}, {"bike_id": "a7ac1b1d0cf0e923ea64f7db0d2d2034", "fusion_lon": 0.0, "type": "electric_bike", "name": "a7ac1b1d0cf0e923ea64f7db0d2d2034", "rental_uris": {"android": "https://dc.lft.to/lastmile_qr_scan", "ios": "https://dc.lft.to/lastmile_qr_scan"}, "fusion_lat": 0.0, "lat": 38.91735466666667, "is_disabled": 0, "lon": -77.00169783333334, "is_reserved": 0}, {"bike_id": "2ba654f6f479e161ca5cb3b1badc4ac6", "fusion_lon": 0.0, "type": "electric_scooter", "name": "2ba654f6f479e161ca5cb3b1badc4ac6", "rental_uris": {"android": "https://dc.lft.to/lastmile_qr_scan", "ios": "https://dc.lft.to/lastmile_qr_scan"}, "fusion_lat": 0.0, "lat": 38.89693783333333, "is_disabled": 0, "lon": -77.02170516666666, "is_reserved": 0}, {"bike_id": "0132e9a222f5b2d97900fbe7e400250d", "fusion_lon": 0.0, "type": "electric_scooter", "name": "0132e9a222f5b2d97900fbe7e400250d", "rental_uris": {"android": "https://dc.lft.to/lastmile_qr_scan", "ios": "https://dc.lft.to/lastmile_qr_scan"}, "fusion_lat": 0.0, "lat": 38.94284783333333, "is_disabled": 0, "lon": -77.029279, "is_reserved": 0}, {"bike_id": "a7b98a962cc6cede80a3f46981820e40", "fusion_lon": 0.0, "type": "electric_bike", "name": "a7b98a962cc6cede80a3f46981820e40", "rental_uris": {"android": "https://dc.lft.to/lastmile_qr_scan", "ios": "https://dc.lft.to/lastmile_qr_scan"}, "fusion_lat": 0.0, "lat": 38.863800166666664, "is_disabled": 0, "lon": -77.12901, "is_reserved": 0}, {"bike_id": "c1cf8069c3fae93b6475b20820422cb2", "fusion_lon": 0.0, "type": "electric_scooter", "name": "c1cf8069c3fae93b6475b20820422cb2", "rental_uris": {"android": "https://dc.lft.to/lastmile_qr_scan", "ios": "https://dc.lft.to/lastmile_qr_scan"}, "fusion_lat": 0.0, "lat": 38.87537366666667, "is_disabled": 0, "lon": -77.00551416666667, "is_reserved": 0}, {"bike_id": "8de58f2b05dc4881d47921b6809ce550", "fusion_lon": 0.0, "type": "electric_scooter", "name": "8de58f2b05dc4881d47921b6809ce550", "rental_uris": {"android": "https://dc.lft.to/lastmile_qr_scan", "ios": "https://dc.lft.to/lastmile_qr_scan"}, "fusion_lat": 0.0, "lat": 38.931154166666666, "is_disabled": 0, "lon": -77.02404683333333, "is_reserved": 0}, {"bike_id": "c40799abae863c34da33e680d84d9cf3", "fusion_lon": 0.0, "type": "electric_scooter", "name": "c40799abae863c34da33e680d84d9cf3", "rental_uris": {"android": "https://dc.lft.to/lastmile_qr_scan", "ios": "https://dc.lft.to/lastmile_qr_scan"}, "fusion_lat": 0.0, "lat": 38.90050383333333, "is_disabled": 0, "lon": -77.04487616666667, "is_reserved": 0}, {"bike_id": "5d9016093b3a30024649c5a9505018ff", "fusion_lon": 0.0, "type": "electric_scooter", "name": "5d9016093b3a30024649c5a9505018ff", "rental_uris": {"android": "https://dc.lft.to/lastmile_qr_scan", "ios": "https://dc.lft.to/lastmile_qr_scan"}, "fusion_lat": 0.0, "lat": 38.8866375, "is_disabled": 0, "lon": -77.03386916666666, "is_reserved": 0}, {"bike_id": "74db6f5e397b6562cc1528596dce439a", "fusion_lon": 0.0, "type": "electric_scooter", "name": "74db6f5e397b6562cc1528596dce439a", "rental_uris": {"android": "https://dc.lft.to/lastmile_qr_scan", "ios": "https://dc.lft.to/lastmile_qr_scan"}, "fusion_lat": 0.0, "lat": 38.9147915, "is_disabled": 0, "lon": -77.04655266666667, "is_reserved": 0}, {"bike_id": "bb6f240630689c96a5ce2e1c02b96304", "fusion_lon": 0.0, "type": "electric_scooter", "name": "bb6f240630689c96a5ce2e1c02b96304", "rental_uris": {"android": "https://dc.lft.to/lastmile_qr_scan", "ios": "https://dc.lft.to/lastmile_qr_scan"}, "fusion_lat": 0.0, "lat": 38.9187975, "is_disabled": 0, "lon": -77.035038, "is_reserved": 0}, {"bike_id": "0be1ebae68b6df01fa236e11cc67801d", "fusion_lon": 0.0, "type": "electric_scooter", "name": "0be1ebae68b6df01fa236e11cc67801d", "rental_uris": {"android": "https://dc.lft.to/lastmile_qr_scan", "ios": "https://dc.lft.to/lastmile_qr_scan"}, "fusion_lat": 0.0, "lat": 38.93919366666667, "is_disabled": 0, "lon": -77.0602985, "is_reserved": 0}, {"bike_id": "3eb070700aff17df4a30ac1f6d9750a0", "fusion_lon": 0.0, "type": "electric_scooter", "name": "3eb070700aff17df4a30ac1f6d9750a0", "rental_uris": {"android": "https://dc.lft.to/lastmile_qr_scan", "ios": "https://dc.lft.to/lastmile_qr_scan"}, "fusion_lat": 0.0, "lat": 38.871201, "is_disabled": 0, "lon": -77.01070666666666, "is_reserved": 0}, {"bike_id": "7a1038b68c79726e3d801569c8407619", "fusion_lon": 0.0, "type": "electric_scooter", "name": "7a1038b68c79726e3d801569c8407619", "rental_uris": {"android": "https://dc.lft.to/lastmile_qr_scan", "ios": "https://dc.lft.to/lastmile_qr_scan"}, "fusion_lat": 0.0, "lat": 38.918261, "is_disabled": 0, "lon": -77.03998833333333, "is_reserved": 0}, {"bike_id": "d6f24b501b814d18b853c123c59f873a", "fusion_lon": 0.0, "type": "electric_scooter", "name": "d6f24b501b814d18b853c123c59f873a", "rental_uris": {"android": "https://dc.lft.to/lastmile_qr_scan", "ios": "https://dc.lft.to/lastmile_qr_scan"}, "fusion_lat": 0.0, "lat": 38.900319333333336, "is_disabled": 0, "lon": -76.98781133333334, "is_reserved": 0}, {"bike_id": "e70ce4aa2bba7f6a24971fa25ff1ce9b", "fusion_lon": 0.0, "type": "electric_scooter", "name": "e70ce4aa2bba7f6a24971fa25ff1ce9b", "rental_uris": {"android": "https://dc.lft.to/lastmile_qr_scan", "ios": "https://dc.lft.to/lastmile_qr_scan"}, "fusion_lat": 0.0, "lat": 38.90449433333333, "is_disabled": 0, "lon": -76.97562, "is_reserved": 0}, {"bike_id": "35d000339402e1834ef5aa2f3bf3688a", "fusion_lon": 0.0, "type": "electric_scooter", "name": "35d000339402e1834ef5aa2f3bf3688a", "rental_uris": {"android": "https://dc.lft.to/lastmile_qr_scan", "ios": "https://dc.lft.to/lastmile_qr_scan"}, "fusion_lat": 0.0, "lat": 38.90004033333334, "is_disabled": 0, "lon": -77.001425, "is_reserved": 0}, {"bike_id": "d4094bb04b7f40528c42cb4381a897de", "fusion_lon": 0.0, "type": "electric_bike", "name": "d4094bb04b7f40528c42cb4381a897de", "rental_uris": {"android": "https://dc.lft.to/lastmile_qr_scan", "ios": "https://dc.lft.to/lastmile_qr_scan"}, "fusion_lat": 0.0, "lat": 38.919355333333336, "is_disabled": 0, "lon": -76.97501866666667, "is_reserved": 0}, {"bike_id": "7fda63217239ac437fe9b6f99f81f722", "fusion_lon": 0.0, "type": "electric_scooter", "name": "7fda63217239ac437fe9b6f99f81f722", "rental_uris": {"android": "https://dc.lft.to/lastmile_qr_scan", "ios": "https://dc.lft.to/lastmile_qr_scan"}, "fusion_lat": 0.0, "lat": 38.91929316666667, "is_disabled": 0, "lon": -77.04589866666667, "is_reserved": 0}, {"bike_id": "d0968bac5562e7f7166daef49a389648", "fusion_lon": 0.0, "type": "electric_scooter", "name": "d0968bac5562e7f7166daef49a389648", "rental_uris": {"android": "https://dc.lft.to/lastmile_qr_scan", "ios": "https://dc.lft.to/lastmile_qr_scan"}, "fusion_lat": 0.0, "lat": 38.8603225, "is_disabled": 0, "lon": -76.98374666666666, "is_reserved": 0}, {"bike_id": "22ce45765f6600e2a779a822443d6455", "fusion_lon": 0.0, "type": "electric_scooter", "name": "22ce45765f6600e2a779a822443d6455", "rental_uris": {"android": "https://dc.lft.to/lastmile_qr_scan", "ios": "https://dc.lft.to/lastmile_qr_scan"}, "fusion_lat": 0.0, "lat": 38.9155975, "is_disabled": 0, "lon": -77.03835783333334, "is_reserved": 0}, {"bike_id": "6d3c17c9390c48a92ce9a0ccd3a75cb9", "fusion_lon": 0.0, "type": "electric_bike", "name": "6d3c17c9390c48a92ce9a0ccd3a75cb9", "rental_uris": {"android": "https://dc.lft.to/lastmile_qr_scan", "ios": "https://dc.lft.to/lastmile_qr_scan"}, "fusion_lat": 0.0, "lat": 38.808514, "is_disabled": 0, "lon": -77.08366083333334, "is_reserved": 0}, {"bike_id": "3409a20053f6253b4a313d2e37a3acea", "fusion_lon": 0.0, "type": "electric_scooter", "name": "3409a20053f6253b4a313d2e37a3acea", "rental_uris": {"android": "https://dc.lft.to/lastmile_qr_scan", "ios": "https://dc.lft.to/lastmile_qr_scan"}, "fusion_lat": 0.0, "lat": 38.916603333333335, "is_disabled": 0, "lon": -76.9822775, "is_reserved": 0}, {"bike_id": "dbf07f16b26e3753d5e01f89f94b9020", "fusion_lon": 0.0, "type": "electric_scooter", "name": "dbf07f16b26e3753d5e01f89f94b9020", "rental_uris": {"android": "https://dc.lft.to/lastmile_qr_scan", "ios": "https://dc.lft.to/lastmile_qr_scan"}, "fusion_lat": 0.0, "lat": 38.90255633333334, "is_disabled": 0, "lon": -77.0174465, "is_reserved": 0}, {"bike_id": "e45644a0748576e408dfed2d232ef052", "fusion_lon": 0.0, "type": "electric_scooter", "name": "e45644a0748576e408dfed2d232ef052", "rental_uris": {"android": "https://dc.lft.to/lastmile_qr_scan", "ios": "https://dc.lft.to/lastmile_qr_scan"}, "fusion_lat": 0.0, "lat": 38.861017333333336, "is_disabled": 0, "lon": -76.98604233333333, "is_reserved": 0}, {"bike_id": "c47a5a5a68e94e4847c79f7e5579f18a", "fusion_lon": 0.0, "type": "electric_scooter", "name": "c47a5a5a68e94e4847c79f7e5579f18a", "rental_uris": {"android": "https://dc.lft.to/lastmile_qr_scan", "ios": "https://dc.lft.to/lastmile_qr_scan"}, "fusion_lat": 0.0, "lat": 38.918378, "is_disabled": 0, "lon": -77.03221416666666, "is_reserved": 0}, {"bike_id": "61fa35e0356cc9924e902173031fdf59", "fusion_lon": 0.0, "type": "electric_scooter", "name": "61fa35e0356cc9924e902173031fdf59", "rental_uris": {"android": "https://dc.lft.to/lastmile_qr_scan", "ios": "https://dc.lft.to/lastmile_qr_scan"}, "fusion_lat": 0.0, "lat": 38.928829, "is_disabled": 0, "lon": -77.0270345, "is_reserved": 0}, {"bike_id": "d11f7e5d19550af699bb55ea77b07188", "fusion_lon": 0.0, "type": "electric_bike", "name": "d11f7e5d19550af699bb55ea77b07188", "rental_uris": {"android": "https://dc.lft.to/lastmile_qr_scan", "ios": "https://dc.lft.to/lastmile_qr_scan"}, "fusion_lat": 0.0, "lat": 38.8506675, "is_disabled": 0, "lon": -76.97326583333333, "is_reserved": 0}, {"bike_id": "c1cf235c9a7a58e6f00254780138c668", "fusion_lon": 0.0, "type": "electric_scooter", "name": "c1cf235c9a7a58e6f00254780138c668", "rental_uris": {"android": "https://dc.lft.to/lastmile_qr_scan", "ios": "https://dc.lft.to/lastmile_qr_scan"}, "fusion_lat": 0.0, "lat": 38.9114485, "is_disabled": 0, "lon": -77.02801633333333, "is_reserved": 0}, {"bike_id": "313f0bc392348eec7a77389050ab7e85", "fusion_lon": 0.0, "type": "electric_scooter", "name": "313f0bc392348eec7a77389050ab7e85", "rental_uris": {"android": "https://dc.lft.to/lastmile_qr_scan", "ios": "https://dc.lft.to/lastmile_qr_scan"}, "fusion_lat": 0.0, "lat": 38.91015866666667, "is_disabled": 0, "lon": -77.05272916666667, "is_reserved": 0}, {"bike_id": "5b2707641eb73e4903026133565aedf1", "fusion_lon": 0.0, "type": "electric_scooter", "name": "5b2707641eb73e4903026133565aedf1", "rental_uris": {"android": "https://dc.lft.to/lastmile_qr_scan", "ios": "https://dc.lft.to/lastmile_qr_scan"}, "fusion_lat": 0.0, "lat": 38.91028333333333, "is_disabled": 0, "lon": -77.02183916666667, "is_reserved": 0}, {"bike_id": "814b5d3e809b2c61305c7dec72c4645a", "fusion_lon": 0.0, "type": "electric_scooter", "name": "814b5d3e809b2c61305c7dec72c4645a", "rental_uris": {"android": "https://dc.lft.to/lastmile_qr_scan", "ios": "https://dc.lft.to/lastmile_qr_scan"}, "fusion_lat": 0.0, "lat": 38.900485833333335, "is_disabled": 0, "lon": -77.04477916666667, "is_reserved": 0}, {"bike_id": "9415a90d7dcb6d267207c37368d56103", "fusion_lon": 0.0, "type": "electric_scooter", "name": "9415a90d7dcb6d267207c37368d56103", "rental_uris": {"android": "https://dc.lft.to/lastmile_qr_scan", "ios": "https://dc.lft.to/lastmile_qr_scan"}, "fusion_lat": 0.0, "lat": 38.900278666666665, "is_disabled": 0, "lon": -77.0532465, "is_reserved": 0}, {"bike_id": "2fd7f9f69b7c92298a89aa5be1220442", "fusion_lon": 0.0, "type": "electric_bike", "name": "2fd7f9f69b7c92298a89aa5be1220442", "rental_uris": {"android": "https://dc.lft.to/lastmile_qr_scan", "ios": "https://dc.lft.to/lastmile_qr_scan"}, "fusion_lat": 0.0, "lat": 38.9321365, "is_disabled": 0, "lon": -77.02351116666667, "is_reserved": 0}, {"bike_id": "c25165c0321a35f7ea718d3686fb17f0", "fusion_lon": 0.0, "type": "electric_scooter", "name": "c25165c0321a35f7ea718d3686fb17f0", "rental_uris": {"android": "https://dc.lft.to/lastmile_qr_scan", "ios": "https://dc.lft.to/lastmile_qr_scan"}, "fusion_lat": 0.0, "lat": 38.92104, "is_disabled": 0, "lon": -77.03657066666666, "is_reserved": 0}, {"bike_id": "90d200bb94b683b5c32ae38dfaacbebd", "fusion_lon": 0.0, "type": "electric_scooter", "name": "90d200bb94b683b5c32ae38dfaacbebd", "rental_uris": {"android": "https://dc.lft.to/lastmile_qr_scan", "ios": "https://dc.lft.to/lastmile_qr_scan"}, "fusion_lat": 0.0, "lat": 38.911361666666664, "is_disabled": 0, "lon": -77.0218785, "is_reserved": 0}, {"bike_id": "3d1d7569e1c04290574c44befe549d29", "fusion_lon": 0.0, "type": "electric_scooter", "name": "3d1d7569e1c04290574c44befe549d29", "rental_uris": {"android": "https://dc.lft.to/lastmile_qr_scan", "ios": "https://dc.lft.to/lastmile_qr_scan"}, "fusion_lat": 0.0, "lat": 38.90287716666667, "is_disabled": 0, "lon": -77.03645716666666, "is_reserved": 0}, {"bike_id": "e4f78d2fe485ea719acc0f14b7095b1d", "fusion_lon": 0.0, "type": "electric_scooter", "name": "e4f78d2fe485ea719acc0f14b7095b1d", "rental_uris": {"android": "https://dc.lft.to/lastmile_qr_scan", "ios": "https://dc.lft.to/lastmile_qr_scan"}, "fusion_lat": 0.0, "lat": 38.918850166666665, "is_disabled": 0, "lon": -77.0376455, "is_reserved": 0}, {"bike_id": "3af9288d8a3fe3ce3379620070429e03", "fusion_lon": 0.0, "type": "electric_scooter", "name": "3af9288d8a3fe3ce3379620070429e03", "rental_uris": {"android": "https://dc.lft.to/lastmile_qr_scan", "ios": "https://dc.lft.to/lastmile_qr_scan"}, "fusion_lat": 0.0, "lat": 38.9185095, "is_disabled": 0, "lon": -76.96555316666667, "is_reserved": 0}, {"bike_id": "ea6216747d88df7bbc272e17c918fe09", "fusion_lon": 0.0, "type": "electric_scooter", "name": "ea6216747d88df7bbc272e17c918fe09", "rental_uris": {"android": "https://dc.lft.to/lastmile_qr_scan", "ios": "https://dc.lft.to/lastmile_qr_scan"}, "fusion_lat": 0.0, "lat": 38.89854166666667, "is_disabled": 0, "lon": -77.03329583333333, "is_reserved": 0}, {"bike_id": "2af82f324fed9151a096fb6b3171a127", "fusion_lon": 0.0, "type": "electric_scooter", "name": "2af82f324fed9151a096fb6b3171a127", "rental_uris": {"android": "https://dc.lft.to/lastmile_qr_scan", "ios": "https://dc.lft.to/lastmile_qr_scan"}, "fusion_lat": 0.0, "lat": 38.9156725, "is_disabled": 0, "lon": -77.03129633333333, "is_reserved": 0}, {"bike_id": "de620726bb2595c32230dfd1d31b7041", "fusion_lon": 0.0, "type": "electric_bike", "name": "de620726bb2595c32230dfd1d31b7041", "rental_uris": {"android": "https://dc.lft.to/lastmile_qr_scan", "ios": "https://dc.lft.to/lastmile_qr_scan"}, "fusion_lat": 0.0, "lat": 38.9909405, "is_disabled": 0, "lon": -76.87495166666666, "is_reserved": 0}, {"bike_id": "d1884f30415967701dc180adbceacb75", "fusion_lon": 0.0, "type": "electric_scooter", "name": "d1884f30415967701dc180adbceacb75", "rental_uris": {"android": "https://dc.lft.to/lastmile_qr_scan", "ios": "https://dc.lft.to/lastmile_qr_scan"}, "fusion_lat": 0.0, "lat": 38.921413333333334, "is_disabled": 0, "lon": -77.00957966666667, "is_reserved": 0}, {"bike_id": "47bcfcd136bbb19f8958b90ae66fcab4", "fusion_lon": 0.0, "type": "electric_bike", "name": "47bcfcd136bbb19f8958b90ae66fcab4", "rental_uris": {"android": "https://dc.lft.to/lastmile_qr_scan", "ios": "https://dc.lft.to/lastmile_qr_scan"}, "fusion_lat": 0.0, "lat": 38.828759, "is_disabled": 0, "lon": -77.11218066666666, "is_reserved": 0}, {"bike_id": "e47e5eb0c4d1e0036bf56786f1bc6831", "fusion_lon": 0.0, "type": "electric_scooter", "name": "e47e5eb0c4d1e0036bf56786f1bc6831", "rental_uris": {"android": "https://dc.lft.to/lastmile_qr_scan", "ios": "https://dc.lft.to/lastmile_qr_scan"}, "fusion_lat": 0.0, "lat": 38.8988805, "is_disabled": 0, "lon": -76.9315735, "is_reserved": 0}, {"bike_id": "c66c7c1673202f10cf25206cdf8e69ce", "fusion_lon": 0.0, "type": "electric_scooter", "name": "c66c7c1673202f10cf25206cdf8e69ce", "rental_uris": {"android": "https://dc.lft.to/lastmile_qr_scan", "ios": "https://dc.lft.to/lastmile_qr_scan"}, "fusion_lat": 0.0, "lat": 38.8803375, "is_disabled": 0, "lon": -76.996237, "is_reserved": 0}, {"bike_id": "1993d597b97cfbfc2e138659ef05508d", "fusion_lon": 0.0, "type": "electric_bike", "name": "1993d597b97cfbfc2e138659ef05508d", "rental_uris": {"android": "https://dc.lft.to/lastmile_qr_scan", "ios": "https://dc.lft.to/lastmile_qr_scan"}, "fusion_lat": 0.0, "lat": 38.953286, "is_disabled": 0, "lon": -76.95436066666667, "is_reserved": 0}, {"bike_id": "1073eec3258372561304dff63f9843bb", "fusion_lon": 0.0, "type": "electric_scooter", "name": "1073eec3258372561304dff63f9843bb", "rental_uris": {"android": "https://dc.lft.to/lastmile_qr_scan", "ios": "https://dc.lft.to/lastmile_qr_scan"}, "fusion_lat": 0.0, "lat": 38.9314195, "is_disabled": 0, "lon": -77.07848083333333, "is_reserved": 0}, {"bike_id": "d3c4842684288a75a132a8adbc816664", "fusion_lon": 0.0, "type": "electric_scooter", "name": "d3c4842684288a75a132a8adbc816664", "rental_uris": {"android": "https://dc.lft.to/lastmile_qr_scan", "ios": "https://dc.lft.to/lastmile_qr_scan"}, "fusion_lat": 0.0, "lat": 38.89982783333333, "is_disabled": 0, "lon": -76.9926385, "is_reserved": 0}, {"bike_id": "ace331780d4dacc196e83287d1765a10", "fusion_lon": 0.0, "type": "electric_scooter", "name": "ace331780d4dacc196e83287d1765a10", "rental_uris": {"android": "https://dc.lft.to/lastmile_qr_scan", "ios": "https://dc.lft.to/lastmile_qr_scan"}, "fusion_lat": 0.0, "lat": 38.929057, "is_disabled": 0, "lon": -77.03740216666667, "is_reserved": 0}, {"bike_id": "007e61da7fb7d17b2eb7f80a7ae81653", "fusion_lon": 0.0, "type": "electric_scooter", "name": "007e61da7fb7d17b2eb7f80a7ae81653", "rental_uris": {"android": "https://dc.lft.to/lastmile_qr_scan", "ios": "https://dc.lft.to/lastmile_qr_scan"}, "fusion_lat": 0.0, "lat": 38.89235583333333, "is_disabled": 0, "lon": -76.98797766666667, "is_reserved": 0}, {"bike_id": "48ebd4f0e88d334b29b2cf9bc489e8c4", "fusion_lon": 0.0, "type": "electric_scooter", "name": "48ebd4f0e88d334b29b2cf9bc489e8c4", "rental_uris": {"android": "https://dc.lft.to/lastmile_qr_scan", "ios": "https://dc.lft.to/lastmile_qr_scan"}, "fusion_lat": 0.0, "lat": 38.9171245, "is_disabled": 0, "lon": -77.040366, "is_reserved": 0}, {"bike_id": "14050cd7feabf7891fa14c942e934976", "fusion_lon": 0.0, "type": "electric_scooter", "name": "14050cd7feabf7891fa14c942e934976", "rental_uris": {"android": "https://dc.lft.to/lastmile_qr_scan", "ios": "https://dc.lft.to/lastmile_qr_scan"}, "fusion_lat": 0.0, "lat": 38.8999725, "is_disabled": 0, "lon": -77.045765, "is_reserved": 0}, {"bike_id": "2b8675b637544d162cc54a864adde9c3", "fusion_lon": 0.0, "type": "electric_scooter", "name": "2b8675b637544d162cc54a864adde9c3", "rental_uris": {"android": "https://dc.lft.to/lastmile_qr_scan", "ios": "https://dc.lft.to/lastmile_qr_scan"}, "fusion_lat": 0.0, "lat": 38.92883466666667, "is_disabled": 0, "lon": -77.01369566666666, "is_reserved": 0}, {"bike_id": "c2ef85274944de8180bd4685421117f3", "fusion_lon": 0.0, "type": "electric_scooter", "name": "c2ef85274944de8180bd4685421117f3", "rental_uris": {"android": "https://dc.lft.to/lastmile_qr_scan", "ios": "https://dc.lft.to/lastmile_qr_scan"}, "fusion_lat": 0.0, "lat": 38.911139166666665, "is_disabled": 0, "lon": -77.02403016666666, "is_reserved": 0}, {"bike_id": "45461bc3dea90176944c7b0274d96c75", "fusion_lon": 0.0, "type": "electric_scooter", "name": "45461bc3dea90176944c7b0274d96c75", "rental_uris": {"android": "https://dc.lft.to/lastmile_qr_scan", "ios": "https://dc.lft.to/lastmile_qr_scan"}, "fusion_lat": 0.0, "lat": 38.920597, "is_disabled": 0, "lon": -77.0170575, "is_reserved": 0}, {"bike_id": "a161fab66bd12cec60e12c59ec9cfd2e", "fusion_lon": 0.0, "type": "electric_scooter", "name": "a161fab66bd12cec60e12c59ec9cfd2e", "rental_uris": {"android": "https://dc.lft.to/lastmile_qr_scan", "ios": "https://dc.lft.to/lastmile_qr_scan"}, "fusion_lat": 0.0, "lat": 38.89236533333333, "is_disabled": 0, "lon": -77.050035, "is_reserved": 0}, {"bike_id": "b032d47bafae338b78e2e827c4e08132", "fusion_lon": 0.0, "type": "electric_scooter", "name": "b032d47bafae338b78e2e827c4e08132", "rental_uris": {"android": "https://dc.lft.to/lastmile_qr_scan", "ios": "https://dc.lft.to/lastmile_qr_scan"}, "fusion_lat": 0.0, "lat": 38.900058333333334, "is_disabled": 0, "lon": -77.0013585, "is_reserved": 0}, {"bike_id": "6795ceacad5abdd9fb5fe6faa5e122f3", "fusion_lon": 0.0, "type": "electric_scooter", "name": "6795ceacad5abdd9fb5fe6faa5e122f3", "rental_uris": {"android": "https://dc.lft.to/lastmile_qr_scan", "ios": "https://dc.lft.to/lastmile_qr_scan"}, "fusion_lat": 0.0, "lat": 38.917291166666665, "is_disabled": 0, "lon": -77.03656383333333, "is_reserved": 0}, {"bike_id": "24dc61b227b052b07172c800008a2051", "fusion_lon": 0.0, "type": "electric_scooter", "name": "24dc61b227b052b07172c800008a2051", "rental_uris": {"android": "https://dc.lft.to/lastmile_qr_scan", "ios": "https://dc.lft.to/lastmile_qr_scan"}, "fusion_lat": 0.0, "lat": 38.92181216666667, "is_disabled": 0, "lon": -77.03885966666667, "is_reserved": 0}, {"bike_id": "508257b36708f004a04b06c28056e0b3", "fusion_lon": 0.0, "type": "electric_scooter", "name": "508257b36708f004a04b06c28056e0b3", "rental_uris": {"android": "https://dc.lft.to/lastmile_qr_scan", "ios": "https://dc.lft.to/lastmile_qr_scan"}, "fusion_lat": 0.0, "lat": 38.9117955, "is_disabled": 0, "lon": -77.08441516666667, "is_reserved": 0}, {"bike_id": "92f03875a9a95dc11d632d60e30af9ec", "fusion_lon": 0.0, "type": "electric_scooter", "name": "92f03875a9a95dc11d632d60e30af9ec", "rental_uris": {"android": "https://dc.lft.to/lastmile_qr_scan", "ios": "https://dc.lft.to/lastmile_qr_scan"}, "fusion_lat": 0.0, "lat": 38.9127415, "is_disabled": 0, "lon": -77.02691983333334, "is_reserved": 0}, {"bike_id": "de929f8dcb3c97f67237206b7633d3be", "fusion_lon": 0.0, "type": "electric_scooter", "name": "de929f8dcb3c97f67237206b7633d3be", "rental_uris": {"android": "https://dc.lft.to/lastmile_qr_scan", "ios": "https://dc.lft.to/lastmile_qr_scan"}, "fusion_lat": 0.0, "lat": 38.930303, "is_disabled": 0, "lon": -77.012922, "is_reserved": 0}, {"bike_id": "55f487fb95897d536ad7bcf3b926508c", "fusion_lon": 0.0, "type": "electric_scooter", "name": "55f487fb95897d536ad7bcf3b926508c", "rental_uris": {"android": "https://dc.lft.to/lastmile_qr_scan", "ios": "https://dc.lft.to/lastmile_qr_scan"}, "fusion_lat": 0.0, "lat": 38.90964016666667, "is_disabled": 0, "lon": -77.0342315, "is_reserved": 0}, {"bike_id": "e70fa4ebd26653454c3d9333f5b523f3", "fusion_lon": 0.0, "type": "electric_scooter", "name": "e70fa4ebd26653454c3d9333f5b523f3", "rental_uris": {"android": "https://dc.lft.to/lastmile_qr_scan", "ios": "https://dc.lft.to/lastmile_qr_scan"}, "fusion_lat": 0.0, "lat": 38.9179055, "is_disabled": 0, "lon": -77.0363805, "is_reserved": 0}, {"bike_id": "ae217ef8b92d853666ae2a079d36e9b7", "fusion_lon": 0.0, "type": "electric_scooter", "name": "ae217ef8b92d853666ae2a079d36e9b7", "rental_uris": {"android": "https://dc.lft.to/lastmile_qr_scan", "ios": "https://dc.lft.to/lastmile_qr_scan"}, "fusion_lat": 0.0, "lat": 38.915670166666665, "is_disabled": 0, "lon": -77.0313015, "is_reserved": 0}, {"bike_id": "ea36d5ddc472a440f50f8f9c558a28c0", "fusion_lon": 0.0, "type": "electric_scooter", "name": "ea36d5ddc472a440f50f8f9c558a28c0", "rental_uris": {"android": "https://dc.lft.to/lastmile_qr_scan", "ios": "https://dc.lft.to/lastmile_qr_scan"}, "fusion_lat": 0.0, "lat": 38.918479, "is_disabled": 0, "lon": -76.9655825, "is_reserved": 0}, {"bike_id": "6d5fadcbf7f3686e00e5fb6e3f93a15a", "fusion_lon": 0.0, "type": "electric_scooter", "name": "6d5fadcbf7f3686e00e5fb6e3f93a15a", "rental_uris": {"android": "https://dc.lft.to/lastmile_qr_scan", "ios": "https://dc.lft.to/lastmile_qr_scan"}, "fusion_lat": 0.0, "lat": 38.92155283333334, "is_disabled": 0, "lon": -77.03378833333333, "is_reserved": 0}, {"bike_id": "6b7438397c5e6e123010cbeb69ad21f6", "fusion_lon": 0.0, "type": "electric_scooter", "name": "6b7438397c5e6e123010cbeb69ad21f6", "rental_uris": {"android": "https://dc.lft.to/lastmile_qr_scan", "ios": "https://dc.lft.to/lastmile_qr_scan"}, "fusion_lat": 0.0, "lat": 38.904743, "is_disabled": 0, "lon": -77.03459566666666, "is_reserved": 0}, {"bike_id": "3e69ef665d82001effdc737d7058273f", "fusion_lon": 0.0, "type": "electric_scooter", "name": "3e69ef665d82001effdc737d7058273f", "rental_uris": {"android": "https://dc.lft.to/lastmile_qr_scan", "ios": "https://dc.lft.to/lastmile_qr_scan"}, "fusion_lat": 0.0, "lat": 38.90889933333333, "is_disabled": 0, "lon": -77.04293, "is_reserved": 0}, {"bike_id": "9009ecd7d650c8aaeb4088a763eea5ef", "fusion_lon": 0.0, "type": "electric_scooter", "name": "9009ecd7d650c8aaeb4088a763eea5ef", "rental_uris": {"android": "https://dc.lft.to/lastmile_qr_scan", "ios": "https://dc.lft.to/lastmile_qr_scan"}, "fusion_lat": 0.0, "lat": 38.91417633333333, "is_disabled": 0, "lon": -77.03161183333333, "is_reserved": 0}, {"bike_id": "f59805e0bace454ba2f670af3ea55ad0", "fusion_lon": 0.0, "type": "electric_scooter", "name": "f59805e0bace454ba2f670af3ea55ad0", "rental_uris": {"android": "https://dc.lft.to/lastmile_qr_scan", "ios": "https://dc.lft.to/lastmile_qr_scan"}, "fusion_lat": 0.0, "lat": 38.902635, "is_disabled": 0, "lon": -77.02646966666667, "is_reserved": 0}, {"bike_id": "81135bb1a777e41f9f7c74ee6859ff88", "fusion_lon": 0.0, "type": "electric_scooter", "name": "81135bb1a777e41f9f7c74ee6859ff88", "rental_uris": {"android": "https://dc.lft.to/lastmile_qr_scan", "ios": "https://dc.lft.to/lastmile_qr_scan"}, "fusion_lat": 0.0, "lat": 38.892495833333335, "is_disabled": 0, "lon": -77.02825216666666, "is_reserved": 0}, {"bike_id": "52205495848f524afe535aa092b658db", "fusion_lon": 0.0, "type": "electric_bike", "name": "52205495848f524afe535aa092b658db", "rental_uris": {"android": "https://dc.lft.to/lastmile_qr_scan", "ios": "https://dc.lft.to/lastmile_qr_scan"}, "fusion_lat": 0.0, "lat": 38.97385666666667, "is_disabled": 0, "lon": -77.06474266666666, "is_reserved": 0}, {"bike_id": "c82315478587714d47be918aaaffa471", "fusion_lon": 0.0, "type": "electric_scooter", "name": "c82315478587714d47be918aaaffa471", "rental_uris": {"android": "https://dc.lft.to/lastmile_qr_scan", "ios": "https://dc.lft.to/lastmile_qr_scan"}, "fusion_lat": 0.0, "lat": 38.879276, "is_disabled": 0, "lon": -76.991689, "is_reserved": 0}, {"bike_id": "a4e3ab1396a745e114d56b6f7eb5a029", "fusion_lon": 0.0, "type": "electric_scooter", "name": "a4e3ab1396a745e114d56b6f7eb5a029", "rental_uris": {"android": "https://dc.lft.to/lastmile_qr_scan", "ios": "https://dc.lft.to/lastmile_qr_scan"}, "fusion_lat": 0.0, "lat": 38.907562, "is_disabled": 0, "lon": -76.99877183333334, "is_reserved": 0}, {"bike_id": "1d6cfae75d6d044d297a0ff16c6b046a", "fusion_lon": 0.0, "type": "electric_scooter", "name": "1d6cfae75d6d044d297a0ff16c6b046a", "rental_uris": {"android": "https://dc.lft.to/lastmile_qr_scan", "ios": "https://dc.lft.to/lastmile_qr_scan"}, "fusion_lat": 0.0, "lat": 38.90027583333333, "is_disabled": 0, "lon": -76.99864566666666, "is_reserved": 0}, {"bike_id": "3fb2ba2c27838fcb96b7ee9f1c26e759", "fusion_lon": 0.0, "type": "electric_scooter", "name": "3fb2ba2c27838fcb96b7ee9f1c26e759", "rental_uris": {"android": "https://dc.lft.to/lastmile_qr_scan", "ios": "https://dc.lft.to/lastmile_qr_scan"}, "fusion_lat": 0.0, "lat": 38.9104835, "is_disabled": 0, "lon": -77.0646105, "is_reserved": 0}, {"bike_id": "3471e898f4c8b26f4e012cf5fde25507", "fusion_lon": 0.0, "type": "electric_scooter", "name": "3471e898f4c8b26f4e012cf5fde25507", "rental_uris": {"android": "https://dc.lft.to/lastmile_qr_scan", "ios": "https://dc.lft.to/lastmile_qr_scan"}, "fusion_lat": 0.0, "lat": 38.9039035, "is_disabled": 0, "lon": -76.97908266666667, "is_reserved": 0}, {"bike_id": "2fdcfc6261366ce70e6900f9d1732ec2", "fusion_lon": 0.0, "type": "electric_scooter", "name": "2fdcfc6261366ce70e6900f9d1732ec2", "rental_uris": {"android": "https://dc.lft.to/lastmile_qr_scan", "ios": "https://dc.lft.to/lastmile_qr_scan"}, "fusion_lat": 0.0, "lat": 38.906937666666664, "is_disabled": 0, "lon": -77.0343805, "is_reserved": 0}, {"bike_id": "03a374cffff9de99c0676b659e0b2efb", "fusion_lon": 0.0, "type": "electric_scooter", "name": "03a374cffff9de99c0676b659e0b2efb", "rental_uris": {"android": "https://dc.lft.to/lastmile_qr_scan", "ios": "https://dc.lft.to/lastmile_qr_scan"}, "fusion_lat": 0.0, "lat": 38.92885783333333, "is_disabled": 0, "lon": -77.02703066666666, "is_reserved": 0}, {"bike_id": "5aa198a25b9d70d9ec52633241acbf72", "fusion_lon": 0.0, "type": "electric_scooter", "name": "5aa198a25b9d70d9ec52633241acbf72", "rental_uris": {"android": "https://dc.lft.to/lastmile_qr_scan", "ios": "https://dc.lft.to/lastmile_qr_scan"}, "fusion_lat": 0.0, "lat": 38.934210666666665, "is_disabled": 0, "lon": -77.04313583333334, "is_reserved": 0}, {"bike_id": "b5f8565902771ee70289ca84a723b51e", "fusion_lon": 0.0, "type": "electric_scooter", "name": "b5f8565902771ee70289ca84a723b51e", "rental_uris": {"android": "https://dc.lft.to/lastmile_qr_scan", "ios": "https://dc.lft.to/lastmile_qr_scan"}, "fusion_lat": 0.0, "lat": 38.93276733333333, "is_disabled": 0, "lon": -77.023843, "is_reserved": 0}, {"bike_id": "13e0658d0fe9413ecf012a66fec38374", "fusion_lon": 0.0, "type": "electric_scooter", "name": "13e0658d0fe9413ecf012a66fec38374", "rental_uris": {"android": "https://dc.lft.to/lastmile_qr_scan", "ios": "https://dc.lft.to/lastmile_qr_scan"}, "fusion_lat": 0.0, "lat": 38.879408833333336, "is_disabled": 0, "lon": -77.017162, "is_reserved": 0}, {"bike_id": "373582f63dcefc23e3a40987b57e07b5", "fusion_lon": 0.0, "type": "electric_scooter", "name": "373582f63dcefc23e3a40987b57e07b5", "rental_uris": {"android": "https://dc.lft.to/lastmile_qr_scan", "ios": "https://dc.lft.to/lastmile_qr_scan"}, "fusion_lat": 0.0, "lat": 38.87939183333334, "is_disabled": 0, "lon": -77.00530983333333, "is_reserved": 0}, {"bike_id": "8dc6ed1b4e118101146bd06c6a8870ef", "fusion_lon": 0.0, "type": "electric_scooter", "name": "8dc6ed1b4e118101146bd06c6a8870ef", "rental_uris": {"android": "https://dc.lft.to/lastmile_qr_scan", "ios": "https://dc.lft.to/lastmile_qr_scan"}, "fusion_lat": 0.0, "lat": 38.8966475, "is_disabled": 0, "lon": -77.0434215, "is_reserved": 0}, {"bike_id": "339aa7a03e42461a59abe745730fc231", "fusion_lon": 0.0, "type": "electric_scooter", "name": "339aa7a03e42461a59abe745730fc231", "rental_uris": {"android": "https://dc.lft.to/lastmile_qr_scan", "ios": "https://dc.lft.to/lastmile_qr_scan"}, "fusion_lat": 0.0, "lat": 38.925731, "is_disabled": 0, "lon": -77.03240116666667, "is_reserved": 0}, {"bike_id": "1ab9a0249defe839c198b23d129a4864", "fusion_lon": 0.0, "type": "electric_scooter", "name": "1ab9a0249defe839c198b23d129a4864", "rental_uris": {"android": "https://dc.lft.to/lastmile_qr_scan", "ios": "https://dc.lft.to/lastmile_qr_scan"}, "fusion_lat": 0.0, "lat": 38.88598733333333, "is_disabled": 0, "lon": -76.95270516666666, "is_reserved": 0}, {"bike_id": "8449c5307a4fd106923aba78f93c08cf", "fusion_lon": 0.0, "type": "electric_scooter", "name": "8449c5307a4fd106923aba78f93c08cf", "rental_uris": {"android": "https://dc.lft.to/lastmile_qr_scan", "ios": "https://dc.lft.to/lastmile_qr_scan"}, "fusion_lat": 0.0, "lat": 38.8845275, "is_disabled": 0, "lon": -77.0104235, "is_reserved": 0}, {"bike_id": "1db681f491211797b537c27fb645907d", "fusion_lon": 0.0, "type": "electric_scooter", "name": "1db681f491211797b537c27fb645907d", "rental_uris": {"android": "https://dc.lft.to/lastmile_qr_scan", "ios": "https://dc.lft.to/lastmile_qr_scan"}, "fusion_lat": 0.0, "lat": 38.91140333333333, "is_disabled": 0, "lon": -76.99010933333334, "is_reserved": 0}, {"bike_id": "c53a90b74b14745e4aab04ab826ca3a3", "fusion_lon": 0.0, "type": "electric_bike", "name": "c53a90b74b14745e4aab04ab826ca3a3", "rental_uris": {"android": "https://dc.lft.to/lastmile_qr_scan", "ios": "https://dc.lft.to/lastmile_qr_scan"}, "fusion_lat": 0.0, "lat": 38.95965916666667, "is_disabled": 0, "lon": -76.98151966666667, "is_reserved": 0}, {"bike_id": "f2924e708d20488f709c0364b4c4ceda", "fusion_lon": 0.0, "type": "electric_scooter", "name": "f2924e708d20488f709c0364b4c4ceda", "rental_uris": {"android": "https://dc.lft.to/lastmile_qr_scan", "ios": "https://dc.lft.to/lastmile_qr_scan"}, "fusion_lat": 0.0, "lat": 38.903532166666665, "is_disabled": 0, "lon": -77.01904633333334, "is_reserved": 0}, {"bike_id": "b6efae075a0206841292d54aaabc883e", "fusion_lon": 0.0, "type": "electric_scooter", "name": "b6efae075a0206841292d54aaabc883e", "rental_uris": {"android": "https://dc.lft.to/lastmile_qr_scan", "ios": "https://dc.lft.to/lastmile_qr_scan"}, "fusion_lat": 0.0, "lat": 38.9144165, "is_disabled": 0, "lon": -77.02178766666667, "is_reserved": 0}, {"bike_id": "f567fcf4a4ea2b3bf0815e3ce0eca128", "fusion_lon": 0.0, "type": "electric_scooter", "name": "f567fcf4a4ea2b3bf0815e3ce0eca128", "rental_uris": {"android": "https://dc.lft.to/lastmile_qr_scan", "ios": "https://dc.lft.to/lastmile_qr_scan"}, "fusion_lat": 0.0, "lat": 38.906991833333336, "is_disabled": 0, "lon": -76.9861175, "is_reserved": 0}, {"bike_id": "6ae9951782cfe8556df735bcc691360e", "fusion_lon": 0.0, "type": "electric_scooter", "name": "6ae9951782cfe8556df735bcc691360e", "rental_uris": {"android": "https://dc.lft.to/lastmile_qr_scan", "ios": "https://dc.lft.to/lastmile_qr_scan"}, "fusion_lat": 0.0, "lat": 38.8879285, "is_disabled": 0, "lon": -76.951103, "is_reserved": 0}, {"bike_id": "e7f573f6d9472edc99920d4670bf9e85", "fusion_lon": 0.0, "type": "electric_scooter", "name": "e7f573f6d9472edc99920d4670bf9e85", "rental_uris": {"android": "https://dc.lft.to/lastmile_qr_scan", "ios": "https://dc.lft.to/lastmile_qr_scan"}, "fusion_lat": 0.0, "lat": 38.91851533333333, "is_disabled": 0, "lon": -77.048276, "is_reserved": 0}, {"bike_id": "7070c1961fac77073b1ff4131bcd31ba", "fusion_lon": 0.0, "type": "electric_scooter", "name": "7070c1961fac77073b1ff4131bcd31ba", "rental_uris": {"android": "https://dc.lft.to/lastmile_qr_scan", "ios": "https://dc.lft.to/lastmile_qr_scan"}, "fusion_lat": 0.0, "lat": 38.870788166666664, "is_disabled": 0, "lon": -77.0111075, "is_reserved": 0}, {"bike_id": "d0f797feab286ac70b3d16f16053376f", "fusion_lon": 0.0, "type": "electric_scooter", "name": "d0f797feab286ac70b3d16f16053376f", "rental_uris": {"android": "https://dc.lft.to/lastmile_qr_scan", "ios": "https://dc.lft.to/lastmile_qr_scan"}, "fusion_lat": 0.0, "lat": 38.909614, "is_disabled": 0, "lon": -76.98535016666666, "is_reserved": 0}, {"bike_id": "661afa1b583b790f019db3769ee53700", "fusion_lon": 0.0, "type": "electric_scooter", "name": "661afa1b583b790f019db3769ee53700", "rental_uris": {"android": "https://dc.lft.to/lastmile_qr_scan", "ios": "https://dc.lft.to/lastmile_qr_scan"}, "fusion_lat": 0.0, "lat": 38.91604866666667, "is_disabled": 0, "lon": -77.01655683333334, "is_reserved": 0}, {"bike_id": "88b565154ff08ad914cdc088890cd647", "fusion_lon": 0.0, "type": "electric_scooter", "name": "88b565154ff08ad914cdc088890cd647", "rental_uris": {"android": "https://dc.lft.to/lastmile_qr_scan", "ios": "https://dc.lft.to/lastmile_qr_scan"}, "fusion_lat": 0.0, "lat": 38.90376633333333, "is_disabled": 0, "lon": -77.02163533333334, "is_reserved": 0}, {"bike_id": "ca9b09cc50bb30cf64856c3f3eaaff6b", "fusion_lon": 0.0, "type": "electric_scooter", "name": "ca9b09cc50bb30cf64856c3f3eaaff6b", "rental_uris": {"android": "https://dc.lft.to/lastmile_qr_scan", "ios": "https://dc.lft.to/lastmile_qr_scan"}, "fusion_lat": 0.0, "lat": 38.898867, "is_disabled": 0, "lon": -76.93174966666666, "is_reserved": 0}, {"bike_id": "8871ce810991637094cc0eaea3821f08", "fusion_lon": 0.0, "type": "electric_scooter", "name": "8871ce810991637094cc0eaea3821f08", "rental_uris": {"android": "https://dc.lft.to/lastmile_qr_scan", "ios": "https://dc.lft.to/lastmile_qr_scan"}, "fusion_lat": 0.0, "lat": 38.907309833333336, "is_disabled": 0, "lon": -77.04275083333333, "is_reserved": 0}, {"bike_id": "4ef1265e5b03e7d37eeaa463aaa93b98", "fusion_lon": 0.0, "type": "electric_scooter", "name": "4ef1265e5b03e7d37eeaa463aaa93b98", "rental_uris": {"android": "https://dc.lft.to/lastmile_qr_scan", "ios": "https://dc.lft.to/lastmile_qr_scan"}, "fusion_lat": 0.0, "lat": 38.905149, "is_disabled": 0, "lon": -77.0297395, "is_reserved": 0}, {"bike_id": "54ee589a2a530bab39b6a25b07c416b7", "fusion_lon": 0.0, "type": "electric_bike", "name": "54ee589a2a530bab39b6a25b07c416b7", "rental_uris": {"android": "https://dc.lft.to/lastmile_qr_scan", "ios": "https://dc.lft.to/lastmile_qr_scan"}, "fusion_lat": 0.0, "lat": 38.848486, "is_disabled": 0, "lon": -77.08044466666666, "is_reserved": 0}, {"bike_id": "2e1c5814e356f1402e07867eb61b9ea7", "fusion_lon": 0.0, "type": "electric_scooter", "name": "2e1c5814e356f1402e07867eb61b9ea7", "rental_uris": {"android": "https://dc.lft.to/lastmile_qr_scan", "ios": "https://dc.lft.to/lastmile_qr_scan"}, "fusion_lat": 0.0, "lat": 38.91816333333333, "is_disabled": 0, "lon": -77.032597, "is_reserved": 0}, {"bike_id": "b21be52d7d577d958c0f59d63ecd89af", "fusion_lon": 0.0, "type": "electric_bike", "name": "b21be52d7d577d958c0f59d63ecd89af", "rental_uris": {"android": "https://dc.lft.to/lastmile_qr_scan", "ios": "https://dc.lft.to/lastmile_qr_scan"}, "fusion_lat": 0.0, "lat": 38.9473435, "is_disabled": 0, "lon": -76.95677316666666, "is_reserved": 0}, {"bike_id": "52bdd43ca45c446cbaf21b5d7c0541e0", "fusion_lon": 0.0, "type": "electric_scooter", "name": "52bdd43ca45c446cbaf21b5d7c0541e0", "rental_uris": {"android": "https://dc.lft.to/lastmile_qr_scan", "ios": "https://dc.lft.to/lastmile_qr_scan"}, "fusion_lat": 0.0, "lat": 38.851641666666666, "is_disabled": 0, "lon": -76.99459933333333, "is_reserved": 0}, {"bike_id": "a343af8be7d1a25fe3542e3c28cc1ed2", "fusion_lon": 0.0, "type": "electric_scooter", "name": "a343af8be7d1a25fe3542e3c28cc1ed2", "rental_uris": {"android": "https://dc.lft.to/lastmile_qr_scan", "ios": "https://dc.lft.to/lastmile_qr_scan"}, "fusion_lat": 0.0, "lat": 38.90037433333333, "is_disabled": 0, "lon": -77.01219133333333, "is_reserved": 0}, {"bike_id": "96d51b5771d4f7c8bc7e3faaadad457c", "fusion_lon": 0.0, "type": "electric_scooter", "name": "96d51b5771d4f7c8bc7e3faaadad457c", "rental_uris": {"android": "https://dc.lft.to/lastmile_qr_scan", "ios": "https://dc.lft.to/lastmile_qr_scan"}, "fusion_lat": 0.0, "lat": 38.917097, "is_disabled": 0, "lon": -77.038934, "is_reserved": 0}, {"bike_id": "aabb225b41395d90d2a7c5a490cf4b8f", "fusion_lon": 0.0, "type": "electric_bike", "name": "aabb225b41395d90d2a7c5a490cf4b8f", "rental_uris": {"android": "https://dc.lft.to/lastmile_qr_scan", "ios": "https://dc.lft.to/lastmile_qr_scan"}, "fusion_lat": 0.0, "lat": 38.874953, "is_disabled": 0, "lon": -77.048997, "is_reserved": 0}, {"bike_id": "6ce9ddae019980e07b43d7f042a296df", "fusion_lon": 0.0, "type": "electric_scooter", "name": "6ce9ddae019980e07b43d7f042a296df", "rental_uris": {"android": "https://dc.lft.to/lastmile_qr_scan", "ios": "https://dc.lft.to/lastmile_qr_scan"}, "fusion_lat": 0.0, "lat": 38.9069735, "is_disabled": 0, "lon": -77.00599533333333, "is_reserved": 0}, {"bike_id": "8f0d2932d97eba5d5a720da0346c7c75", "fusion_lon": 0.0, "type": "electric_scooter", "name": "8f0d2932d97eba5d5a720da0346c7c75", "rental_uris": {"android": "https://dc.lft.to/lastmile_qr_scan", "ios": "https://dc.lft.to/lastmile_qr_scan"}, "fusion_lat": 0.0, "lat": 38.89830583333333, "is_disabled": 0, "lon": -76.94650883333334, "is_reserved": 0}, {"bike_id": "dd69719123035a12e39fff324a7412d8", "fusion_lon": 0.0, "type": "electric_scooter", "name": "dd69719123035a12e39fff324a7412d8", "rental_uris": {"android": "https://dc.lft.to/lastmile_qr_scan", "ios": "https://dc.lft.to/lastmile_qr_scan"}, "fusion_lat": 0.0, "lat": 38.9327255, "is_disabled": 0, "lon": -77.04430083333334, "is_reserved": 0}, {"bike_id": "841dd1633855e36b45ffc306a494ac8b", "fusion_lon": 0.0, "type": "electric_scooter", "name": "841dd1633855e36b45ffc306a494ac8b", "rental_uris": {"android": "https://dc.lft.to/lastmile_qr_scan", "ios": "https://dc.lft.to/lastmile_qr_scan"}, "fusion_lat": 0.0, "lat": 38.92054133333333, "is_disabled": 0, "lon": -77.04191533333334, "is_reserved": 0}, {"bike_id": "449258bc86bce3b50ad845869347c9d4", "fusion_lon": 0.0, "type": "electric_scooter", "name": "449258bc86bce3b50ad845869347c9d4", "rental_uris": {"android": "https://dc.lft.to/lastmile_qr_scan", "ios": "https://dc.lft.to/lastmile_qr_scan"}, "fusion_lat": 0.0, "lat": 38.917636, "is_disabled": 0, "lon": -77.01600866666666, "is_reserved": 0}, {"bike_id": "284261239c85a771c4b2825600351400", "fusion_lon": 0.0, "type": "electric_scooter", "name": "284261239c85a771c4b2825600351400", "rental_uris": {"android": "https://dc.lft.to/lastmile_qr_scan", "ios": "https://dc.lft.to/lastmile_qr_scan"}, "fusion_lat": 0.0, "lat": 38.906820833333335, "is_disabled": 0, "lon": -77.07307783333333, "is_reserved": 0}, {"bike_id": "04a684c0f447b4ab841ffdde7d725b18", "fusion_lon": 0.0, "type": "electric_scooter", "name": "04a684c0f447b4ab841ffdde7d725b18", "rental_uris": {"android": "https://dc.lft.to/lastmile_qr_scan", "ios": "https://dc.lft.to/lastmile_qr_scan"}, "fusion_lat": 0.0, "lat": 38.92488616666667, "is_disabled": 0, "lon": -77.02141116666667, "is_reserved": 0}, {"bike_id": "e950667f7366056092cbe73052c73446", "fusion_lon": 0.0, "type": "electric_scooter", "name": "e950667f7366056092cbe73052c73446", "rental_uris": {"android": "https://dc.lft.to/lastmile_qr_scan", "ios": "https://dc.lft.to/lastmile_qr_scan"}, "fusion_lat": 0.0, "lat": 38.91854266666667, "is_disabled": 0, "lon": -77.023116, "is_reserved": 0}, {"bike_id": "3382aed7b75c3a4ec183e17dd072cad5", "fusion_lon": 0.0, "type": "electric_scooter", "name": "3382aed7b75c3a4ec183e17dd072cad5", "rental_uris": {"android": "https://dc.lft.to/lastmile_qr_scan", "ios": "https://dc.lft.to/lastmile_qr_scan"}, "fusion_lat": 0.0, "lat": 38.9277745, "is_disabled": 0, "lon": -77.03706183333334, "is_reserved": 0}, {"bike_id": "2da03db78205d7941ddf753f8ca01a8a", "fusion_lon": 0.0, "type": "electric_bike", "name": "2da03db78205d7941ddf753f8ca01a8a", "rental_uris": {"android": "https://dc.lft.to/lastmile_qr_scan", "ios": "https://dc.lft.to/lastmile_qr_scan"}, "fusion_lat": 0.0, "lat": 38.990678, "is_disabled": 0, "lon": -77.10025766666666, "is_reserved": 0}, {"bike_id": "e048127c76797e32391b574834bd8167", "fusion_lon": 0.0, "type": "electric_scooter", "name": "e048127c76797e32391b574834bd8167", "rental_uris": {"android": "https://dc.lft.to/lastmile_qr_scan", "ios": "https://dc.lft.to/lastmile_qr_scan"}, "fusion_lat": 0.0, "lat": 38.93878866666667, "is_disabled": 0, "lon": -77.02477283333333, "is_reserved": 0}, {"bike_id": "eb7d38c2bcb4ef821ef53ef8cab6b8f9", "fusion_lon": 0.0, "type": "electric_scooter", "name": "eb7d38c2bcb4ef821ef53ef8cab6b8f9", "rental_uris": {"android": "https://dc.lft.to/lastmile_qr_scan", "ios": "https://dc.lft.to/lastmile_qr_scan"}, "fusion_lat": 0.0, "lat": 38.9001655, "is_disabled": 0, "lon": -76.99114516666667, "is_reserved": 0}, {"bike_id": "23f0d9ac8378a1615ef356442fc3fa17", "fusion_lon": 0.0, "type": "electric_scooter", "name": "23f0d9ac8378a1615ef356442fc3fa17", "rental_uris": {"android": "https://dc.lft.to/lastmile_qr_scan", "ios": "https://dc.lft.to/lastmile_qr_scan"}, "fusion_lat": 0.0, "lat": 38.937603333333335, "is_disabled": 0, "lon": -77.032824, "is_reserved": 0}, {"bike_id": "c6bc17fcaf9b1ece6c70696c3cdf80c6", "fusion_lon": 0.0, "type": "electric_scooter", "name": "c6bc17fcaf9b1ece6c70696c3cdf80c6", "rental_uris": {"android": "https://dc.lft.to/lastmile_qr_scan", "ios": "https://dc.lft.to/lastmile_qr_scan"}, "fusion_lat": 0.0, "lat": 38.898919166666666, "is_disabled": 0, "lon": -76.98569166666667, "is_reserved": 0}, {"bike_id": "9c02db9fbbd3d6eed78fbd8eacc293af", "fusion_lon": 0.0, "type": "electric_scooter", "name": "9c02db9fbbd3d6eed78fbd8eacc293af", "rental_uris": {"android": "https://dc.lft.to/lastmile_qr_scan", "ios": "https://dc.lft.to/lastmile_qr_scan"}, "fusion_lat": 0.0, "lat": 38.92370316666667, "is_disabled": 0, "lon": -77.028044, "is_reserved": 0}, {"bike_id": "873ac44f5e4074516d48a630e803bc95", "fusion_lon": 0.0, "type": "electric_scooter", "name": "873ac44f5e4074516d48a630e803bc95", "rental_uris": {"android": "https://dc.lft.to/lastmile_qr_scan", "ios": "https://dc.lft.to/lastmile_qr_scan"}, "fusion_lat": 0.0, "lat": 38.9125925, "is_disabled": 0, "lon": -77.04091516666666, "is_reserved": 0}, {"bike_id": "9d569848c75840bcffdc477e6e03a41c", "fusion_lon": 0.0, "type": "electric_scooter", "name": "9d569848c75840bcffdc477e6e03a41c", "rental_uris": {"android": "https://dc.lft.to/lastmile_qr_scan", "ios": "https://dc.lft.to/lastmile_qr_scan"}, "fusion_lat": 0.0, "lat": 38.911939833333335, "is_disabled": 0, "lon": -77.01812183333334, "is_reserved": 0}, {"bike_id": "77d8a93a5429ed7c9ea96718b3e6d8d0", "fusion_lon": 0.0, "type": "electric_scooter", "name": "77d8a93a5429ed7c9ea96718b3e6d8d0", "rental_uris": {"android": "https://dc.lft.to/lastmile_qr_scan", "ios": "https://dc.lft.to/lastmile_qr_scan"}, "fusion_lat": 0.0, "lat": 38.90692666666666, "is_disabled": 0, "lon": -77.0099265, "is_reserved": 0},