{"data": {"bikes": [{"is_reserved": 0, "type": "electric_bike", "bike_id": "52ad164ee9bfcb92e48e07e6ea65e115", "lat": 38.89566283333333, "lon": -77.12739416666666, "rental_uris": {"android": "https://dc.lft.to/lastmile_qr_scan", "ios": "https://dc.lft.to/lastmile_qr_scan"}, "is_disabled": 0, "fusion_lat": 0.0, "name": "52ad164ee9bfcb92e48e07e6ea65e115", "fusion_lon": 0.0}, {"is_reserved": 0, "type": "electric_scooter", "bike_id": "5b506ddc36020a1ff571a0b2da3891a0", "lat": 38.94032283333333, "lon": -77.02644583333333, "rental_uris": {"android": "https://dc.lft.to/lastmile_qr_scan", "ios": "https://dc.lft.to/lastmile_qr_scan"}, "is_disabled": 0, "fusion_lat": 0.0, "name": "5b506ddc36020a1ff571a0b2da3891a0", "fusion_lon": 0.0}, {"is_reserved": 0, "type": "electric_scooter", "bike_id": "19d995bbaef315ff8b14eff8f24e93c2", "lat": 38.911795166666664, "lon": -77.02830866666666, "rental_uris": {"android": "https://dc.lft.to/lastmile_qr_scan", "ios": "https://dc.lft.to/lastmile_qr_scan"}, "is_disabled": 0, "fusion_lat": 0.0, "name": "19d995bbaef315ff8b14eff8f24e93c2", "fusion_lon": 0.0}, {"is_reserved": 0, "type": "electric_scooter", "bike_id": "c3afcbf7e8df861ca7677a54893a569f", "lat": 38.8643265, "lon": -76.998655, "rental_uris": {"android": "https://dc.lft.to/lastmile_qr_scan", "ios": "https://dc.lft.to/lastmile_qr_scan"}, "is_disabled": 0, "fusion_lat": 0.0, "name": "c3afcbf7e8df861ca7677a54893a569f", "fusion_lon": 0.0}, {"is_reserved": 0, "type": "electric_scooter", "bike_id": "7a435968fabfac96862a5554807edad9", "lat": 38.93464783333334, "lon": -77.02248683333333, "rental_uris": {"android": "https://dc.lft.to/lastmile_qr_scan", "ios": "https://dc.lft.to/lastmile_qr_scan"}, "is_disabled": 0, "fusion_lat": 0.0, "name": "7a435968fabfac96862a5554807edad9", "fusion_lon": 0.0}, {"is_reserved": 0, "type": "electric_scooter", "bike_id": "5ab6fbfdc6a138cf061a764124ea27a1", "lat": 38.928960333333336, "lon": -77.0225005, "rental_uris": {"android": "https://dc.lft.to/lastmile_qr_scan", "ios": "https://dc.lft.to/lastmile_qr_scan"}, "is_disabled": 0, "fusion_lat": 0.0, "name": "5ab6fbfdc6a138cf061a764124ea27a1", "fusion_lon": 0.0}, {"is_reserved": 0, "type": "electric_scooter", "bike_id": "ad63911cef87682e18449f39b16b6afb", "lat": 38.91765983333333, "lon": -77.03180316666666, "rental_uris": {"android": "https://dc.lft.to/lastmile_qr_scan", "ios": "https://dc.lft.to/lastmile_qr_scan"}, "is_disabled": 0, "fusion_lat": 0.0, "name": "ad63911cef87682e18449f39b16b6afb", "fusion_lon": 0.0}, {"is_reserved": 0, "type": "electric_scooter", "bike_id": "b2aeb643175a21d3dda0597b9bbd7991", "lat": 38.950904, "lon": -77.028106, "rental_uris": {"android": "https://dc.lft.to/lastmile_qr_scan", "ios": "https://dc.lft.to/lastmile_qr_scan"}, "is_disabled": 0, "fusion_lat": 0.0, "name": "b2aeb643175a21d3dda0597b9bbd7991", "fusion_lon": 0.0}, {"is_reserved": 0, "type": "electric_scooter", "bike_id": "214d7eff5d152cc96f689463b793baf4", "lat": 38.90064366666667, "lon": -76.98686583333334, "rental_uris": {"android": "https://dc.lft.to/lastmile_qr_scan", "ios": "https://dc.lft.to/lastmile_qr_scan"}, "is_disabled": 0, "fusion_lat": 0.0, "name": "214d7eff5d152cc96f689463b793baf4", "fusion_lon": 0.0}, {"is_reserved": 0, "type": "electric_scooter", "bike_id": "9686faf59b772ce680da0e03cbdd5e1c", "lat": 38.9035265, "lon": -77.01126116666667, "rental_uris": {"android": "https://dc.lft.to/lastmile_qr_scan", "ios": "https://dc.lft.to/lastmile_qr_scan"}, "is_disabled": 0, "fusion_lat": 0.0, "name": "9686faf59b772ce680da0e03cbdd5e1c", "fusion_lon": 0.0}, {"is_reserved": 0, "type": "electric_scooter", "bike_id": "7c0ed1f9b5559e422ec170ec3425e1a8", "lat": 38.930046833333336, "lon": -77.0230575, "rental_uris": {"android": "https://dc.lft.to/lastmile_qr_scan", "ios": "https://dc.lft.to/lastmile_qr_scan"}, "is_disabled": 0, "fusion_lat": 0.0, "name": "7c0ed1f9b5559e422ec170ec3425e1a8", "fusion_lon": 0.0}, {"is_reserved": 0, "type": "electric_scooter", "bike_id": "7771be5bd70815f8aeef367e2bd82588", "lat": 38.899862, "lon": -77.03093833333334, "rental_uris": {"android": "https://dc.lft.to/lastmile_qr_scan", "ios": "https://dc.lft.to/lastmile_qr_scan"}, "is_disabled": 0, "fusion_lat": 0.0, "name": "7771be5bd70815f8aeef367e2bd82588", "fusion_lon": 0.0}, {"is_reserved": 0, "type": "electric_scooter", "bike_id": "1ce43d44d76dcb4ccc1c22a9670404e4", "lat": 38.94981883333333, "lon": -77.02449333333334, "rental_uris": {"android": "https://dc.lft.to/lastmile_qr_scan", "ios": "https://dc.lft.to/lastmile_qr_scan"}, "is_disabled": 0, "fusion_lat": 0.0, "name": "1ce43d44d76dcb4ccc1c22a9670404e4", "fusion_lon": 0.0}, {"is_reserved": 0, "type": "electric_scooter", "bike_id": "e5a01e76ec03f675cbce22efec4d065e", "lat": 38.911174, "lon": -77.03833016666667, "rental_uris": {"android": "https://dc.lft.to/lastmile_qr_scan", "ios": "https://dc.lft.to/lastmile_qr_scan"}, "is_disabled": 0, "fusion_lat": 0.0, "name": "e5a01e76ec03f675cbce22efec4d065e", "fusion_lon": 0.0}, {"is_reserved": 0, "type": "electric_scooter", "bike_id": "1b77f04ea0fd7ea071dbb3c64340eba4", "lat": 38.93716716666667, "lon": -77.03264916666667, "rental_uris": {"android": "https://dc.lft.to/lastmile_qr_scan", "ios": "https://dc.lft.to/lastmile_qr_scan"}, "is_disabled": 0, "fusion_lat": 0.0, "name": "1b77f04ea0fd7ea071dbb3c64340eba4", "fusion_lon": 0.0}, {"is_reserved": 0, "type": "electric_scooter", "bike_id": "d6872f5e4defa0651e321de83c607b66", "lat": 38.954689, "lon": -77.07764133333333, "rental_uris": {"android": "https://dc.lft.to/lastmile_qr_scan", "ios": "https://dc.lft.to/lastmile_qr_scan"}, "is_disabled": 0, "fusion_lat": 0.0, "name": "d6872f5e4defa0651e321de83c607b66", "fusion_lon": 0.0}, {"is_reserved": 0, "type": "electric_bike", "bike_id": "7c0d06bf0972a8ee1fb8072c6ef986ec", "lat": 38.988304166666666, "lon": -77.02649566666666, "rental_uris": {"android": "https://dc.lft.to/lastmile_qr_scan", "ios": "https://dc.lft.to/lastmile_qr_scan"}, "is_disabled": 0, "fusion_lat": 0.0, "name": "7c0d06bf0972a8ee1fb8072c6ef986ec", "fusion_lon": 0.0}, {"is_reserved": 0, "type": "electric_scooter", "bike_id": "4d63d797584a7d56b99cc40e0937071f", "lat": 38.91723116666667, "lon": -77.02979166666667, "rental_uris": {"android": "https://dc.lft.to/lastmile_qr_scan", "ios": "https://dc.lft.to/lastmile_qr_scan"}, "is_disabled": 0, "fusion_lat": 0.0, "name": "4d63d797584a7d56b99cc40e0937071f", "fusion_lon": 0.0}, {"is_reserved": 0, "type": "electric_scooter", "bike_id": "b9132318218f901d4c3fab62a13760d1", "lat": 38.914655, "lon": -77.026102, "rental_uris": {"android": "https://dc.lft.to/lastmile_qr_scan", "ios": "https://dc.lft.to/lastmile_qr_scan"}, "is_disabled": 0, "fusion_lat": 0.0, "name": "b9132318218f901d4c3fab62a13760d1", "fusion_lon": 0.0}, {"is_reserved": 0, "type": "electric_scooter", "bike_id": "036309a4f8d842ffe6e6d9c1026119cc", "lat": 38.9079065, "lon": -77.00971316666667, "rental_uris": {"android": "https://dc.lft.to/lastmile_qr_scan", "ios": "https://dc.lft.to/lastmile_qr_scan"}, "is_disabled": 0, "fusion_lat": 0.0, "name": "036309a4f8d842ffe6e6d9c1026119cc", "fusion_lon": 0.0}, {"is_reserved": 0, "type": "electric_scooter", "bike_id": "e8210831bb8e0543f81394423675857e", "lat": 38.91917183333333, "lon": -77.03185033333334, "rental_uris": {"android": "https://dc.lft.to/lastmile_qr_scan", "ios": "https://dc.lft.to/lastmile_qr_scan"}, "is_disabled": 0, "fusion_lat": 0.0, "name": "e8210831bb8e0543f81394423675857e", "fusion_lon": 0.0}, {"is_reserved": 0, "type": "electric_scooter", "bike_id": "af4a8c1727cc8c66121cd570a870bfbb", "lat": 38.899699, "lon": -77.0220445, "rental_uris": {"android": "https://dc.lft.to/lastmile_qr_scan", "ios": "https://dc.lft.to/lastmile_qr_scan"}, "is_disabled": 0, "fusion_lat": 0.0, "name": "af4a8c1727cc8c66121cd570a870bfbb", "fusion_lon": 0.0}, {"is_reserved": 0, "type": "electric_scooter", "bike_id": "8133b1f6327597a1dd944f9b645826e6", "lat": 38.902288, "lon": -77.05323366666667, "rental_uris": {"android": "https://dc.lft.to/lastmile_qr_scan", "ios": "https://dc.lft.to/lastmile_qr_scan"}, "is_disabled": 0, "fusion_lat": 0.0, "name": "8133b1f6327597a1dd944f9b645826e6", "fusion_lon": 0.0}, {"is_reserved": 0, "type": "electric_bike", "bike_id": "2ae7b7c3a8c34f57be85a227edaf2061", "lat": 38.92134933333333, "lon": -77.0040245, "rental_uris": {"android": "https://dc.lft.to/lastmile_qr_scan", "ios": "https://dc.lft.to/lastmile_qr_scan"}, "is_disabled": 0, "fusion_lat": 0.0, "name": "2ae7b7c3a8c34f57be85a227edaf2061", "fusion_lon": 0.0}, {"is_reserved": 0, "type": "electric_scooter", "bike_id": "84b48b0a5c604bda937d39a478570263", "lat": 38.900628833333336, "lon": -77.048736, "rental_uris": {"android": "https://dc.lft.to/lastmile_qr_scan", "ios": "https://dc.lft.to/lastmile_qr_scan"}, "is_disabled": 0, "fusion_lat": 0.0, "name": "84b48b0a5c604bda937d39a478570263", "fusion_lon": 0.0}, {"is_reserved": 0, "type": "electric_bike", "bike_id": "88a6da78cd54cb3ada4744886c435f7b", "lat": 38.882822, "lon": -76.93248616666666, "rental_uris": {"android": "https://dc.lft.to/lastmile_qr_scan", "ios": "https://dc.lft.to/lastmile_qr_scan"}, "is_disabled": 0, "fusion_lat": 0.0, "name": "88a6da78cd54cb3ada4744886c435f7b", "fusion_lon": 0.0}, {"is_reserved": 0, "type": "electric_scooter", "bike_id": "e3c172a9d3649aa7750666639fedac17", "lat": 38.886111, "lon": -77.00402066666666, "rental_uris": {"android": "https://dc.lft.to/lastmile_qr_scan", "ios": "https://dc.lft.to/lastmile_qr_scan"}, "is_disabled": 0, "fusion_lat": 0.0, "name": "e3c172a9d3649aa7750666639fedac17", "fusion_lon": 0.0}, {"is_reserved": 0, "type": "electric_scooter", "bike_id": "2f3b3304ec4a8c50c8414ee173176258", "lat": 38.92703366666667, "lon": -77.02408266666667, "rental_uris": {"android": "https://dc.lft.to/lastmile_qr_scan", "ios": "https://dc.lft.to/lastmile_qr_scan"}, "is_disabled": 0, "fusion_lat": 0.0, "name": "2f3b3304ec4a8c50c8414ee173176258", "fusion_lon": 0.0}, {"is_reserved": 0, "type": "electric_scooter", "bike_id": "3d540b6e908f09db3c57b11b862e2a78", "lat": 38.915650166666666, "lon": -77.03669883333333, "rental_uris": {"android": "https://dc.lft.to/lastmile_qr_scan", "ios": "https://dc.lft.to/lastmile_qr_scan"}, "is_disabled": 0, "fusion_lat": 0.0, "name": "3d540b6e908f09db3c57b11b862e2a78", "fusion_lon": 0.0}, {"is_reserved": 0, "type": "electric_scooter", "bike_id": "e8ca203b82caaf622f0a1d0d81328487", "lat": 38.949798333333334, "lon": -77.02455833333333, "rental_uris": {"android": "https://dc.lft.to/lastmile_qr_scan", "ios": "https://dc.lft.to/lastmile_qr_scan"}, "is_disabled": 0, "fusion_lat": 0.0, "name": "e8ca203b82caaf622f0a1d0d81328487", "fusion_lon": 0.0}, {"is_reserved": 0, "type": "electric_bike", "bike_id": "f80475aadcd6bd90316fa7c6bc067ad2", "lat": 38.93601666666667, "lon": -77.03141966666666, "rental_uris": {"android": "https://dc.lft.to/lastmile_qr_scan", "ios": "https://dc.lft.to/lastmile_qr_scan"}, "is_disabled": 0, "fusion_lat": 0.0, "name": "f80475aadcd6bd90316fa7c6bc067ad2", "fusion_lon": 0.0}, {"is_reserved": 0, "type": "electric_bike", "bike_id": "1af84264abeafd9bf862585049a9e55e", "lat": 39.0107555, "lon": -76.910661, "rental_uris": {"android": "https://dc.lft.to/lastmile_qr_scan", "ios": "https://dc.lft.to/lastmile_qr_scan"}, "is_disabled": 0, "fusion_lat": 0.0, "name": "1af84264abeafd9bf862585049a9e55e", "fusion_lon": 0.0}, {"is_reserved": 0, "type": "electric_scooter", "bike_id": "06dff3e3efa29e73c200db87bcc084e9", "lat": 38.94612816666667, "lon": -77.03058183333333, "rental_uris": {"android": "https://dc.lft.to/lastmile_qr_scan", "ios": "https://dc.lft.to/lastmile_qr_scan"}, "is_disabled": 0, "fusion_lat": 0.0, "name": "06dff3e3efa29e73c200db87bcc084e9", "fusion_lon": 0.0}, {"is_reserved": 0, "type": "electric_scooter", "bike_id": "df73efe2c4d8f6a701e2e1effbd8cffe", "lat": 38.918496, "lon": -76.96549866666666, "rental_uris": {"android": "https://dc.lft.to/lastmile_qr_scan", "ios": "https://dc.lft.to/lastmile_qr_scan"}, "is_disabled": 0, "fusion_lat": 0.0, "name": "df73efe2c4d8f6a701e2e1effbd8cffe", "fusion_lon": 0.0}, {"is_reserved": 0, "type": "electric_scooter", "bike_id": "e641a9ce28a23e1129c772fcf4b24f18", "lat": 38.91958983333333, "lon": -77.01781016666666, "rental_uris": {"android": "https://dc.lft.to/lastmile_qr_scan", "ios": "https://dc.lft.to/lastmile_qr_scan"}, "is_disabled": 0, "fusion_lat": 0.0, "name": "e641a9ce28a23e1129c772fcf4b24f18", "fusion_lon": 0.0}, {"is_reserved": 0, "type": "electric_scooter", "bike_id": "68d3a992377a9724cc6993a287056b08", "lat": 38.894256666666664, "lon": -77.02341583333333, "rental_uris": {"android": "https://dc.lft.to/lastmile_qr_scan", "ios": "https://dc.lft.to/lastmile_qr_scan"}, "is_disabled": 0, "fusion_lat": 0.0, "name": "68d3a992377a9724cc6993a287056b08", "fusion_lon": 0.0}, {"is_reserved": 0, "type": "electric_scooter", "bike_id": "4470c978426f8cda709e632ca73a81e7", "lat": 38.902323833333334, "lon": -77.05348183333334, "rental_uris": {"android": "https://dc.lft.to/lastmile_qr_scan", "ios": "https://dc.lft.to/lastmile_qr_scan"}, "is_disabled": 0, "fusion_lat": 0.0, "name": "4470c978426f8cda709e632ca73a81e7", "fusion_lon": 0.0}, {"is_reserved": 0, "type": "electric_scooter", "bike_id": "0a2e06f0ddbad230f28c2b8ea23c5a48", "lat": 38.908053833333334, "lon": -77.03643316666667, "rental_uris": {"android": "https://dc.lft.to/lastmile_qr_scan", "ios": "https://dc.lft.to/lastmile_qr_scan"}, "is_disabled": 0, "fusion_lat": 0.0, "name": "0a2e06f0ddbad230f28c2b8ea23c5a48", "fusion_lon": 0.0}, {"is_reserved": 0, "type": "electric_scooter", "bike_id": "c2b452c338e9c42f3657ef481ac4bf8f", "lat": 38.90830833333333, "lon": -76.98717866666667, "rental_uris": {"android": "https://dc.lft.to/lastmile_qr_scan", "ios": "https://dc.lft.to/lastmile_qr_scan"}, "is_disabled": 0, "fusion_lat": 0.0, "name": "c2b452c338e9c42f3657ef481ac4bf8f", "fusion_lon": 0.0}, {"is_reserved": 0, "type": "electric_scooter", "bike_id": "7fdf32730ae5106f2e91c76bf52bd1ed", "lat": 38.91406333333333, "lon": -77.0283865, "rental_uris": {"android": "https://dc.lft.to/lastmile_qr_scan", "ios": "https://dc.lft.to/lastmile_qr_scan"}, "is_disabled": 0, "fusion_lat": 0.0, "name": "7fdf32730ae5106f2e91c76bf52bd1ed", "fusion_lon": 0.0}, {"is_reserved": 0, "type": "electric_scooter", "bike_id": "5540f20c02a2e41b9ce4777fba2cb6d7", "lat": 38.91303533333333, "lon": -76.984729, "rental_uris": {"android": "https://dc.lft.to/lastmile_qr_scan", "ios": "https://dc.lft.to/lastmile_qr_scan"}, "is_disabled": 0, "fusion_lat": 0.0, "name": "5540f20c02a2e41b9ce4777fba2cb6d7", "fusion_lon": 0.0}, {"is_reserved": 0, "type": "electric_scooter", "bike_id": "df23627424180f9c33e3472b813782c4", "lat": 38.90117333333333, "lon": -77.02219516666666, "rental_uris": {"android": "https://dc.lft.to/lastmile_qr_scan", "ios": "https://dc.lft.to/lastmile_qr_scan"}, "is_disabled": 0, "fusion_lat": 0.0, "name": "df23627424180f9c33e3472b813782c4", "fusion_lon": 0.0}, {"is_reserved": 0, "type": "electric_scooter", "bike_id": "3949d8ff0c76aa839d176e5d8e690773", "lat": 38.92689633333333, "lon": -77.0298465, "rental_uris": {"android": "https://dc.lft.to/lastmile_qr_scan", "ios": "https://dc.lft.to/lastmile_qr_scan"}, "is_disabled": 0, "fusion_lat": 0.0, "name": "3949d8ff0c76aa839d176e5d8e690773", "fusion_lon": 0.0}, {"is_reserved": 0, "type": "electric_scooter", "bike_id": "ee39f6503e6b1a2d11418a22092683bd", "lat": 38.92747933333333, "lon": -77.02111466666666, "rental_uris": {"android": "https://dc.lft.to/lastmile_qr_scan", "ios": "https://dc.lft.to/lastmile_qr_scan"}, "is_disabled": 0, "fusion_lat": 0.0, "name": "ee39f6503e6b1a2d11418a22092683bd", "fusion_lon": 0.0}, {"is_reserved": 0, "type": "electric_scooter", "bike_id": "eb175d7bfc1ff4a8a4de161f33dd271d", "lat": 38.8986735, "lon": -77.03955816666667, "rental_uris": {"android": "https://dc.lft.to/lastmile_qr_scan", "ios": "https://dc.lft.to/lastmile_qr_scan"}, "is_disabled": 0, "fusion_lat": 0.0, "name": "eb175d7bfc1ff4a8a4de161f33dd271d", "fusion_lon": 0.0}, {"is_reserved": 0, "type": "electric_bike", "bike_id": "8c78db4d46fb225ba685b07e6621ef41", "lat": 38.9891705, "lon": -77.02545533333333, "rental_uris": {"android": "https://dc.lft.to/lastmile_qr_scan", "ios": "https://dc.lft.to/lastmile_qr_scan"}, "is_disabled": 0, "fusion_lat": 0.0, "name": "8c78db4d46fb225ba685b07e6621ef41", "fusion_lon": 0.0}, {"is_reserved": 0, "type": "electric_scooter", "bike_id": "f5309f7868f43428f10ca6637f2ecf35", "lat": 38.928962, "lon": -77.0375025, "rental_uris": {"android": "https://dc.lft.to/lastmile_qr_scan", "ios": "https://dc.lft.to/lastmile_qr_scan"}, "is_disabled": 0, "fusion_lat": 0.0, "name": "f5309f7868f43428f10ca6637f2ecf35", "fusion_lon": 0.0}, {"is_reserved": 0, "type": "electric_scooter", "bike_id": "6715131f9bd16d8daba4ada1dc23a958", "lat": 38.93469133333333, "lon": -77.0417265, "rental_uris": {"android": "https://dc.lft.to/lastmile_qr_scan", "ios": "https://dc.lft.to/lastmile_qr_scan"}, "is_disabled": 0, "fusion_lat": 0.0, "name": "6715131f9bd16d8daba4ada1dc23a958", "fusion_lon": 0.0}, {"is_reserved": 0, "type": "electric_scooter", "bike_id": "aa5358cf0e7ffaf99412a7f42caf542e", "lat": 38.914099666666665, "lon": -77.04680183333333, "rental_uris": {"android": "https://dc.lft.to/lastmile_qr_scan", "ios": "https://dc.lft.to/lastmile_qr_scan"}, "is_disabled": 0, "fusion_lat": 0.0, "name": "aa5358cf0e7ffaf99412a7f42caf542e", "fusion_lon": 0.0}, {"is_reserved": 0, "type": "electric_scooter", "bike_id": "0b4fdadda9e7c7c0cc5cebf71665475a", "lat": 38.89226133333333, "lon": -77.05002616666667, "rental_uris": {"android": "https://dc.lft.to/lastmile_qr_scan", "ios": "https://dc.lft.to/lastmile_qr_scan"}, "is_disabled": 0, "fusion_lat": 0.0, "name": "0b4fdadda9e7c7c0cc5cebf71665475a", "fusion_lon": 0.0}, {"is_reserved": 0, "type": "electric_scooter", "bike_id": "56dc04cc8881476b0bd16fbc331a9f15", "lat": 38.892511999999996, "lon": -77.039604, "rental_uris": {"android": "https://dc.lft.to/lastmile_qr_scan", "ios": "https://dc.lft.to/lastmile_qr_scan"}, "is_disabled": 0, "fusion_lat": 0.0, "name": "56dc04cc8881476b0bd16fbc331a9f15", "fusion_lon": 0.0}, {"is_reserved": 0, "type": "electric_scooter", "bike_id": "2259a17007d854b00dadfb1ef3971f62", "lat": 38.958270666666664, "lon": -77.07647983333334, "rental_uris": {"android": "https://dc.lft.to/lastmile_qr_scan", "ios": "https://dc.lft.to/lastmile_qr_scan"}, "is_disabled": 0, "fusion_lat": 0.0, "name": "2259a17007d854b00dadfb1ef3971f62", "fusion_lon": 0.0}, {"is_reserved": 0, "type": "electric_bike", "bike_id": "8213ebb904e0870d70eab0f7dd13d15c", "lat": 38.89841533333333, "lon": -77.118714, "rental_uris": {"android": "https://dc.lft.to/lastmile_qr_scan", "ios": "https://dc.lft.to/lastmile_qr_scan"}, "is_disabled": 0, "fusion_lat": 0.0, "name": "8213ebb904e0870d70eab0f7dd13d15c", "fusion_lon": 0.0}, {"is_reserved": 0, "type": "electric_scooter", "bike_id": "7ad2a83db47a2a5d27fbf0e6bdce19c3", "lat": 38.92668066666667, "lon": -77.01460783333333, "rental_uris": {"android": "https://dc.lft.to/lastmile_qr_scan", "ios": "https://dc.lft.to/lastmile_qr_scan"}, "is_disabled": 0, "fusion_lat": 0.0, "name": "7ad2a83db47a2a5d27fbf0e6bdce19c3", "fusion_lon": 0.0}, {"is_reserved": 0, "type": "electric_scooter", "bike_id": "8e17b1b2535df8b60238f9cfef3db5eb", "lat": 38.915351666666666, "lon": -77.020066, "rental_uris": {"android": "https://dc.lft.to/lastmile_qr_scan", "ios": "https://dc.lft.to/lastmile_qr_scan"}, "is_disabled": 0, "fusion_lat": 0.0, "name": "8e17b1b2535df8b60238f9cfef3db5eb", "fusion_lon": 0.0}, {"is_reserved": 0, "type": "electric_scooter", "bike_id": "aa1d92baf130b02dfb00e1d4ab715171", "lat": 38.89221366666666, "lon": -77.02624366666667, "rental_uris": {"android": "https://dc.lft.to/lastmile_qr_scan", "ios": "https://dc.lft.to/lastmile_qr_scan"}, "is_disabled": 0, "fusion_lat": 0.0, "name": "aa1d92baf130b02dfb00e1d4ab715171", "fusion_lon": 0.0}, {"is_reserved": 0, "type": "electric_scooter", "bike_id": "216b7c388806cc255844105941f2fad9", "lat": 38.923323833333335, "lon": -77.0089215, "rental_uris": {"android": "https://dc.lft.to/lastmile_qr_scan", "ios": "https://dc.lft.to/lastmile_qr_scan"}, "is_disabled": 0, "fusion_lat": 0.0, "name": "216b7c388806cc255844105941f2fad9", "fusion_lon": 0.0}, {"is_reserved": 0, "type": "electric_scooter", "bike_id": "9881934d7d6d07eb20ee7939cefa487e", "lat": 38.918480333333335, "lon": -77.04116216666667, "rental_uris": {"android": "https://dc.lft.to/lastmile_qr_scan", "ios": "https://dc.lft.to/lastmile_qr_scan"}, "is_disabled": 0, "fusion_lat": 0.0, "name": "9881934d7d6d07eb20ee7939cefa487e", "fusion_lon": 0.0}, {"is_reserved": 0, "type": "electric_scooter", "bike_id": "2b300e15b54b83ea897a360c55bc8eca", "lat": 38.9057165, "lon": -77.04137533333333, "rental_uris": {"android": "https://dc.lft.to/lastmile_qr_scan", "ios": "https://dc.lft.to/lastmile_qr_scan"}, "is_disabled": 0, "fusion_lat": 0.0, "name": "2b300e15b54b83ea897a360c55bc8eca", "fusion_lon": 0.0}, {"is_reserved": 0, "type": "electric_scooter", "bike_id": "12641fe5bcb69915b38a48419e99a1f9", "lat": 38.9037165, "lon": -77.03200583333333, "rental_uris": {"android": "https://dc.lft.to/lastmile_qr_scan", "ios": "https://dc.lft.to/lastmile_qr_scan"}, "is_disabled": 0, "fusion_lat": 0.0, "name": "12641fe5bcb69915b38a48419e99a1f9", "fusion_lon": 0.0}, {"is_reserved": 0, "type": "electric_scooter", "bike_id": "b6b9c4a247dd69228d81b8bcdb57fa45", "lat": 38.916951166666664, "lon": -77.0259875, "rental_uris": {"android": "https://dc.lft.to/lastmile_qr_scan", "ios": "https://dc.lft.to/lastmile_qr_scan"}, "is_disabled": 0, "fusion_lat": 0.0, "name": "b6b9c4a247dd69228d81b8bcdb57fa45", "fusion_lon": 0.0}, {"is_reserved": 0, "type": "electric_scooter", "bike_id": "c93f498ef44392602b4a6f346e9a33bf", "lat": 38.8919085, "lon": -77.02177816666666, "rental_uris": {"android": "https://dc.lft.to/lastmile_qr_scan", "ios": "https://dc.lft.to/lastmile_qr_scan"}, "is_disabled": 0, "fusion_lat": 0.0, "name": "c93f498ef44392602b4a6f346e9a33bf", "fusion_lon": 0.0}, {"is_reserved": 0, "type": "electric_bike", "bike_id": "c1c51cd53b19c7fa652fbab8a1fe9328", "lat": 38.89410683333333, "lon": -76.868503, "rental_uris": {"android": "https://dc.lft.to/lastmile_qr_scan", "ios": "https://dc.lft.to/lastmile_qr_scan"}, "is_disabled": 0, "fusion_lat": 0.0, "name": "c1c51cd53b19c7fa652fbab8a1fe9328", "fusion_lon": 0.0}, {"is_reserved": 0, "type": "electric_scooter", "bike_id": "7a1e22a848dc633292093ef6c1fc65bc", "lat": 38.91719583333333, "lon": -77.03860616666667, "rental_uris": {"android": "https://dc.lft.to/lastmile_qr_scan", "ios": "https://dc.lft.to/lastmile_qr_scan"}, "is_disabled": 0, "fusion_lat": 0.0, "name": "7a1e22a848dc633292093ef6c1fc65bc", "fusion_lon": 0.0}, {"is_reserved": 0, "type": "electric_bike", "bike_id": "21b49e123be60f3b51ef8641ee1e81d8", "lat": 38.889345166666665, "lon": -76.91328516666667, "rental_uris": {"android": "https://dc.lft.to/lastmile_qr_scan", "ios": "https://dc.lft.to/lastmile_qr_scan"}, "is_disabled": 0, "fusion_lat": 0.0, "name": "21b49e123be60f3b51ef8641ee1e81d8", "fusion_lon": 0.0}, {"is_reserved": 0, "type": "electric_scooter", "bike_id": "9aaa29f49b74b77fd496620c6bac64b0", "lat": 38.92486233333333, "lon": -77.02273866666667, "rental_uris": {"android": "https://dc.lft.to/lastmile_qr_scan", "ios": "https://dc.lft.to/lastmile_qr_scan"}, "is_disabled": 0, "fusion_lat": 0.0, "name": "9aaa29f49b74b77fd496620c6bac64b0", "fusion_lon": 0.0}, {"is_reserved": 0, "type": "electric_scooter", "bike_id": "11285815b566e35fe7db02e9d995a12b", "lat": 38.897137, "lon": -77.02275633333333, "rental_uris": {"android": "https://dc.lft.to/lastmile_qr_scan", "ios": "https://dc.lft.to/lastmile_qr_scan"}, "is_disabled": 0, "fusion_lat": 0.0, "name": "11285815b566e35fe7db02e9d995a12b", "fusion_lon": 0.0}, {"is_reserved": 0, "type": "electric_scooter", "bike_id": "488ffcd11910dc96f4e96dd2af28fd98", "lat": 38.913846166666666, "lon": -77.01711516666667, "rental_uris": {"android": "https://dc.lft.to/lastmile_qr_scan", "ios": "https://dc.lft.to/lastmile_qr_scan"}, "is_disabled": 0, "fusion_lat": 0.0, "name": "488ffcd11910dc96f4e96dd2af28fd98", "fusion_lon": 0.0}, {"is_reserved": 0, "type": "electric_scooter", "bike_id": "6e3bf5708fc19fd2ecb95145fbc330fa", "lat": 38.86478533333333, "lon": -76.97747916666667, "rental_uris": {"android": "https://dc.lft.to/lastmile_qr_scan", "ios": "https://dc.lft.to/lastmile_qr_scan"}, "is_disabled": 0, "fusion_lat": 0.0, "name": "6e3bf5708fc19fd2ecb95145fbc330fa", "fusion_lon": 0.0}, {"is_reserved": 0, "type": "electric_scooter", "bike_id": "7bd280d4be83895abd7187048e9b612e", "lat": 38.9212535, "lon": -77.01215383333333, "rental_uris": {"android": "https://dc.lft.to/lastmile_qr_scan", "ios": "https://dc.lft.to/lastmile_qr_scan"}, "is_disabled": 0, "fusion_lat": 0.0, "name": "7bd280d4be83895abd7187048e9b612e", "fusion_lon": 0.0}, {"is_reserved": 0, "type": "electric_scooter", "bike_id": "d3eed4afe9eb04e224fb0a0489f6b65a", "lat": 38.917306333333336, "lon": -77.036748, "rental_uris": {"android": "https://dc.lft.to/lastmile_qr_scan", "ios": "https://dc.lft.to/lastmile_qr_scan"}, "is_disabled": 0, "fusion_lat": 0.0, "name": "d3eed4afe9eb04e224fb0a0489f6b65a", "fusion_lon": 0.0}, {"is_reserved": 0, "type": "electric_scooter", "bike_id": "d5310d4cb7fe0a99d4d5332aa5e38744", "lat": 38.914146, "lon": -77.031405, "rental_uris": {"android": "https://dc.lft.to/lastmile_qr_scan", "ios": "https://dc.lft.to/lastmile_qr_scan"}, "is_disabled": 0, "fusion_lat": 0.0, "name": "d5310d4cb7fe0a99d4d5332aa5e38744", "fusion_lon": 0.0}, {"is_reserved": 0, "type": "electric_scooter", "bike_id": "18af2aafd4f5cf2aed27ba618c6244fd", "lat": 38.91971016666667, "lon": -77.01438633333333, "rental_uris": {"android": "https://dc.lft.to/lastmile_qr_scan", "ios": "https://dc.lft.to/lastmile_qr_scan"}, "is_disabled": 0, "fusion_lat": 0.0, "name": "18af2aafd4f5cf2aed27ba618c6244fd", "fusion_lon": 0.0}, {"is_reserved": 0, "type": "electric_scooter", "bike_id": "5d647f8093e353c06488bed7de57ab10", "lat": 38.921433666666665, "lon": -77.04715366666667, "rental_uris": {"android": "https://dc.lft.to/lastmile_qr_scan", "ios": "https://dc.lft.to/lastmile_qr_scan"}, "is_disabled": 0, "fusion_lat": 0.0, "name": "5d647f8093e353c06488bed7de57ab10", "fusion_lon": 0.0}, {"is_reserved": 0, "type": "electric_scooter", "bike_id": "742d450cc4c0f00aadb5788592762a15", "lat": 38.90063633333333, "lon": -77.04347983333334, "rental_uris": {"android": "https://dc.lft.to/lastmile_qr_scan", "ios": "https://dc.lft.to/lastmile_qr_scan"}, "is_disabled": 0, "fusion_lat": 0.0, "name": "742d450cc4c0f00aadb5788592762a15", "fusion_lon": 0.0}, {"is_reserved": 0, "type": "electric_scooter", "bike_id": "ffa5ac8c56db61cec22af7fdd283c65d", "lat": 38.9167355, "lon": -77.029742, "rental_uris": {"android": "https://dc.lft.to/lastmile_qr_scan", "ios": "https://dc.lft.to/lastmile_qr_scan"}, "is_disabled": 0, "fusion_lat": 0.0, "name": "ffa5ac8c56db61cec22af7fdd283c65d", "fusion_lon": 0.0}, {"is_reserved": 0, "type": "electric_scooter", "bike_id": "a032fc8bed554c6de10e132822b0c00f", "lat": 38.93895416666667, "lon": -77.01764583333333, "rental_uris": {"android": "https://dc.lft.to/lastmile_qr_scan", "ios": "https://dc.lft.to/lastmile_qr_scan"}, "is_disabled": 0, "fusion_lat": 0.0, "name": "a032fc8bed554c6de10e132822b0c00f", "fusion_lon": 0.0}, {"is_reserved": 0, "type": "electric_bike", "bike_id": "d77c3bad605ba63d5da55035d4efcd1c", "lat": 38.94324566666667, "lon": -76.99015066666666, "rental_uris": {"android": "https://dc.lft.to/lastmile_qr_scan", "ios": "https://dc.lft.to/lastmile_qr_scan"}, "is_disabled": 0, "fusion_lat": 0.0, "name": "d77c3bad605ba63d5da55035d4efcd1c", "fusion_lon": 0.0}, {"is_reserved": 0, "type": "electric_bike", "bike_id": "08c2932f6a93021076c65c57f116bec9", "lat": 38.806726833333336, "lon": -77.087602, "rental_uris": {"android": "https://dc.lft.to/lastmile_qr_scan", "ios": "https://dc.lft.to/lastmile_qr_scan"}, "is_disabled": 0, "fusion_lat": 0.0, "name": "08c2932f6a93021076c65c57f116bec9", "fusion_lon": 0.0}, {"is_reserved": 0, "type": "electric_bike", "bike_id": "b46760a98ecfc8421a2e1f19abfc3217", "lat": 38.872172666666664, "lon": -77.11743733333333, "rental_uris": {"android": "https://dc.lft.to/lastmile_qr_scan", "ios": "https://dc.lft.to/lastmile_qr_scan"}, "is_disabled": 0, "fusion_lat": 0.0, "name": "b46760a98ecfc8421a2e1f19abfc3217", "fusion_lon": 0.0}, {"is_reserved": 0, "type": "electric_scooter", "bike_id": "40ca79e2b400568211cc8740721c6890", "lat": 38.907113, "lon": -76.985544, "rental_uris": {"android": "https://dc.lft.to/lastmile_qr_scan", "ios": "https://dc.lft.to/lastmile_qr_scan"}, "is_disabled": 0, "fusion_lat": 0.0, "name": "40ca79e2b400568211cc8740721c6890", "fusion_lon": 0.0}, {"is_reserved": 0, "type": "electric_scooter", "bike_id": "788fb39c1daa798d7eaa4342b20598ff", "lat": 38.914523333333335, "lon": -77.022917, "rental_uris": {"android": "https://dc.lft.to/lastmile_qr_scan", "ios": "https://dc.lft.to/lastmile_qr_scan"}, "is_disabled": 0, "fusion_lat": 0.0, "name": "788fb39c1daa798d7eaa4342b20598ff", "fusion_lon": 0.0}, {"is_reserved": 0, "type": "electric_scooter", "bike_id": "c0da89858277b8f5c3224ddbde04ae56", "lat": 38.8986755, "lon": -76.97766733333333, "rental_uris": {"android": "https://dc.lft.to/lastmile_qr_scan", "ios": "https://dc.lft.to/lastmile_qr_scan"}, "is_disabled": 0, "fusion_lat": 0.0, "name": "c0da89858277b8f5c3224ddbde04ae56", "fusion_lon": 0.0}, {"is_reserved": 0, "type": "electric_bike", "bike_id": "20fbbdb2388fa077172f068212d45468", "lat": 38.857924, "lon": -76.98754333333333, "rental_uris": {"android": "https://dc.lft.to/lastmile_qr_scan", "ios": "https://dc.lft.to/lastmile_qr_scan"}, "is_disabled": 0, "fusion_lat": 0.0, "name": "20fbbdb2388fa077172f068212d45468", "fusion_lon": 0.0}, {"is_reserved": 0, "type": "electric_scooter", "bike_id": "7f18ed451e606daf767c82181c476940", "lat": 38.912659, "lon": -77.038725, "rental_uris": {"android": "https://dc.lft.to/lastmile_qr_scan", "ios": "https://dc.lft.to/lastmile_qr_scan"}, "is_disabled": 0, "fusion_lat": 0.0, "name": "7f18ed451e606daf767c82181c476940", "fusion_lon": 0.0}, {"is_reserved": 0, "type": "electric_scooter", "bike_id": "e2a81b64230610ee9b895acf08d3ebd4", "lat": 38.905821333333336, "lon": -77.03671433333334, "rental_uris": {"android": "https://dc.lft.to/lastmile_qr_scan", "ios": "https://dc.lft.to/lastmile_qr_scan"}, "is_disabled": 0, "fusion_lat": 0.0, "name": "e2a81b64230610ee9b895acf08d3ebd4", "fusion_lon": 0.0}, {"is_reserved": 0, "type": "electric_bike", "bike_id": "7337c2c45c61c02252fa40e91d9b2ac0", "lat": 38.85608033333333, "lon": -76.97452483333333, "rental_uris": {"android": "https://dc.lft.to/lastmile_qr_scan", "ios": "https://dc.lft.to/lastmile_qr_scan"}, "is_disabled": 0, "fusion_lat": 0.0, "name": "7337c2c45c61c02252fa40e91d9b2ac0", "fusion_lon": 0.0}, {"is_reserved": 0, "type": "electric_scooter", "bike_id": "b7bcf7feaf8ebe29927a6990f360878b", "lat": 38.9185635, "lon": -77.03638766666667, "rental_uris": {"android": "https://dc.lft.to/lastmile_qr_scan", "ios": "https://dc.lft.to/lastmile_qr_scan"}, "is_disabled": 0, "fusion_lat": 0.0, "name": "b7bcf7feaf8ebe29927a6990f360878b", "fusion_lon": 0.0}, {"is_reserved": 0, "type": "electric_scooter", "bike_id": "0c53307112e90f398776784a1661afe5", "lat": 38.9012375, "lon": -77.03672066666667, "rental_uris": {"android": "https://dc.lft.to/lastmile_qr_scan", "ios": "https://dc.lft.to/lastmile_qr_scan"}, "is_disabled": 0, "fusion_lat": 0.0, "name": "0c53307112e90f398776784a1661afe5", "fusion_lon": 0.0}, {"is_reserved": 0, "type": "electric_scooter", "bike_id": "2fe3e326bd7cdc62824af44cf1d85103", "lat": 38.89912016666667, "lon": -76.93365083333333, "rental_uris": {"android": "https://dc.lft.to/lastmile_qr_scan", "ios": "https://dc.lft.to/lastmile_qr_scan"}, "is_disabled": 0, "fusion_lat": 0.0, "name": "2fe3e326bd7cdc62824af44cf1d85103", "fusion_lon": 0.0}, {"is_reserved": 0, "type": "electric_scooter", "bike_id": "f85bf5789e206d71c75f24a3539e3634", "lat": 38.902119666666664, "lon": -77.04903583333333, "rental_uris": {"android": "https://dc.lft.to/lastmile_qr_scan", "ios": "https://dc.lft.to/lastmile_qr_scan"}, "is_disabled": 0, "fusion_lat": 0.0, "name": "f85bf5789e206d71c75f24a3539e3634", "fusion_lon": 0.0}, {"is_reserved": 0, "type": "electric_scooter", "bike_id": "dda14a4b95cf5a2b4e63d2f44e1acb4c", "lat": 38.936421333333335, "lon": -77.03664216666667, "rental_uris": {"android": "https://dc.lft.to/lastmile_qr_scan", "ios": "https://dc.lft.to/lastmile_qr_scan"}, "is_disabled": 0, "fusion_lat": 0.0, "name": "dda14a4b95cf5a2b4e63d2f44e1acb4c", "fusion_lon": 0.0}, {"is_reserved": 0, "type": "electric_bike", "bike_id": "1bc8348335dbc446d6fc1a2807fb65fa", "lat": 38.86453266666667, "lon": -76.98994266666666, "rental_uris": {"android": "https://dc.lft.to/lastmile_qr_scan", "ios": "https://dc.lft.to/lastmile_qr_scan"}, "is_disabled": 0, "fusion_lat": 0.0, "name": "1bc8348335dbc446d6fc1a2807fb65fa", "fusion_lon": 0.0}, {"is_reserved": 0, "type": "electric_scooter", "bike_id": "da9b47e727a6a4e59d3f3efd297d1fe6", "lat": 38.924352166666665, "lon": -77.003212, "rental_uris": {"android": "https://dc.lft.to/lastmile_qr_scan", "ios": "https://dc.lft.to/lastmile_qr_scan"}, "is_disabled": 0, "fusion_lat": 0.0, "name": "da9b47e727a6a4e59d3f3efd297d1fe6", "fusion_lon": 0.0}, {"is_reserved": 0, "type": "electric_scooter", "bike_id": "58ed79943c08d230f27321ac2123a224", "lat": 38.91119183333333, "lon": -77.03827733333334, "rental_uris": {"android": "https://dc.lft.to/lastmile_qr_scan", "ios": "https://dc.lft.to/lastmile_qr_scan"}, "is_disabled": 0, "fusion_lat": 0.0, "name": "58ed79943c08d230f27321ac2123a224", "fusion_lon": 0.0}, {"is_reserved": 0, "type": "electric_scooter", "bike_id": "08fecfcdb3af9e24f30d5cd1f876f57a", "lat": 38.9239515, "lon": -77.050579, "rental_uris": {"android": "https://dc.lft.to/lastmile_qr_scan", "ios": "https://dc.lft.to/lastmile_qr_scan"}, "is_disabled": 0, "fusion_lat": 0.0, "name": "08fecfcdb3af9e24f30d5cd1f876f57a", "fusion_lon": 0.0}, {"is_reserved": 0, "type": "electric_scooter", "bike_id": "a17fbbb191ed556ca0429c60d984a66c", "lat": 38.904007, "lon": -77.06299533333333, "rental_uris": {"android": "https://dc.lft.to/lastmile_qr_scan", "ios": "https://dc.lft.to/lastmile_qr_scan"}, "is_disabled": 0, "fusion_lat": 0.0, "name": "a17fbbb191ed556ca0429c60d984a66c", "fusion_lon": 0.0}, {"is_reserved": 0, "type": "electric_scooter", "bike_id": "5df54c180cdbc62c152b87ed4a1e7666", "lat": 38.93598683333333, "lon": -77.0587405, "rental_uris": {"android": "https://dc.lft.to/lastmile_qr_scan", "ios": "https://dc.lft.to/lastmile_qr_scan"}, "is_disabled": 0, "fusion_lat": 0.0, "name": "5df54c180cdbc62c152b87ed4a1e7666", "fusion_lon": 0.0}, {"is_reserved": 0, "type": "electric_scooter", "bike_id": "3ca9f7d630e9a3dc10f9a3ed2fc6013d", "lat": 38.907214333333336, "lon": -77.01684316666666, "rental_uris": {"android": "https://dc.lft.to/lastmile_qr_scan", "ios": "https://dc.lft.to/lastmile_qr_scan"}, "is_disabled": 0, "fusion_lat": 0.0, "name": "3ca9f7d630e9a3dc10f9a3ed2fc6013d", "fusion_lon": 0.0}, {"is_reserved": 0, "type": "electric_scooter", "bike_id": "ba0d524219f4ef8175232f649c64a43f", "lat": 38.8995485, "lon": -77.021138, "rental_uris": {"android": "https://dc.lft.to/lastmile_qr_scan", "ios": "https://dc.lft.to/lastmile_qr_scan"}, "is_disabled": 0, "fusion_lat": 0.0, "name": "ba0d524219f4ef8175232f649c64a43f", "fusion_lon": 0.0}, {"is_reserved": 0, "type": "electric_scooter", "bike_id": "676ce6a1518ebbd411872a9ca12642be", "lat": 38.89222133333333, "lon": -77.03110083333333, "rental_uris": {"android": "https://dc.lft.to/lastmile_qr_scan", "ios": "https://dc.lft.to/lastmile_qr_scan"}, "is_disabled": 0, "fusion_lat": 0.0, "name": "676ce6a1518ebbd411872a9ca12642be", "fusion_lon": 0.0}, {"is_reserved": 0, "type": "electric_scooter", "bike_id": "8f009a16fd0cd61c713b6ebe3273de58", "lat": 38.89628316666666, "lon": -77.032225, "rental_uris": {"android": "https://dc.lft.to/lastmile_qr_scan", "ios": "https://dc.lft.to/lastmile_qr_scan"}, "is_disabled": 0, "fusion_lat": 0.0, "name": "8f009a16fd0cd61c713b6ebe3273de58", "fusion_lon": 0.0}, {"is_reserved": 0, "type": "electric_scooter", "bike_id": "d90f10f88cab7fa1951678cd56a1d565", "lat": 38.92851116666667, "lon": -77.05510516666666, "rental_uris": {"android": "https://dc.lft.to/lastmile_qr_scan", "ios": "https://dc.lft.to/lastmile_qr_scan"}, "is_disabled": 0, "fusion_lat": 0.0, "name": "d90f10f88cab7fa1951678cd56a1d565", "fusion_lon": 0.0}, {"is_reserved": 0, "type": "electric_scooter", "bike_id": "3c30c3e559f950a5cca30a6d66c7190b", "lat": 38.90942233333333, "lon": -77.03953166666666, "rental_uris": {"android": "https://dc.lft.to/lastmile_qr_scan", "ios": "https://dc.lft.to/lastmile_qr_scan"}, "is_disabled": 0, "fusion_lat": 0.0, "name": "3c30c3e559f950a5cca30a6d66c7190b", "fusion_lon": 0.0}, {"is_reserved": 0, "type": "electric_scooter", "bike_id": "d4c919e67f30d48cad3fa9dd04c7b44b", "lat": 38.9174455, "lon": -77.02802016666666, "rental_uris": {"android": "https://dc.lft.to/lastmile_qr_scan", "ios": "https://dc.lft.to/lastmile_qr_scan"}, "is_disabled": 0, "fusion_lat": 0.0, "name": "d4c919e67f30d48cad3fa9dd04c7b44b", "fusion_lon": 0.0}, {"is_reserved": 0, "type": "electric_scooter", "bike_id": "6f1236cbe2263018132027189e60a134", "lat": 38.89195316666667, "lon": -76.998522, "rental_uris": {"android": "https://dc.lft.to/lastmile_qr_scan", "ios": "https://dc.lft.to/lastmile_qr_scan"}, "is_disabled": 0, "fusion_lat": 0.0, "name": "6f1236cbe2263018132027189e60a134", "fusion_lon": 0.0}, {"is_reserved": 0, "type": "electric_scooter", "bike_id": "8fe375d93021d05a03959d763051e93c", "lat": 38.905766166666666, "lon": -77.01845983333334, "rental_uris": {"android": "https://dc.lft.to/lastmile_qr_scan", "ios": "https://dc.lft.to/lastmile_qr_scan"}, "is_disabled": 0, "fusion_lat": 0.0, "name": "8fe375d93021d05a03959d763051e93c", "fusion_lon": 0.0}, {"is_reserved": 0, "type": "electric_scooter", "bike_id": "69e37a54a3e3c261d0a7f2cba4bf7443", "lat": 38.92112, "lon": -77.04226466666667, "rental_uris": {"android": "https://dc.lft.to/lastmile_qr_scan", "ios": "https://dc.lft.to/lastmile_qr_scan"}, "is_disabled": 0, "fusion_lat": 0.0, "name": "69e37a54a3e3c261d0a7f2cba4bf7443", "fusion_lon": 0.0}, {"is_reserved": 0, "type": "electric_scooter", "bike_id": "35758f21e72665b5734371cbe8ad478e", "lat": 38.90010183333333, "lon": -76.99864616666666, "rental_uris": {"android": "https://dc.lft.to/lastmile_qr_scan", "ios": "https://dc.lft.to/lastmile_qr_scan"}, "is_disabled": 0, "fusion_lat": 0.0, "name": "35758f21e72665b5734371cbe8ad478e", "fusion_lon": 0.0}, {"is_reserved": 0, "type": "electric_scooter", "bike_id": "6dbe8674a62bfa6f7aeb04ea5c287bdc", "lat": 38.925355, "lon": -77.05556783333333, "rental_uris": {"android": "https://dc.lft.to/lastmile_qr_scan", "ios": "https://dc.lft.to/lastmile_qr_scan"}, "is_disabled": 0, "fusion_lat": 0.0, "name": "6dbe8674a62bfa6f7aeb04ea5c287bdc", "fusion_lon": 0.0}, {"is_reserved": 0, "type": "electric_scooter", "bike_id": "9a5c46d31a3a5258493c1f456b3e4fb2", "lat": 38.932556, "lon": -77.03284766666667, "rental_uris": {"android": "https://dc.lft.to/lastmile_qr_scan", "ios": "https://dc.lft.to/lastmile_qr_scan"}, "is_disabled": 0, "fusion_lat": 0.0, "name": "9a5c46d31a3a5258493c1f456b3e4fb2", "fusion_lon": 0.0}, {"is_reserved": 0, "type": "electric_scooter", "bike_id": "2275b2f252a84fa4c921d4a04bf51049", "lat": 38.940904, "lon": -77.02978833333333, "rental_uris": {"android": "https://dc.lft.to/lastmile_qr_scan", "ios": "https://dc.lft.to/lastmile_qr_scan"}, "is_disabled": 0, "fusion_lat": 0.0, "name": "2275b2f252a84fa4c921d4a04bf51049", "fusion_lon": 0.0}, {"is_reserved": 0, "type": "electric_scooter", "bike_id": "2041545696a2e55ffadbc4ed49f9d60b", "lat": 38.89258016666667, "lon": -76.94138266666667, "rental_uris": {"android": "https://dc.lft.to/lastmile_qr_scan", "ios": "https://dc.lft.to/lastmile_qr_scan"}, "is_disabled": 0, "fusion_lat": 0.0, "name": "2041545696a2e55ffadbc4ed49f9d60b", "fusion_lon": 0.0}, {"is_reserved": 0, "type": "electric_scooter", "bike_id": "c4bd6cbbc26732b782971f5d12880ea5", "lat": 38.932454666666665, "lon": -77.0387145, "rental_uris": {"android": "https://dc.lft.to/lastmile_qr_scan", "ios": "https://dc.lft.to/lastmile_qr_scan"}, "is_disabled": 0, "fusion_lat": 0.0, "name": "c4bd6cbbc26732b782971f5d12880ea5", "fusion_lon": 0.0}, {"is_reserved": 0, "type": "electric_scooter", "bike_id": "caaaf0b185ec6672722a24cd3cfe08a8", "lat": 38.917739833333336, "lon": -77.02310333333334, "rental_uris": {"android": "https://dc.lft.to/lastmile_qr_scan", "ios": "https://dc.lft.to/lastmile_qr_scan"}, "is_disabled": 0, "fusion_lat": 0.0, "name": "caaaf0b185ec6672722a24cd3cfe08a8", "fusion_lon": 0.0}, {"is_reserved": 0, "type": "electric_scooter", "bike_id": "2f0a4ab87769d116fc8c7d302fddecc8", "lat": 38.94922666666667, "lon": -77.027003, "rental_uris": {"android": "https://dc.lft.to/lastmile_qr_scan", "ios": "https://dc.lft.to/lastmile_qr_scan"}, "is_disabled": 0, "fusion_lat": 0.0, "name": "2f0a4ab87769d116fc8c7d302fddecc8", "fusion_lon": 0.0}, {"is_reserved": 0, "type": "electric_scooter", "bike_id": "93365c5f251a3ee6e217ca7edca1eac6", "lat": 38.916818666666664, "lon": -77.028221, "rental_uris": {"android": "https://dc.lft.to/lastmile_qr_scan", "ios": "https://dc.lft.to/lastmile_qr_scan"}, "is_disabled": 0, "fusion_lat": 0.0, "name": "93365c5f251a3ee6e217ca7edca1eac6", "fusion_lon": 0.0}, {"is_reserved": 0, "type": "electric_scooter", "bike_id": "cc56ea0f01eb7e80e820e266bd588102", "lat": 38.89343866666667, "lon": -76.9938615, "rental_uris": {"android": "https://dc.lft.to/lastmile_qr_scan", "ios": "https://dc.lft.to/lastmile_qr_scan"}, "is_disabled": 0, "fusion_lat": 0.0, "name": "cc56ea0f01eb7e80e820e266bd588102", "fusion_lon": 0.0}, {"is_reserved": 0, "type": "electric_scooter", "bike_id": "1ad1b51c839c7b851d0c28da57b725d4", "lat": 38.900098, "lon": -77.02924666666667, "rental_uris": {"android": "https://dc.lft.to/lastmile_qr_scan", "ios": "https://dc.lft.to/lastmile_qr_scan"}, "is_disabled": 0, "fusion_lat": 0.0, "name": "1ad1b51c839c7b851d0c28da57b725d4", "fusion_lon": 0.0}, {"is_reserved": 0, "type": "electric_scooter", "bike_id": "5b9e8c0c3621edfa9771d3570b7668b4", "lat": 38.93105216666667, "lon": -77.0349045, "rental_uris": {"android": "https://dc.lft.to/lastmile_qr_scan", "ios": "https://dc.lft.to/lastmile_qr_scan"}, "is_disabled": 0, "fusion_lat": 0.0, "name": "5b9e8c0c3621edfa9771d3570b7668b4", "fusion_lon": 0.0}, {"is_reserved": 0, "type": "electric_scooter", "bike_id": "48f041ba1704067dff11c7817ce6add1", "lat": 38.887387, "lon": -77.02621683333334, "rental_uris": {"android": "https://dc.lft.to/lastmile_qr_scan", "ios": "https://dc.lft.to/lastmile_qr_scan"}, "is_disabled": 0, "fusion_lat": 0.0, "name": "48f041ba1704067dff11c7817ce6add1", "fusion_lon": 0.0}, {"is_reserved": 0, "type": "electric_scooter", "bike_id": "804cc0deeabc9cc6e12a41119cdf4173", "lat": 38.91093583333333, "lon": -76.98477316666667, "rental_uris": {"android": "https://dc.lft.to/lastmile_qr_scan", "ios": "https://dc.lft.to/lastmile_qr_scan"}, "is_disabled": 0, "fusion_lat": 0.0, "name": "804cc0deeabc9cc6e12a41119cdf4173", "fusion_lon": 0.0}, {"is_reserved": 0, "type": "electric_scooter", "bike_id": "dcbb3147720cbffb20a9f5aa2ebfc5f1", "lat": 38.92338933333333, "lon": -77.02967516666666, "rental_uris": {"android": "https://dc.lft.to/lastmile_qr_scan", "ios": "https://dc.lft.to/lastmile_qr_scan"}, "is_disabled": 0, "fusion_lat": 0.0, "name": "dcbb3147720cbffb20a9f5aa2ebfc5f1", "fusion_lon": 0.0}, {"is_reserved": 0, "type": "electric_scooter", "bike_id": "ff228cc9b648a1910597d5e687cf27ea", "lat": 38.915733, "lon": -76.9839695, "rental_uris": {"android": "https://dc.lft.to/lastmile_qr_scan", "ios": "https://dc.lft.to/lastmile_qr_scan"}, "is_disabled": 0, "fusion_lat": 0.0, "name": "ff228cc9b648a1910597d5e687cf27ea", "fusion_lon": 0.0}, {"is_reserved": 0, "type": "electric_scooter", "bike_id": "1ca7bb3857a372f7e713c7f8cc5e1e55", "lat": 38.929191833333334, "lon": -76.99815733333334, "rental_uris": {"android": "https://dc.lft.to/lastmile_qr_scan", "ios": "https://dc.lft.to/lastmile_qr_scan"}, "is_disabled": 0, "fusion_lat": 0.0, "name": "1ca7bb3857a372f7e713c7f8cc5e1e55", "fusion_lon": 0.0}, {"is_reserved": 0, "type": "electric_scooter", "bike_id": "b71ad859fb1bba10b1bc026bfd84f656", "lat": 38.911668, "lon": -77.01989783333333, "rental_uris": {"android": "https://dc.lft.to/lastmile_qr_scan", "ios": "https://dc.lft.to/lastmile_qr_scan"}, "is_disabled": 0, "fusion_lat": 0.0, "name": "b71ad859fb1bba10b1bc026bfd84f656", "fusion_lon": 0.0}, {"is_reserved": 0, "type": "electric_scooter", "bike_id": "b881f126a049e1f084d0c2283f49fa1a", "lat": 38.92131366666667, "lon": -77.0179765, "rental_uris": {"android": "https://dc.lft.to/lastmile_qr_scan", "ios": "https://dc.lft.to/lastmile_qr_scan"}, "is_disabled": 0, "fusion_lat": 0.0, "name": "b881f126a049e1f084d0c2283f49fa1a", "fusion_lon": 0.0}, {"is_reserved": 0, "type": "electric_scooter", "bike_id": "c72535482f1ca918a91928e271d9549c", "lat": 38.91472916666667, "lon": -77.02177066666667, "rental_uris": {"android": "https://dc.lft.to/lastmile_qr_scan", "ios": "https://dc.lft.to/lastmile_qr_scan"}, "is_disabled": 0, "fusion_lat": 0.0, "name": "c72535482f1ca918a91928e271d9549c", "fusion_lon": 0.0}, {"is_reserved": 0, "type": "electric_scooter", "bike_id": "075d39c188b02b78c0a6b3a5ed55a38f", "lat": 38.892246, "lon": -77.04357366666666, "rental_uris": {"android": "https://dc.lft.to/lastmile_qr_scan", "ios": "https://dc.lft.to/lastmile_qr_scan"}, "is_disabled": 0, "fusion_lat": 0.0, "name": "075d39c188b02b78c0a6b3a5ed55a38f", "fusion_lon": 0.0}, {"is_reserved": 0, "type": "electric_scooter", "bike_id": "22b2c0a3582243ee33eebb26017235e3", "lat": 38.90591233333333, "lon": -77.01616333333334, "rental_uris": {"android": "https://dc.lft.to/lastmile_qr_scan", "ios": "https://dc.lft.to/lastmile_qr_scan"}, "is_disabled": 0, "fusion_lat": 0.0, "name": "22b2c0a3582243ee33eebb26017235e3", "fusion_lon": 0.0}, {"is_reserved": 0, "type": "electric_scooter", "bike_id": "2115e3b995ccaad473f21109fb1f53b1", "lat": 38.916519666666666, "lon": -77.026976, "rental_uris": {"android": "https://dc.lft.to/lastmile_qr_scan", "ios": "https://dc.lft.to/lastmile_qr_scan"}, "is_disabled": 0, "fusion_lat": 0.0, "name": "2115e3b995ccaad473f21109fb1f53b1", "fusion_lon": 0.0}, {"is_reserved": 0, "type": "electric_scooter", "bike_id": "2cb216d4532e7d69d0b0c61191587c81", "lat": 38.90412283333333, "lon": -77.06775283333333, "rental_uris": {"android": "https://dc.lft.to/lastmile_qr_scan", "ios": "https://dc.lft.to/lastmile_qr_scan"}, "is_disabled": 0, "fusion_lat": 0.0, "name": "2cb216d4532e7d69d0b0c61191587c81", "fusion_lon": 0.0}, {"is_reserved": 0, "type": "electric_scooter", "bike_id": "14da65caa025ec6717d47b3d75a886eb", "lat": 38.91203616666667, "lon": -77.012032, "rental_uris": {"android": "https://dc.lft.to/lastmile_qr_scan", "ios": "https://dc.lft.to/lastmile_qr_scan"}, "is_disabled": 0, "fusion_lat": 0.0, "name": "14da65caa025ec6717d47b3d75a886eb", "fusion_lon": 0.0}, {"is_reserved": 0, "type": "electric_scooter", "bike_id": "ee180760f204c25b6f26d58c47ccac26", "lat": 38.905649333333336, "lon": -77.01807483333333, "rental_uris": {"android": "https://dc.lft.to/lastmile_qr_scan", "ios": "https://dc.lft.to/lastmile_qr_scan"}, "is_disabled": 0, "fusion_lat": 0.0, "name": "ee180760f204c25b6f26d58c47ccac26", "fusion_lon": 0.0}, {"is_reserved": 0, "type": "electric_scooter", "bike_id": "24110f82125dd6457c3feb44e2239d62", "lat": 38.92554233333333, "lon": -76.98148666666667, "rental_uris": {"android": "https://dc.lft.to/lastmile_qr_scan", "ios": "https://dc.lft.to/lastmile_qr_scan"}, "is_disabled": 0, "fusion_lat": 0.0, "name": "24110f82125dd6457c3feb44e2239d62", "fusion_lon": 0.0}, {"is_reserved": 0, "type": "electric_scooter", "bike_id": "61f2caac0284e08b6b32a9fcc494fac0", "lat": 38.943212833333334, "lon": -77.06530716666667, "rental_uris": {"android": "https://dc.lft.to/lastmile_qr_scan", "ios": "https://dc.lft.to/lastmile_qr_scan"}, "is_disabled": 0, "fusion_lat": 0.0, "name": "61f2caac0284e08b6b32a9fcc494fac0", "fusion_lon": 0.0}, {"is_reserved": 0, "type": "electric_scooter", "bike_id": "3ce7be50384e07fef39f09f26d4eeb11", "lat": 38.933832, "lon": -77.02034866666666, "rental_uris": {"android": "https://dc.lft.to/lastmile_qr_scan", "ios": "https://dc.lft.to/lastmile_qr_scan"}, "is_disabled": 0, "fusion_lat": 0.0, "name": "3ce7be50384e07fef39f09f26d4eeb11", "fusion_lon": 0.0}, {"is_reserved": 0, "type": "electric_scooter", "bike_id": "4a7cb037a59d34d269f6f17944380ec5", "lat": 38.872909166666666, "lon": -77.00985083333333, "rental_uris": {"android": "https://dc.lft.to/lastmile_qr_scan", "ios": "https://dc.lft.to/lastmile_qr_scan"}, "is_disabled": 0, "fusion_lat": 0.0, "name": "4a7cb037a59d34d269f6f17944380ec5", "fusion_lon": 0.0}, {"is_reserved": 0, "type": "electric_scooter", "bike_id": "4f09f97397770a37b2041b8ecde678d0", "lat": 38.904445833333334, "lon": -77.06264333333333, "rental_uris": {"android": "https://dc.lft.to/lastmile_qr_scan", "ios": "https://dc.lft.to/lastmile_qr_scan"}, "is_disabled": 0, "fusion_lat": 0.0, "name": "4f09f97397770a37b2041b8ecde678d0", "fusion_lon": 0.0}, {"is_reserved": 0, "type": "electric_scooter", "bike_id": "0d2d41db0db857a9a8e79c76e4cb0ee2", "lat": 38.904131166666666, "lon": -77.01838966666666, "rental_uris": {"android": "https://dc.lft.to/lastmile_qr_scan", "ios": "https://dc.lft.to/lastmile_qr_scan"}, "is_disabled": 0, "fusion_lat": 0.0, "name": "0d2d41db0db857a9a8e79c76e4cb0ee2", "fusion_lon": 0.0}, {"is_reserved": 0, "type": "electric_scooter", "bike_id": "46c4eba370eecc8886a8dcffad4cc228", "lat": 38.92794583333333, "lon": -77.0308655, "rental_uris": {"android": "https://dc.lft.to/lastmile_qr_scan", "ios": "https://dc.lft.to/lastmile_qr_scan"}, "is_disabled": 0, "fusion_lat": 0.0, "name": "46c4eba370eecc8886a8dcffad4cc228", "fusion_lon": 0.0}, {"is_reserved": 0, "type": "electric_scooter", "bike_id": "72d2ccb841a3eceeb35bb67490fca374", "lat": 38.892278833333336, "lon": -77.05002533333334, "rental_uris": {"android": "https://dc.lft.to/lastmile_qr_scan", "ios": "https://dc.lft.to/lastmile_qr_scan"}, "is_disabled": 0, "fusion_lat": 0.0, "name": "72d2ccb841a3eceeb35bb67490fca374", "fusion_lon": 0.0}, {"is_reserved": 0, "type": "electric_scooter", "bike_id": "d82227df7f4b35168f4927a5a9c5829f", "lat": 38.92078633333333, "lon": -77.0250535, "rental_uris": {"android": "https://dc.lft.to/lastmile_qr_scan", "ios": "https://dc.lft.to/lastmile_qr_scan"}, "is_disabled": 0, "fusion_lat": 0.0, "name": "d82227df7f4b35168f4927a5a9c5829f", "fusion_lon": 0.0}, {"is_reserved": 0, "type": "electric_scooter", "bike_id": "97ca0f1e6ec50159d2690fad4b69a962", "lat": 38.911872, "lon": -77.0026295, "rental_uris": {"android": "https://dc.lft.to/lastmile_qr_scan", "ios": "https://dc.lft.to/lastmile_qr_scan"}, "is_disabled": 0, "fusion_lat": 0.0, "name": "97ca0f1e6ec50159d2690fad4b69a962", "fusion_lon": 0.0}, {"is_reserved": 0, "type": "electric_scooter", "bike_id": "8d85ced33b2d81963df808cca0b50744", "lat": 38.903563166666665, "lon": -77.00741883333333, "rental_uris": {"android": "https://dc.lft.to/lastmile_qr_scan", "ios": "https://dc.lft.to/lastmile_qr_scan"}, "is_disabled": 0, "fusion_lat": 0.0, "name": "8d85ced33b2d81963df808cca0b50744", "fusion_lon": 0.0}, {"is_reserved": 0, "type": "electric_bike", "bike_id": "4ea1388c4c63f7e452fdbf8ac1ded922", "lat": 38.95869733333333, "lon": -76.97050783333333, "rental_uris": {"android": "https://dc.lft.to/lastmile_qr_scan", "ios": "https://dc.lft.to/lastmile_qr_scan"}, "is_disabled": 0, "fusion_lat": 0.0, "name": "4ea1388c4c63f7e452fdbf8ac1ded922", "fusion_lon": 0.0}, {"is_reserved": 0, "type": "electric_scooter", "bike_id": "85a8ab06ce91e5d127df6e6616f78e1b", "lat": 38.9236095, "lon": -77.05112133333333, "rental_uris": {"android": "https://dc.lft.to/lastmile_qr_scan", "ios": "https://dc.lft.to/lastmile_qr_scan"}, "is_disabled": 0, "fusion_lat": 0.0, "name": "85a8ab06ce91e5d127df6e6616f78e1b", "fusion_lon": 0.0}, {"is_reserved": 0, "type": "electric_scooter", "bike_id": "f22fa420994662376156d666370e6a96", "lat": 38.905627333333335, "lon": -77.0042045, "rental_uris": {"android": "https://dc.lft.to/lastmile_qr_scan", "ios": "https://dc.lft.to/lastmile_qr_scan"}, "is_disabled": 0, "fusion_lat": 0.0, "name": "f22fa420994662376156d666370e6a96", "fusion_lon": 0.0}, {"is_reserved": 0, "type": "electric_scooter", "bike_id": "1fb63c3264025d185aa0392ac4fe94cd", "lat": 38.9212445, "lon": -77.019028, "rental_uris": {"android": "https://dc.lft.to/lastmile_qr_scan", "ios": "https://dc.lft.to/lastmile_qr_scan"}, "is_disabled": 0, "fusion_lat": 0.0, "name": "1fb63c3264025d185aa0392ac4fe94cd", "fusion_lon": 0.0}, {"is_reserved": 0, "type": "electric_scooter", "bike_id": "941dd44074190534c5cee442aa1bbd9f", "lat": 38.9168225, "lon": -77.02969583333334, "rental_uris": {"android": "https://dc.lft.to/lastmile_qr_scan", "ios": "https://dc.lft.to/lastmile_qr_scan"}, "is_disabled": 0, "fusion_lat": 0.0, "name": "941dd44074190534c5cee442aa1bbd9f", "fusion_lon": 0.0}, {"is_reserved": 0, "type": "electric_scooter", "bike_id": "ac0f1169da1fb7e20b975e99711db8c5", "lat": 38.907373666666665, "lon": -77.00810766666666, "rental_uris": {"android": "https://dc.lft.to/lastmile_qr_scan", "ios": "https://dc.lft.to/lastmile_qr_scan"}, "is_disabled": 0, "fusion_lat": 0.0, "name": "ac0f1169da1fb7e20b975e99711db8c5", "fusion_lon": 0.0}, {"is_reserved": 0, "type": "electric_scooter", "bike_id": "1b2b5c0d851eabc51e49ab1277d21165", "lat": 38.93073416666667, "lon": -77.02818466666666, "rental_uris": {"android": "https://dc.lft.to/lastmile_qr_scan", "ios": "https://dc.lft.to/lastmile_qr_scan"}, "is_disabled": 0, "fusion_lat": 0.0, "name": "1b2b5c0d851eabc51e49ab1277d21165", "fusion_lon": 0.0}, {"is_reserved": 0, "type": "electric_scooter", "bike_id": "34ad8814d060d7094f89210549348b69", "lat": 38.875833, "lon": -77.00578633333333, "rental_uris": {"android": "https://dc.lft.to/lastmile_qr_scan", "ios": "https://dc.lft.to/lastmile_qr_scan"}, "is_disabled": 0, "fusion_lat": 0.0, "name": "34ad8814d060d7094f89210549348b69", "fusion_lon": 0.0}, {"is_reserved": 0, "type": "electric_scooter", "bike_id": "d83e905e209a3c4aa8f5f3cf40d1f9f4", "lat": 38.896248, "lon": -76.99729216666667, "rental_uris": {"android": "https://dc.lft.to/lastmile_qr_scan", "ios": "https://dc.lft.to/lastmile_qr_scan"}, "is_disabled": 0, "fusion_lat": 0.0, "name": "d83e905e209a3c4aa8f5f3cf40d1f9f4", "fusion_lon": 0.0}, {"is_reserved": 0, "type": "electric_scooter", "bike_id": "00307448c54f9968ea058ecaf4298582", "lat": 38.91648816666667, "lon": -77.02181516666667, "rental_uris": {"android": "https://dc.lft.to/lastmile_qr_scan", "ios": "https://dc.lft.to/lastmile_qr_scan"}, "is_disabled": 0, "fusion_lat": 0.0, "name": "00307448c54f9968ea058ecaf4298582", "fusion_lon": 0.0}, {"is_reserved": 0, "type": "electric_scooter", "bike_id": "826d320405112d587dc029a0f5bd9dfa", "lat": 38.92390783333333, "lon": -77.05058216666667, "rental_uris": {"android": "https://dc.lft.to/lastmile_qr_scan", "ios": "https://dc.lft.to/lastmile_qr_scan"}, "is_disabled": 0, "fusion_lat": 0.0, "name": "826d320405112d587dc029a0f5bd9dfa", "fusion_lon": 0.0}, {"is_reserved": 0, "type": "electric_bike", "bike_id": "af40ba7f8fe123d5c4b74546b0f72999", "lat": 38.94566983333333, "lon": -76.95843266666667, "rental_uris": {"android": "https://dc.lft.to/lastmile_qr_scan", "ios": "https://dc.lft.to/lastmile_qr_scan"}, "is_disabled": 0, "fusion_lat": 0.0, "name": "af40ba7f8fe123d5c4b74546b0f72999", "fusion_lon": 0.0}, {"is_reserved": 0, "type": "electric_scooter", "bike_id": "33ca1db13f40927ba3be7fbc48c5de7f", "lat": 38.93226716666667, "lon": -76.99753116666666, "rental_uris": {"android": "https://dc.lft.to/lastmile_qr_scan", "ios": "https://dc.lft.to/lastmile_qr_scan"}, "is_disabled": 0, "fusion_lat": 0.0, "name": "33ca1db13f40927ba3be7fbc48c5de7f", "fusion_lon": 0.0}, {"is_reserved": 0, "type": "electric_scooter", "bike_id": "00f9a14c24fd8cd352ca00eaa04353db", "lat": 38.89953466666667, "lon": -76.946363, "rental_uris": {"android": "https://dc.lft.to/lastmile_qr_scan", "ios": "https://dc.lft.to/lastmile_qr_scan"}, "is_disabled": 0, "fusion_lat": 0.0, "name": "00f9a14c24fd8cd352ca00eaa04353db", "fusion_lon": 0.0}, {"is_reserved": 0, "type": "electric_scooter", "bike_id": "8ac42160fd599e4b94c43f4fb9b7037f", "lat": 38.903029, "lon": -76.93416216666667, "rental_uris": {"android": "https://dc.lft.to/lastmile_qr_scan", "ios": "https://dc.lft.to/lastmile_qr_scan"}, "is_disabled": 0, "fusion_lat": 0.0, "name": "8ac42160fd599e4b94c43f4fb9b7037f", "fusion_lon": 0.0}, {"is_reserved": 0, "type": "electric_scooter", "bike_id": "78f210f1d83d648f622cf9abed51c73f", "lat": 38.9354205, "lon": -77.0235395, "rental_uris": {"android": "https://dc.lft.to/lastmile_qr_scan", "ios": "https://dc.lft.to/lastmile_qr_scan"}, "is_disabled": 0, "fusion_lat": 0.0, "name": "78f210f1d83d648f622cf9abed51c73f", "fusion_lon": 0.0}, {"is_reserved": 0, "type": "electric_scooter", "bike_id": "f24065180bf88eeaabd00109d4d0cbef", "lat": 38.946485333333335, "lon": -77.06480766666667, "rental_uris": {"android": "https://dc.lft.to/lastmile_qr_scan", "ios": "https://dc.lft.to/lastmile_qr_scan"}, "is_disabled": 0, "fusion_lat": 0.0, "name": "f24065180bf88eeaabd00109d4d0cbef", "fusion_lon": 0.0}, {"is_reserved": 0, "type": "electric_bike", "bike_id": "fbeb42933228f8325aacacfca3a3561f", "lat": 38.9204415, "lon": -76.97958383333334, "rental_uris": {"android": "https://dc.lft.to/lastmile_qr_scan", "ios": "https://dc.lft.to/lastmile_qr_scan"}, "is_disabled": 0, "fusion_lat": 0.0, "name": "fbeb42933228f8325aacacfca3a3561f", "fusion_lon": 0.0}, {"is_reserved": 0, "type": "electric_scooter", "bike_id": "35523200263a83fe801cf60095465a79", "lat": 38.96120766666667, "lon": -77.08489383333334, "rental_uris": {"android": "https://dc.lft.to/lastmile_qr_scan", "ios": "https://dc.lft.to/lastmile_qr_scan"}, "is_disabled": 0, "fusion_lat": 0.0, "name": "35523200263a83fe801cf60095465a79", "fusion_lon": 0.0}, {"is_reserved": 0, "type": "electric_scooter", "bike_id": "7eb831f20e535fcf9fd684c7dd6dceb3", "lat": 38.894844666666664, "lon": -77.021614, "rental_uris": {"android": "https://dc.lft.to/lastmile_qr_scan", "ios": "https://dc.lft.to/lastmile_qr_scan"}, "is_disabled": 0, "fusion_lat": 0.0, "name": "7eb831f20e535fcf9fd684c7dd6dceb3", "fusion_lon": 0.0}, {"is_reserved": 0, "type": "electric_scooter", "bike_id": "035168ab93b7853c6bd819ff37d6bfcf", "lat": 38.945140333333335, "lon": -77.03367033333333, "rental_uris": {"android": "https://dc.lft.to/lastmile_qr_scan", "ios": "https://dc.lft.to/lastmile_qr_scan"}, "is_disabled": 0, "fusion_lat": 0.0, "name": "035168ab93b7853c6bd819ff37d6bfcf", "fusion_lon": 0.0}, {"is_reserved": 0, "type": "electric_scooter", "bike_id": "385361e0eb725864de7fc06c569ea71b", "lat": 38.93100616666667, "lon": -77.024787, "rental_uris": {"android": "https://dc.lft.to/lastmile_qr_scan", "ios": "https://dc.lft.to/lastmile_qr_scan"}, "is_disabled": 0, "fusion_lat": 0.0, "name": "385361e0eb725864de7fc06c569ea71b", "fusion_lon": 0.0}, {"is_reserved": 0, "type": "electric_scooter", "bike_id": "e3c929a428d1722344acbf66a06b450b", "lat": 38.91915933333333, "lon": -77.01344516666667, "rental_uris": {"android": "https://dc.lft.to/lastmile_qr_scan", "ios": "https://dc.lft.to/lastmile_qr_scan"}, "is_disabled": 0, "fusion_lat": 0.0, "name": "e3c929a428d1722344acbf66a06b450b", "fusion_lon": 0.0}, {"is_reserved": 0, "type": "electric_scooter", "bike_id": "10e7b1d99f7ba0d9decfc3d5af5a6cd7", "lat": 38.91601883333333, "lon": -77.03168, "rental_uris": {"android": "https://dc.lft.to/lastmile_qr_scan", "ios": "https://dc.lft.to/lastmile_qr_scan"}, "is_disabled": 0, "fusion_lat": 0.0, "name": "10e7b1d99f7ba0d9decfc3d5af5a6cd7", "fusion_lon": 0.0}, {"is_reserved": 0, "type": "electric_scooter", "bike_id": "aa6d1e3ace7d0f345003a2f348a30e95", "lat": 38.9305935, "lon": -77.0394735, "rental_uris": {"android": "https://dc.lft.to/lastmile_qr_scan", "ios": "https://dc.lft.to/lastmile_qr_scan"}, "is_disabled": 0, "fusion_lat": 0.0, "name": "aa6d1e3ace7d0f345003a2f348a30e95", "fusion_lon": 0.0}, {"is_reserved": 0, "type": "electric_scooter", "bike_id": "20169843fb17a000a56b607fdc60439b", "lat": 38.9055855, "lon": -77.00606133333334, "rental_uris": {"android": "https://dc.lft.to/lastmile_qr_scan", "ios": "https://dc.lft.to/lastmile_qr_scan"}, "is_disabled": 0, "fusion_lat": 0.0, "name": "20169843fb17a000a56b607fdc60439b", "fusion_lon": 0.0}, {"is_reserved": 0, "type": "electric_scooter", "bike_id": "ed2588b95883dd573db3dcf0f8197ae3", "lat": 38.88729416666666, "lon": -77.02834083333333, "rental_uris": {"android": "https://dc.lft.to/lastmile_qr_scan", "ios": "https://dc.lft.to/lastmile_qr_scan"}, "is_disabled": 0, "fusion_lat": 0.0, "name": "ed2588b95883dd573db3dcf0f8197ae3", "fusion_lon": 0.0}, {"is_reserved": 0, "type": "electric_scooter", "bike_id": "a66bb9c5ff4358182b4f3d9bcbb0b872", "lat": 38.934938333333335, "lon": -77.036595, "rental_uris": {"android": "https://dc.lft.to/lastmile_qr_scan", "ios": "https://dc.lft.to/lastmile_qr_scan"}, "is_disabled": 0, "fusion_lat": 0.0, "name": "a66bb9c5ff4358182b4f3d9bcbb0b872", "fusion_lon": 0.0}, {"is_reserved": 0, "type": "electric_scooter", "bike_id": "d8b2c78bd20538fa3e1fbd7d447b02fe", "lat": 38.884402, "lon": -77.02482383333333, "rental_uris": {"android": "https://dc.lft.to/lastmile_qr_scan", "ios": "https://dc.lft.to/lastmile_qr_scan"}, "is_disabled": 0, "fusion_lat": 0.0, "name": "d8b2c78bd20538fa3e1fbd7d447b02fe", "fusion_lon": 0.0}, {"is_reserved": 0, "type": "electric_scooter", "bike_id": "1dcbbb6aff8a286771ced83d9816c5b3", "lat": 38.92108866666667, "lon": -77.0366305, "rental_uris": {"android": "https://dc.lft.to/lastmile_qr_scan", "ios": "https://dc.lft.to/lastmile_qr_scan"}, "is_disabled": 0, "fusion_lat": 0.0, "name": "1dcbbb6aff8a286771ced83d9816c5b3", "fusion_lon": 0.0}, {"is_reserved": 0, "type": "electric_scooter", "bike_id": "d4e55e03a37ce13935d439302dd0893d", "lat": 38.927469, "lon": -77.0535625, "rental_uris": {"android": "https://dc.lft.to/lastmile_qr_scan", "ios": "https://dc.lft.to/lastmile_qr_scan"}, "is_disabled": 0, "fusion_lat": 0.0, "name": "d4e55e03a37ce13935d439302dd0893d", "fusion_lon": 0.0}, {"is_reserved": 0, "type": "electric_scooter", "bike_id": "fd8f8658884905d291d138cdab984056", "lat": 38.8996735, "lon": -76.93853383333334, "rental_uris": {"android": "https://dc.lft.to/lastmile_qr_scan", "ios": "https://dc.lft.to/lastmile_qr_scan"}, "is_disabled": 0, "fusion_lat": 0.0, "name": "fd8f8658884905d291d138cdab984056", "fusion_lon": 0.0}, {"is_reserved": 0, "type": "electric_scooter", "bike_id": "c531c19fbd387a0b31cced77e4a9520e", "lat": 38.91741616666667, "lon": -77.01713233333334, "rental_uris": {"android": "https://dc.lft.to/lastmile_qr_scan", "ios": "https://dc.lft.to/lastmile_qr_scan"}, "is_disabled": 0, "fusion_lat": 0.0, "name": "c531c19fbd387a0b31cced77e4a9520e", "fusion_lon": 0.0}, {"is_reserved": 0, "type": "electric_scooter", "bike_id": "5c1ae019382c5ebd94955e5dcca9449d", "lat": 38.89223916666667, "lon": -77.043352, "rental_uris": {"android": "https://dc.lft.to/lastmile_qr_scan", "ios": "https://dc.lft.to/lastmile_qr_scan"}, "is_disabled": 0, "fusion_lat": 0.0, "name": "5c1ae019382c5ebd94955e5dcca9449d", "fusion_lon": 0.0}, {"is_reserved": 0, "type": "electric_scooter", "bike_id": "3f5e9b6676332d37d6d4165573cd7068", "lat": 38.92232216666667, "lon": -77.02238983333334, "rental_uris": {"android": "https://dc.lft.to/lastmile_qr_scan", "ios": "https://dc.lft.to/lastmile_qr_scan"}, "is_disabled": 0, "fusion_lat": 0.0, "name": "3f5e9b6676332d37d6d4165573cd7068", "fusion_lon": 0.0}, {"is_reserved": 0, "type": "electric_scooter", "bike_id": "00e602bb84a2c292d81d191a1220aefb", "lat": 38.921002, "lon": -77.04366716666667, "rental_uris": {"android": "https://dc.lft.to/lastmile_qr_scan", "ios": "https://dc.lft.to/lastmile_qr_scan"}, "is_disabled": 0, "fusion_lat": 0.0, "name": "00e602bb84a2c292d81d191a1220aefb", "fusion_lon": 0.0}, {"is_reserved": 0, "type": "electric_scooter", "bike_id": "cbda517f75dfe5c4c2649c541bb1e931", "lat": 38.9095685, "lon": -77.04886516666667, "rental_uris": {"android": "https://dc.lft.to/lastmile_qr_scan", "ios": "https://dc.lft.to/lastmile_qr_scan"}, "is_disabled": 0, "fusion_lat": 0.0, "name": "cbda517f75dfe5c4c2649c541bb1e931", "fusion_lon": 0.0}, {"is_reserved": 0, "type": "electric_scooter", "bike_id": "60b5f3a10189f5d937ade8966d69d1f1", "lat": 38.88728416666667, "lon": -77.02209816666667, "rental_uris": {"android": "https://dc.lft.to/lastmile_qr_scan", "ios": "https://dc.lft.to/lastmile_qr_scan"}, "is_disabled": 0, "fusion_lat": 0.0, "name": "60b5f3a10189f5d937ade8966d69d1f1", "fusion_lon": 0.0}, {"is_reserved": 0, "type": "electric_scooter", "bike_id": "d9dd6f6e12c587c916155bb9e54633ee", "lat": 38.913503166666665, "lon": -77.03205816666667, "rental_uris": {"android": "https://dc.lft.to/lastmile_qr_scan", "ios": "https://dc.lft.to/lastmile_qr_scan"}, "is_disabled": 0, "fusion_lat": 0.0, "name": "d9dd6f6e12c587c916155bb9e54633ee", "fusion_lon": 0.0}, {"is_reserved": 0, "type": "electric_scooter", "bike_id": "1d8b2478db063b0bffe0e4da59b2dc63", "lat": 38.90016133333334, "lon": -77.04651466666667, "rental_uris": {"android": "https://dc.lft.to/lastmile_qr_scan", "ios": "https://dc.lft.to/lastmile_qr_scan"}, "is_disabled": 0, "fusion_lat": 0.0, "name": "1d8b2478db063b0bffe0e4da59b2dc63", "fusion_lon": 0.0}, {"is_reserved": 0, "type": "electric_scooter", "bike_id": "6f230007cfb91862da1d3f03631d5438", "lat": 38.924116, "lon": -77.036462, "rental_uris": {"android": "https://dc.lft.to/lastmile_qr_scan", "ios": "https://dc.lft.to/lastmile_qr_scan"}, "is_disabled": 0, "fusion_lat": 0.0, "name": "6f230007cfb91862da1d3f03631d5438", "fusion_lon": 0.0}, {"is_reserved": 0, "type": "electric_scooter", "bike_id": "4ee475b5f7593aef2918b939b03c8916", "lat": 38.89609016666667, "lon": -77.0052675, "rental_uris": {"android": "https://dc.lft.to/lastmile_qr_scan", "ios": "https://dc.lft.to/lastmile_qr_scan"}, "is_disabled": 0, "fusion_lat": 0.0, "name": "4ee475b5f7593aef2918b939b03c8916", "fusion_lon": 0.0}, {"is_reserved": 0, "type": "electric_scooter", "bike_id": "cc0b6065a843ee282bb68cc4486ed8c7", "lat": 38.936328833333334, "lon": -77.06489316666666, "rental_uris": {"android": "https://dc.lft.to/lastmile_qr_scan", "ios": "https://dc.lft.to/lastmile_qr_scan"}, "is_disabled": 0, "fusion_lat": 0.0, "name": "cc0b6065a843ee282bb68cc4486ed8c7", "fusion_lon": 0.0}, {"is_reserved": 0, "type": "electric_scooter", "bike_id": "1b7c7dc77a052f5b8a4a25fd4f7a5fc2", "lat": 38.915632333333335, "lon": -77.03671483333333, "rental_uris": {"android": "https://dc.lft.to/lastmile_qr_scan", "ios": "https://dc.lft.to/lastmile_qr_scan"}, "is_disabled": 0, "fusion_lat": 0.0, "name": "1b7c7dc77a052f5b8a4a25fd4f7a5fc2", "fusion_lon": 0.0}, {"is_reserved": 0, "type": "electric_scooter", "bike_id": "7d1c853b6d84526455fdac209bc8632d", "lat": 38.89830666666667, "lon": -77.04827316666666, "rental_uris": {"android": "https://dc.lft.to/lastmile_qr_scan", "ios": "https://dc.lft.to/lastmile_qr_scan"}, "is_disabled": 0, "fusion_lat": 0.0, "name": "7d1c853b6d84526455fdac209bc8632d", "fusion_lon": 0.0}, {"is_reserved": 0, "type": "electric_scooter", "bike_id": "de0c8f788fa2e3b455363d454881c45a", "lat": 38.92027266666667, "lon": -77.03122683333333, "rental_uris": {"android": "https://dc.lft.to/lastmile_qr_scan", "ios": "https://dc.lft.to/lastmile_qr_scan"}, "is_disabled": 0, "fusion_lat": 0.0, "name": "de0c8f788fa2e3b455363d454881c45a", "fusion_lon": 0.0}, {"is_reserved": 0, "type": "electric_scooter", "bike_id": "f01bd55735a4053460ecd2a6186219c4", "lat": 38.91271533333333, "lon": -77.018801, "rental_uris": {"android": "https://dc.lft.to/lastmile_qr_scan", "ios": "https://dc.lft.to/lastmile_qr_scan"}, "is_disabled": 0, "fusion_lat": 0.0, "name": "f01bd55735a4053460ecd2a6186219c4", "fusion_lon": 0.0}, {"is_reserved": 0, "type": "electric_scooter", "bike_id": "d07ba071a2204a862a0a26440ef4fd83", "lat": 38.930406, "lon": -77.08325533333333, "rental_uris": {"android": "https://dc.lft.to/lastmile_qr_scan", "ios": "https://dc.lft.to/lastmile_qr_scan"}, "is_disabled": 0, "fusion_lat": 0.0, "name": "d07ba071a2204a862a0a26440ef4fd83", "fusion_lon": 0.0}, {"is_reserved": 0, "type": "electric_scooter", "bike_id": "76cecc9358685112dbce79289e2c43a0", "lat": 38.916293, "lon": -77.039683, "rental_uris": {"android": "https://dc.lft.to/lastmile_qr_scan", "ios": "https://dc.lft.to/lastmile_qr_scan"}, "is_disabled": 0, "fusion_lat": 0.0, "name": "76cecc9358685112dbce79289e2c43a0", "fusion_lon": 0.0}, {"is_reserved": 0, "type": "electric_scooter", "bike_id": "4fb8346c37b99239e01675f696612bba", "lat": 38.97501666666667, "lon": -77.01695033333333, "rental_uris": {"android": "https://dc.lft.to/lastmile_qr_scan", "ios": "https://dc.lft.to/lastmile_qr_scan"}, "is_disabled": 0, "fusion_lat": 0.0, "name": "4fb8346c37b99239e01675f696612bba", "fusion_lon": 0.0}, {"is_reserved": 0, "type": "electric_scooter", "bike_id": "d4dafd14ec49cc4671e53d16c2af4257", "lat": 38.93075233333333, "lon": -77.02815866666667, "rental_uris": {"android": "https://dc.lft.to/lastmile_qr_scan", "ios": "https://dc.lft.to/lastmile_qr_scan"}, "is_disabled": 0, "fusion_lat": 0.0, "name": "d4dafd14ec49cc4671e53d16c2af4257", "fusion_lon": 0.0}, {"is_reserved": 0, "type": "electric_scooter", "bike_id": "0f433869c0061c9dbcb903dd504346a6", "lat": 38.907591833333335, "lon": -77.000152, "rental_uris": {"android": "https://dc.lft.to/lastmile_qr_scan", "ios": "https://dc.lft.to/lastmile_qr_scan"}, "is_disabled": 0, "fusion_lat": 0.0, "name": "0f433869c0061c9dbcb903dd504346a6", "fusion_lon": 0.0}, {"is_reserved": 0, "type": "electric_scooter", "bike_id": "536bedb675c73bbdb93ac6cc61033cf1", "lat": 38.9236345, "lon": -77.05116733333334, "rental_uris": {"android": "https://dc.lft.to/lastmile_qr_scan", "ios": "https://dc.lft.to/lastmile_qr_scan"}, "is_disabled": 0, "fusion_lat": 0.0, "name": "536bedb675c73bbdb93ac6cc61033cf1", "fusion_lon": 0.0}, {"is_reserved": 0, "type": "electric_scooter", "bike_id": "350184ecf9dd3c26f55d6ef15060f113", "lat": 38.9399315, "lon": -77.02004466666666, "rental_uris": {"android": "https://dc.lft.to/lastmile_qr_scan", "ios": "https://dc.lft.to/lastmile_qr_scan"}, "is_disabled": 0, "fusion_lat": 0.0, "name": "350184ecf9dd3c26f55d6ef15060f113", "fusion_lon": 0.0}, {"is_reserved": 0, "type": "electric_scooter", "bike_id": "62bb611269fc44ce20596d1fa7abe163", "lat": 38.912674833333334, "lon": -77.012256, "rental_uris": {"android": "https://dc.lft.to/lastmile_qr_scan", "ios": "https://dc.lft.to/lastmile_qr_scan"}, "is_disabled": 0, "fusion_lat": 0.0, "name": "62bb611269fc44ce20596d1fa7abe163", "fusion_lon": 0.0}, {"is_reserved": 0, "type": "electric_scooter", "bike_id": "d34f89616fe2e96ba752ea6b43073653", "lat": 38.975192, "lon": -77.01742816666666, "rental_uris": {"android": "https://dc.lft.to/lastmile_qr_scan", "ios": "https://dc.lft.to/lastmile_qr_scan"}, "is_disabled": 0, "fusion_lat": 0.0, "name": "d34f89616fe2e96ba752ea6b43073653", "fusion_lon": 0.0}, {"is_reserved": 0, "type": "electric_scooter", "bike_id": "53c88ffb8be037238bcb975e183228db", "lat": 38.91422516666667, "lon": -77.01806216666667, "rental_uris": {"android": "https://dc.lft.to/lastmile_qr_scan", "ios": "https://dc.lft.to/lastmile_qr_scan"}, "is_disabled": 0, "fusion_lat": 0.0, "name": "53c88ffb8be037238bcb975e183228db", "fusion_lon": 0.0}, {"is_reserved": 0, "type": "electric_bike", "bike_id": "09be1753601669c2ec0314117fe7a4c4", "lat": 38.957547166666664, "lon": -76.980235, "rental_uris": {"android": "https://dc.lft.to/lastmile_qr_scan", "ios": "https://dc.lft.to/lastmile_qr_scan"}, "is_disabled": 0, "fusion_lat": 0.0, "name": "09be1753601669c2ec0314117fe7a4c4", "fusion_lon": 0.0}, {"is_reserved": 0, "type": "electric_scooter", "bike_id": "d6d2cf365968e51ef728f7ba8332331c", "lat": 38.89970266666667, "lon": -77.027211, "rental_uris": {"android": "https://dc.lft.to/lastmile_qr_scan", "ios": "https://dc.lft.to/lastmile_qr_scan"}, "is_disabled": 0, "fusion_lat": 0.0, "name": "d6d2cf365968e51ef728f7ba8332331c", "fusion_lon": 0.0}, {"is_reserved": 0, "type": "electric_scooter", "bike_id": "6614bef0af7f1c42228239fa9a7ae4e5", "lat": 38.9021075, "lon": -77.0217905, "rental_uris": {"android": "https://dc.lft.to/lastmile_qr_scan", "ios": "https://dc.lft.to/lastmile_qr_scan"}, "is_disabled": 0, "fusion_lat": 0.0, "name": "6614bef0af7f1c42228239fa9a7ae4e5", "fusion_lon": 0.0}, {"is_reserved": 0, "type": "electric_scooter", "bike_id": "419d4bf685fd19475e2ae774061cddbd", "lat": 38.903520666666665, "lon": -76.98620016666666, "rental_uris": {"android": "https://dc.lft.to/lastmile_qr_scan", "ios": "https://dc.lft.to/lastmile_qr_scan"}, "is_disabled": 0, "fusion_lat": 0.0, "name": "419d4bf685fd19475e2ae774061cddbd", "fusion_lon": 0.0}, {"is_reserved": 0, "type": "electric_scooter", "bike_id": "8f84bd29a0080cfd112ffc6fb311c732", "lat": 38.90245566666667, "lon": -77.01753533333333, "rental_uris": {"android": "https://dc.lft.to/lastmile_qr_scan", "ios": "https://dc.lft.to/lastmile_qr_scan"}, "is_disabled": 0, "fusion_lat": 0.0, "name": "8f84bd29a0080cfd112ffc6fb311c732", "fusion_lon": 0.0}, {"is_reserved": 0, "type": "electric_scooter", "bike_id": "e4ec582d039942861f4b335367fedc21", "lat": 38.932054666666666, "lon": -77.0375285, "rental_uris": {"android": "https://dc.lft.to/lastmile_qr_scan", "ios": "https://dc.lft.to/lastmile_qr_scan"}, "is_disabled": 0, "fusion_lat": 0.0, "name": "e4ec582d039942861f4b335367fedc21", "fusion_lon": 0.0}, {"is_reserved": 0, "type": "electric_bike", "bike_id": "db11d3bb64d873fb52efbe90c4db0f23", "lat": 38.97421033333333, "lon": -77.0125615, "rental_uris": {"android": "https://dc.lft.to/lastmile_qr_scan", "ios": "https://dc.lft.to/lastmile_qr_scan"}, "is_disabled": 0, "fusion_lat": 0.0, "name": "db11d3bb64d873fb52efbe90c4db0f23", "fusion_lon": 0.0}, {"is_reserved": 0, "type": "electric_scooter", "bike_id": "273c1bd194c0bdbe7f80ac80e92c8dd9", "lat": 38.92375466666667, "lon": -77.043163, "rental_uris": {"android": "https://dc.lft.to/lastmile_qr_scan", "ios": "https://dc.lft.to/lastmile_qr_scan"}, "is_disabled": 0, "fusion_lat": 0.0, "name": "273c1bd194c0bdbe7f80ac80e92c8dd9", "fusion_lon": 0.0}, {"is_reserved": 0, "type": "electric_scooter", "bike_id": "cea2feab1e83f6671a38e323b710dfd7", "lat": 38.915526166666666, "lon": -77.01223983333334, "rental_uris": {"android": "https://dc.lft.to/lastmile_qr_scan", "ios": "https://dc.lft.to/lastmile_qr_scan"}, "is_disabled": 0, "fusion_lat": 0.0, "name": "cea2feab1e83f6671a38e323b710dfd7", "fusion_lon": 0.0}, {"is_reserved": 0, "type": "electric_scooter", "bike_id": "178fd487786da6d4163ba8c81df2a3d7", "lat": 38.846300166666666, "lon": -76.98122783333334, "rental_uris": {"android": "https://dc.lft.to/lastmile_qr_scan", "ios": "https://dc.lft.to/lastmile_qr_scan"}, "is_disabled": 0, "fusion_lat": 0.0, "name": "178fd487786da6d4163ba8c81df2a3d7", "fusion_lon": 0.0}, {"is_reserved": 0, "type": "electric_scooter", "bike_id": "70c301d78042c6087aa39e6fecec3b1c", "lat": 38.89737183333333, "lon": -77.00372533333334, "rental_uris": {"android": "https://dc.lft.to/lastmile_qr_scan", "ios": "https://dc.lft.to/lastmile_qr_scan"}, "is_disabled": 0, "fusion_lat": 0.0, "name": "70c301d78042c6087aa39e6fecec3b1c", "fusion_lon": 0.0}, {"is_reserved": 0, "type": "electric_scooter", "bike_id": "6cba092c60248620cbc8a0460830d365", "lat": 38.91351316666667, "lon": -77.0642125, "rental_uris": {"android": "https://dc.lft.to/lastmile_qr_scan", "ios": "https://dc.lft.to/lastmile_qr_scan"}, "is_disabled": 0, "fusion_lat": 0.0, "name": "6cba092c60248620cbc8a0460830d365", "fusion_lon": 0.0}, {"is_reserved": 0, "type": "electric_scooter", "bike_id": "233a73397ee538e839701ed2a9382b75", "lat": 38.90097933333333, "lon": -77.04751633333333, "rental_uris": {"android": "https://dc.lft.to/lastmile_qr_scan", "ios": "https://dc.lft.to/lastmile_qr_scan"}, "is_disabled": 0, "fusion_lat": 0.0, "name": "233a73397ee538e839701ed2a9382b75", "fusion_lon": 0.0}, {"is_reserved": 0, "type": "electric_scooter", "bike_id": "6d45f4c1ba18ca697ef19297c7fc4a2f", "lat": 38.9253255, "lon": -77.02972116666666, "rental_uris": {"android": "https://dc.lft.to/lastmile_qr_scan", "ios": "https://dc.lft.to/lastmile_qr_scan"}, "is_disabled": 0, "fusion_lat": 0.0, "name": "6d45f4c1ba18ca697ef19297c7fc4a2f", "fusion_lon": 0.0}, {"is_reserved": 0, "type": "electric_scooter", "bike_id": "cc001bed7ef4d6d3f38cfd4dbf39d683", "lat": 38.9156705, "lon": -77.0211805, "rental_uris": {"android": "https://dc.lft.to/lastmile_qr_scan", "ios": "https://dc.lft.to/lastmile_qr_scan"}, "is_disabled": 0, "fusion_lat": 0.0, "name": "cc001bed7ef4d6d3f38cfd4dbf39d683", "fusion_lon": 0.0}, {"is_reserved": 0, "type": "electric_scooter", "bike_id": "0ca9d2fcbb9f7382f3c9cd4d86b6fbac", "lat": 38.91771216666667, "lon": -77.02309666666666, "rental_uris": {"android": "https://dc.lft.to/lastmile_qr_scan", "ios": "https://dc.lft.to/lastmile_qr_scan"}, "is_disabled": 0, "fusion_lat": 0.0, "name": "0ca9d2fcbb9f7382f3c9cd4d86b6fbac", "fusion_lon": 0.0}, {"is_reserved": 0, "type": "electric_scooter", "bike_id": "ba471cfb80b647ec8275be5476c8b306", "lat": 38.838042, "lon": -76.99857, "rental_uris": {"android": "https://dc.lft.to/lastmile_qr_scan", "ios": "https://dc.lft.to/lastmile_qr_scan"}, "is_disabled": 0, "fusion_lat": 0.0, "name": "ba471cfb80b647ec8275be5476c8b306", "fusion_lon": 0.0}, {"is_reserved": 0, "type": "electric_scooter", "bike_id": "661a9743f539e92c72f7fc9c365c7ae4", "lat": 38.9126125, "lon": -77.0285805, "rental_uris": {"android": "https://dc.lft.to/lastmile_qr_scan", "ios": "https://dc.lft.to/lastmile_qr_scan"}, "is_disabled": 0, "fusion_lat": 0.0, "name": "661a9743f539e92c72f7fc9c365c7ae4", "fusion_lon": 0.0}, {"is_reserved": 0, "type": "electric_scooter", "bike_id": "4f0b68d28b7669e7e778353251bf303e", "lat": 38.899623, "lon": -77.044764, "rental_uris": {"android": "https://dc.lft.to/lastmile_qr_scan", "ios": "https://dc.lft.to/lastmile_qr_scan"}, "is_disabled": 0, "fusion_lat": 0.0, "name": "4f0b68d28b7669e7e778353251bf303e", "fusion_lon": 0.0}, {"is_reserved": 0, "type": "electric_scooter", "bike_id": "29a8fd36cd94a67473fbf3e3443a8fe2", "lat": 38.93839966666667, "lon": -77.0248985, "rental_uris": {"android": "https://dc.lft.to/lastmile_qr_scan", "ios": "https://dc.lft.to/lastmile_qr_scan"}, "is_disabled": 0, "fusion_lat": 0.0, "name": "29a8fd36cd94a67473fbf3e3443a8fe2", "fusion_lon": 0.0}, {"is_reserved": 0, "type": "electric_scooter", "bike_id": "d2eb16c6202e99f583944d38b02963c9", "lat": 38.93088933333333, "lon": -77.02480166666666, "rental_uris": {"android": "https://dc.lft.to/lastmile_qr_scan", "ios": "https://dc.lft.to/lastmile_qr_scan"}, "is_disabled": 0, "fusion_lat": 0.0, "name": "d2eb16c6202e99f583944d38b02963c9", "fusion_lon": 0.0}, {"is_reserved": 0, "type": "electric_bike", "bike_id": "a09da65a2e8b2d1eb756946a0011e416", "lat": 38.90029966666667, "lon": -76.98043383333334, "rental_uris": {"android": "https://dc.lft.to/lastmile_qr_scan", "ios": "https://dc.lft.to/lastmile_qr_scan"}, "is_disabled": 0, "fusion_lat": 0.0, "name": "a09da65a2e8b2d1eb756946a0011e416", "fusion_lon": 0.0}, {"is_reserved": 0, "type": "electric_scooter", "bike_id": "aa3214ef280fc32b362409995520a1df", "lat": 38.89827583333334, "lon": -76.94652433333333, "rental_uris": {"android": "https://dc.lft.to/lastmile_qr_scan", "ios": "https://dc.lft.to/lastmile_qr_scan"}, "is_disabled": 0, "fusion_lat": 0.0, "name": "aa3214ef280fc32b362409995520a1df", "fusion_lon": 0.0}, {"is_reserved": 0, "type": "electric_scooter", "bike_id": "ddbf4d1d67c0b2586635e1e8cfdd5920", "lat": 38.960334333333336, "lon": -77.0243055, "rental_uris": {"android": "https://dc.lft.to/lastmile_qr_scan", "ios": "https://dc.lft.to/lastmile_qr_scan"}, "is_disabled": 0, "fusion_lat": 0.0, "name": "ddbf4d1d67c0b2586635e1e8cfdd5920", "fusion_lon": 0.0}, {"is_reserved": 0, "type": "electric_scooter", "bike_id": "46becf8a6d2c7235781f0adb2e899f3f", "lat": 38.92231116666667, "lon": -77.04122183333334, "rental_uris": {"android": "https://dc.lft.to/lastmile_qr_scan", "ios": "https://dc.lft.to/lastmile_qr_scan"}, "is_disabled": 0, "fusion_lat": 0.0, "name": "46becf8a6d2c7235781f0adb2e899f3f", "fusion_lon": 0.0}, {"is_reserved": 0, "type": "electric_scooter", "bike_id": "e6102c817ebb35e58931d6f11179c802", "lat": 38.93634616666667, "lon": -77.07303083333333, "rental_uris": {"android": "https://dc.lft.to/lastmile_qr_scan", "ios": "https://dc.lft.to/lastmile_qr_scan"}, "is_disabled": 0, "fusion_lat": 0.0, "name": "e6102c817ebb35e58931d6f11179c802", "fusion_lon": 0.0}, {"is_reserved": 0, "type": "electric_scooter", "bike_id": "942f3f17bf1f37f3a44c3f20b5dab488", "lat": 38.91755416666667, "lon": -77.0146895, "rental_uris": {"android": "https://dc.lft.to/lastmile_qr_scan", "ios": "https://dc.lft.to/lastmile_qr_scan"}, "is_disabled": 0, "fusion_lat": 0.0, "name": "942f3f17bf1f37f3a44c3f20b5dab488", "fusion_lon": 0.0}, {"is_reserved": 0, "type": "electric_bike", "bike_id": "9de15424ce20f7d1acb143c344877e82", "lat": 39.000028666666665, "lon": -76.918099, "rental_uris": {"android": "https://dc.lft.to/lastmile_qr_scan", "ios": "https://dc.lft.to/lastmile_qr_scan"}, "is_disabled": 0, "fusion_lat": 0.0, "name": "9de15424ce20f7d1acb143c344877e82", "fusion_lon": 0.0}, {"is_reserved": 0, "type": "electric_scooter", "bike_id": "99cd4c89448a496b9d51f5f8881a6958", "lat": 38.925410166666666, "lon": -77.038288, "rental_uris": {"android": "https://dc.lft.to/lastmile_qr_scan", "ios": "https://dc.lft.to/lastmile_qr_scan"}, "is_disabled": 0, "fusion_lat": 0.0, "name": "99cd4c89448a496b9d51f5f8881a6958", "fusion_lon": 0.0}, {"is_reserved": 0, "type": "electric_scooter", "bike_id": "27c40ea570e1e81de28b30b33d50f4dd", "lat": 38.90786766666667, "lon": -77.00231883333333, "rental_uris": {"android": "https://dc.lft.to/lastmile_qr_scan", "ios": "https://dc.lft.to/lastmile_qr_scan"}, "is_disabled": 0, "fusion_lat": 0.0, "name": "27c40ea570e1e81de28b30b33d50f4dd", "fusion_lon": 0.0}, {"is_reserved": 0, "type": "electric_scooter", "bike_id": "e3c47391dcd1dcf5448b80c395b74974", "lat": 38.92441983333333, "lon": -76.99669433333334, "rental_uris": {"android": "https://dc.lft.to/lastmile_qr_scan", "ios": "https://dc.lft.to/lastmile_qr_scan"}, "is_disabled": 0, "fusion_lat": 0.0, "name": "e3c47391dcd1dcf5448b80c395b74974", "fusion_lon": 0.0}, {"is_reserved": 0, "type": "electric_bike", "bike_id": "905c15d59352f9e43f4e85da65a64056", "lat": 38.921147833333336, "lon": -76.98877916666666, "rental_uris": {"android": "https://dc.lft.to/lastmile_qr_scan", "ios": "https://dc.lft.to/lastmile_qr_scan"}, "is_disabled": 0, "fusion_lat": 0.0, "name": "905c15d59352f9e43f4e85da65a64056", "fusion_lon": 0.0}, {"is_reserved": 0, "type": "electric_scooter", "bike_id": "5e2762146157f770ee42a7c8e40ad247", "lat": 38.9181855, "lon": -77.01210066666667, "rental_uris": {"android": "https://dc.lft.to/lastmile_qr_scan", "ios": "https://dc.lft.to/lastmile_qr_scan"}, "is_disabled": 0, "fusion_lat": 0.0, "name": "5e2762146157f770ee42a7c8e40ad247", "fusion_lon": 0.0}, {"is_reserved": 0, "type": "electric_bike", "bike_id": "26aff47af9b8ab1e66e19393cde99401", "lat": 39.010993, "lon": -77.04956383333334, "rental_uris": {"android": "https://dc.lft.to/lastmile_qr_scan", "ios": "https://dc.lft.to/lastmile_qr_scan"}, "is_disabled": 0, "fusion_lat": 0.0, "name": "26aff47af9b8ab1e66e19393cde99401", "fusion_lon": 0.0}, {"is_reserved": 0, "type": "electric_scooter", "bike_id": "9c57bc0c1f53795ade0576b9a4006a64", "lat": 38.931904, "lon": -77.028349, "rental_uris": {"android": "https://dc.lft.to/lastmile_qr_scan", "ios": "https://dc.lft.to/lastmile_qr_scan"}, "is_disabled": 0, "fusion_lat": 0.0, "name": "9c57bc0c1f53795ade0576b9a4006a64", "fusion_lon": 0.0}, {"is_reserved": 0, "type": "electric_bike", "bike_id": "127293a0a671ee5efc4a0dda901f48ab", "lat": 38.80249666666667, "lon": -77.11444066666667, "rental_uris": {"android": "https://dc.lft.to/lastmile_qr_scan", "ios": "https://dc.lft.to/lastmile_qr_scan"}, "is_disabled": 0, "fusion_lat": 0.0, "name": "127293a0a671ee5efc4a0dda901f48ab", "fusion_lon": 0.0}, {"is_reserved": 0, "type": "electric_scooter", "bike_id": "56da0e0b513891f2ea5267b0e9391896", "lat": 38.923626, "lon": -77.019159, "rental_uris": {"android": "https://dc.lft.to/lastmile_qr_scan", "ios": "https://dc.lft.to/lastmile_qr_scan"}, "is_disabled": 0, "fusion_lat": 0.0, "name": "56da0e0b513891f2ea5267b0e9391896", "fusion_lon": 0.0}, {"is_reserved": 0, "type": "electric_scooter", "bike_id": "8a63451bbc25982b02b94512c01426cc", "lat": 38.92070283333334, "lon": -77.02314883333334, "rental_uris": {"android": "https://dc.lft.to/lastmile_qr_scan", "ios": "https://dc.lft.to/lastmile_qr_scan"}, "is_disabled": 0, "fusion_lat": 0.0, "name": "8a63451bbc25982b02b94512c01426cc", "fusion_lon": 0.0}, {"is_reserved": 0, "type": "electric_scooter", "bike_id": "67cc812447d4f6ce4d427b7007b52b6c", "lat": 38.92249133333333, "lon": -77.0311015, "rental_uris": {"android": "https://dc.lft.to/lastmile_qr_scan", "ios": "https://dc.lft.to/lastmile_qr_scan"}, "is_disabled": 0, "fusion_lat": 0.0, "name": "67cc812447d4f6ce4d427b7007b52b6c", "fusion_lon": 0.0}, {"is_reserved": 0, "type": "electric_scooter", "bike_id": "a478360a74a8d78de45e697561d796c6", "lat": 38.86523583333334, "lon": -76.96909933333333, "rental_uris": {"android": "https://dc.lft.to/lastmile_qr_scan", "ios": "https://dc.lft.to/lastmile_qr_scan"}, "is_disabled": 0, "fusion_lat": 0.0, "name": "a478360a74a8d78de45e697561d796c6", "fusion_lon": 0.0}, {"is_reserved": 0, "type": "electric_scooter", "bike_id": "a5b9563c3754c4d72203538f3b17e966", "lat": 38.915639666666664, "lon": -77.03116583333333, "rental_uris": {"android": "https://dc.lft.to/lastmile_qr_scan", "ios": "https://dc.lft.to/lastmile_qr_scan"}, "is_disabled": 0, "fusion_lat": 0.0, "name": "a5b9563c3754c4d72203538f3b17e966", "fusion_lon": 0.0}, {"is_reserved": 0, "type": "electric_scooter", "bike_id": "9a8b1f1a0dd7d87c764bb02cc260a1ee", "lat": 38.896178, "lon": -77.04411583333334, "rental_uris": {"android": "https://dc.lft.to/lastmile_qr_scan", "ios": "https://dc.lft.to/lastmile_qr_scan"}, "is_disabled": 0, "fusion_lat": 0.0, "name": "9a8b1f1a0dd7d87c764bb02cc260a1ee", "fusion_lon": 0.0}, {"is_reserved": 0, "type": "electric_scooter", "bike_id": "219b810832f8181dcee9fd6b48d2e29e", "lat": 38.91855533333333, "lon": -77.036575, "rental_uris": {"android": "https://dc.lft.to/lastmile_qr_scan", "ios": "https://dc.lft.to/lastmile_qr_scan"}, "is_disabled": 0, "fusion_lat": 0.0, "name": "219b810832f8181dcee9fd6b48d2e29e", "fusion_lon": 0.0}, {"is_reserved": 0, "type": "electric_scooter", "bike_id": "e99748b41391b92a52fe83f8a31ce18a", "lat": 38.89425983333334, "lon": -77.055988, "rental_uris": {"android": "https://dc.lft.to/lastmile_qr_scan", "ios": "https://dc.lft.to/lastmile_qr_scan"}, "is_disabled": 0, "fusion_lat": 0.0, "name": "e99748b41391b92a52fe83f8a31ce18a", "fusion_lon": 0.0}, {"is_reserved": 0, "type": "electric_scooter", "bike_id": "81a6123ae87212ed5f50eb52df37f21f", "lat": 38.9250485, "lon": -77.03880816666667, "rental_uris": {"android": "https://dc.lft.to/lastmile_qr_scan", "ios": "https://dc.lft.to/lastmile_qr_scan"}, "is_disabled": 0, "fusion_lat": 0.0, "name": "81a6123ae87212ed5f50eb52df37f21f", "fusion_lon": 0.0}, {"is_reserved": 0, "type": "electric_scooter", "bike_id": "c59cc9f07ab745b33251734d29e45777", "lat": 38.92632, "lon": -77.03535983333333, "rental_uris": {"android": "https://dc.lft.to/lastmile_qr_scan", "ios": "https://dc.lft.to/lastmile_qr_scan"}, "is_disabled": 0, "fusion_lat": 0.0, "name": "c59cc9f07ab745b33251734d29e45777", "fusion_lon": 0.0}, {"is_reserved": 0, "type": "electric_scooter", "bike_id": "0e71544c7c04472c82b0b07881117fb1", "lat": 38.94903166666667, "lon": -77.0318515, "rental_uris": {"android": "https://dc.lft.to/lastmile_qr_scan", "ios": "https://dc.lft.to/lastmile_qr_scan"}, "is_disabled": 0, "fusion_lat": 0.0, "name": "0e71544c7c04472c82b0b07881117fb1", "fusion_lon": 0.0}, {"is_reserved": 0, "type": "electric_scooter", "bike_id": "b3b69c6ce087cd0912252555203df2ad", "lat": 38.92682716666667, "lon": -76.99557583333333, "rental_uris": {"android": "https://dc.lft.to/lastmile_qr_scan", "ios": "https://dc.lft.to/lastmile_qr_scan"}, "is_disabled": 0, "fusion_lat": 0.0, "name": "b3b69c6ce087cd0912252555203df2ad", "fusion_lon": 0.0}, {"is_reserved": 0, "type": "electric_scooter", "bike_id": "3342d1c48eb6c01a61b8197493f6600c", "lat": 38.9207085, "lon": -77.02317433333333, "rental_uris": {"android": "https://dc.lft.to/lastmile_qr_scan", "ios": "https://dc.lft.to/lastmile_qr_scan"}, "is_disabled": 0, "fusion_lat": 0.0, "name": "3342d1c48eb6c01a61b8197493f6600c", "fusion_lon": 0.0}, {"is_reserved": 0, "type": "electric_scooter", "bike_id": "d4473abfd305e228c9043a3ad4bec57f", "lat": 38.917219333333335, "lon": -77.02972666666666, "rental_uris": {"android": "https://dc.lft.to/lastmile_qr_scan", "ios": "https://dc.lft.to/lastmile_qr_scan"}, "is_disabled": 0, "fusion_lat": 0.0, "name": "d4473abfd305e228c9043a3ad4bec57f", "fusion_lon": 0.0}, {"is_reserved": 0, "type": "electric_scooter", "bike_id": "bf5c813f1b363ca8107a6c74e044a34f", "lat": 38.98221483333333, "lon": -77.02644466666666, "rental_uris": {"android": "https://dc.lft.to/lastmile_qr_scan", "ios": "https://dc.lft.to/lastmile_qr_scan"}, "is_disabled": 0, "fusion_lat": 0.0, "name": "bf5c813f1b363ca8107a6c74e044a34f", "fusion_lon": 0.0}, {"is_reserved": 0, "type": "electric_scooter", "bike_id": "d7e7b459f962864ee1258c4f43c5d9c7", "lat": 38.874629666666664, "lon": -77.00560383333334, "rental_uris": {"android": "https://dc.lft.to/lastmile_qr_scan", "ios": "https://dc.lft.to/lastmile_qr_scan"}, "is_disabled": 0, "fusion_lat": 0.0, "name": "d7e7b459f962864ee1258c4f43c5d9c7", "fusion_lon": 0.0}, {"is_reserved": 0, "type": "electric_scooter", "bike_id": "26b5f647bcbba0819555dc93b681d2fc", "lat": 38.920825666666666, "lon": -77.024153, "rental_uris": {"android": "https://dc.lft.to/lastmile_qr_scan", "ios": "https://dc.lft.to/lastmile_qr_scan"}, "is_disabled": 0, "fusion_lat": 0.0, "name": "26b5f647bcbba0819555dc93b681d2fc", "fusion_lon": 0.0}, {"is_reserved": 0, "type": "electric_scooter", "bike_id": "e9604fa53063a1f52a04f90ab7f46187", "lat": 38.92231616666667, "lon": -77.03900133333333, "rental_uris": {"android": "https://dc.lft.to/lastmile_qr_scan", "ios": "https://dc.lft.to/lastmile_qr_scan"}, "is_disabled": 0, "fusion_lat": 0.0, "name": "e9604fa53063a1f52a04f90ab7f46187", "fusion_lon": 0.0}, {"is_reserved": 0, "type": "electric_scooter", "bike_id": "989c5ba9638a1607b465c7862a908f9a", "lat": 38.88514883333333, "lon": -76.99679383333333, "rental_uris": {"android": "https://dc.lft.to/lastmile_qr_scan", "ios": "https://dc.lft.to/lastmile_qr_scan"}, "is_disabled": 0, "fusion_lat": 0.0, "name": "989c5ba9638a1607b465c7862a908f9a", "fusion_lon": 0.0}, {"is_reserved": 0, "type": "electric_scooter", "bike_id": "ce0fb8a18a592236240d9c458377225e", "lat": 38.923172666666666, "lon": -77.04456733333333, "rental_uris": {"android": "https://dc.lft.to/lastmile_qr_scan", "ios": "https://dc.lft.to/lastmile_qr_scan"}, "is_disabled": 0, "fusion_lat": 0.0, "name": "ce0fb8a18a592236240d9c458377225e", "fusion_lon": 0.0}, {"is_reserved": 0, "type": "electric_scooter", "bike_id": "8e2b3d085564c42710ffdb548a643f52", "lat": 38.91444333333333, "lon": -77.02399016666666, "rental_uris": {"android": "https://dc.lft.to/lastmile_qr_scan", "ios": "https://dc.lft.to/lastmile_qr_scan"}, "is_disabled": 0, "fusion_lat": 0.0, "name": "8e2b3d085564c42710ffdb548a643f52", "fusion_lon": 0.0}, {"is_reserved": 0, "type": "electric_scooter", "bike_id": "109eef5fd3762d78e7e167826b9281dc", "lat": 38.917126, "lon": -77.03223033333333, "rental_uris": {"android": "https://dc.lft.to/lastmile_qr_scan", "ios": "https://dc.lft.to/lastmile_qr_scan"}, "is_disabled": 0, "fusion_lat": 0.0, "name": "109eef5fd3762d78e7e167826b9281dc", "fusion_lon": 0.0}, {"is_reserved": 0, "type": "electric_scooter", "bike_id": "3b5b9644424cb49551d2308ecdaeb471", "lat": 38.91819916666667, "lon": -77.02475666666666, "rental_uris": {"android": "https://dc.lft.to/lastmile_qr_scan", "ios": "https://dc.lft.to/lastmile_qr_scan"}, "is_disabled": 0, "fusion_lat": 0.0, "name": "3b5b9644424cb49551d2308ecdaeb471", "fusion_lon": 0.0}, {"is_reserved": 0, "type": "electric_scooter", "bike_id": "c5e4e61c8826369510d263d9aa39db9c", "lat": 38.923073, "lon": -77.0296745, "rental_uris": {"android": "https://dc.lft.to/lastmile_qr_scan", "ios": "https://dc.lft.to/lastmile_qr_scan"}, "is_disabled": 0, "fusion_lat": 0.0, "name": "c5e4e61c8826369510d263d9aa39db9c", "fusion_lon": 0.0}, {"is_reserved": 0, "type": "electric_bike", "bike_id": "ac0d5bf4ecef2a15fb5d45cbb3263b0a", "lat": 38.942604333333335, "lon": -76.99068716666666, "rental_uris": {"android": "https://dc.lft.to/lastmile_qr_scan", "ios": "https://dc.lft.to/lastmile_qr_scan"}, "is_disabled": 0, "fusion_lat": 0.0, "name": "ac0d5bf4ecef2a15fb5d45cbb3263b0a", "fusion_lon": 0.0}, {"is_reserved": 0, "type": "electric_scooter", "bike_id": "58f06281652244a19d671ab7638c07d8", "lat": 38.92393083333333, "lon": -77.050595, "rental_uris": {"android": "https://dc.lft.to/lastmile_qr_scan", "ios": "https://dc.lft.to/lastmile_qr_scan"}, "is_disabled": 0, "fusion_lat": 0.0, "name": "58f06281652244a19d671ab7638c07d8", "fusion_lon": 0.0}, {"is_reserved": 0, "type": "electric_scooter", "bike_id": "623d6eb9147349cc878e8435bdc3997d", "lat": 38.91583266666667, "lon": -77.01241966666667, "rental_uris": {"android": "https://dc.lft.to/lastmile_qr_scan", "ios": "https://dc.lft.to/lastmile_qr_scan"}, "is_disabled": 0, "fusion_lat": 0.0, "name": "623d6eb9147349cc878e8435bdc3997d", "fusion_lon": 0.0}, {"is_reserved": 0, "type": "electric_scooter", "bike_id": "c8f3437592a01beb06c1a81478f19a02", "lat": 38.93255166666667, "lon": -77.03277116666666, "rental_uris": {"android": "https://dc.lft.to/lastmile_qr_scan", "ios": "https://dc.lft.to/lastmile_qr_scan"}, "is_disabled": 0, "fusion_lat": 0.0, "name": "c8f3437592a01beb06c1a81478f19a02", "fusion_lon": 0.0}, {"is_reserved": 0, "type": "electric_scooter", "bike_id": "d2fe5fb7a5d65716a38ca99b06af66a0", "lat": 38.918415333333336, "lon": -77.03183166666666, "rental_uris": {"android": "https://dc.lft.to/lastmile_qr_scan", "ios": "https://dc.lft.to/lastmile_qr_scan"}, "is_disabled": 0, "fusion_lat": 0.0, "name": "d2fe5fb7a5d65716a38ca99b06af66a0", "fusion_lon": 0.0}, {"is_reserved": 0, "type": "electric_scooter", "bike_id": "6ce17216a7f7a864f9c69e43fa13e38b", "lat": 38.9276885, "lon": -77.03265216666667, "rental_uris": {"android": "https://dc.lft.to/lastmile_qr_scan", "ios": "https://dc.lft.to/lastmile_qr_scan"}, "is_disabled": 0, "fusion_lat": 0.0, "name": "6ce17216a7f7a864f9c69e43fa13e38b", "fusion_lon": 0.0}, {"is_reserved": 0, "type": "electric_scooter", "bike_id": "c2a026c1e9f86d7d90a21a5a66e232d1", "lat": 38.89231483333333, "lon": -77.05003533333333, "rental_uris": {"android": "https://dc.lft.to/lastmile_qr_scan", "ios": "https://dc.lft.to/lastmile_qr_scan"}, "is_disabled": 0, "fusion_lat": 0.0, "name": "c2a026c1e9f86d7d90a21a5a66e232d1", "fusion_lon": 0.0}, {"is_reserved": 0, "type": "electric_scooter", "bike_id": "9fc3f1ee1ec5ea10d66dfbae00a589f2", "lat": 38.9276205, "lon": -77.0327885, "rental_uris": {"android": "https://dc.lft.to/lastmile_qr_scan", "ios": "https://dc.lft.to/lastmile_qr_scan"}, "is_disabled": 0, "fusion_lat": 0.0, "name": "9fc3f1ee1ec5ea10d66dfbae00a589f2", "fusion_lon": 0.0}, {"is_reserved": 0, "type": "electric_scooter", "bike_id": "e8819f4b05f7ddf8650b85b25f6c7f2c", "lat": 38.913882, "lon": -76.9842085, "rental_uris": {"android": "https://dc.lft.to/lastmile_qr_scan", "ios": "https://dc.lft.to/lastmile_qr_scan"}, "is_disabled": 0, "fusion_lat": 0.0, "name": "e8819f4b05f7ddf8650b85b25f6c7f2c", "fusion_lon": 0.0}, {"is_reserved": 0, "type": "electric_scooter", "bike_id": "d236135c4a0d3dbd89acde0a11df4684", "lat": 38.98432183333333, "lon": -77.02672166666666, "rental_uris": {"android": "https://dc.lft.to/lastmile_qr_scan", "ios": "https://dc.lft.to/lastmile_qr_scan"}, "is_disabled": 0, "fusion_lat": 0.0, "name": "d236135c4a0d3dbd89acde0a11df4684", "fusion_lon": 0.0}, {"is_reserved": 0, "type": "electric_scooter", "bike_id": "2ff646e03be61d76678a0a70267f8333", "lat": 38.8989975, "lon": -77.03352883333334, "rental_uris": {"android": "https://dc.lft.to/lastmile_qr_scan", "ios": "https://dc.lft.to/lastmile_qr_scan"}, "is_disabled": 0, "fusion_lat": 0.0, "name": "2ff646e03be61d76678a0a70267f8333", "fusion_lon": 0.0}, {"is_reserved": 0, "type": "electric_scooter", "bike_id": "38f25d9170e4eb35f1053872dddbede2", "lat": 38.91638783333333, "lon": -77.02101933333333, "rental_uris": {"android": "https://dc.lft.to/lastmile_qr_scan", "ios": "https://dc.lft.to/lastmile_qr_scan"}, "is_disabled": 0, "fusion_lat": 0.0, "name": "38f25d9170e4eb35f1053872dddbede2", "fusion_lon": 0.0}, {"is_reserved": 0, "type": "electric_bike", "bike_id": "887c9e20f2248d081b406b225c3d45cc", "lat": 38.802586, "lon": -77.12176033333333, "rental_uris": {"android": "https://dc.lft.to/lastmile_qr_scan", "ios": "https://dc.lft.to/lastmile_qr_scan"}, "is_disabled": 0, "fusion_lat": 0.0, "name": "887c9e20f2248d081b406b225c3d45cc", "fusion_lon": 0.0}, {"is_reserved": 0, "type": "electric_scooter", "bike_id": "f6cd38d1ceb12d3b3a175f9f9c71ade0", "lat": 38.9260515, "lon": -77.05708633333333, "rental_uris": {"android": "https://dc.lft.to/lastmile_qr_scan", "ios": "https://dc.lft.to/lastmile_qr_scan"}, "is_disabled": 0, "fusion_lat": 0.0, "name": "f6cd38d1ceb12d3b3a175f9f9c71ade0", "fusion_lon": 0.0}, {"is_reserved": 0, "type": "electric_scooter", "bike_id": "48158b68ef6825bbd2647150f339718f", "lat": 38.906034, "lon": -77.05144333333334, "rental_uris": {"android": "https://dc.lft.to/lastmile_qr_scan", "ios": "https://dc.lft.to/lastmile_qr_scan"}, "is_disabled": 0, "fusion_lat": 0.0, "name": "48158b68ef6825bbd2647150f339718f", "fusion_lon": 0.0}, {"is_reserved": 0, "type": "electric_scooter", "bike_id": "fbc45a1ccd9a9d4aee0bd513fc6b9408", "lat": 38.900079166666664, "lon": -76.99679683333333, "rental_uris": {"android": "https://dc.lft.to/lastmile_qr_scan", "ios": "https://dc.lft.to/lastmile_qr_scan"}, "is_disabled": 0, "fusion_lat": 0.0, "name": "fbc45a1ccd9a9d4aee0bd513fc6b9408", "fusion_lon": 0.0}, {"is_reserved": 0, "type": "electric_bike", "bike_id": "8fa7872d734501ca0f2a13494a63e16c", "lat": 38.8875385, "lon": -77.08926866666667, "rental_uris": {"android": "https://dc.lft.to/lastmile_qr_scan", "ios": "https://dc.lft.to/lastmile_qr_scan"}, "is_disabled": 0, "fusion_lat": 0.0, "name": "8fa7872d734501ca0f2a13494a63e16c", "fusion_lon": 0.0}, {"is_reserved": 0, "type": "electric_scooter", "bike_id": "55a900da12a08eef68030b3ee75f24eb", "lat": 38.926648666666665, "lon": -77.030249, "rental_uris": {"android": "https://dc.lft.to/lastmile_qr_scan", "ios": "https://dc.lft.to/lastmile_qr_scan"}, "is_disabled": 0, "fusion_lat": 0.0, "name": "55a900da12a08eef68030b3ee75f24eb", "fusion_lon": 0.0}, {"is_reserved": 0, "type": "electric_scooter", "bike_id": "fb512f3e0e749011895f47b7c9f2449b", "lat": 38.921548666666666, "lon": -77.0335615, "rental_uris": {"android": "https://dc.lft.to/lastmile_qr_scan", "ios": "https://dc.lft.to/lastmile_qr_scan"}, "is_disabled": 0, "fusion_lat": 0.0, "name": "fb512f3e0e749011895f47b7c9f2449b", "fusion_lon": 0.0}, {"is_reserved": 0, "type": "electric_scooter", "bike_id": "8455c5d189d028573450aa742a1579cd", "lat": 38.912163, "lon": -77.07601583333333, "rental_uris": {"android": "https://dc.lft.to/lastmile_qr_scan", "ios": "https://dc.lft.to/lastmile_qr_scan"}, "is_disabled": 0, "fusion_lat": 0.0, "name": "8455c5d189d028573450aa742a1579cd", "fusion_lon": 0.0},