{"data": {"bikes": [{"type": "electric_scooter", "rental_uris": {"android": "https://dc.lft.to/lastmile_qr_scan", "ios": "https://dc.lft.to/lastmile_qr_scan"}, "name": "bb2f8df81bfbb8ee45ff79fea0e4f6bc", "lat": 38.9592135, "is_reserved": 0, "fusion_lon": 0.0, "fusion_lat": 0.0, "is_disabled": 0, "bike_id": "bb2f8df81bfbb8ee45ff79fea0e4f6bc", "lon": -77.0001495}, {"type": "electric_scooter", "rental_uris": {"android": "https://dc.lft.to/lastmile_qr_scan", "ios": "https://dc.lft.to/lastmile_qr_scan"}, "name": "955678cc86253d946c7d800589c38502", "lat": 38.885972, "is_reserved": 0, "fusion_lon": 0.0, "fusion_lat": 0.0, "is_disabled": 0, "bike_id": "955678cc86253d946c7d800589c38502", "lon": -77.03192316666667}, {"type": "electric_scooter", "rental_uris": {"android": "https://dc.lft.to/lastmile_qr_scan", "ios": "https://dc.lft.to/lastmile_qr_scan"}, "name": "7b6b9a587e5da1fcd01b5f4268a7a48a", "lat": 38.8762585, "is_reserved": 0, "fusion_lon": 0.0, "fusion_lat": 0.0, "is_disabled": 0, "bike_id": "7b6b9a587e5da1fcd01b5f4268a7a48a", "lon": -77.00262566666666}, {"type": "electric_scooter", "rental_uris": {"android": "https://dc.lft.to/lastmile_qr_scan", "ios": "https://dc.lft.to/lastmile_qr_scan"}, "name": "fee29bf9b00eccf93831c5672796c694", "lat": 38.9049175, "is_reserved": 0, "fusion_lon": 0.0, "fusion_lat": 0.0, "is_disabled": 0, "bike_id": "fee29bf9b00eccf93831c5672796c694", "lon": -76.97737066666667}, {"type": "electric_scooter", "rental_uris": {"android": "https://dc.lft.to/lastmile_qr_scan", "ios": "https://dc.lft.to/lastmile_qr_scan"}, "name": "0d051539ef7e20a261443fd7c79481b2", "lat": 38.90317316666667, "is_reserved": 0, "fusion_lon": 0.0, "fusion_lat": 0.0, "is_disabled": 0, "bike_id": "0d051539ef7e20a261443fd7c79481b2", "lon": -76.98214933333334}, {"type": "electric_bike", "rental_uris": {"android": "https://dc.lft.to/lastmile_qr_scan", "ios": "https://dc.lft.to/lastmile_qr_scan"}, "name": "4d3479eb3b0206d484725209dfa171e6", "lat": 38.852444, "is_reserved": 0, "fusion_lon": 0.0, "fusion_lat": 0.0, "is_disabled": 0, "bike_id": "4d3479eb3b0206d484725209dfa171e6", "lon": -77.05303516666666}, {"type": "electric_scooter", "rental_uris": {"android": "https://dc.lft.to/lastmile_qr_scan", "ios": "https://dc.lft.to/lastmile_qr_scan"}, "name": "d8b27a4c893dc7bb2931f5e605f1f59a", "lat": 38.92947766666666, "is_reserved": 0, "fusion_lon": 0.0, "fusion_lat": 0.0, "is_disabled": 0, "bike_id": "d8b27a4c893dc7bb2931f5e605f1f59a", "lon": -77.03261133333334}, {"type": "electric_scooter", "rental_uris": {"android": "https://dc.lft.to/lastmile_qr_scan", "ios": "https://dc.lft.to/lastmile_qr_scan"}, "name": "b4611dc50d4abbc819d92172ac4b3c95", "lat": 38.8946895, "is_reserved": 0, "fusion_lon": 0.0, "fusion_lat": 0.0, "is_disabled": 0, "bike_id": "b4611dc50d4abbc819d92172ac4b3c95", "lon": -76.99710083333333}, {"type": "electric_scooter", "rental_uris": {"android": "https://dc.lft.to/lastmile_qr_scan", "ios": "https://dc.lft.to/lastmile_qr_scan"}, "name": "7113699e052e6521e2f38b073b1416d5", "lat": 38.89357783333333, "is_reserved": 0, "fusion_lon": 0.0, "fusion_lat": 0.0, "is_disabled": 0, "bike_id": "7113699e052e6521e2f38b073b1416d5", "lon": -77.00334566666666}, {"type": "electric_scooter", "rental_uris": {"android": "https://dc.lft.to/lastmile_qr_scan", "ios": "https://dc.lft.to/lastmile_qr_scan"}, "name": "c01244466dda85a9bd75b72724b49fdc", "lat": 38.93294933333333, "is_reserved": 0, "fusion_lon": 0.0, "fusion_lat": 0.0, "is_disabled": 0, "bike_id": "c01244466dda85a9bd75b72724b49fdc", "lon": -77.08529083333333}, {"type": "electric_scooter", "rental_uris": {"android": "https://dc.lft.to/lastmile_qr_scan", "ios": "https://dc.lft.to/lastmile_qr_scan"}, "name": "38697c6314ad6a78da0a775f023d4353", "lat": 38.876618666666666, "is_reserved": 0, "fusion_lon": 0.0, "fusion_lat": 0.0, "is_disabled": 0, "bike_id": "38697c6314ad6a78da0a775f023d4353", "lon": -76.9936755}, {"type": "electric_scooter", "rental_uris": {"android": "https://dc.lft.to/lastmile_qr_scan", "ios": "https://dc.lft.to/lastmile_qr_scan"}, "name": "8f2848dcd8cec189388f1a09eeee0f48", "lat": 38.902624833333334, "is_reserved": 0, "fusion_lon": 0.0, "fusion_lat": 0.0, "is_disabled": 0, "bike_id": "8f2848dcd8cec189388f1a09eeee0f48", "lon": -77.031933}, {"type": "electric_scooter", "rental_uris": {"android": "https://dc.lft.to/lastmile_qr_scan", "ios": "https://dc.lft.to/lastmile_qr_scan"}, "name": "f196a6ca071ff1a86216d4cdcc4ff919", "lat": 38.928491, "is_reserved": 0, "fusion_lon": 0.0, "fusion_lat": 0.0, "is_disabled": 0, "bike_id": "f196a6ca071ff1a86216d4cdcc4ff919", "lon": -77.05428883333333}, {"type": "electric_scooter", "rental_uris": {"android": "https://dc.lft.to/lastmile_qr_scan", "ios": "https://dc.lft.to/lastmile_qr_scan"}, "name": "909c31b51d029bb09e9e4fe9aac6acc2", "lat": 38.88606466666667, "is_reserved": 0, "fusion_lon": 0.0, "fusion_lat": 0.0, "is_disabled": 0, "bike_id": "909c31b51d029bb09e9e4fe9aac6acc2", "lon": -77.04511566666666}, {"type": "electric_scooter", "rental_uris": {"android": "https://dc.lft.to/lastmile_qr_scan", "ios": "https://dc.lft.to/lastmile_qr_scan"}, "name": "f11bf10c0ee5864d7b9b92ed2a521bc2", "lat": 38.92613683333333, "is_reserved": 0, "fusion_lon": 0.0, "fusion_lat": 0.0, "is_disabled": 0, "bike_id": "f11bf10c0ee5864d7b9b92ed2a521bc2", "lon": -77.0216035}, {"type": "electric_bike", "rental_uris": {"android": "https://dc.lft.to/lastmile_qr_scan", "ios": "https://dc.lft.to/lastmile_qr_scan"}, "name": "9b1b7d98e870e90bc6010ea61ed2e9fc", "lat": 38.9891595, "is_reserved": 0, "fusion_lon": 0.0, "fusion_lat": 0.0, "is_disabled": 0, "bike_id": "9b1b7d98e870e90bc6010ea61ed2e9fc", "lon": -77.02540483333334}, {"type": "electric_scooter", "rental_uris": {"android": "https://dc.lft.to/lastmile_qr_scan", "ios": "https://dc.lft.to/lastmile_qr_scan"}, "name": "92cb330c3f17c8298996608cb67916af", "lat": 38.90697183333333, "is_reserved": 0, "fusion_lon": 0.0, "fusion_lat": 0.0, "is_disabled": 0, "bike_id": "92cb330c3f17c8298996608cb67916af", "lon": -77.02697166666667}, {"type": "electric_scooter", "rental_uris": {"android": "https://dc.lft.to/lastmile_qr_scan", "ios": "https://dc.lft.to/lastmile_qr_scan"}, "name": "557e15b3ba9796453a8d45c1e33aa250", "lat": 38.957792, "is_reserved": 0, "fusion_lon": 0.0, "fusion_lat": 0.0, "is_disabled": 0, "bike_id": "557e15b3ba9796453a8d45c1e33aa250", "lon": -77.02463816666666}, {"type": "electric_scooter", "rental_uris": {"android": "https://dc.lft.to/lastmile_qr_scan", "ios": "https://dc.lft.to/lastmile_qr_scan"}, "name": "b1baa2c816a7ea81faaf689edd5013cb", "lat": 38.91565266666667, "is_reserved": 0, "fusion_lon": 0.0, "fusion_lat": 0.0, "is_disabled": 0, "bike_id": "b1baa2c816a7ea81faaf689edd5013cb", "lon": -77.046255}, {"type": "electric_scooter", "rental_uris": {"android": "https://dc.lft.to/lastmile_qr_scan", "ios": "https://dc.lft.to/lastmile_qr_scan"}, "name": "05721a9f93651e0abdfaf2a8dc38a850", "lat": 38.92468183333333, "is_reserved": 0, "fusion_lon": 0.0, "fusion_lat": 0.0, "is_disabled": 0, "bike_id": "05721a9f93651e0abdfaf2a8dc38a850", "lon": -77.0523825}, {"type": "electric_scooter", "rental_uris": {"android": "https://dc.lft.to/lastmile_qr_scan", "ios": "https://dc.lft.to/lastmile_qr_scan"}, "name": "8be3cf1bf4f994b9f2700852dfa4ac63", "lat": 38.92445, "is_reserved": 0, "fusion_lon": 0.0, "fusion_lat": 0.0, "is_disabled": 0, "bike_id": "8be3cf1bf4f994b9f2700852dfa4ac63", "lon": -77.020233}, {"type": "electric_scooter", "rental_uris": {"android": "https://dc.lft.to/lastmile_qr_scan", "ios": "https://dc.lft.to/lastmile_qr_scan"}, "name": "7e0bb823143045f5dfcf7a867eace772", "lat": 38.894667166666665, "is_reserved": 0, "fusion_lon": 0.0, "fusion_lat": 0.0, "is_disabled": 0, "bike_id": "7e0bb823143045f5dfcf7a867eace772", "lon": -77.02110083333334}, {"type": "electric_scooter", "rental_uris": {"android": "https://dc.lft.to/lastmile_qr_scan", "ios": "https://dc.lft.to/lastmile_qr_scan"}, "name": "7d4034c730e48631267af2ec11690fa4", "lat": 38.925178333333335, "is_reserved": 0, "fusion_lon": 0.0, "fusion_lat": 0.0, "is_disabled": 0, "bike_id": "7d4034c730e48631267af2ec11690fa4", "lon": -76.99561066666666}, {"type": "electric_bike", "rental_uris": {"android": "https://dc.lft.to/lastmile_qr_scan", "ios": "https://dc.lft.to/lastmile_qr_scan"}, "name": "0a0150897c1ba71294ecdefefa6157b9", "lat": 38.80055316666667, "is_reserved": 0, "fusion_lon": 0.0, "fusion_lat": 0.0, "is_disabled": 0, "bike_id": "0a0150897c1ba71294ecdefefa6157b9", "lon": -77.12837566666667}, {"type": "electric_scooter", "rental_uris": {"android": "https://dc.lft.to/lastmile_qr_scan", "ios": "https://dc.lft.to/lastmile_qr_scan"}, "name": "132782376c72881b5aaec01284505438", "lat": 38.93109916666667, "is_reserved": 0, "fusion_lon": 0.0, "fusion_lat": 0.0, "is_disabled": 0, "bike_id": "132782376c72881b5aaec01284505438", "lon": -77.0350695}, {"type": "electric_scooter", "rental_uris": {"android": "https://dc.lft.to/lastmile_qr_scan", "ios": "https://dc.lft.to/lastmile_qr_scan"}, "name": "53c2b89914fbcde617d90fd3b665b86a", "lat": 38.89421883333333, "is_reserved": 0, "fusion_lon": 0.0, "fusion_lat": 0.0, "is_disabled": 0, "bike_id": "53c2b89914fbcde617d90fd3b665b86a", "lon": -76.99770933333333}, {"type": "electric_scooter", "rental_uris": {"android": "https://dc.lft.to/lastmile_qr_scan", "ios": "https://dc.lft.to/lastmile_qr_scan"}, "name": "781abf7cedbc7c2ffc566251f3bd3f74", "lat": 38.90616166666667, "is_reserved": 0, "fusion_lon": 0.0, "fusion_lat": 0.0, "is_disabled": 0, "bike_id": "781abf7cedbc7c2ffc566251f3bd3f74", "lon": -77.0413065}, {"type": "electric_scooter", "rental_uris": {"android": "https://dc.lft.to/lastmile_qr_scan", "ios": "https://dc.lft.to/lastmile_qr_scan"}, "name": "a089fabba976d52d43fad27829e4c7f5", "lat": 38.89952816666667, "is_reserved": 0, "fusion_lon": 0.0, "fusion_lat": 0.0, "is_disabled": 0, "bike_id": "a089fabba976d52d43fad27829e4c7f5", "lon": -77.015962}, {"type": "electric_scooter", "rental_uris": {"android": "https://dc.lft.to/lastmile_qr_scan", "ios": "https://dc.lft.to/lastmile_qr_scan"}, "name": "b95fb3663f3ef15e85d9002650cc2155", "lat": 38.8976895, "is_reserved": 0, "fusion_lon": 0.0, "fusion_lat": 0.0, "is_disabled": 0, "bike_id": "b95fb3663f3ef15e85d9002650cc2155", "lon": -77.012271}, {"type": "electric_scooter", "rental_uris": {"android": "https://dc.lft.to/lastmile_qr_scan", "ios": "https://dc.lft.to/lastmile_qr_scan"}, "name": "d9bccaaa2a9dccd5b9252904b4e1fb56", "lat": 38.90649783333333, "is_reserved": 0, "fusion_lon": 0.0, "fusion_lat": 0.0, "is_disabled": 0, "bike_id": "d9bccaaa2a9dccd5b9252904b4e1fb56", "lon": -77.05324133333333}, {"type": "electric_scooter", "rental_uris": {"android": "https://dc.lft.to/lastmile_qr_scan", "ios": "https://dc.lft.to/lastmile_qr_scan"}, "name": "1e77efec48f2d346cdf0fe02e0519201", "lat": 38.895361666666666, "is_reserved": 0, "fusion_lon": 0.0, "fusion_lat": 0.0, "is_disabled": 0, "bike_id": "1e77efec48f2d346cdf0fe02e0519201", "lon": -77.01193416666666}, {"type": "electric_scooter", "rental_uris": {"android": "https://dc.lft.to/lastmile_qr_scan", "ios": "https://dc.lft.to/lastmile_qr_scan"}, "name": "dc9953fd22d9547353826b1144e09f38", "lat": 38.924192, "is_reserved": 0, "fusion_lon": 0.0, "fusion_lat": 0.0, "is_disabled": 0, "bike_id": "dc9953fd22d9547353826b1144e09f38", "lon": -77.01942933333333}, {"type": "electric_bike", "rental_uris": {"android": "https://dc.lft.to/lastmile_qr_scan", "ios": "https://dc.lft.to/lastmile_qr_scan"}, "name": "7b31201e4c0e40acdb3e1d7218f87bcd", "lat": 38.857836166666665, "is_reserved": 0, "fusion_lon": 0.0, "fusion_lat": 0.0, "is_disabled": 0, "bike_id": "7b31201e4c0e40acdb3e1d7218f87bcd", "lon": -76.98750366666667}, {"type": "electric_bike", "rental_uris": {"android": "https://dc.lft.to/lastmile_qr_scan", "ios": "https://dc.lft.to/lastmile_qr_scan"}, "name": "f5b6ccef8e027f98c56a81c4205c1d82", "lat": 38.893509, "is_reserved": 0, "fusion_lon": 0.0, "fusion_lat": 0.0, "is_disabled": 0, "bike_id": "f5b6ccef8e027f98c56a81c4205c1d82", "lon": -76.992542}, {"type": "electric_scooter", "rental_uris": {"android": "https://dc.lft.to/lastmile_qr_scan", "ios": "https://dc.lft.to/lastmile_qr_scan"}, "name": "c55bae844ffe35704fb2fe55db4a0c95", "lat": 38.928776166666665, "is_reserved": 0, "fusion_lon": 0.0, "fusion_lat": 0.0, "is_disabled": 0, "bike_id": "c55bae844ffe35704fb2fe55db4a0c95", "lon": -77.01231916666667}, {"type": "electric_scooter", "rental_uris": {"android": "https://dc.lft.to/lastmile_qr_scan", "ios": "https://dc.lft.to/lastmile_qr_scan"}, "name": "c96f44fc9c0a8c29ba080a57ea171088", "lat": 38.90695933333333, "is_reserved": 0, "fusion_lon": 0.0, "fusion_lat": 0.0, "is_disabled": 0, "bike_id": "c96f44fc9c0a8c29ba080a57ea171088", "lon": -77.02697}, {"type": "electric_scooter", "rental_uris": {"android": "https://dc.lft.to/lastmile_qr_scan", "ios": "https://dc.lft.to/lastmile_qr_scan"}, "name": "5efb2a83aa74c7a5c65f884dd9db83ec", "lat": 38.93086366666667, "is_reserved": 0, "fusion_lon": 0.0, "fusion_lat": 0.0, "is_disabled": 0, "bike_id": "5efb2a83aa74c7a5c65f884dd9db83ec", "lon": -77.03092283333334}, {"type": "electric_scooter", "rental_uris": {"android": "https://dc.lft.to/lastmile_qr_scan", "ios": "https://dc.lft.to/lastmile_qr_scan"}, "name": "644a28f95c54a2b27818ea4995995dcc", "lat": 38.913635666666664, "is_reserved": 0, "fusion_lon": 0.0, "fusion_lat": 0.0, "is_disabled": 0, "bike_id": "644a28f95c54a2b27818ea4995995dcc", "lon": -77.04655466666667}, {"type": "electric_scooter", "rental_uris": {"android": "https://dc.lft.to/lastmile_qr_scan", "ios": "https://dc.lft.to/lastmile_qr_scan"}, "name": "61645cbccda6764b45f2fce1296c1689", "lat": 38.9006785, "is_reserved": 0, "fusion_lon": 0.0, "fusion_lat": 0.0, "is_disabled": 0, "bike_id": "61645cbccda6764b45f2fce1296c1689", "lon": -77.02726266666667}, {"type": "electric_scooter", "rental_uris": {"android": "https://dc.lft.to/lastmile_qr_scan", "ios": "https://dc.lft.to/lastmile_qr_scan"}, "name": "baaceb53d65c2f47bca5fe916d1985f6", "lat": 38.90675983333333, "is_reserved": 0, "fusion_lon": 0.0, "fusion_lat": 0.0, "is_disabled": 0, "bike_id": "baaceb53d65c2f47bca5fe916d1985f6", "lon": -77.02692816666666}, {"type": "electric_scooter", "rental_uris": {"android": "https://dc.lft.to/lastmile_qr_scan", "ios": "https://dc.lft.to/lastmile_qr_scan"}, "name": "5ab1032415710104c22ff0be29343660", "lat": 38.91255833333334, "is_reserved": 0, "fusion_lon": 0.0, "fusion_lat": 0.0, "is_disabled": 0, "bike_id": "5ab1032415710104c22ff0be29343660", "lon": -77.03933066666667}, {"type": "electric_scooter", "rental_uris": {"android": "https://dc.lft.to/lastmile_qr_scan", "ios": "https://dc.lft.to/lastmile_qr_scan"}, "name": "33471f96eda96c902c1054487f4b845e", "lat": 38.90685333333333, "is_reserved": 0, "fusion_lon": 0.0, "fusion_lat": 0.0, "is_disabled": 0, "bike_id": "33471f96eda96c902c1054487f4b845e", "lon": -77.06756183333333}, {"type": "electric_scooter", "rental_uris": {"android": "https://dc.lft.to/lastmile_qr_scan", "ios": "https://dc.lft.to/lastmile_qr_scan"}, "name": "985654819f5d1a29b8c32fc4465c37c8", "lat": 38.96932733333333, "is_reserved": 0, "fusion_lon": 0.0, "fusion_lat": 0.0, "is_disabled": 0, "bike_id": "985654819f5d1a29b8c32fc4465c37c8", "lon": -77.02708016666666}, {"type": "electric_scooter", "rental_uris": {"android": "https://dc.lft.to/lastmile_qr_scan", "ios": "https://dc.lft.to/lastmile_qr_scan"}, "name": "903078c7f19854388593afaa3e0529de", "lat": 38.926726333333335, "is_reserved": 0, "fusion_lon": 0.0, "fusion_lat": 0.0, "is_disabled": 0, "bike_id": "903078c7f19854388593afaa3e0529de", "lon": -77.01509316666667}, {"type": "electric_scooter", "rental_uris": {"android": "https://dc.lft.to/lastmile_qr_scan", "ios": "https://dc.lft.to/lastmile_qr_scan"}, "name": "b7d310144f8e85894659d0b1a1a292d3", "lat": 38.907093333333336, "is_reserved": 0, "fusion_lon": 0.0, "fusion_lat": 0.0, "is_disabled": 0, "bike_id": "b7d310144f8e85894659d0b1a1a292d3", "lon": -77.02389083333334}, {"type": "electric_scooter", "rental_uris": {"android": "https://dc.lft.to/lastmile_qr_scan", "ios": "https://dc.lft.to/lastmile_qr_scan"}, "name": "f5a6146ab79a93d9c0b9009bf00d5b25", "lat": 38.87173333333333, "is_reserved": 0, "fusion_lon": 0.0, "fusion_lat": 0.0, "is_disabled": 0, "bike_id": "f5a6146ab79a93d9c0b9009bf00d5b25", "lon": -77.00622316666667}, {"type": "electric_scooter", "rental_uris": {"android": "https://dc.lft.to/lastmile_qr_scan", "ios": "https://dc.lft.to/lastmile_qr_scan"}, "name": "6f415cf214bd4775777689964c42f047", "lat": 38.90599383333333, "is_reserved": 0, "fusion_lon": 0.0, "fusion_lat": 0.0, "is_disabled": 0, "bike_id": "6f415cf214bd4775777689964c42f047", "lon": -77.02601966666667}, {"type": "electric_scooter", "rental_uris": {"android": "https://dc.lft.to/lastmile_qr_scan", "ios": "https://dc.lft.to/lastmile_qr_scan"}, "name": "59036cff16b05fee37aee750150a0336", "lat": 38.892247, "is_reserved": 0, "fusion_lon": 0.0, "fusion_lat": 0.0, "is_disabled": 0, "bike_id": "59036cff16b05fee37aee750150a0336", "lon": -77.0336915}, {"type": "electric_scooter", "rental_uris": {"android": "https://dc.lft.to/lastmile_qr_scan", "ios": "https://dc.lft.to/lastmile_qr_scan"}, "name": "18ffd71297eb876e56824d1ae213ae90", "lat": 38.906363166666665, "is_reserved": 0, "fusion_lon": 0.0, "fusion_lat": 0.0, "is_disabled": 0, "bike_id": "18ffd71297eb876e56824d1ae213ae90", "lon": -77.0238545}, {"type": "electric_scooter", "rental_uris": {"android": "https://dc.lft.to/lastmile_qr_scan", "ios": "https://dc.lft.to/lastmile_qr_scan"}, "name": "61a9089b0aa5d2583c5c48cddb69c867", "lat": 38.90978, "is_reserved": 0, "fusion_lon": 0.0, "fusion_lat": 0.0, "is_disabled": 0, "bike_id": "61a9089b0aa5d2583c5c48cddb69c867", "lon": -77.02706}, {"type": "electric_scooter", "rental_uris": {"android": "https://dc.lft.to/lastmile_qr_scan", "ios": "https://dc.lft.to/lastmile_qr_scan"}, "name": "15c5ae22b9818302aaf9cb5d0adecc28", "lat": 38.901489, "is_reserved": 0, "fusion_lon": 0.0, "fusion_lat": 0.0, "is_disabled": 0, "bike_id": "15c5ae22b9818302aaf9cb5d0adecc28", "lon": -77.02476866666667}, {"type": "electric_scooter", "rental_uris": {"android": "https://dc.lft.to/lastmile_qr_scan", "ios": "https://dc.lft.to/lastmile_qr_scan"}, "name": "f222595bcb84a701026a01885ca04a42", "lat": 38.9052555, "is_reserved": 0, "fusion_lon": 0.0, "fusion_lat": 0.0, "is_disabled": 0, "bike_id": "f222595bcb84a701026a01885ca04a42", "lon": -77.06781483333333}, {"type": "electric_scooter", "rental_uris": {"android": "https://dc.lft.to/lastmile_qr_scan", "ios": "https://dc.lft.to/lastmile_qr_scan"}, "name": "b4e0354647098d7dc12eb195a6068e17", "lat": 38.90140983333333, "is_reserved": 0, "fusion_lon": 0.0, "fusion_lat": 0.0, "is_disabled": 0, "bike_id": "b4e0354647098d7dc12eb195a6068e17", "lon": -77.0219775}, {"type": "electric_scooter", "rental_uris": {"android": "https://dc.lft.to/lastmile_qr_scan", "ios": "https://dc.lft.to/lastmile_qr_scan"}, "name": "4edb6a6181ab7fecf38d482830b17f86", "lat": 38.895375, "is_reserved": 0, "fusion_lon": 0.0, "fusion_lat": 0.0, "is_disabled": 0, "bike_id": "4edb6a6181ab7fecf38d482830b17f86", "lon": -77.03105533333333}, {"type": "electric_scooter", "rental_uris": {"android": "https://dc.lft.to/lastmile_qr_scan", "ios": "https://dc.lft.to/lastmile_qr_scan"}, "name": "51d6558ca11dea3427b9f627249ced4c", "lat": 38.92669, "is_reserved": 0, "fusion_lon": 0.0, "fusion_lat": 0.0, "is_disabled": 0, "bike_id": "51d6558ca11dea3427b9f627249ced4c", "lon": -77.015051}, {"type": "electric_scooter", "rental_uris": {"android": "https://dc.lft.to/lastmile_qr_scan", "ios": "https://dc.lft.to/lastmile_qr_scan"}, "name": "7dde405e71c83c26ddf4ae3e64f54c45", "lat": 38.93111433333333, "is_reserved": 0, "fusion_lon": 0.0, "fusion_lat": 0.0, "is_disabled": 0, "bike_id": "7dde405e71c83c26ddf4ae3e64f54c45", "lon": -77.03811433333334}, {"type": "electric_scooter", "rental_uris": {"android": "https://dc.lft.to/lastmile_qr_scan", "ios": "https://dc.lft.to/lastmile_qr_scan"}, "name": "25b47fa86670418be5139f75431acb6b", "lat": 38.92250083333333, "is_reserved": 0, "fusion_lon": 0.0, "fusion_lat": 0.0, "is_disabled": 0, "bike_id": "25b47fa86670418be5139f75431acb6b", "lon": -77.07203433333333}, {"type": "electric_scooter", "rental_uris": {"android": "https://dc.lft.to/lastmile_qr_scan", "ios": "https://dc.lft.to/lastmile_qr_scan"}, "name": "3dc4441756261e5747b0e5e5afe12c42", "lat": 38.90572316666667, "is_reserved": 0, "fusion_lon": 0.0, "fusion_lat": 0.0, "is_disabled": 0, "bike_id": "3dc4441756261e5747b0e5e5afe12c42", "lon": -77.0217985}, {"type": "electric_scooter", "rental_uris": {"android": "https://dc.lft.to/lastmile_qr_scan", "ios": "https://dc.lft.to/lastmile_qr_scan"}, "name": "48c06a348f667a1173e1dc3484bb8ff4", "lat": 38.9018975, "is_reserved": 0, "fusion_lon": 0.0, "fusion_lat": 0.0, "is_disabled": 0, "bike_id": "48c06a348f667a1173e1dc3484bb8ff4", "lon": -77.04667416666666}, {"type": "electric_scooter", "rental_uris": {"android": "https://dc.lft.to/lastmile_qr_scan", "ios": "https://dc.lft.to/lastmile_qr_scan"}, "name": "26fb26f8c75811b870fd73a0fcc0431b", "lat": 38.907399833333336, "is_reserved": 0, "fusion_lon": 0.0, "fusion_lat": 0.0, "is_disabled": 0, "bike_id": "26fb26f8c75811b870fd73a0fcc0431b", "lon": -76.93480933333333}, {"type": "electric_scooter", "rental_uris": {"android": "https://dc.lft.to/lastmile_qr_scan", "ios": "https://dc.lft.to/lastmile_qr_scan"}, "name": "625efbed029ba89dfac3894f46f463ae", "lat": 38.911916833333336, "is_reserved": 0, "fusion_lon": 0.0, "fusion_lat": 0.0, "is_disabled": 0, "bike_id": "625efbed029ba89dfac3894f46f463ae", "lon": -77.03857383333333}, {"type": "electric_scooter", "rental_uris": {"android": "https://dc.lft.to/lastmile_qr_scan", "ios": "https://dc.lft.to/lastmile_qr_scan"}, "name": "fec3624557d6c7370814a834785dca07", "lat": 38.9289565, "is_reserved": 0, "fusion_lon": 0.0, "fusion_lat": 0.0, "is_disabled": 0, "bike_id": "fec3624557d6c7370814a834785dca07", "lon": -77.03467116666667}, {"type": "electric_scooter", "rental_uris": {"android": "https://dc.lft.to/lastmile_qr_scan", "ios": "https://dc.lft.to/lastmile_qr_scan"}, "name": "7c311090eef238f0cec2d07d31a0eeef", "lat": 38.904445333333335, "is_reserved": 0, "fusion_lon": 0.0, "fusion_lat": 0.0, "is_disabled": 0, "bike_id": "7c311090eef238f0cec2d07d31a0eeef", "lon": -77.053205}, {"type": "electric_scooter", "rental_uris": {"android": "https://dc.lft.to/lastmile_qr_scan", "ios": "https://dc.lft.to/lastmile_qr_scan"}, "name": "0f0c4a32fcfad09744a93cb401563d3f", "lat": 38.923490666666666, "is_reserved": 0, "fusion_lon": 0.0, "fusion_lat": 0.0, "is_disabled": 0, "bike_id": "0f0c4a32fcfad09744a93cb401563d3f", "lon": -77.03645516666667}, {"type": "electric_scooter", "rental_uris": {"android": "https://dc.lft.to/lastmile_qr_scan", "ios": "https://dc.lft.to/lastmile_qr_scan"}, "name": "ffb86e9b6651c12bb19d73c113857984", "lat": 38.900121166666665, "is_reserved": 0, "fusion_lon": 0.0, "fusion_lat": 0.0, "is_disabled": 0, "bike_id": "ffb86e9b6651c12bb19d73c113857984", "lon": -77.04134283333333}, {"type": "electric_scooter", "rental_uris": {"android": "https://dc.lft.to/lastmile_qr_scan", "ios": "https://dc.lft.to/lastmile_qr_scan"}, "name": "90f8fb10b9e31c4c438e68e58482bec1", "lat": 38.895774, "is_reserved": 0, "fusion_lon": 0.0, "fusion_lat": 0.0, "is_disabled": 0, "bike_id": "90f8fb10b9e31c4c438e68e58482bec1", "lon": -77.041458}, {"type": "electric_bike", "rental_uris": {"android": "https://dc.lft.to/lastmile_qr_scan", "ios": "https://dc.lft.to/lastmile_qr_scan"}, "name": "5502a0aaa87590a747b34982d835fcf5", "lat": 38.83829016666667, "is_reserved": 0, "fusion_lon": 0.0, "fusion_lat": 0.0, "is_disabled": 0, "bike_id": "5502a0aaa87590a747b34982d835fcf5", "lon": -77.00567866666667}, {"type": "electric_scooter", "rental_uris": {"android": "https://dc.lft.to/lastmile_qr_scan", "ios": "https://dc.lft.to/lastmile_qr_scan"}, "name": "bd706c8d2eb9e7b7cc32400ed0ea526c", "lat": 38.898430166666664, "is_reserved": 0, "fusion_lon": 0.0, "fusion_lat": 0.0, "is_disabled": 0, "bike_id": "bd706c8d2eb9e7b7cc32400ed0ea526c", "lon": -77.04105116666666}, {"type": "electric_scooter", "rental_uris": {"android": "https://dc.lft.to/lastmile_qr_scan", "ios": "https://dc.lft.to/lastmile_qr_scan"}, "name": "57c4ef74ee822d31fe9dd06b2294c9de", "lat": 38.91418866666667, "is_reserved": 0, "fusion_lon": 0.0, "fusion_lat": 0.0, "is_disabled": 0, "bike_id": "57c4ef74ee822d31fe9dd06b2294c9de", "lon": -77.03167916666666}, {"type": "electric_scooter", "rental_uris": {"android": "https://dc.lft.to/lastmile_qr_scan", "ios": "https://dc.lft.to/lastmile_qr_scan"}, "name": "d428bb338d239c5dd4c74d70f0d05659", "lat": 38.8995505, "is_reserved": 0, "fusion_lon": 0.0, "fusion_lat": 0.0, "is_disabled": 0, "bike_id": "d428bb338d239c5dd4c74d70f0d05659", "lon": -77.04842583333334}, {"type": "electric_scooter", "rental_uris": {"android": "https://dc.lft.to/lastmile_qr_scan", "ios": "https://dc.lft.to/lastmile_qr_scan"}, "name": "fbdc357ba02609825e1157e0f76dd62a", "lat": 38.9266825, "is_reserved": 0, "fusion_lon": 0.0, "fusion_lat": 0.0, "is_disabled": 0, "bike_id": "fbdc357ba02609825e1157e0f76dd62a", "lon": -77.01498983333333}, {"type": "electric_scooter", "rental_uris": {"android": "https://dc.lft.to/lastmile_qr_scan", "ios": "https://dc.lft.to/lastmile_qr_scan"}, "name": "d51f5d0e9beb7210f59a9b3935240bf1", "lat": 38.9150975, "is_reserved": 0, "fusion_lon": 0.0, "fusion_lat": 0.0, "is_disabled": 0, "bike_id": "d51f5d0e9beb7210f59a9b3935240bf1", "lon": -77.03213183333334}, {"type": "electric_bike", "rental_uris": {"android": "https://dc.lft.to/lastmile_qr_scan", "ios": "https://dc.lft.to/lastmile_qr_scan"}, "name": "2cf51a3d1286d14000e4a0d5a19d657c", "lat": 38.91864433333333, "is_reserved": 0, "fusion_lon": 0.0, "fusion_lat": 0.0, "is_disabled": 0, "bike_id": "2cf51a3d1286d14000e4a0d5a19d657c", "lon": -76.96086716666667}, {"type": "electric_scooter", "rental_uris": {"android": "https://dc.lft.to/lastmile_qr_scan", "ios": "https://dc.lft.to/lastmile_qr_scan"}, "name": "27b717fad951a9eabda8ff7887f29cb2", "lat": 38.925618, "is_reserved": 0, "fusion_lon": 0.0, "fusion_lat": 0.0, "is_disabled": 0, "bike_id": "27b717fad951a9eabda8ff7887f29cb2", "lon": -77.02284416666667}, {"type": "electric_scooter", "rental_uris": {"android": "https://dc.lft.to/lastmile_qr_scan", "ios": "https://dc.lft.to/lastmile_qr_scan"}, "name": "70df51fb2ae017da9bbcf1fb21bbd216", "lat": 38.90150633333333, "is_reserved": 0, "fusion_lon": 0.0, "fusion_lat": 0.0, "is_disabled": 0, "bike_id": "70df51fb2ae017da9bbcf1fb21bbd216", "lon": -76.97420516666666}, {"type": "electric_scooter", "rental_uris": {"android": "https://dc.lft.to/lastmile_qr_scan", "ios": "https://dc.lft.to/lastmile_qr_scan"}, "name": "38c063e0171b328cb6989c5618cd903c", "lat": 38.88725216666667, "is_reserved": 0, "fusion_lon": 0.0, "fusion_lat": 0.0, "is_disabled": 0, "bike_id": "38c063e0171b328cb6989c5618cd903c", "lon": -76.9837825}, {"type": "electric_scooter", "rental_uris": {"android": "https://dc.lft.to/lastmile_qr_scan", "ios": "https://dc.lft.to/lastmile_qr_scan"}, "name": "b8ee5cf4e9f8fac7531616e40c0e9859", "lat": 38.90264366666667, "is_reserved": 0, "fusion_lon": 0.0, "fusion_lat": 0.0, "is_disabled": 0, "bike_id": "b8ee5cf4e9f8fac7531616e40c0e9859", "lon": -77.03466416666667}, {"type": "electric_scooter", "rental_uris": {"android": "https://dc.lft.to/lastmile_qr_scan", "ios": "https://dc.lft.to/lastmile_qr_scan"}, "name": "183ac3bd0a68089a949d4f6b067cb02a", "lat": 38.926699166666666, "is_reserved": 0, "fusion_lon": 0.0, "fusion_lat": 0.0, "is_disabled": 0, "bike_id": "183ac3bd0a68089a949d4f6b067cb02a", "lon": -77.03087483333333}, {"type": "electric_scooter", "rental_uris": {"android": "https://dc.lft.to/lastmile_qr_scan", "ios": "https://dc.lft.to/lastmile_qr_scan"}, "name": "4c92cbd305d1154fd7c57c7a6ced6eb1", "lat": 38.90178383333333, "is_reserved": 0, "fusion_lon": 0.0, "fusion_lat": 0.0, "is_disabled": 0, "bike_id": "4c92cbd305d1154fd7c57c7a6ced6eb1", "lon": -77.024076}, {"type": "electric_scooter", "rental_uris": {"android": "https://dc.lft.to/lastmile_qr_scan", "ios": "https://dc.lft.to/lastmile_qr_scan"}, "name": "5744d6a378bcbd1fe440d88849cbe362", "lat": 38.93463083333333, "is_reserved": 0, "fusion_lon": 0.0, "fusion_lat": 0.0, "is_disabled": 0, "bike_id": "5744d6a378bcbd1fe440d88849cbe362", "lon": -77.05806916666667}, {"type": "electric_scooter", "rental_uris": {"android": "https://dc.lft.to/lastmile_qr_scan", "ios": "https://dc.lft.to/lastmile_qr_scan"}, "name": "9933c9b13d6fee47204b1df2df83cc3e", "lat": 38.907172833333334, "is_reserved": 0, "fusion_lon": 0.0, "fusion_lat": 0.0, "is_disabled": 0, "bike_id": "9933c9b13d6fee47204b1df2df83cc3e", "lon": -77.040157}, {"type": "electric_bike", "rental_uris": {"android": "https://dc.lft.to/lastmile_qr_scan", "ios": "https://dc.lft.to/lastmile_qr_scan"}, "name": "bcd12e9846968ba960ccb52e2adc0a16", "lat": 38.900724833333335, "is_reserved": 0, "fusion_lon": 0.0, "fusion_lat": 0.0, "is_disabled": 0, "bike_id": "bcd12e9846968ba960ccb52e2adc0a16", "lon": -77.04640566666667}, {"type": "electric_scooter", "rental_uris": {"android": "https://dc.lft.to/lastmile_qr_scan", "ios": "https://dc.lft.to/lastmile_qr_scan"}, "name": "72ac3444f39865be9e7e51065aec613a", "lat": 38.91107483333333, "is_reserved": 0, "fusion_lon": 0.0, "fusion_lat": 0.0, "is_disabled": 0, "bike_id": "72ac3444f39865be9e7e51065aec613a", "lon": -77.00359833333333}, {"type": "electric_scooter", "rental_uris": {"android": "https://dc.lft.to/lastmile_qr_scan", "ios": "https://dc.lft.to/lastmile_qr_scan"}, "name": "35c4e28379d2ffe83bf5e361e909e896", "lat": 38.925464, "is_reserved": 0, "fusion_lon": 0.0, "fusion_lat": 0.0, "is_disabled": 0, "bike_id": "35c4e28379d2ffe83bf5e361e909e896", "lon": -77.02973066666667}, {"type": "electric_scooter", "rental_uris": {"android": "https://dc.lft.to/lastmile_qr_scan", "ios": "https://dc.lft.to/lastmile_qr_scan"}, "name": "a6dbe7202eea976add5526464df259c6", "lat": 38.884948333333334, "is_reserved": 0, "fusion_lon": 0.0, "fusion_lat": 0.0, "is_disabled": 0, "bike_id": "a6dbe7202eea976add5526464df259c6", "lon": -77.01519433333333}, {"type": "electric_scooter", "rental_uris": {"android": "https://dc.lft.to/lastmile_qr_scan", "ios": "https://dc.lft.to/lastmile_qr_scan"}, "name": "cff9201ddf25fcbb45f901caf41ef317", "lat": 38.905656666666665, "is_reserved": 0, "fusion_lon": 0.0, "fusion_lat": 0.0, "is_disabled": 0, "bike_id": "cff9201ddf25fcbb45f901caf41ef317", "lon": -76.982064}, {"type": "electric_scooter", "rental_uris": {"android": "https://dc.lft.to/lastmile_qr_scan", "ios": "https://dc.lft.to/lastmile_qr_scan"}, "name": "2125af3e74c41a8427cf2102dd917566", "lat": 38.89716466666667, "is_reserved": 0, "fusion_lon": 0.0, "fusion_lat": 0.0, "is_disabled": 0, "bike_id": "2125af3e74c41a8427cf2102dd917566", "lon": -77.04484166666667}, {"type": "electric_scooter", "rental_uris": {"android": "https://dc.lft.to/lastmile_qr_scan", "ios": "https://dc.lft.to/lastmile_qr_scan"}, "name": "05a1af3736dc77e62b3a9b6fbc6ff5d8", "lat": 38.898265333333335, "is_reserved": 0, "fusion_lon": 0.0, "fusion_lat": 0.0, "is_disabled": 0, "bike_id": "05a1af3736dc77e62b3a9b6fbc6ff5d8", "lon": -76.94651016666667}, {"type": "electric_scooter", "rental_uris": {"android": "https://dc.lft.to/lastmile_qr_scan", "ios": "https://dc.lft.to/lastmile_qr_scan"}, "name": "dd44965eb8615c778502b88282bc2b13", "lat": 38.89758766666667, "is_reserved": 0, "fusion_lon": 0.0, "fusion_lat": 0.0, "is_disabled": 0, "bike_id": "dd44965eb8615c778502b88282bc2b13", "lon": -77.02695383333334}, {"type": "electric_scooter", "rental_uris": {"android": "https://dc.lft.to/lastmile_qr_scan", "ios": "https://dc.lft.to/lastmile_qr_scan"}, "name": "f72309799d175aba91b9a81850ec55d9", "lat": 38.89731183333333, "is_reserved": 0, "fusion_lon": 0.0, "fusion_lat": 0.0, "is_disabled": 0, "bike_id": "f72309799d175aba91b9a81850ec55d9", "lon": -77.026036}, {"type": "electric_scooter", "rental_uris": {"android": "https://dc.lft.to/lastmile_qr_scan", "ios": "https://dc.lft.to/lastmile_qr_scan"}, "name": "fe8df70da9d57321768dc91dcc31535a", "lat": 38.884969, "is_reserved": 0, "fusion_lon": 0.0, "fusion_lat": 0.0, "is_disabled": 0, "bike_id": "fe8df70da9d57321768dc91dcc31535a", "lon": -77.007248}, {"type": "electric_scooter", "rental_uris": {"android": "https://dc.lft.to/lastmile_qr_scan", "ios": "https://dc.lft.to/lastmile_qr_scan"}, "name": "6d8cc5d7ff90a1388c5799651bf1ee4f", "lat": 38.887072, "is_reserved": 0, "fusion_lon": 0.0, "fusion_lat": 0.0, "is_disabled": 0, "bike_id": "6d8cc5d7ff90a1388c5799651bf1ee4f", "lon": -77.013635}, {"type": "electric_scooter", "rental_uris": {"android": "https://dc.lft.to/lastmile_qr_scan", "ios": "https://dc.lft.to/lastmile_qr_scan"}, "name": "b1f59fba6927a39063ca9b99b664d406", "lat": 38.93525183333333, "is_reserved": 0, "fusion_lon": 0.0, "fusion_lat": 0.0, "is_disabled": 0, "bike_id": "b1f59fba6927a39063ca9b99b664d406", "lon": -77.03257183333334}, {"type": "electric_scooter", "rental_uris": {"android": "https://dc.lft.to/lastmile_qr_scan", "ios": "https://dc.lft.to/lastmile_qr_scan"}, "name": "33b2a190753c03f7d657483835a72fdf", "lat": 38.9022315, "is_reserved": 0, "fusion_lon": 0.0, "fusion_lat": 0.0, "is_disabled": 0, "bike_id": "33b2a190753c03f7d657483835a72fdf", "lon": -77.036614}, {"type": "electric_scooter", "rental_uris": {"android": "https://dc.lft.to/lastmile_qr_scan", "ios": "https://dc.lft.to/lastmile_qr_scan"}, "name": "7821b656edfdc92836275e58f24e8c69", "lat": 38.89354766666666, "is_reserved": 0, "fusion_lon": 0.0, "fusion_lat": 0.0, "is_disabled": 0, "bike_id": "7821b656edfdc92836275e58f24e8c69", "lon": -77.01746016666667}, {"type": "electric_scooter", "rental_uris": {"android": "https://dc.lft.to/lastmile_qr_scan", "ios": "https://dc.lft.to/lastmile_qr_scan"}, "name": "fb0d577973c92ae02f42ada3b5cb8091", "lat": 38.8642005, "is_reserved": 0, "fusion_lon": 0.0, "fusion_lat": 0.0, "is_disabled": 0, "bike_id": "fb0d577973c92ae02f42ada3b5cb8091", "lon": -76.97490583333334}, {"type": "electric_scooter", "rental_uris": {"android": "https://dc.lft.to/lastmile_qr_scan", "ios": "https://dc.lft.to/lastmile_qr_scan"}, "name": "af749c3880dbbe27b13b6aee02450d92", "lat": 38.9297365, "is_reserved": 0, "fusion_lon": 0.0, "fusion_lat": 0.0, "is_disabled": 0, "bike_id": "af749c3880dbbe27b13b6aee02450d92", "lon": -77.03205633333333}, {"type": "electric_scooter", "rental_uris": {"android": "https://dc.lft.to/lastmile_qr_scan", "ios": "https://dc.lft.to/lastmile_qr_scan"}, "name": "bb0ed6069623dd6629af4770df945fcc", "lat": 38.890016833333334, "is_reserved": 0, "fusion_lon": 0.0, "fusion_lat": 0.0, "is_disabled": 0, "bike_id": "bb0ed6069623dd6629af4770df945fcc", "lon": -77.003627}, {"type": "electric_scooter", "rental_uris": {"android": "https://dc.lft.to/lastmile_qr_scan", "ios": "https://dc.lft.to/lastmile_qr_scan"}, "name": "8b4ac6577bf8db3878c13693c9849e98", "lat": 38.92091116666667, "is_reserved": 0, "fusion_lon": 0.0, "fusion_lat": 0.0, "is_disabled": 0, "bike_id": "8b4ac6577bf8db3878c13693c9849e98", "lon": -77.02303233333333}, {"type": "electric_scooter", "rental_uris": {"android": "https://dc.lft.to/lastmile_qr_scan", "ios": "https://dc.lft.to/lastmile_qr_scan"}, "name": "fd89bd58773bde93047e3a81e31d74f7", "lat": 38.894808166666664, "is_reserved": 0, "fusion_lon": 0.0, "fusion_lat": 0.0, "is_disabled": 0, "bike_id": "fd89bd58773bde93047e3a81e31d74f7", "lon": -76.995737}, {"type": "electric_scooter", "rental_uris": {"android": "https://dc.lft.to/lastmile_qr_scan", "ios": "https://dc.lft.to/lastmile_qr_scan"}, "name": "741f51960b78c9eb55a09a0603386867", "lat": 38.891766, "is_reserved": 0, "fusion_lon": 0.0, "fusion_lat": 0.0, "is_disabled": 0, "bike_id": "741f51960b78c9eb55a09a0603386867", "lon": -76.9425415}, {"type": "electric_scooter", "rental_uris": {"android": "https://dc.lft.to/lastmile_qr_scan", "ios": "https://dc.lft.to/lastmile_qr_scan"}, "name": "c0ab941d35f2bb940412d81541f9bb85", "lat": 38.92374133333333, "is_reserved": 0, "fusion_lon": 0.0, "fusion_lat": 0.0, "is_disabled": 0, "bike_id": "c0ab941d35f2bb940412d81541f9bb85", "lon": -77.019527}, {"type": "electric_scooter", "rental_uris": {"android": "https://dc.lft.to/lastmile_qr_scan", "ios": "https://dc.lft.to/lastmile_qr_scan"}, "name": "157471fd1bba19a6e4e999898cd41e94", "lat": 38.897121166666665, "is_reserved": 0, "fusion_lon": 0.0, "fusion_lat": 0.0, "is_disabled": 0, "bike_id": "157471fd1bba19a6e4e999898cd41e94", "lon": -77.02676733333334}, {"type": "electric_scooter", "rental_uris": {"android": "https://dc.lft.to/lastmile_qr_scan", "ios": "https://dc.lft.to/lastmile_qr_scan"}, "name": "7bd1b6edb6351e38c33d673c62565ba6", "lat": 38.914176499999996, "is_reserved": 0, "fusion_lon": 0.0, "fusion_lat": 0.0, "is_disabled": 0, "bike_id": "7bd1b6edb6351e38c33d673c62565ba6", "lon": -77.03169783333334}, {"type": "electric_scooter", "rental_uris": {"android": "https://dc.lft.to/lastmile_qr_scan", "ios": "https://dc.lft.to/lastmile_qr_scan"}, "name": "be1d37c41d73b84b7a6de5dd67b16965", "lat": 38.926656333333334, "is_reserved": 0, "fusion_lon": 0.0, "fusion_lat": 0.0, "is_disabled": 0, "bike_id": "be1d37c41d73b84b7a6de5dd67b16965", "lon": -76.9954985}, {"type": "electric_bike", "rental_uris": {"android": "https://dc.lft.to/lastmile_qr_scan", "ios": "https://dc.lft.to/lastmile_qr_scan"}, "name": "63749701ab18d543b9281de6d5a7e371", "lat": 38.946793666666665, "is_reserved": 0, "fusion_lon": 0.0, "fusion_lat": 0.0, "is_disabled": 0, "bike_id": "63749701ab18d543b9281de6d5a7e371", "lon": -76.9932575}, {"type": "electric_scooter", "rental_uris": {"android": "https://dc.lft.to/lastmile_qr_scan", "ios": "https://dc.lft.to/lastmile_qr_scan"}, "name": "1c4128e91c74d9f072b4bfde217b8fce", "lat": 38.905183666666666, "is_reserved": 0, "fusion_lon": 0.0, "fusion_lat": 0.0, "is_disabled": 0, "bike_id": "1c4128e91c74d9f072b4bfde217b8fce", "lon": -77.0020345}, {"type": "electric_scooter", "rental_uris": {"android": "https://dc.lft.to/lastmile_qr_scan", "ios": "https://dc.lft.to/lastmile_qr_scan"}, "name": "e2cf76e27ecdb47c936ed40fb692db79", "lat": 38.912570833333334, "is_reserved": 0, "fusion_lon": 0.0, "fusion_lat": 0.0, "is_disabled": 0, "bike_id": "e2cf76e27ecdb47c936ed40fb692db79", "lon": -77.03928616666667}, {"type": "electric_scooter", "rental_uris": {"android": "https://dc.lft.to/lastmile_qr_scan", "ios": "https://dc.lft.to/lastmile_qr_scan"}, "name": "c343ae0a10888d4e8f5a6a8a5acfe32b", "lat": 38.92220183333333, "is_reserved": 0, "fusion_lon": 0.0, "fusion_lat": 0.0, "is_disabled": 0, "bike_id": "c343ae0a10888d4e8f5a6a8a5acfe32b", "lon": -77.0365725}, {"type": "electric_bike", "rental_uris": {"android": "https://dc.lft.to/lastmile_qr_scan", "ios": "https://dc.lft.to/lastmile_qr_scan"}, "name": "bb80b67e8e483e1299cc28fa01b9e8d4", "lat": 38.8543455, "is_reserved": 0, "fusion_lon": 0.0, "fusion_lat": 0.0, "is_disabled": 0, "bike_id": "bb80b67e8e483e1299cc28fa01b9e8d4", "lon": -77.0831775}, {"type": "electric_scooter", "rental_uris": {"android": "https://dc.lft.to/lastmile_qr_scan", "ios": "https://dc.lft.to/lastmile_qr_scan"}, "name": "63d7babd9c16d1f19262ab0849f7f403", "lat": 38.906313833333336, "is_reserved": 0, "fusion_lon": 0.0, "fusion_lat": 0.0, "is_disabled": 0, "bike_id": "63d7babd9c16d1f19262ab0849f7f403", "lon": -77.006053}, {"type": "electric_scooter", "rental_uris": {"android": "https://dc.lft.to/lastmile_qr_scan", "ios": "https://dc.lft.to/lastmile_qr_scan"}, "name": "b107eda76164bf99c3019987e1504a0f", "lat": 38.924403833333336, "is_reserved": 0, "fusion_lon": 0.0, "fusion_lat": 0.0, "is_disabled": 0, "bike_id": "b107eda76164bf99c3019987e1504a0f", "lon": -77.02032366666667}, {"type": "electric_scooter", "rental_uris": {"android": "https://dc.lft.to/lastmile_qr_scan", "ios": "https://dc.lft.to/lastmile_qr_scan"}, "name": "ceeb576a7069cc987e912fd55734792c", "lat": 38.926127666666666, "is_reserved": 0, "fusion_lon": 0.0, "fusion_lat": 0.0, "is_disabled": 0, "bike_id": "ceeb576a7069cc987e912fd55734792c", "lon": -77.02159783333333}, {"type": "electric_scooter", "rental_uris": {"android": "https://dc.lft.to/lastmile_qr_scan", "ios": "https://dc.lft.to/lastmile_qr_scan"}, "name": "4a30cc3dc5680146ce6be1f01b071601", "lat": 38.8970825, "is_reserved": 0, "fusion_lon": 0.0, "fusion_lat": 0.0, "is_disabled": 0, "bike_id": "4a30cc3dc5680146ce6be1f01b071601", "lon": -76.99116516666666}, {"type": "electric_scooter", "rental_uris": {"android": "https://dc.lft.to/lastmile_qr_scan", "ios": "https://dc.lft.to/lastmile_qr_scan"}, "name": "8c5efaa543e9c1d661fd33dae59058f9", "lat": 38.9033, "is_reserved": 0, "fusion_lon": 0.0, "fusion_lat": 0.0, "is_disabled": 0, "bike_id": "8c5efaa543e9c1d661fd33dae59058f9", "lon": -76.975923}, {"type": "electric_scooter", "rental_uris": {"android": "https://dc.lft.to/lastmile_qr_scan", "ios": "https://dc.lft.to/lastmile_qr_scan"}, "name": "e02681cfd00c3668b646ca626b1226d2", "lat": 38.90397733333333, "is_reserved": 0, "fusion_lon": 0.0, "fusion_lat": 0.0, "is_disabled": 0, "bike_id": "e02681cfd00c3668b646ca626b1226d2", "lon": -77.00428216666667}, {"type": "electric_scooter", "rental_uris": {"android": "https://dc.lft.to/lastmile_qr_scan", "ios": "https://dc.lft.to/lastmile_qr_scan"}, "name": "0332f1e1e266f77d0c0f701309f04943", "lat": 38.950767666666664, "is_reserved": 0, "fusion_lon": 0.0, "fusion_lat": 0.0, "is_disabled": 0, "bike_id": "0332f1e1e266f77d0c0f701309f04943", "lon": -77.02982233333333}, {"type": "electric_scooter", "rental_uris": {"android": "https://dc.lft.to/lastmile_qr_scan", "ios": "https://dc.lft.to/lastmile_qr_scan"}, "name": "29b2f952a35b0a2df8eeeeb64d40a19f", "lat": 38.9232565, "is_reserved": 0, "fusion_lon": 0.0, "fusion_lat": 0.0, "is_disabled": 0, "bike_id": "29b2f952a35b0a2df8eeeeb64d40a19f", "lon": -77.01950583333333}, {"type": "electric_scooter", "rental_uris": {"android": "https://dc.lft.to/lastmile_qr_scan", "ios": "https://dc.lft.to/lastmile_qr_scan"}, "name": "a1a8f72b0e690f30a4c700136a64a23d", "lat": 38.90369716666667, "is_reserved": 0, "fusion_lon": 0.0, "fusion_lat": 0.0, "is_disabled": 0, "bike_id": "a1a8f72b0e690f30a4c700136a64a23d", "lon": -77.032095}, {"type": "electric_scooter", "rental_uris": {"android": "https://dc.lft.to/lastmile_qr_scan", "ios": "https://dc.lft.to/lastmile_qr_scan"}, "name": "4e153d5c61e1535b640b3358ea1964c6", "lat": 38.90879666666667, "is_reserved": 0, "fusion_lon": 0.0, "fusion_lat": 0.0, "is_disabled": 0, "bike_id": "4e153d5c61e1535b640b3358ea1964c6", "lon": -77.07524516666666}, {"type": "electric_bike", "rental_uris": {"android": "https://dc.lft.to/lastmile_qr_scan", "ios": "https://dc.lft.to/lastmile_qr_scan"}, "name": "9d43cfcbeedbfea747a9bd822889b805", "lat": 38.88270633333333, "is_reserved": 0, "fusion_lon": 0.0, "fusion_lat": 0.0, "is_disabled": 0, "bike_id": "9d43cfcbeedbfea747a9bd822889b805", "lon": -76.99659483333333}, {"type": "electric_scooter", "rental_uris": {"android": "https://dc.lft.to/lastmile_qr_scan", "ios": "https://dc.lft.to/lastmile_qr_scan"}, "name": "e58547923473ccc1b1fff879bf09e418", "lat": 38.90291916666666, "is_reserved": 0, "fusion_lon": 0.0, "fusion_lat": 0.0, "is_disabled": 0, "bike_id": "e58547923473ccc1b1fff879bf09e418", "lon": -77.03464233333334}, {"type": "electric_scooter", "rental_uris": {"android": "https://dc.lft.to/lastmile_qr_scan", "ios": "https://dc.lft.to/lastmile_qr_scan"}, "name": "bdb4d587d97d5fddc7e27c8efd886974", "lat": 38.96500733333333, "is_reserved": 0, "fusion_lon": 0.0, "fusion_lat": 0.0, "is_disabled": 0, "bike_id": "bdb4d587d97d5fddc7e27c8efd886974", "lon": -77.00257933333333}, {"type": "electric_scooter", "rental_uris": {"android": "https://dc.lft.to/lastmile_qr_scan", "ios": "https://dc.lft.to/lastmile_qr_scan"}, "name": "049ef4fffe8a87a633eb312e66768c49", "lat": 38.883414333333334, "is_reserved": 0, "fusion_lon": 0.0, "fusion_lat": 0.0, "is_disabled": 0, "bike_id": "049ef4fffe8a87a633eb312e66768c49", "lon": -76.94287916666667}, {"type": "electric_scooter", "rental_uris": {"android": "https://dc.lft.to/lastmile_qr_scan", "ios": "https://dc.lft.to/lastmile_qr_scan"}, "name": "f1be0de657ef66faff14c6399657bf81", "lat": 38.90087583333333, "is_reserved": 0, "fusion_lon": 0.0, "fusion_lat": 0.0, "is_disabled": 0, "bike_id": "f1be0de657ef66faff14c6399657bf81", "lon": -77.04698366666666}, {"type": "electric_bike", "rental_uris": {"android": "https://dc.lft.to/lastmile_qr_scan", "ios": "https://dc.lft.to/lastmile_qr_scan"}, "name": "1a50e25a1664256bb4de2bd364ce57c9", "lat": 38.8987975, "is_reserved": 0, "fusion_lon": 0.0, "fusion_lat": 0.0, "is_disabled": 0, "bike_id": "1a50e25a1664256bb4de2bd364ce57c9", "lon": -76.93184433333333}, {"type": "electric_scooter", "rental_uris": {"android": "https://dc.lft.to/lastmile_qr_scan", "ios": "https://dc.lft.to/lastmile_qr_scan"}, "name": "7914ce6200a5e30e6ae142ad85423a3e", "lat": 38.884433333333334, "is_reserved": 0, "fusion_lon": 0.0, "fusion_lat": 0.0, "is_disabled": 0, "bike_id": "7914ce6200a5e30e6ae142ad85423a3e", "lon": -77.02576983333333}, {"type": "electric_scooter", "rental_uris": {"android": "https://dc.lft.to/lastmile_qr_scan", "ios": "https://dc.lft.to/lastmile_qr_scan"}, "name": "3164baa9784ad4c32009072f7bc80fc3", "lat": 38.87936883333333, "is_reserved": 0, "fusion_lon": 0.0, "fusion_lat": 0.0, "is_disabled": 0, "bike_id": "3164baa9784ad4c32009072f7bc80fc3", "lon": -77.00376183333333}, {"type": "electric_scooter", "rental_uris": {"android": "https://dc.lft.to/lastmile_qr_scan", "ios": "https://dc.lft.to/lastmile_qr_scan"}, "name": "c462da1b99a8f6b9dada045e3c6ce48d", "lat": 38.91522333333333, "is_reserved": 0, "fusion_lon": 0.0, "fusion_lat": 0.0, "is_disabled": 0, "bike_id": "c462da1b99a8f6b9dada045e3c6ce48d", "lon": -77.01212216666667}, {"type": "electric_scooter", "rental_uris": {"android": "https://dc.lft.to/lastmile_qr_scan", "ios": "https://dc.lft.to/lastmile_qr_scan"}, "name": "b6363f4c962dd04424f4b12a85705a97", "lat": 38.92631133333333, "is_reserved": 0, "fusion_lon": 0.0, "fusion_lat": 0.0, "is_disabled": 0, "bike_id": "b6363f4c962dd04424f4b12a85705a97", "lon": -77.042469}, {"type": "electric_scooter", "rental_uris": {"android": "https://dc.lft.to/lastmile_qr_scan", "ios": "https://dc.lft.to/lastmile_qr_scan"}, "name": "20ea0f0aad7434cd114672651d954eda", "lat": 38.90359316666667, "is_reserved": 0, "fusion_lon": 0.0, "fusion_lat": 0.0, "is_disabled": 0, "bike_id": "20ea0f0aad7434cd114672651d954eda", "lon": -77.02200666666667}, {"type": "electric_scooter", "rental_uris": {"android": "https://dc.lft.to/lastmile_qr_scan", "ios": "https://dc.lft.to/lastmile_qr_scan"}, "name": "16e986dab1b7cb16a0b9d4a4f6f88e22", "lat": 38.87858266666667, "is_reserved": 0, "fusion_lon": 0.0, "fusion_lat": 0.0, "is_disabled": 0, "bike_id": "16e986dab1b7cb16a0b9d4a4f6f88e22", "lon": -77.01755833333333}, {"type": "electric_scooter", "rental_uris": {"android": "https://dc.lft.to/lastmile_qr_scan", "ios": "https://dc.lft.to/lastmile_qr_scan"}, "name": "0ac60ccfef05f10c193f375d1a2e669d", "lat": 38.88710016666667, "is_reserved": 0, "fusion_lon": 0.0, "fusion_lat": 0.0, "is_disabled": 0, "bike_id": "0ac60ccfef05f10c193f375d1a2e669d", "lon": -77.00245566666666}, {"type": "electric_scooter", "rental_uris": {"android": "https://dc.lft.to/lastmile_qr_scan", "ios": "https://dc.lft.to/lastmile_qr_scan"}, "name": "d7e17ab5b1b13c30a149a1ef7fdff234", "lat": 38.92438333333333, "is_reserved": 0, "fusion_lon": 0.0, "fusion_lat": 0.0, "is_disabled": 0, "bike_id": "d7e17ab5b1b13c30a149a1ef7fdff234", "lon": -77.01940383333333}, {"type": "electric_scooter", "rental_uris": {"android": "https://dc.lft.to/lastmile_qr_scan", "ios": "https://dc.lft.to/lastmile_qr_scan"}, "name": "313cc1fe11b8f6248dd12c55e4148541", "lat": 38.917223166666666, "is_reserved": 0, "fusion_lon": 0.0, "fusion_lat": 0.0, "is_disabled": 0, "bike_id": "313cc1fe11b8f6248dd12c55e4148541", "lon": -77.03138}, {"type": "electric_scooter", "rental_uris": {"android": "https://dc.lft.to/lastmile_qr_scan", "ios": "https://dc.lft.to/lastmile_qr_scan"}, "name": "163e8f9c0066cdaa9898d2e6f2e3c9a5", "lat": 38.925662833333334, "is_reserved": 0, "fusion_lon": 0.0, "fusion_lat": 0.0, "is_disabled": 0, "bike_id": "163e8f9c0066cdaa9898d2e6f2e3c9a5", "lon": -76.99957966666666}, {"type": "electric_scooter", "rental_uris": {"android": "https://dc.lft.to/lastmile_qr_scan", "ios": "https://dc.lft.to/lastmile_qr_scan"}, "name": "7ac69e05347c3be0e943299b35eddfd9", "lat": 38.90423066666666, "is_reserved": 0, "fusion_lon": 0.0, "fusion_lat": 0.0, "is_disabled": 0, "bike_id": "7ac69e05347c3be0e943299b35eddfd9", "lon": -77.02773916666666}, {"type": "electric_scooter", "rental_uris": {"android": "https://dc.lft.to/lastmile_qr_scan", "ios": "https://dc.lft.to/lastmile_qr_scan"}, "name": "078efd0312865243efc91847d2168f25", "lat": 38.923505, "is_reserved": 0, "fusion_lon": 0.0, "fusion_lat": 0.0, "is_disabled": 0, "bike_id": "078efd0312865243efc91847d2168f25", "lon": -77.04156633333334}, {"type": "electric_scooter", "rental_uris": {"android": "https://dc.lft.to/lastmile_qr_scan", "ios": "https://dc.lft.to/lastmile_qr_scan"}, "name": "7d6ddf3061da6ed1ef070b8d067d33cc", "lat": 38.881243, "is_reserved": 0, "fusion_lon": 0.0, "fusion_lat": 0.0, "is_disabled": 0, "bike_id": "7d6ddf3061da6ed1ef070b8d067d33cc", "lon": -76.99283633333333}, {"type": "electric_scooter", "rental_uris": {"android": "https://dc.lft.to/lastmile_qr_scan", "ios": "https://dc.lft.to/lastmile_qr_scan"}, "name": "b77a2a83b973b84de24e14a2624770f6", "lat": 38.89436966666667, "is_reserved": 0, "fusion_lon": 0.0, "fusion_lat": 0.0, "is_disabled": 0, "bike_id": "b77a2a83b973b84de24e14a2624770f6", "lon": -77.026365}, {"type": "electric_scooter", "rental_uris": {"android": "https://dc.lft.to/lastmile_qr_scan", "ios": "https://dc.lft.to/lastmile_qr_scan"}, "name": "cb06b8db4c22716fbb188b3633df9ae7", "lat": 38.92274833333333, "is_reserved": 0, "fusion_lon": 0.0, "fusion_lat": 0.0, "is_disabled": 0, "bike_id": "cb06b8db4c22716fbb188b3633df9ae7", "lon": -77.02131366666667}, {"type": "electric_scooter", "rental_uris": {"android": "https://dc.lft.to/lastmile_qr_scan", "ios": "https://dc.lft.to/lastmile_qr_scan"}, "name": "92f231f540d8ea87e93af8a10755212c", "lat": 38.918567, "is_reserved": 0, "fusion_lon": 0.0, "fusion_lat": 0.0, "is_disabled": 0, "bike_id": "92f231f540d8ea87e93af8a10755212c", "lon": -77.028071}, {"type": "electric_scooter", "rental_uris": {"android": "https://dc.lft.to/lastmile_qr_scan", "ios": "https://dc.lft.to/lastmile_qr_scan"}, "name": "ff928696218ca08e735355a98d043aa5", "lat": 38.887361, "is_reserved": 0, "fusion_lon": 0.0, "fusion_lat": 0.0, "is_disabled": 0, "bike_id": "ff928696218ca08e735355a98d043aa5", "lon": -77.01528933333333}, {"type": "electric_scooter", "rental_uris": {"android": "https://dc.lft.to/lastmile_qr_scan", "ios": "https://dc.lft.to/lastmile_qr_scan"}, "name": "1952baba338c3d26097393a57fab59e2", "lat": 38.8994985, "is_reserved": 0, "fusion_lon": 0.0, "fusion_lat": 0.0, "is_disabled": 0, "bike_id": "1952baba338c3d26097393a57fab59e2", "lon": -77.01448633333334}, {"type": "electric_scooter", "rental_uris": {"android": "https://dc.lft.to/lastmile_qr_scan", "ios": "https://dc.lft.to/lastmile_qr_scan"}, "name": "04c1d2c4f44083cfdabab044f712e2ed", "lat": 38.913296833333334, "is_reserved": 0, "fusion_lon": 0.0, "fusion_lat": 0.0, "is_disabled": 0, "bike_id": "04c1d2c4f44083cfdabab044f712e2ed", "lon": -77.04485483333333}, {"type": "electric_scooter", "rental_uris": {"android": "https://dc.lft.to/lastmile_qr_scan", "ios": "https://dc.lft.to/lastmile_qr_scan"}, "name": "a04100ef91e9cc9a7b79e50e262f44d9", "lat": 38.9018665, "is_reserved": 0, "fusion_lon": 0.0, "fusion_lat": 0.0, "is_disabled": 0, "bike_id": "a04100ef91e9cc9a7b79e50e262f44d9", "lon": -76.93000366666666}, {"type": "electric_scooter", "rental_uris": {"android": "https://dc.lft.to/lastmile_qr_scan", "ios": "https://dc.lft.to/lastmile_qr_scan"}, "name": "9dd8f1c1f0f6d3b2a5dc37117f141735", "lat": 38.902529333333334, "is_reserved": 0, "fusion_lon": 0.0, "fusion_lat": 0.0, "is_disabled": 0, "bike_id": "9dd8f1c1f0f6d3b2a5dc37117f141735", "lon": -77.02440516666667}, {"type": "electric_scooter", "rental_uris": {"android": "https://dc.lft.to/lastmile_qr_scan", "ios": "https://dc.lft.to/lastmile_qr_scan"}, "name": "4b747367a684dbe3a2fe13be7595ecf3", "lat": 38.8948195, "is_reserved": 0, "fusion_lon": 0.0, "fusion_lat": 0.0, "is_disabled": 0, "bike_id": "4b747367a684dbe3a2fe13be7595ecf3", "lon": -76.99571116666667}, {"type": "electric_scooter", "rental_uris": {"android": "https://dc.lft.to/lastmile_qr_scan", "ios": "https://dc.lft.to/lastmile_qr_scan"}, "name": "b997423aa0f09347043e0ae3315fb021", "lat": 38.9012885, "is_reserved": 0, "fusion_lon": 0.0, "fusion_lat": 0.0, "is_disabled": 0, "bike_id": "b997423aa0f09347043e0ae3315fb021", "lon": -77.03210933333334}, {"type": "electric_scooter", "rental_uris": {"android": "https://dc.lft.to/lastmile_qr_scan", "ios": "https://dc.lft.to/lastmile_qr_scan"}, "name": "d639ab4ebf1348b7a451568da8c7076b", "lat": 38.90690016666667, "is_reserved": 0, "fusion_lon": 0.0, "fusion_lat": 0.0, "is_disabled": 0, "bike_id": "d639ab4ebf1348b7a451568da8c7076b", "lon": -77.03812433333333}, {"type": "electric_scooter", "rental_uris": {"android": "https://dc.lft.to/lastmile_qr_scan", "ios": "https://dc.lft.to/lastmile_qr_scan"}, "name": "39098813a660f753b514145f0e40d9d7", "lat": 38.899739333333336, "is_reserved": 0, "fusion_lon": 0.0, "fusion_lat": 0.0, "is_disabled": 0, "bike_id": "39098813a660f753b514145f0e40d9d7", "lon": -76.98375983333334}, {"type": "electric_scooter", "rental_uris": {"android": "https://dc.lft.to/lastmile_qr_scan", "ios": "https://dc.lft.to/lastmile_qr_scan"}, "name": "60ca7d7f33d009036acd7327a3a37311", "lat": 38.922110333333336, "is_reserved": 0, "fusion_lon": 0.0, "fusion_lat": 0.0, "is_disabled": 0, "bike_id": "60ca7d7f33d009036acd7327a3a37311", "lon": -77.026559}, {"type": "electric_bike", "rental_uris": {"android": "https://dc.lft.to/lastmile_qr_scan", "ios": "https://dc.lft.to/lastmile_qr_scan"}, "name": "1cc367301d21d9222b53403aa4283444", "lat": 38.880134166666664, "is_reserved": 0, "fusion_lon": 0.0, "fusion_lat": 0.0, "is_disabled": 0, "bike_id": "1cc367301d21d9222b53403aa4283444", "lon": -77.02481733333333}, {"type": "electric_scooter", "rental_uris": {"android": "https://dc.lft.to/lastmile_qr_scan", "ios": "https://dc.lft.to/lastmile_qr_scan"}, "name": "00a66fe8c2517f0c740b8ce6985cb3b0", "lat": 38.909625166666665, "is_reserved": 0, "fusion_lon": 0.0, "fusion_lat": 0.0, "is_disabled": 0, "bike_id": "00a66fe8c2517f0c740b8ce6985cb3b0", "lon": -77.04823883333333}, {"type": "electric_scooter", "rental_uris": {"android": "https://dc.lft.to/lastmile_qr_scan", "ios": "https://dc.lft.to/lastmile_qr_scan"}, "name": "3e81f77a75298059c2d43dcf03665748", "lat": 38.929492833333335, "is_reserved": 0, "fusion_lon": 0.0, "fusion_lat": 0.0, "is_disabled": 0, "bike_id": "3e81f77a75298059c2d43dcf03665748", "lon": -77.0040735}, {"type": "electric_scooter", "rental_uris": {"android": "https://dc.lft.to/lastmile_qr_scan", "ios": "https://dc.lft.to/lastmile_qr_scan"}, "name": "381078b665d398d79123c7ef8b6865c6", "lat": 38.8903605, "is_reserved": 0, "fusion_lon": 0.0, "fusion_lat": 0.0, "is_disabled": 0, "bike_id": "381078b665d398d79123c7ef8b6865c6", "lon": -76.93753516666666}, {"type": "electric_scooter", "rental_uris": {"android": "https://dc.lft.to/lastmile_qr_scan", "ios": "https://dc.lft.to/lastmile_qr_scan"}, "name": "853f1e7bff56e2f9ded508ff2c381980", "lat": 38.88715583333333, "is_reserved": 0, "fusion_lon": 0.0, "fusion_lat": 0.0, "is_disabled": 0, "bike_id": "853f1e7bff56e2f9ded508ff2c381980", "lon": -77.02184466666667}, {"type": "electric_scooter", "rental_uris": {"android": "https://dc.lft.to/lastmile_qr_scan", "ios": "https://dc.lft.to/lastmile_qr_scan"}, "name": "76d82ba5ec8e319f3d061cd632deddd7", "lat": 38.88726183333333, "is_reserved": 0, "fusion_lon": 0.0, "fusion_lat": 0.0, "is_disabled": 0, "bike_id": "76d82ba5ec8e319f3d061cd632deddd7", "lon": -76.98353316666666}, {"type": "electric_scooter", "rental_uris": {"android": "https://dc.lft.to/lastmile_qr_scan", "ios": "https://dc.lft.to/lastmile_qr_scan"}, "name": "e2eb5014802c69992044023d99b89666", "lat": 38.920726333333334, "is_reserved": 0, "fusion_lon": 0.0, "fusion_lat": 0.0, "is_disabled": 0, "bike_id": "e2eb5014802c69992044023d99b89666", "lon": -77.02316266666666}, {"type": "electric_scooter", "rental_uris": {"android": "https://dc.lft.to/lastmile_qr_scan", "ios": "https://dc.lft.to/lastmile_qr_scan"}, "name": "1623b6496182ad602de34153e5163e0d", "lat": 38.8922, "is_reserved": 0, "fusion_lon": 0.0, "fusion_lat": 0.0, "is_disabled": 0, "bike_id": "1623b6496182ad602de34153e5163e0d", "lon": -77.02162416666667}, {"type": "electric_scooter", "rental_uris": {"android": "https://dc.lft.to/lastmile_qr_scan", "ios": "https://dc.lft.to/lastmile_qr_scan"}, "name": "56da766c951b4ca2691d1f3cc56d98d4", "lat": 38.89472766666667, "is_reserved": 0, "fusion_lon": 0.0, "fusion_lat": 0.0, "is_disabled": 0, "bike_id": "56da766c951b4ca2691d1f3cc56d98d4", "lon": -77.0098455}, {"type": "electric_scooter", "rental_uris": {"android": "https://dc.lft.to/lastmile_qr_scan", "ios": "https://dc.lft.to/lastmile_qr_scan"}, "name": "457dc53b2c11871d3edac07e5cc23960", "lat": 38.92360816666667, "is_reserved": 0, "fusion_lon": 0.0, "fusion_lat": 0.0, "is_disabled": 0, "bike_id": "457dc53b2c11871d3edac07e5cc23960", "lon": -77.0212015}, {"type": "electric_scooter", "rental_uris": {"android": "https://dc.lft.to/lastmile_qr_scan", "ios": "https://dc.lft.to/lastmile_qr_scan"}, "name": "1f3c94d047c0d933cd0ca1504dd9e718", "lat": 38.897201, "is_reserved": 0, "fusion_lon": 0.0, "fusion_lat": 0.0, "is_disabled": 0, "bike_id": "1f3c94d047c0d933cd0ca1504dd9e718", "lon": -77.026801}, {"type": "electric_scooter", "rental_uris": {"android": "https://dc.lft.to/lastmile_qr_scan", "ios": "https://dc.lft.to/lastmile_qr_scan"}, "name": "133c97d7c067f236839a2b9d9aa9703b", "lat": 38.899156166666664, "is_reserved": 0, "fusion_lon": 0.0, "fusion_lat": 0.0, "is_disabled": 0, "bike_id": "133c97d7c067f236839a2b9d9aa9703b", "lon": -77.04026833333333}, {"type": "electric_bike", "rental_uris": {"android": "https://dc.lft.to/lastmile_qr_scan", "ios": "https://dc.lft.to/lastmile_qr_scan"}, "name": "2e7754bb87a85443fd481c5a2faaf65b", "lat": 38.8578025, "is_reserved": 0, "fusion_lon": 0.0, "fusion_lat": 0.0, "is_disabled": 0, "bike_id": "2e7754bb87a85443fd481c5a2faaf65b", "lon": -76.9874955}, {"type": "electric_scooter", "rental_uris": {"android": "https://dc.lft.to/lastmile_qr_scan", "ios": "https://dc.lft.to/lastmile_qr_scan"}, "name": "0604a843b5609d92346bbdcf61bb2c2d", "lat": 38.92468433333333, "is_reserved": 0, "fusion_lon": 0.0, "fusion_lat": 0.0, "is_disabled": 0, "bike_id": "0604a843b5609d92346bbdcf61bb2c2d", "lon": -77.02110633333334}, {"type": "electric_scooter", "rental_uris": {"android": "https://dc.lft.to/lastmile_qr_scan", "ios": "https://dc.lft.to/lastmile_qr_scan"}, "name": "4a0f6fff7270cad9e83d85092d8417f6", "lat": 38.905574, "is_reserved": 0, "fusion_lon": 0.0, "fusion_lat": 0.0, "is_disabled": 0, "bike_id": "4a0f6fff7270cad9e83d85092d8417f6", "lon": -77.005523}, {"type": "electric_scooter", "rental_uris": {"android": "https://dc.lft.to/lastmile_qr_scan", "ios": "https://dc.lft.to/lastmile_qr_scan"}, "name": "0450ce40681022867f97f3fdf999ac41", "lat": 38.91716733333333, "is_reserved": 0, "fusion_lon": 0.0, "fusion_lat": 0.0, "is_disabled": 0, "bike_id": "0450ce40681022867f97f3fdf999ac41", "lon": -77.02890633333334}, {"type": "electric_scooter", "rental_uris": {"android": "https://dc.lft.to/lastmile_qr_scan", "ios": "https://dc.lft.to/lastmile_qr_scan"}, "name": "69bf1c1d228cd3afc115661afd075531", "lat": 38.90359383333333, "is_reserved": 0, "fusion_lon": 0.0, "fusion_lat": 0.0, "is_disabled": 0, "bike_id": "69bf1c1d228cd3afc115661afd075531", "lon": -77.0384385}, {"type": "electric_scooter", "rental_uris": {"android": "https://dc.lft.to/lastmile_qr_scan", "ios": "https://dc.lft.to/lastmile_qr_scan"}, "name": "447875f7d65b6f8d82d976e5f04a0d12", "lat": 38.920907666666665, "is_reserved": 0, "fusion_lon": 0.0, "fusion_lat": 0.0, "is_disabled": 0, "bike_id": "447875f7d65b6f8d82d976e5f04a0d12", "lon": -77.01786133333333}, {"type": "electric_scooter", "rental_uris": {"android": "https://dc.lft.to/lastmile_qr_scan", "ios": "https://dc.lft.to/lastmile_qr_scan"}, "name": "2a71c3420ff47c81756bd3181c1c9039", "lat": 38.9260315, "is_reserved": 0, "fusion_lon": 0.0, "fusion_lat": 0.0, "is_disabled": 0, "bike_id": "2a71c3420ff47c81756bd3181c1c9039", "lon": -77.021517}, {"type": "electric_bike", "rental_uris": {"android": "https://dc.lft.to/lastmile_qr_scan", "ios": "https://dc.lft.to/lastmile_qr_scan"}, "name": "aed4a6f9939bc70a63cf4c9abe14b19f", "lat": 38.9397205, "is_reserved": 0, "fusion_lon": 0.0, "fusion_lat": 0.0, "is_disabled": 0, "bike_id": "aed4a6f9939bc70a63cf4c9abe14b19f", "lon": -76.98612233333333}, {"type": "electric_scooter", "rental_uris": {"android": "https://dc.lft.to/lastmile_qr_scan", "ios": "https://dc.lft.to/lastmile_qr_scan"}, "name": "7722189c5cea37bd39aef6ff53abc422", "lat": 38.903471833333334, "is_reserved": 0, "fusion_lon": 0.0, "fusion_lat": 0.0, "is_disabled": 0, "bike_id": "7722189c5cea37bd39aef6ff53abc422", "lon": -77.03239783333333}, {"type": "electric_scooter", "rental_uris": {"android": "https://dc.lft.to/lastmile_qr_scan", "ios": "https://dc.lft.to/lastmile_qr_scan"}, "name": "fa0e0c2d7c8f6a6b1d55d2a61247be38", "lat": 38.893636666666666, "is_reserved": 0, "fusion_lon": 0.0, "fusion_lat": 0.0, "is_disabled": 0, "bike_id": "fa0e0c2d7c8f6a6b1d55d2a61247be38", "lon": -77.0006565}, {"type": "electric_scooter", "rental_uris": {"android": "https://dc.lft.to/lastmile_qr_scan", "ios": "https://dc.lft.to/lastmile_qr_scan"}, "name": "50a39bc62d2718b6bc9b7eb7ccc9ad0c", "lat": 38.923564999999996, "is_reserved": 0, "fusion_lon": 0.0, "fusion_lat": 0.0, "is_disabled": 0, "bike_id": "50a39bc62d2718b6bc9b7eb7ccc9ad0c", "lon": -77.01919}, {"type": "electric_scooter", "rental_uris": {"android": "https://dc.lft.to/lastmile_qr_scan", "ios": "https://dc.lft.to/lastmile_qr_scan"}, "name": "06810ee74b8e5a709c6cd2a8a353d7ba", "lat": 38.949788, "is_reserved": 0, "fusion_lon": 0.0, "fusion_lat": 0.0, "is_disabled": 0, "bike_id": "06810ee74b8e5a709c6cd2a8a353d7ba", "lon": -77.02017333333333}, {"type": "electric_scooter", "rental_uris": {"android": "https://dc.lft.to/lastmile_qr_scan", "ios": "https://dc.lft.to/lastmile_qr_scan"}, "name": "002a3335eefcb938302c58077f3fddef", "lat": 38.903465833333335, "is_reserved": 0, "fusion_lon": 0.0, "fusion_lat": 0.0, "is_disabled": 0, "bike_id": "002a3335eefcb938302c58077f3fddef", "lon": -77.0260565}, {"type": "electric_scooter", "rental_uris": {"android": "https://dc.lft.to/lastmile_qr_scan", "ios": "https://dc.lft.to/lastmile_qr_scan"}, "name": "841ccb7195fd0c4884f224ce2b1e9368", "lat": 38.90385716666667, "is_reserved": 0, "fusion_lon": 0.0, "fusion_lat": 0.0, "is_disabled": 0, "bike_id": "841ccb7195fd0c4884f224ce2b1e9368", "lon": -77.04150216666666}, {"type": "electric_scooter", "rental_uris": {"android": "https://dc.lft.to/lastmile_qr_scan", "ios": "https://dc.lft.to/lastmile_qr_scan"}, "name": "cf4b951d2ef663a9f8069c9520cc2cb9", "lat": 38.90524033333333, "is_reserved": 0, "fusion_lon": 0.0, "fusion_lat": 0.0, "is_disabled": 0, "bike_id": "cf4b951d2ef663a9f8069c9520cc2cb9", "lon": -76.98401616666666}, {"type": "electric_scooter", "rental_uris": {"android": "https://dc.lft.to/lastmile_qr_scan", "ios": "https://dc.lft.to/lastmile_qr_scan"}, "name": "4fda42660edd6ba9fa14bd03a2997916", "lat": 38.910355833333334, "is_reserved": 0, "fusion_lon": 0.0, "fusion_lat": 0.0, "is_disabled": 0, "bike_id": "4fda42660edd6ba9fa14bd03a2997916", "lon": -77.01103033333334}, {"type": "electric_scooter", "rental_uris": {"android": "https://dc.lft.to/lastmile_qr_scan", "ios": "https://dc.lft.to/lastmile_qr_scan"}, "name": "628d02670c24021616ae31ff6150262e", "lat": 38.9346415, "is_reserved": 0, "fusion_lon": 0.0, "fusion_lat": 0.0, "is_disabled": 0, "bike_id": "628d02670c24021616ae31ff6150262e", "lon": -77.0580695}, {"type": "electric_scooter", "rental_uris": {"android": "https://dc.lft.to/lastmile_qr_scan", "ios": "https://dc.lft.to/lastmile_qr_scan"}, "name": "8cb1b7fe23487c415a40fddd5f21cabd", "lat": 38.9260155, "is_reserved": 0, "fusion_lon": 0.0, "fusion_lat": 0.0, "is_disabled": 0, "bike_id": "8cb1b7fe23487c415a40fddd5f21cabd", "lon": -77.02153166666666}, {"type": "electric_scooter", "rental_uris": {"android": "https://dc.lft.to/lastmile_qr_scan", "ios": "https://dc.lft.to/lastmile_qr_scan"}, "name": "24a2f86004befd7ad7cb49ed561c827d", "lat": 38.909661, "is_reserved": 0, "fusion_lon": 0.0, "fusion_lat": 0.0, "is_disabled": 0, "bike_id": "24a2f86004befd7ad7cb49ed561c827d", "lon": -77.03217533333333}, {"type": "electric_scooter", "rental_uris": {"android": "https://dc.lft.to/lastmile_qr_scan", "ios": "https://dc.lft.to/lastmile_qr_scan"}, "name": "4a33c0b1c12a1add6e1edc835bc4e3b1", "lat": 38.934238666666666, "is_reserved": 0, "fusion_lon": 0.0, "fusion_lat": 0.0, "is_disabled": 0, "bike_id": "4a33c0b1c12a1add6e1edc835bc4e3b1", "lon": -77.03998716666666}, {"type": "electric_bike", "rental_uris": {"android": "https://dc.lft.to/lastmile_qr_scan", "ios": "https://dc.lft.to/lastmile_qr_scan"}, "name": "1212c70187eb752b65c02a380a8601ba", "lat": 38.950848666666666, "is_reserved": 0, "fusion_lon": 0.0, "fusion_lat": 0.0, "is_disabled": 0, "bike_id": "1212c70187eb752b65c02a380a8601ba", "lon": -76.99791783333333}, {"type": "electric_scooter", "rental_uris": {"android": "https://dc.lft.to/lastmile_qr_scan", "ios": "https://dc.lft.to/lastmile_qr_scan"}, "name": "497ee929a386be952a9557f0b8ad86cf", "lat": 38.920618, "is_reserved": 0, "fusion_lon": 0.0, "fusion_lat": 0.0, "is_disabled": 0, "bike_id": "497ee929a386be952a9557f0b8ad86cf", "lon": -77.02300766666667}, {"type": "electric_scooter", "rental_uris": {"android": "https://dc.lft.to/lastmile_qr_scan", "ios": "https://dc.lft.to/lastmile_qr_scan"}, "name": "bdb1dd3a1f58f511f97292e2d6fa9b57", "lat": 38.92063066666667, "is_reserved": 0, "fusion_lon": 0.0, "fusion_lat": 0.0, "is_disabled": 0, "bike_id": "bdb1dd3a1f58f511f97292e2d6fa9b57", "lon": -77.02301866666667}, {"type": "electric_scooter", "rental_uris": {"android": "https://dc.lft.to/lastmile_qr_scan", "ios": "https://dc.lft.to/lastmile_qr_scan"}, "name": "00ce0f1691d3f1558c38eb4e9e1e7a8d", "lat": 38.937498, "is_reserved": 0, "fusion_lon": 0.0, "fusion_lat": 0.0, "is_disabled": 0, "bike_id": "00ce0f1691d3f1558c38eb4e9e1e7a8d", "lon": -77.024416}, {"type": "electric_scooter", "rental_uris": {"android": "https://dc.lft.to/lastmile_qr_scan", "ios": "https://dc.lft.to/lastmile_qr_scan"}, "name": "9130337a60af9473a8e712d5984a73e1", "lat": 38.902275, "is_reserved": 0, "fusion_lon": 0.0, "fusion_lat": 0.0, "is_disabled": 0, "bike_id": "9130337a60af9473a8e712d5984a73e1", "lon": -77.01716766666667}, {"type": "electric_scooter", "rental_uris": {"android": "https://dc.lft.to/lastmile_qr_scan", "ios": "https://dc.lft.to/lastmile_qr_scan"}, "name": "9252eb45f8d612f42bb076f6c8b00813", "lat": 38.90193416666666, "is_reserved": 0, "fusion_lon": 0.0, "fusion_lat": 0.0, "is_disabled": 0, "bike_id": "9252eb45f8d612f42bb076f6c8b00813", "lon": -77.061215}, {"type": "electric_scooter", "rental_uris": {"android": "https://dc.lft.to/lastmile_qr_scan", "ios": "https://dc.lft.to/lastmile_qr_scan"}, "name": "152feace6f7eb511267b71c20df7ce6e", "lat": 38.9237435, "is_reserved": 0, "fusion_lon": 0.0, "fusion_lat": 0.0, "is_disabled": 0, "bike_id": "152feace6f7eb511267b71c20df7ce6e", "lon": -77.029026}, {"type": "electric_scooter", "rental_uris": {"android": "https://dc.lft.to/lastmile_qr_scan", "ios": "https://dc.lft.to/lastmile_qr_scan"}, "name": "fa2f372e044066bb336694812af1fb66", "lat": 38.91097716666667, "is_reserved": 0, "fusion_lon": 0.0, "fusion_lat": 0.0, "is_disabled": 0, "bike_id": "fa2f372e044066bb336694812af1fb66", "lon": -77.03206283333333}, {"type": "electric_scooter", "rental_uris": {"android": "https://dc.lft.to/lastmile_qr_scan", "ios": "https://dc.lft.to/lastmile_qr_scan"}, "name": "794d268aec7dc1a2cc0f164f8de1c23a", "lat": 38.90959083333333, "is_reserved": 0, "fusion_lon": 0.0, "fusion_lat": 0.0, "is_disabled": 0, "bike_id": "794d268aec7dc1a2cc0f164f8de1c23a", "lon": -77.02438583333333}, {"type": "electric_scooter", "rental_uris": {"android": "https://dc.lft.to/lastmile_qr_scan", "ios": "https://dc.lft.to/lastmile_qr_scan"}, "name": "3a89de22bb5e570e348e7f5e560151af", "lat": 38.904359666666664, "is_reserved": 0, "fusion_lon": 0.0, "fusion_lat": 0.0, "is_disabled": 0, "bike_id": "3a89de22bb5e570e348e7f5e560151af", "lon": -77.0215885}, {"type": "electric_scooter", "rental_uris": {"android": "https://dc.lft.to/lastmile_qr_scan", "ios": "https://dc.lft.to/lastmile_qr_scan"}, "name": "42c2477839e2dc17703ec54ec0130678", "lat": 38.96417833333334, "is_reserved": 0, "fusion_lon": 0.0, "fusion_lat": 0.0, "is_disabled": 0, "bike_id": "42c2477839e2dc17703ec54ec0130678", "lon": -77.0325365}, {"type": "electric_scooter", "rental_uris": {"android": "https://dc.lft.to/lastmile_qr_scan", "ios": "https://dc.lft.to/lastmile_qr_scan"}, "name": "c84ce12c0db0946f4dc18673aba5b3af", "lat": 38.91994016666666, "is_reserved": 0, "fusion_lon": 0.0, "fusion_lat": 0.0, "is_disabled": 0, "bike_id": "c84ce12c0db0946f4dc18673aba5b3af", "lon": -77.01786216666666}, {"type": "electric_bike", "rental_uris": {"android": "https://dc.lft.to/lastmile_qr_scan", "ios": "https://dc.lft.to/lastmile_qr_scan"}, "name": "76ef044af21d1b2711ba1b9521381c6d", "lat": 39.0843375, "is_reserved": 0, "fusion_lon": 0.0, "fusion_lat": 0.0, "is_disabled": 0, "bike_id": "76ef044af21d1b2711ba1b9521381c6d", "lon": -76.95147266666666}, {"type": "electric_scooter", "rental_uris": {"android": "https://dc.lft.to/lastmile_qr_scan", "ios": "https://dc.lft.to/lastmile_qr_scan"}, "name": "7563b74cb5dcbbdce144edaf12e4d5fb", "lat": 38.88660766666667, "is_reserved": 0, "fusion_lon": 0.0, "fusion_lat": 0.0, "is_disabled": 0, "bike_id": "7563b74cb5dcbbdce144edaf12e4d5fb", "lon": -76.93674733333333}, {"type": "electric_scooter", "rental_uris": {"android": "https://dc.lft.to/lastmile_qr_scan", "ios": "https://dc.lft.to/lastmile_qr_scan"}, "name": "48c66ebb6c1c9ade5cf20eb3be3f69f2", "lat": 38.919223833333334, "is_reserved": 0, "fusion_lon": 0.0, "fusion_lat": 0.0, "is_disabled": 0, "bike_id": "48c66ebb6c1c9ade5cf20eb3be3f69f2", "lon": -77.00992066666667}, {"type": "electric_scooter", "rental_uris": {"android": "https://dc.lft.to/lastmile_qr_scan", "ios": "https://dc.lft.to/lastmile_qr_scan"}, "name": "5c3311ecfb5426dddf512a4d24ed208c", "lat": 38.91855833333334, "is_reserved": 0, "fusion_lon": 0.0, "fusion_lat": 0.0, "is_disabled": 0, "bike_id": "5c3311ecfb5426dddf512a4d24ed208c", "lon": -77.0253605}, {"type": "electric_scooter", "rental_uris": {"android": "https://dc.lft.to/lastmile_qr_scan", "ios": "https://dc.lft.to/lastmile_qr_scan"}, "name": "58a63340bfb7f9a0b31309a4be07891d", "lat": 38.899898, "is_reserved": 0, "fusion_lon": 0.0, "fusion_lat": 0.0, "is_disabled": 0, "bike_id": "58a63340bfb7f9a0b31309a4be07891d", "lon": -77.03352066666666}, {"type": "electric_scooter", "rental_uris": {"android": "https://dc.lft.to/lastmile_qr_scan", "ios": "https://dc.lft.to/lastmile_qr_scan"}, "name": "bc4dae371a8d4faaec653c3b37c1df90", "lat": 38.902652333333336, "is_reserved": 0, "fusion_lon": 0.0, "fusion_lat": 0.0, "is_disabled": 0, "bike_id": "bc4dae371a8d4faaec653c3b37c1df90", "lon": -77.04604083333334}, {"type": "electric_scooter", "rental_uris": {"android": "https://dc.lft.to/lastmile_qr_scan", "ios": "https://dc.lft.to/lastmile_qr_scan"}, "name": "10bcebf452d6ddbc11621e0023e56e40", "lat": 38.91993633333333, "is_reserved": 0, "fusion_lon": 0.0, "fusion_lat": 0.0, "is_disabled": 0, "bike_id": "10bcebf452d6ddbc11621e0023e56e40", "lon": -77.017918}, {"type": "electric_scooter", "rental_uris": {"android": "https://dc.lft.to/lastmile_qr_scan", "ios": "https://dc.lft.to/lastmile_qr_scan"}, "name": "6ce7c69892a7790aac8dc252c6657217", "lat": 38.89265116666667, "is_reserved": 0, "fusion_lon": 0.0, "fusion_lat": 0.0, "is_disabled": 0, "bike_id": "6ce7c69892a7790aac8dc252c6657217", "lon": -77.042042}, {"type": "electric_scooter", "rental_uris": {"android": "https://dc.lft.to/lastmile_qr_scan", "ios": "https://dc.lft.to/lastmile_qr_scan"}, "name": "57f6d16d103e5700b7b94b5f8b166574", "lat": 38.924519833333335, "is_reserved": 0, "fusion_lon": 0.0, "fusion_lat": 0.0, "is_disabled": 0, "bike_id": "57f6d16d103e5700b7b94b5f8b166574", "lon": -77.02158783333333}, {"type": "electric_scooter", "rental_uris": {"android": "https://dc.lft.to/lastmile_qr_scan", "ios": "https://dc.lft.to/lastmile_qr_scan"}, "name": "d93a5c36cc3eebc7e151028c4bc0b18a", "lat": 38.908501666666666, "is_reserved": 0, "fusion_lon": 0.0, "fusion_lat": 0.0, "is_disabled": 0, "bike_id": "d93a5c36cc3eebc7e151028c4bc0b18a", "lon": -76.99802383333333}, {"type": "electric_scooter", "rental_uris": {"android": "https://dc.lft.to/lastmile_qr_scan", "ios": "https://dc.lft.to/lastmile_qr_scan"}, "name": "6e2ab6ea28adef0370f824bc6975ddf1", "lat": 38.90401216666667, "is_reserved": 0, "fusion_lon": 0.0, "fusion_lat": 0.0, "is_disabled": 0, "bike_id": "6e2ab6ea28adef0370f824bc6975ddf1", "lon": -77.04320366666667}, {"type": "electric_bike", "rental_uris": {"android": "https://dc.lft.to/lastmile_qr_scan", "ios": "https://dc.lft.to/lastmile_qr_scan"}, "name": "c2cfbd18e02fbf400c049d7eee78a827", "lat": 38.9453595, "is_reserved": 0, "fusion_lon": 0.0, "fusion_lat": 0.0, "is_disabled": 0, "bike_id": "c2cfbd18e02fbf400c049d7eee78a827", "lon": -77.34462433333333}, {"type": "electric_scooter", "rental_uris": {"android": "https://dc.lft.to/lastmile_qr_scan", "ios": "https://dc.lft.to/lastmile_qr_scan"}, "name": "c17ffe4d7a97a7f7d968ca840fccf12e", "lat": 38.9225725, "is_reserved": 0, "fusion_lon": 0.0, "fusion_lat": 0.0, "is_disabled": 0, "bike_id": "c17ffe4d7a97a7f7d968ca840fccf12e", "lon": -77.03524266666666}, {"type": "electric_scooter", "rental_uris": {"android": "https://dc.lft.to/lastmile_qr_scan", "ios": "https://dc.lft.to/lastmile_qr_scan"}, "name": "b29d7aac0910733dcaab45552ae8dbce", "lat": 38.91502333333333, "is_reserved": 0, "fusion_lon": 0.0, "fusion_lat": 0.0, "is_disabled": 0, "bike_id": "b29d7aac0910733dcaab45552ae8dbce", "lon": -76.98365883333334}, {"type": "electric_scooter", "rental_uris": {"android": "https://dc.lft.to/lastmile_qr_scan", "ios": "https://dc.lft.to/lastmile_qr_scan"}, "name": "e59c4dbbeb6e550bcdfa4ca1acd7b8ba", "lat": 38.914164666666665, "is_reserved": 0, "fusion_lon": 0.0, "fusion_lat": 0.0, "is_disabled": 0, "bike_id": "e59c4dbbeb6e550bcdfa4ca1acd7b8ba", "lon": -77.03171133333333}, {"type": "electric_scooter", "rental_uris": {"android": "https://dc.lft.to/lastmile_qr_scan", "ios": "https://dc.lft.to/lastmile_qr_scan"}, "name": "cb456a767affbc9469b09e149599daff", "lat": 38.91977983333334, "is_reserved": 0, "fusion_lon": 0.0, "fusion_lat": 0.0, "is_disabled": 0, "bike_id": "cb456a767affbc9469b09e149599daff", "lon": -77.01799466666667}, {"type": "electric_scooter", "rental_uris": {"android": "https://dc.lft.to/lastmile_qr_scan", "ios": "https://dc.lft.to/lastmile_qr_scan"}, "name": "f71b78dd325d2f38bc4395279484acf7", "lat": 38.926185333333336, "is_reserved": 0, "fusion_lon": 0.0, "fusion_lat": 0.0, "is_disabled": 0, "bike_id": "f71b78dd325d2f38bc4395279484acf7", "lon": -77.0223105}, {"type": "electric_scooter", "rental_uris": {"android": "https://dc.lft.to/lastmile_qr_scan", "ios": "https://dc.lft.to/lastmile_qr_scan"}, "name": "a69e28535c303a409c47e6d93a553ce5", "lat": 38.92543, "is_reserved": 0, "fusion_lon": 0.0, "fusion_lat": 0.0, "is_disabled": 0, "bike_id": "a69e28535c303a409c47e6d93a553ce5", "lon": -77.0406345}, {"type": "electric_scooter", "rental_uris": {"android": "https://dc.lft.to/lastmile_qr_scan", "ios": "https://dc.lft.to/lastmile_qr_scan"}, "name": "b6040a82fdc4df2d7289220687631aa4", "lat": 38.898372333333334, "is_reserved": 0, "fusion_lon": 0.0, "fusion_lat": 0.0, "is_disabled": 0, "bike_id": "b6040a82fdc4df2d7289220687631aa4", "lon": -77.033263}, {"type": "electric_scooter", "rental_uris": {"android": "https://dc.lft.to/lastmile_qr_scan", "ios": "https://dc.lft.to/lastmile_qr_scan"}, "name": "250c14fe799c710db4937643e6ed87b1", "lat": 38.92029383333333, "is_reserved": 0, "fusion_lon": 0.0, "fusion_lat": 0.0, "is_disabled": 0, "bike_id": "250c14fe799c710db4937643e6ed87b1", "lon": -77.01030716666666}, {"type": "electric_bike", "rental_uris": {"android": "https://dc.lft.to/lastmile_qr_scan", "ios": "https://dc.lft.to/lastmile_qr_scan"}, "name": "07ff06e04b89ac7b52cab99362f3228e", "lat": 38.99667316666667, "is_reserved": 0, "fusion_lon": 0.0, "fusion_lat": 0.0, "is_disabled": 0, "bike_id": "07ff06e04b89ac7b52cab99362f3228e", "lon": -77.03784983333334}, {"type": "electric_scooter", "rental_uris": {"android": "https://dc.lft.to/lastmile_qr_scan", "ios": "https://dc.lft.to/lastmile_qr_scan"}, "name": "60289481a400c5d2efd98d1ca1448042", "lat": 38.88715466666667, "is_reserved": 0, "fusion_lon": 0.0, "fusion_lat": 0.0, "is_disabled": 0, "bike_id": "60289481a400c5d2efd98d1ca1448042", "lon": -77.02186633333334}, {"type": "electric_scooter", "rental_uris": {"android": "https://dc.lft.to/lastmile_qr_scan", "ios": "https://dc.lft.to/lastmile_qr_scan"}, "name": "4494f147be162b3d06a3a9d5c02769a6", "lat": 38.8995225, "is_reserved": 0, "fusion_lon": 0.0, "fusion_lat": 0.0, "is_disabled": 0, "bike_id": "4494f147be162b3d06a3a9d5c02769a6", "lon": -77.01599483333334}, {"type": "electric_scooter", "rental_uris": {"android": "https://dc.lft.to/lastmile_qr_scan", "ios": "https://dc.lft.to/lastmile_qr_scan"}, "name": "850155de5543f72fd88b793658f2a010", "lat": 38.903722333333334, "is_reserved": 0, "fusion_lon": 0.0, "fusion_lat": 0.0, "is_disabled": 0, "bike_id": "850155de5543f72fd88b793658f2a010", "lon": -77.03193516666667}, {"type": "electric_scooter", "rental_uris": {"android": "https://dc.lft.to/lastmile_qr_scan", "ios": "https://dc.lft.to/lastmile_qr_scan"}, "name": "f57124052a81ada1722edf9b7b5ba94e", "lat": 38.933837, "is_reserved": 0, "fusion_lon": 0.0, "fusion_lat": 0.0, "is_disabled": 0, "bike_id": "f57124052a81ada1722edf9b7b5ba94e", "lon": -77.0325075}, {"type": "electric_scooter", "rental_uris": {"android": "https://dc.lft.to/lastmile_qr_scan", "ios": "https://dc.lft.to/lastmile_qr_scan"}, "name": "ce1deeb0bce14e7157fb3aa4a30d9faf", "lat": 38.90027883333333, "is_reserved": 0, "fusion_lon": 0.0, "fusion_lat": 0.0, "is_disabled": 0, "bike_id": "ce1deeb0bce14e7157fb3aa4a30d9faf", "lon": -77.01138483333334}, {"type": "electric_scooter", "rental_uris": {"android": "https://dc.lft.to/lastmile_qr_scan", "ios": "https://dc.lft.to/lastmile_qr_scan"}, "name": "69a5c252483b7cb4f0f238d8f6d536e9", "lat": 38.92466, "is_reserved": 0, "fusion_lon": 0.0, "fusion_lat": 0.0, "is_disabled": 0, "bike_id": "69a5c252483b7cb4f0f238d8f6d536e9", "lon": -77.0220335}, {"type": "electric_scooter", "rental_uris": {"android": "https://dc.lft.to/lastmile_qr_scan", "ios": "https://dc.lft.to/lastmile_qr_scan"}, "name": "c44a3d679db4e729fb527009af57062f", "lat": 38.904226, "is_reserved": 0, "fusion_lon": 0.0, "fusion_lat": 0.0, "is_disabled": 0, "bike_id": "c44a3d679db4e729fb527009af57062f", "lon": -77.02593783333333}, {"type": "electric_scooter", "rental_uris": {"android": "https://dc.lft.to/lastmile_qr_scan", "ios": "https://dc.lft.to/lastmile_qr_scan"}, "name": "25e43d2a5f5922535c9db359ca2305cf", "lat": 38.921732166666665, "is_reserved": 0, "fusion_lon": 0.0, "fusion_lat": 0.0, "is_disabled": 0, "bike_id": "25e43d2a5f5922535c9db359ca2305cf", "lon": -77.0184635}, {"type": "electric_scooter", "rental_uris": {"android": "https://dc.lft.to/lastmile_qr_scan", "ios": "https://dc.lft.to/lastmile_qr_scan"}, "name": "f86325a2a60267e85204dffae2dd95d8", "lat": 38.90576016666667, "is_reserved": 0, "fusion_lon": 0.0, "fusion_lat": 0.0, "is_disabled": 0, "bike_id": "f86325a2a60267e85204dffae2dd95d8", "lon": -77.04536983333334}, {"type": "electric_scooter", "rental_uris": {"android": "https://dc.lft.to/lastmile_qr_scan", "ios": "https://dc.lft.to/lastmile_qr_scan"}, "name": "201c5403b7fb5103794dd54c5f0efab8", "lat": 38.89259633333333, "is_reserved": 0, "fusion_lon": 0.0, "fusion_lat": 0.0, "is_disabled": 0, "bike_id": "201c5403b7fb5103794dd54c5f0efab8", "lon": -77.0021655}, {"type": "electric_scooter", "rental_uris": {"android": "https://dc.lft.to/lastmile_qr_scan", "ios": "https://dc.lft.to/lastmile_qr_scan"}, "name": "3540e8f9ff25b65b79b2cead34be1f0f", "lat": 38.8796395, "is_reserved": 0, "fusion_lon": 0.0, "fusion_lat": 0.0, "is_disabled": 0, "bike_id": "3540e8f9ff25b65b79b2cead34be1f0f", "lon": -77.02414316666666}, {"type": "electric_scooter", "rental_uris": {"android": "https://dc.lft.to/lastmile_qr_scan", "ios": "https://dc.lft.to/lastmile_qr_scan"}, "name": "0161e63cfbdcb9d87727e3bf0f423ed0", "lat": 38.92787783333333, "is_reserved": 0, "fusion_lon": 0.0, "fusion_lat": 0.0, "is_disabled": 0, "bike_id": "0161e63cfbdcb9d87727e3bf0f423ed0", "lon": -77.02315733333333}, {"type": "electric_scooter", "rental_uris": {"android": "https://dc.lft.to/lastmile_qr_scan", "ios": "https://dc.lft.to/lastmile_qr_scan"}, "name": "7c83d1cd9bb4ed12ccae220df8d4bc02", "lat": 38.9127095, "is_reserved": 0, "fusion_lon": 0.0, "fusion_lat": 0.0, "is_disabled": 0, "bike_id": "7c83d1cd9bb4ed12ccae220df8d4bc02", "lon": -77.02225033333333}, {"type": "electric_scooter", "rental_uris": {"android": "https://dc.lft.to/lastmile_qr_scan", "ios": "https://dc.lft.to/lastmile_qr_scan"}, "name": "2df2b34cbf35d225af9684a48dac2bec", "lat": 38.86867633333333, "is_reserved": 0, "fusion_lon": 0.0, "fusion_lat": 0.0, "is_disabled": 0, "bike_id": "2df2b34cbf35d225af9684a48dac2bec", "lon": -76.986582}, {"type": "electric_scooter", "rental_uris": {"android": "https://dc.lft.to/lastmile_qr_scan", "ios": "https://dc.lft.to/lastmile_qr_scan"}, "name": "9b0faecf73d6113b9e43344e6de972b9", "lat": 38.90552516666666, "is_reserved": 0, "fusion_lon": 0.0, "fusion_lat": 0.0, "is_disabled": 0, "bike_id": "9b0faecf73d6113b9e43344e6de972b9", "lon": -77.034742}, {"type": "electric_scooter", "rental_uris": {"android": "https://dc.lft.to/lastmile_qr_scan", "ios": "https://dc.lft.to/lastmile_qr_scan"}, "name": "acc59f777a242e364b5e836d2b84e36c", "lat": 38.92459733333333, "is_reserved": 0, "fusion_lon": 0.0, "fusion_lat": 0.0, "is_disabled": 0, "bike_id": "acc59f777a242e364b5e836d2b84e36c", "lon": -77.02697633333334}, {"type": "electric_scooter", "rental_uris": {"android": "https://dc.lft.to/lastmile_qr_scan", "ios": "https://dc.lft.to/lastmile_qr_scan"}, "name": "5427f9a801a18743beb36d079116880b", "lat": 38.89622633333333, "is_reserved": 0, "fusion_lon": 0.0, "fusion_lat": 0.0, "is_disabled": 0, "bike_id": "5427f9a801a18743beb36d079116880b", "lon": -76.9984795}, {"type": "electric_scooter", "rental_uris": {"android": "https://dc.lft.to/lastmile_qr_scan", "ios": "https://dc.lft.to/lastmile_qr_scan"}, "name": "f906a7b727c9f95feddb9e7652f46ce1", "lat": 38.885952833333334, "is_reserved": 0, "fusion_lon": 0.0, "fusion_lat": 0.0, "is_disabled": 0, "bike_id": "f906a7b727c9f95feddb9e7652f46ce1", "lon": -77.00577166666666}, {"type": "electric_scooter", "rental_uris": {"android": "https://dc.lft.to/lastmile_qr_scan", "ios": "https://dc.lft.to/lastmile_qr_scan"}, "name": "93c91afa167fd7a7036b443bd6e201b0", "lat": 38.860183, "is_reserved": 0, "fusion_lon": 0.0, "fusion_lat": 0.0, "is_disabled": 0, "bike_id": "93c91afa167fd7a7036b443bd6e201b0", "lon": -76.969993}, {"type": "electric_scooter", "rental_uris": {"android": "https://dc.lft.to/lastmile_qr_scan", "ios": "https://dc.lft.to/lastmile_qr_scan"}, "name": "dec7257adf62eb72b720edc95f5dbb95", "lat": 38.966804333333336, "is_reserved": 0, "fusion_lon": 0.0, "fusion_lat": 0.0, "is_disabled": 0, "bike_id": "dec7257adf62eb72b720edc95f5dbb95", "lon": -77.03611116666667}, {"type": "electric_scooter", "rental_uris": {"android": "https://dc.lft.to/lastmile_qr_scan", "ios": "https://dc.lft.to/lastmile_qr_scan"}, "name": "8e6e22d8ba562a505e97cc86b1bcf026", "lat": 38.958817333333336, "is_reserved": 0, "fusion_lon": 0.0, "fusion_lat": 0.0, "is_disabled": 0, "bike_id": "8e6e22d8ba562a505e97cc86b1bcf026", "lon": -77.01168783333334}, {"type": "electric_scooter", "rental_uris": {"android": "https://dc.lft.to/lastmile_qr_scan", "ios": "https://dc.lft.to/lastmile_qr_scan"}, "name": "06a56cfe226a67708c88bcfd7b70ed29", "lat": 38.89964416666667, "is_reserved": 0, "fusion_lon": 0.0, "fusion_lat": 0.0, "is_disabled": 0, "bike_id": "06a56cfe226a67708c88bcfd7b70ed29", "lon": -77.02718516666667}, {"type": "electric_scooter", "rental_uris": {"android": "https://dc.lft.to/lastmile_qr_scan", "ios": "https://dc.lft.to/lastmile_qr_scan"}, "name": "b0f9722498ba943f0a421f0c6ce6c82f", "lat": 38.896385, "is_reserved": 0, "fusion_lon": 0.0, "fusion_lat": 0.0, "is_disabled": 0, "bike_id": "b0f9722498ba943f0a421f0c6ce6c82f", "lon": -76.94798283333333}, {"type": "electric_scooter", "rental_uris": {"android": "https://dc.lft.to/lastmile_qr_scan", "ios": "https://dc.lft.to/lastmile_qr_scan"}, "name": "ae8539bb549baf7e03eb68352735f73b", "lat": 38.911204166666664, "is_reserved": 0, "fusion_lon": 0.0, "fusion_lat": 0.0, "is_disabled": 0, "bike_id": "ae8539bb549baf7e03eb68352735f73b", "lon": -77.0383185}, {"type": "electric_scooter", "rental_uris": {"android": "https://dc.lft.to/lastmile_qr_scan", "ios": "https://dc.lft.to/lastmile_qr_scan"}, "name": "9b8a90fd103d09d36d21c95416de317a", "lat": 38.886819833333334, "is_reserved": 0, "fusion_lon": 0.0, "fusion_lat": 0.0, "is_disabled": 0, "bike_id": "9b8a90fd103d09d36d21c95416de317a", "lon": -77.03163616666667}, {"type": "electric_scooter", "rental_uris": {"android": "https://dc.lft.to/lastmile_qr_scan", "ios": "https://dc.lft.to/lastmile_qr_scan"}, "name": "e8b6f5bda3faf1a89f2be5f032901aa5", "lat": 38.904032, "is_reserved": 0, "fusion_lon": 0.0, "fusion_lat": 0.0, "is_disabled": 0, "bike_id": "e8b6f5bda3faf1a89f2be5f032901aa5", "lon": -76.973495}, {"type": "electric_scooter", "rental_uris": {"android": "https://dc.lft.to/lastmile_qr_scan", "ios": "https://dc.lft.to/lastmile_qr_scan"}, "name": "c0722ca5d21476a9f768ea6a8b58b039", "lat": 38.8873285, "is_reserved": 0, "fusion_lon": 0.0, "fusion_lat": 0.0, "is_disabled": 0, "bike_id": "c0722ca5d21476a9f768ea6a8b58b039", "lon": -77.01529166666667}, {"type": "electric_scooter", "rental_uris": {"android": "https://dc.lft.to/lastmile_qr_scan", "ios": "https://dc.lft.to/lastmile_qr_scan"}, "name": "1ca0227a2d3b3182053df4c9bf17471b", "lat": 38.902845, "is_reserved": 0, "fusion_lon": 0.0, "fusion_lat": 0.0, "is_disabled": 0, "bike_id": "1ca0227a2d3b3182053df4c9bf17471b", "lon": -77.04189733333334}, {"type": "electric_scooter", "rental_uris": {"android": "https://dc.lft.to/lastmile_qr_scan", "ios": "https://dc.lft.to/lastmile_qr_scan"}, "name": "58a0e2f733d54e5832c5e376d911f76e", "lat": 38.94725666666667, "is_reserved": 0, "fusion_lon": 0.0, "fusion_lat": 0.0, "is_disabled": 0, "bike_id": "58a0e2f733d54e5832c5e376d911f76e", "lon": -77.03302066666667}, {"type": "electric_bike", "rental_uris": {"android": "https://dc.lft.to/lastmile_qr_scan", "ios": "https://dc.lft.to/lastmile_qr_scan"}, "name": "907960e00745d77798c4b40231532be0", "lat": 38.838111166666664, "is_reserved": 0, "fusion_lon": 0.0, "fusion_lat": 0.0, "is_disabled": 0, "bike_id": "907960e00745d77798c4b40231532be0", "lon": -77.09520466666666}, {"type": "electric_scooter", "rental_uris": {"android": "https://dc.lft.to/lastmile_qr_scan", "ios": "https://dc.lft.to/lastmile_qr_scan"}, "name": "8b9571268300bb71ae00813e992dface", "lat": 38.89539366666666, "is_reserved": 0, "fusion_lon": 0.0, "fusion_lat": 0.0, "is_disabled": 0, "bike_id": "8b9571268300bb71ae00813e992dface", "lon": -76.92779583333333}, {"type": "electric_scooter", "rental_uris": {"android": "https://dc.lft.to/lastmile_qr_scan", "ios": "https://dc.lft.to/lastmile_qr_scan"}, "name": "cfd1c51bfd311b290d827f89e1bb786d", "lat": 38.8954505, "is_reserved": 0, "fusion_lon": 0.0, "fusion_lat": 0.0, "is_disabled": 0, "bike_id": "cfd1c51bfd311b290d827f89e1bb786d", "lon": -76.9833625}, {"type": "electric_scooter", "rental_uris": {"android": "https://dc.lft.to/lastmile_qr_scan", "ios": "https://dc.lft.to/lastmile_qr_scan"}, "name": "5641f351f66691cd94a5797274781112", "lat": 38.95347966666667, "is_reserved": 0, "fusion_lon": 0.0, "fusion_lat": 0.0, "is_disabled": 0, "bike_id": "5641f351f66691cd94a5797274781112", "lon": -77.00766833333333}, {"type": "electric_scooter", "rental_uris": {"android": "https://dc.lft.to/lastmile_qr_scan", "ios": "https://dc.lft.to/lastmile_qr_scan"}, "name": "17e8400b86ad4c41416cff8f93d9d7b3", "lat": 38.912680333333334, "is_reserved": 0, "fusion_lon": 0.0, "fusion_lat": 0.0, "is_disabled": 0, "bike_id": "17e8400b86ad4c41416cff8f93d9d7b3", "lon": -77.02227116666667}, {"type": "electric_scooter", "rental_uris": {"android": "https://dc.lft.to/lastmile_qr_scan", "ios": "https://dc.lft.to/lastmile_qr_scan"}, "name": "e40159b6f037f6a71bd55161b390871e", "lat": 38.95718333333333, "is_reserved": 0, "fusion_lon": 0.0, "fusion_lat": 0.0, "is_disabled": 0, "bike_id": "e40159b6f037f6a71bd55161b390871e", "lon": -77.00228033333333}, {"type": "electric_scooter", "rental_uris": {"android": "https://dc.lft.to/lastmile_qr_scan", "ios": "https://dc.lft.to/lastmile_qr_scan"}, "name": "a259b8ef5f04ad1b9741e1885eb07090", "lat": 38.90440533333334, "is_reserved": 0, "fusion_lon": 0.0, "fusion_lat": 0.0, "is_disabled": 0, "bike_id": "a259b8ef5f04ad1b9741e1885eb07090", "lon": -77.01775233333333}, {"type": "electric_scooter", "rental_uris": {"android": "https://dc.lft.to/lastmile_qr_scan", "ios": "https://dc.lft.to/lastmile_qr_scan"}, "name": "653f76f6ff99727281f4314b73e31dee", "lat": 38.918465, "is_reserved": 0, "fusion_lon": 0.0, "fusion_lat": 0.0, "is_disabled": 0, "bike_id": "653f76f6ff99727281f4314b73e31dee", "lon": -77.02529733333333}, {"type": "electric_scooter", "rental_uris": {"android": "https://dc.lft.to/lastmile_qr_scan", "ios": "https://dc.lft.to/lastmile_qr_scan"}, "name": "622cbf70356b5bb3dca12dd5073c2003", "lat": 38.88370416666667, "is_reserved": 0, "fusion_lon": 0.0, "fusion_lat": 0.0, "is_disabled": 0, "bike_id": "622cbf70356b5bb3dca12dd5073c2003", "lon": -76.99518133333333}, {"type": "electric_scooter", "rental_uris": {"android": "https://dc.lft.to/lastmile_qr_scan", "ios": "https://dc.lft.to/lastmile_qr_scan"}, "name": "4086762cf6aa8bfc4446fa4df9650f80", "lat": 38.897688333333335, "is_reserved": 0, "fusion_lon": 0.0, "fusion_lat": 0.0, "is_disabled": 0, "bike_id": "4086762cf6aa8bfc4446fa4df9650f80", "lon": -77.01599066666667}, {"type": "electric_bike", "rental_uris": {"android": "https://dc.lft.to/lastmile_qr_scan", "ios": "https://dc.lft.to/lastmile_qr_scan"}, "name": "05791950e6da43c91f18a6ac7df6b5ac", "lat": 38.95026333333333, "is_reserved": 0, "fusion_lon": 0.0, "fusion_lat": 0.0, "is_disabled": 0, "bike_id": "05791950e6da43c91f18a6ac7df6b5ac", "lon": -76.9710005}, {"type": "electric_scooter", "rental_uris": {"android": "https://dc.lft.to/lastmile_qr_scan", "ios": "https://dc.lft.to/lastmile_qr_scan"}, "name": "ae3e7b52e264b1ee12e572ca373c5e3a", "lat": 38.916839833333334, "is_reserved": 0, "fusion_lon": 0.0, "fusion_lat": 0.0, "is_disabled": 0, "bike_id": "ae3e7b52e264b1ee12e572ca373c5e3a", "lon": -77.03159083333334}, {"type": "electric_scooter", "rental_uris": {"android": "https://dc.lft.to/lastmile_qr_scan", "ios": "https://dc.lft.to/lastmile_qr_scan"}, "name": "e3c3c5b6f4cca5ce3d5361d4d06b2221", "lat": 38.912665833333335, "is_reserved": 0, "fusion_lon": 0.0, "fusion_lat": 0.0, "is_disabled": 0, "bike_id": "e3c3c5b6f4cca5ce3d5361d4d06b2221", "lon": -77.038284}, {"type": "electric_scooter", "rental_uris": {"android": "https://dc.lft.to/lastmile_qr_scan", "ios": "https://dc.lft.to/lastmile_qr_scan"}, "name": "773374a4d1233b465f7430499213bc63", "lat": 38.90579116666667, "is_reserved": 0, "fusion_lon": 0.0, "fusion_lat": 0.0, "is_disabled": 0, "bike_id": "773374a4d1233b465f7430499213bc63", "lon": -77.040302}, {"type": "electric_scooter", "rental_uris": {"android": "https://dc.lft.to/lastmile_qr_scan", "ios": "https://dc.lft.to/lastmile_qr_scan"}, "name": "97e327aa37a4e0e3ce755472995519c6", "lat": 38.9260475, "is_reserved": 0, "fusion_lon": 0.0, "fusion_lat": 0.0, "is_disabled": 0, "bike_id": "97e327aa37a4e0e3ce755472995519c6", "lon": -77.02155816666667}, {"type": "electric_scooter", "rental_uris": {"android": "https://dc.lft.to/lastmile_qr_scan", "ios": "https://dc.lft.to/lastmile_qr_scan"}, "name": "046e72204c3faadf38347b7e84bfd5c9", "lat": 38.9190825, "is_reserved": 0, "fusion_lon": 0.0, "fusion_lat": 0.0, "is_disabled": 0, "bike_id": "046e72204c3faadf38347b7e84bfd5c9", "lon": -77.04103866666667}, {"type": "electric_scooter", "rental_uris": {"android": "https://dc.lft.to/lastmile_qr_scan", "ios": "https://dc.lft.to/lastmile_qr_scan"}, "name": "0d23b990d680b2d85631e58a25ce3bf5", "lat": 38.955759666666665, "is_reserved": 0, "fusion_lon": 0.0, "fusion_lat": 0.0, "is_disabled": 0, "bike_id": "0d23b990d680b2d85631e58a25ce3bf5", "lon": -77.0701005}, {"type": "electric_scooter", "rental_uris": {"android": "https://dc.lft.to/lastmile_qr_scan", "ios": "https://dc.lft.to/lastmile_qr_scan"}, "name": "a719b93f689aac6005f259621a2beb6a", "lat": 38.87856016666667, "is_reserved": 0, "fusion_lon": 0.0, "fusion_lat": 0.0, "is_disabled": 0, "bike_id": "a719b93f689aac6005f259621a2beb6a", "lon": -77.0223335}, {"type": "electric_scooter", "rental_uris": {"android": "https://dc.lft.to/lastmile_qr_scan", "ios": "https://dc.lft.to/lastmile_qr_scan"}, "name": "40ed205755bd16af6f76951526472fd7", "lat": 38.9077385, "is_reserved": 0, "fusion_lon": 0.0, "fusion_lat": 0.0, "is_disabled": 0, "bike_id": "40ed205755bd16af6f76951526472fd7", "lon": -77.03762666666667}, {"type": "electric_scooter", "rental_uris": {"android": "https://dc.lft.to/lastmile_qr_scan", "ios": "https://dc.lft.to/lastmile_qr_scan"}, "name": "40145c4a42401f28a46894143c419c77", "lat": 38.95660183333333, "is_reserved": 0, "fusion_lon": 0.0, "fusion_lat": 0.0, "is_disabled": 0, "bike_id": "40145c4a42401f28a46894143c419c77", "lon": -77.08362433333333}, {"type": "electric_scooter", "rental_uris": {"android": "https://dc.lft.to/lastmile_qr_scan", "ios": "https://dc.lft.to/lastmile_qr_scan"}, "name": "f650475760c5832525acbce351db47d4", "lat": 38.926129, "is_reserved": 0, "fusion_lon": 0.0, "fusion_lat": 0.0, "is_disabled": 0, "bike_id": "f650475760c5832525acbce351db47d4", "lon": -77.02160416666666}, {"type": "electric_scooter", "rental_uris": {"android": "https://dc.lft.to/lastmile_qr_scan", "ios": "https://dc.lft.to/lastmile_qr_scan"}, "name": "ebf32ae90a785a0472e889dcdfdd8a3b", "lat": 38.896127, "is_reserved": 0, "fusion_lon": 0.0, "fusion_lat": 0.0, "is_disabled": 0, "bike_id": "ebf32ae90a785a0472e889dcdfdd8a3b", "lon": -77.022065}, {"type": "electric_scooter", "rental_uris": {"android": "https://dc.lft.to/lastmile_qr_scan", "ios": "https://dc.lft.to/lastmile_qr_scan"}, "name": "ced872579e1b727301f7ba0f370deff5", "lat": 38.89368833333333, "is_reserved": 0, "fusion_lon": 0.0, "fusion_lat": 0.0, "is_disabled": 0, "bike_id": "ced872579e1b727301f7ba0f370deff5", "lon": -77.0033065}, {"type": "electric_scooter", "rental_uris": {"android": "https://dc.lft.to/lastmile_qr_scan", "ios": "https://dc.lft.to/lastmile_qr_scan"}, "name": "87e7c8e74f0098851023490687bc8337", "lat": 38.924746999999996, "is_reserved": 0, "fusion_lon": 0.0, "fusion_lat": 0.0, "is_disabled": 0, "bike_id": "87e7c8e74f0098851023490687bc8337", "lon": -77.02219616666666}, {"type": "electric_scooter", "rental_uris": {"android": "https://dc.lft.to/lastmile_qr_scan", "ios": "https://dc.lft.to/lastmile_qr_scan"}, "name": "768d7b44b80a065303d4ad77f58b25c7", "lat": 38.91292716666667, "is_reserved": 0, "fusion_lon": 0.0, "fusion_lat": 0.0, "is_disabled": 0, "bike_id": "768d7b44b80a065303d4ad77f58b25c7", "lon": -76.9854465}, {"type": "electric_scooter", "rental_uris": {"android": "https://dc.lft.to/lastmile_qr_scan", "ios": "https://dc.lft.to/lastmile_qr_scan"}, "name": "a803cc1a16842930be5489a0ae613020", "lat": 38.90484266666667, "is_reserved": 0, "fusion_lon": 0.0, "fusion_lat": 0.0, "is_disabled": 0, "bike_id": "a803cc1a16842930be5489a0ae613020", "lon": -77.03563233333334}, {"type": "electric_scooter", "rental_uris": {"android": "https://dc.lft.to/lastmile_qr_scan", "ios": "https://dc.lft.to/lastmile_qr_scan"}, "name": "a7d26afc9194424cdcbe00d698d8728b", "lat": 38.8982365, "is_reserved": 0, "fusion_lon": 0.0, "fusion_lat": 0.0, "is_disabled": 0, "bike_id": "a7d26afc9194424cdcbe00d698d8728b", "lon": -77.02498866666667}, {"type": "electric_bike", "rental_uris": {"android": "https://dc.lft.to/lastmile_qr_scan", "ios": "https://dc.lft.to/lastmile_qr_scan"}, "name": "60e3260c205949c4b38068d8b87f463b", "lat": 39.04232916666667, "is_reserved": 0, "fusion_lon": 0.0, "fusion_lat": 0.0, "is_disabled": 0, "bike_id": "60e3260c205949c4b38068d8b87f463b", "lon": -76.99739333333333}, {"type": "electric_scooter", "rental_uris": {"android": "https://dc.lft.to/lastmile_qr_scan", "ios": "https://dc.lft.to/lastmile_qr_scan"}, "name": "6a1b6fd4f7fab6e848cb286b2b6b4861", "lat": 38.90125783333333, "is_reserved": 0, "fusion_lon": 0.0, "fusion_lat": 0.0, "is_disabled": 0, "bike_id": "6a1b6fd4f7fab6e848cb286b2b6b4861", "lon": -77.04671033333334}, {"type": "electric_scooter", "rental_uris": {"android": "https://dc.lft.to/lastmile_qr_scan", "ios": "https://dc.lft.to/lastmile_qr_scan"}, "name": "472dbf734e798a9c215c5af6151e7323", "lat": 38.900278, "is_reserved": 0, "fusion_lon": 0.0, "fusion_lat": 0.0, "is_disabled": 0, "bike_id": "472dbf734e798a9c215c5af6151e7323", "lon": -77.01138883333333}, {"type": "electric_scooter", "rental_uris": {"android": "https://dc.lft.to/lastmile_qr_scan", "ios": "https://dc.lft.to/lastmile_qr_scan"}, "name": "6de5039aad7384008315e1c503c4bf89", "lat": 38.90256633333333, "is_reserved": 0, "fusion_lon": 0.0, "fusion_lat": 0.0, "is_disabled": 0, "bike_id": "6de5039aad7384008315e1c503c4bf89", "lon": -77.03458616666667}, {"type": "electric_bike", "rental_uris": {"android": "https://dc.lft.to/lastmile_qr_scan", "ios": "https://dc.lft.to/lastmile_qr_scan"}, "name": "fe31af3ea926cc80f1535f934a1f2875", "lat": 38.97340633333334, "is_reserved": 0, "fusion_lon": 0.0, "fusion_lat": 0.0, "is_disabled": 0, "bike_id": "fe31af3ea926cc80f1535f934a1f2875", "lon": -76.99590116666667}, {"type": "electric_scooter", "rental_uris": {"android": "https://dc.lft.to/lastmile_qr_scan", "ios": "https://dc.lft.to/lastmile_qr_scan"}, "name": "860619b991550f331db0cab472059ed0", "lat": 38.909080333333335, "is_reserved": 0, "fusion_lon": 0.0, "fusion_lat": 0.0, "is_disabled": 0, "bike_id": "860619b991550f331db0cab472059ed0", "lon": -77.02299133333334}, {"type": "electric_scooter", "rental_uris": {"android": "https://dc.lft.to/lastmile_qr_scan", "ios": "https://dc.lft.to/lastmile_qr_scan"}, "name": "891ba8eaa2537b0f54003ece64a2f118", "lat": 38.90274383333333, "is_reserved": 0, "fusion_lon": 0.0, "fusion_lat": 0.0, "is_disabled": 0, "bike_id": "891ba8eaa2537b0f54003ece64a2f118", "lon": -77.04069083333333}, {"type": "electric_scooter", "rental_uris": {"android": "https://dc.lft.to/lastmile_qr_scan", "ios": "https://dc.lft.to/lastmile_qr_scan"}, "name": "2a974a2e57f6a302fc3bd0f5abf6e495", "lat": 38.9035575, "is_reserved": 0, "fusion_lon": 0.0, "fusion_lat": 0.0, "is_disabled": 0, "bike_id": "2a974a2e57f6a302fc3bd0f5abf6e495", "lon": -77.04517333333334}, {"type": "electric_bike", "rental_uris": {"android": "https://dc.lft.to/lastmile_qr_scan", "ios": "https://dc.lft.to/lastmile_qr_scan"}, "name": "13779d1547bf5b75c9a63670b4d49193", "lat": 38.923384666666664, "is_reserved": 0, "fusion_lon": 0.0, "fusion_lat": 0.0, "is_disabled": 0, "bike_id": "13779d1547bf5b75c9a63670b4d49193", "lon": -76.97141333333333},