{"data": {"bikes": [{"is_disabled": 0, "lat": 38.884922, "bike_id": "1fc1801bdb013d07473ae3f6f72903d7", "fusion_lon": 0.0, "is_reserved": 0, "type": "electric_scooter", "name": "1fc1801bdb013d07473ae3f6f72903d7", "lon": -77.00723283333333, "rental_uris": {"android": "https://dc.lft.to/lastmile_qr_scan", "ios": "https://dc.lft.to/lastmile_qr_scan"}, "fusion_lat": 0.0}, {"is_disabled": 0, "lat": 38.894461666666665, "bike_id": "cd62551d69c2c6a29b2aca2db7d4a095", "fusion_lon": 0.0, "is_reserved": 0, "type": "electric_scooter", "name": "cd62551d69c2c6a29b2aca2db7d4a095", "lon": -77.0243325, "rental_uris": {"android": "https://dc.lft.to/lastmile_qr_scan", "ios": "https://dc.lft.to/lastmile_qr_scan"}, "fusion_lat": 0.0}, {"is_disabled": 0, "lat": 38.92051516666667, "bike_id": "cc98d99b4931cfcc1ef4d264dd4d720f", "fusion_lon": 0.0, "is_reserved": 0, "type": "electric_scooter", "name": "cc98d99b4931cfcc1ef4d264dd4d720f", "lon": -77.0244555, "rental_uris": {"android": "https://dc.lft.to/lastmile_qr_scan", "ios": "https://dc.lft.to/lastmile_qr_scan"}, "fusion_lat": 0.0}, {"is_disabled": 0, "lat": 38.8955025, "bike_id": "c3540215df1df89b47ab670e4a7c809d", "fusion_lon": 0.0, "is_reserved": 0, "type": "electric_scooter", "name": "c3540215df1df89b47ab670e4a7c809d", "lon": -76.94878916666667, "rental_uris": {"android": "https://dc.lft.to/lastmile_qr_scan", "ios": "https://dc.lft.to/lastmile_qr_scan"}, "fusion_lat": 0.0}, {"is_disabled": 0, "lat": 38.93227383333333, "bike_id": "485a1cc6305e8d194ebd6a3fa7f034dd", "fusion_lon": 0.0, "is_reserved": 0, "type": "electric_scooter", "name": "485a1cc6305e8d194ebd6a3fa7f034dd", "lon": -77.02382666666666, "rental_uris": {"android": "https://dc.lft.to/lastmile_qr_scan", "ios": "https://dc.lft.to/lastmile_qr_scan"}, "fusion_lat": 0.0}, {"is_disabled": 0, "lat": 38.90391233333333, "bike_id": "e559d4da0675e9e55c1e3fb850ad650d", "fusion_lon": 0.0, "is_reserved": 0, "type": "electric_scooter", "name": "e559d4da0675e9e55c1e3fb850ad650d", "lon": -76.98086966666666, "rental_uris": {"android": "https://dc.lft.to/lastmile_qr_scan", "ios": "https://dc.lft.to/lastmile_qr_scan"}, "fusion_lat": 0.0}, {"is_disabled": 0, "lat": 38.9082675, "bike_id": "4d5d5946bd36c3e9526eeb3f3aefef9a", "fusion_lon": 0.0, "is_reserved": 0, "type": "electric_scooter", "name": "4d5d5946bd36c3e9526eeb3f3aefef9a", "lon": -76.941602, "rental_uris": {"android": "https://dc.lft.to/lastmile_qr_scan", "ios": "https://dc.lft.to/lastmile_qr_scan"}, "fusion_lat": 0.0}, {"is_disabled": 0, "lat": 38.90676066666666, "bike_id": "d902a911c60128ce92f96883c9049379", "fusion_lon": 0.0, "is_reserved": 0, "type": "electric_scooter", "name": "d902a911c60128ce92f96883c9049379", "lon": -77.05011016666667, "rental_uris": {"android": "https://dc.lft.to/lastmile_qr_scan", "ios": "https://dc.lft.to/lastmile_qr_scan"}, "fusion_lat": 0.0}, {"is_disabled": 0, "lat": 38.95406533333333, "bike_id": "c74e5c21d7e2656a6613cc6630ba91b2", "fusion_lon": 0.0, "is_reserved": 0, "type": "electric_scooter", "name": "c74e5c21d7e2656a6613cc6630ba91b2", "lon": -77.02694466666667, "rental_uris": {"android": "https://dc.lft.to/lastmile_qr_scan", "ios": "https://dc.lft.to/lastmile_qr_scan"}, "fusion_lat": 0.0}, {"is_disabled": 0, "lat": 38.91677516666667, "bike_id": "6fc1f6e55c1d12d5dd163fbeb6b93cf5", "fusion_lon": 0.0, "is_reserved": 0, "type": "electric_scooter", "name": "6fc1f6e55c1d12d5dd163fbeb6b93cf5", "lon": -77.03695366666666, "rental_uris": {"android": "https://dc.lft.to/lastmile_qr_scan", "ios": "https://dc.lft.to/lastmile_qr_scan"}, "fusion_lat": 0.0}, {"is_disabled": 0, "lat": 38.897990666666665, "bike_id": "7682d9d97c0e3f6fe6db84ed015915fa", "fusion_lon": 0.0, "is_reserved": 0, "type": "electric_scooter", "name": "7682d9d97c0e3f6fe6db84ed015915fa", "lon": -77.0268195, "rental_uris": {"android": "https://dc.lft.to/lastmile_qr_scan", "ios": "https://dc.lft.to/lastmile_qr_scan"}, "fusion_lat": 0.0}, {"is_disabled": 0, "lat": 38.896692, "bike_id": "ae97a890e5aecdb903ea5601a3467440", "fusion_lon": 0.0, "is_reserved": 0, "type": "electric_scooter", "name": "ae97a890e5aecdb903ea5601a3467440", "lon": -77.050846, "rental_uris": {"android": "https://dc.lft.to/lastmile_qr_scan", "ios": "https://dc.lft.to/lastmile_qr_scan"}, "fusion_lat": 0.0}, {"is_disabled": 0, "lat": 38.94198, "bike_id": "3acd5eaa4aaa50080e3b2ba24257f8d5", "fusion_lon": 0.0, "is_reserved": 0, "type": "electric_scooter", "name": "3acd5eaa4aaa50080e3b2ba24257f8d5", "lon": -77.02497633333333, "rental_uris": {"android": "https://dc.lft.to/lastmile_qr_scan", "ios": "https://dc.lft.to/lastmile_qr_scan"}, "fusion_lat": 0.0}, {"is_disabled": 0, "lat": 38.918706, "bike_id": "07006600762a854249e7d8b77be4a03f", "fusion_lon": 0.0, "is_reserved": 0, "type": "electric_scooter", "name": "07006600762a854249e7d8b77be4a03f", "lon": -77.04056683333333, "rental_uris": {"android": "https://dc.lft.to/lastmile_qr_scan", "ios": "https://dc.lft.to/lastmile_qr_scan"}, "fusion_lat": 0.0}, {"is_disabled": 0, "lat": 38.95244066666667, "bike_id": "618f6e6ce05a0d4ad30b2108208ff247", "fusion_lon": 0.0, "is_reserved": 0, "type": "electric_bike", "name": "618f6e6ce05a0d4ad30b2108208ff247", "lon": -76.9766935, "rental_uris": {"android": "https://dc.lft.to/lastmile_qr_scan", "ios": "https://dc.lft.to/lastmile_qr_scan"}, "fusion_lat": 0.0}, {"is_disabled": 0, "lat": 38.94139166666667, "bike_id": "934f7fe2621c1c06d26a08986dfb809b", "fusion_lon": 0.0, "is_reserved": 0, "type": "electric_scooter", "name": "934f7fe2621c1c06d26a08986dfb809b", "lon": -77.0255175, "rental_uris": {"android": "https://dc.lft.to/lastmile_qr_scan", "ios": "https://dc.lft.to/lastmile_qr_scan"}, "fusion_lat": 0.0}, {"is_disabled": 0, "lat": 38.903220166666664, "bike_id": "208aeac874673d67a3cc30a61498fa82", "fusion_lon": 0.0, "is_reserved": 0, "type": "electric_scooter", "name": "208aeac874673d67a3cc30a61498fa82", "lon": -76.98152083333333, "rental_uris": {"android": "https://dc.lft.to/lastmile_qr_scan", "ios": "https://dc.lft.to/lastmile_qr_scan"}, "fusion_lat": 0.0}, {"is_disabled": 0, "lat": 38.9166745, "bike_id": "f488ab30f5a2b6d436074ad06e80c67e", "fusion_lon": 0.0, "is_reserved": 0, "type": "electric_scooter", "name": "f488ab30f5a2b6d436074ad06e80c67e", "lon": -77.03849233333334, "rental_uris": {"android": "https://dc.lft.to/lastmile_qr_scan", "ios": "https://dc.lft.to/lastmile_qr_scan"}, "fusion_lat": 0.0}, {"is_disabled": 0, "lat": 38.894484166666665, "bike_id": "5034dbdb22fcf729f69e64076b7f5034", "fusion_lon": 0.0, "is_reserved": 0, "type": "electric_scooter", "name": "5034dbdb22fcf729f69e64076b7f5034", "lon": -77.001868, "rental_uris": {"android": "https://dc.lft.to/lastmile_qr_scan", "ios": "https://dc.lft.to/lastmile_qr_scan"}, "fusion_lat": 0.0}, {"is_disabled": 0, "lat": 38.89887866666667, "bike_id": "d1eb8533df34bcea7d05676ad72eb495", "fusion_lon": 0.0, "is_reserved": 0, "type": "electric_scooter", "name": "d1eb8533df34bcea7d05676ad72eb495", "lon": -77.05383033333334, "rental_uris": {"android": "https://dc.lft.to/lastmile_qr_scan", "ios": "https://dc.lft.to/lastmile_qr_scan"}, "fusion_lat": 0.0}, {"is_disabled": 0, "lat": 38.92725133333333, "bike_id": "7b7d76d20ddd13a0a17a24b5d7127cfa", "fusion_lon": 0.0, "is_reserved": 0, "type": "electric_scooter", "name": "7b7d76d20ddd13a0a17a24b5d7127cfa", "lon": -77.03088566666666, "rental_uris": {"android": "https://dc.lft.to/lastmile_qr_scan", "ios": "https://dc.lft.to/lastmile_qr_scan"}, "fusion_lat": 0.0}, {"is_disabled": 0, "lat": 38.9267835, "bike_id": "a1feb98f03e7e8f810d5c9dde9580948", "fusion_lon": 0.0, "is_reserved": 0, "type": "electric_scooter", "name": "a1feb98f03e7e8f810d5c9dde9580948", "lon": -77.02860433333333, "rental_uris": {"android": "https://dc.lft.to/lastmile_qr_scan", "ios": "https://dc.lft.to/lastmile_qr_scan"}, "fusion_lat": 0.0}, {"is_disabled": 0, "lat": 38.939358666666664, "bike_id": "dd3032e30be634a2a74d8b64d1c820ad", "fusion_lon": 0.0, "is_reserved": 0, "type": "electric_scooter", "name": "dd3032e30be634a2a74d8b64d1c820ad", "lon": -77.03596283333333, "rental_uris": {"android": "https://dc.lft.to/lastmile_qr_scan", "ios": "https://dc.lft.to/lastmile_qr_scan"}, "fusion_lat": 0.0}, {"is_disabled": 0, "lat": 38.930862, "bike_id": "50e35c5b030d2c535b4013c645789c5a", "fusion_lon": 0.0, "is_reserved": 0, "type": "electric_scooter", "name": "50e35c5b030d2c535b4013c645789c5a", "lon": -77.07954416666666, "rental_uris": {"android": "https://dc.lft.to/lastmile_qr_scan", "ios": "https://dc.lft.to/lastmile_qr_scan"}, "fusion_lat": 0.0}, {"is_disabled": 0, "lat": 38.92355333333333, "bike_id": "4d0ab5770d0831fcd72326c593591021", "fusion_lon": 0.0, "is_reserved": 0, "type": "electric_scooter", "name": "4d0ab5770d0831fcd72326c593591021", "lon": -77.02054033333333, "rental_uris": {"android": "https://dc.lft.to/lastmile_qr_scan", "ios": "https://dc.lft.to/lastmile_qr_scan"}, "fusion_lat": 0.0}, {"is_disabled": 0, "lat": 38.90264483333333, "bike_id": "e6e3731728bdf82c18bb33e21e12723f", "fusion_lon": 0.0, "is_reserved": 0, "type": "electric_scooter", "name": "e6e3731728bdf82c18bb33e21e12723f", "lon": -77.039377, "rental_uris": {"android": "https://dc.lft.to/lastmile_qr_scan", "ios": "https://dc.lft.to/lastmile_qr_scan"}, "fusion_lat": 0.0}, {"is_disabled": 0, "lat": 38.927489666666666, "bike_id": "f4093eecde1fc1bf603fd6c6c02a9fde", "fusion_lon": 0.0, "is_reserved": 0, "type": "electric_scooter", "name": "f4093eecde1fc1bf603fd6c6c02a9fde", "lon": -77.0248205, "rental_uris": {"android": "https://dc.lft.to/lastmile_qr_scan", "ios": "https://dc.lft.to/lastmile_qr_scan"}, "fusion_lat": 0.0}, {"is_disabled": 0, "lat": 38.903740166666665, "bike_id": "436551f09414dc1edceabef4531a1b94", "fusion_lon": 0.0, "is_reserved": 0, "type": "electric_scooter", "name": "436551f09414dc1edceabef4531a1b94", "lon": -77.03836316666667, "rental_uris": {"android": "https://dc.lft.to/lastmile_qr_scan", "ios": "https://dc.lft.to/lastmile_qr_scan"}, "fusion_lat": 0.0}, {"is_disabled": 0, "lat": 38.917083833333336, "bike_id": "9fb2b7c4542dfe657ea510edec3ac5b4", "fusion_lon": 0.0, "is_reserved": 0, "type": "electric_scooter", "name": "9fb2b7c4542dfe657ea510edec3ac5b4", "lon": -77.04125933333333, "rental_uris": {"android": "https://dc.lft.to/lastmile_qr_scan", "ios": "https://dc.lft.to/lastmile_qr_scan"}, "fusion_lat": 0.0}, {"is_disabled": 0, "lat": 38.867300166666666, "bike_id": "337a151a38d84713efb202d8d6af72c1", "fusion_lon": 0.0, "is_reserved": 0, "type": "electric_scooter", "name": "337a151a38d84713efb202d8d6af72c1", "lon": -76.98801950000001, "rental_uris": {"android": "https://dc.lft.to/lastmile_qr_scan", "ios": "https://dc.lft.to/lastmile_qr_scan"}, "fusion_lat": 0.0}, {"is_disabled": 0, "lat": 38.905243, "bike_id": "6d7f7979bcfe4b4ff49f99c167d1c59e", "fusion_lon": 0.0, "is_reserved": 0, "type": "electric_scooter", "name": "6d7f7979bcfe4b4ff49f99c167d1c59e", "lon": -76.982985, "rental_uris": {"android": "https://dc.lft.to/lastmile_qr_scan", "ios": "https://dc.lft.to/lastmile_qr_scan"}, "fusion_lat": 0.0}, {"is_disabled": 0, "lat": 38.8785935, "bike_id": "ee923692cb1a2347872c8c27d1b49e3f", "fusion_lon": 0.0, "is_reserved": 0, "type": "electric_scooter", "name": "ee923692cb1a2347872c8c27d1b49e3f", "lon": -77.023033, "rental_uris": {"android": "https://dc.lft.to/lastmile_qr_scan", "ios": "https://dc.lft.to/lastmile_qr_scan"}, "fusion_lat": 0.0}, {"is_disabled": 0, "lat": 38.932457666666664, "bike_id": "a53c7584a642b626e2f92f29959347f4", "fusion_lon": 0.0, "is_reserved": 0, "type": "electric_scooter", "name": "a53c7584a642b626e2f92f29959347f4", "lon": -77.03266366666666, "rental_uris": {"android": "https://dc.lft.to/lastmile_qr_scan", "ios": "https://dc.lft.to/lastmile_qr_scan"}, "fusion_lat": 0.0}, {"is_disabled": 0, "lat": 38.926751, "bike_id": "2b826adb0bd914f669629262f18630f5", "fusion_lon": 0.0, "is_reserved": 0, "type": "electric_scooter", "name": "2b826adb0bd914f669629262f18630f5", "lon": -77.02996183333333, "rental_uris": {"android": "https://dc.lft.to/lastmile_qr_scan", "ios": "https://dc.lft.to/lastmile_qr_scan"}, "fusion_lat": 0.0}, {"is_disabled": 0, "lat": 38.9199445, "bike_id": "f474afeee24a6d20321ea7ae2504b3e2", "fusion_lon": 0.0, "is_reserved": 0, "type": "electric_scooter", "name": "f474afeee24a6d20321ea7ae2504b3e2", "lon": -77.023682, "rental_uris": {"android": "https://dc.lft.to/lastmile_qr_scan", "ios": "https://dc.lft.to/lastmile_qr_scan"}, "fusion_lat": 0.0}, {"is_disabled": 0, "lat": 38.90670866666667, "bike_id": "6cd29cfa5647acb0c497bcac21cd7c98", "fusion_lon": 0.0, "is_reserved": 0, "type": "electric_scooter", "name": "6cd29cfa5647acb0c497bcac21cd7c98", "lon": -77.02698383333333, "rental_uris": {"android": "https://dc.lft.to/lastmile_qr_scan", "ios": "https://dc.lft.to/lastmile_qr_scan"}, "fusion_lat": 0.0}, {"is_disabled": 0, "lat": 38.890457166666664, "bike_id": "c54a3f50940021a937b893ad9fb1fc93", "fusion_lon": 0.0, "is_reserved": 0, "type": "electric_scooter", "name": "c54a3f50940021a937b893ad9fb1fc93", "lon": -76.93755283333333, "rental_uris": {"android": "https://dc.lft.to/lastmile_qr_scan", "ios": "https://dc.lft.to/lastmile_qr_scan"}, "fusion_lat": 0.0}, {"is_disabled": 0, "lat": 38.91413283333333, "bike_id": "b174a7d9f25348296cb9b1aca54c15ab", "fusion_lon": 0.0, "is_reserved": 0, "type": "electric_scooter", "name": "b174a7d9f25348296cb9b1aca54c15ab", "lon": -77.00977383333333, "rental_uris": {"android": "https://dc.lft.to/lastmile_qr_scan", "ios": "https://dc.lft.to/lastmile_qr_scan"}, "fusion_lat": 0.0}, {"is_disabled": 0, "lat": 38.909060333333336, "bike_id": "aa522ba2741652552126e3df367a607c", "fusion_lon": 0.0, "is_reserved": 0, "type": "electric_scooter", "name": "aa522ba2741652552126e3df367a607c", "lon": -77.043903, "rental_uris": {"android": "https://dc.lft.to/lastmile_qr_scan", "ios": "https://dc.lft.to/lastmile_qr_scan"}, "fusion_lat": 0.0}, {"is_disabled": 0, "lat": 38.9141705, "bike_id": "bc51f7155370b22a48453866dab7c3aa", "fusion_lon": 0.0, "is_reserved": 0, "type": "electric_scooter", "name": "bc51f7155370b22a48453866dab7c3aa", "lon": -77.02386983333334, "rental_uris": {"android": "https://dc.lft.to/lastmile_qr_scan", "ios": "https://dc.lft.to/lastmile_qr_scan"}, "fusion_lat": 0.0}, {"is_disabled": 0, "lat": 38.916293833333334, "bike_id": "5a6a0f9084c0ff8a0d6ecca0cba8959f", "fusion_lon": 0.0, "is_reserved": 0, "type": "electric_scooter", "name": "5a6a0f9084c0ff8a0d6ecca0cba8959f", "lon": -77.03220733333333, "rental_uris": {"android": "https://dc.lft.to/lastmile_qr_scan", "ios": "https://dc.lft.to/lastmile_qr_scan"}, "fusion_lat": 0.0}, {"is_disabled": 0, "lat": 38.89978283333333, "bike_id": "09a2c11bb245ca08bb98a6ae2e1539d4", "fusion_lon": 0.0, "is_reserved": 0, "type": "electric_scooter", "name": "09a2c11bb245ca08bb98a6ae2e1539d4", "lon": -77.02156383333333, "rental_uris": {"android": "https://dc.lft.to/lastmile_qr_scan", "ios": "https://dc.lft.to/lastmile_qr_scan"}, "fusion_lat": 0.0}, {"is_disabled": 0, "lat": 38.931669666666664, "bike_id": "01ab6a17254b3d29c91b8f7618474dfb", "fusion_lon": 0.0, "is_reserved": 0, "type": "electric_scooter", "name": "01ab6a17254b3d29c91b8f7618474dfb", "lon": -77.07073016666666, "rental_uris": {"android": "https://dc.lft.to/lastmile_qr_scan", "ios": "https://dc.lft.to/lastmile_qr_scan"}, "fusion_lat": 0.0}, {"is_disabled": 0, "lat": 38.917069166666664, "bike_id": "7d940eb8772f81b241773ba9ff584908", "fusion_lon": 0.0, "is_reserved": 0, "type": "electric_scooter", "name": "7d940eb8772f81b241773ba9ff584908", "lon": -77.038735, "rental_uris": {"android": "https://dc.lft.to/lastmile_qr_scan", "ios": "https://dc.lft.to/lastmile_qr_scan"}, "fusion_lat": 0.0}, {"is_disabled": 0, "lat": 38.903305833333334, "bike_id": "dcbbc34f28e5c6f286200b29f6af5ba7", "fusion_lon": 0.0, "is_reserved": 0, "type": "electric_scooter", "name": "dcbbc34f28e5c6f286200b29f6af5ba7", "lon": -77.04658766666667, "rental_uris": {"android": "https://dc.lft.to/lastmile_qr_scan", "ios": "https://dc.lft.to/lastmile_qr_scan"}, "fusion_lat": 0.0}, {"is_disabled": 0, "lat": 38.91710616666667, "bike_id": "9d5bc764e2653172e5385f4ca1d07c0b", "fusion_lon": 0.0, "is_reserved": 0, "type": "electric_scooter", "name": "9d5bc764e2653172e5385f4ca1d07c0b", "lon": -77.0332215, "rental_uris": {"android": "https://dc.lft.to/lastmile_qr_scan", "ios": "https://dc.lft.to/lastmile_qr_scan"}, "fusion_lat": 0.0}, {"is_disabled": 0, "lat": 38.8665565, "bike_id": "f67f9c16f15a1b1b1d28eb13925b6fbd", "fusion_lon": 0.0, "is_reserved": 0, "type": "electric_scooter", "name": "f67f9c16f15a1b1b1d28eb13925b6fbd", "lon": -76.9850355, "rental_uris": {"android": "https://dc.lft.to/lastmile_qr_scan", "ios": "https://dc.lft.to/lastmile_qr_scan"}, "fusion_lat": 0.0}, {"is_disabled": 0, "lat": 39.0389575, "bike_id": "611125267f0722e18a7b4596bbb00ab8", "fusion_lon": 0.0, "is_reserved": 0, "type": "electric_bike", "name": "611125267f0722e18a7b4596bbb00ab8", "lon": -77.0504425, "rental_uris": {"android": "https://dc.lft.to/lastmile_qr_scan", "ios": "https://dc.lft.to/lastmile_qr_scan"}, "fusion_lat": 0.0}, {"is_disabled": 0, "lat": 38.913394833333335, "bike_id": "f3bafd2e5f0b693a1fde7755beaa3168", "fusion_lon": 0.0, "is_reserved": 0, "type": "electric_scooter", "name": "f3bafd2e5f0b693a1fde7755beaa3168", "lon": -77.048158, "rental_uris": {"android": "https://dc.lft.to/lastmile_qr_scan", "ios": "https://dc.lft.to/lastmile_qr_scan"}, "fusion_lat": 0.0}, {"is_disabled": 0, "lat": 38.902730166666665, "bike_id": "4cb340b7c1556e7076f50144cbddd1fc", "fusion_lon": 0.0, "is_reserved": 0, "type": "electric_scooter", "name": "4cb340b7c1556e7076f50144cbddd1fc", "lon": -77.03841866666667, "rental_uris": {"android": "https://dc.lft.to/lastmile_qr_scan", "ios": "https://dc.lft.to/lastmile_qr_scan"}, "fusion_lat": 0.0}, {"is_disabled": 0, "lat": 38.9169145, "bike_id": "7882bde8dd5b7e9fce98ba1f1929d344", "fusion_lon": 0.0, "is_reserved": 0, "type": "electric_scooter", "name": "7882bde8dd5b7e9fce98ba1f1929d344", "lon": -77.02598716666667, "rental_uris": {"android": "https://dc.lft.to/lastmile_qr_scan", "ios": "https://dc.lft.to/lastmile_qr_scan"}, "fusion_lat": 0.0}, {"is_disabled": 0, "lat": 38.90551083333333, "bike_id": "8fbaf9fab233a951cb36687e23010128", "fusion_lon": 0.0, "is_reserved": 0, "type": "electric_scooter", "name": "8fbaf9fab233a951cb36687e23010128", "lon": -77.006986, "rental_uris": {"android": "https://dc.lft.to/lastmile_qr_scan", "ios": "https://dc.lft.to/lastmile_qr_scan"}, "fusion_lat": 0.0}, {"is_disabled": 0, "lat": 38.939693166666665, "bike_id": "cdaa6630d580e6e8fa748fb1faec25de", "fusion_lon": 0.0, "is_reserved": 0, "type": "electric_scooter", "name": "cdaa6630d580e6e8fa748fb1faec25de", "lon": -77.02504566666667, "rental_uris": {"android": "https://dc.lft.to/lastmile_qr_scan", "ios": "https://dc.lft.to/lastmile_qr_scan"}, "fusion_lat": 0.0}, {"is_disabled": 0, "lat": 38.92836533333333, "bike_id": "448d7d8c6b5774b2f0aec5b4a1e996c8", "fusion_lon": 0.0, "is_reserved": 0, "type": "electric_scooter", "name": "448d7d8c6b5774b2f0aec5b4a1e996c8", "lon": -77.0328545, "rental_uris": {"android": "https://dc.lft.to/lastmile_qr_scan", "ios": "https://dc.lft.to/lastmile_qr_scan"}, "fusion_lat": 0.0}, {"is_disabled": 0, "lat": 38.900949, "bike_id": "a826fc5f0a19a868de66973bce5dedf6", "fusion_lon": 0.0, "is_reserved": 0, "type": "electric_scooter", "name": "a826fc5f0a19a868de66973bce5dedf6", "lon": -77.02526166666667, "rental_uris": {"android": "https://dc.lft.to/lastmile_qr_scan", "ios": "https://dc.lft.to/lastmile_qr_scan"}, "fusion_lat": 0.0}, {"is_disabled": 0, "lat": 38.90979083333333, "bike_id": "6d1f1f6a4e73bd8b5f636c7589f4114f", "fusion_lon": 0.0, "is_reserved": 0, "type": "electric_scooter", "name": "6d1f1f6a4e73bd8b5f636c7589f4114f", "lon": -77.02806216666667, "rental_uris": {"android": "https://dc.lft.to/lastmile_qr_scan", "ios": "https://dc.lft.to/lastmile_qr_scan"}, "fusion_lat": 0.0}, {"is_disabled": 0, "lat": 38.9011075, "bike_id": "6724f62a629f40dbf95cd2204350c9a1", "fusion_lon": 0.0, "is_reserved": 0, "type": "electric_scooter", "name": "6724f62a629f40dbf95cd2204350c9a1", "lon": -77.04866133333333, "rental_uris": {"android": "https://dc.lft.to/lastmile_qr_scan", "ios": "https://dc.lft.to/lastmile_qr_scan"}, "fusion_lat": 0.0}, {"is_disabled": 0, "lat": 38.899239666666666, "bike_id": "47f88baa72dfb3daeb0ddbdb708fd326", "fusion_lon": 0.0, "is_reserved": 0, "type": "electric_scooter", "name": "47f88baa72dfb3daeb0ddbdb708fd326", "lon": -76.98352016666666, "rental_uris": {"android": "https://dc.lft.to/lastmile_qr_scan", "ios": "https://dc.lft.to/lastmile_qr_scan"}, "fusion_lat": 0.0}, {"is_disabled": 0, "lat": 38.91925833333333, "bike_id": "d57f70120789d9b8486609e308bc4da6", "fusion_lon": 0.0, "is_reserved": 0, "type": "electric_scooter", "name": "d57f70120789d9b8486609e308bc4da6", "lon": -77.03486516666666, "rental_uris": {"android": "https://dc.lft.to/lastmile_qr_scan", "ios": "https://dc.lft.to/lastmile_qr_scan"}, "fusion_lat": 0.0}, {"is_disabled": 0, "lat": 38.90733983333333, "bike_id": "20dc614d9ee3b56438266474d36fadf5", "fusion_lon": 0.0, "is_reserved": 0, "type": "electric_scooter", "name": "20dc614d9ee3b56438266474d36fadf5", "lon": -77.00392633333334, "rental_uris": {"android": "https://dc.lft.to/lastmile_qr_scan", "ios": "https://dc.lft.to/lastmile_qr_scan"}, "fusion_lat": 0.0}, {"is_disabled": 0, "lat": 38.84429133333333, "bike_id": "4b15bdcd2502b9618e49c6466e03024d", "fusion_lon": 0.0, "is_reserved": 0, "type": "electric_scooter", "name": "4b15bdcd2502b9618e49c6466e03024d", "lon": -76.9978015, "rental_uris": {"android": "https://dc.lft.to/lastmile_qr_scan", "ios": "https://dc.lft.to/lastmile_qr_scan"}, "fusion_lat": 0.0}, {"is_disabled": 0, "lat": 38.890608666666665, "bike_id": "cf7d6b8e611cd3c698f1bc552a6b5776", "fusion_lon": 0.0, "is_reserved": 0, "type": "electric_scooter", "name": "cf7d6b8e611cd3c698f1bc552a6b5776", "lon": -77.02299583333334, "rental_uris": {"android": "https://dc.lft.to/lastmile_qr_scan", "ios": "https://dc.lft.to/lastmile_qr_scan"}, "fusion_lat": 0.0}, {"is_disabled": 0, "lat": 38.924715166666665, "bike_id": "deaddae91b147f7720d04d75c532fd45", "fusion_lon": 0.0, "is_reserved": 0, "type": "electric_bike", "name": "deaddae91b147f7720d04d75c532fd45", "lon": -77.20838333333333, "rental_uris": {"android": "https://dc.lft.to/lastmile_qr_scan", "ios": "https://dc.lft.to/lastmile_qr_scan"}, "fusion_lat": 0.0}, {"is_disabled": 0, "lat": 38.920549666666666, "bike_id": "9ad391ae52fad1353a369eb95a02beb9", "fusion_lon": 0.0, "is_reserved": 0, "type": "electric_scooter", "name": "9ad391ae52fad1353a369eb95a02beb9", "lon": -76.99883166666666, "rental_uris": {"android": "https://dc.lft.to/lastmile_qr_scan", "ios": "https://dc.lft.to/lastmile_qr_scan"}, "fusion_lat": 0.0}, {"is_disabled": 0, "lat": 38.95177366666667, "bike_id": "cc0a6ac814540338ca81d9d1edfc1dca", "fusion_lon": 0.0, "is_reserved": 0, "type": "electric_scooter", "name": "cc0a6ac814540338ca81d9d1edfc1dca", "lon": -77.068089, "rental_uris": {"android": "https://dc.lft.to/lastmile_qr_scan", "ios": "https://dc.lft.to/lastmile_qr_scan"}, "fusion_lat": 0.0}, {"is_disabled": 0, "lat": 38.89743216666667, "bike_id": "2a0e075a0c713a2440cfe12ef5680ecc", "fusion_lon": 0.0, "is_reserved": 0, "type": "electric_scooter", "name": "2a0e075a0c713a2440cfe12ef5680ecc", "lon": -77.00950633333333, "rental_uris": {"android": "https://dc.lft.to/lastmile_qr_scan", "ios": "https://dc.lft.to/lastmile_qr_scan"}, "fusion_lat": 0.0}, {"is_disabled": 0, "lat": 38.87689016666667, "bike_id": "4409d3c026d44b07440a8b50d97fa6f7", "fusion_lon": 0.0, "is_reserved": 0, "type": "electric_scooter", "name": "4409d3c026d44b07440a8b50d97fa6f7", "lon": -77.0176255, "rental_uris": {"android": "https://dc.lft.to/lastmile_qr_scan", "ios": "https://dc.lft.to/lastmile_qr_scan"}, "fusion_lat": 0.0}, {"is_disabled": 0, "lat": 38.901381666666666, "bike_id": "c626c0e0a22e46536ad227fa5716fdf1", "fusion_lon": 0.0, "is_reserved": 0, "type": "electric_scooter", "name": "c626c0e0a22e46536ad227fa5716fdf1", "lon": -77.04682033333333, "rental_uris": {"android": "https://dc.lft.to/lastmile_qr_scan", "ios": "https://dc.lft.to/lastmile_qr_scan"}, "fusion_lat": 0.0}, {"is_disabled": 0, "lat": 38.92376616666667, "bike_id": "173769248177ac23d276ba5240018bb5", "fusion_lon": 0.0, "is_reserved": 0, "type": "electric_scooter", "name": "173769248177ac23d276ba5240018bb5", "lon": -77.043164, "rental_uris": {"android": "https://dc.lft.to/lastmile_qr_scan", "ios": "https://dc.lft.to/lastmile_qr_scan"}, "fusion_lat": 0.0}, {"is_disabled": 0, "lat": 38.922417, "bike_id": "44623ed002e6b38a0a864f55393b9d29", "fusion_lon": 0.0, "is_reserved": 0, "type": "electric_scooter", "name": "44623ed002e6b38a0a864f55393b9d29", "lon": -77.02854283333333, "rental_uris": {"android": "https://dc.lft.to/lastmile_qr_scan", "ios": "https://dc.lft.to/lastmile_qr_scan"}, "fusion_lat": 0.0}, {"is_disabled": 0, "lat": 38.89223616666666, "bike_id": "8dfd441468c702de7e3e2c6791f4e204", "fusion_lon": 0.0, "is_reserved": 0, "type": "electric_scooter", "name": "8dfd441468c702de7e3e2c6791f4e204", "lon": -77.04145766666667, "rental_uris": {"android": "https://dc.lft.to/lastmile_qr_scan", "ios": "https://dc.lft.to/lastmile_qr_scan"}, "fusion_lat": 0.0}, {"is_disabled": 0, "lat": 38.90003033333333, "bike_id": "56ca77ef73ed2cca2f76dc3d9d8c249b", "fusion_lon": 0.0, "is_reserved": 0, "type": "electric_scooter", "name": "56ca77ef73ed2cca2f76dc3d9d8c249b", "lon": -77.05221883333333, "rental_uris": {"android": "https://dc.lft.to/lastmile_qr_scan", "ios": "https://dc.lft.to/lastmile_qr_scan"}, "fusion_lat": 0.0}, {"is_disabled": 0, "lat": 38.9076795, "bike_id": "0d64c26618ba8136f66578315becd12c", "fusion_lon": 0.0, "is_reserved": 0, "type": "electric_scooter", "name": "0d64c26618ba8136f66578315becd12c", "lon": -77.0632875, "rental_uris": {"android": "https://dc.lft.to/lastmile_qr_scan", "ios": "https://dc.lft.to/lastmile_qr_scan"}, "fusion_lat": 0.0}, {"is_disabled": 0, "lat": 38.900336333333335, "bike_id": "12fc93be1e8f5478ed3ac8597ed2a724", "fusion_lon": 0.0, "is_reserved": 0, "type": "electric_scooter", "name": "12fc93be1e8f5478ed3ac8597ed2a724", "lon": -77.00567433333333, "rental_uris": {"android": "https://dc.lft.to/lastmile_qr_scan", "ios": "https://dc.lft.to/lastmile_qr_scan"}, "fusion_lat": 0.0}, {"is_disabled": 0, "lat": 38.9073755, "bike_id": "a01809ea297cc3f6120752c143306c79", "fusion_lon": 0.0, "is_reserved": 0, "type": "electric_scooter", "name": "a01809ea297cc3f6120752c143306c79", "lon": -77.01312833333333, "rental_uris": {"android": "https://dc.lft.to/lastmile_qr_scan", "ios": "https://dc.lft.to/lastmile_qr_scan"}, "fusion_lat": 0.0}, {"is_disabled": 0, "lat": 38.9246715, "bike_id": "8710f16bfd158af4b7998f0630bb238f", "fusion_lon": 0.0, "is_reserved": 0, "type": "electric_scooter", "name": "8710f16bfd158af4b7998f0630bb238f", "lon": -77.0271635, "rental_uris": {"android": "https://dc.lft.to/lastmile_qr_scan", "ios": "https://dc.lft.to/lastmile_qr_scan"}, "fusion_lat": 0.0}, {"is_disabled": 0, "lat": 38.862443, "bike_id": "5a10f640eaec1e776b0d8be530cf6ae8", "fusion_lon": 0.0, "is_reserved": 0, "type": "electric_scooter", "name": "5a10f640eaec1e776b0d8be530cf6ae8", "lon": -76.99492316666667, "rental_uris": {"android": "https://dc.lft.to/lastmile_qr_scan", "ios": "https://dc.lft.to/lastmile_qr_scan"}, "fusion_lat": 0.0}, {"is_disabled": 0, "lat": 38.87731133333333, "bike_id": "b8e86ce41084a73951001a9c08ec3e19", "fusion_lon": 0.0, "is_reserved": 0, "type": "electric_bike", "name": "b8e86ce41084a73951001a9c08ec3e19", "lon": -76.981055, "rental_uris": {"android": "https://dc.lft.to/lastmile_qr_scan", "ios": "https://dc.lft.to/lastmile_qr_scan"}, "fusion_lat": 0.0}, {"is_disabled": 0, "lat": 38.909395333333336, "bike_id": "bb74f06a8f64aeb40d4152c6446fc85c", "fusion_lon": 0.0, "is_reserved": 0, "type": "electric_scooter", "name": "bb74f06a8f64aeb40d4152c6446fc85c", "lon": -77.02695316666667, "rental_uris": {"android": "https://dc.lft.to/lastmile_qr_scan", "ios": "https://dc.lft.to/lastmile_qr_scan"}, "fusion_lat": 0.0}, {"is_disabled": 0, "lat": 38.92006116666667, "bike_id": "b30396c0163b010533aa02de73c98c7f", "fusion_lon": 0.0, "is_reserved": 0, "type": "electric_scooter", "name": "b30396c0163b010533aa02de73c98c7f", "lon": -77.03217616666667, "rental_uris": {"android": "https://dc.lft.to/lastmile_qr_scan", "ios": "https://dc.lft.to/lastmile_qr_scan"}, "fusion_lat": 0.0}, {"is_disabled": 0, "lat": 38.92265016666666, "bike_id": "9371988726af100898660f4457ce6495", "fusion_lon": 0.0, "is_reserved": 0, "type": "electric_scooter", "name": "9371988726af100898660f4457ce6495", "lon": -77.03640266666666, "rental_uris": {"android": "https://dc.lft.to/lastmile_qr_scan", "ios": "https://dc.lft.to/lastmile_qr_scan"}, "fusion_lat": 0.0}, {"is_disabled": 0, "lat": 38.89473666666667, "bike_id": "d8bd1c34f64037c1e38688ea3d553fa6", "fusion_lon": 0.0, "is_reserved": 0, "type": "electric_scooter", "name": "d8bd1c34f64037c1e38688ea3d553fa6", "lon": -77.0019105, "rental_uris": {"android": "https://dc.lft.to/lastmile_qr_scan", "ios": "https://dc.lft.to/lastmile_qr_scan"}, "fusion_lat": 0.0}, {"is_disabled": 0, "lat": 38.903844, "bike_id": "fc0303945b69d797fa28fd0eecb108ee", "fusion_lon": 0.0, "is_reserved": 0, "type": "electric_scooter", "name": "fc0303945b69d797fa28fd0eecb108ee", "lon": -77.03857316666667, "rental_uris": {"android": "https://dc.lft.to/lastmile_qr_scan", "ios": "https://dc.lft.to/lastmile_qr_scan"}, "fusion_lat": 0.0}, {"is_disabled": 0, "lat": 38.9274575, "bike_id": "12e351bce9f088ac1f87cf76c221867d", "fusion_lon": 0.0, "is_reserved": 0, "type": "electric_scooter", "name": "12e351bce9f088ac1f87cf76c221867d", "lon": -77.033063, "rental_uris": {"android": "https://dc.lft.to/lastmile_qr_scan", "ios": "https://dc.lft.to/lastmile_qr_scan"}, "fusion_lat": 0.0}, {"is_disabled": 0, "lat": 38.905986, "bike_id": "6695b53340b9cf7df55431eec212bc3a", "fusion_lon": 0.0, "is_reserved": 0, "type": "electric_scooter", "name": "6695b53340b9cf7df55431eec212bc3a", "lon": -77.043442, "rental_uris": {"android": "https://dc.lft.to/lastmile_qr_scan", "ios": "https://dc.lft.to/lastmile_qr_scan"}, "fusion_lat": 0.0}, {"is_disabled": 0, "lat": 38.890897333333335, "bike_id": "4ccd52c6e0e8894b70f84e9c1eb89e59", "fusion_lon": 0.0, "is_reserved": 0, "type": "electric_scooter", "name": "4ccd52c6e0e8894b70f84e9c1eb89e59", "lon": -76.99788816666667, "rental_uris": {"android": "https://dc.lft.to/lastmile_qr_scan", "ios": "https://dc.lft.to/lastmile_qr_scan"}, "fusion_lat": 0.0}, {"is_disabled": 0, "lat": 38.9160945, "bike_id": "bbe356a4f35d0d54417e572d41664dfb", "fusion_lon": 0.0, "is_reserved": 0, "type": "electric_scooter", "name": "bbe356a4f35d0d54417e572d41664dfb", "lon": -77.02275216666666, "rental_uris": {"android": "https://dc.lft.to/lastmile_qr_scan", "ios": "https://dc.lft.to/lastmile_qr_scan"}, "fusion_lat": 0.0}, {"is_disabled": 0, "lat": 38.949399, "bike_id": "d9e6a50d13ae1455f8ac26aaa8baa83e", "fusion_lon": 0.0, "is_reserved": 0, "type": "electric_scooter", "name": "d9e6a50d13ae1455f8ac26aaa8baa83e", "lon": -77.01595, "rental_uris": {"android": "https://dc.lft.to/lastmile_qr_scan", "ios": "https://dc.lft.to/lastmile_qr_scan"}, "fusion_lat": 0.0}, {"is_disabled": 0, "lat": 38.906564833333334, "bike_id": "db3f785f0ba81fe891d79e7a8587aa07", "fusion_lon": 0.0, "is_reserved": 0, "type": "electric_scooter", "name": "db3f785f0ba81fe891d79e7a8587aa07", "lon": -77.06306833333333, "rental_uris": {"android": "https://dc.lft.to/lastmile_qr_scan", "ios": "https://dc.lft.to/lastmile_qr_scan"}, "fusion_lat": 0.0}, {"is_disabled": 0, "lat": 38.921476, "bike_id": "3fab94568fa3b4bdd84c687ddf43d48c", "fusion_lon": 0.0, "is_reserved": 0, "type": "electric_scooter", "name": "3fab94568fa3b4bdd84c687ddf43d48c", "lon": -77.02102283333333, "rental_uris": {"android": "https://dc.lft.to/lastmile_qr_scan", "ios": "https://dc.lft.to/lastmile_qr_scan"}, "fusion_lat": 0.0}, {"is_disabled": 0, "lat": 38.910318, "bike_id": "c28de26bef911aaeba8b73cd8677bc03", "fusion_lon": 0.0, "is_reserved": 0, "type": "electric_scooter", "name": "c28de26bef911aaeba8b73cd8677bc03", "lon": -76.98549766666666, "rental_uris": {"android": "https://dc.lft.to/lastmile_qr_scan", "ios": "https://dc.lft.to/lastmile_qr_scan"}, "fusion_lat": 0.0}, {"is_disabled": 0, "lat": 38.88991016666667, "bike_id": "f43a611319db07d816527d5a7ce77da8", "fusion_lon": 0.0, "is_reserved": 0, "type": "electric_scooter", "name": "f43a611319db07d816527d5a7ce77da8", "lon": -77.0007155, "rental_uris": {"android": "https://dc.lft.to/lastmile_qr_scan", "ios": "https://dc.lft.to/lastmile_qr_scan"}, "fusion_lat": 0.0}, {"is_disabled": 0, "lat": 38.923164166666666, "bike_id": "82fc270add83f02433ac34820c5ab708", "fusion_lon": 0.0, "is_reserved": 0, "type": "electric_scooter", "name": "82fc270add83f02433ac34820c5ab708", "lon": -77.04750533333333, "rental_uris": {"android": "https://dc.lft.to/lastmile_qr_scan", "ios": "https://dc.lft.to/lastmile_qr_scan"}, "fusion_lat": 0.0}, {"is_disabled": 0, "lat": 38.90980416666667, "bike_id": "e37a0d5335fa5f99ed1cc99743dbcb58", "fusion_lon": 0.0, "is_reserved": 0, "type": "electric_scooter", "name": "e37a0d5335fa5f99ed1cc99743dbcb58", "lon": -77.0336355, "rental_uris": {"android": "https://dc.lft.to/lastmile_qr_scan", "ios": "https://dc.lft.to/lastmile_qr_scan"}, "fusion_lat": 0.0}, {"is_disabled": 0, "lat": 38.904308, "bike_id": "68915167eafbbdd4a0ac87b9ebc66d7c", "fusion_lon": 0.0, "is_reserved": 0, "type": "electric_scooter", "name": "68915167eafbbdd4a0ac87b9ebc66d7c", "lon": -77.034429, "rental_uris": {"android": "https://dc.lft.to/lastmile_qr_scan", "ios": "https://dc.lft.to/lastmile_qr_scan"}, "fusion_lat": 0.0}, {"is_disabled": 0, "lat": 38.936463, "bike_id": "93858a4269fb83fc5092a16d21a70f32", "fusion_lon": 0.0, "is_reserved": 0, "type": "electric_scooter", "name": "93858a4269fb83fc5092a16d21a70f32", "lon": -77.032806, "rental_uris": {"android": "https://dc.lft.to/lastmile_qr_scan", "ios": "https://dc.lft.to/lastmile_qr_scan"}, "fusion_lat": 0.0}, {"is_disabled": 0, "lat": 38.9168955, "bike_id": "ee45b63340b233dbce13abdd5e70b001", "fusion_lon": 0.0, "is_reserved": 0, "type": "electric_scooter", "name": "ee45b63340b233dbce13abdd5e70b001", "lon": -77.02819883333333, "rental_uris": {"android": "https://dc.lft.to/lastmile_qr_scan", "ios": "https://dc.lft.to/lastmile_qr_scan"}, "fusion_lat": 0.0}, {"is_disabled": 0, "lat": 38.89608233333333, "bike_id": "9da78f3eb463b9a667f43d69d8a8e8c8", "fusion_lon": 0.0, "is_reserved": 0, "type": "electric_scooter", "name": "9da78f3eb463b9a667f43d69d8a8e8c8", "lon": -77.009253, "rental_uris": {"android": "https://dc.lft.to/lastmile_qr_scan", "ios": "https://dc.lft.to/lastmile_qr_scan"}, "fusion_lat": 0.0}, {"is_disabled": 0, "lat": 38.902005, "bike_id": "41f201a70e829873b3499c0817cdbb7c", "fusion_lon": 0.0, "is_reserved": 0, "type": "electric_scooter", "name": "41f201a70e829873b3499c0817cdbb7c", "lon": -77.022753, "rental_uris": {"android": "https://dc.lft.to/lastmile_qr_scan", "ios": "https://dc.lft.to/lastmile_qr_scan"}, "fusion_lat": 0.0}, {"is_disabled": 0, "lat": 38.91269, "bike_id": "29a6d8da5053c52f5b043edd0d614dac", "fusion_lon": 0.0, "is_reserved": 0, "type": "electric_scooter", "name": "29a6d8da5053c52f5b043edd0d614dac", "lon": -77.01067716666667, "rental_uris": {"android": "https://dc.lft.to/lastmile_qr_scan", "ios": "https://dc.lft.to/lastmile_qr_scan"}, "fusion_lat": 0.0}, {"is_disabled": 0, "lat": 38.94185, "bike_id": "e770fbed1ab8d35eea5e22d75a64f759", "fusion_lon": 0.0, "is_reserved": 0, "type": "electric_scooter", "name": "e770fbed1ab8d35eea5e22d75a64f759", "lon": -77.0249025, "rental_uris": {"android": "https://dc.lft.to/lastmile_qr_scan", "ios": "https://dc.lft.to/lastmile_qr_scan"}, "fusion_lat": 0.0}, {"is_disabled": 0, "lat": 38.89611033333333, "bike_id": "d3729fde972458fe4c5da943514bb053", "fusion_lon": 0.0, "is_reserved": 0, "type": "electric_scooter", "name": "d3729fde972458fe4c5da943514bb053", "lon": -77.0454415, "rental_uris": {"android": "https://dc.lft.to/lastmile_qr_scan", "ios": "https://dc.lft.to/lastmile_qr_scan"}, "fusion_lat": 0.0}, {"is_disabled": 0, "lat": 38.86218233333334, "bike_id": "9eff370d13c628bb4abc4770f5a83d37", "fusion_lon": 0.0, "is_reserved": 0, "type": "electric_scooter", "name": "9eff370d13c628bb4abc4770f5a83d37", "lon": -76.99456516666666, "rental_uris": {"android": "https://dc.lft.to/lastmile_qr_scan", "ios": "https://dc.lft.to/lastmile_qr_scan"}, "fusion_lat": 0.0}, {"is_disabled": 0, "lat": 38.983878, "bike_id": "92d402352da71b01050929ef67091592", "fusion_lon": 0.0, "is_reserved": 0, "type": "electric_bike", "name": "92d402352da71b01050929ef67091592", "lon": -77.00749916666666, "rental_uris": {"android": "https://dc.lft.to/lastmile_qr_scan", "ios": "https://dc.lft.to/lastmile_qr_scan"}, "fusion_lat": 0.0}, {"is_disabled": 0, "lat": 38.92816366666667, "bike_id": "ee3d44adeda41dce1a17040e94389650", "fusion_lon": 0.0, "is_reserved": 0, "type": "electric_scooter", "name": "ee3d44adeda41dce1a17040e94389650", "lon": -77.02868133333334, "rental_uris": {"android": "https://dc.lft.to/lastmile_qr_scan", "ios": "https://dc.lft.to/lastmile_qr_scan"}, "fusion_lat": 0.0}, {"is_disabled": 0, "lat": 38.92664966666667, "bike_id": "725a48e3613cf4c9e6544a104b197a5d", "fusion_lon": 0.0, "is_reserved": 0, "type": "electric_scooter", "name": "725a48e3613cf4c9e6544a104b197a5d", "lon": -77.02699683333333, "rental_uris": {"android": "https://dc.lft.to/lastmile_qr_scan", "ios": "https://dc.lft.to/lastmile_qr_scan"}, "fusion_lat": 0.0}, {"is_disabled": 0, "lat": 38.9203245, "bike_id": "af10a896c3a40c09f96422a7dd243a9f", "fusion_lon": 0.0, "is_reserved": 0, "type": "electric_scooter", "name": "af10a896c3a40c09f96422a7dd243a9f", "lon": -77.025863, "rental_uris": {"android": "https://dc.lft.to/lastmile_qr_scan", "ios": "https://dc.lft.to/lastmile_qr_scan"}, "fusion_lat": 0.0}, {"is_disabled": 0, "lat": 38.90127016666667, "bike_id": "2864c5e0cfd37f8c976c7580ac01f6e2", "fusion_lon": 0.0, "is_reserved": 0, "type": "electric_scooter", "name": "2864c5e0cfd37f8c976c7580ac01f6e2", "lon": -76.998777, "rental_uris": {"android": "https://dc.lft.to/lastmile_qr_scan", "ios": "https://dc.lft.to/lastmile_qr_scan"}, "fusion_lat": 0.0}, {"is_disabled": 0, "lat": 38.923867666666666, "bike_id": "c59d6c8cd837a007eaa68a6ea7d99560", "fusion_lon": 0.0, "is_reserved": 0, "type": "electric_scooter", "name": "c59d6c8cd837a007eaa68a6ea7d99560", "lon": -77.08037166666666, "rental_uris": {"android": "https://dc.lft.to/lastmile_qr_scan", "ios": "https://dc.lft.to/lastmile_qr_scan"}, "fusion_lat": 0.0}, {"is_disabled": 0, "lat": 38.90286583333334, "bike_id": "baa663bf3daac302623ddf52b41ea76e", "fusion_lon": 0.0, "is_reserved": 0, "type": "electric_scooter", "name": "baa663bf3daac302623ddf52b41ea76e", "lon": -76.98014866666666, "rental_uris": {"android": "https://dc.lft.to/lastmile_qr_scan", "ios": "https://dc.lft.to/lastmile_qr_scan"}, "fusion_lat": 0.0}, {"is_disabled": 0, "lat": 38.93249733333333, "bike_id": "557aed21bf4bd3ad2cf5240d7a6abd4a", "fusion_lon": 0.0, "is_reserved": 0, "type": "electric_scooter", "name": "557aed21bf4bd3ad2cf5240d7a6abd4a", "lon": -77.032694, "rental_uris": {"android": "https://dc.lft.to/lastmile_qr_scan", "ios": "https://dc.lft.to/lastmile_qr_scan"}, "fusion_lat": 0.0}, {"is_disabled": 0, "lat": 38.9207415, "bike_id": "5cf3624c568d035b9da43259f4376172", "fusion_lon": 0.0, "is_reserved": 0, "type": "electric_scooter", "name": "5cf3624c568d035b9da43259f4376172", "lon": -77.023898, "rental_uris": {"android": "https://dc.lft.to/lastmile_qr_scan", "ios": "https://dc.lft.to/lastmile_qr_scan"}, "fusion_lat": 0.0}, {"is_disabled": 0, "lat": 38.902406, "bike_id": "da5e8cbb6396b6f9d0c111f9f3bd9dcb", "fusion_lon": 0.0, "is_reserved": 0, "type": "electric_scooter", "name": "da5e8cbb6396b6f9d0c111f9f3bd9dcb", "lon": -77.002035, "rental_uris": {"android": "https://dc.lft.to/lastmile_qr_scan", "ios": "https://dc.lft.to/lastmile_qr_scan"}, "fusion_lat": 0.0}, {"is_disabled": 0, "lat": 38.91417633333333, "bike_id": "e9b62223e3032ef712c138e465d2a768", "fusion_lon": 0.0, "is_reserved": 0, "type": "electric_scooter", "name": "e9b62223e3032ef712c138e465d2a768", "lon": -77.02615966666667, "rental_uris": {"android": "https://dc.lft.to/lastmile_qr_scan", "ios": "https://dc.lft.to/lastmile_qr_scan"}, "fusion_lat": 0.0}, {"is_disabled": 0, "lat": 38.905065, "bike_id": "708a8c5bee4fd0257063a40b3edca53e", "fusion_lon": 0.0, "is_reserved": 0, "type": "electric_scooter", "name": "708a8c5bee4fd0257063a40b3edca53e", "lon": -77.04494116666666, "rental_uris": {"android": "https://dc.lft.to/lastmile_qr_scan", "ios": "https://dc.lft.to/lastmile_qr_scan"}, "fusion_lat": 0.0}, {"is_disabled": 0, "lat": 38.9000485, "bike_id": "6dc34a1b4010876e99c1cd35edd9c45c", "fusion_lon": 0.0, "is_reserved": 0, "type": "electric_scooter", "name": "6dc34a1b4010876e99c1cd35edd9c45c", "lon": -77.04665133333333, "rental_uris": {"android": "https://dc.lft.to/lastmile_qr_scan", "ios": "https://dc.lft.to/lastmile_qr_scan"}, "fusion_lat": 0.0}, {"is_disabled": 0, "lat": 38.928166166666664, "bike_id": "e930c0944458960dec10f985a998f6ce", "fusion_lon": 0.0, "is_reserved": 0, "type": "electric_scooter", "name": "e930c0944458960dec10f985a998f6ce", "lon": -77.029042, "rental_uris": {"android": "https://dc.lft.to/lastmile_qr_scan", "ios": "https://dc.lft.to/lastmile_qr_scan"}, "fusion_lat": 0.0}, {"is_disabled": 0, "lat": 38.906482833333335, "bike_id": "9f2e0ff90a6691c075593e471421f2f7", "fusion_lon": 0.0, "is_reserved": 0, "type": "electric_scooter", "name": "9f2e0ff90a6691c075593e471421f2f7", "lon": -77.03841266666667, "rental_uris": {"android": "https://dc.lft.to/lastmile_qr_scan", "ios": "https://dc.lft.to/lastmile_qr_scan"}, "fusion_lat": 0.0}, {"is_disabled": 0, "lat": 38.89927266666667, "bike_id": "e5ff39915c506e69a45e06caae698467", "fusion_lon": 0.0, "is_reserved": 0, "type": "electric_scooter", "name": "e5ff39915c506e69a45e06caae698467", "lon": -77.00061883333333, "rental_uris": {"android": "https://dc.lft.to/lastmile_qr_scan", "ios": "https://dc.lft.to/lastmile_qr_scan"}, "fusion_lat": 0.0}, {"is_disabled": 0, "lat": 38.8922095, "bike_id": "476df289c1ef2fd2cf9df4a26518bca2", "fusion_lon": 0.0, "is_reserved": 0, "type": "electric_scooter", "name": "476df289c1ef2fd2cf9df4a26518bca2", "lon": -77.02647716666667, "rental_uris": {"android": "https://dc.lft.to/lastmile_qr_scan", "ios": "https://dc.lft.to/lastmile_qr_scan"}, "fusion_lat": 0.0}, {"is_disabled": 0, "lat": 38.91413583333333, "bike_id": "42128198659da91990637b86f58f284f", "fusion_lon": 0.0, "is_reserved": 0, "type": "electric_scooter", "name": "42128198659da91990637b86f58f284f", "lon": -77.02113183333333, "rental_uris": {"android": "https://dc.lft.to/lastmile_qr_scan", "ios": "https://dc.lft.to/lastmile_qr_scan"}, "fusion_lat": 0.0}, {"is_disabled": 0, "lat": 38.86627933333333, "bike_id": "470fb2648aa30878558e7021f5afeb3d", "fusion_lon": 0.0, "is_reserved": 0, "type": "electric_scooter", "name": "470fb2648aa30878558e7021f5afeb3d", "lon": -76.98718283333334, "rental_uris": {"android": "https://dc.lft.to/lastmile_qr_scan", "ios": "https://dc.lft.to/lastmile_qr_scan"}, "fusion_lat": 0.0}, {"is_disabled": 0, "lat": 38.90573883333333, "bike_id": "1b9259f51142fe69d6ab85ef0e8df556", "fusion_lon": 0.0, "is_reserved": 0, "type": "electric_scooter", "name": "1b9259f51142fe69d6ab85ef0e8df556", "lon": -77.03983966666667, "rental_uris": {"android": "https://dc.lft.to/lastmile_qr_scan", "ios": "https://dc.lft.to/lastmile_qr_scan"}, "fusion_lat": 0.0}, {"is_disabled": 0, "lat": 38.91630833333333, "bike_id": "e917222fe204196bdebc5cd4bc0cd546", "fusion_lon": 0.0, "is_reserved": 0, "type": "electric_scooter", "name": "e917222fe204196bdebc5cd4bc0cd546", "lon": -77.007377, "rental_uris": {"android": "https://dc.lft.to/lastmile_qr_scan", "ios": "https://dc.lft.to/lastmile_qr_scan"}, "fusion_lat": 0.0}, {"is_disabled": 0, "lat": 38.9994405, "bike_id": "228734d333e31193ce3233ea4a256d15", "fusion_lon": 0.0, "is_reserved": 0, "type": "electric_bike", "name": "228734d333e31193ce3233ea4a256d15", "lon": -77.07429, "rental_uris": {"android": "https://dc.lft.to/lastmile_qr_scan", "ios": "https://dc.lft.to/lastmile_qr_scan"}, "fusion_lat": 0.0}, {"is_disabled": 0, "lat": 38.910007666666665, "bike_id": "e54b3a77fe694048865ec61d9661cd71", "fusion_lon": 0.0, "is_reserved": 0, "type": "electric_bike", "name": "e54b3a77fe694048865ec61d9661cd71", "lon": -77.04625633333333, "rental_uris": {"android": "https://dc.lft.to/lastmile_qr_scan", "ios": "https://dc.lft.to/lastmile_qr_scan"}, "fusion_lat": 0.0}, {"is_disabled": 0, "lat": 38.93081883333333, "bike_id": "c1733f1f5b76ec851b8f15fe070158a5", "fusion_lon": 0.0, "is_reserved": 0, "type": "electric_scooter", "name": "c1733f1f5b76ec851b8f15fe070158a5", "lon": -77.02342466666667, "rental_uris": {"android": "https://dc.lft.to/lastmile_qr_scan", "ios": "https://dc.lft.to/lastmile_qr_scan"}, "fusion_lat": 0.0}, {"is_disabled": 0, "lat": 38.91928983333333, "bike_id": "1c92e2f409ad8340b2f94d9ce46d357c", "fusion_lon": 0.0, "is_reserved": 0, "type": "electric_scooter", "name": "1c92e2f409ad8340b2f94d9ce46d357c", "lon": -77.02414183333333, "rental_uris": {"android": "https://dc.lft.to/lastmile_qr_scan", "ios": "https://dc.lft.to/lastmile_qr_scan"}, "fusion_lat": 0.0}, {"is_disabled": 0, "lat": 38.90253583333333, "bike_id": "29011935a4b428b4e65df2088cfdb11b", "fusion_lon": 0.0, "is_reserved": 0, "type": "electric_scooter", "name": "29011935a4b428b4e65df2088cfdb11b", "lon": -77.028063, "rental_uris": {"android": "https://dc.lft.to/lastmile_qr_scan", "ios": "https://dc.lft.to/lastmile_qr_scan"}, "fusion_lat": 0.0}, {"is_disabled": 0, "lat": 38.926634166666666, "bike_id": "c51137c6a4648aba3bf2e88f169e008a", "fusion_lon": 0.0, "is_reserved": 0, "type": "electric_scooter", "name": "c51137c6a4648aba3bf2e88f169e008a", "lon": -76.99558266666666, "rental_uris": {"android": "https://dc.lft.to/lastmile_qr_scan", "ios": "https://dc.lft.to/lastmile_qr_scan"}, "fusion_lat": 0.0}, {"is_disabled": 0, "lat": 38.905672333333335, "bike_id": "52903843264db7f66e85a1107da9b3a6", "fusion_lon": 0.0, "is_reserved": 0, "type": "electric_scooter", "name": "52903843264db7f66e85a1107da9b3a6", "lon": -77.01971, "rental_uris": {"android": "https://dc.lft.to/lastmile_qr_scan", "ios": "https://dc.lft.to/lastmile_qr_scan"}, "fusion_lat": 0.0}, {"is_disabled": 0, "lat": 38.912766, "bike_id": "1454a0bd8ca1b6d8b7eba35ebf35bddd", "fusion_lon": 0.0, "is_reserved": 0, "type": "electric_scooter", "name": "1454a0bd8ca1b6d8b7eba35ebf35bddd", "lon": -77.01973883333334, "rental_uris": {"android": "https://dc.lft.to/lastmile_qr_scan", "ios": "https://dc.lft.to/lastmile_qr_scan"}, "fusion_lat": 0.0}, {"is_disabled": 0, "lat": 38.898318833333335, "bike_id": "cffb333374dc135ea6617e4fd1e906e6", "fusion_lon": 0.0, "is_reserved": 0, "type": "electric_scooter", "name": "cffb333374dc135ea6617e4fd1e906e6", "lon": -77.02638016666667, "rental_uris": {"android": "https://dc.lft.to/lastmile_qr_scan", "ios": "https://dc.lft.to/lastmile_qr_scan"}, "fusion_lat": 0.0}, {"is_disabled": 0, "lat": 38.928998666666665, "bike_id": "97aaa3de4c3da51f968647b24898192d", "fusion_lon": 0.0, "is_reserved": 0, "type": "electric_scooter", "name": "97aaa3de4c3da51f968647b24898192d", "lon": -77.01632333333333, "rental_uris": {"android": "https://dc.lft.to/lastmile_qr_scan", "ios": "https://dc.lft.to/lastmile_qr_scan"}, "fusion_lat": 0.0}, {"is_disabled": 0, "lat": 38.862587, "bike_id": "b2cfd8130cf9a0769c2e038feef41399", "fusion_lon": 0.0, "is_reserved": 0, "type": "electric_scooter", "name": "b2cfd8130cf9a0769c2e038feef41399", "lon": -76.99550533333333, "rental_uris": {"android": "https://dc.lft.to/lastmile_qr_scan", "ios": "https://dc.lft.to/lastmile_qr_scan"}, "fusion_lat": 0.0}, {"is_disabled": 0, "lat": 38.8879745, "bike_id": "b34725b4478f0aeefeccb567b3c8a162", "fusion_lon": 0.0, "is_reserved": 0, "type": "electric_bike", "name": "b34725b4478f0aeefeccb567b3c8a162", "lon": -77.0757505, "rental_uris": {"android": "https://dc.lft.to/lastmile_qr_scan", "ios": "https://dc.lft.to/lastmile_qr_scan"}, "fusion_lat": 0.0}, {"is_disabled": 0, "lat": 38.87612016666667, "bike_id": "f2f05db0ea49821f10956bd35495cc07", "fusion_lon": 0.0, "is_reserved": 0, "type": "electric_scooter", "name": "f2f05db0ea49821f10956bd35495cc07", "lon": -76.93129033333334, "rental_uris": {"android": "https://dc.lft.to/lastmile_qr_scan", "ios": "https://dc.lft.to/lastmile_qr_scan"}, "fusion_lat": 0.0}, {"is_disabled": 0, "lat": 38.9246275, "bike_id": "1f575e351323488cf8be7a3d920a9f68", "fusion_lon": 0.0, "is_reserved": 0, "type": "electric_scooter", "name": "1f575e351323488cf8be7a3d920a9f68", "lon": -77.02027016666666, "rental_uris": {"android": "https://dc.lft.to/lastmile_qr_scan", "ios": "https://dc.lft.to/lastmile_qr_scan"}, "fusion_lat": 0.0}, {"is_disabled": 0, "lat": 38.9125435, "bike_id": "8fe8703f6fad7fffebf95353a1cfb9c8", "fusion_lon": 0.0, "is_reserved": 0, "type": "electric_scooter", "name": "8fe8703f6fad7fffebf95353a1cfb9c8", "lon": -77.0318, "rental_uris": {"android": "https://dc.lft.to/lastmile_qr_scan", "ios": "https://dc.lft.to/lastmile_qr_scan"}, "fusion_lat": 0.0}, {"is_disabled": 0, "lat": 38.915442, "bike_id": "ba252f9782ad698b98f1a94bca36c94c", "fusion_lon": 0.0, "is_reserved": 0, "type": "electric_scooter", "name": "ba252f9782ad698b98f1a94bca36c94c", "lon": -77.03856333333333, "rental_uris": {"android": "https://dc.lft.to/lastmile_qr_scan", "ios": "https://dc.lft.to/lastmile_qr_scan"}, "fusion_lat": 0.0}, {"is_disabled": 0, "lat": 38.955418333333334, "bike_id": "095fa12427dce4a1c591e4027f3fbad4", "fusion_lon": 0.0, "is_reserved": 0, "type": "electric_bike", "name": "095fa12427dce4a1c591e4027f3fbad4", "lon": -76.96852616666666, "rental_uris": {"android": "https://dc.lft.to/lastmile_qr_scan", "ios": "https://dc.lft.to/lastmile_qr_scan"}, "fusion_lat": 0.0}, {"is_disabled": 0, "lat": 38.924717, "bike_id": "2a0b4c019da168724be9ca773c7a0d7e", "fusion_lon": 0.0, "is_reserved": 0, "type": "electric_scooter", "name": "2a0b4c019da168724be9ca773c7a0d7e", "lon": -77.0211425, "rental_uris": {"android": "https://dc.lft.to/lastmile_qr_scan", "ios": "https://dc.lft.to/lastmile_qr_scan"}, "fusion_lat": 0.0}, {"is_disabled": 0, "lat": 38.926158, "bike_id": "fa033e7fb54d5793e9f795b64a45da8c", "fusion_lon": 0.0, "is_reserved": 0, "type": "electric_scooter", "name": "fa033e7fb54d5793e9f795b64a45da8c", "lon": -77.02157883333334, "rental_uris": {"android": "https://dc.lft.to/lastmile_qr_scan", "ios": "https://dc.lft.to/lastmile_qr_scan"}, "fusion_lat": 0.0}, {"is_disabled": 0, "lat": 38.901066, "bike_id": "fc0e471b34b8a24ef212bd54c4962bd9", "fusion_lon": 0.0, "is_reserved": 0, "type": "electric_scooter", "name": "fc0e471b34b8a24ef212bd54c4962bd9", "lon": -77.04860266666667, "rental_uris": {"android": "https://dc.lft.to/lastmile_qr_scan", "ios": "https://dc.lft.to/lastmile_qr_scan"}, "fusion_lat": 0.0}, {"is_disabled": 0, "lat": 38.86463833333333, "bike_id": "1bb32ad9938b3139a0b2a3bc24f5862b", "fusion_lon": 0.0, "is_reserved": 0, "type": "electric_scooter", "name": "1bb32ad9938b3139a0b2a3bc24f5862b", "lon": -77.0123985, "rental_uris": {"android": "https://dc.lft.to/lastmile_qr_scan", "ios": "https://dc.lft.to/lastmile_qr_scan"}, "fusion_lat": 0.0}, {"is_disabled": 0, "lat": 38.8636805, "bike_id": "c5b2edae81dd002a28a6a1d74447f586", "fusion_lon": 0.0, "is_reserved": 0, "type": "electric_bike", "name": "c5b2edae81dd002a28a6a1d74447f586", "lon": -76.97008683333334, "rental_uris": {"android": "https://dc.lft.to/lastmile_qr_scan", "ios": "https://dc.lft.to/lastmile_qr_scan"}, "fusion_lat": 0.0}, {"is_disabled": 0, "lat": 38.92057533333333, "bike_id": "84f6e2acd9faa3275b331cf45f9e992f", "fusion_lon": 0.0, "is_reserved": 0, "type": "electric_scooter", "name": "84f6e2acd9faa3275b331cf45f9e992f", "lon": -77.02356866666666, "rental_uris": {"android": "https://dc.lft.to/lastmile_qr_scan", "ios": "https://dc.lft.to/lastmile_qr_scan"}, "fusion_lat": 0.0}, {"is_disabled": 0, "lat": 38.914133666666665, "bike_id": "b0820eb4666e4e3eac6b2c1c8f7285da", "fusion_lon": 0.0, "is_reserved": 0, "type": "electric_scooter", "name": "b0820eb4666e4e3eac6b2c1c8f7285da", "lon": -77.01877583333334, "rental_uris": {"android": "https://dc.lft.to/lastmile_qr_scan", "ios": "https://dc.lft.to/lastmile_qr_scan"}, "fusion_lat": 0.0}, {"is_disabled": 0, "lat": 38.886230833333336, "bike_id": "da86578c85128748ce410cc18b19a89a", "fusion_lon": 0.0, "is_reserved": 0, "type": "electric_scooter", "name": "da86578c85128748ce410cc18b19a89a", "lon": -76.99607783333333, "rental_uris": {"android": "https://dc.lft.to/lastmile_qr_scan", "ios": "https://dc.lft.to/lastmile_qr_scan"}, "fusion_lat": 0.0}, {"is_disabled": 0, "lat": 38.921044333333334, "bike_id": "48a1d08058567094fa19ad9df4227aba", "fusion_lon": 0.0, "is_reserved": 0, "type": "electric_bike", "name": "48a1d08058567094fa19ad9df4227aba", "lon": -77.0315455, "rental_uris": {"android": "https://dc.lft.to/lastmile_qr_scan", "ios": "https://dc.lft.to/lastmile_qr_scan"}, "fusion_lat": 0.0}, {"is_disabled": 0, "lat": 38.936052333333336, "bike_id": "fe53dc8bbdcbb7bd92794f5ac5e13a79", "fusion_lon": 0.0, "is_reserved": 0, "type": "electric_scooter", "name": "fe53dc8bbdcbb7bd92794f5ac5e13a79", "lon": -77.031769, "rental_uris": {"android": "https://dc.lft.to/lastmile_qr_scan", "ios": "https://dc.lft.to/lastmile_qr_scan"}, "fusion_lat": 0.0}, {"is_disabled": 0, "lat": 38.915388, "bike_id": "c3e63df5a29690771d84672d363c48cf", "fusion_lon": 0.0, "is_reserved": 0, "type": "electric_scooter", "name": "c3e63df5a29690771d84672d363c48cf", "lon": -77.03185633333334, "rental_uris": {"android": "https://dc.lft.to/lastmile_qr_scan", "ios": "https://dc.lft.to/lastmile_qr_scan"}, "fusion_lat": 0.0}, {"is_disabled": 0, "lat": 38.912144166666664, "bike_id": "fc24a2ad2cef8a907fbb0c35cf83f4a1", "fusion_lon": 0.0, "is_reserved": 0, "type": "electric_scooter", "name": "fc24a2ad2cef8a907fbb0c35cf83f4a1", "lon": -77.07603466666667, "rental_uris": {"android": "https://dc.lft.to/lastmile_qr_scan", "ios": "https://dc.lft.to/lastmile_qr_scan"}, "fusion_lat": 0.0}, {"is_disabled": 0, "lat": 38.899034, "bike_id": "cdf40417b6806e13a8a8798d6a23c940", "fusion_lon": 0.0, "is_reserved": 0, "type": "electric_scooter", "name": "cdf40417b6806e13a8a8798d6a23c940", "lon": -77.03283333333333, "rental_uris": {"android": "https://dc.lft.to/lastmile_qr_scan", "ios": "https://dc.lft.to/lastmile_qr_scan"}, "fusion_lat": 0.0}, {"is_disabled": 0, "lat": 38.878614166666665, "bike_id": "8d478aee2b7e60716c1b1d79515f1623", "fusion_lon": 0.0, "is_reserved": 0, "type": "electric_scooter", "name": "8d478aee2b7e60716c1b1d79515f1623", "lon": -76.937634, "rental_uris": {"android": "https://dc.lft.to/lastmile_qr_scan", "ios": "https://dc.lft.to/lastmile_qr_scan"}, "fusion_lat": 0.0}, {"is_disabled": 0, "lat": 38.915653666666664, "bike_id": "a9151ee03956a7915e38bcf168ede189", "fusion_lon": 0.0, "is_reserved": 0, "type": "electric_scooter", "name": "a9151ee03956a7915e38bcf168ede189", "lon": -77.03015566666667, "rental_uris": {"android": "https://dc.lft.to/lastmile_qr_scan", "ios": "https://dc.lft.to/lastmile_qr_scan"}, "fusion_lat": 0.0}, {"is_disabled": 0, "lat": 38.89828416666667, "bike_id": "10a72a45fda78969d9ff9e8429e0f8f0", "fusion_lon": 0.0, "is_reserved": 0, "type": "electric_scooter", "name": "10a72a45fda78969d9ff9e8429e0f8f0", "lon": -77.03025683333334, "rental_uris": {"android": "https://dc.lft.to/lastmile_qr_scan", "ios": "https://dc.lft.to/lastmile_qr_scan"}, "fusion_lat": 0.0}, {"is_disabled": 0, "lat": 38.8941185, "bike_id": "388ea553ca28bb4ccd6cffb4a46f9c68", "fusion_lon": 0.0, "is_reserved": 0, "type": "electric_scooter", "name": "388ea553ca28bb4ccd6cffb4a46f9c68", "lon": -76.99856166666666, "rental_uris": {"android": "https://dc.lft.to/lastmile_qr_scan", "ios": "https://dc.lft.to/lastmile_qr_scan"}, "fusion_lat": 0.0}, {"is_disabled": 0, "lat": 38.90501716666667, "bike_id": "676fd1962d000259f0a14021b2e510ae", "fusion_lon": 0.0, "is_reserved": 0, "type": "electric_scooter", "name": "676fd1962d000259f0a14021b2e510ae", "lon": -77.00116283333334, "rental_uris": {"android": "https://dc.lft.to/lastmile_qr_scan", "ios": "https://dc.lft.to/lastmile_qr_scan"}, "fusion_lat": 0.0}, {"is_disabled": 0, "lat": 38.864841166666665, "bike_id": "673ca118d654fa8742908d255c80b04a", "fusion_lon": 0.0, "is_reserved": 0, "type": "electric_bike", "name": "673ca118d654fa8742908d255c80b04a", "lon": -76.94503383333333, "rental_uris": {"android": "https://dc.lft.to/lastmile_qr_scan", "ios": "https://dc.lft.to/lastmile_qr_scan"}, "fusion_lat": 0.0}, {"is_disabled": 0, "lat": 38.9460125, "bike_id": "392236359bc5d1a84a52ee34257f9af0", "fusion_lon": 0.0, "is_reserved": 0, "type": "electric_scooter", "name": "392236359bc5d1a84a52ee34257f9af0", "lon": -76.99016916666666, "rental_uris": {"android": "https://dc.lft.to/lastmile_qr_scan", "ios": "https://dc.lft.to/lastmile_qr_scan"}, "fusion_lat": 0.0}, {"is_disabled": 0, "lat": 39.06293933333333, "bike_id": "92f12d3eb30628bc3c5f3bc4ea54fb3f", "fusion_lon": 0.0, "is_reserved": 0, "type": "electric_bike", "name": "92f12d3eb30628bc3c5f3bc4ea54fb3f", "lon": -77.0498115, "rental_uris": {"android": "https://dc.lft.to/lastmile_qr_scan", "ios": "https://dc.lft.to/lastmile_qr_scan"}, "fusion_lat": 0.0}, {"is_disabled": 0, "lat": 38.89977583333334, "bike_id": "0f1f7ac83e591f82d4377e4742dfc0e1", "fusion_lon": 0.0, "is_reserved": 0, "type": "electric_scooter", "name": "0f1f7ac83e591f82d4377e4742dfc0e1", "lon": -76.93774083333334, "rental_uris": {"android": "https://dc.lft.to/lastmile_qr_scan", "ios": "https://dc.lft.to/lastmile_qr_scan"}, "fusion_lat": 0.0}, {"is_disabled": 0, "lat": 38.896115333333334, "bike_id": "e765678cf2a65ae96d3783b95388316c", "fusion_lon": 0.0, "is_reserved": 0, "type": "electric_scooter", "name": "e765678cf2a65ae96d3783b95388316c", "lon": -77.04594, "rental_uris": {"android": "https://dc.lft.to/lastmile_qr_scan", "ios": "https://dc.lft.to/lastmile_qr_scan"}, "fusion_lat": 0.0}, {"is_disabled": 0, "lat": 38.908854, "bike_id": "c02bc5feb42a4bd29925a106946a4b1e", "fusion_lon": 0.0, "is_reserved": 0, "type": "electric_scooter", "name": "c02bc5feb42a4bd29925a106946a4b1e", "lon": -77.02312233333333, "rental_uris": {"android": "https://dc.lft.to/lastmile_qr_scan", "ios": "https://dc.lft.to/lastmile_qr_scan"}, "fusion_lat": 0.0}, {"is_disabled": 0, "lat": 38.90370133333333, "bike_id": "88a69e091893c45b542cea35db9dc9f3", "fusion_lon": 0.0, "is_reserved": 0, "type": "electric_scooter", "name": "88a69e091893c45b542cea35db9dc9f3", "lon": -77.0451545, "rental_uris": {"android": "https://dc.lft.to/lastmile_qr_scan", "ios": "https://dc.lft.to/lastmile_qr_scan"}, "fusion_lat": 0.0}, {"is_disabled": 0, "lat": 38.918397666666664, "bike_id": "5107ea527a0f4dc697d4cf40405a6d36", "fusion_lon": 0.0, "is_reserved": 0, "type": "electric_scooter", "name": "5107ea527a0f4dc697d4cf40405a6d36", "lon": -77.01207516666666, "rental_uris": {"android": "https://dc.lft.to/lastmile_qr_scan", "ios": "https://dc.lft.to/lastmile_qr_scan"}, "fusion_lat": 0.0}, {"is_disabled": 0, "lat": 38.892247833333336, "bike_id": "0b014bc14010223c1545e26a8338df47", "fusion_lon": 0.0, "is_reserved": 0, "type": "electric_scooter", "name": "0b014bc14010223c1545e26a8338df47", "lon": -77.026091, "rental_uris": {"android": "https://dc.lft.to/lastmile_qr_scan", "ios": "https://dc.lft.to/lastmile_qr_scan"}, "fusion_lat": 0.0}, {"is_disabled": 0, "lat": 38.913351, "bike_id": "3298009fd8a030233badbece9f88bfea", "fusion_lon": 0.0, "is_reserved": 0, "type": "electric_scooter", "name": "3298009fd8a030233badbece9f88bfea", "lon": -77.0423875, "rental_uris": {"android": "https://dc.lft.to/lastmile_qr_scan", "ios": "https://dc.lft.to/lastmile_qr_scan"}, "fusion_lat": 0.0}, {"is_disabled": 0, "lat": 38.91713983333333, "bike_id": "606558b35003a8e6e3a283ad14cf2103", "fusion_lon": 0.0, "is_reserved": 0, "type": "electric_scooter", "name": "606558b35003a8e6e3a283ad14cf2103", "lon": -77.008863, "rental_uris": {"android": "https://dc.lft.to/lastmile_qr_scan", "ios": "https://dc.lft.to/lastmile_qr_scan"}, "fusion_lat": 0.0}, {"is_disabled": 0, "lat": 38.91713216666667, "bike_id": "fa49aca8d149adaa36def31a314e8c08", "fusion_lon": 0.0, "is_reserved": 0, "type": "electric_scooter", "name": "fa49aca8d149adaa36def31a314e8c08", "lon": -77.0336095, "rental_uris": {"android": "https://dc.lft.to/lastmile_qr_scan", "ios": "https://dc.lft.to/lastmile_qr_scan"}, "fusion_lat": 0.0}, {"is_disabled": 0, "lat": 38.8620335, "bike_id": "9b1dee17a4f7417f4b6215d558fdbb75", "fusion_lon": 0.0, "is_reserved": 0, "type": "electric_scooter", "name": "9b1dee17a4f7417f4b6215d558fdbb75", "lon": -76.991244, "rental_uris": {"android": "https://dc.lft.to/lastmile_qr_scan", "ios": "https://dc.lft.to/lastmile_qr_scan"}, "fusion_lat": 0.0}, {"is_disabled": 0, "lat": 38.855196, "bike_id": "1b2eed2f9fdab461daf0fb57feea552d", "fusion_lon": 0.0, "is_reserved": 0, "type": "electric_bike", "name": "1b2eed2f9fdab461daf0fb57feea552d", "lon": -76.98433316666667, "rental_uris": {"android": "https://dc.lft.to/lastmile_qr_scan", "ios": "https://dc.lft.to/lastmile_qr_scan"}, "fusion_lat": 0.0}, {"is_disabled": 0, "lat": 38.903720666666665, "bike_id": "907d15e50d388324961c3819a9d49ba9", "fusion_lon": 0.0, "is_reserved": 0, "type": "electric_scooter", "name": "907d15e50d388324961c3819a9d49ba9", "lon": -77.04482166666666, "rental_uris": {"android": "https://dc.lft.to/lastmile_qr_scan", "ios": "https://dc.lft.to/lastmile_qr_scan"}, "fusion_lat": 0.0}, {"is_disabled": 0, "lat": 38.86224466666667, "bike_id": "1cc506d505519758ae071260b524b36f", "fusion_lon": 0.0, "is_reserved": 0, "type": "electric_scooter", "name": "1cc506d505519758ae071260b524b36f", "lon": -76.9946655, "rental_uris": {"android": "https://dc.lft.to/lastmile_qr_scan", "ios": "https://dc.lft.to/lastmile_qr_scan"}, "fusion_lat": 0.0}, {"is_disabled": 0, "lat": 38.929049166666665, "bike_id": "b380eaeeed6fa8082b278c8516ec2176", "fusion_lon": 0.0, "is_reserved": 0, "type": "electric_scooter", "name": "b380eaeeed6fa8082b278c8516ec2176", "lon": -77.064907, "rental_uris": {"android": "https://dc.lft.to/lastmile_qr_scan", "ios": "https://dc.lft.to/lastmile_qr_scan"}, "fusion_lat": 0.0}, {"is_disabled": 0, "lat": 38.916186833333335, "bike_id": "d0f7e5f0197c2ae35e79caba119568e7", "fusion_lon": 0.0, "is_reserved": 0, "type": "electric_scooter", "name": "d0f7e5f0197c2ae35e79caba119568e7", "lon": -77.038519, "rental_uris": {"android": "https://dc.lft.to/lastmile_qr_scan", "ios": "https://dc.lft.to/lastmile_qr_scan"}, "fusion_lat": 0.0}, {"is_disabled": 0, "lat": 38.88976733333333, "bike_id": "4141d87a9e1e537775ee12c511cde413", "fusion_lon": 0.0, "is_reserved": 0, "type": "electric_scooter", "name": "4141d87a9e1e537775ee12c511cde413", "lon": -77.00078633333334, "rental_uris": {"android": "https://dc.lft.to/lastmile_qr_scan", "ios": "https://dc.lft.to/lastmile_qr_scan"}, "fusion_lat": 0.0}, {"is_disabled": 0, "lat": 38.89998466666667, "bike_id": "d64572667b69adc6a31814b5af9e0c4f", "fusion_lon": 0.0, "is_reserved": 0, "type": "electric_scooter", "name": "d64572667b69adc6a31814b5af9e0c4f", "lon": -77.04040583333334, "rental_uris": {"android": "https://dc.lft.to/lastmile_qr_scan", "ios": "https://dc.lft.to/lastmile_qr_scan"}, "fusion_lat": 0.0}, {"is_disabled": 0, "lat": 38.984281333333335, "bike_id": "b28b749820b2bb78b764de76e40c4442", "fusion_lon": 0.0, "is_reserved": 0, "type": "electric_scooter", "name": "b28b749820b2bb78b764de76e40c4442", "lon": -77.02668666666666, "rental_uris": {"android": "https://dc.lft.to/lastmile_qr_scan", "ios": "https://dc.lft.to/lastmile_qr_scan"}, "fusion_lat": 0.0}, {"is_disabled": 0, "lat": 38.928368, "bike_id": "4f5bab9bbe6b3c833612a27c7b1f0e7a", "fusion_lon": 0.0, "is_reserved": 0, "type": "electric_scooter", "name": "4f5bab9bbe6b3c833612a27c7b1f0e7a", "lon": -77.032857, "rental_uris": {"android": "https://dc.lft.to/lastmile_qr_scan", "ios": "https://dc.lft.to/lastmile_qr_scan"}, "fusion_lat": 0.0}, {"is_disabled": 0, "lat": 38.902123333333336, "bike_id": "34cfce7ce11de280b8ac0f23cde2cf9a", "fusion_lon": 0.0, "is_reserved": 0, "type": "electric_scooter", "name": "34cfce7ce11de280b8ac0f23cde2cf9a", "lon": -77.0199205, "rental_uris": {"android": "https://dc.lft.to/lastmile_qr_scan", "ios": "https://dc.lft.to/lastmile_qr_scan"}, "fusion_lat": 0.0}, {"is_disabled": 0, "lat": 38.943196, "bike_id": "6776b9cfd400a0f27ef387aca4286cd7", "fusion_lon": 0.0, "is_reserved": 0, "type": "electric_scooter", "name": "6776b9cfd400a0f27ef387aca4286cd7", "lon": -77.06178316666667, "rental_uris": {"android": "https://dc.lft.to/lastmile_qr_scan", "ios": "https://dc.lft.to/lastmile_qr_scan"}, "fusion_lat": 0.0}, {"is_disabled": 0, "lat": 38.92834783333333, "bike_id": "5afa39e29d66d6dd00914300da9dec42", "fusion_lon": 0.0, "is_reserved": 0, "type": "electric_scooter", "name": "5afa39e29d66d6dd00914300da9dec42", "lon": -77.03285116666666, "rental_uris": {"android": "https://dc.lft.to/lastmile_qr_scan", "ios": "https://dc.lft.to/lastmile_qr_scan"}, "fusion_lat": 0.0}, {"is_disabled": 0, "lat": 38.879641166666666, "bike_id": "8e0270cd587834057a5fcfcceb88529e", "fusion_lon": 0.0, "is_reserved": 0, "type": "electric_bike", "name": "8e0270cd587834057a5fcfcceb88529e", "lon": -76.98521183333334, "rental_uris": {"android": "https://dc.lft.to/lastmile_qr_scan", "ios": "https://dc.lft.to/lastmile_qr_scan"}, "fusion_lat": 0.0}, {"is_disabled": 0, "lat": 38.87691066666667, "bike_id": "bf129192214f7ec1a7bee58ed706ef7f", "fusion_lon": 0.0, "is_reserved": 0, "type": "electric_scooter", "name": "bf129192214f7ec1a7bee58ed706ef7f", "lon": -77.0176065, "rental_uris": {"android": "https://dc.lft.to/lastmile_qr_scan", "ios": "https://dc.lft.to/lastmile_qr_scan"}, "fusion_lat": 0.0}, {"is_disabled": 0, "lat": 38.90044316666667, "bike_id": "07873dc1b2856909d7c260760dad4d30", "fusion_lon": 0.0, "is_reserved": 0, "type": "electric_scooter", "name": "07873dc1b2856909d7c260760dad4d30", "lon": -76.98826983333333, "rental_uris": {"android": "https://dc.lft.to/lastmile_qr_scan", "ios": "https://dc.lft.to/lastmile_qr_scan"}, "fusion_lat": 0.0}, {"is_disabled": 0, "lat": 38.8792795, "bike_id": "0fa9ad432e1b4d8c0db72d22d87ed769", "fusion_lon": 0.0, "is_reserved": 0, "type": "electric_scooter", "name": "0fa9ad432e1b4d8c0db72d22d87ed769", "lon": -77.00532283333334, "rental_uris": {"android": "https://dc.lft.to/lastmile_qr_scan", "ios": "https://dc.lft.to/lastmile_qr_scan"}, "fusion_lat": 0.0}, {"is_disabled": 0, "lat": 38.9058725, "bike_id": "b14f80edbe5a81839f577a1e6fa55add", "fusion_lon": 0.0, "is_reserved": 0, "type": "electric_scooter", "name": "b14f80edbe5a81839f577a1e6fa55add", "lon": -77.05129966666667, "rental_uris": {"android": "https://dc.lft.to/lastmile_qr_scan", "ios": "https://dc.lft.to/lastmile_qr_scan"}, "fusion_lat": 0.0}, {"is_disabled": 0, "lat": 38.867458, "bike_id": "7793489f493d9ac446382ec27fdcbd63", "fusion_lon": 0.0, "is_reserved": 0, "type": "electric_bike", "name": "7793489f493d9ac446382ec27fdcbd63", "lon": -77.1170925, "rental_uris": {"android": "https://dc.lft.to/lastmile_qr_scan", "ios": "https://dc.lft.to/lastmile_qr_scan"}, "fusion_lat": 0.0}, {"is_disabled": 0, "lat": 38.917078833333335, "bike_id": "d786cfed858fd84ebfb0aa38f706a9f5", "fusion_lon": 0.0, "is_reserved": 0, "type": "electric_scooter", "name": "d786cfed858fd84ebfb0aa38f706a9f5", "lon": -77.02410466666667, "rental_uris": {"android": "https://dc.lft.to/lastmile_qr_scan", "ios": "https://dc.lft.to/lastmile_qr_scan"}, "fusion_lat": 0.0}, {"is_disabled": 0, "lat": 38.89814333333333, "bike_id": "492eeb1c0eecb0d34ad312cad0cc09ef", "fusion_lon": 0.0, "is_reserved": 0, "type": "electric_scooter", "name": "492eeb1c0eecb0d34ad312cad0cc09ef", "lon": -77.00711466666667, "rental_uris": {"android": "https://dc.lft.to/lastmile_qr_scan", "ios": "https://dc.lft.to/lastmile_qr_scan"}, "fusion_lat": 0.0}, {"is_disabled": 0, "lat": 38.882700666666665, "bike_id": "536cb825ee7269c725553794253a8b40", "fusion_lon": 0.0, "is_reserved": 0, "type": "electric_scooter", "name": "536cb825ee7269c725553794253a8b40", "lon": -77.00373683333333, "rental_uris": {"android": "https://dc.lft.to/lastmile_qr_scan", "ios": "https://dc.lft.to/lastmile_qr_scan"}, "fusion_lat": 0.0}, {"is_disabled": 0, "lat": 38.898578666666666, "bike_id": "6fdda50d89cf1a5b4d10785c27a62ea4", "fusion_lon": 0.0, "is_reserved": 0, "type": "electric_scooter", "name": "6fdda50d89cf1a5b4d10785c27a62ea4", "lon": -77.02581266666667, "rental_uris": {"android": "https://dc.lft.to/lastmile_qr_scan", "ios": "https://dc.lft.to/lastmile_qr_scan"}, "fusion_lat": 0.0}, {"is_disabled": 0, "lat": 38.903652666666666, "bike_id": "87389d6c6e75e8eb485017ed87f43f39", "fusion_lon": 0.0, "is_reserved": 0, "type": "electric_scooter", "name": "87389d6c6e75e8eb485017ed87f43f39", "lon": -77.03857633333334, "rental_uris": {"android": "https://dc.lft.to/lastmile_qr_scan", "ios": "https://dc.lft.to/lastmile_qr_scan"}, "fusion_lat": 0.0}, {"is_disabled": 0, "lat": 38.894474, "bike_id": "fc7d54e7e34bedc0e35cdd5afe594d0f", "fusion_lon": 0.0, "is_reserved": 0, "type": "electric_scooter", "name": "fc7d54e7e34bedc0e35cdd5afe594d0f", "lon": -77.02022783333334, "rental_uris": {"android": "https://dc.lft.to/lastmile_qr_scan", "ios": "https://dc.lft.to/lastmile_qr_scan"}, "fusion_lat": 0.0}, {"is_disabled": 0, "lat": 38.91309916666667, "bike_id": "bbf3268a9c0f90e8f1b2249fdd1052fe", "fusion_lon": 0.0, "is_reserved": 0, "type": "electric_scooter", "name": "bbf3268a9c0f90e8f1b2249fdd1052fe", "lon": -77.04485333333334, "rental_uris": {"android": "https://dc.lft.to/lastmile_qr_scan", "ios": "https://dc.lft.to/lastmile_qr_scan"}, "fusion_lat": 0.0}, {"is_disabled": 0, "lat": 38.902643, "bike_id": "bfb806b76c7c633c7abfd05982acfbcc", "fusion_lon": 0.0, "is_reserved": 0, "type": "electric_scooter", "name": "bfb806b76c7c633c7abfd05982acfbcc", "lon": -77.0616125, "rental_uris": {"android": "https://dc.lft.to/lastmile_qr_scan", "ios": "https://dc.lft.to/lastmile_qr_scan"}, "fusion_lat": 0.0}, {"is_disabled": 0, "lat": 38.8564985, "bike_id": "fb1fc4d2c34a3e17eb9b0b4052fc41e9", "fusion_lon": 0.0, "is_reserved": 0, "type": "electric_bike", "name": "fb1fc4d2c34a3e17eb9b0b4052fc41e9", "lon": -77.1125365, "rental_uris": {"android": "https://dc.lft.to/lastmile_qr_scan", "ios": "https://dc.lft.to/lastmile_qr_scan"}, "fusion_lat": 0.0}, {"is_disabled": 0, "lat": 38.88479666666667, "bike_id": "138c187599a214ed451bc67442150893", "fusion_lon": 0.0, "is_reserved": 0, "type": "electric_bike", "name": "138c187599a214ed451bc67442150893", "lon": -77.01510483333334, "rental_uris": {"android": "https://dc.lft.to/lastmile_qr_scan", "ios": "https://dc.lft.to/lastmile_qr_scan"}, "fusion_lat": 0.0}, {"is_disabled": 0, "lat": 38.917141666666666, "bike_id": "77a5b4fb7f109fed0ddbd6596a799b73", "fusion_lon": 0.0, "is_reserved": 0, "type": "electric_scooter", "name": "77a5b4fb7f109fed0ddbd6596a799b73", "lon": -77.0350005, "rental_uris": {"android": "https://dc.lft.to/lastmile_qr_scan", "ios": "https://dc.lft.to/lastmile_qr_scan"}, "fusion_lat": 0.0}, {"is_disabled": 0, "lat": 38.9369545, "bike_id": "5b1ae12cf9763e40fe3810e369ed557e", "fusion_lon": 0.0, "is_reserved": 0, "type": "electric_scooter", "name": "5b1ae12cf9763e40fe3810e369ed557e", "lon": -77.02717066666666, "rental_uris": {"android": "https://dc.lft.to/lastmile_qr_scan", "ios": "https://dc.lft.to/lastmile_qr_scan"}, "fusion_lat": 0.0}, {"is_disabled": 0, "lat": 38.84818716666667, "bike_id": "1f53efdf0b0192f7c90aa126faf7de2e", "fusion_lon": 0.0, "is_reserved": 0, "type": "electric_bike", "name": "1f53efdf0b0192f7c90aa126faf7de2e", "lon": -77.08454916666666, "rental_uris": {"android": "https://dc.lft.to/lastmile_qr_scan", "ios": "https://dc.lft.to/lastmile_qr_scan"}, "fusion_lat": 0.0}, {"is_disabled": 0, "lat": 38.933009, "bike_id": "36839485f88d64f6d546e59f07d8e234", "fusion_lon": 0.0, "is_reserved": 0, "type": "electric_scooter", "name": "36839485f88d64f6d546e59f07d8e234", "lon": -77.02807, "rental_uris": {"android": "https://dc.lft.to/lastmile_qr_scan", "ios": "https://dc.lft.to/lastmile_qr_scan"}, "fusion_lat": 0.0}, {"is_disabled": 0, "lat": 38.90146266666667, "bike_id": "c23bb0b4fe7ded3c323dbc3fb99a07e1", "fusion_lon": 0.0, "is_reserved": 0, "type": "electric_scooter", "name": "c23bb0b4fe7ded3c323dbc3fb99a07e1", "lon": -77.0416155, "rental_uris": {"android": "https://dc.lft.to/lastmile_qr_scan", "ios": "https://dc.lft.to/lastmile_qr_scan"}, "fusion_lat": 0.0}, {"is_disabled": 0, "lat": 38.8935345, "bike_id": "8ba302b548a9f887f271362be06e1fdb", "fusion_lon": 0.0, "is_reserved": 0, "type": "electric_bike", "name": "8ba302b548a9f887f271362be06e1fdb", "lon": -77.18735316666667, "rental_uris": {"android": "https://dc.lft.to/lastmile_qr_scan", "ios": "https://dc.lft.to/lastmile_qr_scan"}, "fusion_lat": 0.0}, {"is_disabled": 0, "lat": 38.8792225, "bike_id": "8809616471bd5445539fc30c79640ee5", "fusion_lon": 0.0, "is_reserved": 0, "type": "electric_scooter", "name": "8809616471bd5445539fc30c79640ee5", "lon": -77.0132975, "rental_uris": {"android": "https://dc.lft.to/lastmile_qr_scan", "ios": "https://dc.lft.to/lastmile_qr_scan"}, "fusion_lat": 0.0}, {"is_disabled": 0, "lat": 38.892228, "bike_id": "dce4ef54e90775aa004cf18e40b9a205", "fusion_lon": 0.0, "is_reserved": 0, "type": "electric_scooter", "name": "dce4ef54e90775aa004cf18e40b9a205", "lon": -77.04375566666667, "rental_uris": {"android": "https://dc.lft.to/lastmile_qr_scan", "ios": "https://dc.lft.to/lastmile_qr_scan"}, "fusion_lat": 0.0}, {"is_disabled": 0, "lat": 38.9164385, "bike_id": "4ddd97e745b660bcc9b49caaa281e118", "fusion_lon": 0.0, "is_reserved": 0, "type": "electric_scooter", "name": "4ddd97e745b660bcc9b49caaa281e118", "lon": -77.02282483333333, "rental_uris": {"android": "https://dc.lft.to/lastmile_qr_scan", "ios": "https://dc.lft.to/lastmile_qr_scan"}, "fusion_lat": 0.0}, {"is_disabled": 0, "lat": 38.897336333333335, "bike_id": "b65975170b2c7e4f92b1d7b3461331d9", "fusion_lon": 0.0, "is_reserved": 0, "type": "electric_scooter", "name": "b65975170b2c7e4f92b1d7b3461331d9", "lon": -77.0547525, "rental_uris": {"android": "https://dc.lft.to/lastmile_qr_scan", "ios": "https://dc.lft.to/lastmile_qr_scan"}, "fusion_lat": 0.0}, {"is_disabled": 0, "lat": 38.9225385, "bike_id": "f98b3acfca534f3370ed158bc232166f", "fusion_lon": 0.0, "is_reserved": 0, "type": "electric_scooter", "name": "f98b3acfca534f3370ed158bc232166f", "lon": -77.0340665, "rental_uris": {"android": "https://dc.lft.to/lastmile_qr_scan", "ios": "https://dc.lft.to/lastmile_qr_scan"}, "fusion_lat": 0.0}, {"is_disabled": 0, "lat": 38.91112183333333, "bike_id": "22077ab701036b8bfcf1b3f850aa3242", "fusion_lon": 0.0, "is_reserved": 0, "type": "electric_scooter", "name": "22077ab701036b8bfcf1b3f850aa3242", "lon": -77.0308025, "rental_uris": {"android": "https://dc.lft.to/lastmile_qr_scan", "ios": "https://dc.lft.to/lastmile_qr_scan"}, "fusion_lat": 0.0}, {"is_disabled": 0, "lat": 38.91703866666667, "bike_id": "bd4262b5eb43ed212549c991d8cce5a5", "fusion_lon": 0.0, "is_reserved": 0, "type": "electric_scooter", "name": "bd4262b5eb43ed212549c991d8cce5a5", "lon": -77.007157, "rental_uris": {"android": "https://dc.lft.to/lastmile_qr_scan", "ios": "https://dc.lft.to/lastmile_qr_scan"}, "fusion_lat": 0.0}, {"is_disabled": 0, "lat": 38.92808483333334, "bike_id": "765de9249a452c8e1605eea20a572628", "fusion_lon": 0.0, "is_reserved": 0, "type": "electric_bike", "name": "765de9249a452c8e1605eea20a572628", "lon": -77.032722, "rental_uris": {"android": "https://dc.lft.to/lastmile_qr_scan", "ios": "https://dc.lft.to/lastmile_qr_scan"}, "fusion_lat": 0.0}, {"is_disabled": 0, "lat": 38.890147166666665, "bike_id": "c4b09d385520efed7fa3b3a02a8599ab", "fusion_lon": 0.0, "is_reserved": 0, "type": "electric_scooter", "name": "c4b09d385520efed7fa3b3a02a8599ab", "lon": -76.937346, "rental_uris": {"android": "https://dc.lft.to/lastmile_qr_scan", "ios": "https://dc.lft.to/lastmile_qr_scan"}, "fusion_lat": 0.0}, {"is_disabled": 0, "lat": 38.9960335, "bike_id": "65bc7d89a1896a32be6d91dfad7082bc", "fusion_lon": 0.0, "is_reserved": 0, "type": "electric_bike", "name": "65bc7d89a1896a32be6d91dfad7082bc", "lon": -77.0779825, "rental_uris": {"android": "https://dc.lft.to/lastmile_qr_scan", "ios": "https://dc.lft.to/lastmile_qr_scan"}, "fusion_lat": 0.0}, {"is_disabled": 0, "lat": 38.8931265, "bike_id": "055bffd4a8fa1f2463706e4180aa18db", "fusion_lon": 0.0, "is_reserved": 0, "type": "electric_scooter", "name": "055bffd4a8fa1f2463706e4180aa18db", "lon": -77.01202566666667, "rental_uris": {"android": "https://dc.lft.to/lastmile_qr_scan", "ios": "https://dc.lft.to/lastmile_qr_scan"}, "fusion_lat": 0.0}, {"is_disabled": 0, "lat": 38.93201833333333, "bike_id": "0fb268cebbe9d2072d236f8277b67c17", "fusion_lon": 0.0, "is_reserved": 0, "type": "electric_scooter", "name": "0fb268cebbe9d2072d236f8277b67c17", "lon": -77.0385575, "rental_uris": {"android": "https://dc.lft.to/lastmile_qr_scan", "ios": "https://dc.lft.to/lastmile_qr_scan"}, "fusion_lat": 0.0}, {"is_disabled": 0, "lat": 38.900029, "bike_id": "91a2b21af3112d9b65805ecbfcd11988", "fusion_lon": 0.0, "is_reserved": 0, "type": "electric_scooter", "name": "91a2b21af3112d9b65805ecbfcd11988", "lon": -77.02926216666667, "rental_uris": {"android": "https://dc.lft.to/lastmile_qr_scan", "ios": "https://dc.lft.to/lastmile_qr_scan"}, "fusion_lat": 0.0}, {"is_disabled": 0, "lat": 38.918077833333335, "bike_id": "9c968a6156edfe5ba0d12a570bd54b90", "fusion_lon": 0.0, "is_reserved": 0, "type": "electric_scooter", "name": "9c968a6156edfe5ba0d12a570bd54b90", "lon": -77.0092855, "rental_uris": {"android": "https://dc.lft.to/lastmile_qr_scan", "ios": "https://dc.lft.to/lastmile_qr_scan"}, "fusion_lat": 0.0}, {"is_disabled": 0, "lat": 38.9213875, "bike_id": "b06a784b409a5f299778886e045f30d1", "fusion_lon": 0.0, "is_reserved": 0, "type": "electric_scooter", "name": "b06a784b409a5f299778886e045f30d1", "lon": -77.044393, "rental_uris": {"android": "https://dc.lft.to/lastmile_qr_scan", "ios": "https://dc.lft.to/lastmile_qr_scan"}, "fusion_lat": 0.0}, {"is_disabled": 0, "lat": 38.9177805, "bike_id": "daa8c626fa4b69f0aab4068bc4cd8027", "fusion_lon": 0.0, "is_reserved": 0, "type": "electric_scooter", "name": "daa8c626fa4b69f0aab4068bc4cd8027", "lon": -77.0410335, "rental_uris": {"android": "https://dc.lft.to/lastmile_qr_scan", "ios": "https://dc.lft.to/lastmile_qr_scan"}, "fusion_lat": 0.0}, {"is_disabled": 0, "lat": 38.88496583333333, "bike_id": "47fad15af7e71eecb251325ff598f1e1", "fusion_lon": 0.0, "is_reserved": 0, "type": "electric_scooter", "name": "47fad15af7e71eecb251325ff598f1e1", "lon": -77.0072635, "rental_uris": {"android": "https://dc.lft.to/lastmile_qr_scan", "ios": "https://dc.lft.to/lastmile_qr_scan"}, "fusion_lat": 0.0}, {"is_disabled": 0, "lat": 38.86214833333333, "bike_id": "47a8f059ad88215e2c43a131de70d03c", "fusion_lon": 0.0, "is_reserved": 0, "type": "electric_scooter", "name": "47a8f059ad88215e2c43a131de70d03c", "lon": -76.9956485, "rental_uris": {"android": "https://dc.lft.to/lastmile_qr_scan", "ios": "https://dc.lft.to/lastmile_qr_scan"}, "fusion_lat": 0.0}, {"is_disabled": 0, "lat": 38.9159485, "bike_id": "58abba077adb14eb6ada2f0429e458cd", "fusion_lon": 0.0, "is_reserved": 0, "type": "electric_scooter", "name": "58abba077adb14eb6ada2f0429e458cd", "lon": -77.01133316666666, "rental_uris": {"android": "https://dc.lft.to/lastmile_qr_scan", "ios": "https://dc.lft.to/lastmile_qr_scan"}, "fusion_lat": 0.0}, {"is_disabled": 0, "lat": 38.91072883333333, "bike_id": "dc062c693228b5ef2ffea6fd8d59fa81", "fusion_lon": 0.0, "is_reserved": 0, "type": "electric_scooter", "name": "dc062c693228b5ef2ffea6fd8d59fa81", "lon": -76.99787433333333, "rental_uris": {"android": "https://dc.lft.to/lastmile_qr_scan", "ios": "https://dc.lft.to/lastmile_qr_scan"}, "fusion_lat": 0.0}, {"is_disabled": 0, "lat": 38.903574666666664, "bike_id": "1bbf10a4fea03eda57f620d2042a56db", "fusion_lon": 0.0, "is_reserved": 0, "type": "electric_scooter", "name": "1bbf10a4fea03eda57f620d2042a56db", "lon": -77.036589, "rental_uris": {"android": "https://dc.lft.to/lastmile_qr_scan", "ios": "https://dc.lft.to/lastmile_qr_scan"}, "fusion_lat": 0.0}, {"is_disabled": 0, "lat": 38.922141333333336, "bike_id": "43c28880b0ce5f08bd9a2f7e752c9e8a", "fusion_lon": 0.0, "is_reserved": 0, "type": "electric_scooter", "name": "43c28880b0ce5f08bd9a2f7e752c9e8a", "lon": -77.03755416666667, "rental_uris": {"android": "https://dc.lft.to/lastmile_qr_scan", "ios": "https://dc.lft.to/lastmile_qr_scan"}, "fusion_lat": 0.0}, {"is_disabled": 0, "lat": 38.923779333333336, "bike_id": "1f88b01b4c85114c5e6b9dc755e92568", "fusion_lon": 0.0, "is_reserved": 0, "type": "electric_scooter", "name": "1f88b01b4c85114c5e6b9dc755e92568", "lon": -76.99391216666666, "rental_uris": {"android": "https://dc.lft.to/lastmile_qr_scan", "ios": "https://dc.lft.to/lastmile_qr_scan"}, "fusion_lat": 0.0}, {"is_disabled": 0, "lat": 38.88743516666667, "bike_id": "c2d77ffdba4f7ddd9ff7e1221350ca6d", "fusion_lon": 0.0, "is_reserved": 0, "type": "electric_scooter", "name": "c2d77ffdba4f7ddd9ff7e1221350ca6d", "lon": -76.983588, "rental_uris": {"android": "https://dc.lft.to/lastmile_qr_scan", "ios": "https://dc.lft.to/lastmile_qr_scan"}, "fusion_lat": 0.0}, {"is_disabled": 0, "lat": 38.88526533333334, "bike_id": "c039b47e267e80345150498f520e41e8", "fusion_lon": 0.0, "is_reserved": 0, "type": "electric_scooter", "name": "c039b47e267e80345150498f520e41e8", "lon": -76.98272016666667, "rental_uris": {"android": "https://dc.lft.to/lastmile_qr_scan", "ios": "https://dc.lft.to/lastmile_qr_scan"}, "fusion_lat": 0.0}, {"is_disabled": 0, "lat": 38.9002105, "bike_id": "5b19aeb3744d50dec59f36a8dff96db9", "fusion_lon": 0.0, "is_reserved": 0, "type": "electric_scooter", "name": "5b19aeb3744d50dec59f36a8dff96db9", "lon": -77.05061883333333, "rental_uris": {"android": "https://dc.lft.to/lastmile_qr_scan", "ios": "https://dc.lft.to/lastmile_qr_scan"}, "fusion_lat": 0.0}, {"is_disabled": 0, "lat": 38.93637716666667, "bike_id": "b7e7237c5357e5cb999ec29afbf762fb", "fusion_lon": 0.0, "is_reserved": 0, "type": "electric_scooter", "name": "b7e7237c5357e5cb999ec29afbf762fb", "lon": -77.05885066666667, "rental_uris": {"android": "https://dc.lft.to/lastmile_qr_scan", "ios": "https://dc.lft.to/lastmile_qr_scan"}, "fusion_lat": 0.0}, {"is_disabled": 0, "lat": 38.903939, "bike_id": "60f3a8431f480945a5b3347ea71a83ac", "fusion_lon": 0.0, "is_reserved": 0, "type": "electric_scooter", "name": "60f3a8431f480945a5b3347ea71a83ac", "lon": -76.98100316666667, "rental_uris": {"android": "https://dc.lft.to/lastmile_qr_scan", "ios": "https://dc.lft.to/lastmile_qr_scan"}, "fusion_lat": 0.0}, {"is_disabled": 0, "lat": 38.89080516666667, "bike_id": "e60d3238a8c33dd7d5b5f7f808ca862f", "fusion_lon": 0.0, "is_reserved": 0, "type": "electric_scooter", "name": "e60d3238a8c33dd7d5b5f7f808ca862f", "lon": -76.99843233333333, "rental_uris": {"android": "https://dc.lft.to/lastmile_qr_scan", "ios": "https://dc.lft.to/lastmile_qr_scan"}, "fusion_lat": 0.0}, {"is_disabled": 0, "lat": 38.909604, "bike_id": "319d7d4409e8d49f57ebb5ce8e25ed11", "fusion_lon": 0.0, "is_reserved": 0, "type": "electric_scooter", "name": "319d7d4409e8d49f57ebb5ce8e25ed11", "lon": -77.02003416666666, "rental_uris": {"android": "https://dc.lft.to/lastmile_qr_scan", "ios": "https://dc.lft.to/lastmile_qr_scan"}, "fusion_lat": 0.0}, {"is_disabled": 0, "lat": 38.93289933333333, "bike_id": "ca2dbffca3231d64dc8c21acfd1b8506", "fusion_lon": 0.0, "is_reserved": 0, "type": "electric_scooter", "name": "ca2dbffca3231d64dc8c21acfd1b8506", "lon": -77.0252595, "rental_uris": {"android": "https://dc.lft.to/lastmile_qr_scan", "ios": "https://dc.lft.to/lastmile_qr_scan"}, "fusion_lat": 0.0}, {"is_disabled": 0, "lat": 38.924031, "bike_id": "a729e6d36d633e865c1ca5f2964eb9ec", "fusion_lon": 0.0, "is_reserved": 0, "type": "electric_scooter", "name": "a729e6d36d633e865c1ca5f2964eb9ec", "lon": -77.0254265, "rental_uris": {"android": "https://dc.lft.to/lastmile_qr_scan", "ios": "https://dc.lft.to/lastmile_qr_scan"}, "fusion_lat": 0.0}, {"is_disabled": 0, "lat": 38.903567, "bike_id": "5d73c0ed30a307f164232ccad394c9f2", "fusion_lon": 0.0, "is_reserved": 0, "type": "electric_scooter", "name": "5d73c0ed30a307f164232ccad394c9f2", "lon": -77.03316733333334, "rental_uris": {"android": "https://dc.lft.to/lastmile_qr_scan", "ios": "https://dc.lft.to/lastmile_qr_scan"}, "fusion_lat": 0.0}, {"is_disabled": 0, "lat": 38.939724166666664, "bike_id": "ee4ea7f5447a8eac4223ac5159663d85", "fusion_lon": 0.0, "is_reserved": 0, "type": "electric_scooter", "name": "ee4ea7f5447a8eac4223ac5159663d85", "lon": -77.03260233333333, "rental_uris": {"android": "https://dc.lft.to/lastmile_qr_scan", "ios": "https://dc.lft.to/lastmile_qr_scan"}, "fusion_lat": 0.0}, {"is_disabled": 0, "lat": 38.90841433333333, "bike_id": "95222f1b7cf4e872d9760d51b0ff03a2", "fusion_lon": 0.0, "is_reserved": 0, "type": "electric_scooter", "name": "95222f1b7cf4e872d9760d51b0ff03a2", "lon": -77.02696716666667, "rental_uris": {"android": "https://dc.lft.to/lastmile_qr_scan", "ios": "https://dc.lft.to/lastmile_qr_scan"}, "fusion_lat": 0.0}, {"is_disabled": 0, "lat": 38.8443165, "bike_id": "7077f06af3b54acaed8286ab807f48a8", "fusion_lon": 0.0, "is_reserved": 0, "type": "electric_scooter", "name": "7077f06af3b54acaed8286ab807f48a8", "lon": -76.99781416666667, "rental_uris": {"android": "https://dc.lft.to/lastmile_qr_scan", "ios": "https://dc.lft.to/lastmile_qr_scan"}, "fusion_lat": 0.0}, {"is_disabled": 0, "lat": 38.89583916666667, "bike_id": "320ecd66df1ea90a73ac511c25677527", "fusion_lon": 0.0, "is_reserved": 0, "type": "electric_scooter", "name": "320ecd66df1ea90a73ac511c25677527", "lon": -77.02709666666667, "rental_uris": {"android": "https://dc.lft.to/lastmile_qr_scan", "ios": "https://dc.lft.to/lastmile_qr_scan"}, "fusion_lat": 0.0}, {"is_disabled": 0, "lat": 38.90332516666667, "bike_id": "20e87a0fb2504be8d3660f7bb917d2eb", "fusion_lon": 0.0, "is_reserved": 0, "type": "electric_bike", "name": "20e87a0fb2504be8d3660f7bb917d2eb", "lon": -76.97529666666667, "rental_uris": {"android": "https://dc.lft.to/lastmile_qr_scan", "ios": "https://dc.lft.to/lastmile_qr_scan"}, "fusion_lat": 0.0}, {"is_disabled": 0, "lat": 38.91680233333334, "bike_id": "a333b840f212474da7de02d870b82908", "fusion_lon": 0.0, "is_reserved": 0, "type": "electric_scooter", "name": "a333b840f212474da7de02d870b82908", "lon": -77.0297025, "rental_uris": {"android": "https://dc.lft.to/lastmile_qr_scan", "ios": "https://dc.lft.to/lastmile_qr_scan"}, "fusion_lat": 0.0}, {"is_disabled": 0, "lat": 38.92088866666667, "bike_id": "7c445785f0ae636e466c2943152bc9cf", "fusion_lon": 0.0, "is_reserved": 0, "type": "electric_scooter", "name": "7c445785f0ae636e466c2943152bc9cf", "lon": -77.02260666666666, "rental_uris": {"android": "https://dc.lft.to/lastmile_qr_scan", "ios": "https://dc.lft.to/lastmile_qr_scan"}, "fusion_lat": 0.0}, {"is_disabled": 0, "lat": 38.90831716666667, "bike_id": "a98b08bd668a4ec6dadedc3ab73d0200", "fusion_lon": 0.0, "is_reserved": 0, "type": "electric_scooter", "name": "a98b08bd668a4ec6dadedc3ab73d0200", "lon": -77.044588, "rental_uris": {"android": "https://dc.lft.to/lastmile_qr_scan", "ios": "https://dc.lft.to/lastmile_qr_scan"}, "fusion_lat": 0.0}, {"is_disabled": 0, "lat": 38.8998975, "bike_id": "a75c16b6795a19264961e759ffe0eb40", "fusion_lon": 0.0, "is_reserved": 0, "type": "electric_scooter", "name": "a75c16b6795a19264961e759ffe0eb40", "lon": -76.99492983333333, "rental_uris": {"android": "https://dc.lft.to/lastmile_qr_scan", "ios": "https://dc.lft.to/lastmile_qr_scan"}, "fusion_lat": 0.0}, {"is_disabled": 0, "lat": 38.913641, "bike_id": "f8294e9ceccbcc09960515ed6934a220", "fusion_lon": 0.0, "is_reserved": 0, "type": "electric_scooter", "name": "f8294e9ceccbcc09960515ed6934a220", "lon": -77.046545, "rental_uris": {"android": "https://dc.lft.to/lastmile_qr_scan", "ios": "https://dc.lft.to/lastmile_qr_scan"}, "fusion_lat": 0.0}, {"is_disabled": 0, "lat": 38.895563833333334, "bike_id": "3d533b93c86a6185be9d566bbf519a29", "fusion_lon": 0.0, "is_reserved": 0, "type": "electric_scooter", "name": "3d533b93c86a6185be9d566bbf519a29", "lon": -77.04673583333333, "rental_uris": {"android": "https://dc.lft.to/lastmile_qr_scan", "ios": "https://dc.lft.to/lastmile_qr_scan"}, "fusion_lat": 0.0}, {"is_disabled": 0, "lat": 38.89531733333333, "bike_id": "f34540790e05f8c22950d137061c4e16", "fusion_lon": 0.0, "is_reserved": 0, "type": "electric_scooter", "name": "f34540790e05f8c22950d137061c4e16", "lon": -77.00344566666666, "rental_uris": {"android": "https://dc.lft.to/lastmile_qr_scan", "ios": "https://dc.lft.to/lastmile_qr_scan"}, "fusion_lat": 0.0}, {"is_disabled": 0, "lat": 38.9156195, "bike_id": "86fa246d7133be6cbe2cf0526d538282", "fusion_lon": 0.0, "is_reserved": 0, "type": "electric_scooter", "name": "86fa246d7133be6cbe2cf0526d538282", "lon": -77.05215533333333, "rental_uris": {"android": "https://dc.lft.to/lastmile_qr_scan", "ios": "https://dc.lft.to/lastmile_qr_scan"}, "fusion_lat": 0.0}, {"is_disabled": 0, "lat": 38.91530566666667, "bike_id": "afc902d1bc864b1a3e5fd398fcd6657a", "fusion_lon": 0.0, "is_reserved": 0, "type": "electric_scooter", "name": "afc902d1bc864b1a3e5fd398fcd6657a", "lon": -77.04462016666666, "rental_uris": {"android": "https://dc.lft.to/lastmile_qr_scan", "ios": "https://dc.lft.to/lastmile_qr_scan"}, "fusion_lat": 0.0}, {"is_disabled": 0, "lat": 38.936421333333335, "bike_id": "f74ebfb19d8d2f89d617a64edd6e22e0", "fusion_lon": 0.0, "is_reserved": 0, "type": "electric_scooter", "name": "f74ebfb19d8d2f89d617a64edd6e22e0", "lon": -77.03286916666667, "rental_uris": {"android": "https://dc.lft.to/lastmile_qr_scan", "ios": "https://dc.lft.to/lastmile_qr_scan"}, "fusion_lat": 0.0}, {"is_disabled": 0, "lat": 38.89370666666667, "bike_id": "3a84c2ae538a139f42d1a4a2178acc60", "fusion_lon": 0.0, "is_reserved": 0, "type": "electric_scooter", "name": "3a84c2ae538a139f42d1a4a2178acc60", "lon": -77.023658, "rental_uris": {"android": "https://dc.lft.to/lastmile_qr_scan", "ios": "https://dc.lft.to/lastmile_qr_scan"}, "fusion_lat": 0.0}, {"is_disabled": 0, "lat": 38.89238183333333, "bike_id": "dc66e67c683e493c854a0d15cc0c0ff7", "fusion_lon": 0.0, "is_reserved": 0, "type": "electric_scooter", "name": "dc66e67c683e493c854a0d15cc0c0ff7", "lon": -77.04501766666667, "rental_uris": {"android": "https://dc.lft.to/lastmile_qr_scan", "ios": "https://dc.lft.to/lastmile_qr_scan"}, "fusion_lat": 0.0}, {"is_disabled": 0, "lat": 38.93144783333334, "bike_id": "60e33c4dfc1be7aa87f7ce3ff2455982", "fusion_lon": 0.0, "is_reserved": 0, "type": "electric_scooter", "name": "60e33c4dfc1be7aa87f7ce3ff2455982", "lon": -77.05718816666666, "rental_uris": {"android": "https://dc.lft.to/lastmile_qr_scan", "ios": "https://dc.lft.to/lastmile_qr_scan"}, "fusion_lat": 0.0}, {"is_disabled": 0, "lat": 38.89853133333333, "bike_id": "998469dda867345ebd767c0d8c674b66", "fusion_lon": 0.0, "is_reserved": 0, "type": "electric_scooter", "name": "998469dda867345ebd767c0d8c674b66", "lon": -77.043674, "rental_uris": {"android": "https://dc.lft.to/lastmile_qr_scan", "ios": "https://dc.lft.to/lastmile_qr_scan"}, "fusion_lat": 0.0}, {"is_disabled": 0, "lat": 38.913373166666666, "bike_id": "c2e5879283d97be8ef82407f55dcd1c2", "fusion_lon": 0.0, "is_reserved": 0, "type": "electric_scooter", "name": "c2e5879283d97be8ef82407f55dcd1c2", "lon": -77.0043485, "rental_uris": {"android": "https://dc.lft.to/lastmile_qr_scan", "ios": "https://dc.lft.to/lastmile_qr_scan"}, "fusion_lat": 0.0}, {"is_disabled": 0, "lat": 38.8879985, "bike_id": "ed27e3df505ca6ca3ecd4801348e33ff", "fusion_lon": 0.0, "is_reserved": 0, "type": "electric_scooter", "name": "ed27e3df505ca6ca3ecd4801348e33ff", "lon": -76.933613, "rental_uris": {"android": "https://dc.lft.to/lastmile_qr_scan", "ios": "https://dc.lft.to/lastmile_qr_scan"}, "fusion_lat": 0.0}, {"is_disabled": 0, "lat": 38.9308965, "bike_id": "4eb031469dc6cbb4f10db08ea7fe542f", "fusion_lon": 0.0, "is_reserved": 0, "type": "electric_scooter", "name": "4eb031469dc6cbb4f10db08ea7fe542f", "lon": -77.03451133333333, "rental_uris": {"android": "https://dc.lft.to/lastmile_qr_scan", "ios": "https://dc.lft.to/lastmile_qr_scan"}, "fusion_lat": 0.0}, {"is_disabled": 0, "lat": 38.9460305, "bike_id": "56e066ac421731ff33938a32c8d51a28", "fusion_lon": 0.0, "is_reserved": 0, "type": "electric_scooter", "name": "56e066ac421731ff33938a32c8d51a28", "lon": -77.02979283333333, "rental_uris": {"android": "https://dc.lft.to/lastmile_qr_scan", "ios": "https://dc.lft.to/lastmile_qr_scan"}, "fusion_lat": 0.0}, {"is_disabled": 0, "lat": 38.924990666666666, "bike_id": "e364aa60193da5c4b4e0ec86186a4ca7", "fusion_lon": 0.0, "is_reserved": 0, "type": "electric_scooter", "name": "e364aa60193da5c4b4e0ec86186a4ca7", "lon": -77.05222266666667, "rental_uris": {"android": "https://dc.lft.to/lastmile_qr_scan", "ios": "https://dc.lft.to/lastmile_qr_scan"}, "fusion_lat": 0.0}, {"is_disabled": 0, "lat": 38.975963, "bike_id": "e567ad6ed82cc9035693694781ebae80", "fusion_lon": 0.0, "is_reserved": 0, "type": "electric_scooter", "name": "e567ad6ed82cc9035693694781ebae80", "lon": -77.0176455, "rental_uris": {"android": "https://dc.lft.to/lastmile_qr_scan", "ios": "https://dc.lft.to/lastmile_qr_scan"}, "fusion_lat": 0.0}, {"is_disabled": 0, "lat": 38.9037095, "bike_id": "808c003ae4b1c96b50e0c060cf44754d", "fusion_lon": 0.0, "is_reserved": 0, "type": "electric_scooter", "name": "808c003ae4b1c96b50e0c060cf44754d", "lon": -77.04483766666667, "rental_uris": {"android": "https://dc.lft.to/lastmile_qr_scan", "ios": "https://dc.lft.to/lastmile_qr_scan"}, "fusion_lat": 0.0}, {"is_disabled": 0, "lat": 38.90039, "bike_id": "c417d1a402ddaf02a1fac3b00b545dd3", "fusion_lon": 0.0, "is_reserved": 0, "type": "electric_scooter", "name": "c417d1a402ddaf02a1fac3b00b545dd3", "lon": -76.988299, "rental_uris": {"android": "https://dc.lft.to/lastmile_qr_scan", "ios": "https://dc.lft.to/lastmile_qr_scan"}, "fusion_lat": 0.0}, {"is_disabled": 0, "lat": 38.923856666666666, "bike_id": "8253ebf56b04b01233a5c7368eb5a9c9", "fusion_lon": 0.0, "is_reserved": 0, "type": "electric_scooter", "name": "8253ebf56b04b01233a5c7368eb5a9c9", "lon": -77.031374, "rental_uris": {"android": "https://dc.lft.to/lastmile_qr_scan", "ios": "https://dc.lft.to/lastmile_qr_scan"}, "fusion_lat": 0.0}, {"is_disabled": 0, "lat": 38.891962666666664, "bike_id": "ce8696eed4fb04d41be2e13ad31bde33", "fusion_lon": 0.0, "is_reserved": 0, "type": "electric_scooter", "name": "ce8696eed4fb04d41be2e13ad31bde33", "lon": -77.03966383333334, "rental_uris": {"android": "https://dc.lft.to/lastmile_qr_scan", "ios": "https://dc.lft.to/lastmile_qr_scan"}, "fusion_lat": 0.0}, {"is_disabled": 0, "lat": 38.9389465, "bike_id": "9b8cdeda768bea421d8e54ef6928f377", "fusion_lon": 0.0, "is_reserved": 0, "type": "electric_scooter", "name": "9b8cdeda768bea421d8e54ef6928f377", "lon": -77.03262133333334, "rental_uris": {"android": "https://dc.lft.to/lastmile_qr_scan", "ios": "https://dc.lft.to/lastmile_qr_scan"}, "fusion_lat": 0.0}, {"is_disabled": 0, "lat": 38.8952365, "bike_id": "0a60aee73229c8dbe1f83aa9451ae188", "fusion_lon": 0.0, "is_reserved": 0, "type": "electric_scooter", "name": "0a60aee73229c8dbe1f83aa9451ae188", "lon": -77.00338783333333, "rental_uris": {"android": "https://dc.lft.to/lastmile_qr_scan", "ios": "https://dc.lft.to/lastmile_qr_scan"}, "fusion_lat": 0.0}, {"is_disabled": 0, "lat": 38.92881833333333, "bike_id": "3bb7ac569e0399d0b55eceab69a46894", "fusion_lon": 0.0, "is_reserved": 0, "type": "electric_scooter", "name": "3bb7ac569e0399d0b55eceab69a46894", "lon": -77.03342883333333, "rental_uris": {"android": "https://dc.lft.to/lastmile_qr_scan", "ios": "https://dc.lft.to/lastmile_qr_scan"}, "fusion_lat": 0.0}, {"is_disabled": 0, "lat": 38.92020016666667, "bike_id": "41ce3499926bcb17fd82019b11869476", "fusion_lon": 0.0, "is_reserved": 0, "type": "electric_scooter", "name": "41ce3499926bcb17fd82019b11869476", "lon": -77.04076183333333, "rental_uris": {"android": "https://dc.lft.to/lastmile_qr_scan", "ios": "https://dc.lft.to/lastmile_qr_scan"}, "fusion_lat": 0.0}, {"is_disabled": 0, "lat": 38.892201, "bike_id": "13a82b708a47fcdbf8fca012317711b6", "fusion_lon": 0.0, "is_reserved": 0, "type": "electric_scooter", "name": "13a82b708a47fcdbf8fca012317711b6", "lon": -77.022307, "rental_uris": {"android": "https://dc.lft.to/lastmile_qr_scan", "ios": "https://dc.lft.to/lastmile_qr_scan"}, "fusion_lat": 0.0}, {"is_disabled": 0, "lat": 38.9244405, "bike_id": "650dca17027cf72289a518d4ea1c6a3c", "fusion_lon": 0.0, "is_reserved": 0, "type": "electric_scooter", "name": "650dca17027cf72289a518d4ea1c6a3c", "lon": -76.99765983333333, "rental_uris": {"android": "https://dc.lft.to/lastmile_qr_scan", "ios": "https://dc.lft.to/lastmile_qr_scan"}, "fusion_lat": 0.0}, {"is_disabled": 0, "lat": 38.86461883333333, "bike_id": "cf5d3449a7a1e8d49df24c231aaa776c", "fusion_lon": 0.0, "is_reserved": 0, "type": "electric_bike", "name": "cf5d3449a7a1e8d49df24c231aaa776c", "lon": -76.97752983333334, "rental_uris": {"android": "https://dc.lft.to/lastmile_qr_scan", "ios": "https://dc.lft.to/lastmile_qr_scan"}, "fusion_lat": 0.0}, {"is_disabled": 0, "lat": 38.903702333333335, "bike_id": "fda3d365e83304b25fe0ebbdd0df1850", "fusion_lon": 0.0, "is_reserved": 0, "type": "electric_scooter", "name": "fda3d365e83304b25fe0ebbdd0df1850", "lon": -77.04344483333334, "rental_uris": {"android": "https://dc.lft.to/lastmile_qr_scan", "ios": "https://dc.lft.to/lastmile_qr_scan"}, "fusion_lat": 0.0}, {"is_disabled": 0, "lat": 38.974408333333336, "bike_id": "a39a7b2edcbf13a872d8887c7eb25b7b", "fusion_lon": 0.0, "is_reserved": 0, "type": "electric_bike", "name": "a39a7b2edcbf13a872d8887c7eb25b7b", "lon": -77.029889, "rental_uris": {"android": "https://dc.lft.to/lastmile_qr_scan", "ios": "https://dc.lft.to/lastmile_qr_scan"}, "fusion_lat": 0.0}, {"is_disabled": 0, "lat": 38.91570566666667, "bike_id": "4d7d637f306d47458ad4c93ee1c6b4ed", "fusion_lon": 0.0, "is_reserved": 0, "type": "electric_scooter", "name": "4d7d637f306d47458ad4c93ee1c6b4ed", "lon": -77.01993183333333, "rental_uris": {"android": "https://dc.lft.to/lastmile_qr_scan", "ios": "https://dc.lft.to/lastmile_qr_scan"}, "fusion_lat": 0.0}, {"is_disabled": 0, "lat": 38.909675, "bike_id": "34b3f82a1d88988e276aa96ce7a501c2", "fusion_lon": 0.0, "is_reserved": 0, "type": "electric_scooter", "name": "34b3f82a1d88988e276aa96ce7a501c2", "lon": -77.04735316666667, "rental_uris": {"android": "https://dc.lft.to/lastmile_qr_scan", "ios": "https://dc.lft.to/lastmile_qr_scan"}, "fusion_lat": 0.0}, {"is_disabled": 0, "lat": 38.955986333333335, "bike_id": "b3dcce71d9aa95ffb375d9907c6410d6", "fusion_lon": 0.0, "is_reserved": 0, "type": "electric_scooter", "name": "b3dcce71d9aa95ffb375d9907c6410d6", "lon": -77.0063465, "rental_uris": {"android": "https://dc.lft.to/lastmile_qr_scan", "ios": "https://dc.lft.to/lastmile_qr_scan"}, "fusion_lat": 0.0}, {"is_disabled": 0, "lat": 38.89737816666667, "bike_id": "0f083dc754cdfec8dc016ce6349a7c7d", "fusion_lon": 0.0, "is_reserved": 0, "type": "electric_scooter", "name": "0f083dc754cdfec8dc016ce6349a7c7d", "lon": -77.02774583333333, "rental_uris": {"android": "https://dc.lft.to/lastmile_qr_scan", "ios": "https://dc.lft.to/lastmile_qr_scan"}, "fusion_lat": 0.0}, {"is_disabled": 0, "lat": 38.917131833333336, "bike_id": "9d968ff5fda7024c41d328b32dc51502", "fusion_lon": 0.0, "is_reserved": 0, "type": "electric_scooter", "name": "9d968ff5fda7024c41d328b32dc51502", "lon": -77.03587433333334, "rental_uris": {"android": "https://dc.lft.to/lastmile_qr_scan", "ios": "https://dc.lft.to/lastmile_qr_scan"}, "fusion_lat": 0.0}, {"is_disabled": 0, "lat": 38.89572, "bike_id": "88c6db2f5ff0ec765c4ac0720404a86a", "fusion_lon": 0.0, "is_reserved": 0, "type": "electric_scooter", "name": "88c6db2f5ff0ec765c4ac0720404a86a", "lon": -77.0440155, "rental_uris": {"android": "https://dc.lft.to/lastmile_qr_scan", "ios": "https://dc.lft.to/lastmile_qr_scan"}, "fusion_lat": 0.0},