{"data": {"bikes": [{"is_disabled": 0, "is_reserved": 0, "fusion_lat": 0.0, "lat": 38.89207283333333, "fusion_lon": 0.0, "rental_uris": {"ios": "https://dc.lft.to/lastmile_qr_scan", "android": "https://dc.lft.to/lastmile_qr_scan"}, "lon": -76.92920766666667, "bike_id": "b4e694bc41b9f20e97076b6dfadda331", "type": "electric_scooter", "name": "b4e694bc41b9f20e97076b6dfadda331"}, {"is_disabled": 0, "is_reserved": 0, "fusion_lat": 0.0, "lat": 38.89402466666667, "fusion_lon": 0.0, "rental_uris": {"ios": "https://dc.lft.to/lastmile_qr_scan", "android": "https://dc.lft.to/lastmile_qr_scan"}, "lon": -77.02366733333334, "bike_id": "c2d5c37d8f21b0763d1e18749f8f25a3", "type": "electric_scooter", "name": "c2d5c37d8f21b0763d1e18749f8f25a3"}, {"is_disabled": 0, "is_reserved": 0, "fusion_lat": 0.0, "lat": 38.88404633333333, "fusion_lon": 0.0, "rental_uris": {"ios": "https://dc.lft.to/lastmile_qr_scan", "android": "https://dc.lft.to/lastmile_qr_scan"}, "lon": -77.04577, "bike_id": "722cf3afb089cc74b82d85b58d26f7e1", "type": "electric_bike", "name": "722cf3afb089cc74b82d85b58d26f7e1"}, {"is_disabled": 0, "is_reserved": 0, "fusion_lat": 0.0, "lat": 38.92713166666667, "fusion_lon": 0.0, "rental_uris": {"ios": "https://dc.lft.to/lastmile_qr_scan", "android": "https://dc.lft.to/lastmile_qr_scan"}, "lon": -77.02104633333333, "bike_id": "c43edd3f011fcaac81def098bac07131", "type": "electric_scooter", "name": "c43edd3f011fcaac81def098bac07131"}, {"is_disabled": 0, "is_reserved": 0, "fusion_lat": 0.0, "lat": 38.89928866666666, "fusion_lon": 0.0, "rental_uris": {"ios": "https://dc.lft.to/lastmile_qr_scan", "android": "https://dc.lft.to/lastmile_qr_scan"}, "lon": -77.00153816666666, "bike_id": "32b4cbbe1cc95c1acfece64dd94d250b", "type": "electric_bike", "name": "32b4cbbe1cc95c1acfece64dd94d250b"}, {"is_disabled": 0, "is_reserved": 0, "fusion_lat": 0.0, "lat": 38.909245, "fusion_lon": 0.0, "rental_uris": {"ios": "https://dc.lft.to/lastmile_qr_scan", "android": "https://dc.lft.to/lastmile_qr_scan"}, "lon": -77.045803, "bike_id": "bed95645d934801b38f9f8a1e5fde18c", "type": "electric_scooter", "name": "bed95645d934801b38f9f8a1e5fde18c"}, {"is_disabled": 0, "is_reserved": 0, "fusion_lat": 0.0, "lat": 38.91666266666667, "fusion_lon": 0.0, "rental_uris": {"ios": "https://dc.lft.to/lastmile_qr_scan", "android": "https://dc.lft.to/lastmile_qr_scan"}, "lon": -77.00044583333333, "bike_id": "ebc4f0f64cd092fcd4368b5134e48677", "type": "electric_scooter", "name": "ebc4f0f64cd092fcd4368b5134e48677"}, {"is_disabled": 0, "is_reserved": 0, "fusion_lat": 0.0, "lat": 38.92391383333333, "fusion_lon": 0.0, "rental_uris": {"ios": "https://dc.lft.to/lastmile_qr_scan", "android": "https://dc.lft.to/lastmile_qr_scan"}, "lon": -77.008869, "bike_id": "71fb9613c56562ba67913be5bfc588cd", "type": "electric_scooter", "name": "71fb9613c56562ba67913be5bfc588cd"}, {"is_disabled": 0, "is_reserved": 0, "fusion_lat": 0.0, "lat": 38.89546216666667, "fusion_lon": 0.0, "rental_uris": {"ios": "https://dc.lft.to/lastmile_qr_scan", "android": "https://dc.lft.to/lastmile_qr_scan"}, "lon": -77.01636266666667, "bike_id": "ad3aa810522d37ce5b010c8fd0d700cc", "type": "electric_scooter", "name": "ad3aa810522d37ce5b010c8fd0d700cc"}, {"is_disabled": 0, "is_reserved": 0, "fusion_lat": 0.0, "lat": 38.92341, "fusion_lon": 0.0, "rental_uris": {"ios": "https://dc.lft.to/lastmile_qr_scan", "android": "https://dc.lft.to/lastmile_qr_scan"}, "lon": -77.03524016666667, "bike_id": "d1caabeb10a75d4892ac3d6bff4174cf", "type": "electric_scooter", "name": "d1caabeb10a75d4892ac3d6bff4174cf"}, {"is_disabled": 0, "is_reserved": 0, "fusion_lat": 0.0, "lat": 38.92560366666667, "fusion_lon": 0.0, "rental_uris": {"ios": "https://dc.lft.to/lastmile_qr_scan", "android": "https://dc.lft.to/lastmile_qr_scan"}, "lon": -77.02285766666667, "bike_id": "50bca489f8f37fb2c28deb965d1dd8cf", "type": "electric_scooter", "name": "50bca489f8f37fb2c28deb965d1dd8cf"}, {"is_disabled": 0, "is_reserved": 0, "fusion_lat": 0.0, "lat": 38.9419555, "fusion_lon": 0.0, "rental_uris": {"ios": "https://dc.lft.to/lastmile_qr_scan", "android": "https://dc.lft.to/lastmile_qr_scan"}, "lon": -77.08824183333333, "bike_id": "9be192b5b459a0cc612293efce1ede09", "type": "electric_scooter", "name": "9be192b5b459a0cc612293efce1ede09"}, {"is_disabled": 0, "is_reserved": 0, "fusion_lat": 0.0, "lat": 38.9290635, "fusion_lon": 0.0, "rental_uris": {"ios": "https://dc.lft.to/lastmile_qr_scan", "android": "https://dc.lft.to/lastmile_qr_scan"}, "lon": -77.02617866666667, "bike_id": "f1dc62dd839ba3e628f1af348d5e8865", "type": "electric_scooter", "name": "f1dc62dd839ba3e628f1af348d5e8865"}, {"is_disabled": 0, "is_reserved": 0, "fusion_lat": 0.0, "lat": 38.906257333333336, "fusion_lon": 0.0, "rental_uris": {"ios": "https://dc.lft.to/lastmile_qr_scan", "android": "https://dc.lft.to/lastmile_qr_scan"}, "lon": -77.03353783333333, "bike_id": "df03a6c60880ee0a1c63c9a78581c5cd", "type": "electric_scooter", "name": "df03a6c60880ee0a1c63c9a78581c5cd"}, {"is_disabled": 0, "is_reserved": 0, "fusion_lat": 0.0, "lat": 38.8768865, "fusion_lon": 0.0, "rental_uris": {"ios": "https://dc.lft.to/lastmile_qr_scan", "android": "https://dc.lft.to/lastmile_qr_scan"}, "lon": -77.01761083333334, "bike_id": "e539a932634ca14808189c5cf69c18ff", "type": "electric_scooter", "name": "e539a932634ca14808189c5cf69c18ff"}, {"is_disabled": 0, "is_reserved": 0, "fusion_lat": 0.0, "lat": 38.90546766666667, "fusion_lon": 0.0, "rental_uris": {"ios": "https://dc.lft.to/lastmile_qr_scan", "android": "https://dc.lft.to/lastmile_qr_scan"}, "lon": -77.0486705, "bike_id": "b3d6537116e3b0f32af9d0e141f56ef8", "type": "electric_scooter", "name": "b3d6537116e3b0f32af9d0e141f56ef8"}, {"is_disabled": 0, "is_reserved": 0, "fusion_lat": 0.0, "lat": 38.90495883333333, "fusion_lon": 0.0, "rental_uris": {"ios": "https://dc.lft.to/lastmile_qr_scan", "android": "https://dc.lft.to/lastmile_qr_scan"}, "lon": -77.02494683333333, "bike_id": "3d16fc9a5a3f9ea09970e5f24d8a45d5", "type": "electric_scooter", "name": "3d16fc9a5a3f9ea09970e5f24d8a45d5"}, {"is_disabled": 0, "is_reserved": 0, "fusion_lat": 0.0, "lat": 38.94099816666667, "fusion_lon": 0.0, "rental_uris": {"ios": "https://dc.lft.to/lastmile_qr_scan", "android": "https://dc.lft.to/lastmile_qr_scan"}, "lon": -76.9562375, "bike_id": "44e12235ba8bfe3b989516e36b40a74c", "type": "electric_bike", "name": "44e12235ba8bfe3b989516e36b40a74c"}, {"is_disabled": 0, "is_reserved": 0, "fusion_lat": 0.0, "lat": 38.915841, "fusion_lon": 0.0, "rental_uris": {"ios": "https://dc.lft.to/lastmile_qr_scan", "android": "https://dc.lft.to/lastmile_qr_scan"}, "lon": -76.97723266666667, "bike_id": "4ba010e0dc6acbe717a0673b22bd2a39", "type": "electric_scooter", "name": "4ba010e0dc6acbe717a0673b22bd2a39"}, {"is_disabled": 0, "is_reserved": 0, "fusion_lat": 0.0, "lat": 38.92158966666667, "fusion_lon": 0.0, "rental_uris": {"ios": "https://dc.lft.to/lastmile_qr_scan", "android": "https://dc.lft.to/lastmile_qr_scan"}, "lon": -77.01814266666666, "bike_id": "5a7231659bf5d1b51fc5c5398fc1020d", "type": "electric_scooter", "name": "5a7231659bf5d1b51fc5c5398fc1020d"}, {"is_disabled": 0, "is_reserved": 0, "fusion_lat": 0.0, "lat": 38.906578833333334, "fusion_lon": 0.0, "rental_uris": {"ios": "https://dc.lft.to/lastmile_qr_scan", "android": "https://dc.lft.to/lastmile_qr_scan"}, "lon": -77.05315333333333, "bike_id": "00a77710a9c1c4f24e77931b55ffd100", "type": "electric_scooter", "name": "00a77710a9c1c4f24e77931b55ffd100"}, {"is_disabled": 0, "is_reserved": 0, "fusion_lat": 0.0, "lat": 38.92343616666667, "fusion_lon": 0.0, "rental_uris": {"ios": "https://dc.lft.to/lastmile_qr_scan", "android": "https://dc.lft.to/lastmile_qr_scan"}, "lon": -77.03520616666667, "bike_id": "b4a8b165c02dec89e5ef4c9a0f67a746", "type": "electric_scooter", "name": "b4a8b165c02dec89e5ef4c9a0f67a746"}, {"is_disabled": 0, "is_reserved": 0, "fusion_lat": 0.0, "lat": 38.967662, "fusion_lon": 0.0, "rental_uris": {"ios": "https://dc.lft.to/lastmile_qr_scan", "android": "https://dc.lft.to/lastmile_qr_scan"}, "lon": -77.03422816666667, "bike_id": "a584272a5e2680e04b7e543a9e01b83e", "type": "electric_scooter", "name": "a584272a5e2680e04b7e543a9e01b83e"}, {"is_disabled": 0, "is_reserved": 0, "fusion_lat": 0.0, "lat": 38.92751533333333, "fusion_lon": 0.0, "rental_uris": {"ios": "https://dc.lft.to/lastmile_qr_scan", "android": "https://dc.lft.to/lastmile_qr_scan"}, "lon": -77.02365733333333, "bike_id": "b0e6641e8c221e180ba78357ef53ca79", "type": "electric_scooter", "name": "b0e6641e8c221e180ba78357ef53ca79"}, {"is_disabled": 0, "is_reserved": 0, "fusion_lat": 0.0, "lat": 38.92775816666666, "fusion_lon": 0.0, "rental_uris": {"ios": "https://dc.lft.to/lastmile_qr_scan", "android": "https://dc.lft.to/lastmile_qr_scan"}, "lon": -77.0526015, "bike_id": "db839891d07dc25b7dd7d45a8cf1b85b", "type": "electric_scooter", "name": "db839891d07dc25b7dd7d45a8cf1b85b"}, {"is_disabled": 0, "is_reserved": 0, "fusion_lat": 0.0, "lat": 38.9077815, "fusion_lon": 0.0, "rental_uris": {"ios": "https://dc.lft.to/lastmile_qr_scan", "android": "https://dc.lft.to/lastmile_qr_scan"}, "lon": -77.03548933333333, "bike_id": "a11f4cf86e47d0c5368077a7efc53395", "type": "electric_scooter", "name": "a11f4cf86e47d0c5368077a7efc53395"}, {"is_disabled": 0, "is_reserved": 0, "fusion_lat": 0.0, "lat": 38.895609666666665, "fusion_lon": 0.0, "rental_uris": {"ios": "https://dc.lft.to/lastmile_qr_scan", "android": "https://dc.lft.to/lastmile_qr_scan"}, "lon": -77.12732083333333, "bike_id": "cb99a89f987ce163741c3a949dc29336", "type": "electric_bike", "name": "cb99a89f987ce163741c3a949dc29336"}, {"is_disabled": 0, "is_reserved": 0, "fusion_lat": 0.0, "lat": 38.882971166666664, "fusion_lon": 0.0, "rental_uris": {"ios": "https://dc.lft.to/lastmile_qr_scan", "android": "https://dc.lft.to/lastmile_qr_scan"}, "lon": -77.008859, "bike_id": "172360da76b9d92c15dd9810f0e82dbe", "type": "electric_scooter", "name": "172360da76b9d92c15dd9810f0e82dbe"}, {"is_disabled": 0, "is_reserved": 0, "fusion_lat": 0.0, "lat": 38.9180555, "fusion_lon": 0.0, "rental_uris": {"ios": "https://dc.lft.to/lastmile_qr_scan", "android": "https://dc.lft.to/lastmile_qr_scan"}, "lon": -77.0248985, "bike_id": "c60cd42f6ff94d30b792eeb6e6580c0a", "type": "electric_scooter", "name": "c60cd42f6ff94d30b792eeb6e6580c0a"}, {"is_disabled": 0, "is_reserved": 0, "fusion_lat": 0.0, "lat": 38.896700833333334, "fusion_lon": 0.0, "rental_uris": {"ios": "https://dc.lft.to/lastmile_qr_scan", "android": "https://dc.lft.to/lastmile_qr_scan"}, "lon": -76.93207133333334, "bike_id": "6548378177e9331105b5d78a5578af48", "type": "electric_scooter", "name": "6548378177e9331105b5d78a5578af48"}, {"is_disabled": 0, "is_reserved": 0, "fusion_lat": 0.0, "lat": 38.935290333333334, "fusion_lon": 0.0, "rental_uris": {"ios": "https://dc.lft.to/lastmile_qr_scan", "android": "https://dc.lft.to/lastmile_qr_scan"}, "lon": -77.02348983333333, "bike_id": "e4b39a8eada70b93a42d33ecf9264a94", "type": "electric_scooter", "name": "e4b39a8eada70b93a42d33ecf9264a94"}, {"is_disabled": 0, "is_reserved": 0, "fusion_lat": 0.0, "lat": 38.936720333333334, "fusion_lon": 0.0, "rental_uris": {"ios": "https://dc.lft.to/lastmile_qr_scan", "android": "https://dc.lft.to/lastmile_qr_scan"}, "lon": -77.02283083333333, "bike_id": "3c7124586701125567cfec716aeda61f", "type": "electric_scooter", "name": "3c7124586701125567cfec716aeda61f"}, {"is_disabled": 0, "is_reserved": 0, "fusion_lat": 0.0, "lat": 38.91610383333333, "fusion_lon": 0.0, "rental_uris": {"ios": "https://dc.lft.to/lastmile_qr_scan", "android": "https://dc.lft.to/lastmile_qr_scan"}, "lon": -77.02296616666666, "bike_id": "637277ffcbfad3fd354423f0f1446c95", "type": "electric_scooter", "name": "637277ffcbfad3fd354423f0f1446c95"}, {"is_disabled": 0, "is_reserved": 0, "fusion_lat": 0.0, "lat": 38.926599333333336, "fusion_lon": 0.0, "rental_uris": {"ios": "https://dc.lft.to/lastmile_qr_scan", "android": "https://dc.lft.to/lastmile_qr_scan"}, "lon": -77.05205266666667, "bike_id": "342b235867d59de5f83a030ef6f9c97d", "type": "electric_scooter", "name": "342b235867d59de5f83a030ef6f9c97d"}, {"is_disabled": 0, "is_reserved": 0, "fusion_lat": 0.0, "lat": 38.9051045, "fusion_lon": 0.0, "rental_uris": {"ios": "https://dc.lft.to/lastmile_qr_scan", "android": "https://dc.lft.to/lastmile_qr_scan"}, "lon": -76.95194883333333, "bike_id": "9e0ecfed51f5392199fcf57d99d2947e", "type": "electric_scooter", "name": "9e0ecfed51f5392199fcf57d99d2947e"}, {"is_disabled": 0, "is_reserved": 0, "fusion_lat": 0.0, "lat": 38.860116166666664, "fusion_lon": 0.0, "rental_uris": {"ios": "https://dc.lft.to/lastmile_qr_scan", "android": "https://dc.lft.to/lastmile_qr_scan"}, "lon": -77.06524, "bike_id": "7040480e60d421ba3c68885a68766f5d", "type": "electric_bike", "name": "7040480e60d421ba3c68885a68766f5d"}, {"is_disabled": 0, "is_reserved": 0, "fusion_lat": 0.0, "lat": 38.874531833333336, "fusion_lon": 0.0, "rental_uris": {"ios": "https://dc.lft.to/lastmile_qr_scan", "android": "https://dc.lft.to/lastmile_qr_scan"}, "lon": -77.0093835, "bike_id": "9588acae84fefd896fb8e1a238467346", "type": "electric_scooter", "name": "9588acae84fefd896fb8e1a238467346"}, {"is_disabled": 0, "is_reserved": 0, "fusion_lat": 0.0, "lat": 38.885410666666665, "fusion_lon": 0.0, "rental_uris": {"ios": "https://dc.lft.to/lastmile_qr_scan", "android": "https://dc.lft.to/lastmile_qr_scan"}, "lon": -76.9597085, "bike_id": "b2fa931fdb77e641fa8dca67b7b0c8ea", "type": "electric_scooter", "name": "b2fa931fdb77e641fa8dca67b7b0c8ea"}, {"is_disabled": 0, "is_reserved": 0, "fusion_lat": 0.0, "lat": 38.900293, "fusion_lon": 0.0, "rental_uris": {"ios": "https://dc.lft.to/lastmile_qr_scan", "android": "https://dc.lft.to/lastmile_qr_scan"}, "lon": -77.00093566666666, "bike_id": "68b2fe4c8eead63c0992d8d6f88c085f", "type": "electric_scooter", "name": "68b2fe4c8eead63c0992d8d6f88c085f"}, {"is_disabled": 0, "is_reserved": 0, "fusion_lat": 0.0, "lat": 38.87682366666667, "fusion_lon": 0.0, "rental_uris": {"ios": "https://dc.lft.to/lastmile_qr_scan", "android": "https://dc.lft.to/lastmile_qr_scan"}, "lon": -77.0005155, "bike_id": "cfb85cdfd3a0c8889b1d2bcd6713f937", "type": "electric_scooter", "name": "cfb85cdfd3a0c8889b1d2bcd6713f937"}, {"is_disabled": 0, "is_reserved": 0, "fusion_lat": 0.0, "lat": 38.90481533333333, "fusion_lon": 0.0, "rental_uris": {"ios": "https://dc.lft.to/lastmile_qr_scan", "android": "https://dc.lft.to/lastmile_qr_scan"}, "lon": -77.00861783333333, "bike_id": "d005365f7e0fdfbc5fe7e14d25bbf691", "type": "electric_scooter", "name": "d005365f7e0fdfbc5fe7e14d25bbf691"}, {"is_disabled": 0, "is_reserved": 0, "fusion_lat": 0.0, "lat": 38.830481166666665, "fusion_lon": 0.0, "rental_uris": {"ios": "https://dc.lft.to/lastmile_qr_scan", "android": "https://dc.lft.to/lastmile_qr_scan"}, "lon": -77.00818533333333, "bike_id": "2af6e2d467b950baad909a1ae6fd51c4", "type": "electric_bike", "name": "2af6e2d467b950baad909a1ae6fd51c4"}, {"is_disabled": 0, "is_reserved": 0, "fusion_lat": 0.0, "lat": 38.84577816666667, "fusion_lon": 0.0, "rental_uris": {"ios": "https://dc.lft.to/lastmile_qr_scan", "android": "https://dc.lft.to/lastmile_qr_scan"}, "lon": -77.0746125, "bike_id": "4194d7379ba58c8b20def0cc0294f816", "type": "electric_bike", "name": "4194d7379ba58c8b20def0cc0294f816"}, {"is_disabled": 0, "is_reserved": 0, "fusion_lat": 0.0, "lat": 38.92363816666666, "fusion_lon": 0.0, "rental_uris": {"ios": "https://dc.lft.to/lastmile_qr_scan", "android": "https://dc.lft.to/lastmile_qr_scan"}, "lon": -77.01910333333333, "bike_id": "cbc3e5fac46a566acb9e79038f201f7d", "type": "electric_scooter", "name": "cbc3e5fac46a566acb9e79038f201f7d"}, {"is_disabled": 0, "is_reserved": 0, "fusion_lat": 0.0, "lat": 38.903436166666665, "fusion_lon": 0.0, "rental_uris": {"ios": "https://dc.lft.to/lastmile_qr_scan", "android": "https://dc.lft.to/lastmile_qr_scan"}, "lon": -76.98271433333333, "bike_id": "0638f0e32fd76a703fc2d03e2dea659c", "type": "electric_scooter", "name": "0638f0e32fd76a703fc2d03e2dea659c"}, {"is_disabled": 0, "is_reserved": 0, "fusion_lat": 0.0, "lat": 38.89966016666666, "fusion_lon": 0.0, "rental_uris": {"ios": "https://dc.lft.to/lastmile_qr_scan", "android": "https://dc.lft.to/lastmile_qr_scan"}, "lon": -76.93762716666667, "bike_id": "59e697afc7f05d241bd3a59b823a0492", "type": "electric_scooter", "name": "59e697afc7f05d241bd3a59b823a0492"}, {"is_disabled": 0, "is_reserved": 0, "fusion_lat": 0.0, "lat": 38.908767, "fusion_lon": 0.0, "rental_uris": {"ios": "https://dc.lft.to/lastmile_qr_scan", "android": "https://dc.lft.to/lastmile_qr_scan"}, "lon": -77.0338855, "bike_id": "ee25f8971289c4472f9e66b2d7bfb68c", "type": "electric_scooter", "name": "ee25f8971289c4472f9e66b2d7bfb68c"}, {"is_disabled": 0, "is_reserved": 0, "fusion_lat": 0.0, "lat": 38.8843745, "fusion_lon": 0.0, "rental_uris": {"ios": "https://dc.lft.to/lastmile_qr_scan", "android": "https://dc.lft.to/lastmile_qr_scan"}, "lon": -76.93551783333334, "bike_id": "d2d621272d2efc10cdccd0ea6c482184", "type": "electric_scooter", "name": "d2d621272d2efc10cdccd0ea6c482184"}, {"is_disabled": 0, "is_reserved": 0, "fusion_lat": 0.0, "lat": 38.923591333333334, "fusion_lon": 0.0, "rental_uris": {"ios": "https://dc.lft.to/lastmile_qr_scan", "android": "https://dc.lft.to/lastmile_qr_scan"}, "lon": -77.03117116666667, "bike_id": "db66e8b478cbca3017b65ce955694044", "type": "electric_scooter", "name": "db66e8b478cbca3017b65ce955694044"}, {"is_disabled": 0, "is_reserved": 0, "fusion_lat": 0.0, "lat": 38.892781166666666, "fusion_lon": 0.0, "rental_uris": {"ios": "https://dc.lft.to/lastmile_qr_scan", "android": "https://dc.lft.to/lastmile_qr_scan"}, "lon": -77.050356, "bike_id": "042cc4f2952d391d31af7188148f8ba0", "type": "electric_scooter", "name": "042cc4f2952d391d31af7188148f8ba0"}, {"is_disabled": 0, "is_reserved": 0, "fusion_lat": 0.0, "lat": 38.947185833333336, "fusion_lon": 0.0, "rental_uris": {"ios": "https://dc.lft.to/lastmile_qr_scan", "android": "https://dc.lft.to/lastmile_qr_scan"}, "lon": -77.06802333333333, "bike_id": "a0d89635331cabbed44ef2e25f7caf8b", "type": "electric_scooter", "name": "a0d89635331cabbed44ef2e25f7caf8b"}, {"is_disabled": 0, "is_reserved": 0, "fusion_lat": 0.0, "lat": 38.883573166666665, "fusion_lon": 0.0, "rental_uris": {"ios": "https://dc.lft.to/lastmile_qr_scan", "android": "https://dc.lft.to/lastmile_qr_scan"}, "lon": -76.95765833333333, "bike_id": "5dc2532070a97018fed9d7d5cde10349", "type": "electric_scooter", "name": "5dc2532070a97018fed9d7d5cde10349"}, {"is_disabled": 0, "is_reserved": 0, "fusion_lat": 0.0, "lat": 38.94263766666667, "fusion_lon": 0.0, "rental_uris": {"ios": "https://dc.lft.to/lastmile_qr_scan", "android": "https://dc.lft.to/lastmile_qr_scan"}, "lon": -76.98452383333333, "bike_id": "39a4a2d7376274da4be404062d09ecdf", "type": "electric_scooter", "name": "39a4a2d7376274da4be404062d09ecdf"}, {"is_disabled": 0, "is_reserved": 0, "fusion_lat": 0.0, "lat": 38.89678116666666, "fusion_lon": 0.0, "rental_uris": {"ios": "https://dc.lft.to/lastmile_qr_scan", "android": "https://dc.lft.to/lastmile_qr_scan"}, "lon": -77.0510585, "bike_id": "179ca15e38e33ef67c88764c3e2b3eac", "type": "electric_scooter", "name": "179ca15e38e33ef67c88764c3e2b3eac"}, {"is_disabled": 0, "is_reserved": 0, "fusion_lat": 0.0, "lat": 38.892331, "fusion_lon": 0.0, "rental_uris": {"ios": "https://dc.lft.to/lastmile_qr_scan", "android": "https://dc.lft.to/lastmile_qr_scan"}, "lon": -77.05002233333333, "bike_id": "1258077d116f33bf68d6e111b3f3800d", "type": "electric_scooter", "name": "1258077d116f33bf68d6e111b3f3800d"}, {"is_disabled": 0, "is_reserved": 0, "fusion_lat": 0.0, "lat": 38.886191, "fusion_lon": 0.0, "rental_uris": {"ios": "https://dc.lft.to/lastmile_qr_scan", "android": "https://dc.lft.to/lastmile_qr_scan"}, "lon": -76.9902155, "bike_id": "db167a94cb30a6359e0d1eb470452215", "type": "electric_bike", "name": "db167a94cb30a6359e0d1eb470452215"}, {"is_disabled": 0, "is_reserved": 0, "fusion_lat": 0.0, "lat": 38.92444483333333, "fusion_lon": 0.0, "rental_uris": {"ios": "https://dc.lft.to/lastmile_qr_scan", "android": "https://dc.lft.to/lastmile_qr_scan"}, "lon": -77.03904433333334, "bike_id": "1c61d289a9ba51ceaac32b73227fb22f", "type": "electric_scooter", "name": "1c61d289a9ba51ceaac32b73227fb22f"}, {"is_disabled": 0, "is_reserved": 0, "fusion_lat": 0.0, "lat": 38.906932166666664, "fusion_lon": 0.0, "rental_uris": {"ios": "https://dc.lft.to/lastmile_qr_scan", "android": "https://dc.lft.to/lastmile_qr_scan"}, "lon": -76.952534, "bike_id": "5ae8f1960e57a8f9999792b27c709554", "type": "electric_bike", "name": "5ae8f1960e57a8f9999792b27c709554"}, {"is_disabled": 0, "is_reserved": 0, "fusion_lat": 0.0, "lat": 38.930338166666665, "fusion_lon": 0.0, "rental_uris": {"ios": "https://dc.lft.to/lastmile_qr_scan", "android": "https://dc.lft.to/lastmile_qr_scan"}, "lon": -77.06070333333334, "bike_id": "681402f6047d22edcae2cbd70df57970", "type": "electric_scooter", "name": "681402f6047d22edcae2cbd70df57970"}, {"is_disabled": 0, "is_reserved": 0, "fusion_lat": 0.0, "lat": 38.87632116666666, "fusion_lon": 0.0, "rental_uris": {"ios": "https://dc.lft.to/lastmile_qr_scan", "android": "https://dc.lft.to/lastmile_qr_scan"}, "lon": -77.00952983333333, "bike_id": "4d1c39cc00fd63768dd8cc229498f894", "type": "electric_scooter", "name": "4d1c39cc00fd63768dd8cc229498f894"}, {"is_disabled": 0, "is_reserved": 0, "fusion_lat": 0.0, "lat": 38.8707005, "fusion_lon": 0.0, "rental_uris": {"ios": "https://dc.lft.to/lastmile_qr_scan", "android": "https://dc.lft.to/lastmile_qr_scan"}, "lon": -76.98128716666666, "bike_id": "5b82f9a71e9bac32fb58c15fb16912a1", "type": "electric_scooter", "name": "5b82f9a71e9bac32fb58c15fb16912a1"}, {"is_disabled": 0, "is_reserved": 0, "fusion_lat": 0.0, "lat": 38.9072945, "fusion_lon": 0.0, "rental_uris": {"ios": "https://dc.lft.to/lastmile_qr_scan", "android": "https://dc.lft.to/lastmile_qr_scan"}, "lon": -77.02321516666666, "bike_id": "1a30fbaddce41797ecdb16b44b41f3af", "type": "electric_scooter", "name": "1a30fbaddce41797ecdb16b44b41f3af"}, {"is_disabled": 0, "is_reserved": 0, "fusion_lat": 0.0, "lat": 38.885142, "fusion_lon": 0.0, "rental_uris": {"ios": "https://dc.lft.to/lastmile_qr_scan", "android": "https://dc.lft.to/lastmile_qr_scan"}, "lon": -77.0282085, "bike_id": "816c28c93a822ba48b5649d762e9baf4", "type": "electric_scooter", "name": "816c28c93a822ba48b5649d762e9baf4"}, {"is_disabled": 0, "is_reserved": 0, "fusion_lat": 0.0, "lat": 38.915996, "fusion_lon": 0.0, "rental_uris": {"ios": "https://dc.lft.to/lastmile_qr_scan", "android": "https://dc.lft.to/lastmile_qr_scan"}, "lon": -77.03852266666667, "bike_id": "b1aca4fafa19504217d8b6d4092dd58e", "type": "electric_scooter", "name": "b1aca4fafa19504217d8b6d4092dd58e"}, {"is_disabled": 0, "is_reserved": 0, "fusion_lat": 0.0, "lat": 38.91443433333333, "fusion_lon": 0.0, "rental_uris": {"ios": "https://dc.lft.to/lastmile_qr_scan", "android": "https://dc.lft.to/lastmile_qr_scan"}, "lon": -77.02285666666667, "bike_id": "1b50b4551dda3466323e9d5206e71e81", "type": "electric_scooter", "name": "1b50b4551dda3466323e9d5206e71e81"}, {"is_disabled": 0, "is_reserved": 0, "fusion_lat": 0.0, "lat": 38.875766166666665, "fusion_lon": 0.0, "rental_uris": {"ios": "https://dc.lft.to/lastmile_qr_scan", "android": "https://dc.lft.to/lastmile_qr_scan"}, "lon": -77.2341085, "bike_id": "6bdf8b4f32b04f44639a0c4c547f0675", "type": "electric_bike", "name": "6bdf8b4f32b04f44639a0c4c547f0675"}, {"is_disabled": 0, "is_reserved": 0, "fusion_lat": 0.0, "lat": 38.880354, "fusion_lon": 0.0, "rental_uris": {"ios": "https://dc.lft.to/lastmile_qr_scan", "android": "https://dc.lft.to/lastmile_qr_scan"}, "lon": -76.9271945, "bike_id": "4525aaf413f2c1998091c4e95d3ea65b", "type": "electric_scooter", "name": "4525aaf413f2c1998091c4e95d3ea65b"}, {"is_disabled": 0, "is_reserved": 0, "fusion_lat": 0.0, "lat": 38.94445366666667, "fusion_lon": 0.0, "rental_uris": {"ios": "https://dc.lft.to/lastmile_qr_scan", "android": "https://dc.lft.to/lastmile_qr_scan"}, "lon": -77.03281233333334, "bike_id": "50df25fb199cbe819084dfe57313543e", "type": "electric_scooter", "name": "50df25fb199cbe819084dfe57313543e"}, {"is_disabled": 0, "is_reserved": 0, "fusion_lat": 0.0, "lat": 38.90643983333333, "fusion_lon": 0.0, "rental_uris": {"ios": "https://dc.lft.to/lastmile_qr_scan", "android": "https://dc.lft.to/lastmile_qr_scan"}, "lon": -76.97942683333333, "bike_id": "afcb1be274d78fa955840ce6a97ebfe6", "type": "electric_scooter", "name": "afcb1be274d78fa955840ce6a97ebfe6"}, {"is_disabled": 0, "is_reserved": 0, "fusion_lat": 0.0, "lat": 38.89717233333333, "fusion_lon": 0.0, "rental_uris": {"ios": "https://dc.lft.to/lastmile_qr_scan", "android": "https://dc.lft.to/lastmile_qr_scan"}, "lon": -77.02399133333333, "bike_id": "414663495a7961c0454c6e0c31cad097", "type": "electric_scooter", "name": "414663495a7961c0454c6e0c31cad097"}, {"is_disabled": 0, "is_reserved": 0, "fusion_lat": 0.0, "lat": 38.90395516666667, "fusion_lon": 0.0, "rental_uris": {"ios": "https://dc.lft.to/lastmile_qr_scan", "android": "https://dc.lft.to/lastmile_qr_scan"}, "lon": -77.06298266666667, "bike_id": "ef92161359870b6fffb5785532589ad0", "type": "electric_scooter", "name": "ef92161359870b6fffb5785532589ad0"}, {"is_disabled": 0, "is_reserved": 0, "fusion_lat": 0.0, "lat": 38.92876016666666, "fusion_lon": 0.0, "rental_uris": {"ios": "https://dc.lft.to/lastmile_qr_scan", "android": "https://dc.lft.to/lastmile_qr_scan"}, "lon": -77.0399045, "bike_id": "5aba3c2622eb72d341bcc8eb746d5bdd", "type": "electric_scooter", "name": "5aba3c2622eb72d341bcc8eb746d5bdd"}, {"is_disabled": 0, "is_reserved": 0, "fusion_lat": 0.0, "lat": 38.90958366666667, "fusion_lon": 0.0, "rental_uris": {"ios": "https://dc.lft.to/lastmile_qr_scan", "android": "https://dc.lft.to/lastmile_qr_scan"}, "lon": -77.02278066666666, "bike_id": "80bb0d4bb25ec099c355dc2eea00d7cf", "type": "electric_bike", "name": "80bb0d4bb25ec099c355dc2eea00d7cf"}, {"is_disabled": 0, "is_reserved": 0, "fusion_lat": 0.0, "lat": 38.92239083333333, "fusion_lon": 0.0, "rental_uris": {"ios": "https://dc.lft.to/lastmile_qr_scan", "android": "https://dc.lft.to/lastmile_qr_scan"}, "lon": -77.03517966666666, "bike_id": "045c2cab1051a2452ee7f9416d00da35", "type": "electric_scooter", "name": "045c2cab1051a2452ee7f9416d00da35"}, {"is_disabled": 0, "is_reserved": 0, "fusion_lat": 0.0, "lat": 38.9050365, "fusion_lon": 0.0, "rental_uris": {"ios": "https://dc.lft.to/lastmile_qr_scan", "android": "https://dc.lft.to/lastmile_qr_scan"}, "lon": -77.00897483333334, "bike_id": "5ccdc6f378a962ada6c411dad1e67402", "type": "electric_scooter", "name": "5ccdc6f378a962ada6c411dad1e67402"}, {"is_disabled": 0, "is_reserved": 0, "fusion_lat": 0.0, "lat": 38.93361866666667, "fusion_lon": 0.0, "rental_uris": {"ios": "https://dc.lft.to/lastmile_qr_scan", "android": "https://dc.lft.to/lastmile_qr_scan"}, "lon": -77.02853133333333, "bike_id": "9f81ac1e85bf7920310461404f9e9442", "type": "electric_scooter", "name": "9f81ac1e85bf7920310461404f9e9442"}, {"is_disabled": 0, "is_reserved": 0, "fusion_lat": 0.0, "lat": 38.90422, "fusion_lon": 0.0, "rental_uris": {"ios": "https://dc.lft.to/lastmile_qr_scan", "android": "https://dc.lft.to/lastmile_qr_scan"}, "lon": -77.06117966666666, "bike_id": "5d87f48ede4e440ec152388648e3cc1d", "type": "electric_scooter", "name": "5d87f48ede4e440ec152388648e3cc1d"}, {"is_disabled": 0, "is_reserved": 0, "fusion_lat": 0.0, "lat": 38.91955166666666, "fusion_lon": 0.0, "rental_uris": {"ios": "https://dc.lft.to/lastmile_qr_scan", "android": "https://dc.lft.to/lastmile_qr_scan"}, "lon": -77.0230485, "bike_id": "39fe55575ea426fae377564b1acc32f1", "type": "electric_scooter", "name": "39fe55575ea426fae377564b1acc32f1"}, {"is_disabled": 0, "is_reserved": 0, "fusion_lat": 0.0, "lat": 38.908129, "fusion_lon": 0.0, "rental_uris": {"ios": "https://dc.lft.to/lastmile_qr_scan", "android": "https://dc.lft.to/lastmile_qr_scan"}, "lon": -77.02532333333333, "bike_id": "bd4d527ffa3442b7bc7cfda1608daa91", "type": "electric_scooter", "name": "bd4d527ffa3442b7bc7cfda1608daa91"}, {"is_disabled": 0, "is_reserved": 0, "fusion_lat": 0.0, "lat": 38.90914266666667, "fusion_lon": 0.0, "rental_uris": {"ios": "https://dc.lft.to/lastmile_qr_scan", "android": "https://dc.lft.to/lastmile_qr_scan"}, "lon": -77.049467, "bike_id": "6256b24ae361ee75fcdc5aa2ca05f290", "type": "electric_scooter", "name": "6256b24ae361ee75fcdc5aa2ca05f290"}, {"is_disabled": 0, "is_reserved": 0, "fusion_lat": 0.0, "lat": 38.92971516666667, "fusion_lon": 0.0, "rental_uris": {"ios": "https://dc.lft.to/lastmile_qr_scan", "android": "https://dc.lft.to/lastmile_qr_scan"}, "lon": -77.0389275, "bike_id": "a54c9c546b2b6233f881bc9e4360804b", "type": "electric_scooter", "name": "a54c9c546b2b6233f881bc9e4360804b"}, {"is_disabled": 0, "is_reserved": 0, "fusion_lat": 0.0, "lat": 38.91029533333333, "fusion_lon": 0.0, "rental_uris": {"ios": "https://dc.lft.to/lastmile_qr_scan", "android": "https://dc.lft.to/lastmile_qr_scan"}, "lon": -76.92332983333333, "bike_id": "d60211c9a1bf60b64b136d47c62dad33", "type": "electric_bike", "name": "d60211c9a1bf60b64b136d47c62dad33"}, {"is_disabled": 0, "is_reserved": 0, "fusion_lat": 0.0, "lat": 38.913517166666665, "fusion_lon": 0.0, "rental_uris": {"ios": "https://dc.lft.to/lastmile_qr_scan", "android": "https://dc.lft.to/lastmile_qr_scan"}, "lon": -76.97138466666667, "bike_id": "651c6a55f45869d627505e1335641306", "type": "electric_scooter", "name": "651c6a55f45869d627505e1335641306"}, {"is_disabled": 0, "is_reserved": 0, "fusion_lat": 0.0, "lat": 38.925005666666664, "fusion_lon": 0.0, "rental_uris": {"ios": "https://dc.lft.to/lastmile_qr_scan", "android": "https://dc.lft.to/lastmile_qr_scan"}, "lon": -77.02358583333333, "bike_id": "dd11cb549e61a6979187e9b2a9b6cd7c", "type": "electric_scooter", "name": "dd11cb549e61a6979187e9b2a9b6cd7c"}, {"is_disabled": 0, "is_reserved": 0, "fusion_lat": 0.0, "lat": 38.899378666666664, "fusion_lon": 0.0, "rental_uris": {"ios": "https://dc.lft.to/lastmile_qr_scan", "android": "https://dc.lft.to/lastmile_qr_scan"}, "lon": -77.014985, "bike_id": "14b9ebeaa77069fe226df8f48d08c87c", "type": "electric_scooter", "name": "14b9ebeaa77069fe226df8f48d08c87c"}, {"is_disabled": 0, "is_reserved": 0, "fusion_lat": 0.0, "lat": 38.899930166666664, "fusion_lon": 0.0, "rental_uris": {"ios": "https://dc.lft.to/lastmile_qr_scan", "android": "https://dc.lft.to/lastmile_qr_scan"}, "lon": -77.00663916666667, "bike_id": "8a8dd6362240386737706dfd742c0ed7", "type": "electric_scooter", "name": "8a8dd6362240386737706dfd742c0ed7"}, {"is_disabled": 0, "is_reserved": 0, "fusion_lat": 0.0, "lat": 38.93253633333333, "fusion_lon": 0.0, "rental_uris": {"ios": "https://dc.lft.to/lastmile_qr_scan", "android": "https://dc.lft.to/lastmile_qr_scan"}, "lon": -77.02931966666667, "bike_id": "263ff35f8b213ac69b065662aeb3b4fc", "type": "electric_scooter", "name": "263ff35f8b213ac69b065662aeb3b4fc"}, {"is_disabled": 0, "is_reserved": 0, "fusion_lat": 0.0, "lat": 38.941751333333336, "fusion_lon": 0.0, "rental_uris": {"ios": "https://dc.lft.to/lastmile_qr_scan", "android": "https://dc.lft.to/lastmile_qr_scan"}, "lon": -77.03391216666667, "bike_id": "0163578269b345f45e227dac1beecc6e", "type": "electric_scooter", "name": "0163578269b345f45e227dac1beecc6e"}, {"is_disabled": 0, "is_reserved": 0, "fusion_lat": 0.0, "lat": 38.915183166666665, "fusion_lon": 0.0, "rental_uris": {"ios": "https://dc.lft.to/lastmile_qr_scan", "android": "https://dc.lft.to/lastmile_qr_scan"}, "lon": -76.9834555, "bike_id": "db5d3f155d0a7ed953e3dec79862a52e", "type": "electric_scooter", "name": "db5d3f155d0a7ed953e3dec79862a52e"}, {"is_disabled": 0, "is_reserved": 0, "fusion_lat": 0.0, "lat": 38.923393, "fusion_lon": 0.0, "rental_uris": {"ios": "https://dc.lft.to/lastmile_qr_scan", "android": "https://dc.lft.to/lastmile_qr_scan"}, "lon": -76.99871716666667, "bike_id": "481c1a9d9ad6b23ddac18600e9a76358", "type": "electric_scooter", "name": "481c1a9d9ad6b23ddac18600e9a76358"}, {"is_disabled": 0, "is_reserved": 0, "fusion_lat": 0.0, "lat": 38.919095666666664, "fusion_lon": 0.0, "rental_uris": {"ios": "https://dc.lft.to/lastmile_qr_scan", "android": "https://dc.lft.to/lastmile_qr_scan"}, "lon": -77.06000466666667, "bike_id": "86149395c589509ba9361cd3328d6cf6", "type": "electric_bike", "name": "86149395c589509ba9361cd3328d6cf6"}, {"is_disabled": 0, "is_reserved": 0, "fusion_lat": 0.0, "lat": 38.87465366666667, "fusion_lon": 0.0, "rental_uris": {"ios": "https://dc.lft.to/lastmile_qr_scan", "android": "https://dc.lft.to/lastmile_qr_scan"}, "lon": -77.00512083333334, "bike_id": "0cb76e00a8ced32f28d95d8c53743e07", "type": "electric_scooter", "name": "0cb76e00a8ced32f28d95d8c53743e07"}, {"is_disabled": 0, "is_reserved": 0, "fusion_lat": 0.0, "lat": 38.892337166666664, "fusion_lon": 0.0, "rental_uris": {"ios": "https://dc.lft.to/lastmile_qr_scan", "android": "https://dc.lft.to/lastmile_qr_scan"}, "lon": -77.02382266666666, "bike_id": "33d9e5089ab9cf6832dbe046bdb8cdf5", "type": "electric_scooter", "name": "33d9e5089ab9cf6832dbe046bdb8cdf5"}, {"is_disabled": 0, "is_reserved": 0, "fusion_lat": 0.0, "lat": 38.92167, "fusion_lon": 0.0, "rental_uris": {"ios": "https://dc.lft.to/lastmile_qr_scan", "android": "https://dc.lft.to/lastmile_qr_scan"}, "lon": -77.01802166666667, "bike_id": "00e4ef14fc7c4779dee1ada74b076145", "type": "electric_scooter", "name": "00e4ef14fc7c4779dee1ada74b076145"}, {"is_disabled": 0, "is_reserved": 0, "fusion_lat": 0.0, "lat": 38.89486183333333, "fusion_lon": 0.0, "rental_uris": {"ios": "https://dc.lft.to/lastmile_qr_scan", "android": "https://dc.lft.to/lastmile_qr_scan"}, "lon": -77.0098425, "bike_id": "885fb077d035b4ad9190701f66722d90", "type": "electric_scooter", "name": "885fb077d035b4ad9190701f66722d90"}, {"is_disabled": 0, "is_reserved": 0, "fusion_lat": 0.0, "lat": 38.9715595, "fusion_lon": 0.0, "rental_uris": {"ios": "https://dc.lft.to/lastmile_qr_scan", "android": "https://dc.lft.to/lastmile_qr_scan"}, "lon": -76.9836265, "bike_id": "a7e1a97f73da16051a14f7b8d94dab33", "type": "electric_bike", "name": "a7e1a97f73da16051a14f7b8d94dab33"}, {"is_disabled": 0, "is_reserved": 0, "fusion_lat": 0.0, "lat": 38.903015833333335, "fusion_lon": 0.0, "rental_uris": {"ios": "https://dc.lft.to/lastmile_qr_scan", "android": "https://dc.lft.to/lastmile_qr_scan"}, "lon": -77.02142, "bike_id": "fc2c74e37bb9b1c3eb1b06617af44b04", "type": "electric_scooter", "name": "fc2c74e37bb9b1c3eb1b06617af44b04"}, {"is_disabled": 0, "is_reserved": 0, "fusion_lat": 0.0, "lat": 38.939363666666665, "fusion_lon": 0.0, "rental_uris": {"ios": "https://dc.lft.to/lastmile_qr_scan", "android": "https://dc.lft.to/lastmile_qr_scan"}, "lon": -77.025832, "bike_id": "8424f6808644050812b7193ca64ff8b7", "type": "electric_scooter", "name": "8424f6808644050812b7193ca64ff8b7"}, {"is_disabled": 0, "is_reserved": 0, "fusion_lat": 0.0, "lat": 38.903419166666666, "fusion_lon": 0.0, "rental_uris": {"ios": "https://dc.lft.to/lastmile_qr_scan", "android": "https://dc.lft.to/lastmile_qr_scan"}, "lon": -76.97486466666666, "bike_id": "b044affa4c96d746175aa7d7cc58f660", "type": "electric_scooter", "name": "b044affa4c96d746175aa7d7cc58f660"}, {"is_disabled": 0, "is_reserved": 0, "fusion_lat": 0.0, "lat": 38.91689616666667, "fusion_lon": 0.0, "rental_uris": {"ios": "https://dc.lft.to/lastmile_qr_scan", "android": "https://dc.lft.to/lastmile_qr_scan"}, "lon": -77.02572433333333, "bike_id": "096cc8c9de0ccadb8c256fb6ec11d443", "type": "electric_scooter", "name": "096cc8c9de0ccadb8c256fb6ec11d443"}, {"is_disabled": 0, "is_reserved": 0, "fusion_lat": 0.0, "lat": 38.905666833333335, "fusion_lon": 0.0, "rental_uris": {"ios": "https://dc.lft.to/lastmile_qr_scan", "android": "https://dc.lft.to/lastmile_qr_scan"}, "lon": -77.00868333333334, "bike_id": "680206324d7bc1db7b8ad91319167248", "type": "electric_scooter", "name": "680206324d7bc1db7b8ad91319167248"}, {"is_disabled": 0, "is_reserved": 0, "fusion_lat": 0.0, "lat": 38.92649766666667, "fusion_lon": 0.0, "rental_uris": {"ios": "https://dc.lft.to/lastmile_qr_scan", "android": "https://dc.lft.to/lastmile_qr_scan"}, "lon": -77.09021316666667, "bike_id": "87e5268372a269f53c835f552ab38fde", "type": "electric_bike", "name": "87e5268372a269f53c835f552ab38fde"}, {"is_disabled": 0, "is_reserved": 0, "fusion_lat": 0.0, "lat": 38.92150216666667, "fusion_lon": 0.0, "rental_uris": {"ios": "https://dc.lft.to/lastmile_qr_scan", "android": "https://dc.lft.to/lastmile_qr_scan"}, "lon": -77.0338255, "bike_id": "ab6ea4e93e995e85b426a363819af328", "type": "electric_scooter", "name": "ab6ea4e93e995e85b426a363819af328"}, {"is_disabled": 0, "is_reserved": 0, "fusion_lat": 0.0, "lat": 38.8925, "fusion_lon": 0.0, "rental_uris": {"ios": "https://dc.lft.to/lastmile_qr_scan", "android": "https://dc.lft.to/lastmile_qr_scan"}, "lon": -77.046567, "bike_id": "11d87babf1d3fdd99e279b99acb381db", "type": "electric_scooter", "name": "11d87babf1d3fdd99e279b99acb381db"}, {"is_disabled": 0, "is_reserved": 0, "fusion_lat": 0.0, "lat": 38.929418166666665, "fusion_lon": 0.0, "rental_uris": {"ios": "https://dc.lft.to/lastmile_qr_scan", "android": "https://dc.lft.to/lastmile_qr_scan"}, "lon": -77.0328405, "bike_id": "a553c33bf8b59a80cfd3ff0d2c8d139b", "type": "electric_scooter", "name": "a553c33bf8b59a80cfd3ff0d2c8d139b"}, {"is_disabled": 0, "is_reserved": 0, "fusion_lat": 0.0, "lat": 38.89511983333333, "fusion_lon": 0.0, "rental_uris": {"ios": "https://dc.lft.to/lastmile_qr_scan", "android": "https://dc.lft.to/lastmile_qr_scan"}, "lon": -77.0228335, "bike_id": "71d23f5fba83cf329db6e7f28e46b9bb", "type": "electric_scooter", "name": "71d23f5fba83cf329db6e7f28e46b9bb"}, {"is_disabled": 0, "is_reserved": 0, "fusion_lat": 0.0, "lat": 38.8975155, "fusion_lon": 0.0, "rental_uris": {"ios": "https://dc.lft.to/lastmile_qr_scan", "android": "https://dc.lft.to/lastmile_qr_scan"}, "lon": -77.00332983333334, "bike_id": "9e4c291f21858224af8a1b4d647d8428", "type": "electric_scooter", "name": "9e4c291f21858224af8a1b4d647d8428"}, {"is_disabled": 0, "is_reserved": 0, "fusion_lat": 0.0, "lat": 38.937911166666666, "fusion_lon": 0.0, "rental_uris": {"ios": "https://dc.lft.to/lastmile_qr_scan", "android": "https://dc.lft.to/lastmile_qr_scan"}, "lon": -77.02327283333334, "bike_id": "16b209ea6a88a44bb2cef6eba96cab6a", "type": "electric_scooter", "name": "16b209ea6a88a44bb2cef6eba96cab6a"}, {"is_disabled": 0, "is_reserved": 0, "fusion_lat": 0.0, "lat": 38.845987, "fusion_lon": 0.0, "rental_uris": {"ios": "https://dc.lft.to/lastmile_qr_scan", "android": "https://dc.lft.to/lastmile_qr_scan"}, "lon": -76.9741575, "bike_id": "d281520d262402bf30035da5eea869bc", "type": "electric_scooter", "name": "d281520d262402bf30035da5eea869bc"}, {"is_disabled": 0, "is_reserved": 0, "fusion_lat": 0.0, "lat": 38.92987516666667, "fusion_lon": 0.0, "rental_uris": {"ios": "https://dc.lft.to/lastmile_qr_scan", "android": "https://dc.lft.to/lastmile_qr_scan"}, "lon": -77.03471, "bike_id": "b99a963f7284ca73e610aee0e2f201d6", "type": "electric_scooter", "name": "b99a963f7284ca73e610aee0e2f201d6"}, {"is_disabled": 0, "is_reserved": 0, "fusion_lat": 0.0, "lat": 38.91785083333333, "fusion_lon": 0.0, "rental_uris": {"ios": "https://dc.lft.to/lastmile_qr_scan", "android": "https://dc.lft.to/lastmile_qr_scan"}, "lon": -77.02305433333333, "bike_id": "de7eadc12914877502fa5d223f0941d2", "type": "electric_scooter", "name": "de7eadc12914877502fa5d223f0941d2"}, {"is_disabled": 0, "is_reserved": 0, "fusion_lat": 0.0, "lat": 38.89087283333333, "fusion_lon": 0.0, "rental_uris": {"ios": "https://dc.lft.to/lastmile_qr_scan", "android": "https://dc.lft.to/lastmile_qr_scan"}, "lon": -76.95466583333334, "bike_id": "e1d0fadd0bde25fdf52f3ea39338b5c1", "type": "electric_bike", "name": "e1d0fadd0bde25fdf52f3ea39338b5c1"}, {"is_disabled": 0, "is_reserved": 0, "fusion_lat": 0.0, "lat": 38.919098, "fusion_lon": 0.0, "rental_uris": {"ios": "https://dc.lft.to/lastmile_qr_scan", "android": "https://dc.lft.to/lastmile_qr_scan"}, "lon": -77.03441666666667, "bike_id": "cf069b819782ba897517aac81aea36f4", "type": "electric_scooter", "name": "cf069b819782ba897517aac81aea36f4"}, {"is_disabled": 0, "is_reserved": 0, "fusion_lat": 0.0, "lat": 38.930624333333334, "fusion_lon": 0.0, "rental_uris": {"ios": "https://dc.lft.to/lastmile_qr_scan", "android": "https://dc.lft.to/lastmile_qr_scan"}, "lon": -76.9732985, "bike_id": "4af43ad188bb2c9d6aec5b979025eea2", "type": "electric_scooter", "name": "4af43ad188bb2c9d6aec5b979025eea2"}, {"is_disabled": 0, "is_reserved": 0, "fusion_lat": 0.0, "lat": 38.9172455, "fusion_lon": 0.0, "rental_uris": {"ios": "https://dc.lft.to/lastmile_qr_scan", "android": "https://dc.lft.to/lastmile_qr_scan"}, "lon": -77.02612366666666, "bike_id": "74aaac3a5876d96d2cb8fe09a5a197ff", "type": "electric_scooter", "name": "74aaac3a5876d96d2cb8fe09a5a197ff"}, {"is_disabled": 0, "is_reserved": 0, "fusion_lat": 0.0, "lat": 38.9258895, "fusion_lon": 0.0, "rental_uris": {"ios": "https://dc.lft.to/lastmile_qr_scan", "android": "https://dc.lft.to/lastmile_qr_scan"}, "lon": -77.02493383333334, "bike_id": "6d2a4586d5549983ed5f950133318976", "type": "electric_scooter", "name": "6d2a4586d5549983ed5f950133318976"}, {"is_disabled": 0, "is_reserved": 0, "fusion_lat": 0.0, "lat": 38.95636283333333, "fusion_lon": 0.0, "rental_uris": {"ios": "https://dc.lft.to/lastmile_qr_scan", "android": "https://dc.lft.to/lastmile_qr_scan"}, "lon": -77.03628566666667, "bike_id": "8666cfe5813580ae7dd437d21f40bff6", "type": "electric_scooter", "name": "8666cfe5813580ae7dd437d21f40bff6"}, {"is_disabled": 0, "is_reserved": 0, "fusion_lat": 0.0, "lat": 38.93346016666667, "fusion_lon": 0.0, "rental_uris": {"ios": "https://dc.lft.to/lastmile_qr_scan", "android": "https://dc.lft.to/lastmile_qr_scan"}, "lon": -77.01937833333334, "bike_id": "ec6ce78263d4d08a9c0878ac0e239f1c", "type": "electric_scooter", "name": "ec6ce78263d4d08a9c0878ac0e239f1c"}, {"is_disabled": 0, "is_reserved": 0, "fusion_lat": 0.0, "lat": 38.92711716666667, "fusion_lon": 0.0, "rental_uris": {"ios": "https://dc.lft.to/lastmile_qr_scan", "android": "https://dc.lft.to/lastmile_qr_scan"}, "lon": -77.02265966666667, "bike_id": "ca5936347f8e02197ad10d2038460e3e", "type": "electric_scooter", "name": "ca5936347f8e02197ad10d2038460e3e"}, {"is_disabled": 0, "is_reserved": 0, "fusion_lat": 0.0, "lat": 38.932350666666665, "fusion_lon": 0.0, "rental_uris": {"ios": "https://dc.lft.to/lastmile_qr_scan", "android": "https://dc.lft.to/lastmile_qr_scan"}, "lon": -77.020271, "bike_id": "c781ce04a30cabced2d17704055be441", "type": "electric_scooter", "name": "c781ce04a30cabced2d17704055be441"}, {"is_disabled": 0, "is_reserved": 0, "fusion_lat": 0.0, "lat": 38.9177045, "fusion_lon": 0.0, "rental_uris": {"ios": "https://dc.lft.to/lastmile_qr_scan", "android": "https://dc.lft.to/lastmile_qr_scan"}, "lon": -77.0234415, "bike_id": "4d47aa414950023e57d0bc442df26ae3", "type": "electric_scooter", "name": "4d47aa414950023e57d0bc442df26ae3"}, {"is_disabled": 0, "is_reserved": 0, "fusion_lat": 0.0, "lat": 38.90291216666667, "fusion_lon": 0.0, "rental_uris": {"ios": "https://dc.lft.to/lastmile_qr_scan", "android": "https://dc.lft.to/lastmile_qr_scan"}, "lon": -77.012136, "bike_id": "56501312e509b14d6cada4aa5b4e3b51", "type": "electric_scooter", "name": "56501312e509b14d6cada4aa5b4e3b51"}, {"is_disabled": 0, "is_reserved": 0, "fusion_lat": 0.0, "lat": 38.9201985, "fusion_lon": 0.0, "rental_uris": {"ios": "https://dc.lft.to/lastmile_qr_scan", "android": "https://dc.lft.to/lastmile_qr_scan"}, "lon": -77.0315625, "bike_id": "45416ef5b737cb84d60d51a82acbd862", "type": "electric_scooter", "name": "45416ef5b737cb84d60d51a82acbd862"}, {"is_disabled": 0, "is_reserved": 0, "fusion_lat": 0.0, "lat": 38.88570933333333, "fusion_lon": 0.0, "rental_uris": {"ios": "https://dc.lft.to/lastmile_qr_scan", "android": "https://dc.lft.to/lastmile_qr_scan"}, "lon": -77.01998116666667, "bike_id": "079679832234936c4ecc00406bccc34f", "type": "electric_scooter", "name": "079679832234936c4ecc00406bccc34f"}, {"is_disabled": 0, "is_reserved": 0, "fusion_lat": 0.0, "lat": 38.94586816666666, "fusion_lon": 0.0, "rental_uris": {"ios": "https://dc.lft.to/lastmile_qr_scan", "android": "https://dc.lft.to/lastmile_qr_scan"}, "lon": -77.02029933333333, "bike_id": "a0a4134caba3554673ab7e8fcaf054df", "type": "electric_scooter", "name": "a0a4134caba3554673ab7e8fcaf054df"}, {"is_disabled": 0, "is_reserved": 0, "fusion_lat": 0.0, "lat": 38.923796833333334, "fusion_lon": 0.0, "rental_uris": {"ios": "https://dc.lft.to/lastmile_qr_scan", "android": "https://dc.lft.to/lastmile_qr_scan"}, "lon": -77.04021583333333, "bike_id": "8d7e447b34993bf79c633c6af580816f", "type": "electric_scooter", "name": "8d7e447b34993bf79c633c6af580816f"}, {"is_disabled": 0, "is_reserved": 0, "fusion_lat": 0.0, "lat": 38.910465, "fusion_lon": 0.0, "rental_uris": {"ios": "https://dc.lft.to/lastmile_qr_scan", "android": "https://dc.lft.to/lastmile_qr_scan"}, "lon": -77.01507716666667, "bike_id": "b6a4efffa751fa3aa82ed5d39d87ea94", "type": "electric_scooter", "name": "b6a4efffa751fa3aa82ed5d39d87ea94"}, {"is_disabled": 0, "is_reserved": 0, "fusion_lat": 0.0, "lat": 38.84275233333334, "fusion_lon": 0.0, "rental_uris": {"ios": "https://dc.lft.to/lastmile_qr_scan", "android": "https://dc.lft.to/lastmile_qr_scan"}, "lon": -76.98837883333333, "bike_id": "933adc4e511ff21fe17f0675f93f4c30", "type": "electric_bike", "name": "933adc4e511ff21fe17f0675f93f4c30"}, {"is_disabled": 0, "is_reserved": 0, "fusion_lat": 0.0, "lat": 38.906366, "fusion_lon": 0.0, "rental_uris": {"ios": "https://dc.lft.to/lastmile_qr_scan", "android": "https://dc.lft.to/lastmile_qr_scan"}, "lon": -77.0455015, "bike_id": "147fb98703d9334b41babb9ed4b161b0", "type": "electric_scooter", "name": "147fb98703d9334b41babb9ed4b161b0"}, {"is_disabled": 0, "is_reserved": 0, "fusion_lat": 0.0, "lat": 38.934275166666666, "fusion_lon": 0.0, "rental_uris": {"ios": "https://dc.lft.to/lastmile_qr_scan", "android": "https://dc.lft.to/lastmile_qr_scan"}, "lon": -77.043073, "bike_id": "0dfbee9c3f16ac011dd917d24401ba3c", "type": "electric_scooter", "name": "0dfbee9c3f16ac011dd917d24401ba3c"}, {"is_disabled": 0, "is_reserved": 0, "fusion_lat": 0.0, "lat": 38.80674583333333, "fusion_lon": 0.0, "rental_uris": {"ios": "https://dc.lft.to/lastmile_qr_scan", "android": "https://dc.lft.to/lastmile_qr_scan"}, "lon": -77.06914533333334, "bike_id": "a63c1eb89fe37e70c3d042290b4e54bb", "type": "electric_bike", "name": "a63c1eb89fe37e70c3d042290b4e54bb"}, {"is_disabled": 0, "is_reserved": 0, "fusion_lat": 0.0, "lat": 38.94632266666667, "fusion_lon": 0.0, "rental_uris": {"ios": "https://dc.lft.to/lastmile_qr_scan", "android": "https://dc.lft.to/lastmile_qr_scan"}, "lon": -77.01840783333333, "bike_id": "56974dd492a67b44a82fe82247ab02e7", "type": "electric_scooter", "name": "56974dd492a67b44a82fe82247ab02e7"}, {"is_disabled": 0, "is_reserved": 0, "fusion_lat": 0.0, "lat": 38.9436465, "fusion_lon": 0.0, "rental_uris": {"ios": "https://dc.lft.to/lastmile_qr_scan", "android": "https://dc.lft.to/lastmile_qr_scan"}, "lon": -77.0611025, "bike_id": "abc6cd0129c401b03d20b8e2a6aa9a76", "type": "electric_scooter", "name": "abc6cd0129c401b03d20b8e2a6aa9a76"}, {"is_disabled": 0, "is_reserved": 0, "fusion_lat": 0.0, "lat": 38.9352285, "fusion_lon": 0.0, "rental_uris": {"ios": "https://dc.lft.to/lastmile_qr_scan", "android": "https://dc.lft.to/lastmile_qr_scan"}, "lon": -77.03812816666667, "bike_id": "4cf8f19b614ff191228f0e2de15eb044", "type": "electric_scooter", "name": "4cf8f19b614ff191228f0e2de15eb044"}, {"is_disabled": 0, "is_reserved": 0, "fusion_lat": 0.0, "lat": 38.961737166666666, "fusion_lon": 0.0, "rental_uris": {"ios": "https://dc.lft.to/lastmile_qr_scan", "android": "https://dc.lft.to/lastmile_qr_scan"}, "lon": -77.03225333333333, "bike_id": "ebca7f259c807abc50cd47a3d4c12b6a", "type": "electric_scooter", "name": "ebca7f259c807abc50cd47a3d4c12b6a"}, {"is_disabled": 0, "is_reserved": 0, "fusion_lat": 0.0, "lat": 38.894234, "fusion_lon": 0.0, "rental_uris": {"ios": "https://dc.lft.to/lastmile_qr_scan", "android": "https://dc.lft.to/lastmile_qr_scan"}, "lon": -77.021327, "bike_id": "c367244b13c03509c6e2991cbb4c5121", "type": "electric_scooter", "name": "c367244b13c03509c6e2991cbb4c5121"}, {"is_disabled": 0, "is_reserved": 0, "fusion_lat": 0.0, "lat": 38.936972, "fusion_lon": 0.0, "rental_uris": {"ios": "https://dc.lft.to/lastmile_qr_scan", "android": "https://dc.lft.to/lastmile_qr_scan"}, "lon": -77.05686866666667, "bike_id": "42d258cdacaea3dd44a6ac3de11c3525", "type": "electric_scooter", "name": "42d258cdacaea3dd44a6ac3de11c3525"}, {"is_disabled": 0, "is_reserved": 0, "fusion_lat": 0.0, "lat": 38.949746166666664, "fusion_lon": 0.0, "rental_uris": {"ios": "https://dc.lft.to/lastmile_qr_scan", "android": "https://dc.lft.to/lastmile_qr_scan"}, "lon": -77.02445516666667, "bike_id": "37746d73bcf265743bf54438ff7afff1", "type": "electric_scooter", "name": "37746d73bcf265743bf54438ff7afff1"}, {"is_disabled": 0, "is_reserved": 0, "fusion_lat": 0.0, "lat": 38.93213316666667, "fusion_lon": 0.0, "rental_uris": {"ios": "https://dc.lft.to/lastmile_qr_scan", "android": "https://dc.lft.to/lastmile_qr_scan"}, "lon": -77.03650366666666, "bike_id": "3e9f38ec9ba40655ac462ad24773ae77", "type": "electric_scooter", "name": "3e9f38ec9ba40655ac462ad24773ae77"}, {"is_disabled": 0, "is_reserved": 0, "fusion_lat": 0.0, "lat": 38.924535166666665, "fusion_lon": 0.0, "rental_uris": {"ios": "https://dc.lft.to/lastmile_qr_scan", "android": "https://dc.lft.to/lastmile_qr_scan"}, "lon": -77.03299466666667, "bike_id": "6f9fa657d5764488e1ca4fb472d9fbdc", "type": "electric_scooter", "name": "6f9fa657d5764488e1ca4fb472d9fbdc"}, {"is_disabled": 0, "is_reserved": 0, "fusion_lat": 0.0, "lat": 38.924539833333334, "fusion_lon": 0.0, "rental_uris": {"ios": "https://dc.lft.to/lastmile_qr_scan", "android": "https://dc.lft.to/lastmile_qr_scan"}, "lon": -77.03287566666667, "bike_id": "093d1852efe531639483b9a96eb6b40f", "type": "electric_scooter", "name": "093d1852efe531639483b9a96eb6b40f"}, {"is_disabled": 0, "is_reserved": 0, "fusion_lat": 0.0, "lat": 38.88747516666667, "fusion_lon": 0.0, "rental_uris": {"ios": "https://dc.lft.to/lastmile_qr_scan", "android": "https://dc.lft.to/lastmile_qr_scan"}, "lon": -77.03218083333333, "bike_id": "fbb964d10f7a0775add9f5511bfdc48c", "type": "electric_scooter", "name": "fbb964d10f7a0775add9f5511bfdc48c"}, {"is_disabled": 0, "is_reserved": 0, "fusion_lat": 0.0, "lat": 38.89503533333333, "fusion_lon": 0.0, "rental_uris": {"ios": "https://dc.lft.to/lastmile_qr_scan", "android": "https://dc.lft.to/lastmile_qr_scan"}, "lon": -77.0395795, "bike_id": "75d7d67427bccfff7393c8c4494cb390", "type": "electric_scooter", "name": "75d7d67427bccfff7393c8c4494cb390"}, {"is_disabled": 0, "is_reserved": 0, "fusion_lat": 0.0, "lat": 38.923557, "fusion_lon": 0.0, "rental_uris": {"ios": "https://dc.lft.to/lastmile_qr_scan", "android": "https://dc.lft.to/lastmile_qr_scan"}, "lon": -77.05275166666667, "bike_id": "a28c0f7d2c73010ca696744946cfd318", "type": "electric_scooter", "name": "a28c0f7d2c73010ca696744946cfd318"}, {"is_disabled": 0, "is_reserved": 0, "fusion_lat": 0.0, "lat": 38.89345133333333, "fusion_lon": 0.0, "rental_uris": {"ios": "https://dc.lft.to/lastmile_qr_scan", "android": "https://dc.lft.to/lastmile_qr_scan"}, "lon": -76.99373083333333, "bike_id": "10e152b4ead9fd4933b490eb64392fda", "type": "electric_scooter", "name": "10e152b4ead9fd4933b490eb64392fda"}, {"is_disabled": 0, "is_reserved": 0, "fusion_lat": 0.0, "lat": 38.89274233333333, "fusion_lon": 0.0, "rental_uris": {"ios": "https://dc.lft.to/lastmile_qr_scan", "android": "https://dc.lft.to/lastmile_qr_scan"}, "lon": -77.04502266666667, "bike_id": "ba6aa62d81ad4ef0858ff4b0292d1dfc", "type": "electric_scooter", "name": "ba6aa62d81ad4ef0858ff4b0292d1dfc"}, {"is_disabled": 0, "is_reserved": 0, "fusion_lat": 0.0, "lat": 38.90566333333334, "fusion_lon": 0.0, "rental_uris": {"ios": "https://dc.lft.to/lastmile_qr_scan", "android": "https://dc.lft.to/lastmile_qr_scan"}, "lon": -77.0043175, "bike_id": "b20ec86c512689abbf59f15d676e46e2", "type": "electric_scooter", "name": "b20ec86c512689abbf59f15d676e46e2"}, {"is_disabled": 0, "is_reserved": 0, "fusion_lat": 0.0, "lat": 38.910438666666664, "fusion_lon": 0.0, "rental_uris": {"ios": "https://dc.lft.to/lastmile_qr_scan", "android": "https://dc.lft.to/lastmile_qr_scan"}, "lon": -76.9980345, "bike_id": "38ff18f64b02479f2f58e8c0bc183cf1", "type": "electric_scooter", "name": "38ff18f64b02479f2f58e8c0bc183cf1"}, {"is_disabled": 0, "is_reserved": 0, "fusion_lat": 0.0, "lat": 38.8850895, "fusion_lon": 0.0, "rental_uris": {"ios": "https://dc.lft.to/lastmile_qr_scan", "android": "https://dc.lft.to/lastmile_qr_scan"}, "lon": -77.04776516666666, "bike_id": "042274771ae65a8eb8ca0cdc74b5d42a", "type": "electric_bike", "name": "042274771ae65a8eb8ca0cdc74b5d42a"}, {"is_disabled": 0, "is_reserved": 0, "fusion_lat": 0.0, "lat": 38.9346195, "fusion_lon": 0.0, "rental_uris": {"ios": "https://dc.lft.to/lastmile_qr_scan", "android": "https://dc.lft.to/lastmile_qr_scan"}, "lon": -77.02406183333333, "bike_id": "d9d565db84731e42d3195e19fffcd105", "type": "electric_scooter", "name": "d9d565db84731e42d3195e19fffcd105"}, {"is_disabled": 0, "is_reserved": 0, "fusion_lat": 0.0, "lat": 38.8409835, "fusion_lon": 0.0, "rental_uris": {"ios": "https://dc.lft.to/lastmile_qr_scan", "android": "https://dc.lft.to/lastmile_qr_scan"}, "lon": -76.987049, "bike_id": "f2e7af21511634ff5f0f8ad9361ce127", "type": "electric_bike", "name": "f2e7af21511634ff5f0f8ad9361ce127"}, {"is_disabled": 0, "is_reserved": 0, "fusion_lat": 0.0, "lat": 38.9182885, "fusion_lon": 0.0, "rental_uris": {"ios": "https://dc.lft.to/lastmile_qr_scan", "android": "https://dc.lft.to/lastmile_qr_scan"}, "lon": -77.0531845, "bike_id": "c4b0e95513cb05a5869efb1f937655db", "type": "electric_scooter", "name": "c4b0e95513cb05a5869efb1f937655db"}, {"is_disabled": 0, "is_reserved": 0, "fusion_lat": 0.0, "lat": 38.90859916666667, "fusion_lon": 0.0, "rental_uris": {"ios": "https://dc.lft.to/lastmile_qr_scan", "android": "https://dc.lft.to/lastmile_qr_scan"}, "lon": -77.03520133333333, "bike_id": "85729286574d55f5c45273f1df707ab4", "type": "electric_scooter", "name": "85729286574d55f5c45273f1df707ab4"}, {"is_disabled": 0, "is_reserved": 0, "fusion_lat": 0.0, "lat": 38.90800316666667, "fusion_lon": 0.0, "rental_uris": {"ios": "https://dc.lft.to/lastmile_qr_scan", "android": "https://dc.lft.to/lastmile_qr_scan"}, "lon": -77.03832983333334, "bike_id": "f1f10165a15cc9c69ce61e2e96531980", "type": "electric_scooter", "name": "f1f10165a15cc9c69ce61e2e96531980"}, {"is_disabled": 0, "is_reserved": 0, "fusion_lat": 0.0, "lat": 38.921524833333336, "fusion_lon": 0.0, "rental_uris": {"ios": "https://dc.lft.to/lastmile_qr_scan", "android": "https://dc.lft.to/lastmile_qr_scan"}, "lon": -77.0364965, "bike_id": "f1d4c686fe758779aa76d676c6307575", "type": "electric_scooter", "name": "f1d4c686fe758779aa76d676c6307575"}, {"is_disabled": 0, "is_reserved": 0, "fusion_lat": 0.0, "lat": 38.90664316666667, "fusion_lon": 0.0, "rental_uris": {"ios": "https://dc.lft.to/lastmile_qr_scan", "android": "https://dc.lft.to/lastmile_qr_scan"}, "lon": -77.02946416666667, "bike_id": "52dae03ba4e3a7dbfeba926eb65ceaed", "type": "electric_scooter", "name": "52dae03ba4e3a7dbfeba926eb65ceaed"}, {"is_disabled": 0, "is_reserved": 0, "fusion_lat": 0.0, "lat": 38.96800366666667, "fusion_lon": 0.0, "rental_uris": {"ios": "https://dc.lft.to/lastmile_qr_scan", "android": "https://dc.lft.to/lastmile_qr_scan"}, "lon": -77.02430016666666, "bike_id": "df25eeaceb54f257a34f8c5c5abfb162", "type": "electric_scooter", "name": "df25eeaceb54f257a34f8c5c5abfb162"}, {"is_disabled": 0, "is_reserved": 0, "fusion_lat": 0.0, "lat": 38.901557833333335, "fusion_lon": 0.0, "rental_uris": {"ios": "https://dc.lft.to/lastmile_qr_scan", "android": "https://dc.lft.to/lastmile_qr_scan"}, "lon": -77.02485683333333, "bike_id": "98bd9bde3d868feec1f85daee4eb74f6", "type": "electric_scooter", "name": "98bd9bde3d868feec1f85daee4eb74f6"}, {"is_disabled": 0, "is_reserved": 0, "fusion_lat": 0.0, "lat": 38.94492666666667, "fusion_lon": 0.0, "rental_uris": {"ios": "https://dc.lft.to/lastmile_qr_scan", "android": "https://dc.lft.to/lastmile_qr_scan"}, "lon": -77.00737383333333, "bike_id": "a6293634b365469bd1a2a09ad23e0814", "type": "electric_bike", "name": "a6293634b365469bd1a2a09ad23e0814"}, {"is_disabled": 0, "is_reserved": 0, "fusion_lat": 0.0, "lat": 38.90853416666667, "fusion_lon": 0.0, "rental_uris": {"ios": "https://dc.lft.to/lastmile_qr_scan", "android": "https://dc.lft.to/lastmile_qr_scan"}, "lon": -77.00407383333334, "bike_id": "beb60c4796434a38a63c87982b818df3", "type": "electric_scooter", "name": "beb60c4796434a38a63c87982b818df3"}, {"is_disabled": 0, "is_reserved": 0, "fusion_lat": 0.0, "lat": 38.805188, "fusion_lon": 0.0, "rental_uris": {"ios": "https://dc.lft.to/lastmile_qr_scan", "android": "https://dc.lft.to/lastmile_qr_scan"}, "lon": -77.04339383333334, "bike_id": "d27837961e360bd5f9ae3332c11baa9a", "type": "electric_bike", "name": "d27837961e360bd5f9ae3332c11baa9a"}, {"is_disabled": 0, "is_reserved": 0, "fusion_lat": 0.0, "lat": 38.965512, "fusion_lon": 0.0, "rental_uris": {"ios": "https://dc.lft.to/lastmile_qr_scan", "android": "https://dc.lft.to/lastmile_qr_scan"}, "lon": -77.01617666666667, "bike_id": "2bd1189ac16047bababa7f69a61849c7", "type": "electric_bike", "name": "2bd1189ac16047bababa7f69a61849c7"}, {"is_disabled": 0, "is_reserved": 0, "fusion_lat": 0.0, "lat": 38.878693, "fusion_lon": 0.0, "rental_uris": {"ios": "https://dc.lft.to/lastmile_qr_scan", "android": "https://dc.lft.to/lastmile_qr_scan"}, "lon": -77.0056055, "bike_id": "3775f9e73fca8af5f86a5b02a346f747", "type": "electric_scooter", "name": "3775f9e73fca8af5f86a5b02a346f747"}, {"is_disabled": 0, "is_reserved": 0, "fusion_lat": 0.0, "lat": 38.9084325, "fusion_lon": 0.0, "rental_uris": {"ios": "https://dc.lft.to/lastmile_qr_scan", "android": "https://dc.lft.to/lastmile_qr_scan"}, "lon": -76.93447416666666, "bike_id": "ba496026cbfbab7b55feab2f34be4433", "type": "electric_scooter", "name": "ba496026cbfbab7b55feab2f34be4433"}, {"is_disabled": 0, "is_reserved": 0, "fusion_lat": 0.0, "lat": 38.91925083333334, "fusion_lon": 0.0, "rental_uris": {"ios": "https://dc.lft.to/lastmile_qr_scan", "android": "https://dc.lft.to/lastmile_qr_scan"}, "lon": -77.02710883333333, "bike_id": "8d55cf136b49ba0f8f82fdd4bffa9058", "type": "electric_scooter", "name": "8d55cf136b49ba0f8f82fdd4bffa9058"}, {"is_disabled": 0, "is_reserved": 0, "fusion_lat": 0.0, "lat": 38.8706925, "fusion_lon": 0.0, "rental_uris": {"ios": "https://dc.lft.to/lastmile_qr_scan", "android": "https://dc.lft.to/lastmile_qr_scan"}, "lon": -77.11026283333334, "bike_id": "5ae51369a1603ac8843f7533cca4fc4a", "type": "electric_bike", "name": "5ae51369a1603ac8843f7533cca4fc4a"}, {"is_disabled": 0, "is_reserved": 0, "fusion_lat": 0.0, "lat": 38.88623116666667, "fusion_lon": 0.0, "rental_uris": {"ios": "https://dc.lft.to/lastmile_qr_scan", "android": "https://dc.lft.to/lastmile_qr_scan"}, "lon": -77.02822666666667, "bike_id": "119a78ff4fcd7327da061e2ae55d5972", "type": "electric_scooter", "name": "119a78ff4fcd7327da061e2ae55d5972"}, {"is_disabled": 0, "is_reserved": 0, "fusion_lat": 0.0, "lat": 38.86812316666666, "fusion_lon": 0.0, "rental_uris": {"ios": "https://dc.lft.to/lastmile_qr_scan", "android": "https://dc.lft.to/lastmile_qr_scan"}, "lon": -76.98021183333333, "bike_id": "f1252c330d34ba36d20d0fa991a06a29", "type": "electric_bike", "name": "f1252c330d34ba36d20d0fa991a06a29"}, {"is_disabled": 0, "is_reserved": 0, "fusion_lat": 0.0, "lat": 38.87920033333333, "fusion_lon": 0.0, "rental_uris": {"ios": "https://dc.lft.to/lastmile_qr_scan", "android": "https://dc.lft.to/lastmile_qr_scan"}, "lon": -77.00863983333333, "bike_id": "eb5194fa7a124319caad5dc898bb2edb", "type": "electric_scooter", "name": "eb5194fa7a124319caad5dc898bb2edb"}, {"is_disabled": 0, "is_reserved": 0, "fusion_lat": 0.0, "lat": 38.938615166666665, "fusion_lon": 0.0, "rental_uris": {"ios": "https://dc.lft.to/lastmile_qr_scan", "android": "https://dc.lft.to/lastmile_qr_scan"}, "lon": -77.031673, "bike_id": "5b0725f2fdc5c8246baf3bdca5e674c7", "type": "electric_scooter", "name": "5b0725f2fdc5c8246baf3bdca5e674c7"}, {"is_disabled": 0, "is_reserved": 0, "fusion_lat": 0.0, "lat": 38.8982745, "fusion_lon": 0.0, "rental_uris": {"ios": "https://dc.lft.to/lastmile_qr_scan", "android": "https://dc.lft.to/lastmile_qr_scan"}, "lon": -77.0333725, "bike_id": "9bcebcb533caf1ed0cde27b025285d46", "type": "electric_scooter", "name": "9bcebcb533caf1ed0cde27b025285d46"}, {"is_disabled": 0, "is_reserved": 0, "fusion_lat": 0.0, "lat": 38.94729783333333, "fusion_lon": 0.0, "rental_uris": {"ios": "https://dc.lft.to/lastmile_qr_scan", "android": "https://dc.lft.to/lastmile_qr_scan"}, "lon": -77.01937766666667, "bike_id": "37dcea0f6bae2a887931d42470c01be3", "type": "electric_scooter", "name": "37dcea0f6bae2a887931d42470c01be3"}, {"is_disabled": 0, "is_reserved": 0, "fusion_lat": 0.0, "lat": 38.896671, "fusion_lon": 0.0, "rental_uris": {"ios": "https://dc.lft.to/lastmile_qr_scan", "android": "https://dc.lft.to/lastmile_qr_scan"}, "lon": -76.93210016666667, "bike_id": "93993a29abaa1f51596aef8dd9a48a2d", "type": "electric_scooter", "name": "93993a29abaa1f51596aef8dd9a48a2d"}, {"is_disabled": 0, "is_reserved": 0, "fusion_lat": 0.0, "lat": 38.93111066666667, "fusion_lon": 0.0, "rental_uris": {"ios": "https://dc.lft.to/lastmile_qr_scan", "android": "https://dc.lft.to/lastmile_qr_scan"}, "lon": -77.03841266666667, "bike_id": "ceb69eed291a7cede04f5f95f8807695", "type": "electric_scooter", "name": "ceb69eed291a7cede04f5f95f8807695"}, {"is_disabled": 0, "is_reserved": 0, "fusion_lat": 0.0, "lat": 38.88293316666667, "fusion_lon": 0.0, "rental_uris": {"ios": "https://dc.lft.to/lastmile_qr_scan", "android": "https://dc.lft.to/lastmile_qr_scan"}, "lon": -76.986131, "bike_id": "e4e2d71f7d9c83ad99849f1aa797595e", "type": "electric_scooter", "name": "e4e2d71f7d9c83ad99849f1aa797595e"}, {"is_disabled": 0, "is_reserved": 0, "fusion_lat": 0.0, "lat": 38.90312983333333, "fusion_lon": 0.0, "rental_uris": {"ios": "https://dc.lft.to/lastmile_qr_scan", "android": "https://dc.lft.to/lastmile_qr_scan"}, "lon": -77.039841, "bike_id": "41e0fb188294c33a54c6e27e44483d88", "type": "electric_scooter", "name": "41e0fb188294c33a54c6e27e44483d88"}, {"is_disabled": 0, "is_reserved": 0, "fusion_lat": 0.0, "lat": 38.888726, "fusion_lon": 0.0, "rental_uris": {"ios": "https://dc.lft.to/lastmile_qr_scan", "android": "https://dc.lft.to/lastmile_qr_scan"}, "lon": -76.95700266666667, "bike_id": "7df382e63343dcae39ffc3d7a81fa881", "type": "electric_bike", "name": "7df382e63343dcae39ffc3d7a81fa881"}, {"is_disabled": 0, "is_reserved": 0, "fusion_lat": 0.0, "lat": 38.87357183333334, "fusion_lon": 0.0, "rental_uris": {"ios": "https://dc.lft.to/lastmile_qr_scan", "android": "https://dc.lft.to/lastmile_qr_scan"}, "lon": -77.11870133333333, "bike_id": "74720d4be1b990f1e053d9217e825659", "type": "electric_bike", "name": "74720d4be1b990f1e053d9217e825659"}, {"is_disabled": 0, "is_reserved": 0, "fusion_lat": 0.0, "lat": 38.902628, "fusion_lon": 0.0, "rental_uris": {"ios": "https://dc.lft.to/lastmile_qr_scan", "android": "https://dc.lft.to/lastmile_qr_scan"}, "lon": -77.0089425, "bike_id": "e2dc04c2fd977a1894c29320a791c650", "type": "electric_scooter", "name": "e2dc04c2fd977a1894c29320a791c650"}, {"is_disabled": 0, "is_reserved": 0, "fusion_lat": 0.0, "lat": 38.9226865, "fusion_lon": 0.0, "rental_uris": {"ios": "https://dc.lft.to/lastmile_qr_scan", "android": "https://dc.lft.to/lastmile_qr_scan"}, "lon": -77.04279816666667, "bike_id": "812cf8a34094c9150958a52b3d95e2c8", "type": "electric_scooter", "name": "812cf8a34094c9150958a52b3d95e2c8"}, {"is_disabled": 0, "is_reserved": 0, "fusion_lat": 0.0, "lat": 38.879527333333336, "fusion_lon": 0.0, "rental_uris": {"ios": "https://dc.lft.to/lastmile_qr_scan", "android": "https://dc.lft.to/lastmile_qr_scan"}, "lon": -76.93182183333333, "bike_id": "5e45e079d315daeb3ba58df6f1558bd4", "type": "electric_bike", "name": "5e45e079d315daeb3ba58df6f1558bd4"}, {"is_disabled": 0, "is_reserved": 0, "fusion_lat": 0.0, "lat": 38.90811883333333, "fusion_lon": 0.0, "rental_uris": {"ios": "https://dc.lft.to/lastmile_qr_scan", "android": "https://dc.lft.to/lastmile_qr_scan"}, "lon": -77.00608783333334, "bike_id": "ee48d53d5789401288a5b1da7e92b4ee", "type": "electric_scooter", "name": "ee48d53d5789401288a5b1da7e92b4ee"}, {"is_disabled": 0, "is_reserved": 0, "fusion_lat": 0.0, "lat": 38.901877166666665, "fusion_lon": 0.0, "rental_uris": {"ios": "https://dc.lft.to/lastmile_qr_scan", "android": "https://dc.lft.to/lastmile_qr_scan"}, "lon": -77.00211683333333, "bike_id": "4d5dbdaa8b1f3b817d1f99face2ce97d", "type": "electric_scooter", "name": "4d5dbdaa8b1f3b817d1f99face2ce97d"}, {"is_disabled": 0, "is_reserved": 0, "fusion_lat": 0.0, "lat": 39.0423445, "fusion_lon": 0.0, "rental_uris": {"ios": "https://dc.lft.to/lastmile_qr_scan", "android": "https://dc.lft.to/lastmile_qr_scan"}, "lon": -76.99734083333334, "bike_id": "f419acfeda5631b740fa3e33382bbabb", "type": "electric_bike", "name": "f419acfeda5631b740fa3e33382bbabb"}, {"is_disabled": 0, "is_reserved": 0, "fusion_lat": 0.0, "lat": 38.894728666666666, "fusion_lon": 0.0, "rental_uris": {"ios": "https://dc.lft.to/lastmile_qr_scan", "android": "https://dc.lft.to/lastmile_qr_scan"}, "lon": -77.00268083333333, "bike_id": "d82bcd5586a44f9355a7041319ffd41e", "type": "electric_scooter", "name": "d82bcd5586a44f9355a7041319ffd41e"}, {"is_disabled": 0, "is_reserved": 0, "fusion_lat": 0.0, "lat": 38.95068233333333, "fusion_lon": 0.0, "rental_uris": {"ios": "https://dc.lft.to/lastmile_qr_scan", "android": "https://dc.lft.to/lastmile_qr_scan"}, "lon": -76.99596766666667, "bike_id": "69a3b97846d4f4df31df934008ddcd8a", "type": "electric_bike", "name": "69a3b97846d4f4df31df934008ddcd8a"}, {"is_disabled": 0, "is_reserved": 0, "fusion_lat": 0.0, "lat": 38.875644666666666, "fusion_lon": 0.0, "rental_uris": {"ios": "https://dc.lft.to/lastmile_qr_scan", "android": "https://dc.lft.to/lastmile_qr_scan"}, "lon": -77.04706, "bike_id": "b33aed36f7da01733c4b438dd2b8fe3c", "type": "electric_bike", "name": "b33aed36f7da01733c4b438dd2b8fe3c"}, {"is_disabled": 0, "is_reserved": 0, "fusion_lat": 0.0, "lat": 38.908869, "fusion_lon": 0.0, "rental_uris": {"ios": "https://dc.lft.to/lastmile_qr_scan", "android": "https://dc.lft.to/lastmile_qr_scan"}, "lon": -77.04661816666666, "bike_id": "c5454947f64a537c22a2bd83df535db0", "type": "electric_scooter", "name": "c5454947f64a537c22a2bd83df535db0"}, {"is_disabled": 0, "is_reserved": 0, "fusion_lat": 0.0, "lat": 38.90749316666667, "fusion_lon": 0.0, "rental_uris": {"ios": "https://dc.lft.to/lastmile_qr_scan", "android": "https://dc.lft.to/lastmile_qr_scan"}, "lon": -76.99997966666666, "bike_id": "e92bedb69ae6a436303d23a98d11512f", "type": "electric_scooter", "name": "e92bedb69ae6a436303d23a98d11512f"}, {"is_disabled": 0, "is_reserved": 0, "fusion_lat": 0.0, "lat": 38.998509, "fusion_lon": 0.0, "rental_uris": {"ios": "https://dc.lft.to/lastmile_qr_scan", "android": "https://dc.lft.to/lastmile_qr_scan"}, "lon": -77.00248383333333, "bike_id": "75b9c68eee6b24f0ca2ef48e730f8e5f", "type": "electric_bike", "name": "75b9c68eee6b24f0ca2ef48e730f8e5f"}, {"is_disabled": 0, "is_reserved": 0, "fusion_lat": 0.0, "lat": 38.91274633333333, "fusion_lon": 0.0, "rental_uris": {"ios": "https://dc.lft.to/lastmile_qr_scan", "android": "https://dc.lft.to/lastmile_qr_scan"}, "lon": -77.0465275, "bike_id": "4ed7e4921aa58d409ec507e1dc0c2463", "type": "electric_scooter", "name": "4ed7e4921aa58d409ec507e1dc0c2463"}, {"is_disabled": 0, "is_reserved": 0, "fusion_lat": 0.0, "lat": 38.93118416666667, "fusion_lon": 0.0, "rental_uris": {"ios": "https://dc.lft.to/lastmile_qr_scan", "android": "https://dc.lft.to/lastmile_qr_scan"}, "lon": -77.02072366666667, "bike_id": "f0f973df9f541c4cc3cdf1f732811fa8", "type": "electric_scooter", "name": "f0f973df9f541c4cc3cdf1f732811fa8"}, {"is_disabled": 0, "is_reserved": 0, "fusion_lat": 0.0, "lat": 38.91933733333333, "fusion_lon": 0.0, "rental_uris": {"ios": "https://dc.lft.to/lastmile_qr_scan", "android": "https://dc.lft.to/lastmile_qr_scan"}, "lon": -77.044816, "bike_id": "41be36c90597c5d3be2ec6f2a55cca2a", "type": "electric_scooter", "name": "41be36c90597c5d3be2ec6f2a55cca2a"}, {"is_disabled": 0, "is_reserved": 0, "fusion_lat": 0.0, "lat": 38.9163525, "fusion_lon": 0.0, "rental_uris": {"ios": "https://dc.lft.to/lastmile_qr_scan", "android": "https://dc.lft.to/lastmile_qr_scan"}, "lon": -77.008506, "bike_id": "217ccf28cce85962e88a86306bef9f6c", "type": "electric_scooter", "name": "217ccf28cce85962e88a86306bef9f6c"}, {"is_disabled": 0, "is_reserved": 0, "fusion_lat": 0.0, "lat": 38.90556383333333, "fusion_lon": 0.0, "rental_uris": {"ios": "https://dc.lft.to/lastmile_qr_scan", "android": "https://dc.lft.to/lastmile_qr_scan"}, "lon": -77.005003, "bike_id": "c8a717258950a17e53a85e5271b919e8", "type": "electric_scooter", "name": "c8a717258950a17e53a85e5271b919e8"}, {"is_disabled": 0, "is_reserved": 0, "fusion_lat": 0.0, "lat": 38.913350666666666, "fusion_lon": 0.0, "rental_uris": {"ios": "https://dc.lft.to/lastmile_qr_scan", "android": "https://dc.lft.to/lastmile_qr_scan"}, "lon": -77.01656983333334, "bike_id": "a35b9ff4b9dca60a605225e0fa4ef720", "type": "electric_scooter", "name": "a35b9ff4b9dca60a605225e0fa4ef720"}, {"is_disabled": 0, "is_reserved": 0, "fusion_lat": 0.0, "lat": 38.89781416666667, "fusion_lon": 0.0, "rental_uris": {"ios": "https://dc.lft.to/lastmile_qr_scan", "android": "https://dc.lft.to/lastmile_qr_scan"}, "lon": -77.02719783333333, "bike_id": "a123c716c52374aaeecff20cda555bcd", "type": "electric_scooter", "name": "a123c716c52374aaeecff20cda555bcd"}, {"is_disabled": 0, "is_reserved": 0, "fusion_lat": 0.0, "lat": 38.93061266666667, "fusion_lon": 0.0, "rental_uris": {"ios": "https://dc.lft.to/lastmile_qr_scan", "android": "https://dc.lft.to/lastmile_qr_scan"}, "lon": -77.04026566666667, "bike_id": "08d97bc60330da6d46d2075bb98aba17", "type": "electric_scooter", "name": "08d97bc60330da6d46d2075bb98aba17"}, {"is_disabled": 0, "is_reserved": 0, "fusion_lat": 0.0, "lat": 38.9255115, "fusion_lon": 0.0, "rental_uris": {"ios": "https://dc.lft.to/lastmile_qr_scan", "android": "https://dc.lft.to/lastmile_qr_scan"}, "lon": -77.00323483333334, "bike_id": "a8e09f42caa462046ac2a68db7e0896c", "type": "electric_scooter", "name": "a8e09f42caa462046ac2a68db7e0896c"}, {"is_disabled": 0, "is_reserved": 0, "fusion_lat": 0.0, "lat": 38.87781733333333, "fusion_lon": 0.0, "rental_uris": {"ios": "https://dc.lft.to/lastmile_qr_scan", "android": "https://dc.lft.to/lastmile_qr_scan"}, "lon": -77.00123683333334, "bike_id": "ad7e78cb391f5293a1dc4037b0ed9458", "type": "electric_scooter", "name": "ad7e78cb391f5293a1dc4037b0ed9458"}, {"is_disabled": 0, "is_reserved": 0, "fusion_lat": 0.0, "lat": 38.9366115, "fusion_lon": 0.0, "rental_uris": {"ios": "https://dc.lft.to/lastmile_qr_scan", "android": "https://dc.lft.to/lastmile_qr_scan"}, "lon": -77.0660615, "bike_id": "3f5f81aac2e01d755e21f166be769ece", "type": "electric_scooter", "name": "3f5f81aac2e01d755e21f166be769ece"}, {"is_disabled": 0, "is_reserved": 0, "fusion_lat": 0.0, "lat": 38.908050833333334, "fusion_lon": 0.0, "rental_uris": {"ios": "https://dc.lft.to/lastmile_qr_scan", "android": "https://dc.lft.to/lastmile_qr_scan"}, "lon": -77.0383565, "bike_id": "ac490fe43e9eb0d1338d2dd5e9c1ad5f", "type": "electric_scooter", "name": "ac490fe43e9eb0d1338d2dd5e9c1ad5f"}, {"is_disabled": 0, "is_reserved": 0, "fusion_lat": 0.0, "lat": 38.918241333333334, "fusion_lon": 0.0, "rental_uris": {"ios": "https://dc.lft.to/lastmile_qr_scan", "android": "https://dc.lft.to/lastmile_qr_scan"}, "lon": -77.025253, "bike_id": "d26fdf0ca84ed6599949a8257e1fe985", "type": "electric_scooter", "name": "d26fdf0ca84ed6599949a8257e1fe985"}, {"is_disabled": 0, "is_reserved": 0, "fusion_lat": 0.0, "lat": 38.93053, "fusion_lon": 0.0, "rental_uris": {"ios": "https://dc.lft.to/lastmile_qr_scan", "android": "https://dc.lft.to/lastmile_qr_scan"}, "lon": -77.02656866666666, "bike_id": "5a1c3a94c18adb3d564af220d21f761c", "type": "electric_scooter", "name": "5a1c3a94c18adb3d564af220d21f761c"}, {"is_disabled": 0, "is_reserved": 0, "fusion_lat": 0.0, "lat": 38.917980166666666, "fusion_lon": 0.0, "rental_uris": {"ios": "https://dc.lft.to/lastmile_qr_scan", "android": "https://dc.lft.to/lastmile_qr_scan"}, "lon": -77.03437716666667, "bike_id": "d55bdf86394d5ffd441dc8f6f32e6c18", "type": "electric_scooter", "name": "d55bdf86394d5ffd441dc8f6f32e6c18"}, {"is_disabled": 0, "is_reserved": 0, "fusion_lat": 0.0, "lat": 38.90653366666667, "fusion_lon": 0.0, "rental_uris": {"ios": "https://dc.lft.to/lastmile_qr_scan", "android": "https://dc.lft.to/lastmile_qr_scan"}, "lon": -77.011764, "bike_id": "e737c8723dca4b1ae206cc72680e3f13", "type": "electric_scooter", "name": "e737c8723dca4b1ae206cc72680e3f13"}, {"is_disabled": 0, "is_reserved": 0, "fusion_lat": 0.0, "lat": 38.8558615, "fusion_lon": 0.0, "rental_uris": {"ios": "https://dc.lft.to/lastmile_qr_scan", "android": "https://dc.lft.to/lastmile_qr_scan"}, "lon": -76.9727875, "bike_id": "ece0352e45b49cca9b403b4ddd7fde65", "type": "electric_bike", "name": "ece0352e45b49cca9b403b4ddd7fde65"}, {"is_disabled": 0, "is_reserved": 0, "fusion_lat": 0.0, "lat": 38.9616285, "fusion_lon": 0.0, "rental_uris": {"ios": "https://dc.lft.to/lastmile_qr_scan", "android": "https://dc.lft.to/lastmile_qr_scan"}, "lon": -77.0277785, "bike_id": "905e9b6a3f7b86e71b7da5b50f49b80c", "type": "electric_scooter", "name": "905e9b6a3f7b86e71b7da5b50f49b80c"}, {"is_disabled": 0, "is_reserved": 0, "fusion_lat": 0.0, "lat": 38.941364166666666, "fusion_lon": 0.0, "rental_uris": {"ios": "https://dc.lft.to/lastmile_qr_scan", "android": "https://dc.lft.to/lastmile_qr_scan"}, "lon": -77.0232295, "bike_id": "9b7f4415d739223589fbf6dc802e9a9d", "type": "electric_scooter", "name": "9b7f4415d739223589fbf6dc802e9a9d"}, {"is_disabled": 0, "is_reserved": 0, "fusion_lat": 0.0, "lat": 38.92030716666667, "fusion_lon": 0.0, "rental_uris": {"ios": "https://dc.lft.to/lastmile_qr_scan", "android": "https://dc.lft.to/lastmile_qr_scan"}, "lon": -77.01115366666667, "bike_id": "d9526744c6ebe415e35ef82611bc2523", "type": "electric_scooter", "name": "d9526744c6ebe415e35ef82611bc2523"}, {"is_disabled": 0, "is_reserved": 0, "fusion_lat": 0.0, "lat": 38.80409733333333, "fusion_lon": 0.0, "rental_uris": {"ios": "https://dc.lft.to/lastmile_qr_scan", "android": "https://dc.lft.to/lastmile_qr_scan"}, "lon": -77.1132975, "bike_id": "9f0e82afed4db55593f12a97764ff290", "type": "electric_bike", "name": "9f0e82afed4db55593f12a97764ff290"}, {"is_disabled": 0, "is_reserved": 0, "fusion_lat": 0.0, "lat": 38.926542833333336, "fusion_lon": 0.0, "rental_uris": {"ios": "https://dc.lft.to/lastmile_qr_scan", "android": "https://dc.lft.to/lastmile_qr_scan"}, "lon": -77.02423016666667, "bike_id": "a9b775a2d893bf1517e20d74587bded8", "type": "electric_scooter", "name": "a9b775a2d893bf1517e20d74587bded8"}, {"is_disabled": 0, "is_reserved": 0, "fusion_lat": 0.0, "lat": 38.92355716666667, "fusion_lon": 0.0, "rental_uris": {"ios": "https://dc.lft.to/lastmile_qr_scan", "android": "https://dc.lft.to/lastmile_qr_scan"}, "lon": -77.04386366666667, "bike_id": "17d6464257b38ad1ae89dc5e67498790", "type": "electric_scooter", "name": "17d6464257b38ad1ae89dc5e67498790"}, {"is_disabled": 0, "is_reserved": 0, "fusion_lat": 0.0, "lat": 38.91112433333333, "fusion_lon": 0.0, "rental_uris": {"ios": "https://dc.lft.to/lastmile_qr_scan", "android": "https://dc.lft.to/lastmile_qr_scan"}, "lon": -77.00365883333333, "bike_id": "b33588125119aef8983085200d12f366", "type": "electric_scooter", "name": "b33588125119aef8983085200d12f366"}, {"is_disabled": 0, "is_reserved": 0, "fusion_lat": 0.0, "lat": 38.920679666666665, "fusion_lon": 0.0, "rental_uris": {"ios": "https://dc.lft.to/lastmile_qr_scan", "android": "https://dc.lft.to/lastmile_qr_scan"}, "lon": -77.023553, "bike_id": "76771f2a86eb48cad7ed0ae2b5cb4e53", "type": "electric_scooter", "name": "76771f2a86eb48cad7ed0ae2b5cb4e53"}, {"is_disabled": 0, "is_reserved": 0, "fusion_lat": 0.0, "lat": 38.923535666666666, "fusion_lon": 0.0, "rental_uris": {"ios": "https://dc.lft.to/lastmile_qr_scan", "android": "https://dc.lft.to/lastmile_qr_scan"}, "lon": -77.07308233333333, "bike_id": "2d9dbdf4cbcf1bd73a725608b796138e", "type": "electric_scooter", "name": "2d9dbdf4cbcf1bd73a725608b796138e"}, {"is_disabled": 0, "is_reserved": 0, "fusion_lat": 0.0, "lat": 38.937015333333335, "fusion_lon": 0.0, "rental_uris": {"ios": "https://dc.lft.to/lastmile_qr_scan", "android": "https://dc.lft.to/lastmile_qr_scan"}, "lon": -77.0559795, "bike_id": "84bbc6e7d6459ee4b58e792c99f7861a", "type": "electric_scooter", "name": "84bbc6e7d6459ee4b58e792c99f7861a"}, {"is_disabled": 0, "is_reserved": 0, "fusion_lat": 0.0, "lat": 38.91408283333333, "fusion_lon": 0.0, "rental_uris": {"ios": "https://dc.lft.to/lastmile_qr_scan", "android": "https://dc.lft.to/lastmile_qr_scan"}, "lon": -77.04392083333333, "bike_id": "5f301d013f261a44c91cc4228885a9e2", "type": "electric_scooter", "name": "5f301d013f261a44c91cc4228885a9e2"}, {"is_disabled": 0, "is_reserved": 0, "fusion_lat": 0.0, "lat": 38.926512833333334, "fusion_lon": 0.0, "rental_uris": {"ios": "https://dc.lft.to/lastmile_qr_scan", "android": "https://dc.lft.to/lastmile_qr_scan"}, "lon": -77.02444516666667, "bike_id": "08f5313f5ad34ccf2953255856f0b163", "type": "electric_scooter", "name": "08f5313f5ad34ccf2953255856f0b163"}, {"is_disabled": 0, "is_reserved": 0, "fusion_lat": 0.0, "lat": 38.9311615, "fusion_lon": 0.0, "rental_uris": {"ios": "https://dc.lft.to/lastmile_qr_scan", "android": "https://dc.lft.to/lastmile_qr_scan"}, "lon": -77.02063766666667, "bike_id": "448afdce76f0b12850eafa9ec3ed0b3d", "type": "electric_scooter", "name": "448afdce76f0b12850eafa9ec3ed0b3d"}, {"is_disabled": 0, "is_reserved": 0, "fusion_lat": 0.0, "lat": 38.902321666666666, "fusion_lon": 0.0, "rental_uris": {"ios": "https://dc.lft.to/lastmile_qr_scan", "android": "https://dc.lft.to/lastmile_qr_scan"}, "lon": -77.05332016666667, "bike_id": "aa94cedaa3db5eec72bc9acbbe0e599e", "type": "electric_scooter", "name": "aa94cedaa3db5eec72bc9acbbe0e599e"}, {"is_disabled": 0, "is_reserved": 0, "fusion_lat": 0.0, "lat": 38.89227266666666, "fusion_lon": 0.0, "rental_uris": {"ios": "https://dc.lft.to/lastmile_qr_scan", "android": "https://dc.lft.to/lastmile_qr_scan"}, "lon": -77.02968216666666, "bike_id": "6d1ae862372af8932ba394efb6c0e79c", "type": "electric_scooter", "name": "6d1ae862372af8932ba394efb6c0e79c"}, {"is_disabled": 0, "is_reserved": 0, "fusion_lat": 0.0, "lat": 38.936072333333335, "fusion_lon": 0.0, "rental_uris": {"ios": "https://dc.lft.to/lastmile_qr_scan", "android": "https://dc.lft.to/lastmile_qr_scan"}, "lon": -77.038734, "bike_id": "78f4b90a7023276948a8654b397a9114", "type": "electric_scooter", "name": "78f4b90a7023276948a8654b397a9114"}, {"is_disabled": 0, "is_reserved": 0, "fusion_lat": 0.0, "lat": 38.928545166666666, "fusion_lon": 0.0, "rental_uris": {"ios": "https://dc.lft.to/lastmile_qr_scan", "android": "https://dc.lft.to/lastmile_qr_scan"}, "lon": -77.02870866666666, "bike_id": "4cd818b115cfa15640a39bf2a0762615", "type": "electric_scooter", "name": "4cd818b115cfa15640a39bf2a0762615"}, {"is_disabled": 0, "is_reserved": 0, "fusion_lat": 0.0, "lat": 38.91786233333333, "fusion_lon": 0.0, "rental_uris": {"ios": "https://dc.lft.to/lastmile_qr_scan", "android": "https://dc.lft.to/lastmile_qr_scan"}, "lon": -77.02302833333333, "bike_id": "5fda53aa225c6f16f0e7bc015c329c85", "type": "electric_scooter", "name": "5fda53aa225c6f16f0e7bc015c329c85"}, {"is_disabled": 0, "is_reserved": 0, "fusion_lat": 0.0, "lat": 38.93411533333333, "fusion_lon": 0.0, "rental_uris": {"ios": "https://dc.lft.to/lastmile_qr_scan", "android": "https://dc.lft.to/lastmile_qr_scan"}, "lon": -77.0427515, "bike_id": "193ce59873f1c1208705d9f96af70b94", "type": "electric_scooter", "name": "193ce59873f1c1208705d9f96af70b94"}, {"is_disabled": 0, "is_reserved": 0, "fusion_lat": 0.0, "lat": 38.922402, "fusion_lon": 0.0, "rental_uris": {"ios": "https://dc.lft.to/lastmile_qr_scan", "android": "https://dc.lft.to/lastmile_qr_scan"}, "lon": -77.0226405, "bike_id": "c82c3413ae086e4e116bb44bc4b54a19", "type": "electric_scooter", "name": "c82c3413ae086e4e116bb44bc4b54a19"}, {"is_disabled": 0, "is_reserved": 0, "fusion_lat": 0.0, "lat": 38.88761016666667, "fusion_lon": 0.0, "rental_uris": {"ios": "https://dc.lft.to/lastmile_qr_scan", "android": "https://dc.lft.to/lastmile_qr_scan"}, "lon": -77.156547, "bike_id": "1e1dee580413ce4a35924f6d82d6926e", "type": "electric_bike", "name": "1e1dee580413ce4a35924f6d82d6926e"}, {"is_disabled": 0, "is_reserved": 0, "fusion_lat": 0.0, "lat": 38.84280283333333, "fusion_lon": 0.0, "rental_uris": {"ios": "https://dc.lft.to/lastmile_qr_scan", "android": "https://dc.lft.to/lastmile_qr_scan"}, "lon": -76.988408, "bike_id": "b88d66ef1f4f0085512645f0842a1572", "type": "electric_bike", "name": "b88d66ef1f4f0085512645f0842a1572"}, {"is_disabled": 0, "is_reserved": 0, "fusion_lat": 0.0, "lat": 38.89492716666667, "fusion_lon": 0.0, "rental_uris": {"ios": "https://dc.lft.to/lastmile_qr_scan", "android": "https://dc.lft.to/lastmile_qr_scan"}, "lon": -77.02577733333334, "bike_id": "8bbc2555b18917f520ed62af0bf5ab21", "type": "electric_scooter", "name": "8bbc2555b18917f520ed62af0bf5ab21"}, {"is_disabled": 0, "is_reserved": 0, "fusion_lat": 0.0, "lat": 38.92983666666667, "fusion_lon": 0.0, "rental_uris": {"ios": "https://dc.lft.to/lastmile_qr_scan", "android": "https://dc.lft.to/lastmile_qr_scan"}, "lon": -77.03468533333333, "bike_id": "9166d0411492b4c51d9411071008b284", "type": "electric_scooter", "name": "9166d0411492b4c51d9411071008b284"}, {"is_disabled": 0, "is_reserved": 0, "fusion_lat": 0.0, "lat": 38.91732116666667, "fusion_lon": 0.0, "rental_uris": {"ios": "https://dc.lft.to/lastmile_qr_scan", "android": "https://dc.lft.to/lastmile_qr_scan"}, "lon": -77.02304683333334, "bike_id": "b0ecf203d30e8f6695bca921cc1c4474", "type": "electric_scooter", "name": "b0ecf203d30e8f6695bca921cc1c4474"}, {"is_disabled": 0, "is_reserved": 0, "fusion_lat": 0.0, "lat": 38.89554, "fusion_lon": 0.0, "rental_uris": {"ios": "https://dc.lft.to/lastmile_qr_scan", "android": "https://dc.lft.to/lastmile_qr_scan"}, "lon": -77.02672833333334, "bike_id": "a546a7851878da00262a32637f0dd748", "type": "electric_scooter", "name": "a546a7851878da00262a32637f0dd748"}, {"is_disabled": 0, "is_reserved": 0, "fusion_lat": 0.0, "lat": 38.91819816666667, "fusion_lon": 0.0, "rental_uris": {"ios": "https://dc.lft.to/lastmile_qr_scan", "android": "https://dc.lft.to/lastmile_qr_scan"}, "lon": -77.0270655, "bike_id": "d68e2a40878b3732a3c0444f693ce0f2", "type": "electric_scooter", "name": "d68e2a40878b3732a3c0444f693ce0f2"}, {"is_disabled": 0, "is_reserved": 0, "fusion_lat": 0.0, "lat": 38.876581, "fusion_lon": 0.0, "rental_uris": {"ios": "https://dc.lft.to/lastmile_qr_scan", "android": "https://dc.lft.to/lastmile_qr_scan"}, "lon": -77.00881083333333, "bike_id": "2083efeefb69b7107abc2865cb04c862", "type": "electric_scooter", "name": "2083efeefb69b7107abc2865cb04c862"}, {"is_disabled": 0, "is_reserved": 0, "fusion_lat": 0.0, "lat": 38.92305833333333, "fusion_lon": 0.0, "rental_uris": {"ios": "https://dc.lft.to/lastmile_qr_scan", "android": "https://dc.lft.to/lastmile_qr_scan"}, "lon": -77.0340385, "bike_id": "a424b37f08a9ea805afd70c709feef80", "type": "electric_scooter", "name": "a424b37f08a9ea805afd70c709feef80"}, {"is_disabled": 0, "is_reserved": 0, "fusion_lat": 0.0, "lat": 38.89849066666667, "fusion_lon": 0.0, "rental_uris": {"ios": "https://dc.lft.to/lastmile_qr_scan", "android": "https://dc.lft.to/lastmile_qr_scan"}, "lon": -77.00212366666666, "bike_id": "44391f040cd80ba4313f2445c42d04f6", "type": "electric_scooter", "name": "44391f040cd80ba4313f2445c42d04f6"}, {"is_disabled": 0, "is_reserved": 0, "fusion_lat": 0.0, "lat": 38.974407, "fusion_lon": 0.0, "rental_uris": {"ios": "https://dc.lft.to/lastmile_qr_scan", "android": "https://dc.lft.to/lastmile_qr_scan"}, "lon": -77.09613416666667, "bike_id": "be618e394c3774f67f7a00d6c83e1463", "type": "electric_bike", "name": "be618e394c3774f67f7a00d6c83e1463"}, {"is_disabled": 0, "is_reserved": 0, "fusion_lat": 0.0, "lat": 38.89456783333333, "fusion_lon": 0.0, "rental_uris": {"ios": "https://dc.lft.to/lastmile_qr_scan", "android": "https://dc.lft.to/lastmile_qr_scan"}, "lon": -76.93679016666667, "bike_id": "ecad1198476839b774976c51809c72ca", "type": "electric_bike", "name": "ecad1198476839b774976c51809c72ca"}, {"is_disabled": 0, "is_reserved": 0, "fusion_lat": 0.0, "lat": 38.884729, "fusion_lon": 0.0, "rental_uris": {"ios": "https://dc.lft.to/lastmile_qr_scan", "android": "https://dc.lft.to/lastmile_qr_scan"}, "lon": -77.02358233333334, "bike_id": "2d0d8d37534f0c25698ef9bc3d602263", "type": "electric_scooter", "name": "2d0d8d37534f0c25698ef9bc3d602263"}, {"is_disabled": 0, "is_reserved": 0, "fusion_lat": 0.0, "lat": 38.948522833333335, "fusion_lon": 0.0, "rental_uris": {"ios": "https://dc.lft.to/lastmile_qr_scan", "android": "https://dc.lft.to/lastmile_qr_scan"}, "lon": -77.0210915, "bike_id": "dbb87529a4abdc4cebc8351ea704821b", "type": "electric_scooter", "name": "dbb87529a4abdc4cebc8351ea704821b"}, {"is_disabled": 0, "is_reserved": 0, "fusion_lat": 0.0, "lat": 38.92358333333333, "fusion_lon": 0.0, "rental_uris": {"ios": "https://dc.lft.to/lastmile_qr_scan", "android": "https://dc.lft.to/lastmile_qr_scan"}, "lon": -77.033167, "bike_id": "0cfa3e69166f1408baa4e24453ada45c", "type": "electric_scooter", "name": "0cfa3e69166f1408baa4e24453ada45c"}, {"is_disabled": 0, "is_reserved": 0, "fusion_lat": 0.0, "lat": 38.92094816666667, "fusion_lon": 0.0, "rental_uris": {"ios": "https://dc.lft.to/lastmile_qr_scan", "android": "https://dc.lft.to/lastmile_qr_scan"}, "lon": -77.01746966666667, "bike_id": "9ae86d0599e507e999dcbf414bf8c096", "type": "electric_scooter", "name": "9ae86d0599e507e999dcbf414bf8c096"}, {"is_disabled": 0, "is_reserved": 0, "fusion_lat": 0.0, "lat": 38.87102316666667, "fusion_lon": 0.0, "rental_uris": {"ios": "https://dc.lft.to/lastmile_qr_scan", "android": "https://dc.lft.to/lastmile_qr_scan"}, "lon": -77.01218933333334, "bike_id": "982be9c6ef6c4613a415d8c1662ab1b2", "type": "electric_scooter", "name": "982be9c6ef6c4613a415d8c1662ab1b2"}, {"is_disabled": 0, "is_reserved": 0, "fusion_lat": 0.0, "lat": 38.89505783333333, "fusion_lon": 0.0, "rental_uris": {"ios": "https://dc.lft.to/lastmile_qr_scan", "android": "https://dc.lft.to/lastmile_qr_scan"}, "lon": -77.02278933333334, "bike_id": "ed1598937408bcd12de3b43716b0ae6b", "type": "electric_scooter", "name": "ed1598937408bcd12de3b43716b0ae6b"}, {"is_disabled": 0, "is_reserved": 0, "fusion_lat": 0.0, "lat": 38.83590383333333, "fusion_lon": 0.0, "rental_uris": {"ios": "https://dc.lft.to/lastmile_qr_scan", "android": "https://dc.lft.to/lastmile_qr_scan"}, "lon": -76.99015916666667, "bike_id": "cba45b732f76752da15bbd61e8117518", "type": "electric_bike", "name": "cba45b732f76752da15bbd61e8117518"}, {"is_disabled": 0, "is_reserved": 0, "fusion_lat": 0.0, "lat": 38.922204, "fusion_lon": 0.0, "rental_uris": {"ios": "https://dc.lft.to/lastmile_qr_scan", "android": "https://dc.lft.to/lastmile_qr_scan"}, "lon": -77.02033233333333, "bike_id": "241730392ae6554e9c1bdf4b60961e8a", "type": "electric_scooter", "name": "241730392ae6554e9c1bdf4b60961e8a"}, {"is_disabled": 0, "is_reserved": 0, "fusion_lat": 0.0, "lat": 38.936024833333335, "fusion_lon": 0.0, "rental_uris": {"ios": "https://dc.lft.to/lastmile_qr_scan", "android": "https://dc.lft.to/lastmile_qr_scan"}, "lon": -77.05596483333333, "bike_id": "93db6b075364c80818006135d2cf7ddc", "type": "electric_scooter", "name": "93db6b075364c80818006135d2cf7ddc"}, {"is_disabled": 0, "is_reserved": 0, "fusion_lat": 0.0, "lat": 38.85061133333333, "fusion_lon": 0.0, "rental_uris": {"ios": "https://dc.lft.to/lastmile_qr_scan", "android": "https://dc.lft.to/lastmile_qr_scan"}, "lon": -76.98171066666667, "bike_id": "964480b66d4290c20638fe1924cc7b50", "type": "electric_bike", "name": "964480b66d4290c20638fe1924cc7b50"}, {"is_disabled": 0, "is_reserved": 0, "fusion_lat": 0.0, "lat": 38.894998666666666, "fusion_lon": 0.0, "rental_uris": {"ios": "https://dc.lft.to/lastmile_qr_scan", "android": "https://dc.lft.to/lastmile_qr_scan"}, "lon": -76.97412466666667, "bike_id": "cbb71b93bc80738a064afee047e93760", "type": "electric_scooter", "name": "cbb71b93bc80738a064afee047e93760"}, {"is_disabled": 0, "is_reserved": 0, "fusion_lat": 0.0, "lat": 38.917423666666664, "fusion_lon": 0.0, "rental_uris": {"ios": "https://dc.lft.to/lastmile_qr_scan", "android": "https://dc.lft.to/lastmile_qr_scan"}, "lon": -77.01082216666667, "bike_id": "b8d9081645e8a494721473c2f4b293aa", "type": "electric_scooter", "name": "b8d9081645e8a494721473c2f4b293aa"}, {"is_disabled": 0, "is_reserved": 0, "fusion_lat": 0.0, "lat": 38.919562, "fusion_lon": 0.0, "rental_uris": {"ios": "https://dc.lft.to/lastmile_qr_scan", "android": "https://dc.lft.to/lastmile_qr_scan"}, "lon": -77.04517483333333, "bike_id": "49019068ac3d21a8312d6fd397cfaae9", "type": "electric_scooter", "name": "49019068ac3d21a8312d6fd397cfaae9"}, {"is_disabled": 0, "is_reserved": 0, "fusion_lat": 0.0, "lat": 38.936643333333336, "fusion_lon": 0.0, "rental_uris": {"ios": "https://dc.lft.to/lastmile_qr_scan", "android": "https://dc.lft.to/lastmile_qr_scan"}, "lon": -77.06607083333333, "bike_id": "94682b85a74c4a2234ee5070e189042a", "type": "electric_scooter", "name": "94682b85a74c4a2234ee5070e189042a"}, {"is_disabled": 0, "is_reserved": 0, "fusion_lat": 0.0, "lat": 38.89515266666667, "fusion_lon": 0.0, "rental_uris": {"ios": "https://dc.lft.to/lastmile_qr_scan", "android": "https://dc.lft.to/lastmile_qr_scan"}, "lon": -77.022876, "bike_id": "e9c324d73309aaf695d4c30035bb2782", "type": "electric_scooter", "name": "e9c324d73309aaf695d4c30035bb2782"}, {"is_disabled": 0, "is_reserved": 0, "fusion_lat": 0.0, "lat": 38.92074383333333, "fusion_lon": 0.0, "rental_uris": {"ios": "https://dc.lft.to/lastmile_qr_scan", "android": "https://dc.lft.to/lastmile_qr_scan"}, "lon": -77.024306, "bike_id": "ae8fc445a9d98f6f7551a5e4a4142e83", "type": "electric_scooter", "name": "ae8fc445a9d98f6f7551a5e4a4142e83"}, {"is_disabled": 0, "is_reserved": 0, "fusion_lat": 0.0, "lat": 38.92894533333333, "fusion_lon": 0.0, "rental_uris": {"ios": "https://dc.lft.to/lastmile_qr_scan", "android": "https://dc.lft.to/lastmile_qr_scan"}, "lon": -77.01938916666667, "bike_id": "1b627ee0d318960ab4e2f4c3f2412dba", "type": "electric_scooter", "name": "1b627ee0d318960ab4e2f4c3f2412dba"}, {"is_disabled": 0, "is_reserved": 0, "fusion_lat": 0.0, "lat": 38.92852933333333, "fusion_lon": 0.0, "rental_uris": {"ios": "https://dc.lft.to/lastmile_qr_scan", "android": "https://dc.lft.to/lastmile_qr_scan"}, "lon": -77.03729916666667, "bike_id": "422143a7712e94561112afe8b9def778", "type": "electric_scooter", "name": "422143a7712e94561112afe8b9def778"}, {"is_disabled": 0, "is_reserved": 0, "fusion_lat": 0.0, "lat": 38.953527, "fusion_lon": 0.0, "rental_uris": {"ios": "https://dc.lft.to/lastmile_qr_scan", "android": "https://dc.lft.to/lastmile_qr_scan"}, "lon": -76.98089216666666, "bike_id": "89c78d17d24a8bbc58f991fda20c17ad", "type": "electric_bike", "name": "89c78d17d24a8bbc58f991fda20c17ad"}, {"is_disabled": 0, "is_reserved": 0, "fusion_lat": 0.0, "lat": 38.888326166666666, "fusion_lon": 0.0, "rental_uris": {"ios": "https://dc.lft.to/lastmile_qr_scan", "android": "https://dc.lft.to/lastmile_qr_scan"}, "lon": -77.04903516666667, "bike_id": "d3e84e84be48f70db648d154494ac1a7", "type": "electric_scooter", "name": "d3e84e84be48f70db648d154494ac1a7"}, {"is_disabled": 0, "is_reserved": 0, "fusion_lat": 0.0, "lat": 38.881881166666666, "fusion_lon": 0.0, "rental_uris": {"ios": "https://dc.lft.to/lastmile_qr_scan", "android": "https://dc.lft.to/lastmile_qr_scan"}, "lon": -77.00352016666666, "bike_id": "c7cd0930e8ae518f3245163678743bb0", "type": "electric_scooter", "name": "c7cd0930e8ae518f3245163678743bb0"}, {"is_disabled": 0, "is_reserved": 0, "fusion_lat": 0.0, "lat": 38.924293166666665, "fusion_lon": 0.0, "rental_uris": {"ios": "https://dc.lft.to/lastmile_qr_scan", "android": "https://dc.lft.to/lastmile_qr_scan"}, "lon": -77.0194075, "bike_id": "45581041d2bd186e4025e8aa794fd566", "type": "electric_scooter", "name": "45581041d2bd186e4025e8aa794fd566"}, {"is_disabled": 0, "is_reserved": 0, "fusion_lat": 0.0, "lat": 38.8993335, "fusion_lon": 0.0, "rental_uris": {"ios": "https://dc.lft.to/lastmile_qr_scan", "android": "https://dc.lft.to/lastmile_qr_scan"}, "lon": -76.93759633333333, "bike_id": "e348d51606618e4996b8ab13ad266d72", "type": "electric_scooter", "name": "e348d51606618e4996b8ab13ad266d72"}, {"is_disabled": 0, "is_reserved": 0, "fusion_lat": 0.0, "lat": 38.917443166666665, "fusion_lon": 0.0, "rental_uris": {"ios": "https://dc.lft.to/lastmile_qr_scan", "android": "https://dc.lft.to/lastmile_qr_scan"}, "lon": -77.010806, "bike_id": "0b3ca2b13087718cea0a36d68eba20e5", "type": "electric_scooter", "name": "0b3ca2b13087718cea0a36d68eba20e5"}, {"is_disabled": 0, "is_reserved": 0, "fusion_lat": 0.0, "lat": 38.87085483333333, "fusion_lon": 0.0, "rental_uris": {"ios": "https://dc.lft.to/lastmile_qr_scan", "android": "https://dc.lft.to/lastmile_qr_scan"}, "lon": -77.01077466666666, "bike_id": "35772a81b4b02efc4ad04d8577992b30", "type": "electric_scooter", "name": "35772a81b4b02efc4ad04d8577992b30"}, {"is_disabled": 0, "is_reserved": 0, "fusion_lat": 0.0, "lat": 38.92823116666667, "fusion_lon": 0.0, "rental_uris": {"ios": "https://dc.lft.to/lastmile_qr_scan", "android": "https://dc.lft.to/lastmile_qr_scan"}, "lon": -77.05972233333334, "bike_id": "bae8c1fa3bb27aa6e460882d634df6d9", "type": "electric_bike", "name": "bae8c1fa3bb27aa6e460882d634df6d9"}, {"is_disabled": 0, "is_reserved": 0, "fusion_lat": 0.0, "lat": 38.8762815, "fusion_lon": 0.0, "rental_uris": {"ios": "https://dc.lft.to/lastmile_qr_scan", "android": "https://dc.lft.to/lastmile_qr_scan"}, "lon": -77.00197516666667, "bike_id": "138c32808096337e33ef2540bceefd3c", "type": "electric_scooter", "name": "138c32808096337e33ef2540bceefd3c"}, {"is_disabled": 0, "is_reserved": 0, "fusion_lat": 0.0, "lat": 38.88972916666667, "fusion_lon": 0.0, "rental_uris": {"ios": "https://dc.lft.to/lastmile_qr_scan", "android": "https://dc.lft.to/lastmile_qr_scan"}, "lon": -76.981775, "bike_id": "8b919e9f289699e4b846763855dfdda1", "type": "electric_scooter", "name": "8b919e9f289699e4b846763855dfdda1"}, {"is_disabled": 0, "is_reserved": 0, "fusion_lat": 0.0, "lat": 38.91804366666667, "fusion_lon": 0.0, "rental_uris": {"ios": "https://dc.lft.to/lastmile_qr_scan", "android": "https://dc.lft.to/lastmile_qr_scan"}, "lon": -77.00001233333333, "bike_id": "9c14804e2fba4882679a1b7013db90e6", "type": "electric_scooter", "name": "9c14804e2fba4882679a1b7013db90e6"}, {"is_disabled": 0, "is_reserved": 0, "fusion_lat": 0.0, "lat": 38.91174683333333, "fusion_lon": 0.0, "rental_uris": {"ios": "https://dc.lft.to/lastmile_qr_scan", "android": "https://dc.lft.to/lastmile_qr_scan"}, "lon": -77.01208566666666, "bike_id": "54a2ecfece8a872744eeb033c9a82d13", "type": "electric_scooter", "name": "54a2ecfece8a872744eeb033c9a82d13"}, {"is_disabled": 0, "is_reserved": 0, "fusion_lat": 0.0, "lat": 38.93523283333333, "fusion_lon": 0.0, "rental_uris": {"ios": "https://dc.lft.to/lastmile_qr_scan", "android": "https://dc.lft.to/lastmile_qr_scan"}, "lon": -77.02846233333334, "bike_id": "c4142ef83fb535226cd58351299f1e5d", "type": "electric_scooter", "name": "c4142ef83fb535226cd58351299f1e5d"}, {"is_disabled": 0, "is_reserved": 0, "fusion_lat": 0.0, "lat": 38.91908733333333, "fusion_lon": 0.0, "rental_uris": {"ios": "https://dc.lft.to/lastmile_qr_scan", "android": "https://dc.lft.to/lastmile_qr_scan"}, "lon": -77.023287, "bike_id": "85c0a391c8969d212d7afbfb9284baa0", "type": "electric_scooter", "name": "85c0a391c8969d212d7afbfb9284baa0"}, {"is_disabled": 0, "is_reserved": 0, "fusion_lat": 0.0, "lat": 38.90030266666667, "fusion_lon": 0.0, "rental_uris": {"ios": "https://dc.lft.to/lastmile_qr_scan", "android": "https://dc.lft.to/lastmile_qr_scan"}, "lon": -77.0036555, "bike_id": "90c2a08bf7c50dbfac68a33e8dcc6e9b", "type": "electric_scooter", "name": "90c2a08bf7c50dbfac68a33e8dcc6e9b"}, {"is_disabled": 0, "is_reserved": 0, "fusion_lat": 0.0, "lat": 38.92665266666667, "fusion_lon": 0.0, "rental_uris": {"ios": "https://dc.lft.to/lastmile_qr_scan", "android": "https://dc.lft.to/lastmile_qr_scan"}, "lon": -77.03027166666666, "bike_id": "ea929a03a7eb7dbd0618f21cbd5f8c84", "type": "electric_scooter", "name": "ea929a03a7eb7dbd0618f21cbd5f8c84"}, {"is_disabled": 0, "is_reserved": 0, "fusion_lat": 0.0, "lat": 38.87286616666667, "fusion_lon": 0.0, "rental_uris": {"ios": "https://dc.lft.to/lastmile_qr_scan", "android": "https://dc.lft.to/lastmile_qr_scan"}, "lon": -77.00984333333334, "bike_id": "a8cbaa3d01936f1505c3235e020bed47", "type": "electric_scooter", "name": "a8cbaa3d01936f1505c3235e020bed47"}, {"is_disabled": 0, "is_reserved": 0, "fusion_lat": 0.0, "lat": 38.9099795, "fusion_lon": 0.0, "rental_uris": {"ios": "https://dc.lft.to/lastmile_qr_scan", "android": "https://dc.lft.to/lastmile_qr_scan"}, "lon": -76.98614616666667, "bike_id": "69db187acb7faf17de5bb58077c462d4", "type": "electric_scooter", "name": "69db187acb7faf17de5bb58077c462d4"}, {"is_disabled": 0, "is_reserved": 0, "fusion_lat": 0.0, "lat": 38.908243666666664, "fusion_lon": 0.0, "rental_uris": {"ios": "https://dc.lft.to/lastmile_qr_scan", "android": "https://dc.lft.to/lastmile_qr_scan"}, "lon": -77.0006875, "bike_id": "64e6f922a1bd86a89bccff20ebf4526a", "type": "electric_scooter", "name": "64e6f922a1bd86a89bccff20ebf4526a"}, {"is_disabled": 0, "is_reserved": 0, "fusion_lat": 0.0, "lat": 38.917680833333335, "fusion_lon": 0.0, "rental_uris": {"ios": "https://dc.lft.to/lastmile_qr_scan", "android": "https://dc.lft.to/lastmile_qr_scan"}, "lon": -77.02340866666667, "bike_id": "839122ea9edb1feb25da3b9ba39933bd", "type": "electric_scooter", "name": "839122ea9edb1feb25da3b9ba39933bd"}, {"is_disabled": 0, "is_reserved": 0, "fusion_lat": 0.0, "lat": 38.84809833333333, "fusion_lon": 0.0, "rental_uris": {"ios": "https://dc.lft.to/lastmile_qr_scan", "android": "https://dc.lft.to/lastmile_qr_scan"}, "lon": -77.084116, "bike_id": "c5175e65c88111d69233f50070d08bd1", "type": "electric_bike", "name": "c5175e65c88111d69233f50070d08bd1"}, {"is_disabled": 0, "is_reserved": 0, "fusion_lat": 0.0, "lat": 38.92470466666666, "fusion_lon": 0.0, "rental_uris": {"ios": "https://dc.lft.to/lastmile_qr_scan", "android": "https://dc.lft.to/lastmile_qr_scan"}, "lon": -77.037568, "bike_id": "4b97d7752c62ab603379ba9ea4661469", "type": "electric_scooter", "name": "4b97d7752c62ab603379ba9ea4661469"}, {"is_disabled": 0, "is_reserved": 0, "fusion_lat": 0.0, "lat": 38.9178395, "fusion_lon": 0.0, "rental_uris": {"ios": "https://dc.lft.to/lastmile_qr_scan", "android": "https://dc.lft.to/lastmile_qr_scan"}, "lon": -77.03210083333333, "bike_id": "0d64b3b3f698e19f6152b1fb6922af99", "type": "electric_scooter", "name": "0d64b3b3f698e19f6152b1fb6922af99"}, {"is_disabled": 0, "is_reserved": 0, "fusion_lat": 0.0, "lat": 38.934624166666666, "fusion_lon": 0.0, "rental_uris": {"ios": "https://dc.lft.to/lastmile_qr_scan", "android": "https://dc.lft.to/lastmile_qr_scan"}, "lon": -77.02397033333334, "bike_id": "349b66b4db859390a71a6fa55552fcd6", "type": "electric_scooter", "name": "349b66b4db859390a71a6fa55552fcd6"}, {"is_disabled": 0, "is_reserved": 0, "fusion_lat": 0.0, "lat": 38.937501833333336, "fusion_lon": 0.0, "rental_uris": {"ios": "https://dc.lft.to/lastmile_qr_scan", "android": "https://dc.lft.to/lastmile_qr_scan"}, "lon": -77.03431733333333, "bike_id": "c5ec3503a01f46b7aa1b7933ecaddd7f", "type": "electric_scooter", "name": "c5ec3503a01f46b7aa1b7933ecaddd7f"},