{"data": {"bikes": [{"rental_uris": {"android": "https://dc.lft.to/lastmile_qr_scan", "ios": "https://dc.lft.to/lastmile_qr_scan"}, "type": "electric_scooter", "lon": -77.00012966666667, "name": "019aae4d4d90ca31ed02a081c852a7a1", "bike_id": "019aae4d4d90ca31ed02a081c852a7a1", "fusion_lat": 0.0, "is_reserved": 0, "lat": 38.900127166666664, "fusion_lon": 0.0, "is_disabled": 0}, {"rental_uris": {"android": "https://dc.lft.to/lastmile_qr_scan", "ios": "https://dc.lft.to/lastmile_qr_scan"}, "type": "electric_scooter", "lon": -77.0022645, "name": "1343d04d63c064184b50d274fd44a115", "bike_id": "1343d04d63c064184b50d274fd44a115", "fusion_lat": 0.0, "is_reserved": 0, "lat": 38.9573285, "fusion_lon": 0.0, "is_disabled": 0}, {"rental_uris": {"android": "https://dc.lft.to/lastmile_qr_scan", "ios": "https://dc.lft.to/lastmile_qr_scan"}, "type": "electric_bike", "lon": -76.98167016666666, "name": "2cd7227db76c3d41523a1b4cd394d177", "bike_id": "2cd7227db76c3d41523a1b4cd394d177", "fusion_lat": 0.0, "is_reserved": 0, "lat": 38.9595655, "fusion_lon": 0.0, "is_disabled": 0}, {"rental_uris": {"android": "https://dc.lft.to/lastmile_qr_scan", "ios": "https://dc.lft.to/lastmile_qr_scan"}, "type": "electric_scooter", "lon": -77.01864383333333, "name": "9a2f617832f499179b2a68471530aec9", "bike_id": "9a2f617832f499179b2a68471530aec9", "fusion_lat": 0.0, "is_reserved": 0, "lat": 38.94893616666667, "fusion_lon": 0.0, "is_disabled": 0}, {"rental_uris": {"android": "https://dc.lft.to/lastmile_qr_scan", "ios": "https://dc.lft.to/lastmile_qr_scan"}, "type": "electric_scooter", "lon": -77.00187, "name": "4ac88897e88472d24b24c3785e7e61e6", "bike_id": "4ac88897e88472d24b24c3785e7e61e6", "fusion_lat": 0.0, "is_reserved": 0, "lat": 38.903821666666666, "fusion_lon": 0.0, "is_disabled": 0}, {"rental_uris": {"android": "https://dc.lft.to/lastmile_qr_scan", "ios": "https://dc.lft.to/lastmile_qr_scan"}, "type": "electric_scooter", "lon": -77.0093415, "name": "6807f504b901e3f072b9961e181c15fe", "bike_id": "6807f504b901e3f072b9961e181c15fe", "fusion_lat": 0.0, "is_reserved": 0, "lat": 38.87629966666667, "fusion_lon": 0.0, "is_disabled": 0}, {"rental_uris": {"android": "https://dc.lft.to/lastmile_qr_scan", "ios": "https://dc.lft.to/lastmile_qr_scan"}, "type": "electric_scooter", "lon": -77.02925666666667, "name": "8e561a1d378cc9348865ad6deb6234c2", "bike_id": "8e561a1d378cc9348865ad6deb6234c2", "fusion_lat": 0.0, "is_reserved": 0, "lat": 38.88219466666666, "fusion_lon": 0.0, "is_disabled": 0}, {"rental_uris": {"android": "https://dc.lft.to/lastmile_qr_scan", "ios": "https://dc.lft.to/lastmile_qr_scan"}, "type": "electric_scooter", "lon": -77.04105716666666, "name": "04f1eed80f61132a867ba101857e0934", "bike_id": "04f1eed80f61132a867ba101857e0934", "fusion_lat": 0.0, "is_reserved": 0, "lat": 38.92089583333333, "fusion_lon": 0.0, "is_disabled": 0}, {"rental_uris": {"android": "https://dc.lft.to/lastmile_qr_scan", "ios": "https://dc.lft.to/lastmile_qr_scan"}, "type": "electric_scooter", "lon": -76.98454416666667, "name": "ac7046618bb5aa006aa1a014baf8e60c", "bike_id": "ac7046618bb5aa006aa1a014baf8e60c", "fusion_lat": 0.0, "is_reserved": 0, "lat": 38.8800945, "fusion_lon": 0.0, "is_disabled": 0}, {"rental_uris": {"android": "https://dc.lft.to/lastmile_qr_scan", "ios": "https://dc.lft.to/lastmile_qr_scan"}, "type": "electric_scooter", "lon": -77.02510133333334, "name": "9f3f4162e5e130a2bcbc60841656b87a", "bike_id": "9f3f4162e5e130a2bcbc60841656b87a", "fusion_lat": 0.0, "is_reserved": 0, "lat": 38.941810833333335, "fusion_lon": 0.0, "is_disabled": 0}, {"rental_uris": {"android": "https://dc.lft.to/lastmile_qr_scan", "ios": "https://dc.lft.to/lastmile_qr_scan"}, "type": "electric_scooter", "lon": -77.027044, "name": "37baa81d257703ba326e25051a39abfc", "bike_id": "37baa81d257703ba326e25051a39abfc", "fusion_lat": 0.0, "is_reserved": 0, "lat": 38.904641833333336, "fusion_lon": 0.0, "is_disabled": 0}, {"rental_uris": {"android": "https://dc.lft.to/lastmile_qr_scan", "ios": "https://dc.lft.to/lastmile_qr_scan"}, "type": "electric_scooter", "lon": -76.97818016666666, "name": "147fcf0e38a70cc25f06b74d6630a373", "bike_id": "147fcf0e38a70cc25f06b74d6630a373", "fusion_lat": 0.0, "is_reserved": 0, "lat": 38.896058, "fusion_lon": 0.0, "is_disabled": 0}, {"rental_uris": {"android": "https://dc.lft.to/lastmile_qr_scan", "ios": "https://dc.lft.to/lastmile_qr_scan"}, "type": "electric_scooter", "lon": -77.02296833333334, "name": "be1cd11a6fed880456437d42d3aa0958", "bike_id": "be1cd11a6fed880456437d42d3aa0958", "fusion_lat": 0.0, "is_reserved": 0, "lat": 38.91788533333333, "fusion_lon": 0.0, "is_disabled": 0}, {"rental_uris": {"android": "https://dc.lft.to/lastmile_qr_scan", "ios": "https://dc.lft.to/lastmile_qr_scan"}, "type": "electric_scooter", "lon": -77.03291933333334, "name": "91dbc56e75ef39696cbadca2625950f2", "bike_id": "91dbc56e75ef39696cbadca2625950f2", "fusion_lat": 0.0, "is_reserved": 0, "lat": 38.956548833333336, "fusion_lon": 0.0, "is_disabled": 0}, {"rental_uris": {"android": "https://dc.lft.to/lastmile_qr_scan", "ios": "https://dc.lft.to/lastmile_qr_scan"}, "type": "electric_bike", "lon": -77.12737866666667, "name": "5f7e37aa29b26f03507ef514a9d319c4", "bike_id": "5f7e37aa29b26f03507ef514a9d319c4", "fusion_lat": 0.0, "is_reserved": 0, "lat": 38.89566033333333, "fusion_lon": 0.0, "is_disabled": 0}, {"rental_uris": {"android": "https://dc.lft.to/lastmile_qr_scan", "ios": "https://dc.lft.to/lastmile_qr_scan"}, "type": "electric_scooter", "lon": -77.03999233333333, "name": "573857afdcfe65010d00ca47bea52d04", "bike_id": "573857afdcfe65010d00ca47bea52d04", "fusion_lat": 0.0, "is_reserved": 0, "lat": 38.918054, "fusion_lon": 0.0, "is_disabled": 0}, {"rental_uris": {"android": "https://dc.lft.to/lastmile_qr_scan", "ios": "https://dc.lft.to/lastmile_qr_scan"}, "type": "electric_scooter", "lon": -77.01014433333333, "name": "4880ead67e45be4c5d5a861d7d20ba7c", "bike_id": "4880ead67e45be4c5d5a861d7d20ba7c", "fusion_lat": 0.0, "is_reserved": 0, "lat": 38.867210166666666, "fusion_lon": 0.0, "is_disabled": 0}, {"rental_uris": {"android": "https://dc.lft.to/lastmile_qr_scan", "ios": "https://dc.lft.to/lastmile_qr_scan"}, "type": "electric_scooter", "lon": -77.03965566666666, "name": "03b2d6dbfea73cfac8f900645bdaf110", "bike_id": "03b2d6dbfea73cfac8f900645bdaf110", "fusion_lat": 0.0, "is_reserved": 0, "lat": 38.916360166666664, "fusion_lon": 0.0, "is_disabled": 0}, {"rental_uris": {"android": "https://dc.lft.to/lastmile_qr_scan", "ios": "https://dc.lft.to/lastmile_qr_scan"}, "type": "electric_scooter", "lon": -77.03640416666667, "name": "cee3db2334c15a5fa96851baf4be3ae6", "bike_id": "cee3db2334c15a5fa96851baf4be3ae6", "fusion_lat": 0.0, "is_reserved": 0, "lat": 38.917753, "fusion_lon": 0.0, "is_disabled": 0}, {"rental_uris": {"android": "https://dc.lft.to/lastmile_qr_scan", "ios": "https://dc.lft.to/lastmile_qr_scan"}, "type": "electric_scooter", "lon": -76.99883683333333, "name": "86ebea89e99c557408a18923fc164b45", "bike_id": "86ebea89e99c557408a18923fc164b45", "fusion_lat": 0.0, "is_reserved": 0, "lat": 38.92053383333333, "fusion_lon": 0.0, "is_disabled": 0}, {"rental_uris": {"android": "https://dc.lft.to/lastmile_qr_scan", "ios": "https://dc.lft.to/lastmile_qr_scan"}, "type": "electric_scooter", "lon": -77.0499335, "name": "08e13c9b6d46d83c975e89acd5c69625", "bike_id": "08e13c9b6d46d83c975e89acd5c69625", "fusion_lat": 0.0, "is_reserved": 0, "lat": 38.9043075, "fusion_lon": 0.0, "is_disabled": 0}, {"rental_uris": {"android": "https://dc.lft.to/lastmile_qr_scan", "ios": "https://dc.lft.to/lastmile_qr_scan"}, "type": "electric_scooter", "lon": -76.9937185, "name": "e340c35af73d797456582ed269c18079", "bike_id": "e340c35af73d797456582ed269c18079", "fusion_lat": 0.0, "is_reserved": 0, "lat": 38.90056766666667, "fusion_lon": 0.0, "is_disabled": 0}, {"rental_uris": {"android": "https://dc.lft.to/lastmile_qr_scan", "ios": "https://dc.lft.to/lastmile_qr_scan"}, "type": "electric_scooter", "lon": -76.988499, "name": "8d0a21d3efc5048c07d846c99c300c3f", "bike_id": "8d0a21d3efc5048c07d846c99c300c3f", "fusion_lat": 0.0, "is_reserved": 0, "lat": 38.90347366666666, "fusion_lon": 0.0, "is_disabled": 0}, {"rental_uris": {"android": "https://dc.lft.to/lastmile_qr_scan", "ios": "https://dc.lft.to/lastmile_qr_scan"}, "type": "electric_scooter", "lon": -77.027719, "name": "3e9e3d44a84105ec41a8825e4d5fce6e", "bike_id": "3e9e3d44a84105ec41a8825e4d5fce6e", "fusion_lat": 0.0, "is_reserved": 0, "lat": 38.89224216666667, "fusion_lon": 0.0, "is_disabled": 0}, {"rental_uris": {"android": "https://dc.lft.to/lastmile_qr_scan", "ios": "https://dc.lft.to/lastmile_qr_scan"}, "type": "electric_scooter", "lon": -77.024998, "name": "c0a50fefba86c1fa7a9ca3d15abb97a4", "bike_id": "c0a50fefba86c1fa7a9ca3d15abb97a4", "fusion_lat": 0.0, "is_reserved": 0, "lat": 38.93283816666667, "fusion_lon": 0.0, "is_disabled": 0}, {"rental_uris": {"android": "https://dc.lft.to/lastmile_qr_scan", "ios": "https://dc.lft.to/lastmile_qr_scan"}, "type": "electric_bike", "lon": -76.91658883333334, "name": "97461f963b56b870aca75089d3ae8c63", "bike_id": "97461f963b56b870aca75089d3ae8c63", "fusion_lat": 0.0, "is_reserved": 0, "lat": 38.86858083333333, "fusion_lon": 0.0, "is_disabled": 0}, {"rental_uris": {"android": "https://dc.lft.to/lastmile_qr_scan", "ios": "https://dc.lft.to/lastmile_qr_scan"}, "type": "electric_scooter", "lon": -77.04806833333333, "name": "ecf48a9063fce153431078fa939fd5aa", "bike_id": "ecf48a9063fce153431078fa939fd5aa", "fusion_lat": 0.0, "is_reserved": 0, "lat": 38.91107316666667, "fusion_lon": 0.0, "is_disabled": 0}, {"rental_uris": {"android": "https://dc.lft.to/lastmile_qr_scan", "ios": "https://dc.lft.to/lastmile_qr_scan"}, "type": "electric_scooter", "lon": -76.94246783333334, "name": "7d0952b74018ebcb456df292dfee53bd", "bike_id": "7d0952b74018ebcb456df292dfee53bd", "fusion_lat": 0.0, "is_reserved": 0, "lat": 38.89683633333333, "fusion_lon": 0.0, "is_disabled": 0}, {"rental_uris": {"android": "https://dc.lft.to/lastmile_qr_scan", "ios": "https://dc.lft.to/lastmile_qr_scan"}, "type": "electric_bike", "lon": -77.1226635, "name": "38e635ebcb7c1a9ae1d335355bc7cd28", "bike_id": "38e635ebcb7c1a9ae1d335355bc7cd28", "fusion_lat": 0.0, "is_reserved": 0, "lat": 38.89732716666666, "fusion_lon": 0.0, "is_disabled": 0}, {"rental_uris": {"android": "https://dc.lft.to/lastmile_qr_scan", "ios": "https://dc.lft.to/lastmile_qr_scan"}, "type": "electric_scooter", "lon": -77.0257615, "name": "84fdf16fa62acea95ea0e1b632edd4fc", "bike_id": "84fdf16fa62acea95ea0e1b632edd4fc", "fusion_lat": 0.0, "is_reserved": 0, "lat": 38.925099, "fusion_lon": 0.0, "is_disabled": 0}, {"rental_uris": {"android": "https://dc.lft.to/lastmile_qr_scan", "ios": "https://dc.lft.to/lastmile_qr_scan"}, "type": "electric_scooter", "lon": -77.06079583333333, "name": "ce47c52c8bd861be4081e5dee2199b4b", "bike_id": "ce47c52c8bd861be4081e5dee2199b4b", "fusion_lat": 0.0, "is_reserved": 0, "lat": 38.90530316666667, "fusion_lon": 0.0, "is_disabled": 0}, {"rental_uris": {"android": "https://dc.lft.to/lastmile_qr_scan", "ios": "https://dc.lft.to/lastmile_qr_scan"}, "type": "electric_scooter", "lon": -76.95407333333333, "name": "7edda552f26162f3abff1418b433ebfa", "bike_id": "7edda552f26162f3abff1418b433ebfa", "fusion_lat": 0.0, "is_reserved": 0, "lat": 38.89160366666667, "fusion_lon": 0.0, "is_disabled": 0}, {"rental_uris": {"android": "https://dc.lft.to/lastmile_qr_scan", "ios": "https://dc.lft.to/lastmile_qr_scan"}, "type": "electric_bike", "lon": -77.23289383333334, "name": "c7bf9fd7aba198a9c5412e10cdef05da", "bike_id": "c7bf9fd7aba198a9c5412e10cdef05da", "fusion_lat": 0.0, "is_reserved": 0, "lat": 38.925165166666666, "fusion_lon": 0.0, "is_disabled": 0}, {"rental_uris": {"android": "https://dc.lft.to/lastmile_qr_scan", "ios": "https://dc.lft.to/lastmile_qr_scan"}, "type": "electric_scooter", "lon": -77.04381483333333, "name": "f4168c40596eb592c618c1b3bde8f615", "bike_id": "f4168c40596eb592c618c1b3bde8f615", "fusion_lat": 0.0, "is_reserved": 0, "lat": 38.906456, "fusion_lon": 0.0, "is_disabled": 0}, {"rental_uris": {"android": "https://dc.lft.to/lastmile_qr_scan", "ios": "https://dc.lft.to/lastmile_qr_scan"}, "type": "electric_scooter", "lon": -77.0734885, "name": "973785dd1f26c43bfb302c1e5e38b05d", "bike_id": "973785dd1f26c43bfb302c1e5e38b05d", "fusion_lat": 0.0, "is_reserved": 0, "lat": 38.911045, "fusion_lon": 0.0, "is_disabled": 0}, {"rental_uris": {"android": "https://dc.lft.to/lastmile_qr_scan", "ios": "https://dc.lft.to/lastmile_qr_scan"}, "type": "electric_scooter", "lon": -77.04013966666666, "name": "7988811cd6c7c614f60ac13b8208c5b6", "bike_id": "7988811cd6c7c614f60ac13b8208c5b6", "fusion_lat": 0.0, "is_reserved": 0, "lat": 38.913115, "fusion_lon": 0.0, "is_disabled": 0}, {"rental_uris": {"android": "https://dc.lft.to/lastmile_qr_scan", "ios": "https://dc.lft.to/lastmile_qr_scan"}, "type": "electric_scooter", "lon": -77.029313, "name": "e2dfeb021b2cfa37f278725c043678c6", "bike_id": "e2dfeb021b2cfa37f278725c043678c6", "fusion_lat": 0.0, "is_reserved": 0, "lat": 38.911155, "fusion_lon": 0.0, "is_disabled": 0}, {"rental_uris": {"android": "https://dc.lft.to/lastmile_qr_scan", "ios": "https://dc.lft.to/lastmile_qr_scan"}, "type": "electric_scooter", "lon": -77.03639316666667, "name": "b43322ae4913e4bef263fb75f5596a17", "bike_id": "b43322ae4913e4bef263fb75f5596a17", "fusion_lat": 0.0, "is_reserved": 0, "lat": 38.91224966666667, "fusion_lon": 0.0, "is_disabled": 0}, {"rental_uris": {"android": "https://dc.lft.to/lastmile_qr_scan", "ios": "https://dc.lft.to/lastmile_qr_scan"}, "type": "electric_scooter", "lon": -77.00194633333334, "name": "445564ab8bdf9321bb33f53d7ad7e83b", "bike_id": "445564ab8bdf9321bb33f53d7ad7e83b", "fusion_lat": 0.0, "is_reserved": 0, "lat": 38.902387, "fusion_lon": 0.0, "is_disabled": 0}, {"rental_uris": {"android": "https://dc.lft.to/lastmile_qr_scan", "ios": "https://dc.lft.to/lastmile_qr_scan"}, "type": "electric_bike", "lon": -77.01073, "name": "1cf5800b2db239668442af7c7fa01642", "bike_id": "1cf5800b2db239668442af7c7fa01642", "fusion_lat": 0.0, "is_reserved": 0, "lat": 38.962617333333334, "fusion_lon": 0.0, "is_disabled": 0}, {"rental_uris": {"android": "https://dc.lft.to/lastmile_qr_scan", "ios": "https://dc.lft.to/lastmile_qr_scan"}, "type": "electric_scooter", "lon": -76.97772266666666, "name": "ef6f8ce3310c8043262e23e66cfff6ef", "bike_id": "ef6f8ce3310c8043262e23e66cfff6ef", "fusion_lat": 0.0, "is_reserved": 0, "lat": 38.870092666666665, "fusion_lon": 0.0, "is_disabled": 0}, {"rental_uris": {"android": "https://dc.lft.to/lastmile_qr_scan", "ios": "https://dc.lft.to/lastmile_qr_scan"}, "type": "electric_bike", "lon": -76.99832083333334, "name": "8c754f6d8e421d68a2eeb72e645363b1", "bike_id": "8c754f6d8e421d68a2eeb72e645363b1", "fusion_lat": 0.0, "is_reserved": 0, "lat": 38.83915833333333, "fusion_lon": 0.0, "is_disabled": 0}, {"rental_uris": {"android": "https://dc.lft.to/lastmile_qr_scan", "ios": "https://dc.lft.to/lastmile_qr_scan"}, "type": "electric_scooter", "lon": -77.01457566666667, "name": "6e3cc9bbc9451ffaa6b9410ab50977a6", "bike_id": "6e3cc9bbc9451ffaa6b9410ab50977a6", "fusion_lat": 0.0, "is_reserved": 0, "lat": 38.910374833333336, "fusion_lon": 0.0, "is_disabled": 0}, {"rental_uris": {"android": "https://dc.lft.to/lastmile_qr_scan", "ios": "https://dc.lft.to/lastmile_qr_scan"}, "type": "electric_scooter", "lon": -77.01889333333334, "name": "e6b7f21bddca36d8a627f54cfd93337b", "bike_id": "e6b7f21bddca36d8a627f54cfd93337b", "fusion_lat": 0.0, "is_reserved": 0, "lat": 38.92946083333333, "fusion_lon": 0.0, "is_disabled": 0}, {"rental_uris": {"android": "https://dc.lft.to/lastmile_qr_scan", "ios": "https://dc.lft.to/lastmile_qr_scan"}, "type": "electric_scooter", "lon": -77.04348216666666, "name": "e013569ad559175cfb2bedee0ca4e52e", "bike_id": "e013569ad559175cfb2bedee0ca4e52e", "fusion_lat": 0.0, "is_reserved": 0, "lat": 38.92186483333333, "fusion_lon": 0.0, "is_disabled": 0}, {"rental_uris": {"android": "https://dc.lft.to/lastmile_qr_scan", "ios": "https://dc.lft.to/lastmile_qr_scan"}, "type": "electric_scooter", "lon": -77.01259566666667, "name": "edc55c0b4430d462c0ed38bfade30663", "bike_id": "edc55c0b4430d462c0ed38bfade30663", "fusion_lat": 0.0, "is_reserved": 0, "lat": 38.90845733333333, "fusion_lon": 0.0, "is_disabled": 0}, {"rental_uris": {"android": "https://dc.lft.to/lastmile_qr_scan", "ios": "https://dc.lft.to/lastmile_qr_scan"}, "type": "electric_bike", "lon": -76.983331, "name": "388f99a81c6832c0e0f6a6d02f6cb5df", "bike_id": "388f99a81c6832c0e0f6a6d02f6cb5df", "fusion_lat": 0.0, "is_reserved": 0, "lat": 38.889906333333336, "fusion_lon": 0.0, "is_disabled": 0}, {"rental_uris": {"android": "https://dc.lft.to/lastmile_qr_scan", "ios": "https://dc.lft.to/lastmile_qr_scan"}, "type": "electric_scooter", "lon": -76.94822933333333, "name": "d04d3648870bb26bce1c9a81a51f93f0", "bike_id": "d04d3648870bb26bce1c9a81a51f93f0", "fusion_lat": 0.0, "is_reserved": 0, "lat": 38.88515533333333, "fusion_lon": 0.0, "is_disabled": 0}, {"rental_uris": {"android": "https://dc.lft.to/lastmile_qr_scan", "ios": "https://dc.lft.to/lastmile_qr_scan"}, "type": "electric_scooter", "lon": -77.01952916666667, "name": "d129f1b0e0c20a2cfc46eb71c336008c", "bike_id": "d129f1b0e0c20a2cfc46eb71c336008c", "fusion_lat": 0.0, "is_reserved": 0, "lat": 38.92265616666667, "fusion_lon": 0.0, "is_disabled": 0}, {"rental_uris": {"android": "https://dc.lft.to/lastmile_qr_scan", "ios": "https://dc.lft.to/lastmile_qr_scan"}, "type": "electric_scooter", "lon": -77.03846366666667, "name": "b2657226569f11fb566e1dde492b9cae", "bike_id": "b2657226569f11fb566e1dde492b9cae", "fusion_lat": 0.0, "is_reserved": 0, "lat": 38.912128, "fusion_lon": 0.0, "is_disabled": 0}, {"rental_uris": {"android": "https://dc.lft.to/lastmile_qr_scan", "ios": "https://dc.lft.to/lastmile_qr_scan"}, "type": "electric_scooter", "lon": -77.06263783333333, "name": "b8bb469db5d3fb741ff68e9660306b68", "bike_id": "b8bb469db5d3fb741ff68e9660306b68", "fusion_lat": 0.0, "is_reserved": 0, "lat": 38.90627, "fusion_lon": 0.0, "is_disabled": 0}, {"rental_uris": {"android": "https://dc.lft.to/lastmile_qr_scan", "ios": "https://dc.lft.to/lastmile_qr_scan"}, "type": "electric_scooter", "lon": -77.02471083333333, "name": "6e8ffcad34fb13112769efb42d55dacb", "bike_id": "6e8ffcad34fb13112769efb42d55dacb", "fusion_lat": 0.0, "is_reserved": 0, "lat": 38.93852533333333, "fusion_lon": 0.0, "is_disabled": 0}, {"rental_uris": {"android": "https://dc.lft.to/lastmile_qr_scan", "ios": "https://dc.lft.to/lastmile_qr_scan"}, "type": "electric_scooter", "lon": -77.0416045, "name": "ea21c745e2db1293e799fef7431d0833", "bike_id": "ea21c745e2db1293e799fef7431d0833", "fusion_lat": 0.0, "is_reserved": 0, "lat": 38.89265483333333, "fusion_lon": 0.0, "is_disabled": 0}, {"rental_uris": {"android": "https://dc.lft.to/lastmile_qr_scan", "ios": "https://dc.lft.to/lastmile_qr_scan"}, "type": "electric_scooter", "lon": -77.02202716666666, "name": "dd8d860db1f1fbf1f6286f3d5a836279", "bike_id": "dd8d860db1f1fbf1f6286f3d5a836279", "fusion_lat": 0.0, "is_reserved": 0, "lat": 38.89497, "fusion_lon": 0.0, "is_disabled": 0}, {"rental_uris": {"android": "https://dc.lft.to/lastmile_qr_scan", "ios": "https://dc.lft.to/lastmile_qr_scan"}, "type": "electric_scooter", "lon": -76.98598616666666, "name": "c30a987c84bc1d289bce5c2b29cfb5f4", "bike_id": "c30a987c84bc1d289bce5c2b29cfb5f4", "fusion_lat": 0.0, "is_reserved": 0, "lat": 38.9001365, "fusion_lon": 0.0, "is_disabled": 0}, {"rental_uris": {"android": "https://dc.lft.to/lastmile_qr_scan", "ios": "https://dc.lft.to/lastmile_qr_scan"}, "type": "electric_scooter", "lon": -77.03189933333333, "name": "be305837879afb609034dcfaeb2726a1", "bike_id": "be305837879afb609034dcfaeb2726a1", "fusion_lat": 0.0, "is_reserved": 0, "lat": 38.9210985, "fusion_lon": 0.0, "is_disabled": 0}, {"rental_uris": {"android": "https://dc.lft.to/lastmile_qr_scan", "ios": "https://dc.lft.to/lastmile_qr_scan"}, "type": "electric_scooter", "lon": -77.02679966666666, "name": "9c122cacac333e0f4d3d112f7a89688c", "bike_id": "9c122cacac333e0f4d3d112f7a89688c", "fusion_lat": 0.0, "is_reserved": 0, "lat": 38.90961383333333, "fusion_lon": 0.0, "is_disabled": 0}, {"rental_uris": {"android": "https://dc.lft.to/lastmile_qr_scan", "ios": "https://dc.lft.to/lastmile_qr_scan"}, "type": "electric_scooter", "lon": -77.04587016666666, "name": "2ed5024339854413a1dba60187dec6fc", "bike_id": "2ed5024339854413a1dba60187dec6fc", "fusion_lat": 0.0, "is_reserved": 0, "lat": 38.9066565, "fusion_lon": 0.0, "is_disabled": 0}, {"rental_uris": {"android": "https://dc.lft.to/lastmile_qr_scan", "ios": "https://dc.lft.to/lastmile_qr_scan"}, "type": "electric_bike", "lon": -77.02872716666667, "name": "4f01756d827aeddb1441769ab81289a7", "bike_id": "4f01756d827aeddb1441769ab81289a7", "fusion_lat": 0.0, "is_reserved": 0, "lat": 38.97947716666667, "fusion_lon": 0.0, "is_disabled": 0}, {"rental_uris": {"android": "https://dc.lft.to/lastmile_qr_scan", "ios": "https://dc.lft.to/lastmile_qr_scan"}, "type": "electric_scooter", "lon": -77.024111, "name": "b46ffe2ad658fc48b1c58668fb3e3c55", "bike_id": "b46ffe2ad658fc48b1c58668fb3e3c55", "fusion_lat": 0.0, "is_reserved": 0, "lat": 38.9573435, "fusion_lon": 0.0, "is_disabled": 0}, {"rental_uris": {"android": "https://dc.lft.to/lastmile_qr_scan", "ios": "https://dc.lft.to/lastmile_qr_scan"}, "type": "electric_scooter", "lon": -77.004882, "name": "b8cc8e8aabdd34113a4f3695380b1f9b", "bike_id": "b8cc8e8aabdd34113a4f3695380b1f9b", "fusion_lat": 0.0, "is_reserved": 0, "lat": 38.92588933333333, "fusion_lon": 0.0, "is_disabled": 0}, {"rental_uris": {"android": "https://dc.lft.to/lastmile_qr_scan", "ios": "https://dc.lft.to/lastmile_qr_scan"}, "type": "electric_scooter", "lon": -77.03220016666667, "name": "5356715b29bfa8d63ad47924389d09ab", "bike_id": "5356715b29bfa8d63ad47924389d09ab", "fusion_lat": 0.0, "is_reserved": 0, "lat": 38.918648, "fusion_lon": 0.0, "is_disabled": 0}, {"rental_uris": {"android": "https://dc.lft.to/lastmile_qr_scan", "ios": "https://dc.lft.to/lastmile_qr_scan"}, "type": "electric_scooter", "lon": -76.9826305, "name": "d55d5331da6217f0407dd99d10622415", "bike_id": "d55d5331da6217f0407dd99d10622415", "fusion_lat": 0.0, "is_reserved": 0, "lat": 38.86355283333333, "fusion_lon": 0.0, "is_disabled": 0}, {"rental_uris": {"android": "https://dc.lft.to/lastmile_qr_scan", "ios": "https://dc.lft.to/lastmile_qr_scan"}, "type": "electric_scooter", "lon": -76.97618033333333, "name": "774056224b80edaf813ecbd2c1e5acb1", "bike_id": "774056224b80edaf813ecbd2c1e5acb1", "fusion_lat": 0.0, "is_reserved": 0, "lat": 38.93142233333333, "fusion_lon": 0.0, "is_disabled": 0}, {"rental_uris": {"android": "https://dc.lft.to/lastmile_qr_scan", "ios": "https://dc.lft.to/lastmile_qr_scan"}, "type": "electric_bike", "lon": -76.98880233333334, "name": "c21c63d1e448677a545d665708223d76", "bike_id": "c21c63d1e448677a545d665708223d76", "fusion_lat": 0.0, "is_reserved": 0, "lat": 38.92114466666666, "fusion_lon": 0.0, "is_disabled": 0}, {"rental_uris": {"android": "https://dc.lft.to/lastmile_qr_scan", "ios": "https://dc.lft.to/lastmile_qr_scan"}, "type": "electric_scooter", "lon": -77.0022465, "name": "012d2a82e6bbd68875d37d770458bcbe", "bike_id": "012d2a82e6bbd68875d37d770458bcbe", "fusion_lat": 0.0, "is_reserved": 0, "lat": 38.9029485, "fusion_lon": 0.0, "is_disabled": 0}, {"rental_uris": {"android": "https://dc.lft.to/lastmile_qr_scan", "ios": "https://dc.lft.to/lastmile_qr_scan"}, "type": "electric_bike", "lon": -76.95475066666667, "name": "0952461b886852fce4d35ab3fa8fae23", "bike_id": "0952461b886852fce4d35ab3fa8fae23", "fusion_lat": 0.0, "is_reserved": 0, "lat": 38.93575233333333, "fusion_lon": 0.0, "is_disabled": 0}, {"rental_uris": {"android": "https://dc.lft.to/lastmile_qr_scan", "ios": "https://dc.lft.to/lastmile_qr_scan"}, "type": "electric_scooter", "lon": -77.00809866666667, "name": "ceebbdb8abfcdc236a93465c5a57d47d", "bike_id": "ceebbdb8abfcdc236a93465c5a57d47d", "fusion_lat": 0.0, "is_reserved": 0, "lat": 38.87661933333333, "fusion_lon": 0.0, "is_disabled": 0}, {"rental_uris": {"android": "https://dc.lft.to/lastmile_qr_scan", "ios": "https://dc.lft.to/lastmile_qr_scan"}, "type": "electric_scooter", "lon": -76.97736116666667, "name": "63ccaf19d5e9c549d8d040b9adfad93c", "bike_id": "63ccaf19d5e9c549d8d040b9adfad93c", "fusion_lat": 0.0, "is_reserved": 0, "lat": 38.87292733333334, "fusion_lon": 0.0, "is_disabled": 0}, {"rental_uris": {"android": "https://dc.lft.to/lastmile_qr_scan", "ios": "https://dc.lft.to/lastmile_qr_scan"}, "type": "electric_scooter", "lon": -77.0551655, "name": "434742d2a547c6131d1255e0d8b9916c", "bike_id": "434742d2a547c6131d1255e0d8b9916c", "fusion_lat": 0.0, "is_reserved": 0, "lat": 38.9296565, "fusion_lon": 0.0, "is_disabled": 0}, {"rental_uris": {"android": "https://dc.lft.to/lastmile_qr_scan", "ios": "https://dc.lft.to/lastmile_qr_scan"}, "type": "electric_scooter", "lon": -76.9847625, "name": "74033c3c9ee69fbd3e594c17b75f4e35", "bike_id": "74033c3c9ee69fbd3e594c17b75f4e35", "fusion_lat": 0.0, "is_reserved": 0, "lat": 38.92896483333333, "fusion_lon": 0.0, "is_disabled": 0}, {"rental_uris": {"android": "https://dc.lft.to/lastmile_qr_scan", "ios": "https://dc.lft.to/lastmile_qr_scan"}, "type": "electric_scooter", "lon": -77.02502466666667, "name": "c6f6795cc828c56f8ad95d793d956bcc", "bike_id": "c6f6795cc828c56f8ad95d793d956bcc", "fusion_lat": 0.0, "is_reserved": 0, "lat": 38.94198683333333, "fusion_lon": 0.0, "is_disabled": 0}, {"rental_uris": {"android": "https://dc.lft.to/lastmile_qr_scan", "ios": "https://dc.lft.to/lastmile_qr_scan"}, "type": "electric_scooter", "lon": -77.040118, "name": "72efebae627082d16e4ff397245c1660", "bike_id": "72efebae627082d16e4ff397245c1660", "fusion_lat": 0.0, "is_reserved": 0, "lat": 38.918404833333334, "fusion_lon": 0.0, "is_disabled": 0}, {"rental_uris": {"android": "https://dc.lft.to/lastmile_qr_scan", "ios": "https://dc.lft.to/lastmile_qr_scan"}, "type": "electric_scooter", "lon": -77.02761016666666, "name": "ddfeb695a6dcb84ccc77178952740183", "bike_id": "ddfeb695a6dcb84ccc77178952740183", "fusion_lat": 0.0, "is_reserved": 0, "lat": 38.953959, "fusion_lon": 0.0, "is_disabled": 0}, {"rental_uris": {"android": "https://dc.lft.to/lastmile_qr_scan", "ios": "https://dc.lft.to/lastmile_qr_scan"}, "type": "electric_bike", "lon": -77.02904366666667, "name": "584cfa500e24f02e3eaee7e48bb3e83f", "bike_id": "584cfa500e24f02e3eaee7e48bb3e83f", "fusion_lat": 0.0, "is_reserved": 0, "lat": 38.891995666666666, "fusion_lon": 0.0, "is_disabled": 0}, {"rental_uris": {"android": "https://dc.lft.to/lastmile_qr_scan", "ios": "https://dc.lft.to/lastmile_qr_scan"}, "type": "electric_scooter", "lon": -77.0113325, "name": "3f1655890f8c4375b490e870fd090f36", "bike_id": "3f1655890f8c4375b490e870fd090f36", "fusion_lat": 0.0, "is_reserved": 0, "lat": 38.9095435, "fusion_lon": 0.0, "is_disabled": 0}, {"rental_uris": {"android": "https://dc.lft.to/lastmile_qr_scan", "ios": "https://dc.lft.to/lastmile_qr_scan"}, "type": "electric_scooter", "lon": -76.996608, "name": "f5aa244e95f9ae800986ce8a4fe20df9", "bike_id": "f5aa244e95f9ae800986ce8a4fe20df9", "fusion_lat": 0.0, "is_reserved": 0, "lat": 38.858861166666664, "fusion_lon": 0.0, "is_disabled": 0}, {"rental_uris": {"android": "https://dc.lft.to/lastmile_qr_scan", "ios": "https://dc.lft.to/lastmile_qr_scan"}, "type": "electric_scooter", "lon": -77.0002315, "name": "d9bc146e067107b0fa6b949b4ae6472c", "bike_id": "d9bc146e067107b0fa6b949b4ae6472c", "fusion_lat": 0.0, "is_reserved": 0, "lat": 38.90011766666667, "fusion_lon": 0.0, "is_disabled": 0}, {"rental_uris": {"android": "https://dc.lft.to/lastmile_qr_scan", "ios": "https://dc.lft.to/lastmile_qr_scan"}, "type": "electric_scooter", "lon": -77.01699766666667, "name": "13b5d49fb97810d5902563a3b3995d4b", "bike_id": "13b5d49fb97810d5902563a3b3995d4b", "fusion_lat": 0.0, "is_reserved": 0, "lat": 38.9201685, "fusion_lon": 0.0, "is_disabled": 0}, {"rental_uris": {"android": "https://dc.lft.to/lastmile_qr_scan", "ios": "https://dc.lft.to/lastmile_qr_scan"}, "type": "electric_scooter", "lon": -76.98332083333334, "name": "020b0d4235b5652562bd4d5c686a309d", "bike_id": "020b0d4235b5652562bd4d5c686a309d", "fusion_lat": 0.0, "is_reserved": 0, "lat": 38.88989133333333, "fusion_lon": 0.0, "is_disabled": 0}, {"rental_uris": {"android": "https://dc.lft.to/lastmile_qr_scan", "ios": "https://dc.lft.to/lastmile_qr_scan"}, "type": "electric_scooter", "lon": -77.04766416666666, "name": "b564c66a76ec3a12888787a2203a37ff", "bike_id": "b564c66a76ec3a12888787a2203a37ff", "fusion_lat": 0.0, "is_reserved": 0, "lat": 38.91766, "fusion_lon": 0.0, "is_disabled": 0}, {"rental_uris": {"android": "https://dc.lft.to/lastmile_qr_scan", "ios": "https://dc.lft.to/lastmile_qr_scan"}, "type": "electric_scooter", "lon": -77.0175895, "name": "54fa73a321a523e897535ac851485239", "bike_id": "54fa73a321a523e897535ac851485239", "fusion_lat": 0.0, "is_reserved": 0, "lat": 38.87726766666667, "fusion_lon": 0.0, "is_disabled": 0}, {"rental_uris": {"android": "https://dc.lft.to/lastmile_qr_scan", "ios": "https://dc.lft.to/lastmile_qr_scan"}, "type": "electric_scooter", "lon": -77.0229895, "name": "c644e5bd66697cc9f7d59e5bad3cf6d3", "bike_id": "c644e5bd66697cc9f7d59e5bad3cf6d3", "fusion_lat": 0.0, "is_reserved": 0, "lat": 38.917901, "fusion_lon": 0.0, "is_disabled": 0}, {"rental_uris": {"android": "https://dc.lft.to/lastmile_qr_scan", "ios": "https://dc.lft.to/lastmile_qr_scan"}, "type": "electric_scooter", "lon": -77.04157466666666, "name": "c9416931d9a18bfd1b6a56c28ca6d35d", "bike_id": "c9416931d9a18bfd1b6a56c28ca6d35d", "fusion_lat": 0.0, "is_reserved": 0, "lat": 38.916101166666664, "fusion_lon": 0.0, "is_disabled": 0}, {"rental_uris": {"android": "https://dc.lft.to/lastmile_qr_scan", "ios": "https://dc.lft.to/lastmile_qr_scan"}, "type": "electric_scooter", "lon": -77.041693, "name": "2e4616310709f33f2beb43809b901729", "bike_id": "2e4616310709f33f2beb43809b901729", "fusion_lat": 0.0, "is_reserved": 0, "lat": 38.91937433333333, "fusion_lon": 0.0, "is_disabled": 0}, {"rental_uris": {"android": "https://dc.lft.to/lastmile_qr_scan", "ios": "https://dc.lft.to/lastmile_qr_scan"}, "type": "electric_scooter", "lon": -77.034107, "name": "c657c9e96f7586a872587c183c67a05d", "bike_id": "c657c9e96f7586a872587c183c67a05d", "fusion_lat": 0.0, "is_reserved": 0, "lat": 38.931801666666665, "fusion_lon": 0.0, "is_disabled": 0}, {"rental_uris": {"android": "https://dc.lft.to/lastmile_qr_scan", "ios": "https://dc.lft.to/lastmile_qr_scan"}, "type": "electric_scooter", "lon": -77.0500125, "name": "15bd8c4a85721b1c830806f16b009153", "bike_id": "15bd8c4a85721b1c830806f16b009153", "fusion_lat": 0.0, "is_reserved": 0, "lat": 38.89231133333333, "fusion_lon": 0.0, "is_disabled": 0}, {"rental_uris": {"android": "https://dc.lft.to/lastmile_qr_scan", "ios": "https://dc.lft.to/lastmile_qr_scan"}, "type": "electric_scooter", "lon": -77.08444116666666, "name": "984d7c66cdc0e32fa38251f9a028c34f", "bike_id": "984d7c66cdc0e32fa38251f9a028c34f", "fusion_lat": 0.0, "is_reserved": 0, "lat": 38.911777666666666, "fusion_lon": 0.0, "is_disabled": 0}, {"rental_uris": {"android": "https://dc.lft.to/lastmile_qr_scan", "ios": "https://dc.lft.to/lastmile_qr_scan"}, "type": "electric_scooter", "lon": -77.036663, "name": "27169c67c40ac037e208a4e95b403e18", "bike_id": "27169c67c40ac037e208a4e95b403e18", "fusion_lat": 0.0, "is_reserved": 0, "lat": 38.92123016666667, "fusion_lon": 0.0, "is_disabled": 0}, {"rental_uris": {"android": "https://dc.lft.to/lastmile_qr_scan", "ios": "https://dc.lft.to/lastmile_qr_scan"}, "type": "electric_scooter", "lon": -77.03055266666667, "name": "8863de958862e7b27e7dd49fcffcf5a9", "bike_id": "8863de958862e7b27e7dd49fcffcf5a9", "fusion_lat": 0.0, "is_reserved": 0, "lat": 38.919146166666664, "fusion_lon": 0.0, "is_disabled": 0}, {"rental_uris": {"android": "https://dc.lft.to/lastmile_qr_scan", "ios": "https://dc.lft.to/lastmile_qr_scan"}, "type": "electric_scooter", "lon": -77.02512233333333, "name": "4d15b3ef4d9bd6bbba893de2a25ee462", "bike_id": "4d15b3ef4d9bd6bbba893de2a25ee462", "fusion_lat": 0.0, "is_reserved": 0, "lat": 38.9417935, "fusion_lon": 0.0, "is_disabled": 0}, {"rental_uris": {"android": "https://dc.lft.to/lastmile_qr_scan", "ios": "https://dc.lft.to/lastmile_qr_scan"}, "type": "electric_scooter", "lon": -77.003438, "name": "c5bd273aababb554822de3a39b39fce7", "bike_id": "c5bd273aababb554822de3a39b39fce7", "fusion_lat": 0.0, "is_reserved": 0, "lat": 38.9134855, "fusion_lon": 0.0, "is_disabled": 0}, {"rental_uris": {"android": "https://dc.lft.to/lastmile_qr_scan", "ios": "https://dc.lft.to/lastmile_qr_scan"}, "type": "electric_scooter", "lon": -76.94842783333333, "name": "1defe964e4b4dea1414eebfd2d017d7c", "bike_id": "1defe964e4b4dea1414eebfd2d017d7c", "fusion_lat": 0.0, "is_reserved": 0, "lat": 38.894884, "fusion_lon": 0.0, "is_disabled": 0}, {"rental_uris": {"android": "https://dc.lft.to/lastmile_qr_scan", "ios": "https://dc.lft.to/lastmile_qr_scan"}, "type": "electric_scooter", "lon": -76.99216116666666, "name": "705ed3fe4e43c4f149c8751cbe8e7325", "bike_id": "705ed3fe4e43c4f149c8751cbe8e7325", "fusion_lat": 0.0, "is_reserved": 0, "lat": 38.90473133333333, "fusion_lon": 0.0, "is_disabled": 0}, {"rental_uris": {"android": "https://dc.lft.to/lastmile_qr_scan", "ios": "https://dc.lft.to/lastmile_qr_scan"}, "type": "electric_scooter", "lon": -76.9947245, "name": "e318060f42d7d732a6f2896fbf71b3e4", "bike_id": "e318060f42d7d732a6f2896fbf71b3e4", "fusion_lat": 0.0, "is_reserved": 0, "lat": 38.89618566666667, "fusion_lon": 0.0, "is_disabled": 0}, {"rental_uris": {"android": "https://dc.lft.to/lastmile_qr_scan", "ios": "https://dc.lft.to/lastmile_qr_scan"}, "type": "electric_scooter", "lon": -77.0615315, "name": "2739d1220cd4482f293f36d2ea349881", "bike_id": "2739d1220cd4482f293f36d2ea349881", "fusion_lat": 0.0, "is_reserved": 0, "lat": 38.91057716666667, "fusion_lon": 0.0, "is_disabled": 0}, {"rental_uris": {"android": "https://dc.lft.to/lastmile_qr_scan", "ios": "https://dc.lft.to/lastmile_qr_scan"}, "type": "electric_scooter", "lon": -76.98412716666667, "name": "56e1b2ff2b16926cc2f3ccb09101cd7d", "bike_id": "56e1b2ff2b16926cc2f3ccb09101cd7d", "fusion_lat": 0.0, "is_reserved": 0, "lat": 38.91394016666667, "fusion_lon": 0.0, "is_disabled": 0}, {"rental_uris": {"android": "https://dc.lft.to/lastmile_qr_scan", "ios": "https://dc.lft.to/lastmile_qr_scan"}, "type": "electric_scooter", "lon": -77.04098316666666, "name": "3367ae57dd3fbddd2fcf8e7ed52da95b", "bike_id": "3367ae57dd3fbddd2fcf8e7ed52da95b", "fusion_lat": 0.0, "is_reserved": 0, "lat": 38.91776266666667, "fusion_lon": 0.0, "is_disabled": 0}, {"rental_uris": {"android": "https://dc.lft.to/lastmile_qr_scan", "ios": "https://dc.lft.to/lastmile_qr_scan"}, "type": "electric_scooter", "lon": -76.93835383333334, "name": "98d057fed76c1ef7ec2aa955aef6502c", "bike_id": "98d057fed76c1ef7ec2aa955aef6502c", "fusion_lat": 0.0, "is_reserved": 0, "lat": 38.89758466666667, "fusion_lon": 0.0, "is_disabled": 0}, {"rental_uris": {"android": "https://dc.lft.to/lastmile_qr_scan", "ios": "https://dc.lft.to/lastmile_qr_scan"}, "type": "electric_scooter", "lon": -77.00920466666666, "name": "9dc03503dba3a67d18d3f34917099e07", "bike_id": "9dc03503dba3a67d18d3f34917099e07", "fusion_lat": 0.0, "is_reserved": 0, "lat": 38.910484833333335, "fusion_lon": 0.0, "is_disabled": 0}, {"rental_uris": {"android": "https://dc.lft.to/lastmile_qr_scan", "ios": "https://dc.lft.to/lastmile_qr_scan"}, "type": "electric_scooter", "lon": -77.08216316666666, "name": "68952475e07dc6a15d32bb62de0c4252", "bike_id": "68952475e07dc6a15d32bb62de0c4252", "fusion_lat": 0.0, "is_reserved": 0, "lat": 38.9356525, "fusion_lon": 0.0, "is_disabled": 0}, {"rental_uris": {"android": "https://dc.lft.to/lastmile_qr_scan", "ios": "https://dc.lft.to/lastmile_qr_scan"}, "type": "electric_scooter", "lon": -77.0499475, "name": "920ebdc82da1b588f0b5b45902c47a50", "bike_id": "920ebdc82da1b588f0b5b45902c47a50", "fusion_lat": 0.0, "is_reserved": 0, "lat": 38.89897666666667, "fusion_lon": 0.0, "is_disabled": 0}, {"rental_uris": {"android": "https://dc.lft.to/lastmile_qr_scan", "ios": "https://dc.lft.to/lastmile_qr_scan"}, "type": "electric_scooter", "lon": -77.01528416666666, "name": "78921afd7c771b469b54a68c3e10db08", "bike_id": "78921afd7c771b469b54a68c3e10db08", "fusion_lat": 0.0, "is_reserved": 0, "lat": 38.91355933333333, "fusion_lon": 0.0, "is_disabled": 0}, {"rental_uris": {"android": "https://dc.lft.to/lastmile_qr_scan", "ios": "https://dc.lft.to/lastmile_qr_scan"}, "type": "electric_scooter", "lon": -77.0820765, "name": "acbdf9770fedc36968dcace4e0a3b4ee", "bike_id": "acbdf9770fedc36968dcace4e0a3b4ee", "fusion_lat": 0.0, "is_reserved": 0, "lat": 38.935566666666666, "fusion_lon": 0.0, "is_disabled": 0}, {"rental_uris": {"android": "https://dc.lft.to/lastmile_qr_scan", "ios": "https://dc.lft.to/lastmile_qr_scan"}, "type": "electric_scooter", "lon": -77.03202333333333, "name": "a3d7111ef272eaba1b6152e7fbc2de71", "bike_id": "a3d7111ef272eaba1b6152e7fbc2de71", "fusion_lat": 0.0, "is_reserved": 0, "lat": 38.902812833333336, "fusion_lon": 0.0, "is_disabled": 0}, {"rental_uris": {"android": "https://dc.lft.to/lastmile_qr_scan", "ios": "https://dc.lft.to/lastmile_qr_scan"}, "type": "electric_scooter", "lon": -77.0240575, "name": "3b65ecdb27793e290d69c216dde6d1ca", "bike_id": "3b65ecdb27793e290d69c216dde6d1ca", "fusion_lat": 0.0, "is_reserved": 0, "lat": 38.91340066666667, "fusion_lon": 0.0, "is_disabled": 0}, {"rental_uris": {"android": "https://dc.lft.to/lastmile_qr_scan", "ios": "https://dc.lft.to/lastmile_qr_scan"}, "type": "electric_bike", "lon": -77.17846766666666, "name": "3b8c44107ef8ce9574fb1f93e958072c", "bike_id": "3b8c44107ef8ce9574fb1f93e958072c", "fusion_lat": 0.0, "is_reserved": 0, "lat": 39.089044, "fusion_lon": 0.0, "is_disabled": 0}, {"rental_uris": {"android": "https://dc.lft.to/lastmile_qr_scan", "ios": "https://dc.lft.to/lastmile_qr_scan"}, "type": "electric_scooter", "lon": -77.02713083333333, "name": "75f442899176ffcedd2bed8e85a06559", "bike_id": "75f442899176ffcedd2bed8e85a06559", "fusion_lat": 0.0, "is_reserved": 0, "lat": 38.906687166666664, "fusion_lon": 0.0, "is_disabled": 0}, {"rental_uris": {"android": "https://dc.lft.to/lastmile_qr_scan", "ios": "https://dc.lft.to/lastmile_qr_scan"}, "type": "electric_scooter", "lon": -76.99478766666667, "name": "2b2019b36f3a590fd839eaad6eb3822f", "bike_id": "2b2019b36f3a590fd839eaad6eb3822f", "fusion_lat": 0.0, "is_reserved": 0, "lat": 38.88863966666667, "fusion_lon": 0.0, "is_disabled": 0}, {"rental_uris": {"android": "https://dc.lft.to/lastmile_qr_scan", "ios": "https://dc.lft.to/lastmile_qr_scan"}, "type": "electric_scooter", "lon": -77.02280716666667, "name": "ce414b3f0efb80b5d6427c6c4bd42972", "bike_id": "ce414b3f0efb80b5d6427c6c4bd42972", "fusion_lat": 0.0, "is_reserved": 0, "lat": 38.924274833333335, "fusion_lon": 0.0, "is_disabled": 0}, {"rental_uris": {"android": "https://dc.lft.to/lastmile_qr_scan", "ios": "https://dc.lft.to/lastmile_qr_scan"}, "type": "electric_scooter", "lon": -76.93531316666666, "name": "f5ef5f983d4c136c2c4b54af1f3c253d", "bike_id": "f5ef5f983d4c136c2c4b54af1f3c253d", "fusion_lat": 0.0, "is_reserved": 0, "lat": 38.89682216666667, "fusion_lon": 0.0, "is_disabled": 0}, {"rental_uris": {"android": "https://dc.lft.to/lastmile_qr_scan", "ios": "https://dc.lft.to/lastmile_qr_scan"}, "type": "electric_scooter", "lon": -77.02705816666666, "name": "1d21649e35ed5cae3d41926e0e745635", "bike_id": "1d21649e35ed5cae3d41926e0e745635", "fusion_lat": 0.0, "is_reserved": 0, "lat": 38.9499905, "fusion_lon": 0.0, "is_disabled": 0}, {"rental_uris": {"android": "https://dc.lft.to/lastmile_qr_scan", "ios": "https://dc.lft.to/lastmile_qr_scan"}, "type": "electric_bike", "lon": -77.0430635, "name": "7b154ca3146ec5ffcddfcad053157fa4", "bike_id": "7b154ca3146ec5ffcddfcad053157fa4", "fusion_lat": 0.0, "is_reserved": 0, "lat": 39.054501333333334, "fusion_lon": 0.0, "is_disabled": 0}, {"rental_uris": {"android": "https://dc.lft.to/lastmile_qr_scan", "ios": "https://dc.lft.to/lastmile_qr_scan"}, "type": "electric_scooter", "lon": -77.01243666666667, "name": "777c7817bed1b4ca88ea43455e8c3062", "bike_id": "777c7817bed1b4ca88ea43455e8c3062", "fusion_lat": 0.0, "is_reserved": 0, "lat": 38.90864066666666, "fusion_lon": 0.0, "is_disabled": 0}, {"rental_uris": {"android": "https://dc.lft.to/lastmile_qr_scan", "ios": "https://dc.lft.to/lastmile_qr_scan"}, "type": "electric_scooter", "lon": -77.012754, "name": "9ec7ece8d57e30da6b60852501a15ce6", "bike_id": "9ec7ece8d57e30da6b60852501a15ce6", "fusion_lat": 0.0, "is_reserved": 0, "lat": 38.91564266666666, "fusion_lon": 0.0, "is_disabled": 0}, {"rental_uris": {"android": "https://dc.lft.to/lastmile_qr_scan", "ios": "https://dc.lft.to/lastmile_qr_scan"}, "type": "electric_scooter", "lon": -76.96520433333333, "name": "908b9c0008edf597117ce39f63e64696", "bike_id": "908b9c0008edf597117ce39f63e64696", "fusion_lat": 0.0, "is_reserved": 0, "lat": 38.874795666666664, "fusion_lon": 0.0, "is_disabled": 0}, {"rental_uris": {"android": "https://dc.lft.to/lastmile_qr_scan", "ios": "https://dc.lft.to/lastmile_qr_scan"}, "type": "electric_scooter", "lon": -77.01342916666667, "name": "ba9e7bb456aec052cc4f4346df43dd5b", "bike_id": "ba9e7bb456aec052cc4f4346df43dd5b", "fusion_lat": 0.0, "is_reserved": 0, "lat": 38.91917183333333, "fusion_lon": 0.0, "is_disabled": 0}, {"rental_uris": {"android": "https://dc.lft.to/lastmile_qr_scan", "ios": "https://dc.lft.to/lastmile_qr_scan"}, "type": "electric_scooter", "lon": -77.02708116666666, "name": "b7cca0a74ca9d8f4c9ba9d67c1880726", "bike_id": "b7cca0a74ca9d8f4c9ba9d67c1880726", "fusion_lat": 0.0, "is_reserved": 0, "lat": 38.95003116666667, "fusion_lon": 0.0, "is_disabled": 0}, {"rental_uris": {"android": "https://dc.lft.to/lastmile_qr_scan", "ios": "https://dc.lft.to/lastmile_qr_scan"}, "type": "electric_scooter", "lon": -76.97475733333333, "name": "0de9162857e5ec0931b53ab4b087b66e", "bike_id": "0de9162857e5ec0931b53ab4b087b66e", "fusion_lat": 0.0, "is_reserved": 0, "lat": 38.903517666666666, "fusion_lon": 0.0, "is_disabled": 0}, {"rental_uris": {"android": "https://dc.lft.to/lastmile_qr_scan", "ios": "https://dc.lft.to/lastmile_qr_scan"}, "type": "electric_scooter", "lon": -77.02317416666666, "name": "fd56e57207944c8df75f17aaeb7d0419", "bike_id": "fd56e57207944c8df75f17aaeb7d0419", "fusion_lat": 0.0, "is_reserved": 0, "lat": 38.91685066666667, "fusion_lon": 0.0, "is_disabled": 0}, {"rental_uris": {"android": "https://dc.lft.to/lastmile_qr_scan", "ios": "https://dc.lft.to/lastmile_qr_scan"}, "type": "electric_scooter", "lon": -77.07294166666667, "name": "c96382e7749a81112de72b0aa2ee6beb", "bike_id": "c96382e7749a81112de72b0aa2ee6beb", "fusion_lat": 0.0, "is_reserved": 0, "lat": 38.9306225, "fusion_lon": 0.0, "is_disabled": 0}, {"rental_uris": {"android": "https://dc.lft.to/lastmile_qr_scan", "ios": "https://dc.lft.to/lastmile_qr_scan"}, "type": "electric_scooter", "lon": -77.034017, "name": "b25d8b7fbe1503702d7731ca72ca275b", "bike_id": "b25d8b7fbe1503702d7731ca72ca275b", "fusion_lat": 0.0, "is_reserved": 0, "lat": 38.919139, "fusion_lon": 0.0, "is_disabled": 0}, {"rental_uris": {"android": "https://dc.lft.to/lastmile_qr_scan", "ios": "https://dc.lft.to/lastmile_qr_scan"}, "type": "electric_scooter", "lon": -76.92952216666667, "name": "7ec44330ac847d030e9422226fb3c735", "bike_id": "7ec44330ac847d030e9422226fb3c735", "fusion_lat": 0.0, "is_reserved": 0, "lat": 38.898826, "fusion_lon": 0.0, "is_disabled": 0}, {"rental_uris": {"android": "https://dc.lft.to/lastmile_qr_scan", "ios": "https://dc.lft.to/lastmile_qr_scan"}, "type": "electric_scooter", "lon": -76.99143066666667, "name": "121806d4869309d4411f290ef7f12cf2", "bike_id": "121806d4869309d4411f290ef7f12cf2", "fusion_lat": 0.0, "is_reserved": 0, "lat": 38.87908783333334, "fusion_lon": 0.0, "is_disabled": 0}, {"rental_uris": {"android": "https://dc.lft.to/lastmile_qr_scan", "ios": "https://dc.lft.to/lastmile_qr_scan"}, "type": "electric_scooter", "lon": -77.000777, "name": "e35c42f2d4cb0a8e2c8b6f517df23438", "bike_id": "e35c42f2d4cb0a8e2c8b6f517df23438", "fusion_lat": 0.0, "is_reserved": 0, "lat": 38.89729466666667, "fusion_lon": 0.0, "is_disabled": 0}, {"rental_uris": {"android": "https://dc.lft.to/lastmile_qr_scan", "ios": "https://dc.lft.to/lastmile_qr_scan"}, "type": "electric_scooter", "lon": -77.04979816666666, "name": "68e83a19d95344aa307e8a87d686e71c", "bike_id": "68e83a19d95344aa307e8a87d686e71c", "fusion_lat": 0.0, "is_reserved": 0, "lat": 38.900860333333334, "fusion_lon": 0.0, "is_disabled": 0}, {"rental_uris": {"android": "https://dc.lft.to/lastmile_qr_scan", "ios": "https://dc.lft.to/lastmile_qr_scan"}, "type": "electric_scooter", "lon": -77.03853866666667, "name": "a07c635cca100dea016551a4e01d698c", "bike_id": "a07c635cca100dea016551a4e01d698c", "fusion_lat": 0.0, "is_reserved": 0, "lat": 38.91540633333334, "fusion_lon": 0.0, "is_disabled": 0}, {"rental_uris": {"android": "https://dc.lft.to/lastmile_qr_scan", "ios": "https://dc.lft.to/lastmile_qr_scan"}, "type": "electric_scooter", "lon": -77.03417, "name": "ea1da0317edd15f6b56c9b98df0ef3e6", "bike_id": "ea1da0317edd15f6b56c9b98df0ef3e6", "fusion_lat": 0.0, "is_reserved": 0, "lat": 38.9294335, "fusion_lon": 0.0, "is_disabled": 0}, {"rental_uris": {"android": "https://dc.lft.to/lastmile_qr_scan", "ios": "https://dc.lft.to/lastmile_qr_scan"}, "type": "electric_scooter", "lon": -77.01207833333333, "name": "e63ea5263f9fa24b74b6bd82fed3428e", "bike_id": "e63ea5263f9fa24b74b6bd82fed3428e", "fusion_lat": 0.0, "is_reserved": 0, "lat": 38.893331, "fusion_lon": 0.0, "is_disabled": 0}, {"rental_uris": {"android": "https://dc.lft.to/lastmile_qr_scan", "ios": "https://dc.lft.to/lastmile_qr_scan"}, "type": "electric_scooter", "lon": -77.0364175, "name": "b2ab50dcac0e6936356599a5ff7bbb42", "bike_id": "b2ab50dcac0e6936356599a5ff7bbb42", "fusion_lat": 0.0, "is_reserved": 0, "lat": 38.921094833333335, "fusion_lon": 0.0, "is_disabled": 0}, {"rental_uris": {"android": "https://dc.lft.to/lastmile_qr_scan", "ios": "https://dc.lft.to/lastmile_qr_scan"}, "type": "electric_bike", "lon": -76.99735733333333, "name": "ec96e7e617c83bc567b2131ef52fc787", "bike_id": "ec96e7e617c83bc567b2131ef52fc787", "fusion_lat": 0.0, "is_reserved": 0, "lat": 38.890895666666665, "fusion_lon": 0.0, "is_disabled": 0}, {"rental_uris": {"android": "https://dc.lft.to/lastmile_qr_scan", "ios": "https://dc.lft.to/lastmile_qr_scan"}, "type": "electric_scooter", "lon": -77.02600666666666, "name": "df6fe024b44465cee1275acba173db11", "bike_id": "df6fe024b44465cee1275acba173db11", "fusion_lat": 0.0, "is_reserved": 0, "lat": 38.897098166666666, "fusion_lon": 0.0, "is_disabled": 0}, {"rental_uris": {"android": "https://dc.lft.to/lastmile_qr_scan", "ios": "https://dc.lft.to/lastmile_qr_scan"}, "type": "electric_scooter", "lon": -77.03480083333334, "name": "a03571d6630869dfe93580ba09d56c2f", "bike_id": "a03571d6630869dfe93580ba09d56c2f", "fusion_lat": 0.0, "is_reserved": 0, "lat": 38.902679, "fusion_lon": 0.0, "is_disabled": 0}, {"rental_uris": {"android": "https://dc.lft.to/lastmile_qr_scan", "ios": "https://dc.lft.to/lastmile_qr_scan"}, "type": "electric_scooter", "lon": -77.03450116666667, "name": "22fdfb816035d7ae3b2c357ef18328c9", "bike_id": "22fdfb816035d7ae3b2c357ef18328c9", "fusion_lat": 0.0, "is_reserved": 0, "lat": 38.9180635, "fusion_lon": 0.0, "is_disabled": 0}, {"rental_uris": {"android": "https://dc.lft.to/lastmile_qr_scan", "ios": "https://dc.lft.to/lastmile_qr_scan"}, "type": "electric_bike", "lon": -77.09574733333334, "name": "ee277a88b9efac183d35a60f911eb60d", "bike_id": "ee277a88b9efac183d35a60f911eb60d", "fusion_lat": 0.0, "is_reserved": 0, "lat": 38.98564183333333, "fusion_lon": 0.0, "is_disabled": 0}, {"rental_uris": {"android": "https://dc.lft.to/lastmile_qr_scan", "ios": "https://dc.lft.to/lastmile_qr_scan"}, "type": "electric_scooter", "lon": -77.00885433333333, "name": "4b64b76c6f657b2af9a6f6bc52b05698", "bike_id": "4b64b76c6f657b2af9a6f6bc52b05698", "fusion_lat": 0.0, "is_reserved": 0, "lat": 38.87635916666667, "fusion_lon": 0.0, "is_disabled": 0}, {"rental_uris": {"android": "https://dc.lft.to/lastmile_qr_scan", "ios": "https://dc.lft.to/lastmile_qr_scan"}, "type": "electric_scooter", "lon": -77.01200733333333, "name": "d55a84dac9357e63139d62bc26bfef21", "bike_id": "d55a84dac9357e63139d62bc26bfef21", "fusion_lat": 0.0, "is_reserved": 0, "lat": 38.8715015, "fusion_lon": 0.0, "is_disabled": 0}, {"rental_uris": {"android": "https://dc.lft.to/lastmile_qr_scan", "ios": "https://dc.lft.to/lastmile_qr_scan"}, "type": "electric_scooter", "lon": -77.03914066666667, "name": "39834834d6da5765f8fbc473d9f0d453", "bike_id": "39834834d6da5765f8fbc473d9f0d453", "fusion_lat": 0.0, "is_reserved": 0, "lat": 38.924751, "fusion_lon": 0.0, "is_disabled": 0}, {"rental_uris": {"android": "https://dc.lft.to/lastmile_qr_scan", "ios": "https://dc.lft.to/lastmile_qr_scan"}, "type": "electric_scooter", "lon": -77.04684716666667, "name": "e218290449b333055b7c01c9bdcca3ef", "bike_id": "e218290449b333055b7c01c9bdcca3ef", "fusion_lat": 0.0, "is_reserved": 0, "lat": 38.91580533333333, "fusion_lon": 0.0, "is_disabled": 0}, {"rental_uris": {"android": "https://dc.lft.to/lastmile_qr_scan", "ios": "https://dc.lft.to/lastmile_qr_scan"}, "type": "electric_bike", "lon": -76.997618, "name": "d8a9d393128348c25c8852778b249e07", "bike_id": "d8a9d393128348c25c8852778b249e07", "fusion_lat": 0.0, "is_reserved": 0, "lat": 39.005930666666664, "fusion_lon": 0.0, "is_disabled": 0}, {"rental_uris": {"android": "https://dc.lft.to/lastmile_qr_scan", "ios": "https://dc.lft.to/lastmile_qr_scan"}, "type": "electric_bike", "lon": -77.131768, "name": "21461bca75b602d90986b8311b89d074", "bike_id": "21461bca75b602d90986b8311b89d074", "fusion_lat": 0.0, "is_reserved": 0, "lat": 38.869087666666665, "fusion_lon": 0.0, "is_disabled": 0}, {"rental_uris": {"android": "https://dc.lft.to/lastmile_qr_scan", "ios": "https://dc.lft.to/lastmile_qr_scan"}, "type": "electric_scooter", "lon": -77.03069066666667, "name": "efb73e3cdc76e433ba1766d464a83dca", "bike_id": "efb73e3cdc76e433ba1766d464a83dca", "fusion_lat": 0.0, "is_reserved": 0, "lat": 38.88045366666667, "fusion_lon": 0.0, "is_disabled": 0}, {"rental_uris": {"android": "https://dc.lft.to/lastmile_qr_scan", "ios": "https://dc.lft.to/lastmile_qr_scan"}, "type": "electric_scooter", "lon": -76.9990075, "name": "c85002b4405000836fd46109728bb1d7", "bike_id": "c85002b4405000836fd46109728bb1d7", "fusion_lat": 0.0, "is_reserved": 0, "lat": 38.90017066666667, "fusion_lon": 0.0, "is_disabled": 0}, {"rental_uris": {"android": "https://dc.lft.to/lastmile_qr_scan", "ios": "https://dc.lft.to/lastmile_qr_scan"}, "type": "electric_scooter", "lon": -77.01207216666667, "name": "4656c6321610f39027dc202f431f6752", "bike_id": "4656c6321610f39027dc202f431f6752", "fusion_lat": 0.0, "is_reserved": 0, "lat": 38.91822283333333, "fusion_lon": 0.0, "is_disabled": 0}, {"rental_uris": {"android": "https://dc.lft.to/lastmile_qr_scan", "ios": "https://dc.lft.to/lastmile_qr_scan"}, "type": "electric_scooter", "lon": -76.9373525, "name": "b1d6e76d87d8a031ee95080c8585fa88", "bike_id": "b1d6e76d87d8a031ee95080c8585fa88", "fusion_lat": 0.0, "is_reserved": 0, "lat": 38.89015916666666, "fusion_lon": 0.0, "is_disabled": 0}, {"rental_uris": {"android": "https://dc.lft.to/lastmile_qr_scan", "ios": "https://dc.lft.to/lastmile_qr_scan"}, "type": "electric_scooter", "lon": -76.97419666666667, "name": "dac27dce58c6fe26ab55f6894725317f", "bike_id": "dac27dce58c6fe26ab55f6894725317f", "fusion_lat": 0.0, "is_reserved": 0, "lat": 38.8656375, "fusion_lon": 0.0, "is_disabled": 0}, {"rental_uris": {"android": "https://dc.lft.to/lastmile_qr_scan", "ios": "https://dc.lft.to/lastmile_qr_scan"}, "type": "electric_scooter", "lon": -77.0027905, "name": "ec1f4c8e9e6416641bf24474d82abd92", "bike_id": "ec1f4c8e9e6416641bf24474d82abd92", "fusion_lat": 0.0, "is_reserved": 0, "lat": 38.93919733333333, "fusion_lon": 0.0, "is_disabled": 0}, {"rental_uris": {"android": "https://dc.lft.to/lastmile_qr_scan", "ios": "https://dc.lft.to/lastmile_qr_scan"}, "type": "electric_scooter", "lon": -76.99084666666667, "name": "ce95ce4bddee0944921dc7d04d60cd88", "bike_id": "ce95ce4bddee0944921dc7d04d60cd88", "fusion_lat": 0.0, "is_reserved": 0, "lat": 38.90016383333333, "fusion_lon": 0.0, "is_disabled": 0}, {"rental_uris": {"android": "https://dc.lft.to/lastmile_qr_scan", "ios": "https://dc.lft.to/lastmile_qr_scan"}, "type": "electric_scooter", "lon": -77.03345416666667, "name": "c56ea3e5a1396304d76f1ce17a659916", "bike_id": "c56ea3e5a1396304d76f1ce17a659916", "fusion_lat": 0.0, "is_reserved": 0, "lat": 38.9205915, "fusion_lon": 0.0, "is_disabled": 0}, {"rental_uris": {"android": "https://dc.lft.to/lastmile_qr_scan", "ios": "https://dc.lft.to/lastmile_qr_scan"}, "type": "electric_scooter", "lon": -77.0329615, "name": "8e5635ab51d197924943b3b087fdea42", "bike_id": "8e5635ab51d197924943b3b087fdea42", "fusion_lat": 0.0, "is_reserved": 0, "lat": 38.9083415, "fusion_lon": 0.0, "is_disabled": 0}, {"rental_uris": {"android": "https://dc.lft.to/lastmile_qr_scan", "ios": "https://dc.lft.to/lastmile_qr_scan"}, "type": "electric_scooter", "lon": -77.04241433333334, "name": "a96285bce659e38d53ccad48f4f7b44e", "bike_id": "a96285bce659e38d53ccad48f4f7b44e", "fusion_lat": 0.0, "is_reserved": 0, "lat": 38.91782416666667, "fusion_lon": 0.0, "is_disabled": 0}, {"rental_uris": {"android": "https://dc.lft.to/lastmile_qr_scan", "ios": "https://dc.lft.to/lastmile_qr_scan"}, "type": "electric_bike", "lon": -76.931872, "name": "bee88f7054d4fb7214d4320e71e43953", "bike_id": "bee88f7054d4fb7214d4320e71e43953", "fusion_lat": 0.0, "is_reserved": 0, "lat": 38.898511666666664, "fusion_lon": 0.0, "is_disabled": 0}, {"rental_uris": {"android": "https://dc.lft.to/lastmile_qr_scan", "ios": "https://dc.lft.to/lastmile_qr_scan"}, "type": "electric_scooter", "lon": -77.0416635, "name": "44f3ec23b84ccaeb37174bb2ccdaa746", "bike_id": "44f3ec23b84ccaeb37174bb2ccdaa746", "fusion_lat": 0.0, "is_reserved": 0, "lat": 38.91983233333333, "fusion_lon": 0.0, "is_disabled": 0}, {"rental_uris": {"android": "https://dc.lft.to/lastmile_qr_scan", "ios": "https://dc.lft.to/lastmile_qr_scan"}, "type": "electric_scooter", "lon": -77.03877766666666, "name": "f81bacacc7401c153e14024e04e65500", "bike_id": "f81bacacc7401c153e14024e04e65500", "fusion_lat": 0.0, "is_reserved": 0, "lat": 38.91481733333333, "fusion_lon": 0.0, "is_disabled": 0}, {"rental_uris": {"android": "https://dc.lft.to/lastmile_qr_scan", "ios": "https://dc.lft.to/lastmile_qr_scan"}, "type": "electric_scooter", "lon": -76.99153683333333, "name": "3c708776f62915507ebe4bdb1ff7f4c0", "bike_id": "3c708776f62915507ebe4bdb1ff7f4c0", "fusion_lat": 0.0, "is_reserved": 0, "lat": 38.8731525, "fusion_lon": 0.0, "is_disabled": 0}, {"rental_uris": {"android": "https://dc.lft.to/lastmile_qr_scan", "ios": "https://dc.lft.to/lastmile_qr_scan"}, "type": "electric_scooter", "lon": -77.037943, "name": "d1ac950b7254e575f9b153881633f102", "bike_id": "d1ac950b7254e575f9b153881633f102", "fusion_lat": 0.0, "is_reserved": 0, "lat": 38.924656166666665, "fusion_lon": 0.0, "is_disabled": 0}, {"rental_uris": {"android": "https://dc.lft.to/lastmile_qr_scan", "ios": "https://dc.lft.to/lastmile_qr_scan"}, "type": "electric_scooter", "lon": -77.0272635, "name": "4712193d39f6c03a6ac4e31fc6e6bfb5", "bike_id": "4712193d39f6c03a6ac4e31fc6e6bfb5", "fusion_lat": 0.0, "is_reserved": 0, "lat": 38.934485, "fusion_lon": 0.0, "is_disabled": 0}, {"rental_uris": {"android": "https://dc.lft.to/lastmile_qr_scan", "ios": "https://dc.lft.to/lastmile_qr_scan"}, "type": "electric_scooter", "lon": -77.06759566666666, "name": "c13bdd4505c44e50d10dc87680d38f58", "bike_id": "c13bdd4505c44e50d10dc87680d38f58", "fusion_lat": 0.0, "is_reserved": 0, "lat": 38.903723, "fusion_lon": 0.0, "is_disabled": 0}, {"rental_uris": {"android": "https://dc.lft.to/lastmile_qr_scan", "ios": "https://dc.lft.to/lastmile_qr_scan"}, "type": "electric_scooter", "lon": -77.030465, "name": "51ebfc14f67a2a5ca98e129e1407c93b", "bike_id": "51ebfc14f67a2a5ca98e129e1407c93b", "fusion_lat": 0.0, "is_reserved": 0, "lat": 38.88404966666667, "fusion_lon": 0.0, "is_disabled": 0}, {"rental_uris": {"android": "https://dc.lft.to/lastmile_qr_scan", "ios": "https://dc.lft.to/lastmile_qr_scan"}, "type": "electric_scooter", "lon": -76.99378733333333, "name": "8e076f2c7f6c968a7fda898b4973b1b1", "bike_id": "8e076f2c7f6c968a7fda898b4973b1b1", "fusion_lat": 0.0, "is_reserved": 0, "lat": 38.88708916666667, "fusion_lon": 0.0, "is_disabled": 0}, {"rental_uris": {"android": "https://dc.lft.to/lastmile_qr_scan", "ios": "https://dc.lft.to/lastmile_qr_scan"}, "type": "electric_scooter", "lon": -77.00596916666667, "name": "8392d936d6c438eac371047008c84ce8", "bike_id": "8392d936d6c438eac371047008c84ce8", "fusion_lat": 0.0, "is_reserved": 0, "lat": 38.90821783333333, "fusion_lon": 0.0, "is_disabled": 0}, {"rental_uris": {"android": "https://dc.lft.to/lastmile_qr_scan", "ios": "https://dc.lft.to/lastmile_qr_scan"}, "type": "electric_scooter", "lon": -77.04877316666666, "name": "e22b9a7958a3cd945820f9d855d8d0ef", "bike_id": "e22b9a7958a3cd945820f9d855d8d0ef", "fusion_lat": 0.0, "is_reserved": 0, "lat": 38.901034333333335, "fusion_lon": 0.0, "is_disabled": 0}, {"rental_uris": {"android": "https://dc.lft.to/lastmile_qr_scan", "ios": "https://dc.lft.to/lastmile_qr_scan"}, "type": "electric_scooter", "lon": -77.0610875, "name": "0c06903ff29003a6243129166510c9ae", "bike_id": "0c06903ff29003a6243129166510c9ae", "fusion_lat": 0.0, "is_reserved": 0, "lat": 38.94368933333333, "fusion_lon": 0.0, "is_disabled": 0}, {"rental_uris": {"android": "https://dc.lft.to/lastmile_qr_scan", "ios": "https://dc.lft.to/lastmile_qr_scan"}, "type": "electric_scooter", "lon": -77.03664083333334, "name": "6ae323e7c9f35eb3129f4fa1163c96a6", "bike_id": "6ae323e7c9f35eb3129f4fa1163c96a6", "fusion_lat": 0.0, "is_reserved": 0, "lat": 38.902732, "fusion_lon": 0.0, "is_disabled": 0}, {"rental_uris": {"android": "https://dc.lft.to/lastmile_qr_scan", "ios": "https://dc.lft.to/lastmile_qr_scan"}, "type": "electric_scooter", "lon": -77.02028416666667, "name": "0730c939659a221147cba5082e0a3cb5", "bike_id": "0730c939659a221147cba5082e0a3cb5", "fusion_lat": 0.0, "is_reserved": 0, "lat": 38.92446916666667, "fusion_lon": 0.0, "is_disabled": 0}, {"rental_uris": {"android": "https://dc.lft.to/lastmile_qr_scan", "ios": "https://dc.lft.to/lastmile_qr_scan"}, "type": "electric_scooter", "lon": -77.0402385, "name": "e801c60b6e6c3df71bc847e120784f09", "bike_id": "e801c60b6e6c3df71bc847e120784f09", "fusion_lat": 0.0, "is_reserved": 0, "lat": 38.9245525, "fusion_lon": 0.0, "is_disabled": 0}, {"rental_uris": {"android": "https://dc.lft.to/lastmile_qr_scan", "ios": "https://dc.lft.to/lastmile_qr_scan"}, "type": "electric_scooter", "lon": -76.99023216666667, "name": "4292c319abe74a7e60e988390380c6d7", "bike_id": "4292c319abe74a7e60e988390380c6d7", "fusion_lat": 0.0, "is_reserved": 0, "lat": 38.86404866666667, "fusion_lon": 0.0, "is_disabled": 0}, {"rental_uris": {"android": "https://dc.lft.to/lastmile_qr_scan", "ios": "https://dc.lft.to/lastmile_qr_scan"}, "type": "electric_scooter", "lon": -77.047714, "name": "0fce5146387c507486769340ede060d8", "bike_id": "0fce5146387c507486769340ede060d8", "fusion_lat": 0.0, "is_reserved": 0, "lat": 38.91755233333333, "fusion_lon": 0.0, "is_disabled": 0}, {"rental_uris": {"android": "https://dc.lft.to/lastmile_qr_scan", "ios": "https://dc.lft.to/lastmile_qr_scan"}, "type": "electric_scooter", "lon": -76.997241, "name": "a48c22defce7c68aa931d951f74c01cb", "bike_id": "a48c22defce7c68aa931d951f74c01cb", "fusion_lat": 0.0, "is_reserved": 0, "lat": 38.898996333333336, "fusion_lon": 0.0, "is_disabled": 0}, {"rental_uris": {"android": "https://dc.lft.to/lastmile_qr_scan", "ios": "https://dc.lft.to/lastmile_qr_scan"}, "type": "electric_scooter", "lon": -77.03904866666667, "name": "a19852650aec58aa6fe66a912cb0ddbf", "bike_id": "a19852650aec58aa6fe66a912cb0ddbf", "fusion_lat": 0.0, "is_reserved": 0, "lat": 38.91419483333333, "fusion_lon": 0.0, "is_disabled": 0}, {"rental_uris": {"android": "https://dc.lft.to/lastmile_qr_scan", "ios": "https://dc.lft.to/lastmile_qr_scan"}, "type": "electric_scooter", "lon": -77.04140733333334, "name": "6b0fec972325c8e0115055fc6efc5560", "bike_id": "6b0fec972325c8e0115055fc6efc5560", "fusion_lat": 0.0, "is_reserved": 0, "lat": 38.919671, "fusion_lon": 0.0, "is_disabled": 0}, {"rental_uris": {"android": "https://dc.lft.to/lastmile_qr_scan", "ios": "https://dc.lft.to/lastmile_qr_scan"}, "type": "electric_scooter", "lon": -77.04236383333334, "name": "dc97d6d0d2f47b2152a47d4373316d3e", "bike_id": "dc97d6d0d2f47b2152a47d4373316d3e", "fusion_lat": 0.0, "is_reserved": 0, "lat": 38.94554, "fusion_lon": 0.0, "is_disabled": 0}, {"rental_uris": {"android": "https://dc.lft.to/lastmile_qr_scan", "ios": "https://dc.lft.to/lastmile_qr_scan"}, "type": "electric_scooter", "lon": -77.06390933333333, "name": "909c5ca69099769e5f418beaaaa96146", "bike_id": "909c5ca69099769e5f418beaaaa96146", "fusion_lat": 0.0, "is_reserved": 0, "lat": 38.929088666666665, "fusion_lon": 0.0, "is_disabled": 0}, {"rental_uris": {"android": "https://dc.lft.to/lastmile_qr_scan", "ios": "https://dc.lft.to/lastmile_qr_scan"}, "type": "electric_scooter", "lon": -77.0014625, "name": "1196a012e375e4509dfaff251fb11987", "bike_id": "1196a012e375e4509dfaff251fb11987", "fusion_lat": 0.0, "is_reserved": 0, "lat": 38.90029883333333, "fusion_lon": 0.0, "is_disabled": 0}, {"rental_uris": {"android": "https://dc.lft.to/lastmile_qr_scan", "ios": "https://dc.lft.to/lastmile_qr_scan"}, "type": "electric_scooter", "lon": -77.023919, "name": "0fad0742112b039d8a0ea8af2acc8a65", "bike_id": "0fad0742112b039d8a0ea8af2acc8a65", "fusion_lat": 0.0, "is_reserved": 0, "lat": 38.9207685, "fusion_lon": 0.0, "is_disabled": 0}, {"rental_uris": {"android": "https://dc.lft.to/lastmile_qr_scan", "ios": "https://dc.lft.to/lastmile_qr_scan"}, "type": "electric_scooter", "lon": -77.04514266666666, "name": "3b27d38a21006508fd0c53ce69c82357", "bike_id": "3b27d38a21006508fd0c53ce69c82357", "fusion_lat": 0.0, "is_reserved": 0, "lat": 38.9183295, "fusion_lon": 0.0, "is_disabled": 0}, {"rental_uris": {"android": "https://dc.lft.to/lastmile_qr_scan", "ios": "https://dc.lft.to/lastmile_qr_scan"}, "type": "electric_scooter", "lon": -76.9411975, "name": "38cf10e3f9b5efe054210d1fbdcebe2e", "bike_id": "38cf10e3f9b5efe054210d1fbdcebe2e", "fusion_lat": 0.0, "is_reserved": 0, "lat": 38.90793383333333, "fusion_lon": 0.0, "is_disabled": 0}, {"rental_uris": {"android": "https://dc.lft.to/lastmile_qr_scan", "ios": "https://dc.lft.to/lastmile_qr_scan"}, "type": "electric_scooter", "lon": -77.03667566666667, "name": "494897d4f52c89e9b9c0c82aa9eda056", "bike_id": "494897d4f52c89e9b9c0c82aa9eda056", "fusion_lat": 0.0, "is_reserved": 0, "lat": 38.91387866666667, "fusion_lon": 0.0, "is_disabled": 0}, {"rental_uris": {"android": "https://dc.lft.to/lastmile_qr_scan", "ios": "https://dc.lft.to/lastmile_qr_scan"}, "type": "electric_scooter", "lon": -77.03199666666667, "name": "9cfd7e62289bbf4980ff723445ad02bf", "bike_id": "9cfd7e62289bbf4980ff723445ad02bf", "fusion_lat": 0.0, "is_reserved": 0, "lat": 38.91355683333333, "fusion_lon": 0.0, "is_disabled": 0}, {"rental_uris": {"android": "https://dc.lft.to/lastmile_qr_scan", "ios": "https://dc.lft.to/lastmile_qr_scan"}, "type": "electric_scooter", "lon": -77.06029316666667, "name": "6a979ec1351106820a3ec1fcbc6b5ddf", "bike_id": "6a979ec1351106820a3ec1fcbc6b5ddf", "fusion_lat": 0.0, "is_reserved": 0, "lat": 38.93920383333333, "fusion_lon": 0.0, "is_disabled": 0}, {"rental_uris": {"android": "https://dc.lft.to/lastmile_qr_scan", "ios": "https://dc.lft.to/lastmile_qr_scan"}, "type": "electric_scooter", "lon": -77.05085766666667, "name": "18f5a335ef6b4c585096dcf3670ad872", "bike_id": "18f5a335ef6b4c585096dcf3670ad872", "fusion_lat": 0.0, "is_reserved": 0, "lat": 38.924564333333336, "fusion_lon": 0.0, "is_disabled": 0}, {"rental_uris": {"android": "https://dc.lft.to/lastmile_qr_scan", "ios": "https://dc.lft.to/lastmile_qr_scan"}, "type": "electric_scooter", "lon": -77.02314666666666, "name": "6e97760b984b14fcdfa9e70a1ebf5829", "bike_id": "6e97760b984b14fcdfa9e70a1ebf5829", "fusion_lat": 0.0, "is_reserved": 0, "lat": 38.908798166666664, "fusion_lon": 0.0, "is_disabled": 0}, {"rental_uris": {"android": "https://dc.lft.to/lastmile_qr_scan", "ios": "https://dc.lft.to/lastmile_qr_scan"}, "type": "electric_scooter", "lon": -77.05157133333333, "name": "eeb01a7fd5c1e830030baa3a53fb0b08", "bike_id": "eeb01a7fd5c1e830030baa3a53fb0b08", "fusion_lat": 0.0, "is_reserved": 0, "lat": 38.904404666666665, "fusion_lon": 0.0, "is_disabled": 0}, {"rental_uris": {"android": "https://dc.lft.to/lastmile_qr_scan", "ios": "https://dc.lft.to/lastmile_qr_scan"}, "type": "electric_scooter", "lon": -77.029819, "name": "ef51253a37c0c6196587a1aceddb2899", "bike_id": "ef51253a37c0c6196587a1aceddb2899", "fusion_lat": 0.0, "is_reserved": 0, "lat": 38.9073605, "fusion_lon": 0.0, "is_disabled": 0}, {"rental_uris": {"android": "https://dc.lft.to/lastmile_qr_scan", "ios": "https://dc.lft.to/lastmile_qr_scan"}, "type": "electric_scooter", "lon": -77.02707866666667, "name": "6fb4da4414f3e1964f551a9aeac09651", "bike_id": "6fb4da4414f3e1964f551a9aeac09651", "fusion_lat": 0.0, "is_reserved": 0, "lat": 38.924663, "fusion_lon": 0.0, "is_disabled": 0}, {"rental_uris": {"android": "https://dc.lft.to/lastmile_qr_scan", "ios": "https://dc.lft.to/lastmile_qr_scan"}, "type": "electric_scooter", "lon": -77.03046333333333, "name": "76e0ffa5e71fdb2d59f97d8b16f74c6b", "bike_id": "76e0ffa5e71fdb2d59f97d8b16f74c6b", "fusion_lat": 0.0, "is_reserved": 0, "lat": 38.884092833333334, "fusion_lon": 0.0, "is_disabled": 0}, {"rental_uris": {"android": "https://dc.lft.to/lastmile_qr_scan", "ios": "https://dc.lft.to/lastmile_qr_scan"}, "type": "electric_scooter", "lon": -77.0545725, "name": "ffeb4f31e6c5111d0b5234146909a678", "bike_id": "ffeb4f31e6c5111d0b5234146909a678", "fusion_lat": 0.0, "is_reserved": 0, "lat": 38.92901416666667, "fusion_lon": 0.0, "is_disabled": 0}, {"rental_uris": {"android": "https://dc.lft.to/lastmile_qr_scan", "ios": "https://dc.lft.to/lastmile_qr_scan"}, "type": "electric_scooter", "lon": -77.01209183333333, "name": "128e4be0ca0e457884ea559a707ce70e", "bike_id": "128e4be0ca0e457884ea559a707ce70e", "fusion_lat": 0.0, "is_reserved": 0, "lat": 38.9084025, "fusion_lon": 0.0, "is_disabled": 0}, {"rental_uris": {"android": "https://dc.lft.to/lastmile_qr_scan", "ios": "https://dc.lft.to/lastmile_qr_scan"}, "type": "electric_scooter", "lon": -76.97181133333333, "name": "048dfc1d2b4d63c972440e021ee095be", "bike_id": "048dfc1d2b4d63c972440e021ee095be", "fusion_lat": 0.0, "is_reserved": 0, "lat": 38.91262583333334, "fusion_lon": 0.0, "is_disabled": 0}, {"rental_uris": {"android": "https://dc.lft.to/lastmile_qr_scan", "ios": "https://dc.lft.to/lastmile_qr_scan"}, "type": "electric_scooter", "lon": -77.00727416666666, "name": "e55cd3c27b71c7b4090769d34ba2b044", "bike_id": "e55cd3c27b71c7b4090769d34ba2b044", "fusion_lat": 0.0, "is_reserved": 0, "lat": 38.879123666666665, "fusion_lon": 0.0, "is_disabled": 0}, {"rental_uris": {"android": "https://dc.lft.to/lastmile_qr_scan", "ios": "https://dc.lft.to/lastmile_qr_scan"}, "type": "electric_scooter", "lon": -77.04811633333334, "name": "e319c250f82a0b5c514d5b5417286237", "bike_id": "e319c250f82a0b5c514d5b5417286237", "fusion_lat": 0.0, "is_reserved": 0, "lat": 38.919249666666666, "fusion_lon": 0.0, "is_disabled": 0}, {"rental_uris": {"android": "https://dc.lft.to/lastmile_qr_scan", "ios": "https://dc.lft.to/lastmile_qr_scan"}, "type": "electric_scooter", "lon": -77.00427966666666, "name": "b03d5c14589dbf92206c591a4c6c2efc", "bike_id": "b03d5c14589dbf92206c591a4c6c2efc", "fusion_lat": 0.0, "is_reserved": 0, "lat": 38.90608233333333, "fusion_lon": 0.0, "is_disabled": 0}, {"rental_uris": {"android": "https://dc.lft.to/lastmile_qr_scan", "ios": "https://dc.lft.to/lastmile_qr_scan"}, "type": "electric_scooter", "lon": -77.00197033333333, "name": "653242f42d9824161b6d2d3c4227d816", "bike_id": "653242f42d9824161b6d2d3c4227d816", "fusion_lat": 0.0, "is_reserved": 0, "lat": 38.907447833333336, "fusion_lon": 0.0, "is_disabled": 0}, {"rental_uris": {"android": "https://dc.lft.to/lastmile_qr_scan", "ios": "https://dc.lft.to/lastmile_qr_scan"}, "type": "electric_scooter", "lon": -77.032924, "name": "fdd91039a5c55a4c88dc8bfab8049dd8", "bike_id": "fdd91039a5c55a4c88dc8bfab8049dd8", "fusion_lat": 0.0, "is_reserved": 0, "lat": 38.956519, "fusion_lon": 0.0, "is_disabled": 0}, {"rental_uris": {"android": "https://dc.lft.to/lastmile_qr_scan", "ios": "https://dc.lft.to/lastmile_qr_scan"}, "type": "electric_scooter", "lon": -77.04111716666667, "name": "3b8ba9cf8d1328f46f03b7d9114b261d", "bike_id": "3b8ba9cf8d1328f46f03b7d9114b261d", "fusion_lat": 0.0, "is_reserved": 0, "lat": 38.92529783333333, "fusion_lon": 0.0, "is_disabled": 0}, {"rental_uris": {"android": "https://dc.lft.to/lastmile_qr_scan", "ios": "https://dc.lft.to/lastmile_qr_scan"}, "type": "electric_scooter", "lon": -76.99626883333333, "name": "b81b95f96cb14d0f2bd64a1423011968", "bike_id": "b81b95f96cb14d0f2bd64a1423011968", "fusion_lat": 0.0, "is_reserved": 0, "lat": 38.88030083333334, "fusion_lon": 0.0, "is_disabled": 0}, {"rental_uris": {"android": "https://dc.lft.to/lastmile_qr_scan", "ios": "https://dc.lft.to/lastmile_qr_scan"}, "type": "electric_scooter", "lon": -77.022802, "name": "22c4e88b7c822b667b253b252f4637dd", "bike_id": "22c4e88b7c822b667b253b252f4637dd", "fusion_lat": 0.0, "is_reserved": 0, "lat": 38.926883833333335, "fusion_lon": 0.0, "is_disabled": 0}, {"rental_uris": {"android": "https://dc.lft.to/lastmile_qr_scan", "ios": "https://dc.lft.to/lastmile_qr_scan"}, "type": "electric_scooter", "lon": -76.99095383333334, "name": "d028667eb509025bb25fb1c428305d14", "bike_id": "d028667eb509025bb25fb1c428305d14", "fusion_lat": 0.0, "is_reserved": 0, "lat": 38.929513166666666, "fusion_lon": 0.0, "is_disabled": 0}, {"rental_uris": {"android": "https://dc.lft.to/lastmile_qr_scan", "ios": "https://dc.lft.to/lastmile_qr_scan"}, "type": "electric_scooter", "lon": -77.01812183333334, "name": "bb50524ec64fd230bd1841653e276691", "bike_id": "bb50524ec64fd230bd1841653e276691", "fusion_lat": 0.0, "is_reserved": 0, "lat": 38.9038605, "fusion_lon": 0.0, "is_disabled": 0}, {"rental_uris": {"android": "https://dc.lft.to/lastmile_qr_scan", "ios": "https://dc.lft.to/lastmile_qr_scan"}, "type": "electric_scooter", "lon": -76.989329, "name": "0155a1f4097903f8c3749552c25ecaa9", "bike_id": "0155a1f4097903f8c3749552c25ecaa9", "fusion_lat": 0.0, "is_reserved": 0, "lat": 38.865915333333334, "fusion_lon": 0.0, "is_disabled": 0}, {"rental_uris": {"android": "https://dc.lft.to/lastmile_qr_scan", "ios": "https://dc.lft.to/lastmile_qr_scan"}, "type": "electric_bike", "lon": -77.03986133333333, "name": "d5f4c9dcad3f0d98e9ea33d9b3879ab4", "bike_id": "d5f4c9dcad3f0d98e9ea33d9b3879ab4", "fusion_lat": 0.0, "is_reserved": 0, "lat": 38.802972, "fusion_lon": 0.0, "is_disabled": 0}, {"rental_uris": {"android": "https://dc.lft.to/lastmile_qr_scan", "ios": "https://dc.lft.to/lastmile_qr_scan"}, "type": "electric_scooter", "lon": -77.02386666666666, "name": "9a88603be733f2333b8d9b627e4aa44b", "bike_id": "9a88603be733f2333b8d9b627e4aa44b", "fusion_lat": 0.0, "is_reserved": 0, "lat": 38.920743, "fusion_lon": 0.0, "is_disabled": 0}, {"rental_uris": {"android": "https://dc.lft.to/lastmile_qr_scan", "ios": "https://dc.lft.to/lastmile_qr_scan"}, "type": "electric_scooter", "lon": -77.00587616666667, "name": "16f8ed16993f3ff62edb6040f49cd494", "bike_id": "16f8ed16993f3ff62edb6040f49cd494", "fusion_lat": 0.0, "is_reserved": 0, "lat": 38.90570616666667, "fusion_lon": 0.0, "is_disabled": 0}, {"rental_uris": {"android": "https://dc.lft.to/lastmile_qr_scan", "ios": "https://dc.lft.to/lastmile_qr_scan"}, "type": "electric_scooter", "lon": -77.018828, "name": "3e749e0485895c96da5ced25fec06942", "bike_id": "3e749e0485895c96da5ced25fec06942", "fusion_lat": 0.0, "is_reserved": 0, "lat": 38.917692, "fusion_lon": 0.0, "is_disabled": 0}, {"rental_uris": {"android": "https://dc.lft.to/lastmile_qr_scan", "ios": "https://dc.lft.to/lastmile_qr_scan"}, "type": "electric_scooter", "lon": -76.99503833333333, "name": "801857e456ca9aed4886e08221266083", "bike_id": "801857e456ca9aed4886e08221266083", "fusion_lat": 0.0, "is_reserved": 0, "lat": 38.844629166666664, "fusion_lon": 0.0, "is_disabled": 0}, {"rental_uris": {"android": "https://dc.lft.to/lastmile_qr_scan", "ios": "https://dc.lft.to/lastmile_qr_scan"}, "type": "electric_scooter", "lon": -77.03321783333334, "name": "f706ec179f5d1fdde2c06a6884be8e90", "bike_id": "f706ec179f5d1fdde2c06a6884be8e90", "fusion_lat": 0.0, "is_reserved": 0, "lat": 38.8922985, "fusion_lon": 0.0, "is_disabled": 0}, {"rental_uris": {"android": "https://dc.lft.to/lastmile_qr_scan", "ios": "https://dc.lft.to/lastmile_qr_scan"}, "type": "electric_scooter", "lon": -77.03659166666667, "name": "035cb82971d66a93bc3f536b2b30cfe0", "bike_id": "035cb82971d66a93bc3f536b2b30cfe0", "fusion_lat": 0.0, "is_reserved": 0, "lat": 38.922471, "fusion_lon": 0.0, "is_disabled": 0}, {"rental_uris": {"android": "https://dc.lft.to/lastmile_qr_scan", "ios": "https://dc.lft.to/lastmile_qr_scan"}, "type": "electric_scooter", "lon": -77.0674985, "name": "3d3881813ee82bf3d4c0954d2c667c3b", "bike_id": "3d3881813ee82bf3d4c0954d2c667c3b", "fusion_lat": 0.0, "is_reserved": 0, "lat": 38.949926833333336, "fusion_lon": 0.0, "is_disabled": 0}, {"rental_uris": {"android": "https://dc.lft.to/lastmile_qr_scan", "ios": "https://dc.lft.to/lastmile_qr_scan"}, "type": "electric_scooter", "lon": -77.038312, "name": "6e294c5ebe517bb17baf8d1a9bffe985", "bike_id": "6e294c5ebe517bb17baf8d1a9bffe985", "fusion_lat": 0.0, "is_reserved": 0, "lat": 38.915668333333336, "fusion_lon": 0.0, "is_disabled": 0}, {"rental_uris": {"android": "https://dc.lft.to/lastmile_qr_scan", "ios": "https://dc.lft.to/lastmile_qr_scan"}, "type": "electric_scooter", "lon": -77.04543216666667, "name": "39108b1f300b7978bd8f625b450ddaed", "bike_id": "39108b1f300b7978bd8f625b450ddaed", "fusion_lat": 0.0, "is_reserved": 0, "lat": 38.920523, "fusion_lon": 0.0, "is_disabled": 0}, {"rental_uris": {"android": "https://dc.lft.to/lastmile_qr_scan", "ios": "https://dc.lft.to/lastmile_qr_scan"}, "type": "electric_scooter", "lon": -77.035066, "name": "b2040e4fdd8fbdd21bd670e580f81bc5", "bike_id": "b2040e4fdd8fbdd21bd670e580f81bc5", "fusion_lat": 0.0, "is_reserved": 0, "lat": 38.921444666666666, "fusion_lon": 0.0, "is_disabled": 0}, {"rental_uris": {"android": "https://dc.lft.to/lastmile_qr_scan", "ios": "https://dc.lft.to/lastmile_qr_scan"}, "type": "electric_bike", "lon": -77.02778116666667, "name": "8fbd418bfd60a4dd5375c61193516a60", "bike_id": "8fbd418bfd60a4dd5375c61193516a60", "fusion_lat": 0.0, "is_reserved": 0, "lat": 38.965233833333336, "fusion_lon": 0.0, "is_disabled": 0}, {"rental_uris": {"android": "https://dc.lft.to/lastmile_qr_scan", "ios": "https://dc.lft.to/lastmile_qr_scan"}, "type": "electric_scooter", "lon": -77.03204416666667, "name": "9426d63b2295576528804ab89acef257", "bike_id": "9426d63b2295576528804ab89acef257", "fusion_lat": 0.0, "is_reserved": 0, "lat": 38.939685833333336, "fusion_lon": 0.0, "is_disabled": 0}, {"rental_uris": {"android": "https://dc.lft.to/lastmile_qr_scan", "ios": "https://dc.lft.to/lastmile_qr_scan"}, "type": "electric_scooter", "lon": -77.021564, "name": "841fc0b8df3f91f7d8888faa6a6d1da3", "bike_id": "841fc0b8df3f91f7d8888faa6a6d1da3", "fusion_lat": 0.0, "is_reserved": 0, "lat": 38.926032166666666, "fusion_lon": 0.0, "is_disabled": 0}, {"rental_uris": {"android": "https://dc.lft.to/lastmile_qr_scan", "ios": "https://dc.lft.to/lastmile_qr_scan"}, "type": "electric_scooter", "lon": -77.025935, "name": "051c29f3d2288ed8d2c8e6b772a08ccf", "bike_id": "051c29f3d2288ed8d2c8e6b772a08ccf", "fusion_lat": 0.0, "is_reserved": 0, "lat": 38.90849633333333, "fusion_lon": 0.0, "is_disabled": 0}, {"rental_uris": {"android": "https://dc.lft.to/lastmile_qr_scan", "ios": "https://dc.lft.to/lastmile_qr_scan"}, "type": "electric_scooter", "lon": -77.02051866666666, "name": "95055a66a59da9b8ec571ba17e3e374d", "bike_id": "95055a66a59da9b8ec571ba17e3e374d", "fusion_lat": 0.0, "is_reserved": 0, "lat": 38.95872216666667, "fusion_lon": 0.0, "is_disabled": 0}, {"rental_uris": {"android": "https://dc.lft.to/lastmile_qr_scan", "ios": "https://dc.lft.to/lastmile_qr_scan"}, "type": "electric_scooter", "lon": -77.0184315, "name": "cc5e273c7fe3ce26e84897bf83deb99c", "bike_id": "cc5e273c7fe3ce26e84897bf83deb99c", "fusion_lat": 0.0, "is_reserved": 0, "lat": 38.91967316666667, "fusion_lon": 0.0, "is_disabled": 0}, {"rental_uris": {"android": "https://dc.lft.to/lastmile_qr_scan", "ios": "https://dc.lft.to/lastmile_qr_scan"}, "type": "electric_bike", "lon": -76.97222716666667, "name": "19d214374a70d2dd1031ed9b76d8114e", "bike_id": "19d214374a70d2dd1031ed9b76d8114e", "fusion_lat": 0.0, "is_reserved": 0, "lat": 38.844831166666665, "fusion_lon": 0.0, "is_disabled": 0}, {"rental_uris": {"android": "https://dc.lft.to/lastmile_qr_scan", "ios": "https://dc.lft.to/lastmile_qr_scan"}, "type": "electric_scooter", "lon": -77.03035616666666, "name": "fdf71dfaa6093ce7e9493e747fcb4a9c", "bike_id": "fdf71dfaa6093ce7e9493e747fcb4a9c", "fusion_lat": 0.0, "is_reserved": 0, "lat": 38.939775, "fusion_lon": 0.0, "is_disabled": 0}, {"rental_uris": {"android": "https://dc.lft.to/lastmile_qr_scan", "ios": "https://dc.lft.to/lastmile_qr_scan"}, "type": "electric_scooter", "lon": -76.99037333333334, "name": "d0b79e5951ba115a656794b43ae3ceaa", "bike_id": "d0b79e5951ba115a656794b43ae3ceaa", "fusion_lat": 0.0, "is_reserved": 0, "lat": 38.92346366666666, "fusion_lon": 0.0, "is_disabled": 0}, {"rental_uris": {"android": "https://dc.lft.to/lastmile_qr_scan", "ios": "https://dc.lft.to/lastmile_qr_scan"}, "type": "electric_scooter", "lon": -77.03582216666666, "name": "f937bec1898226f148539a7c025dd172", "bike_id": "f937bec1898226f148539a7c025dd172", "fusion_lat": 0.0, "is_reserved": 0, "lat": 38.92861116666667, "fusion_lon": 0.0, "is_disabled": 0}, {"rental_uris": {"android": "https://dc.lft.to/lastmile_qr_scan", "ios": "https://dc.lft.to/lastmile_qr_scan"}, "type": "electric_bike", "lon": -77.19545366666667, "name": "af821797ab79dafeb2159dbb2d74d608", "bike_id": "af821797ab79dafeb2159dbb2d74d608", "fusion_lat": 0.0, "is_reserved": 0, "lat": 39.115044833333336, "fusion_lon": 0.0, "is_disabled": 0}, {"rental_uris": {"android": "https://dc.lft.to/lastmile_qr_scan", "ios": "https://dc.lft.to/lastmile_qr_scan"}, "type": "electric_scooter", "lon": -77.00916766666667, "name": "69b38d558da2f25202445f327d981575", "bike_id": "69b38d558da2f25202445f327d981575", "fusion_lat": 0.0, "is_reserved": 0, "lat": 38.876374, "fusion_lon": 0.0, "is_disabled": 0}, {"rental_uris": {"android": "https://dc.lft.to/lastmile_qr_scan", "ios": "https://dc.lft.to/lastmile_qr_scan"}, "type": "electric_bike", "lon": -77.01198966666666, "name": "a1dec87eee3b892884fa0d47dd867cab", "bike_id": "a1dec87eee3b892884fa0d47dd867cab", "fusion_lat": 0.0, "is_reserved": 0, "lat": 38.95071216666667, "fusion_lon": 0.0, "is_disabled": 0}, {"rental_uris": {"android": "https://dc.lft.to/lastmile_qr_scan", "ios": "https://dc.lft.to/lastmile_qr_scan"}, "type": "electric_bike", "lon": -76.96702766666667, "name": "787119ad7e945810eefc9e7d82a3cdc0", "bike_id": "787119ad7e945810eefc9e7d82a3cdc0", "fusion_lat": 0.0, "is_reserved": 0, "lat": 38.86849683333333, "fusion_lon": 0.0, "is_disabled": 0}, {"rental_uris": {"android": "https://dc.lft.to/lastmile_qr_scan", "ios": "https://dc.lft.to/lastmile_qr_scan"}, "type": "electric_scooter", "lon": -76.998241, "name": "25138f45a2379a82e3f5fd892f79f68b", "bike_id": "25138f45a2379a82e3f5fd892f79f68b", "fusion_lat": 0.0, "is_reserved": 0, "lat": 38.882719, "fusion_lon": 0.0, "is_disabled": 0}, {"rental_uris": {"android": "https://dc.lft.to/lastmile_qr_scan", "ios": "https://dc.lft.to/lastmile_qr_scan"}, "type": "electric_bike", "lon": -77.04983433333334, "name": "b566576773858c5404ae290b032ed16a", "bike_id": "b566576773858c5404ae290b032ed16a", "fusion_lat": 0.0, "is_reserved": 0, "lat": 38.99240783333333, "fusion_lon": 0.0, "is_disabled": 0}, {"rental_uris": {"android": "https://dc.lft.to/lastmile_qr_scan", "ios": "https://dc.lft.to/lastmile_qr_scan"}, "type": "electric_scooter", "lon": -77.0467805, "name": "5c5096d1c4b655309acfab18dcd9acf9", "bike_id": "5c5096d1c4b655309acfab18dcd9acf9", "fusion_lat": 0.0, "is_reserved": 0, "lat": 38.91591183333333, "fusion_lon": 0.0, "is_disabled": 0}, {"rental_uris": {"android": "https://dc.lft.to/lastmile_qr_scan", "ios": "https://dc.lft.to/lastmile_qr_scan"}, "type": "electric_scooter", "lon": -77.03842016666667, "name": "66cfb586bb70c4a74ac772889bc98056", "bike_id": "66cfb586bb70c4a74ac772889bc98056", "fusion_lat": 0.0, "is_reserved": 0, "lat": 38.9121085, "fusion_lon": 0.0, "is_disabled": 0}, {"rental_uris": {"android": "https://dc.lft.to/lastmile_qr_scan", "ios": "https://dc.lft.to/lastmile_qr_scan"}, "type": "electric_scooter", "lon": -76.93157916666667, "name": "3c44881970c9e0498d3cb81ca7633126", "bike_id": "3c44881970c9e0498d3cb81ca7633126", "fusion_lat": 0.0, "is_reserved": 0, "lat": 38.898813, "fusion_lon": 0.0, "is_disabled": 0}, {"rental_uris": {"android": "https://dc.lft.to/lastmile_qr_scan", "ios": "https://dc.lft.to/lastmile_qr_scan"}, "type": "electric_scooter", "lon": -77.00956516666666, "name": "100081ccd81d8a0c92587656b944540f", "bike_id": "100081ccd81d8a0c92587656b944540f", "fusion_lat": 0.0, "is_reserved": 0, "lat": 38.921366, "fusion_lon": 0.0, "is_disabled": 0}, {"rental_uris": {"android": "https://dc.lft.to/lastmile_qr_scan", "ios": "https://dc.lft.to/lastmile_qr_scan"}, "type": "electric_bike", "lon": -76.87496716666666, "name": "ea7875be8e7049de6fa1d194e6a29cde", "bike_id": "ea7875be8e7049de6fa1d194e6a29cde", "fusion_lat": 0.0, "is_reserved": 0, "lat": 38.9909115, "fusion_lon": 0.0, "is_disabled": 0}, {"rental_uris": {"android": "https://dc.lft.to/lastmile_qr_scan", "ios": "https://dc.lft.to/lastmile_qr_scan"}, "type": "electric_scooter", "lon": -76.942163, "name": "8be693264a053e6040db12631b6a9782", "bike_id": "8be693264a053e6040db12631b6a9782", "fusion_lat": 0.0, "is_reserved": 0, "lat": 38.896714833333334, "fusion_lon": 0.0, "is_disabled": 0}, {"rental_uris": {"android": "https://dc.lft.to/lastmile_qr_scan", "ios": "https://dc.lft.to/lastmile_qr_scan"}, "type": "electric_scooter", "lon": -77.00071, "name": "efdf9d79b4713aa23d9495209076e9a0", "bike_id": "efdf9d79b4713aa23d9495209076e9a0", "fusion_lat": 0.0, "is_reserved": 0, "lat": 38.89741733333334, "fusion_lon": 0.0, "is_disabled": 0}, {"rental_uris": {"android": "https://dc.lft.to/lastmile_qr_scan", "ios": "https://dc.lft.to/lastmile_qr_scan"}, "type": "electric_scooter", "lon": -77.0157465, "name": "5b595e1087cf9b8139f0025ca4695850", "bike_id": "5b595e1087cf9b8139f0025ca4695850", "fusion_lat": 0.0, "is_reserved": 0, "lat": 38.87643333333333, "fusion_lon": 0.0, "is_disabled": 0}, {"rental_uris": {"android": "https://dc.lft.to/lastmile_qr_scan", "ios": "https://dc.lft.to/lastmile_qr_scan"}, "type": "electric_bike", "lon": -77.11218616666666, "name": "5ca560f9174712cc94e273e7953188ad", "bike_id": "5ca560f9174712cc94e273e7953188ad", "fusion_lat": 0.0, "is_reserved": 0, "lat": 38.82873683333333, "fusion_lon": 0.0, "is_disabled": 0}, {"rental_uris": {"android": "https://dc.lft.to/lastmile_qr_scan", "ios": "https://dc.lft.to/lastmile_qr_scan"}, "type": "electric_scooter", "lon": -77.06797466666667, "name": "a570cd57443e944bd33130b88729fdc2", "bike_id": "a570cd57443e944bd33130b88729fdc2", "fusion_lat": 0.0, "is_reserved": 0, "lat": 38.90509566666667, "fusion_lon": 0.0, "is_disabled": 0}, {"rental_uris": {"android": "https://dc.lft.to/lastmile_qr_scan", "ios": "https://dc.lft.to/lastmile_qr_scan"}, "type": "electric_bike", "lon": -77.07896966666667, "name": "3a218b72adca08d1376bd8df6c65849a", "bike_id": "3a218b72adca08d1376bd8df6c65849a", "fusion_lat": 0.0, "is_reserved": 0, "lat": 38.839347, "fusion_lon": 0.0, "is_disabled": 0}, {"rental_uris": {"android": "https://dc.lft.to/lastmile_qr_scan", "ios": "https://dc.lft.to/lastmile_qr_scan"}, "type": "electric_scooter", "lon": -77.02770766666667, "name": "e980cde22b47843ab8ff785f9aa9cced", "bike_id": "e980cde22b47843ab8ff785f9aa9cced", "fusion_lat": 0.0, "is_reserved": 0, "lat": 38.92682933333333, "fusion_lon": 0.0, "is_disabled": 0}, {"rental_uris": {"android": "https://dc.lft.to/lastmile_qr_scan", "ios": "https://dc.lft.to/lastmile_qr_scan"}, "type": "electric_bike", "lon": -77.050882, "name": "8f784aee97b31c4a42d956892ab1f794", "bike_id": "8f784aee97b31c4a42d956892ab1f794", "fusion_lat": 0.0, "is_reserved": 0, "lat": 38.813341333333334, "fusion_lon": 0.0, "is_disabled": 0}, {"rental_uris": {"android": "https://dc.lft.to/lastmile_qr_scan", "ios": "https://dc.lft.to/lastmile_qr_scan"}, "type": "electric_scooter", "lon": -77.02824133333333, "name": "9e56e47085ee7a58af60e81aaa8f1b65", "bike_id": "9e56e47085ee7a58af60e81aaa8f1b65", "fusion_lat": 0.0, "is_reserved": 0, "lat": 38.9155345, "fusion_lon": 0.0, "is_disabled": 0}, {"rental_uris": {"android": "https://dc.lft.to/lastmile_qr_scan", "ios": "https://dc.lft.to/lastmile_qr_scan"}, "type": "electric_scooter", "lon": -76.98359583333334, "name": "aa5043c5c099c63b828115a0dc906de4", "bike_id": "aa5043c5c099c63b828115a0dc906de4", "fusion_lat": 0.0, "is_reserved": 0, "lat": 38.86102733333333, "fusion_lon": 0.0, "is_disabled": 0}, {"rental_uris": {"android": "https://dc.lft.to/lastmile_qr_scan", "ios": "https://dc.lft.to/lastmile_qr_scan"}, "type": "electric_scooter", "lon": -77.023522, "name": "997f328fce6a41274b4a4539693f8923", "bike_id": "997f328fce6a41274b4a4539693f8923", "fusion_lat": 0.0, "is_reserved": 0, "lat": 38.892217333333335, "fusion_lon": 0.0, "is_disabled": 0}, {"rental_uris": {"android": "https://dc.lft.to/lastmile_qr_scan", "ios": "https://dc.lft.to/lastmile_qr_scan"}, "type": "electric_bike", "lon": -77.1142165, "name": "d55cb8deca2d4d4f085cd6fe22363d7f", "bike_id": "d55cb8deca2d4d4f085cd6fe22363d7f", "fusion_lat": 0.0, "is_reserved": 0, "lat": 38.84317733333334, "fusion_lon": 0.0, "is_disabled": 0}, {"rental_uris": {"android": "https://dc.lft.to/lastmile_qr_scan", "ios": "https://dc.lft.to/lastmile_qr_scan"}, "type": "electric_scooter", "lon": -77.0240255, "name": "abbbd96fee341e1449ffafe0c655c9c0", "bike_id": "abbbd96fee341e1449ffafe0c655c9c0", "fusion_lat": 0.0, "is_reserved": 0, "lat": 38.95732816666667, "fusion_lon": 0.0, "is_disabled": 0}, {"rental_uris": {"android": "https://dc.lft.to/lastmile_qr_scan", "ios": "https://dc.lft.to/lastmile_qr_scan"}, "type": "electric_scooter", "lon": -77.01606166666667, "name": "78e6f5c81202b0420b91f627018bb216", "bike_id": "78e6f5c81202b0420b91f627018bb216", "fusion_lat": 0.0, "is_reserved": 0, "lat": 38.91757966666667, "fusion_lon": 0.0, "is_disabled": 0}, {"rental_uris": {"android": "https://dc.lft.to/lastmile_qr_scan", "ios": "https://dc.lft.to/lastmile_qr_scan"}, "type": "electric_scooter", "lon": -77.03128383333333, "name": "9c0f18a82071391a76d0c710063f05ba", "bike_id": "9c0f18a82071391a76d0c710063f05ba", "fusion_lat": 0.0, "is_reserved": 0, "lat": 38.92378766666667, "fusion_lon": 0.0, "is_disabled": 0}, {"rental_uris": {"android": "https://dc.lft.to/lastmile_qr_scan", "ios": "https://dc.lft.to/lastmile_qr_scan"}, "type": "electric_scooter", "lon": -76.99945916666667, "name": "07ea27384a0a6d1736d51b4218bcb0b7", "bike_id": "07ea27384a0a6d1736d51b4218bcb0b7", "fusion_lat": 0.0, "is_reserved": 0, "lat": 38.84291666666667, "fusion_lon": 0.0, "is_disabled": 0}, {"rental_uris": {"android": "https://dc.lft.to/lastmile_qr_scan", "ios": "https://dc.lft.to/lastmile_qr_scan"}, "type": "electric_scooter", "lon": -76.988509, "name": "faee5ba09c9cfacae0c524baa2b0dc1d", "bike_id": "faee5ba09c9cfacae0c524baa2b0dc1d", "fusion_lat": 0.0, "is_reserved": 0, "lat": 38.900248166666664, "fusion_lon": 0.0, "is_disabled": 0}, {"rental_uris": {"android": "https://dc.lft.to/lastmile_qr_scan", "ios": "https://dc.lft.to/lastmile_qr_scan"}, "type": "electric_scooter", "lon": -76.987522, "name": "605b7cebcdde7feea6883ac399d61bb2", "bike_id": "605b7cebcdde7feea6883ac399d61bb2", "fusion_lat": 0.0, "is_reserved": 0, "lat": 38.90801866666666, "fusion_lon": 0.0, "is_disabled": 0}, {"rental_uris": {"android": "https://dc.lft.to/lastmile_qr_scan", "ios": "https://dc.lft.to/lastmile_qr_scan"}, "type": "electric_scooter", "lon": -76.983335, "name": "2d324cdd4c161d2533cb0609f684674d", "bike_id": "2d324cdd4c161d2533cb0609f684674d", "fusion_lat": 0.0, "is_reserved": 0, "lat": 38.86257466666667, "fusion_lon": 0.0, "is_disabled": 0}, {"rental_uris": {"android": "https://dc.lft.to/lastmile_qr_scan", "ios": "https://dc.lft.to/lastmile_qr_scan"}, "type": "electric_bike", "lon": -77.077969, "name": "55c9f02b74171816b9403836f791b8ad", "bike_id": "55c9f02b74171816b9403836f791b8ad", "fusion_lat": 0.0, "is_reserved": 0, "lat": 38.845151666666666, "fusion_lon": 0.0, "is_disabled": 0}, {"rental_uris": {"android": "https://dc.lft.to/lastmile_qr_scan", "ios": "https://dc.lft.to/lastmile_qr_scan"}, "type": "electric_scooter", "lon": -77.032797, "name": "078ef8f921453a7a360c090d4ed84a96", "bike_id": "078ef8f921453a7a360c090d4ed84a96", "fusion_lat": 0.0, "is_reserved": 0, "lat": 38.93688516666667, "fusion_lon": 0.0, "is_disabled": 0}, {"rental_uris": {"android": "https://dc.lft.to/lastmile_qr_scan", "ios": "https://dc.lft.to/lastmile_qr_scan"}, "type": "electric_scooter", "lon": -77.02543483333334, "name": "371e52b8ea92d542ae2c473e2e7f7275", "bike_id": "371e52b8ea92d542ae2c473e2e7f7275", "fusion_lat": 0.0, "is_reserved": 0, "lat": 38.93517833333333, "fusion_lon": 0.0, "is_disabled": 0}, {"rental_uris": {"android": "https://dc.lft.to/lastmile_qr_scan", "ios": "https://dc.lft.to/lastmile_qr_scan"}, "type": "electric_scooter", "lon": -77.0317385, "name": "e2253ea7e8d5e4e446f336db41a0b2a4", "bike_id": "e2253ea7e8d5e4e446f336db41a0b2a4", "fusion_lat": 0.0, "is_reserved": 0, "lat": 38.89780733333333, "fusion_lon": 0.0, "is_disabled": 0}, {"rental_uris": {"android": "https://dc.lft.to/lastmile_qr_scan", "ios": "https://dc.lft.to/lastmile_qr_scan"}, "type": "electric_scooter", "lon": -77.0327505, "name": "d620ef2a01d644c7b8d9f1ee68a391f1", "bike_id": "d620ef2a01d644c7b8d9f1ee68a391f1", "fusion_lat": 0.0, "is_reserved": 0, "lat": 38.924594166666665, "fusion_lon": 0.0, "is_disabled": 0}, {"rental_uris": {"android": "https://dc.lft.to/lastmile_qr_scan", "ios": "https://dc.lft.to/lastmile_qr_scan"}, "type": "electric_bike", "lon": -77.0996385, "name": "4b687c3296b67049ea0da07f8e49246a", "bike_id": "4b687c3296b67049ea0da07f8e49246a", "fusion_lat": 0.0, "is_reserved": 0, "lat": 38.857907833333336, "fusion_lon": 0.0, "is_disabled": 0}, {"rental_uris": {"android": "https://dc.lft.to/lastmile_qr_scan", "ios": "https://dc.lft.to/lastmile_qr_scan"}, "type": "electric_scooter", "lon": -77.04823416666666, "name": "ccd7dba5c624b468c0acb0d7c9608f9f", "bike_id": "ccd7dba5c624b468c0acb0d7c9608f9f", "fusion_lat": 0.0, "is_reserved": 0, "lat": 38.900528, "fusion_lon": 0.0, "is_disabled": 0}, {"rental_uris": {"android": "https://dc.lft.to/lastmile_qr_scan", "ios": "https://dc.lft.to/lastmile_qr_scan"}, "type": "electric_scooter", "lon": -77.0217985, "name": "c896de5bbd379eaf46eaa677a2ad46bd", "bike_id": "c896de5bbd379eaf46eaa677a2ad46bd", "fusion_lat": 0.0, "is_reserved": 0, "lat": 38.892307833333334, "fusion_lon": 0.0, "is_disabled": 0}, {"rental_uris": {"android": "https://dc.lft.to/lastmile_qr_scan", "ios": "https://dc.lft.to/lastmile_qr_scan"}, "type": "electric_bike", "lon": -76.98831866666667, "name": "2e37bbf01322f3d5b8aa6851b09fbb86", "bike_id": "2e37bbf01322f3d5b8aa6851b09fbb86", "fusion_lat": 0.0, "is_reserved": 0, "lat": 38.985633, "fusion_lon": 0.0, "is_disabled": 0}, {"rental_uris": {"android": "https://dc.lft.to/lastmile_qr_scan", "ios": "https://dc.lft.to/lastmile_qr_scan"}, "type": "electric_scooter", "lon": -77.04583933333333, "name": "35a6756961a9f88b3d6b59f7ec30cbe5", "bike_id": "35a6756961a9f88b3d6b59f7ec30cbe5", "fusion_lat": 0.0, "is_reserved": 0, "lat": 38.9214535, "fusion_lon": 0.0, "is_disabled": 0}, {"rental_uris": {"android": "https://dc.lft.to/lastmile_qr_scan", "ios": "https://dc.lft.to/lastmile_qr_scan"}, "type": "electric_scooter", "lon": -77.023594, "name": "31dce5835b586af151d4ffe0e283876d", "bike_id": "31dce5835b586af151d4ffe0e283876d", "fusion_lat": 0.0, "is_reserved": 0, "lat": 38.917848666666664, "fusion_lon": 0.0, "is_disabled": 0}, {"rental_uris": {"android": "https://dc.lft.to/lastmile_qr_scan", "ios": "https://dc.lft.to/lastmile_qr_scan"}, "type": "electric_scooter", "lon": -77.04639833333333, "name": "91702315a60b492d6363125edbc6fad4", "bike_id": "91702315a60b492d6363125edbc6fad4", "fusion_lat": 0.0, "is_reserved": 0, "lat": 38.9006315, "fusion_lon": 0.0, "is_disabled": 0}, {"rental_uris": {"android": "https://dc.lft.to/lastmile_qr_scan", "ios": "https://dc.lft.to/lastmile_qr_scan"}, "type": "electric_scooter", "lon": -77.02543416666667, "name": "2af1bfb142dce6d4f412f23b4af2d155", "bike_id": "2af1bfb142dce6d4f412f23b4af2d155", "fusion_lat": 0.0, "is_reserved": 0, "lat": 38.927471833333335, "fusion_lon": 0.0, "is_disabled": 0}, {"rental_uris": {"android": "https://dc.lft.to/lastmile_qr_scan", "ios": "https://dc.lft.to/lastmile_qr_scan"}, "type": "electric_scooter", "lon": -77.02343666666667, "name": "b00f1657f861571b023896a07889e9d3", "bike_id": "b00f1657f861571b023896a07889e9d3", "fusion_lat": 0.0, "is_reserved": 0, "lat": 38.9332785, "fusion_lon": 0.0, "is_disabled": 0}, {"rental_uris": {"android": "https://dc.lft.to/lastmile_qr_scan", "ios": "https://dc.lft.to/lastmile_qr_scan"}, "type": "electric_scooter", "lon": -77.02343816666666, "name": "30f8065858a3b356a87e562df560a5b6", "bike_id": "30f8065858a3b356a87e562df560a5b6", "fusion_lat": 0.0, "is_reserved": 0, "lat": 38.929907, "fusion_lon": 0.0, "is_disabled": 0}, {"rental_uris": {"android": "https://dc.lft.to/lastmile_qr_scan", "ios": "https://dc.lft.to/lastmile_qr_scan"}, "type": "electric_scooter", "lon": -77.05003233333333, "name": "762b0b53850312e981a83763870c7244", "bike_id": "762b0b53850312e981a83763870c7244", "fusion_lat": 0.0, "is_reserved": 0, "lat": 38.89231016666667, "fusion_lon": 0.0, "is_disabled": 0}, {"rental_uris": {"android": "https://dc.lft.to/lastmile_qr_scan", "ios": "https://dc.lft.to/lastmile_qr_scan"}, "type": "electric_scooter", "lon": -77.03345816666666, "name": "80ed14c2df85d41fdad6863688cc52bd", "bike_id": "80ed14c2df85d41fdad6863688cc52bd", "fusion_lat": 0.0, "is_reserved": 0, "lat": 38.92442416666667, "fusion_lon": 0.0, "is_disabled": 0}, {"rental_uris": {"android": "https://dc.lft.to/lastmile_qr_scan", "ios": "https://dc.lft.to/lastmile_qr_scan"}, "type": "electric_scooter", "lon": -77.0153335, "name": "77c20d9dc50ead57d0fae40de4abe289", "bike_id": "77c20d9dc50ead57d0fae40de4abe289", "fusion_lat": 0.0, "is_reserved": 0, "lat": 38.879387333333334, "fusion_lon": 0.0, "is_disabled": 0}, {"rental_uris": {"android": "https://dc.lft.to/lastmile_qr_scan", "ios": "https://dc.lft.to/lastmile_qr_scan"}, "type": "electric_scooter", "lon": -77.04329066666666, "name": "f5cd0d31ab26150eb1f8c71a5d3e6f74", "bike_id": "f5cd0d31ab26150eb1f8c71a5d3e6f74", "fusion_lat": 0.0, "is_reserved": 0, "lat": 38.90505, "fusion_lon": 0.0, "is_disabled": 0}, {"rental_uris": {"android": "https://dc.lft.to/lastmile_qr_scan", "ios": "https://dc.lft.to/lastmile_qr_scan"}, "type": "electric_scooter", "lon": -77.01759733333333, "name": "b6fd934f708e63b601cd62056a3ab560", "bike_id": "b6fd934f708e63b601cd62056a3ab560", "fusion_lat": 0.0, "is_reserved": 0, "lat": 38.8735145, "fusion_lon": 0.0, "is_disabled": 0}, {"rental_uris": {"android": "https://dc.lft.to/lastmile_qr_scan", "ios": "https://dc.lft.to/lastmile_qr_scan"}, "type": "electric_scooter", "lon": -77.03422716666667, "name": "9e9372220e9de641b85e209abb3cd563", "bike_id": "9e9372220e9de641b85e209abb3cd563", "fusion_lat": 0.0, "is_reserved": 0, "lat": 38.90574266666667, "fusion_lon": 0.0, "is_disabled": 0}, {"rental_uris": {"android": "https://dc.lft.to/lastmile_qr_scan", "ios": "https://dc.lft.to/lastmile_qr_scan"}, "type": "electric_bike", "lon": -76.96175583333333, "name": "6f35b7b975d46d17a03ab8d2da634af9", "bike_id": "6f35b7b975d46d17a03ab8d2da634af9", "fusion_lat": 0.0, "is_reserved": 0, "lat": 38.91860483333333, "fusion_lon": 0.0, "is_disabled": 0}, {"rental_uris": {"android": "https://dc.lft.to/lastmile_qr_scan", "ios": "https://dc.lft.to/lastmile_qr_scan"}, "type": "electric_scooter", "lon": -77.02286, "name": "f12a8c310aebfe6e8b0f958590cfc395", "bike_id": "f12a8c310aebfe6e8b0f958590cfc395", "fusion_lat": 0.0, "is_reserved": 0, "lat": 38.918328, "fusion_lon": 0.0, "is_disabled": 0}, {"rental_uris": {"android": "https://dc.lft.to/lastmile_qr_scan", "ios": "https://dc.lft.to/lastmile_qr_scan"}, "type": "electric_scooter", "lon": -77.0783345, "name": "3046129c63b15a36d9a5ff9deb0fe612", "bike_id": "3046129c63b15a36d9a5ff9deb0fe612", "fusion_lat": 0.0, "is_reserved": 0, "lat": 38.926813833333334, "fusion_lon": 0.0, "is_disabled": 0}, {"rental_uris": {"android": "https://dc.lft.to/lastmile_qr_scan", "ios": "https://dc.lft.to/lastmile_qr_scan"}, "type": "electric_bike", "lon": -77.001396, "name": "284b566c33627e35742aae1f42a05a71", "bike_id": "284b566c33627e35742aae1f42a05a71", "fusion_lat": 0.0, "is_reserved": 0, "lat": 38.92552966666667, "fusion_lon": 0.0, "is_disabled": 0}, {"rental_uris": {"android": "https://dc.lft.to/lastmile_qr_scan", "ios": "https://dc.lft.to/lastmile_qr_scan"}, "type": "electric_scooter", "lon": -77.02268816666667, "name": "c8f7a7601675ad1845933c8b24b43221", "bike_id": "c8f7a7601675ad1845933c8b24b43221", "fusion_lat": 0.0, "is_reserved": 0, "lat": 38.887366166666666, "fusion_lon": 0.0, "is_disabled": 0}, {"rental_uris": {"android": "https://dc.lft.to/lastmile_qr_scan", "ios": "https://dc.lft.to/lastmile_qr_scan"}, "type": "electric_scooter", "lon": -76.99953583333334, "name": "06630d89fad94aa57d14019f761723b8", "bike_id": "06630d89fad94aa57d14019f761723b8", "fusion_lat": 0.0, "is_reserved": 0, "lat": 38.90864633333333, "fusion_lon": 0.0, "is_disabled": 0}, {"rental_uris": {"android": "https://dc.lft.to/lastmile_qr_scan", "ios": "https://dc.lft.to/lastmile_qr_scan"}, "type": "electric_scooter", "lon": -77.099557, "name": "a926a4de377e341fe4b4e34d7e24923a", "bike_id": "a926a4de377e341fe4b4e34d7e24923a", "fusion_lat": 0.0, "is_reserved": 0, "lat": 38.922486, "fusion_lon": 0.0, "is_disabled": 0}, {"rental_uris": {"android": "https://dc.lft.to/lastmile_qr_scan", "ios": "https://dc.lft.to/lastmile_qr_scan"}, "type": "electric_scooter", "lon": -77.02432216666666, "name": "66a286bc7068cb8c11950a75e7a4fafe", "bike_id": "66a286bc7068cb8c11950a75e7a4fafe", "fusion_lat": 0.0, "is_reserved": 0, "lat": 38.921497333333335, "fusion_lon": 0.0, "is_disabled": 0}, {"rental_uris": {"android": "https://dc.lft.to/lastmile_qr_scan", "ios": "https://dc.lft.to/lastmile_qr_scan"}, "type": "electric_scooter", "lon": -77.03460866666667, "name": "f769bb1f855d45b143330317954fae5e", "bike_id": "f769bb1f855d45b143330317954fae5e", "fusion_lat": 0.0, "is_reserved": 0, "lat": 38.93545433333333, "fusion_lon": 0.0, "is_disabled": 0}, {"rental_uris": {"android": "https://dc.lft.to/lastmile_qr_scan", "ios": "https://dc.lft.to/lastmile_qr_scan"}, "type": "electric_scooter", "lon": -77.0161625, "name": "536f6492fde16488efa828c3261e3fd1", "bike_id": "536f6492fde16488efa828c3261e3fd1", "fusion_lat": 0.0, "is_reserved": 0, "lat": 38.899703833333334, "fusion_lon": 0.0, "is_disabled": 0}, {"rental_uris": {"android": "https://dc.lft.to/lastmile_qr_scan", "ios": "https://dc.lft.to/lastmile_qr_scan"},