{"data": {"bikes": [{"lon": -77.02534866666667, "bike_id": "b9d5bafb3d167ca84768878363ae6bf0", "lat": 38.92746483333333, "fusion_lon": 0.0, "fusion_lat": 0.0, "type": "electric_scooter", "name": "b9d5bafb3d167ca84768878363ae6bf0", "is_disabled": 0, "rental_uris": {"ios": "https://dc.lft.to/lastmile_qr_scan", "android": "https://dc.lft.to/lastmile_qr_scan"}, "is_reserved": 0}, {"lon": -76.99533116666667, "bike_id": "5b1c14d5c01018134d1f3b10a2c7fe2a", "lat": 38.88370066666667, "fusion_lon": 0.0, "fusion_lat": 0.0, "type": "electric_scooter", "name": "5b1c14d5c01018134d1f3b10a2c7fe2a", "is_disabled": 0, "rental_uris": {"ios": "https://dc.lft.to/lastmile_qr_scan", "android": "https://dc.lft.to/lastmile_qr_scan"}, "is_reserved": 0}, {"lon": -77.02625283333333, "bike_id": "a4559f314e4c95086e1be9c1fc15639a", "lat": 38.96224133333333, "fusion_lon": 0.0, "fusion_lat": 0.0, "type": "electric_bike", "name": "a4559f314e4c95086e1be9c1fc15639a", "is_disabled": 0, "rental_uris": {"ios": "https://dc.lft.to/lastmile_qr_scan", "android": "https://dc.lft.to/lastmile_qr_scan"}, "is_reserved": 0}, {"lon": -76.98588233333334, "bike_id": "40018ff572fb2b99d740b162ede2484e", "lat": 38.8668435, "fusion_lon": 0.0, "fusion_lat": 0.0, "type": "electric_scooter", "name": "40018ff572fb2b99d740b162ede2484e", "is_disabled": 0, "rental_uris": {"ios": "https://dc.lft.to/lastmile_qr_scan", "android": "https://dc.lft.to/lastmile_qr_scan"}, "is_reserved": 0}, {"lon": -76.99774283333333, "bike_id": "48a9a43cf3f90612aaae14b265ab15e0", "lat": 38.911162, "fusion_lon": 0.0, "fusion_lat": 0.0, "type": "electric_scooter", "name": "48a9a43cf3f90612aaae14b265ab15e0", "is_disabled": 0, "rental_uris": {"ios": "https://dc.lft.to/lastmile_qr_scan", "android": "https://dc.lft.to/lastmile_qr_scan"}, "is_reserved": 0}, {"lon": -77.03857683333334, "bike_id": "4707fd448b449e8dee6fa456c1907394", "lat": 38.911749666666665, "fusion_lon": 0.0, "fusion_lat": 0.0, "type": "electric_scooter", "name": "4707fd448b449e8dee6fa456c1907394", "is_disabled": 0, "rental_uris": {"ios": "https://dc.lft.to/lastmile_qr_scan", "android": "https://dc.lft.to/lastmile_qr_scan"}, "is_reserved": 0}, {"lon": -77.01908916666666, "bike_id": "c860d583ea670206d48b7174f85328da", "lat": 38.88616483333333, "fusion_lon": 0.0, "fusion_lat": 0.0, "type": "electric_scooter", "name": "c860d583ea670206d48b7174f85328da", "is_disabled": 0, "rental_uris": {"ios": "https://dc.lft.to/lastmile_qr_scan", "android": "https://dc.lft.to/lastmile_qr_scan"}, "is_reserved": 0}, {"lon": -77.04334066666667, "bike_id": "e2cc6890c1b389283c1c8c20cf48684c", "lat": 38.90365966666667, "fusion_lon": 0.0, "fusion_lat": 0.0, "type": "electric_scooter", "name": "e2cc6890c1b389283c1c8c20cf48684c", "is_disabled": 0, "rental_uris": {"ios": "https://dc.lft.to/lastmile_qr_scan", "android": "https://dc.lft.to/lastmile_qr_scan"}, "is_reserved": 0}, {"lon": -76.99045083333333, "bike_id": "8e5f6760565e71f1d61421f0b9942025", "lat": 38.8841535, "fusion_lon": 0.0, "fusion_lat": 0.0, "type": "electric_scooter", "name": "8e5f6760565e71f1d61421f0b9942025", "is_disabled": 0, "rental_uris": {"ios": "https://dc.lft.to/lastmile_qr_scan", "android": "https://dc.lft.to/lastmile_qr_scan"}, "is_reserved": 0}, {"lon": -77.021642, "bike_id": "8eda82ca2aaa69d9dac5dbec81e80d59", "lat": 38.897429, "fusion_lon": 0.0, "fusion_lat": 0.0, "type": "electric_scooter", "name": "8eda82ca2aaa69d9dac5dbec81e80d59", "is_disabled": 0, "rental_uris": {"ios": "https://dc.lft.to/lastmile_qr_scan", "android": "https://dc.lft.to/lastmile_qr_scan"}, "is_reserved": 0}, {"lon": -76.9732455, "bike_id": "277d6e291ecbb5f708a1e9c6bd0c71a4", "lat": 38.904795166666666, "fusion_lon": 0.0, "fusion_lat": 0.0, "type": "electric_bike", "name": "277d6e291ecbb5f708a1e9c6bd0c71a4", "is_disabled": 0, "rental_uris": {"ios": "https://dc.lft.to/lastmile_qr_scan", "android": "https://dc.lft.to/lastmile_qr_scan"}, "is_reserved": 0}, {"lon": -77.0819665, "bike_id": "782e11a5e5da0e903eecc5d294900505", "lat": 38.93515083333333, "fusion_lon": 0.0, "fusion_lat": 0.0, "type": "electric_scooter", "name": "782e11a5e5da0e903eecc5d294900505", "is_disabled": 0, "rental_uris": {"ios": "https://dc.lft.to/lastmile_qr_scan", "android": "https://dc.lft.to/lastmile_qr_scan"}, "is_reserved": 0}, {"lon": -77.02686916666667, "bike_id": "92637ae8c6f90db838bff37cc36e48e9", "lat": 38.9005835, "fusion_lon": 0.0, "fusion_lat": 0.0, "type": "electric_scooter", "name": "92637ae8c6f90db838bff37cc36e48e9", "is_disabled": 0, "rental_uris": {"ios": "https://dc.lft.to/lastmile_qr_scan", "android": "https://dc.lft.to/lastmile_qr_scan"}, "is_reserved": 0}, {"lon": -76.91598583333334, "bike_id": "fe32320cb99f7eeb7ed8418400df056a", "lat": 38.87983533333333, "fusion_lon": 0.0, "fusion_lat": 0.0, "type": "electric_bike", "name": "fe32320cb99f7eeb7ed8418400df056a", "is_disabled": 0, "rental_uris": {"ios": "https://dc.lft.to/lastmile_qr_scan", "android": "https://dc.lft.to/lastmile_qr_scan"}, "is_reserved": 0}, {"lon": -77.02955, "bike_id": "86efd75f6e6d8c2bf2d89b1e94cfdb72", "lat": 38.904953166666665, "fusion_lon": 0.0, "fusion_lat": 0.0, "type": "electric_scooter", "name": "86efd75f6e6d8c2bf2d89b1e94cfdb72", "is_disabled": 0, "rental_uris": {"ios": "https://dc.lft.to/lastmile_qr_scan", "android": "https://dc.lft.to/lastmile_qr_scan"}, "is_reserved": 0}, {"lon": -77.018573, "bike_id": "6e2037eb92840a9a6ca804611e209d85", "lat": 38.903806333333335, "fusion_lon": 0.0, "fusion_lat": 0.0, "type": "electric_scooter", "name": "6e2037eb92840a9a6ca804611e209d85", "is_disabled": 0, "rental_uris": {"ios": "https://dc.lft.to/lastmile_qr_scan", "android": "https://dc.lft.to/lastmile_qr_scan"}, "is_reserved": 0}, {"lon": -77.03282983333334, "bike_id": "8ef076fd9d8930b4347ea05ffa7fe79c", "lat": 38.93489533333333, "fusion_lon": 0.0, "fusion_lat": 0.0, "type": "electric_scooter", "name": "8ef076fd9d8930b4347ea05ffa7fe79c", "is_disabled": 0, "rental_uris": {"ios": "https://dc.lft.to/lastmile_qr_scan", "android": "https://dc.lft.to/lastmile_qr_scan"}, "is_reserved": 0}, {"lon": -76.9950685, "bike_id": "e19c6c91861297119204e3d91e0c1055", "lat": 38.88305783333333, "fusion_lon": 0.0, "fusion_lat": 0.0, "type": "electric_scooter", "name": "e19c6c91861297119204e3d91e0c1055", "is_disabled": 0, "rental_uris": {"ios": "https://dc.lft.to/lastmile_qr_scan", "android": "https://dc.lft.to/lastmile_qr_scan"}, "is_reserved": 0}, {"lon": -77.0586275, "bike_id": "bffa89eabeefb98886ce8cad24485b69", "lat": 38.93604066666666, "fusion_lon": 0.0, "fusion_lat": 0.0, "type": "electric_scooter", "name": "bffa89eabeefb98886ce8cad24485b69", "is_disabled": 0, "rental_uris": {"ios": "https://dc.lft.to/lastmile_qr_scan", "android": "https://dc.lft.to/lastmile_qr_scan"}, "is_reserved": 0}, {"lon": -76.9918265, "bike_id": "d24984db7b3f47d7584b59eb7e1b2e82", "lat": 38.88971933333333, "fusion_lon": 0.0, "fusion_lat": 0.0, "type": "electric_scooter", "name": "d24984db7b3f47d7584b59eb7e1b2e82", "is_disabled": 0, "rental_uris": {"ios": "https://dc.lft.to/lastmile_qr_scan", "android": "https://dc.lft.to/lastmile_qr_scan"}, "is_reserved": 0}, {"lon": -76.9888145, "bike_id": "035836526df9369cf44c28c194beca50", "lat": 38.8665135, "fusion_lon": 0.0, "fusion_lat": 0.0, "type": "electric_scooter", "name": "035836526df9369cf44c28c194beca50", "is_disabled": 0, "rental_uris": {"ios": "https://dc.lft.to/lastmile_qr_scan", "android": "https://dc.lft.to/lastmile_qr_scan"}, "is_reserved": 0}, {"lon": -77.0625245, "bike_id": "f374ca9f1a823239f1a79e6da0468eed", "lat": 38.94417383333333, "fusion_lon": 0.0, "fusion_lat": 0.0, "type": "electric_scooter", "name": "f374ca9f1a823239f1a79e6da0468eed", "is_disabled": 0, "rental_uris": {"ios": "https://dc.lft.to/lastmile_qr_scan", "android": "https://dc.lft.to/lastmile_qr_scan"}, "is_reserved": 0}, {"lon": -76.986993, "bike_id": "ac32ef46c2abcb74932e6ba7febb5734", "lat": 38.90704216666666, "fusion_lon": 0.0, "fusion_lat": 0.0, "type": "electric_scooter", "name": "ac32ef46c2abcb74932e6ba7febb5734", "is_disabled": 0, "rental_uris": {"ios": "https://dc.lft.to/lastmile_qr_scan", "android": "https://dc.lft.to/lastmile_qr_scan"}, "is_reserved": 0}, {"lon": -77.02300483333333, "bike_id": "fb3cce9983598f56a474c5c84b5c8ce3", "lat": 38.917798, "fusion_lon": 0.0, "fusion_lat": 0.0, "type": "electric_scooter", "name": "fb3cce9983598f56a474c5c84b5c8ce3", "is_disabled": 0, "rental_uris": {"ios": "https://dc.lft.to/lastmile_qr_scan", "android": "https://dc.lft.to/lastmile_qr_scan"}, "is_reserved": 0}, {"lon": -77.03292233333333, "bike_id": "1a70ebfaa0c643b3857ea18db7e3f29f", "lat": 38.93728133333333, "fusion_lon": 0.0, "fusion_lat": 0.0, "type": "electric_scooter", "name": "1a70ebfaa0c643b3857ea18db7e3f29f", "is_disabled": 0, "rental_uris": {"ios": "https://dc.lft.to/lastmile_qr_scan", "android": "https://dc.lft.to/lastmile_qr_scan"}, "is_reserved": 0}, {"lon": -76.98265833333333, "bike_id": "4710c286690c67f0b52d9629d9315006", "lat": 38.908496666666665, "fusion_lon": 0.0, "fusion_lat": 0.0, "type": "electric_scooter", "name": "4710c286690c67f0b52d9629d9315006", "is_disabled": 0, "rental_uris": {"ios": "https://dc.lft.to/lastmile_qr_scan", "android": "https://dc.lft.to/lastmile_qr_scan"}, "is_reserved": 0}, {"lon": -76.9948745, "bike_id": "f078141e4b61687565539bad728df93b", "lat": 38.915689, "fusion_lon": 0.0, "fusion_lat": 0.0, "type": "electric_scooter", "name": "f078141e4b61687565539bad728df93b", "is_disabled": 0, "rental_uris": {"ios": "https://dc.lft.to/lastmile_qr_scan", "android": "https://dc.lft.to/lastmile_qr_scan"}, "is_reserved": 0}, {"lon": -76.98898366666667, "bike_id": "fea6f4d7e6200ce957ba707b69323b05", "lat": 38.913493, "fusion_lon": 0.0, "fusion_lat": 0.0, "type": "electric_scooter", "name": "fea6f4d7e6200ce957ba707b69323b05", "is_disabled": 0, "rental_uris": {"ios": "https://dc.lft.to/lastmile_qr_scan", "android": "https://dc.lft.to/lastmile_qr_scan"}, "is_reserved": 0}, {"lon": -77.04204933333334, "bike_id": "b5e3f53ff7fd59134c188a4aa214ed7f", "lat": 38.8996895, "fusion_lon": 0.0, "fusion_lat": 0.0, "type": "electric_scooter", "name": "b5e3f53ff7fd59134c188a4aa214ed7f", "is_disabled": 0, "rental_uris": {"ios": "https://dc.lft.to/lastmile_qr_scan", "android": "https://dc.lft.to/lastmile_qr_scan"}, "is_reserved": 0}, {"lon": -77.002171, "bike_id": "9ce3869f5ab0954d2171c615c1bc3bd2", "lat": 38.90012, "fusion_lon": 0.0, "fusion_lat": 0.0, "type": "electric_scooter", "name": "9ce3869f5ab0954d2171c615c1bc3bd2", "is_disabled": 0, "rental_uris": {"ios": "https://dc.lft.to/lastmile_qr_scan", "android": "https://dc.lft.to/lastmile_qr_scan"}, "is_reserved": 0}, {"lon": -76.95469266666667, "bike_id": "9190e724052c1e4cafdc28e4f17c54a5", "lat": 38.88469583333333, "fusion_lon": 0.0, "fusion_lat": 0.0, "type": "electric_scooter", "name": "9190e724052c1e4cafdc28e4f17c54a5", "is_disabled": 0, "rental_uris": {"ios": "https://dc.lft.to/lastmile_qr_scan", "android": "https://dc.lft.to/lastmile_qr_scan"}, "is_reserved": 0}, {"lon": -76.93374516666667, "bike_id": "1130cda9050883dead20f82bfc9271c9", "lat": 38.8990905, "fusion_lon": 0.0, "fusion_lat": 0.0, "type": "electric_scooter", "name": "1130cda9050883dead20f82bfc9271c9", "is_disabled": 0, "rental_uris": {"ios": "https://dc.lft.to/lastmile_qr_scan", "android": "https://dc.lft.to/lastmile_qr_scan"}, "is_reserved": 0}, {"lon": -77.01164333333334, "bike_id": "6d44103417de358cf76346e2923e4b29", "lat": 38.8722525, "fusion_lon": 0.0, "fusion_lat": 0.0, "type": "electric_bike", "name": "6d44103417de358cf76346e2923e4b29", "is_disabled": 0, "rental_uris": {"ios": "https://dc.lft.to/lastmile_qr_scan", "android": "https://dc.lft.to/lastmile_qr_scan"}, "is_reserved": 0}, {"lon": -77.03203366666666, "bike_id": "31e7517aeb3d5ab6be3d415e5763edcc", "lat": 38.918174, "fusion_lon": 0.0, "fusion_lat": 0.0, "type": "electric_scooter", "name": "31e7517aeb3d5ab6be3d415e5763edcc", "is_disabled": 0, "rental_uris": {"ios": "https://dc.lft.to/lastmile_qr_scan", "android": "https://dc.lft.to/lastmile_qr_scan"}, "is_reserved": 0}, {"lon": -77.10091383333334, "bike_id": "5686cbb87c39919b8feb639ea8a5a063", "lat": 38.959549, "fusion_lon": 0.0, "fusion_lat": 0.0, "type": "electric_bike", "name": "5686cbb87c39919b8feb639ea8a5a063", "is_disabled": 0, "rental_uris": {"ios": "https://dc.lft.to/lastmile_qr_scan", "android": "https://dc.lft.to/lastmile_qr_scan"}, "is_reserved": 0}, {"lon": -76.94290816666667, "bike_id": "cef82f9c66dae95a1ace68e7900e89ab", "lat": 38.93869433333333, "fusion_lon": 0.0, "fusion_lat": 0.0, "type": "electric_bike", "name": "cef82f9c66dae95a1ace68e7900e89ab", "is_disabled": 0, "rental_uris": {"ios": "https://dc.lft.to/lastmile_qr_scan", "android": "https://dc.lft.to/lastmile_qr_scan"}, "is_reserved": 0}, {"lon": -77.03532816666667, "bike_id": "bed2bb72c9f687799d4d2f71d7acc622", "lat": 38.9263245, "fusion_lon": 0.0, "fusion_lat": 0.0, "type": "electric_scooter", "name": "bed2bb72c9f687799d4d2f71d7acc622", "is_disabled": 0, "rental_uris": {"ios": "https://dc.lft.to/lastmile_qr_scan", "android": "https://dc.lft.to/lastmile_qr_scan"}, "is_reserved": 0}, {"lon": -77.02622616666666, "bike_id": "ec026cfeeccf7b34b4a5434c966b48d7", "lat": 38.96213316666667, "fusion_lon": 0.0, "fusion_lat": 0.0, "type": "electric_bike", "name": "ec026cfeeccf7b34b4a5434c966b48d7", "is_disabled": 0, "rental_uris": {"ios": "https://dc.lft.to/lastmile_qr_scan", "android": "https://dc.lft.to/lastmile_qr_scan"}, "is_reserved": 0}, {"lon": -76.99543866666667, "bike_id": "1fa2d1e57abf56501e4ff5a9706c9040", "lat": 38.83158933333333, "fusion_lon": 0.0, "fusion_lat": 0.0, "type": "electric_bike", "name": "1fa2d1e57abf56501e4ff5a9706c9040", "is_disabled": 0, "rental_uris": {"ios": "https://dc.lft.to/lastmile_qr_scan", "android": "https://dc.lft.to/lastmile_qr_scan"}, "is_reserved": 0}, {"lon": -76.99903416666666, "bike_id": "8849c9525bf53fa50ba91211b3fae332", "lat": 38.907175, "fusion_lon": 0.0, "fusion_lat": 0.0, "type": "electric_scooter", "name": "8849c9525bf53fa50ba91211b3fae332", "is_disabled": 0, "rental_uris": {"ios": "https://dc.lft.to/lastmile_qr_scan", "android": "https://dc.lft.to/lastmile_qr_scan"}, "is_reserved": 0}, {"lon": -77.04005683333334, "bike_id": "bbbd2b3d01a79a1ac809634483ced03e", "lat": 38.9099755, "fusion_lon": 0.0, "fusion_lat": 0.0, "type": "electric_scooter", "name": "bbbd2b3d01a79a1ac809634483ced03e", "is_disabled": 0, "rental_uris": {"ios": "https://dc.lft.to/lastmile_qr_scan", "android": "https://dc.lft.to/lastmile_qr_scan"}, "is_reserved": 0}, {"lon": -77.03201866666667, "bike_id": "49055782a693d10f42902e732a727c04", "lat": 38.90940533333333, "fusion_lon": 0.0, "fusion_lat": 0.0, "type": "electric_scooter", "name": "49055782a693d10f42902e732a727c04", "is_disabled": 0, "rental_uris": {"ios": "https://dc.lft.to/lastmile_qr_scan", "android": "https://dc.lft.to/lastmile_qr_scan"}, "is_reserved": 0}, {"lon": -77.038007, "bike_id": "372b64ebe5bc8301534673f3c4b706b6", "lat": 38.930249333333336, "fusion_lon": 0.0, "fusion_lat": 0.0, "type": "electric_scooter", "name": "372b64ebe5bc8301534673f3c4b706b6", "is_disabled": 0, "rental_uris": {"ios": "https://dc.lft.to/lastmile_qr_scan", "android": "https://dc.lft.to/lastmile_qr_scan"}, "is_reserved": 0}, {"lon": -76.89535766666667, "bike_id": "760164f8cf86fe004a2b6efc56f95383", "lat": 38.94551883333333, "fusion_lon": 0.0, "fusion_lat": 0.0, "type": "electric_bike", "name": "760164f8cf86fe004a2b6efc56f95383", "is_disabled": 0, "rental_uris": {"ios": "https://dc.lft.to/lastmile_qr_scan", "android": "https://dc.lft.to/lastmile_qr_scan"}, "is_reserved": 0}, {"lon": -77.0712105, "bike_id": "6a4134108ce87d0ba0b1d049709a43c1", "lat": 38.919659333333335, "fusion_lon": 0.0, "fusion_lat": 0.0, "type": "electric_scooter", "name": "6a4134108ce87d0ba0b1d049709a43c1", "is_disabled": 0, "rental_uris": {"ios": "https://dc.lft.to/lastmile_qr_scan", "android": "https://dc.lft.to/lastmile_qr_scan"}, "is_reserved": 0}, {"lon": -77.129785, "bike_id": "4d137660af2e6abc7d9c184603ab33ba", "lat": 38.7998585, "fusion_lon": 0.0, "fusion_lat": 0.0, "type": "electric_bike", "name": "4d137660af2e6abc7d9c184603ab33ba", "is_disabled": 0, "rental_uris": {"ios": "https://dc.lft.to/lastmile_qr_scan", "android": "https://dc.lft.to/lastmile_qr_scan"}, "is_reserved": 0}, {"lon": -77.03514633333333, "bike_id": "d34125fc7bfb335a40e4eba0fa2b883c", "lat": 38.92197383333333, "fusion_lon": 0.0, "fusion_lat": 0.0, "type": "electric_scooter", "name": "d34125fc7bfb335a40e4eba0fa2b883c", "is_disabled": 0, "rental_uris": {"ios": "https://dc.lft.to/lastmile_qr_scan", "android": "https://dc.lft.to/lastmile_qr_scan"}, "is_reserved": 0}, {"lon": -77.03274983333333, "bike_id": "b8e249d7e7350269b18b4719e8f08416", "lat": 38.90157083333333, "fusion_lon": 0.0, "fusion_lat": 0.0, "type": "electric_scooter", "name": "b8e249d7e7350269b18b4719e8f08416", "is_disabled": 0, "rental_uris": {"ios": "https://dc.lft.to/lastmile_qr_scan", "android": "https://dc.lft.to/lastmile_qr_scan"}, "is_reserved": 0}, {"lon": -77.03253816666667, "bike_id": "6db78ec00acb0f3d9282b64904547b71", "lat": 38.9285835, "fusion_lon": 0.0, "fusion_lat": 0.0, "type": "electric_scooter", "name": "6db78ec00acb0f3d9282b64904547b71", "is_disabled": 0, "rental_uris": {"ios": "https://dc.lft.to/lastmile_qr_scan", "android": "https://dc.lft.to/lastmile_qr_scan"}, "is_reserved": 0}, {"lon": -76.9780455, "bike_id": "93e4ae7a9ebb52703b0055772a2ebd8d", "lat": 38.906671333333335, "fusion_lon": 0.0, "fusion_lat": 0.0, "type": "electric_scooter", "name": "93e4ae7a9ebb52703b0055772a2ebd8d", "is_disabled": 0, "rental_uris": {"ios": "https://dc.lft.to/lastmile_qr_scan", "android": "https://dc.lft.to/lastmile_qr_scan"}, "is_reserved": 0}, {"lon": -77.02211233333334, "bike_id": "f928e64a2a3358d5006d52efdc742b35", "lat": 38.887268166666665, "fusion_lon": 0.0, "fusion_lat": 0.0, "type": "electric_scooter", "name": "f928e64a2a3358d5006d52efdc742b35", "is_disabled": 0, "rental_uris": {"ios": "https://dc.lft.to/lastmile_qr_scan", "android": "https://dc.lft.to/lastmile_qr_scan"}, "is_reserved": 0}, {"lon": -77.02509116666667, "bike_id": "618885a3a6c14f629e90f758c1416e07", "lat": 38.934114, "fusion_lon": 0.0, "fusion_lat": 0.0, "type": "electric_bike", "name": "618885a3a6c14f629e90f758c1416e07", "is_disabled": 0, "rental_uris": {"ios": "https://dc.lft.to/lastmile_qr_scan", "android": "https://dc.lft.to/lastmile_qr_scan"}, "is_reserved": 0}, {"lon": -77.04383933333334, "bike_id": "0cede49759b72b00893e260e1c17398d", "lat": 38.9211235, "fusion_lon": 0.0, "fusion_lat": 0.0, "type": "electric_scooter", "name": "0cede49759b72b00893e260e1c17398d", "is_disabled": 0, "rental_uris": {"ios": "https://dc.lft.to/lastmile_qr_scan", "android": "https://dc.lft.to/lastmile_qr_scan"}, "is_reserved": 0}, {"lon": -77.00681416666667, "bike_id": "55edb4c37c435614de9912de9bc52c8a", "lat": 38.944979833333335, "fusion_lon": 0.0, "fusion_lat": 0.0, "type": "electric_bike", "name": "55edb4c37c435614de9912de9bc52c8a", "is_disabled": 0, "rental_uris": {"ios": "https://dc.lft.to/lastmile_qr_scan", "android": "https://dc.lft.to/lastmile_qr_scan"}, "is_reserved": 0}, {"lon": -77.03991033333334, "bike_id": "0332539010421b68d2bdf432c31df691", "lat": 38.905483, "fusion_lon": 0.0, "fusion_lat": 0.0, "type": "electric_scooter", "name": "0332539010421b68d2bdf432c31df691", "is_disabled": 0, "rental_uris": {"ios": "https://dc.lft.to/lastmile_qr_scan", "android": "https://dc.lft.to/lastmile_qr_scan"}, "is_reserved": 0}, {"lon": -77.04216933333333, "bike_id": "1ca3577b555a721fb9920c1fd9dfee64", "lat": 38.9230835, "fusion_lon": 0.0, "fusion_lat": 0.0, "type": "electric_scooter", "name": "1ca3577b555a721fb9920c1fd9dfee64", "is_disabled": 0, "rental_uris": {"ios": "https://dc.lft.to/lastmile_qr_scan", "android": "https://dc.lft.to/lastmile_qr_scan"}, "is_reserved": 0}, {"lon": -77.02563833333333, "bike_id": "df99cf9c6f654bcdf2b1a2905f2bfd44", "lat": 38.91477, "fusion_lon": 0.0, "fusion_lat": 0.0, "type": "electric_scooter", "name": "df99cf9c6f654bcdf2b1a2905f2bfd44", "is_disabled": 0, "rental_uris": {"ios": "https://dc.lft.to/lastmile_qr_scan", "android": "https://dc.lft.to/lastmile_qr_scan"}, "is_reserved": 0}, {"lon": -77.0145885, "bike_id": "4867dbea2f8b9c5cb8091a4c551553f3", "lat": 38.91924133333333, "fusion_lon": 0.0, "fusion_lat": 0.0, "type": "electric_scooter", "name": "4867dbea2f8b9c5cb8091a4c551553f3", "is_disabled": 0, "rental_uris": {"ios": "https://dc.lft.to/lastmile_qr_scan", "android": "https://dc.lft.to/lastmile_qr_scan"}, "is_reserved": 0}, {"lon": -76.9945375, "bike_id": "d62c0d7a26bcad3a4090c97f5c14b48c", "lat": 38.903694333333334, "fusion_lon": 0.0, "fusion_lat": 0.0, "type": "electric_scooter", "name": "d62c0d7a26bcad3a4090c97f5c14b48c", "is_disabled": 0, "rental_uris": {"ios": "https://dc.lft.to/lastmile_qr_scan", "android": "https://dc.lft.to/lastmile_qr_scan"}, "is_reserved": 0}, {"lon": -77.03981366666666, "bike_id": "cb84042f5d9ccabb270e9441a1ec09b5", "lat": 38.89224083333333, "fusion_lon": 0.0, "fusion_lat": 0.0, "type": "electric_scooter", "name": "cb84042f5d9ccabb270e9441a1ec09b5", "is_disabled": 0, "rental_uris": {"ios": "https://dc.lft.to/lastmile_qr_scan", "android": "https://dc.lft.to/lastmile_qr_scan"}, "is_reserved": 0}, {"lon": -77.02803766666666, "bike_id": "94d228613fb2617d3bfb59a2729d1017", "lat": 38.914257, "fusion_lon": 0.0, "fusion_lat": 0.0, "type": "electric_scooter", "name": "94d228613fb2617d3bfb59a2729d1017", "is_disabled": 0, "rental_uris": {"ios": "https://dc.lft.to/lastmile_qr_scan", "android": "https://dc.lft.to/lastmile_qr_scan"}, "is_reserved": 0}, {"lon": -77.023056, "bike_id": "4f5feced27109565a04c5d3155cf1931", "lat": 38.94204366666666, "fusion_lon": 0.0, "fusion_lat": 0.0, "type": "electric_scooter", "name": "4f5feced27109565a04c5d3155cf1931", "is_disabled": 0, "rental_uris": {"ios": "https://dc.lft.to/lastmile_qr_scan", "android": "https://dc.lft.to/lastmile_qr_scan"}, "is_reserved": 0}, {"lon": -77.07236633333333, "bike_id": "6a1a61ae73f569b3d688eeeb435ce614", "lat": 38.898904, "fusion_lon": 0.0, "fusion_lat": 0.0, "type": "electric_scooter", "name": "6a1a61ae73f569b3d688eeeb435ce614", "is_disabled": 0, "rental_uris": {"ios": "https://dc.lft.to/lastmile_qr_scan", "android": "https://dc.lft.to/lastmile_qr_scan"}, "is_reserved": 0}, {"lon": -77.04915983333333, "bike_id": "f7ae466667ee96be7839fd638d4921a6", "lat": 38.90852366666667, "fusion_lon": 0.0, "fusion_lat": 0.0, "type": "electric_scooter", "name": "f7ae466667ee96be7839fd638d4921a6", "is_disabled": 0, "rental_uris": {"ios": "https://dc.lft.to/lastmile_qr_scan", "android": "https://dc.lft.to/lastmile_qr_scan"}, "is_reserved": 0}, {"lon": -77.02695216666666, "bike_id": "6fe16ef5dc71391f2174983d8d2eedd7", "lat": 38.908428666666666, "fusion_lon": 0.0, "fusion_lat": 0.0, "type": "electric_scooter", "name": "6fe16ef5dc71391f2174983d8d2eedd7", "is_disabled": 0, "rental_uris": {"ios": "https://dc.lft.to/lastmile_qr_scan", "android": "https://dc.lft.to/lastmile_qr_scan"}, "is_reserved": 0}, {"lon": -76.98840416666667, "bike_id": "7a3a2046f69e7e4499e8e068ebba73b1", "lat": 38.84276416666667, "fusion_lon": 0.0, "fusion_lat": 0.0, "type": "electric_bike", "name": "7a3a2046f69e7e4499e8e068ebba73b1", "is_disabled": 0, "rental_uris": {"ios": "https://dc.lft.to/lastmile_qr_scan", "android": "https://dc.lft.to/lastmile_qr_scan"}, "is_reserved": 0}, {"lon": -76.972371, "bike_id": "3612f0dbf5fd0087568ca427c94dd6bc", "lat": 38.903417166666664, "fusion_lon": 0.0, "fusion_lat": 0.0, "type": "electric_scooter", "name": "3612f0dbf5fd0087568ca427c94dd6bc", "is_disabled": 0, "rental_uris": {"ios": "https://dc.lft.to/lastmile_qr_scan", "android": "https://dc.lft.to/lastmile_qr_scan"}, "is_reserved": 0}, {"lon": -77.04807716666667, "bike_id": "8be7294b6a25d9f044f89cda2052a6f1", "lat": 38.89732933333333, "fusion_lon": 0.0, "fusion_lat": 0.0, "type": "electric_scooter", "name": "8be7294b6a25d9f044f89cda2052a6f1", "is_disabled": 0, "rental_uris": {"ios": "https://dc.lft.to/lastmile_qr_scan", "android": "https://dc.lft.to/lastmile_qr_scan"}, "is_reserved": 0}, {"lon": -77.0759685, "bike_id": "212635debc3dd525f4ec2b9962037c5e", "lat": 38.9122075, "fusion_lon": 0.0, "fusion_lat": 0.0, "type": "electric_scooter", "name": "212635debc3dd525f4ec2b9962037c5e", "is_disabled": 0, "rental_uris": {"ios": "https://dc.lft.to/lastmile_qr_scan", "android": "https://dc.lft.to/lastmile_qr_scan"}, "is_reserved": 0}, {"lon": -77.01994266666667, "bike_id": "ace2c7042c134af87224969bbd61e6ce", "lat": 38.966286333333336, "fusion_lon": 0.0, "fusion_lat": 0.0, "type": "electric_scooter", "name": "ace2c7042c134af87224969bbd61e6ce", "is_disabled": 0, "rental_uris": {"ios": "https://dc.lft.to/lastmile_qr_scan", "android": "https://dc.lft.to/lastmile_qr_scan"}, "is_reserved": 0}, {"lon": -77.03141783333334, "bike_id": "8961e38933e86311ae94f92ae593c0b7", "lat": 38.920146, "fusion_lon": 0.0, "fusion_lat": 0.0, "type": "electric_scooter", "name": "8961e38933e86311ae94f92ae593c0b7", "is_disabled": 0, "rental_uris": {"ios": "https://dc.lft.to/lastmile_qr_scan", "android": "https://dc.lft.to/lastmile_qr_scan"}, "is_reserved": 0}, {"lon": -77.03217966666666, "bike_id": "bfb735a302659467f31d1b7004276dfc", "lat": 38.892234, "fusion_lon": 0.0, "fusion_lat": 0.0, "type": "electric_scooter", "name": "bfb735a302659467f31d1b7004276dfc", "is_disabled": 0, "rental_uris": {"ios": "https://dc.lft.to/lastmile_qr_scan", "android": "https://dc.lft.to/lastmile_qr_scan"}, "is_reserved": 0}, {"lon": -77.02008516666666, "bike_id": "5e6f089d2b7fcd3004cce0bdac86a261", "lat": 38.924107666666664, "fusion_lon": 0.0, "fusion_lat": 0.0, "type": "electric_scooter", "name": "5e6f089d2b7fcd3004cce0bdac86a261", "is_disabled": 0, "rental_uris": {"ios": "https://dc.lft.to/lastmile_qr_scan", "android": "https://dc.lft.to/lastmile_qr_scan"}, "is_reserved": 0}, {"lon": -77.03265033333334, "bike_id": "ffd9a28667a04f3b97d0b56940cdf1e3", "lat": 38.901355333333335, "fusion_lon": 0.0, "fusion_lat": 0.0, "type": "electric_scooter", "name": "ffd9a28667a04f3b97d0b56940cdf1e3", "is_disabled": 0, "rental_uris": {"ios": "https://dc.lft.to/lastmile_qr_scan", "android": "https://dc.lft.to/lastmile_qr_scan"}, "is_reserved": 0}, {"lon": -77.057411, "bike_id": "bb8d59da6f58d85997f8ba1fc7660fa4", "lat": 38.93354316666667, "fusion_lon": 0.0, "fusion_lat": 0.0, "type": "electric_scooter", "name": "bb8d59da6f58d85997f8ba1fc7660fa4", "is_disabled": 0, "rental_uris": {"ios": "https://dc.lft.to/lastmile_qr_scan", "android": "https://dc.lft.to/lastmile_qr_scan"}, "is_reserved": 0}, {"lon": -77.07965716666666, "bike_id": "cfa71a45f5aed3cf7d34d98730f9c683", "lat": 38.85721316666667, "fusion_lon": 0.0, "fusion_lat": 0.0, "type": "electric_bike", "name": "cfa71a45f5aed3cf7d34d98730f9c683", "is_disabled": 0, "rental_uris": {"ios": "https://dc.lft.to/lastmile_qr_scan", "android": "https://dc.lft.to/lastmile_qr_scan"}, "is_reserved": 0}, {"lon": -77.03112116666667, "bike_id": "293814f8b4b7a300215e938a2f26bb96", "lat": 38.9155495, "fusion_lon": 0.0, "fusion_lat": 0.0, "type": "electric_scooter", "name": "293814f8b4b7a300215e938a2f26bb96", "is_disabled": 0, "rental_uris": {"ios": "https://dc.lft.to/lastmile_qr_scan", "android": "https://dc.lft.to/lastmile_qr_scan"}, "is_reserved": 0}, {"lon": -77.03447633333333, "bike_id": "df346a9aac01ad358711d05a65f2f317", "lat": 38.909747333333335, "fusion_lon": 0.0, "fusion_lat": 0.0, "type": "electric_scooter", "name": "df346a9aac01ad358711d05a65f2f317", "is_disabled": 0, "rental_uris": {"ios": "https://dc.lft.to/lastmile_qr_scan", "android": "https://dc.lft.to/lastmile_qr_scan"}, "is_reserved": 0}, {"lon": -77.0416415, "bike_id": "56475e5b966b88ececdc4d1279caa90d", "lat": 38.9199265, "fusion_lon": 0.0, "fusion_lat": 0.0, "type": "electric_scooter", "name": "56475e5b966b88ececdc4d1279caa90d", "is_disabled": 0, "rental_uris": {"ios": "https://dc.lft.to/lastmile_qr_scan", "android": "https://dc.lft.to/lastmile_qr_scan"}, "is_reserved": 0}, {"lon": -76.9801935, "bike_id": "40677e98ad351bc1e984000deaa26ea1", "lat": 38.853197, "fusion_lon": 0.0, "fusion_lat": 0.0, "type": "electric_bike", "name": "40677e98ad351bc1e984000deaa26ea1", "is_disabled": 0, "rental_uris": {"ios": "https://dc.lft.to/lastmile_qr_scan", "android": "https://dc.lft.to/lastmile_qr_scan"}, "is_reserved": 0}, {"lon": -76.98984816666666, "bike_id": "bd3b954c30f5c5489f5c91c4cf25b1d1", "lat": 38.933587333333335, "fusion_lon": 0.0, "fusion_lat": 0.0, "type": "electric_scooter", "name": "bd3b954c30f5c5489f5c91c4cf25b1d1", "is_disabled": 0, "rental_uris": {"ios": "https://dc.lft.to/lastmile_qr_scan", "android": "https://dc.lft.to/lastmile_qr_scan"}, "is_reserved": 0}, {"lon": -76.990277, "bike_id": "062ccbd7ed55fda49622480aebd4bd9d", "lat": 38.88874033333333, "fusion_lon": 0.0, "fusion_lat": 0.0, "type": "electric_scooter", "name": "062ccbd7ed55fda49622480aebd4bd9d", "is_disabled": 0, "rental_uris": {"ios": "https://dc.lft.to/lastmile_qr_scan", "android": "https://dc.lft.to/lastmile_qr_scan"}, "is_reserved": 0}, {"lon": -77.0321165, "bike_id": "032229d69d0e7e86b437f25c06c62d7c", "lat": 38.91473716666667, "fusion_lon": 0.0, "fusion_lat": 0.0, "type": "electric_scooter", "name": "032229d69d0e7e86b437f25c06c62d7c", "is_disabled": 0, "rental_uris": {"ios": "https://dc.lft.to/lastmile_qr_scan", "android": "https://dc.lft.to/lastmile_qr_scan"}, "is_reserved": 0}, {"lon": -77.041413, "bike_id": "b56b5fbc8f21c76290447ac8985db7ae", "lat": 38.91970233333333, "fusion_lon": 0.0, "fusion_lat": 0.0, "type": "electric_scooter", "name": "b56b5fbc8f21c76290447ac8985db7ae", "is_disabled": 0, "rental_uris": {"ios": "https://dc.lft.to/lastmile_qr_scan", "android": "https://dc.lft.to/lastmile_qr_scan"}, "is_reserved": 0}, {"lon": -76.94881783333334, "bike_id": "1f34d5ff9cc10f595e3ad7abc41e4e5a", "lat": 38.89509116666667, "fusion_lon": 0.0, "fusion_lat": 0.0, "type": "electric_scooter", "name": "1f34d5ff9cc10f595e3ad7abc41e4e5a", "is_disabled": 0, "rental_uris": {"ios": "https://dc.lft.to/lastmile_qr_scan", "android": "https://dc.lft.to/lastmile_qr_scan"}, "is_reserved": 0}, {"lon": -76.99519216666667, "bike_id": "496a72be6c42391d8ce0b1b65589f941", "lat": 38.86261066666667, "fusion_lon": 0.0, "fusion_lat": 0.0, "type": "electric_scooter", "name": "496a72be6c42391d8ce0b1b65589f941", "is_disabled": 0, "rental_uris": {"ios": "https://dc.lft.to/lastmile_qr_scan", "android": "https://dc.lft.to/lastmile_qr_scan"}, "is_reserved": 0}, {"lon": -77.018991, "bike_id": "65bf4605a9c62592943830fda04a98f7", "lat": 39.011763333333334, "fusion_lon": 0.0, "fusion_lat": 0.0, "type": "electric_bike", "name": "65bf4605a9c62592943830fda04a98f7", "is_disabled": 0, "rental_uris": {"ios": "https://dc.lft.to/lastmile_qr_scan", "android": "https://dc.lft.to/lastmile_qr_scan"}, "is_reserved": 0}, {"lon": -77.0321775, "bike_id": "69cbfac8b0e15f18954e766ae34e1cc5", "lat": 38.919958666666666, "fusion_lon": 0.0, "fusion_lat": 0.0, "type": "electric_scooter", "name": "69cbfac8b0e15f18954e766ae34e1cc5", "is_disabled": 0, "rental_uris": {"ios": "https://dc.lft.to/lastmile_qr_scan", "android": "https://dc.lft.to/lastmile_qr_scan"}, "is_reserved": 0}, {"lon": -77.009565, "bike_id": "e68c9a40b7b4b23b36b7df48bda2bef9", "lat": 38.92136516666667, "fusion_lon": 0.0, "fusion_lat": 0.0, "type": "electric_scooter", "name": "e68c9a40b7b4b23b36b7df48bda2bef9", "is_disabled": 0, "rental_uris": {"ios": "https://dc.lft.to/lastmile_qr_scan", "android": "https://dc.lft.to/lastmile_qr_scan"}, "is_reserved": 0}, {"lon": -77.02981033333333, "bike_id": "15999459f39bdbbb5dd2421b9c39e756", "lat": 38.90699433333333, "fusion_lon": 0.0, "fusion_lat": 0.0, "type": "electric_scooter", "name": "15999459f39bdbbb5dd2421b9c39e756", "is_disabled": 0, "rental_uris": {"ios": "https://dc.lft.to/lastmile_qr_scan", "android": "https://dc.lft.to/lastmile_qr_scan"}, "is_reserved": 0}, {"lon": -76.9824715, "bike_id": "dc406caacec33d682eaca845e6500768", "lat": 38.864580833333335, "fusion_lon": 0.0, "fusion_lat": 0.0, "type": "electric_scooter", "name": "dc406caacec33d682eaca845e6500768", "is_disabled": 0, "rental_uris": {"ios": "https://dc.lft.to/lastmile_qr_scan", "android": "https://dc.lft.to/lastmile_qr_scan"}, "is_reserved": 0}, {"lon": -77.00356833333333, "bike_id": "77b76ed0c7de557a53eb7fc5f2ebfbf6", "lat": 38.895377333333336, "fusion_lon": 0.0, "fusion_lat": 0.0, "type": "electric_scooter", "name": "77b76ed0c7de557a53eb7fc5f2ebfbf6", "is_disabled": 0, "rental_uris": {"ios": "https://dc.lft.to/lastmile_qr_scan", "android": "https://dc.lft.to/lastmile_qr_scan"}, "is_reserved": 0}, {"lon": -76.99785116666666, "bike_id": "0526a88bc4d56a72bac56220facbca97", "lat": 38.890877333333336, "fusion_lon": 0.0, "fusion_lat": 0.0, "type": "electric_scooter", "name": "0526a88bc4d56a72bac56220facbca97", "is_disabled": 0, "rental_uris": {"ios": "https://dc.lft.to/lastmile_qr_scan", "android": "https://dc.lft.to/lastmile_qr_scan"}, "is_reserved": 0}, {"lon": -77.00797033333333, "bike_id": "557234242139ee15b8fe4235d87a333b", "lat": 38.89717066666667, "fusion_lon": 0.0, "fusion_lat": 0.0, "type": "electric_scooter", "name": "557234242139ee15b8fe4235d87a333b", "is_disabled": 0, "rental_uris": {"ios": "https://dc.lft.to/lastmile_qr_scan", "android": "https://dc.lft.to/lastmile_qr_scan"}, "is_reserved": 0}, {"lon": -76.98104583333334, "bike_id": "765e91517fd00f58b4fc67d36f8e08f1", "lat": 38.877310333333334, "fusion_lon": 0.0, "fusion_lat": 0.0, "type": "electric_bike", "name": "765e91517fd00f58b4fc67d36f8e08f1", "is_disabled": 0, "rental_uris": {"ios": "https://dc.lft.to/lastmile_qr_scan", "android": "https://dc.lft.to/lastmile_qr_scan"}, "is_reserved": 0}, {"lon": -77.024436, "bike_id": "a490646cffece3b64fc9fcc58b58fb89", "lat": 38.90257316666667, "fusion_lon": 0.0, "fusion_lat": 0.0, "type": "electric_scooter", "name": "a490646cffece3b64fc9fcc58b58fb89", "is_disabled": 0, "rental_uris": {"ios": "https://dc.lft.to/lastmile_qr_scan", "android": "https://dc.lft.to/lastmile_qr_scan"}, "is_reserved": 0}, {"lon": -76.99924716666666, "bike_id": "4b38effe13cc2ba4542512cf6533b9a7", "lat": 38.8897665, "fusion_lon": 0.0, "fusion_lat": 0.0, "type": "electric_scooter", "name": "4b38effe13cc2ba4542512cf6533b9a7", "is_disabled": 0, "rental_uris": {"ios": "https://dc.lft.to/lastmile_qr_scan", "android": "https://dc.lft.to/lastmile_qr_scan"}, "is_reserved": 0}, {"lon": -77.02935133333334, "bike_id": "b7b37619c1bc5c1c5b94e64409ef0972", "lat": 38.920809, "fusion_lon": 0.0, "fusion_lat": 0.0, "type": "electric_scooter", "name": "b7b37619c1bc5c1c5b94e64409ef0972", "is_disabled": 0, "rental_uris": {"ios": "https://dc.lft.to/lastmile_qr_scan", "android": "https://dc.lft.to/lastmile_qr_scan"}, "is_reserved": 0}, {"lon": -77.03663183333333, "bike_id": "08352870f054f4cae052da955c9ac793", "lat": 38.9333955, "fusion_lon": 0.0, "fusion_lat": 0.0, "type": "electric_scooter", "name": "08352870f054f4cae052da955c9ac793", "is_disabled": 0, "rental_uris": {"ios": "https://dc.lft.to/lastmile_qr_scan", "android": "https://dc.lft.to/lastmile_qr_scan"}, "is_reserved": 0}, {"lon": -77.03318183333333, "bike_id": "2ad06ccb46724355ebe5c5ed2e9bf0b3", "lat": 38.92650866666666, "fusion_lon": 0.0, "fusion_lat": 0.0, "type": "electric_scooter", "name": "2ad06ccb46724355ebe5c5ed2e9bf0b3", "is_disabled": 0, "rental_uris": {"ios": "https://dc.lft.to/lastmile_qr_scan", "android": "https://dc.lft.to/lastmile_qr_scan"}, "is_reserved": 0}, {"lon": -77.0319005, "bike_id": "e63f30475f659b108c2305889f5fddb0", "lat": 38.90802333333333, "fusion_lon": 0.0, "fusion_lat": 0.0, "type": "electric_scooter", "name": "e63f30475f659b108c2305889f5fddb0", "is_disabled": 0, "rental_uris": {"ios": "https://dc.lft.to/lastmile_qr_scan", "android": "https://dc.lft.to/lastmile_qr_scan"}, "is_reserved": 0}, {"lon": -77.0007085, "bike_id": "f06d4d8bb7b212d8fe1225ea5d709392", "lat": 38.90141533333333, "fusion_lon": 0.0, "fusion_lat": 0.0, "type": "electric_scooter", "name": "f06d4d8bb7b212d8fe1225ea5d709392", "is_disabled": 0, "rental_uris": {"ios": "https://dc.lft.to/lastmile_qr_scan", "android": "https://dc.lft.to/lastmile_qr_scan"}, "is_reserved": 0}, {"lon": -77.03520766666666, "bike_id": "539e7da826501609e8912db343bea9de", "lat": 38.9159625, "fusion_lon": 0.0, "fusion_lat": 0.0, "type": "electric_scooter", "name": "539e7da826501609e8912db343bea9de", "is_disabled": 0, "rental_uris": {"ios": "https://dc.lft.to/lastmile_qr_scan", "android": "https://dc.lft.to/lastmile_qr_scan"}, "is_reserved": 0}, {"lon": -77.0333465, "bike_id": "9a49f6c409bec01e8222a2f1b72c42ba", "lat": 38.93896266666667, "fusion_lon": 0.0, "fusion_lat": 0.0, "type": "electric_scooter", "name": "9a49f6c409bec01e8222a2f1b72c42ba", "is_disabled": 0, "rental_uris": {"ios": "https://dc.lft.to/lastmile_qr_scan", "android": "https://dc.lft.to/lastmile_qr_scan"}, "is_reserved": 0}, {"lon": -77.03260033333333, "bike_id": "63f199719a7508c7c129fa88ab8f82cb", "lat": 38.93900683333333, "fusion_lon": 0.0, "fusion_lat": 0.0, "type": "electric_scooter", "name": "63f199719a7508c7c129fa88ab8f82cb", "is_disabled": 0, "rental_uris": {"ios": "https://dc.lft.to/lastmile_qr_scan", "android": "https://dc.lft.to/lastmile_qr_scan"}, "is_reserved": 0}, {"lon": -77.037956, "bike_id": "d7d6c7e697931709ab7ad445599a3cec", "lat": 38.9219035, "fusion_lon": 0.0, "fusion_lat": 0.0, "type": "electric_bike", "name": "d7d6c7e697931709ab7ad445599a3cec", "is_disabled": 0, "rental_uris": {"ios": "https://dc.lft.to/lastmile_qr_scan", "android": "https://dc.lft.to/lastmile_qr_scan"}, "is_reserved": 0}, {"lon": -77.041302, "bike_id": "af904ad92f15180e620db24415722458", "lat": 38.921269, "fusion_lon": 0.0, "fusion_lat": 0.0, "type": "electric_scooter", "name": "af904ad92f15180e620db24415722458", "is_disabled": 0, "rental_uris": {"ios": "https://dc.lft.to/lastmile_qr_scan", "android": "https://dc.lft.to/lastmile_qr_scan"}, "is_reserved": 0}, {"lon": -77.03260583333333, "bike_id": "55608667ad6b8ff23383d087b0156d36", "lat": 38.909603833333335, "fusion_lon": 0.0, "fusion_lat": 0.0, "type": "electric_scooter", "name": "55608667ad6b8ff23383d087b0156d36", "is_disabled": 0, "rental_uris": {"ios": "https://dc.lft.to/lastmile_qr_scan", "android": "https://dc.lft.to/lastmile_qr_scan"}, "is_reserved": 0}, {"lon": -77.03294816666667, "bike_id": "fe166923cccd7c6c84deb1a3210535c0", "lat": 38.9096435, "fusion_lon": 0.0, "fusion_lat": 0.0, "type": "electric_scooter", "name": "fe166923cccd7c6c84deb1a3210535c0", "is_disabled": 0, "rental_uris": {"ios": "https://dc.lft.to/lastmile_qr_scan", "android": "https://dc.lft.to/lastmile_qr_scan"}, "is_reserved": 0}, {"lon": -77.03406133333333, "bike_id": "6da5ef878ef22b7520f412a331e8daee", "lat": 38.90549033333333, "fusion_lon": 0.0, "fusion_lat": 0.0, "type": "electric_scooter", "name": "6da5ef878ef22b7520f412a331e8daee", "is_disabled": 0, "rental_uris": {"ios": "https://dc.lft.to/lastmile_qr_scan", "android": "https://dc.lft.to/lastmile_qr_scan"}, "is_reserved": 0}, {"lon": -77.04349966666666, "bike_id": "935f4084f43501c8d8815c4609aa5622", "lat": 38.910531166666665, "fusion_lon": 0.0, "fusion_lat": 0.0, "type": "electric_scooter", "name": "935f4084f43501c8d8815c4609aa5622", "is_disabled": 0, "rental_uris": {"ios": "https://dc.lft.to/lastmile_qr_scan", "android": "https://dc.lft.to/lastmile_qr_scan"}, "is_reserved": 0}, {"lon": -76.99925916666666, "bike_id": "064cabfe6a0808fe1892953060a6834f", "lat": 38.84316366666667, "fusion_lon": 0.0, "fusion_lat": 0.0, "type": "electric_scooter", "name": "064cabfe6a0808fe1892953060a6834f", "is_disabled": 0, "rental_uris": {"ios": "https://dc.lft.to/lastmile_qr_scan", "android": "https://dc.lft.to/lastmile_qr_scan"}, "is_reserved": 0}, {"lon": -77.03207916666666, "bike_id": "c4a4435003ca9930b2758bcde933004f", "lat": 38.89242816666667, "fusion_lon": 0.0, "fusion_lat": 0.0, "type": "electric_scooter", "name": "c4a4435003ca9930b2758bcde933004f", "is_disabled": 0, "rental_uris": {"ios": "https://dc.lft.to/lastmile_qr_scan", "android": "https://dc.lft.to/lastmile_qr_scan"}, "is_reserved": 0}, {"lon": -77.03199366666666, "bike_id": "51376754e25aef8afbc692e007c2e4cd", "lat": 38.91354666666667, "fusion_lon": 0.0, "fusion_lat": 0.0, "type": "electric_scooter", "name": "51376754e25aef8afbc692e007c2e4cd", "is_disabled": 0, "rental_uris": {"ios": "https://dc.lft.to/lastmile_qr_scan", "android": "https://dc.lft.to/lastmile_qr_scan"}, "is_reserved": 0}, {"lon": -77.0268025, "bike_id": "000e963dffbd3a615ec6465d09cc6113", "lat": 38.909609833333334, "fusion_lon": 0.0, "fusion_lat": 0.0, "type": "electric_scooter", "name": "000e963dffbd3a615ec6465d09cc6113", "is_disabled": 0, "rental_uris": {"ios": "https://dc.lft.to/lastmile_qr_scan", "android": "https://dc.lft.to/lastmile_qr_scan"}, "is_reserved": 0}, {"lon": -77.03116766666666, "bike_id": "46c247f704905892444fd1c557c742c4", "lat": 38.9125935, "fusion_lon": 0.0, "fusion_lat": 0.0, "type": "electric_scooter", "name": "46c247f704905892444fd1c557c742c4", "is_disabled": 0, "rental_uris": {"ios": "https://dc.lft.to/lastmile_qr_scan", "android": "https://dc.lft.to/lastmile_qr_scan"}, "is_reserved": 0}, {"lon": -76.99028183333333, "bike_id": "d5e387060ab0cf99b6a29b5c1b888003", "lat": 38.864010666666665, "fusion_lon": 0.0, "fusion_lat": 0.0, "type": "electric_scooter", "name": "d5e387060ab0cf99b6a29b5c1b888003", "is_disabled": 0, "rental_uris": {"ios": "https://dc.lft.to/lastmile_qr_scan", "android": "https://dc.lft.to/lastmile_qr_scan"}, "is_reserved": 0}, {"lon": -76.99069733333333, "bike_id": "d4bacc25a08ad84e2910906f31c5c686", "lat": 38.9274585, "fusion_lon": 0.0, "fusion_lat": 0.0, "type": "electric_scooter", "name": "d4bacc25a08ad84e2910906f31c5c686", "is_disabled": 0, "rental_uris": {"ios": "https://dc.lft.to/lastmile_qr_scan", "android": "https://dc.lft.to/lastmile_qr_scan"}, "is_reserved": 0}, {"lon": -77.00803633333334, "bike_id": "7af9633d5c30f2ed80283eaccdecdfac", "lat": 38.87771766666667, "fusion_lon": 0.0, "fusion_lat": 0.0, "type": "electric_scooter", "name": "7af9633d5c30f2ed80283eaccdecdfac", "is_disabled": 0, "rental_uris": {"ios": "https://dc.lft.to/lastmile_qr_scan", "android": "https://dc.lft.to/lastmile_qr_scan"}, "is_reserved": 0}, {"lon": -77.115908, "bike_id": "aaa94f2cc89d68624cddb37184ae009c", "lat": 39.074964333333334, "fusion_lon": 0.0, "fusion_lat": 0.0, "type": "electric_bike", "name": "aaa94f2cc89d68624cddb37184ae009c", "is_disabled": 0, "rental_uris": {"ios": "https://dc.lft.to/lastmile_qr_scan", "android": "https://dc.lft.to/lastmile_qr_scan"}, "is_reserved": 0}, {"lon": -77.063007, "bike_id": "5c368220c4a4c84eb0e90712edb1f61c", "lat": 38.90604316666666, "fusion_lon": 0.0, "fusion_lat": 0.0, "type": "electric_scooter", "name": "5c368220c4a4c84eb0e90712edb1f61c", "is_disabled": 0, "rental_uris": {"ios": "https://dc.lft.to/lastmile_qr_scan", "android": "https://dc.lft.to/lastmile_qr_scan"}, "is_reserved": 0}, {"lon": -77.02980933333333, "bike_id": "ba02176bc78a680a2e4bb45ea8e5fea9", "lat": 38.916342666666665, "fusion_lon": 0.0, "fusion_lat": 0.0, "type": "electric_scooter", "name": "ba02176bc78a680a2e4bb45ea8e5fea9", "is_disabled": 0, "rental_uris": {"ios": "https://dc.lft.to/lastmile_qr_scan", "android": "https://dc.lft.to/lastmile_qr_scan"}, "is_reserved": 0}, {"lon": -76.96910016666666, "bike_id": "6002a72fedf93f3eb5b9ee7d6dd40619", "lat": 38.84610333333333, "fusion_lon": 0.0, "fusion_lat": 0.0, "type": "electric_bike", "name": "6002a72fedf93f3eb5b9ee7d6dd40619", "is_disabled": 0, "rental_uris": {"ios": "https://dc.lft.to/lastmile_qr_scan", "android": "https://dc.lft.to/lastmile_qr_scan"}, "is_reserved": 0}, {"lon": -77.040402, "bike_id": "30224fe885fbc2b7aa61c687bf3356b8", "lat": 38.92565333333334, "fusion_lon": 0.0, "fusion_lat": 0.0, "type": "electric_scooter", "name": "30224fe885fbc2b7aa61c687bf3356b8", "is_disabled": 0, "rental_uris": {"ios": "https://dc.lft.to/lastmile_qr_scan", "android": "https://dc.lft.to/lastmile_qr_scan"}, "is_reserved": 0}, {"lon": -76.94883716666666, "bike_id": "59f47056494471098cf00bec3b158ab8", "lat": 38.8950905, "fusion_lon": 0.0, "fusion_lat": 0.0, "type": "electric_scooter", "name": "59f47056494471098cf00bec3b158ab8", "is_disabled": 0, "rental_uris": {"ios": "https://dc.lft.to/lastmile_qr_scan", "android": "https://dc.lft.to/lastmile_qr_scan"}, "is_reserved": 0}, {"lon": -77.03197216666666, "bike_id": "ab6f282b124415626faf2a61874ac533", "lat": 38.91273866666667, "fusion_lon": 0.0, "fusion_lat": 0.0, "type": "electric_scooter", "name": "ab6f282b124415626faf2a61874ac533", "is_disabled": 0, "rental_uris": {"ios": "https://dc.lft.to/lastmile_qr_scan", "android": "https://dc.lft.to/lastmile_qr_scan"}, "is_reserved": 0}, {"lon": -77.034062, "bike_id": "8e8e4e4e9a8ff40724bb462cd4c0ce5c", "lat": 38.934227166666666, "fusion_lon": 0.0, "fusion_lat": 0.0, "type": "electric_scooter", "name": "8e8e4e4e9a8ff40724bb462cd4c0ce5c", "is_disabled": 0, "rental_uris": {"ios": "https://dc.lft.to/lastmile_qr_scan", "android": "https://dc.lft.to/lastmile_qr_scan"}, "is_reserved": 0}, {"lon": -77.03652833333334, "bike_id": "fa52b1133ce837ed0f9c0e7f1be91d22", "lat": 38.90462133333333, "fusion_lon": 0.0, "fusion_lat": 0.0, "type": "electric_scooter", "name": "fa52b1133ce837ed0f9c0e7f1be91d22", "is_disabled": 0, "rental_uris": {"ios": "https://dc.lft.to/lastmile_qr_scan", "android": "https://dc.lft.to/lastmile_qr_scan"}, "is_reserved": 0}, {"lon": -77.06915966666666, "bike_id": "04abcd21d9a3bf2096a43da1aeb48fff", "lat": 38.955589333333336, "fusion_lon": 0.0, "fusion_lat": 0.0, "type": "electric_bike", "name": "04abcd21d9a3bf2096a43da1aeb48fff", "is_disabled": 0, "rental_uris": {"ios": "https://dc.lft.to/lastmile_qr_scan", "android": "https://dc.lft.to/lastmile_qr_scan"}, "is_reserved": 0}, {"lon": -77.04639816666666, "bike_id": "bd3490a1010843153fa21c5799681e2f", "lat": 38.921111, "fusion_lon": 0.0, "fusion_lat": 0.0, "type": "electric_scooter", "name": "bd3490a1010843153fa21c5799681e2f", "is_disabled": 0, "rental_uris": {"ios": "https://dc.lft.to/lastmile_qr_scan", "android": "https://dc.lft.to/lastmile_qr_scan"}, "is_reserved": 0}, {"lon": -77.03670816666667, "bike_id": "8d711b9cf6ded67110e3350164a85720", "lat": 38.93648066666667, "fusion_lon": 0.0, "fusion_lat": 0.0, "type": "electric_bike", "name": "8d711b9cf6ded67110e3350164a85720", "is_disabled": 0, "rental_uris": {"ios": "https://dc.lft.to/lastmile_qr_scan", "android": "https://dc.lft.to/lastmile_qr_scan"}, "is_reserved": 0}, {"lon": -77.04121883333333, "bike_id": "6a247ed0850410ab2c2001d1677edf1a", "lat": 38.9230165, "fusion_lon": 0.0, "fusion_lat": 0.0, "type": "electric_scooter", "name": "6a247ed0850410ab2c2001d1677edf1a", "is_disabled": 0, "rental_uris": {"ios": "https://dc.lft.to/lastmile_qr_scan", "android": "https://dc.lft.to/lastmile_qr_scan"}, "is_reserved": 0}, {"lon": -77.059043, "bike_id": "21112edb4c1d67d705efea1065810940", "lat": 38.93628783333333, "fusion_lon": 0.0, "fusion_lat": 0.0, "type": "electric_scooter", "name": "21112edb4c1d67d705efea1065810940", "is_disabled": 0, "rental_uris": {"ios": "https://dc.lft.to/lastmile_qr_scan", "android": "https://dc.lft.to/lastmile_qr_scan"}, "is_reserved": 0}, {"lon": -77.03475016666667, "bike_id": "1c55ff374b6e3e508057e30c2fed4d58", "lat": 38.907267166666664, "fusion_lon": 0.0, "fusion_lat": 0.0, "type": "electric_scooter", "name": "1c55ff374b6e3e508057e30c2fed4d58", "is_disabled": 0, "rental_uris": {"ios": "https://dc.lft.to/lastmile_qr_scan", "android": "https://dc.lft.to/lastmile_qr_scan"}, "is_reserved": 0}, {"lon": -77.041542, "bike_id": "3080abfaf95ef50b0a6a1395dc66642c", "lat": 38.91815966666667, "fusion_lon": 0.0, "fusion_lat": 0.0, "type": "electric_scooter", "name": "3080abfaf95ef50b0a6a1395dc66642c", "is_disabled": 0, "rental_uris": {"ios": "https://dc.lft.to/lastmile_qr_scan", "android": "https://dc.lft.to/lastmile_qr_scan"}, "is_reserved": 0}, {"lon": -76.9996925, "bike_id": "46986614782d97140ee3d2de5000d7dd", "lat": 38.908441333333336, "fusion_lon": 0.0, "fusion_lat": 0.0, "type": "electric_scooter", "name": "46986614782d97140ee3d2de5000d7dd", "is_disabled": 0, "rental_uris": {"ios": "https://dc.lft.to/lastmile_qr_scan", "android": "https://dc.lft.to/lastmile_qr_scan"}, "is_reserved": 0}, {"lon": -77.06100766666667, "bike_id": "b0e4eba8cf9861ac3b9c4bcb0527c91d", "lat": 38.937060333333335, "fusion_lon": 0.0, "fusion_lat": 0.0, "type": "electric_scooter", "name": "b0e4eba8cf9861ac3b9c4bcb0527c91d", "is_disabled": 0, "rental_uris": {"ios": "https://dc.lft.to/lastmile_qr_scan", "android": "https://dc.lft.to/lastmile_qr_scan"}, "is_reserved": 0}, {"lon": -77.02965383333333, "bike_id": "10bace0f060260c22c87263f697d5d6d", "lat": 38.906987666666666, "fusion_lon": 0.0, "fusion_lat": 0.0, "type": "electric_scooter", "name": "10bace0f060260c22c87263f697d5d6d", "is_disabled": 0, "rental_uris": {"ios": "https://dc.lft.to/lastmile_qr_scan", "android": "https://dc.lft.to/lastmile_qr_scan"}, "is_reserved": 0}, {"lon": -77.04265583333333, "bike_id": "62956517b855290399eef6ae50b224df", "lat": 38.9001715, "fusion_lon": 0.0, "fusion_lat": 0.0, "type": "electric_scooter", "name": "62956517b855290399eef6ae50b224df", "is_disabled": 0, "rental_uris": {"ios": "https://dc.lft.to/lastmile_qr_scan", "android": "https://dc.lft.to/lastmile_qr_scan"}, "is_reserved": 0}, {"lon": -77.02961216666667, "bike_id": "12bc92ee61d7d5db9e44f0dbdf2e694d", "lat": 38.9167225, "fusion_lon": 0.0, "fusion_lat": 0.0, "type": "electric_scooter", "name": "12bc92ee61d7d5db9e44f0dbdf2e694d", "is_disabled": 0, "rental_uris": {"ios": "https://dc.lft.to/lastmile_qr_scan", "android": "https://dc.lft.to/lastmile_qr_scan"}, "is_reserved": 0}, {"lon": -77.02513166666667, "bike_id": "a91fd9127423ea8adfe20e9013ccff7a", "lat": 38.930944833333335, "fusion_lon": 0.0, "fusion_lat": 0.0, "type": "electric_scooter", "name": "a91fd9127423ea8adfe20e9013ccff7a", "is_disabled": 0, "rental_uris": {"ios": "https://dc.lft.to/lastmile_qr_scan", "android": "https://dc.lft.to/lastmile_qr_scan"}, "is_reserved": 0}, {"lon": -76.9317265, "bike_id": "58aaf065cf2eaac196ff4e0b59d5d13a", "lat": 38.90371483333333, "fusion_lon": 0.0, "fusion_lat": 0.0, "type": "electric_scooter", "name": "58aaf065cf2eaac196ff4e0b59d5d13a", "is_disabled": 0, "rental_uris": {"ios": "https://dc.lft.to/lastmile_qr_scan", "android": "https://dc.lft.to/lastmile_qr_scan"}, "is_reserved": 0}, {"lon": -76.93359833333334, "bike_id": "c647fa4794ccff77c4db353ba6f3a0d9", "lat": 38.88796633333333, "fusion_lon": 0.0, "fusion_lat": 0.0, "type": "electric_scooter", "name": "c647fa4794ccff77c4db353ba6f3a0d9", "is_disabled": 0, "rental_uris": {"ios": "https://dc.lft.to/lastmile_qr_scan", "android": "https://dc.lft.to/lastmile_qr_scan"}, "is_reserved": 0}, {"lon": -77.00998983333334, "bike_id": "49106ab1737d31b353f0ec2fde453d04", "lat": 38.919228833333335, "fusion_lon": 0.0, "fusion_lat": 0.0, "type": "electric_scooter", "name": "49106ab1737d31b353f0ec2fde453d04", "is_disabled": 0, "rental_uris": {"ios": "https://dc.lft.to/lastmile_qr_scan", "android": "https://dc.lft.to/lastmile_qr_scan"}, "is_reserved": 0}, {"lon": -77.0480475, "bike_id": "7dbbc81d047a6821f2e1e20ebacfb1c7", "lat": 38.9094515, "fusion_lon": 0.0, "fusion_lat": 0.0, "type": "electric_scooter", "name": "7dbbc81d047a6821f2e1e20ebacfb1c7", "is_disabled": 0, "rental_uris": {"ios": "https://dc.lft.to/lastmile_qr_scan", "android": "https://dc.lft.to/lastmile_qr_scan"}, "is_reserved": 0}, {"lon": -77.027095, "bike_id": "09f7a85aaa8f65e25d146f073ca780c3", "lat": 38.8975305, "fusion_lon": 0.0, "fusion_lat": 0.0, "type": "electric_scooter", "name": "09f7a85aaa8f65e25d146f073ca780c3", "is_disabled": 0, "rental_uris": {"ios": "https://dc.lft.to/lastmile_qr_scan", "android": "https://dc.lft.to/lastmile_qr_scan"}, "is_reserved": 0}, {"lon": -77.02218133333334, "bike_id": "0999ed9e369592a8603b574aa7dba768", "lat": 38.905719166666664, "fusion_lon": 0.0, "fusion_lat": 0.0, "type": "electric_scooter", "name": "0999ed9e369592a8603b574aa7dba768", "is_disabled": 0, "rental_uris": {"ios": "https://dc.lft.to/lastmile_qr_scan", "android": "https://dc.lft.to/lastmile_qr_scan"}, "is_reserved": 0}, {"lon": -77.025728, "bike_id": "91a2d28d73b96b4a26cbce1d9bc3da7c", "lat": 38.8807435, "fusion_lon": 0.0, "fusion_lat": 0.0, "type": "electric_scooter", "name": "91a2d28d73b96b4a26cbce1d9bc3da7c", "is_disabled": 0, "rental_uris": {"ios": "https://dc.lft.to/lastmile_qr_scan", "android": "https://dc.lft.to/lastmile_qr_scan"}, "is_reserved": 0}, {"lon": -77.044786, "bike_id": "06599b2acead0dedde2f55c0790bd115", "lat": 38.919365, "fusion_lon": 0.0, "fusion_lat": 0.0, "type": "electric_scooter", "name": "06599b2acead0dedde2f55c0790bd115", "is_disabled": 0, "rental_uris": {"ios": "https://dc.lft.to/lastmile_qr_scan", "android": "https://dc.lft.to/lastmile_qr_scan"}, "is_reserved": 0}, {"lon": -77.0331735, "bike_id": "1e84568de1152c3681ad8c8785d83ead", "lat": 38.921612, "fusion_lon": 0.0, "fusion_lat": 0.0, "type": "electric_scooter", "name": "1e84568de1152c3681ad8c8785d83ead", "is_disabled": 0, "rental_uris": {"ios": "https://dc.lft.to/lastmile_qr_scan", "android": "https://dc.lft.to/lastmile_qr_scan"}, "is_reserved": 0}, {"lon": -76.99365633333333, "bike_id": "e2d36bcae3ee9fc4060de08680428108", "lat": 38.89388483333333, "fusion_lon": 0.0, "fusion_lat": 0.0, "type": "electric_scooter", "name": "e2d36bcae3ee9fc4060de08680428108", "is_disabled": 0, "rental_uris": {"ios": "https://dc.lft.to/lastmile_qr_scan", "android": "https://dc.lft.to/lastmile_qr_scan"}, "is_reserved": 0}, {"lon": -77.0455525, "bike_id": "1fd97ca589187e8a3bc8e09a3d306090", "lat": 38.91315933333333, "fusion_lon": 0.0, "fusion_lat": 0.0, "type": "electric_scooter", "name": "1fd97ca589187e8a3bc8e09a3d306090", "is_disabled": 0, "rental_uris": {"ios": "https://dc.lft.to/lastmile_qr_scan", "android": "https://dc.lft.to/lastmile_qr_scan"}, "is_reserved": 0}, {"lon": -76.94119933333333, "bike_id": "e34bccbb965d1ac1e31747716ee9c517", "lat": 38.90831266666667, "fusion_lon": 0.0, "fusion_lat": 0.0, "type": "electric_scooter", "name": "e34bccbb965d1ac1e31747716ee9c517", "is_disabled": 0, "rental_uris": {"ios": "https://dc.lft.to/lastmile_qr_scan", "android": "https://dc.lft.to/lastmile_qr_scan"}, "is_reserved": 0}, {"lon": -77.01788616666667, "bike_id": "7606c2ccdfe8d69d49e8887cfdf9ca78", "lat": 38.94113816666667, "fusion_lon": 0.0, "fusion_lat": 0.0, "type": "electric_scooter", "name": "7606c2ccdfe8d69d49e8887cfdf9ca78", "is_disabled": 0, "rental_uris": {"ios": "https://dc.lft.to/lastmile_qr_scan", "android": "https://dc.lft.to/lastmile_qr_scan"}, "is_reserved": 0}, {"lon": -77.000135, "bike_id": "d05b538009e317315c39ae374d80f966", "lat": 38.89090766666666, "fusion_lon": 0.0, "fusion_lat": 0.0, "type": "electric_scooter", "name": "d05b538009e317315c39ae374d80f966", "is_disabled": 0, "rental_uris": {"ios": "https://dc.lft.to/lastmile_qr_scan", "android": "https://dc.lft.to/lastmile_qr_scan"}, "is_reserved": 0}, {"lon": -77.02052416666666, "bike_id": "2b472fc7493e5533b6822813c008512d", "lat": 38.9291405, "fusion_lon": 0.0, "fusion_lat": 0.0, "type": "electric_scooter", "name": "2b472fc7493e5533b6822813c008512d", "is_disabled": 0, "rental_uris": {"ios": "https://dc.lft.to/lastmile_qr_scan", "android": "https://dc.lft.to/lastmile_qr_scan"}, "is_reserved": 0}, {"lon": -76.9904775, "bike_id": "8b01ea1331225f9535167091df2ab250", "lat": 38.863807333333334, "fusion_lon": 0.0, "fusion_lat": 0.0, "type": "electric_scooter", "name": "8b01ea1331225f9535167091df2ab250", "is_disabled": 0, "rental_uris": {"ios": "https://dc.lft.to/lastmile_qr_scan", "android": "https://dc.lft.to/lastmile_qr_scan"}, "is_reserved": 0}, {"lon": -77.00058633333333, "bike_id": "554236bda3108cf6b793c5356a708fe0", "lat": 38.900848, "fusion_lon": 0.0, "fusion_lat": 0.0, "type": "electric_scooter", "name": "554236bda3108cf6b793c5356a708fe0", "is_disabled": 0, "rental_uris": {"ios": "https://dc.lft.to/lastmile_qr_scan", "android": "https://dc.lft.to/lastmile_qr_scan"}, "is_reserved": 0}, {"lon": -77.030775, "bike_id": "e3a6f28f82ac7f3318ed391b8a67cf25", "lat": 38.900844666666664, "fusion_lon": 0.0, "fusion_lat": 0.0, "type": "electric_scooter", "name": "e3a6f28f82ac7f3318ed391b8a67cf25", "is_disabled": 0, "rental_uris": {"ios": "https://dc.lft.to/lastmile_qr_scan", "android": "https://dc.lft.to/lastmile_qr_scan"}, "is_reserved": 0}, {"lon": -77.03215483333334, "bike_id": "e3a649bf978df1e952ab58e41d19a35e", "lat": 38.912688333333335, "fusion_lon": 0.0, "fusion_lat": 0.0, "type": "electric_scooter", "name": "e3a649bf978df1e952ab58e41d19a35e", "is_disabled": 0, "rental_uris": {"ios": "https://dc.lft.to/lastmile_qr_scan", "android": "https://dc.lft.to/lastmile_qr_scan"}, "is_reserved": 0}, {"lon": -77.027506, "bike_id": "0b8aa28e3f55cdeeeaff48d13c4d2b55", "lat": 38.957824333333335, "fusion_lon": 0.0, "fusion_lat": 0.0, "type": "electric_scooter", "name": "0b8aa28e3f55cdeeeaff48d13c4d2b55", "is_disabled": 0, "rental_uris": {"ios": "https://dc.lft.to/lastmile_qr_scan", "android": "https://dc.lft.to/lastmile_qr_scan"}, "is_reserved": 0}, {"lon": -77.02695966666667, "bike_id": "12ca2ace0faea67ce381278bdf0c1d4c", "lat": 38.90848233333333, "fusion_lon": 0.0, "fusion_lat": 0.0, "type": "electric_scooter", "name": "12ca2ace0faea67ce381278bdf0c1d4c", "is_disabled": 0, "rental_uris": {"ios": "https://dc.lft.to/lastmile_qr_scan", "android": "https://dc.lft.to/lastmile_qr_scan"}, "is_reserved": 0}, {"lon": -76.94881866666667, "bike_id": "68acbec204932434c3f0fc3d14f4ff16", "lat": 38.894237, "fusion_lon": 0.0, "fusion_lat": 0.0, "type": "electric_scooter", "name": "68acbec204932434c3f0fc3d14f4ff16", "is_disabled": 0, "rental_uris": {"ios": "https://dc.lft.to/lastmile_qr_scan", "android": "https://dc.lft.to/lastmile_qr_scan"}, "is_reserved": 0}, {"lon": -77.01983, "bike_id": "b565835596aaa7a81d23d3bcf5db6b20", "lat": 38.92549066666667, "fusion_lon": 0.0, "fusion_lat": 0.0, "type": "electric_bike", "name": "b565835596aaa7a81d23d3bcf5db6b20", "is_disabled": 0, "rental_uris": {"ios": "https://dc.lft.to/lastmile_qr_scan", "android": "https://dc.lft.to/lastmile_qr_scan"}, "is_reserved": 0}, {"lon": -77.0067985, "bike_id": "e96f54bba1d32fbec96a6bc9c4e4750e", "lat": 38.83492833333333, "fusion_lon": 0.0, "fusion_lat": 0.0, "type": "electric_scooter", "name": "e96f54bba1d32fbec96a6bc9c4e4750e", "is_disabled": 0, "rental_uris": {"ios": "https://dc.lft.to/lastmile_qr_scan", "android": "https://dc.lft.to/lastmile_qr_scan"}, "is_reserved": 0}, {"lon": -77.02770716666667, "bike_id": "005116ff7ab1719119b92276aaca9461", "lat": 38.89219166666667, "fusion_lon": 0.0, "fusion_lat": 0.0, "type": "electric_scooter", "name": "005116ff7ab1719119b92276aaca9461", "is_disabled": 0, "rental_uris": {"ios": "https://dc.lft.to/lastmile_qr_scan", "android": "https://dc.lft.to/lastmile_qr_scan"}, "is_reserved": 0}, {"lon": -77.00977516666667, "bike_id": "900068538cb0b3388991ddb610f1d11f", "lat": 38.8948485, "fusion_lon": 0.0, "fusion_lat": 0.0, "type": "electric_scooter", "name": "900068538cb0b3388991ddb610f1d11f", "is_disabled": 0, "rental_uris": {"ios": "https://dc.lft.to/lastmile_qr_scan", "android": "https://dc.lft.to/lastmile_qr_scan"}, "is_reserved": 0}, {"lon": -76.9894165, "bike_id": "73680d572d71731133e3101d588e1599", "lat": 38.903920166666666, "fusion_lon": 0.0, "fusion_lat": 0.0, "type": "electric_scooter", "name": "73680d572d71731133e3101d588e1599", "is_disabled": 0, "rental_uris": {"ios": "https://dc.lft.to/lastmile_qr_scan", "android": "https://dc.lft.to/lastmile_qr_scan"}, "is_reserved": 0}, {"lon": -77.06402633333333, "bike_id": "1cd3ede5810e833a5c34cb5ae569e0d1", "lat": 38.90784133333333, "fusion_lon": 0.0, "fusion_lat": 0.0, "type": "electric_scooter", "name": "1cd3ede5810e833a5c34cb5ae569e0d1", "is_disabled": 0, "rental_uris": {"ios": "https://dc.lft.to/lastmile_qr_scan", "android": "https://dc.lft.to/lastmile_qr_scan"}, "is_reserved": 0}, {"lon": -77.05862516666667, "bike_id": "f467daf7692235338e4cc440b075bf06", "lat": 38.936073666666665, "fusion_lon": 0.0, "fusion_lat": 0.0, "type": "electric_scooter", "name": "f467daf7692235338e4cc440b075bf06", "is_disabled": 0, "rental_uris": {"ios": "https://dc.lft.to/lastmile_qr_scan", "android": "https://dc.lft.to/lastmile_qr_scan"}, "is_reserved": 0}, {"lon": -76.98714233333334, "bike_id": "b90dc069cc6788d7cf45cddd5daf66b1", "lat": 38.866294, "fusion_lon": 0.0, "fusion_lat": 0.0, "type": "electric_scooter", "name": "b90dc069cc6788d7cf45cddd5daf66b1", "is_disabled": 0, "rental_uris": {"ios": "https://dc.lft.to/lastmile_qr_scan", "android": "https://dc.lft.to/lastmile_qr_scan"}, "is_reserved": 0}, {"lon": -77.04760516666667, "bike_id": "9ebeaa6a5a1499f1829fc959f8b15a72", "lat": 38.909799166666666, "fusion_lon": 0.0, "fusion_lat": 0.0, "type": "electric_scooter", "name": "9ebeaa6a5a1499f1829fc959f8b15a72", "is_disabled": 0, "rental_uris": {"ios": "https://dc.lft.to/lastmile_qr_scan", "android": "https://dc.lft.to/lastmile_qr_scan"}, "is_reserved": 0}, {"lon": -77.07429483333334, "bike_id": "e47872c51edaf169cd9b8b26f6d74d04", "lat": 38.99947683333333, "fusion_lon": 0.0, "fusion_lat": 0.0, "type": "electric_bike", "name": "e47872c51edaf169cd9b8b26f6d74d04", "is_disabled": 0, "rental_uris": {"ios": "https://dc.lft.to/lastmile_qr_scan", "android": "https://dc.lft.to/lastmile_qr_scan"}, "is_reserved": 0}, {"lon": -77.02849516666667, "bike_id": "4f9f0b35d4d003f50268f77746ae518d", "lat": 38.93344833333333, "fusion_lon": 0.0, "fusion_lat": 0.0, "type": "electric_scooter", "name": "4f9f0b35d4d003f50268f77746ae518d", "is_disabled": 0, "rental_uris": {"ios": "https://dc.lft.to/lastmile_qr_scan", "android": "https://dc.lft.to/lastmile_qr_scan"}, "is_reserved": 0}, {"lon": -77.02013466666666, "bike_id": "39a4fb5525c77f0fca88624aaf2e6ed9", "lat": 38.92415883333334, "fusion_lon": 0.0, "fusion_lat": 0.0, "type": "electric_scooter", "name": "39a4fb5525c77f0fca88624aaf2e6ed9", "is_disabled": 0, "rental_uris": {"ios": "https://dc.lft.to/lastmile_qr_scan", "android": "https://dc.lft.to/lastmile_qr_scan"}, "is_reserved": 0}, {"lon": -77.05808116666667, "bike_id": "56caf2c60f5d7e77531d34292f8987a0", "lat": 38.82393, "fusion_lon": 0.0, "fusion_lat": 0.0, "type": "electric_bike", "name": "56caf2c60f5d7e77531d34292f8987a0", "is_disabled": 0, "rental_uris": {"ios": "https://dc.lft.to/lastmile_qr_scan", "android": "https://dc.lft.to/lastmile_qr_scan"}, "is_reserved": 0}, {"lon": -77.04138066666667, "bike_id": "69706be0f889012c54843c31b78bec15", "lat": 38.926512833333334, "fusion_lon": 0.0, "fusion_lat": 0.0, "type": "electric_scooter", "name": "69706be0f889012c54843c31b78bec15", "is_disabled": 0, "rental_uris": {"ios": "https://dc.lft.to/lastmile_qr_scan", "android": "https://dc.lft.to/lastmile_qr_scan"}, "is_reserved": 0}, {"lon": -76.94920033333334, "bike_id": "bbc53ce1c8ca38dccef31cc2d217d1a3", "lat": 38.89351716666667, "fusion_lon": 0.0, "fusion_lat": 0.0, "type": "electric_scooter", "name": "bbc53ce1c8ca38dccef31cc2d217d1a3", "is_disabled": 0, "rental_uris": {"ios": "https://dc.lft.to/lastmile_qr_scan", "android": "https://dc.lft.to/lastmile_qr_scan"}, "is_reserved": 0}, {"lon": -77.02764433333333, "bike_id": "3ac032353ea6c27544977334ce1b1b38", "lat": 38.9346285, "fusion_lon": 0.0, "fusion_lat": 0.0, "type": "electric_scooter", "name": "3ac032353ea6c27544977334ce1b1b38", "is_disabled": 0, "rental_uris": {"ios": "https://dc.lft.to/lastmile_qr_scan", "android": "https://dc.lft.to/lastmile_qr_scan"}, "is_reserved": 0}, {"lon": -77.101286, "bike_id": "01fb9d241ba8d2bbb1fb3a6dc8a1ed30", "lat": 38.852072, "fusion_lon": 0.0, "fusion_lat": 0.0, "type": "electric_bike", "name": "01fb9d241ba8d2bbb1fb3a6dc8a1ed30", "is_disabled": 0, "rental_uris": {"ios": "https://dc.lft.to/lastmile_qr_scan", "android": "https://dc.lft.to/lastmile_qr_scan"}, "is_reserved": 0}, {"lon": -77.0486305, "bike_id": "144ac61da9fef4f24c8a64dbf1ac72e0", "lat": 38.90955966666667, "fusion_lon": 0.0, "fusion_lat": 0.0, "type": "electric_scooter", "name": "144ac61da9fef4f24c8a64dbf1ac72e0", "is_disabled": 0, "rental_uris": {"ios": "https://dc.lft.to/lastmile_qr_scan", "android": "https://dc.lft.to/lastmile_qr_scan"}, "is_reserved": 0}, {"lon": -77.02963033333333, "bike_id": "528ec41f1b30df38b45663dd1f378f9b", "lat": 38.924931, "fusion_lon": 0.0, "fusion_lat": 0.0, "type": "electric_scooter", "name": "528ec41f1b30df38b45663dd1f378f9b", "is_disabled": 0, "rental_uris": {"ios": "https://dc.lft.to/lastmile_qr_scan", "android": "https://dc.lft.to/lastmile_qr_scan"}, "is_reserved": 0}, {"lon": -77.086818, "bike_id": "ff789276520597ae2ed01b6ff6fcefe1", "lat": 38.8739415, "fusion_lon": 0.0, "fusion_lat": 0.0, "type": "electric_bike", "name": "ff789276520597ae2ed01b6ff6fcefe1", "is_disabled": 0, "rental_uris": {"ios": "https://dc.lft.to/lastmile_qr_scan", "android": "https://dc.lft.to/lastmile_qr_scan"}, "is_reserved": 0}, {"lon": -76.9575575, "bike_id": "76e3765724aeae2ab57a74519e4e1a5b", "lat": 38.88429633333333, "fusion_lon": 0.0, "fusion_lat": 0.0, "type": "electric_scooter", "name": "76e3765724aeae2ab57a74519e4e1a5b", "is_disabled": 0, "rental_uris": {"ios": "https://dc.lft.to/lastmile_qr_scan", "android": "https://dc.lft.to/lastmile_qr_scan"}, "is_reserved": 0}, {"lon": -77.0391495, "bike_id": "cef8188588a162558b0d53affdd0db39", "lat": 38.925752833333334, "fusion_lon": 0.0, "fusion_lat": 0.0, "type": "electric_scooter", "name": "cef8188588a162558b0d53affdd0db39", "is_disabled": 0, "rental_uris": {"ios": "https://dc.lft.to/lastmile_qr_scan", "android": "https://dc.lft.to/lastmile_qr_scan"}, "is_reserved": 0}, {"lon": -77.02837433333333, "bike_id": "47e221c067d16710724af565cc3df2cd", "lat": 38.92578, "fusion_lon": 0.0, "fusion_lat": 0.0, "type": "electric_scooter", "name": "47e221c067d16710724af565cc3df2cd", "is_disabled": 0, "rental_uris": {"ios": "https://dc.lft.to/lastmile_qr_scan", "android": "https://dc.lft.to/lastmile_qr_scan"}, "is_reserved": 0}, {"lon": -77.0250495, "bike_id": "bef7f82a83b047749015f7946f9f9e4e", "lat": 38.926444333333336, "fusion_lon": 0.0, "fusion_lat": 0.0, "type": "electric_scooter", "name": "bef7f82a83b047749015f7946f9f9e4e", "is_disabled": 0, "rental_uris": {"ios": "https://dc.lft.to/lastmile_qr_scan", "android": "https://dc.lft.to/lastmile_qr_scan"}, "is_reserved": 0}, {"lon": -77.03121933333334, "bike_id": "784d3e6e8b5d995b58dc804cddd11bbb", "lat": 38.914905, "fusion_lon": 0.0, "fusion_lat": 0.0, "type": "electric_scooter", "name": "784d3e6e8b5d995b58dc804cddd11bbb", "is_disabled": 0, "rental_uris": {"ios": "https://dc.lft.to/lastmile_qr_scan", "android": "https://dc.lft.to/lastmile_qr_scan"}, "is_reserved": 0}, {"lon": -77.00935783333334, "bike_id": "05aa6d39e6d78fd80018df807a9c4c06", "lat": 38.89976466666667, "fusion_lon": 0.0, "fusion_lat": 0.0, "type": "electric_scooter", "name": "05aa6d39e6d78fd80018df807a9c4c06", "is_disabled": 0, "rental_uris": {"ios": "https://dc.lft.to/lastmile_qr_scan", "android": "https://dc.lft.to/lastmile_qr_scan"}, "is_reserved": 0}, {"lon": -77.0332285, "bike_id": "3c612568e4f86dd3ac0782d0ff5b0fb6", "lat": 38.921579333333334, "fusion_lon": 0.0, "fusion_lat": 0.0, "type": "electric_scooter", "name": "3c612568e4f86dd3ac0782d0ff5b0fb6", "is_disabled": 0, "rental_uris": {"ios": "https://dc.lft.to/lastmile_qr_scan", "android": "https://dc.lft.to/lastmile_qr_scan"}, "is_reserved": 0}, {"lon": -77.04172783333334, "bike_id": "4edc060449ea8bc33e30442d139b5bee", "lat": 38.91395633333333, "fusion_lon": 0.0, "fusion_lat": 0.0, "type": "electric_scooter", "name": "4edc060449ea8bc33e30442d139b5bee", "is_disabled": 0, "rental_uris": {"ios": "https://dc.lft.to/lastmile_qr_scan", "android": "https://dc.lft.to/lastmile_qr_scan"}, "is_reserved": 0}, {"lon": -77.08332033333333, "bike_id": "de727d0ac7090e494844d022db9580ad", "lat": 38.854394666666664, "fusion_lon": 0.0, "fusion_lat": 0.0, "type": "electric_bike", "name": "de727d0ac7090e494844d022db9580ad", "is_disabled": 0, "rental_uris": {"ios": "https://dc.lft.to/lastmile_qr_scan", "android": "https://dc.lft.to/lastmile_qr_scan"}, "is_reserved": 0}, {"lon": -77.03193783333333, "bike_id": "896862a094378a261ad46d08613adda2", "lat": 38.909504166666665, "fusion_lon": 0.0, "fusion_lat": 0.0, "type": "electric_scooter", "name": "896862a094378a261ad46d08613adda2", "is_disabled": 0, "rental_uris": {"ios": "https://dc.lft.to/lastmile_qr_scan", "android": "https://dc.lft.to/lastmile_qr_scan"}, "is_reserved": 0}, {"lon": -76.97825366666666, "bike_id": "1833d52d9c459502fed5d8562bfc85dd", "lat": 38.84371466666666, "fusion_lon": 0.0, "fusion_lat": 0.0, "type": "electric_bike", "name": "1833d52d9c459502fed5d8562bfc85dd", "is_disabled": 0, "rental_uris": {"ios": "https://dc.lft.to/lastmile_qr_scan", "android": "https://dc.lft.to/lastmile_qr_scan"}, "is_reserved": 0}, {"lon": -77.03585183333334, "bike_id": "182b98709953f649dfd5e0509d9b7778", "lat": 38.992248333333336, "fusion_lon": 0.0, "fusion_lat": 0.0, "type": "electric_scooter", "name": "182b98709953f649dfd5e0509d9b7778", "is_disabled": 0, "rental_uris": {"ios": "https://dc.lft.to/lastmile_qr_scan", "android": "https://dc.lft.to/lastmile_qr_scan"}, "is_reserved": 0}, {"lon": -77.0250835, "bike_id": "6ba4eea993f8e3287cc0a6f56b9e0dc9", "lat": 38.90406466666666, "fusion_lon": 0.0, "fusion_lat": 0.0, "type": "electric_scooter", "name": "6ba4eea993f8e3287cc0a6f56b9e0dc9", "is_disabled": 0, "rental_uris": {"ios": "https://dc.lft.to/lastmile_qr_scan", "android": "https://dc.lft.to/lastmile_qr_scan"}, "is_reserved": 0}, {"lon": -76.995673, "bike_id": "85939fc4db9ac1761001d870be5bc33f", "lat": 38.851829333333335, "fusion_lon": 0.0, "fusion_lat": 0.0, "type": "electric_bike", "name": "85939fc4db9ac1761001d870be5bc33f", "is_disabled": 0, "rental_uris": {"ios": "https://dc.lft.to/lastmile_qr_scan", "android": "https://dc.lft.to/lastmile_qr_scan"}, "is_reserved": 0}, {"lon": -77.044849, "bike_id": "ddb7839549e2b8eec13c69168f41bbb6", "lat": 38.9123875, "fusion_lon": 0.0, "fusion_lat": 0.0, "type": "electric_scooter", "name": "ddb7839549e2b8eec13c69168f41bbb6", "is_disabled": 0, "rental_uris": {"ios": "https://dc.lft.to/lastmile_qr_scan", "android": "https://dc.lft.to/lastmile_qr_scan"}, "is_reserved": 0}, {"lon": -77.01574266666667, "bike_id": "97eb755b232cd6c4455c1488435c6338", "lat": 38.89466633333333, "fusion_lon": 0.0, "fusion_lat": 0.0, "type": "electric_scooter", "name": "97eb755b232cd6c4455c1488435c6338", "is_disabled": 0, "rental_uris": {"ios": "https://dc.lft.to/lastmile_qr_scan", "android": "https://dc.lft.to/lastmile_qr_scan"}, "is_reserved": 0}, {"lon": -77.00737833333334, "bike_id": "00ee371c66532d7b4d3380a11968829c", "lat": 38.90369183333333, "fusion_lon": 0.0, "fusion_lat": 0.0, "type": "electric_scooter", "name": "00ee371c66532d7b4d3380a11968829c", "is_disabled": 0, "rental_uris": {"ios": "https://dc.lft.to/lastmile_qr_scan", "android": "https://dc.lft.to/lastmile_qr_scan"}, "is_reserved": 0}, {"lon": -76.93370616666667, "bike_id": "79652aeca8630158c8fc6f3f8b8c03a3", "lat": 38.899104, "fusion_lon": 0.0, "fusion_lat": 0.0, "type": "electric_scooter", "name": "79652aeca8630158c8fc6f3f8b8c03a3", "is_disabled": 0, "rental_uris": {"ios": "https://dc.lft.to/lastmile_qr_scan", "android": "https://dc.lft.to/lastmile_qr_scan"}, "is_reserved": 0}, {"lon": -77.05296733333333, "bike_id": "149cef3d2b8a03b0c8e3ad8b285b301d", "lat": 38.92553233333334, "fusion_lon": 0.0, "fusion_lat": 0.0, "type": "electric_scooter", "name": "149cef3d2b8a03b0c8e3ad8b285b301d", "is_disabled": 0, "rental_uris": {"ios": "https://dc.lft.to/lastmile_qr_scan", "android": "https://dc.lft.to/lastmile_qr_scan"}, "is_reserved": 0}, {"lon": -77.0387945, "bike_id": "e38e1b46ff93e27187c41408422be7c5", "lat": 38.911083, "fusion_lon": 0.0, "fusion_lat": 0.0, "type": "electric_scooter", "name": "e38e1b46ff93e27187c41408422be7c5", "is_disabled": 0, "rental_uris": {"ios": "https://dc.lft.to/lastmile_qr_scan", "android": "https://dc.lft.to/lastmile_qr_scan"}, "is_reserved": 0}, {"lon": -77.02873283333334, "bike_id": "a7916745f35a7440708e34a910c10ba8", "lat": 38.93266, "fusion_lon": 0.0, "fusion_lat": 0.0, "type": "electric_scooter", "name": "a7916745f35a7440708e34a910c10ba8", "is_disabled": 0, "rental_uris": {"ios": "https://dc.lft.to/lastmile_qr_scan", "android": "https://dc.lft.to/lastmile_qr_scan"}, "is_reserved": 0}, {"lon": -76.98363716666667, "bike_id": "5925f6594d31ef3240c1cb88bc58a800", "lat": 38.8610925, "fusion_lon": 0.0, "fusion_lat": 0.0, "type": "electric_scooter", "name": "5925f6594d31ef3240c1cb88bc58a800", "is_disabled": 0, "rental_uris": {"ios": "https://dc.lft.to/lastmile_qr_scan", "android": "https://dc.lft.to/lastmile_qr_scan"}, "is_reserved": 0}, {"lon": -76.93175316666667, "bike_id": "65ab1ad98a81f7ae8777b300205e1ae5", "lat": 38.89883433333333, "fusion_lon": 0.0, "fusion_lat": 0.0, "type": "electric_scooter", "name": "65ab1ad98a81f7ae8777b300205e1ae5", "is_disabled": 0, "rental_uris": {"ios": "https://dc.lft.to/lastmile_qr_scan", "android": "https://dc.lft.to/lastmile_qr_scan"}, "is_reserved": 0}, {"lon": -77.03771166666667, "bike_id": "570f7eeaa68c3ad00ba4bc114d7b963e", "lat": 38.90766166666667, "fusion_lon": 0.0, "fusion_lat": 0.0, "type": "electric_scooter", "name": "570f7eeaa68c3ad00ba4bc114d7b963e", "is_disabled": 0, "rental_uris": {"ios": "https://dc.lft.to/lastmile_qr_scan", "android": "https://dc.lft.to/lastmile_qr_scan"}, "is_reserved": 0}, {"lon": -77.04401116666666, "bike_id": "ca59c0e3c900ed75e169a5fd3d815be4", "lat": 38.929534, "fusion_lon": 0.0, "fusion_lat": 0.0, "type": "electric_scooter", "name": "ca59c0e3c900ed75e169a5fd3d815be4", "is_disabled": 0, "rental_uris": {"ios": "https://dc.lft.to/lastmile_qr_scan", "android": "https://dc.lft.to/lastmile_qr_scan"}, "is_reserved": 0}, {"lon": -77.04458216666667, "bike_id": "1707cb2fdeccb5d46efd436345b9cc47", "lat": 38.9193735, "fusion_lon": 0.0, "fusion_lat": 0.0, "type": "electric_scooter", "name": "1707cb2fdeccb5d46efd436345b9cc47", "is_disabled": 0, "rental_uris": {"ios": "https://dc.lft.to/lastmile_qr_scan", "android": "https://dc.lft.to/lastmile_qr_scan"}, "is_reserved": 0}, {"lon": -76.99614033333333, "bike_id": "f88ec887996562940ae53c1caf511406", "lat": 38.883098333333336, "fusion_lon": 0.0, "fusion_lat": 0.0, "type": "electric_scooter", "name": "f88ec887996562940ae53c1caf511406", "is_disabled": 0, "rental_uris": {"ios": "https://dc.lft.to/lastmile_qr_scan", "android": "https://dc.lft.to/lastmile_qr_scan"}, "is_reserved": 0}, {"lon": -77.03802916666666, "bike_id": "bd48f2b4adca3197287e94fd525d1643", "lat": 38.910379666666664, "fusion_lon": 0.0, "fusion_lat": 0.0, "type": "electric_scooter", "name": "bd48f2b4adca3197287e94fd525d1643", "is_disabled": 0, "rental_uris": {"ios": "https://dc.lft.to/lastmile_qr_scan", "android": "https://dc.lft.to/lastmile_qr_scan"}, "is_reserved": 0}, {"lon": -77.002027, "bike_id": "4aed1c71af0c4342a0bc510d518bb8bd", "lat": 38.9023725, "fusion_lon": 0.0, "fusion_lat": 0.0, "type": "electric_scooter", "name": "4aed1c71af0c4342a0bc510d518bb8bd", "is_disabled": 0, "rental_uris": {"ios": "https://dc.lft.to/lastmile_qr_scan", "android": "https://dc.lft.to/lastmile_qr_scan"}, "is_reserved": 0}, {"lon": -77.024427, "bike_id": "d501fe6c270d0f45c9d7af22a0990736", "lat": 38.91413566666667, "fusion_lon": 0.0, "fusion_lat": 0.0, "type": "electric_scooter", "name": "d501fe6c270d0f45c9d7af22a0990736", "is_disabled": 0, "rental_uris": {"ios": "https://dc.lft.to/lastmile_qr_scan", "android": "https://dc.lft.to/lastmile_qr_scan"}, "is_reserved": 0}, {"lon": -77.050649, "bike_id": "147de4f9bd870e27f92d2db3dfd0cbad", "lat": 38.9006235, "fusion_lon": 0.0, "fusion_lat": 0.0, "type": "electric_scooter", "name": "147de4f9bd870e27f92d2db3dfd0cbad", "is_disabled": 0, "rental_uris": {"ios": "https://dc.lft.to/lastmile_qr_scan", "android": "https://dc.lft.to/lastmile_qr_scan"}, "is_reserved": 0}, {"lon": -77.03256733333333, "bike_id": "18e2d57bcccb0dadb6218bc9f8827f12", "lat": 38.92888033333333, "fusion_lon": 0.0, "fusion_lat": 0.0, "type": "electric_scooter", "name": "18e2d57bcccb0dadb6218bc9f8827f12", "is_disabled": 0, "rental_uris": {"ios": "https://dc.lft.to/lastmile_qr_scan", "android": "https://dc.lft.to/lastmile_qr_scan"}, "is_reserved": 0}, {"lon": -77.03203666666667, "bike_id": "3efd8f2a2e0b1704481d3f1f60f46ab5", "lat": 38.94408466666667, "fusion_lon": 0.0, "fusion_lat": 0.0, "type": "electric_scooter", "name": "3efd8f2a2e0b1704481d3f1f60f46ab5", "is_disabled": 0, "rental_uris": {"ios": "https://dc.lft.to/lastmile_qr_scan", "android": "https://dc.lft.to/lastmile_qr_scan"}, "is_reserved": 0}, {"lon": -77.00034983333333, "bike_id": "30c0856511e039c11a29ccdff8473117", "lat": 38.96802266666667, "fusion_lon": 0.0, "fusion_lat": 0.0, "type": "electric_bike", "name": "30c0856511e039c11a29ccdff8473117", "is_disabled": 0, "rental_uris": {"ios": "https://dc.lft.to/lastmile_qr_scan", "android": "https://dc.lft.to/lastmile_qr_scan"}, "is_reserved": 0}, {"lon": -77.04191133333333, "bike_id": "719bd4b068bdb0ae375c5dba6c9e6505", "lat": 38.92042266666667, "fusion_lon": 0.0, "fusion_lat": 0.0, "type": "electric_scooter", "name": "719bd4b068bdb0ae375c5dba6c9e6505", "is_disabled": 0, "rental_uris": {"ios": "https://dc.lft.to/lastmile_qr_scan", "android": "https://dc.lft.to/lastmile_qr_scan"}, "is_reserved": 0}, {"lon": -77.045576, "bike_id": "53600381da872ac094e0aedcd6b77c2b", "lat": 38.896094833333336, "fusion_lon": 0.0, "fusion_lat": 0.0, "type": "electric_scooter", "name": "53600381da872ac094e0aedcd6b77c2b", "is_disabled": 0, "rental_uris": {"ios": "https://dc.lft.to/lastmile_qr_scan", "android": "https://dc.lft.to/lastmile_qr_scan"}, "is_reserved": 0}, {"lon": -77.03341766666667, "bike_id": "efe329e87d52f97466cf7de03bc20f78", "lat": 38.90117683333333, "fusion_lon": 0.0, "fusion_lat": 0.0, "type": "electric_scooter", "name": "efe329e87d52f97466cf7de03bc20f78", "is_disabled": 0, "rental_uris": {"ios": "https://dc.lft.to/lastmile_qr_scan", "android": "https://dc.lft.to/lastmile_qr_scan"}, "is_reserved": 0}, {"lon": -77.02779283333334, "bike_id": "d5cc54b312fcb17afe841fcc79db0fe5", "lat": 38.9277385, "fusion_lon": 0.0, "fusion_lat": 0.0, "type": "electric_scooter", "name": "d5cc54b312fcb17afe841fcc79db0fe5", "is_disabled": 0, "rental_uris": {"ios": "https://dc.lft.to/lastmile_qr_scan", "android": "https://dc.lft.to/lastmile_qr_scan"}, "is_reserved": 0}, {"lon": -77.06060366666667, "bike_id": "ee5ae46c6a802a12c748f79503026558", "lat": 38.8085735, "fusion_lon": 0.0, "fusion_lat": 0.0, "type": "electric_bike", "name": "ee5ae46c6a802a12c748f79503026558", "is_disabled": 0, "rental_uris": {"ios": "https://dc.lft.to/lastmile_qr_scan", "android": "https://dc.lft.to/lastmile_qr_scan"}, "is_reserved": 0}, {"lon": -77.005429, "bike_id": "2ec8cb535485ab58f1d380130ef979b8", "lat": 38.87456183333333, "fusion_lon": 0.0, "fusion_lat": 0.0, "type": "electric_scooter", "name": "2ec8cb535485ab58f1d380130ef979b8", "is_disabled": 0, "rental_uris": {"ios": "https://dc.lft.to/lastmile_qr_scan", "android": "https://dc.lft.to/lastmile_qr_scan"}, "is_reserved": 0}, {"lon": -77.03760483333333, "bike_id": "56124b0d208ccf3f54e6e0887592b176", "lat": 38.929386, "fusion_lon": 0.0, "fusion_lat": 0.0, "type": "electric_scooter", "name": "56124b0d208ccf3f54e6e0887592b176", "is_disabled": 0, "rental_uris": {"ios": "https://dc.lft.to/lastmile_qr_scan", "android": "https://dc.lft.to/lastmile_qr_scan"}, "is_reserved": 0}, {"lon": -76.98558733333333, "bike_id": "91ce59011ec096fc21158acae2e4fa4f", "lat": 38.90914983333333, "fusion_lon": 0.0, "fusion_lat": 0.0, "type": "electric_scooter", "name": "91ce59011ec096fc21158acae2e4fa4f", "is_disabled": 0, "rental_uris": {"ios": "https://dc.lft.to/lastmile_qr_scan", "android": "https://dc.lft.to/lastmile_qr_scan"}, "is_reserved": 0}, {"lon": -77.03643716666667, "bike_id": "ee1feecf6f99ffeab0384803757d1fb1", "lat": 38.91219483333333, "fusion_lon": 0.0, "fusion_lat": 0.0, "type": "electric_scooter", "name": "ee1feecf6f99ffeab0384803757d1fb1", "is_disabled": 0, "rental_uris": {"ios": "https://dc.lft.to/lastmile_qr_scan", "android": "https://dc.lft.to/lastmile_qr_scan"}, "is_reserved": 0}, {"lon": -77.03187316666667, "bike_id": "fbbbb8b8c1f0a8c216afd18a4914fc3e", "lat": 38.9286595, "fusion_lon": 0.0, "fusion_lat": 0.0, "type": "electric_scooter", "name": "fbbbb8b8c1f0a8c216afd18a4914fc3e", "is_disabled": 0, "rental_uris": {"ios": "https://dc.lft.to/lastmile_qr_scan", "android": "https://dc.lft.to/lastmile_qr_scan"}, "is_reserved": 0}, {"lon": -76.97330233333334, "bike_id": "b5027d6324e58d5adbcf685ee031b269", "lat": 38.865178, "fusion_lon": 0.0, "fusion_lat": 0.0, "type": "electric_bike", "name": "b5027d6324e58d5adbcf685ee031b269", "is_disabled": 0, "rental_uris": {"ios": "https://dc.lft.to/lastmile_qr_scan", "android": "https://dc.lft.to/lastmile_qr_scan"}, "is_reserved": 0}, {"lon": -77.05857783333333, "bike_id": "2dc34dad5367514dc551764b35783983", "lat": 38.936048166666666, "fusion_lon": 0.0, "fusion_lat": 0.0, "type": "electric_scooter", "name": "2dc34dad5367514dc551764b35783983", "is_disabled": 0, "rental_uris": {"ios": "https://dc.lft.to/lastmile_qr_scan", "android": "https://dc.lft.to/lastmile_qr_scan"}, "is_reserved": 0}, {"lon": -77.01696716666666, "bike_id": "0a7489f371f039f9783a793fa4bdb7c5", "lat": 38.879216, "fusion_lon": 0.0, "fusion_lat": 0.0, "type": "electric_scooter", "name": "0a7489f371f039f9783a793fa4bdb7c5", "is_disabled": 0, "rental_uris": {"ios": "https://dc.lft.to/lastmile_qr_scan", "android": "https://dc.lft.to/lastmile_qr_scan"}, "is_reserved": 0}, {"lon": -77.03908733333333, "bike_id": "02b76bb556ca242e34a0bcce493edf58", "lat": 38.918416, "fusion_lon": 0.0, "fusion_lat": 0.0, "type": "electric_scooter", "name": "02b76bb556ca242e34a0bcce493edf58", "is_disabled": 0, "rental_uris": {"ios": "https://dc.lft.to/lastmile_qr_scan", "android": "https://dc.lft.to/lastmile_qr_scan"}, "is_reserved": 0}, {"lon": -76.98079783333333, "bike_id": "1ad918a5822e078aed83337764076661", "lat": 38.88423216666666, "fusion_lon": 0.0, "fusion_lat": 0.0, "type": "electric_scooter", "name": "1ad918a5822e078aed83337764076661", "is_disabled": 0, "rental_uris": {"ios": "https://dc.lft.to/lastmile_qr_scan", "android": "https://dc.lft.to/lastmile_qr_scan"}, "is_reserved": 0}, {"lon": -77.02187316666667, "bike_id": "595c3ee3461c240993e6dea207a1f545", "lat": 38.91269916666667, "fusion_lon": 0.0, "fusion_lat": 0.0, "type": "electric_scooter", "name": "595c3ee3461c240993e6dea207a1f545", "is_disabled": 0, "rental_uris": {"ios": "https://dc.lft.to/lastmile_qr_scan", "android": "https://dc.lft.to/lastmile_qr_scan"}, "is_reserved": 0}, {"lon": -77.02326633333334, "bike_id": "f7b94b2e80493955e85e71e7f2b4f078", "lat": 38.929801833333336, "fusion_lon": 0.0, "fusion_lat": 0.0, "type": "electric_scooter", "name": "f7b94b2e80493955e85e71e7f2b4f078", "is_disabled": 0, "rental_uris": {"ios": "https://dc.lft.to/lastmile_qr_scan", "android": "https://dc.lft.to/lastmile_qr_scan"}, "is_reserved": 0}, {"lon": -77.12524166666667, "bike_id": "17f4a463dc5cde4c76374a71fc6ae2d3", "lat": 39.056346833333336, "fusion_lon": 0.0, "fusion_lat": 0.0, "type": "electric_bike", "name": "17f4a463dc5cde4c76374a71fc6ae2d3", "is_disabled": 0, "rental_uris": {"ios": "https://dc.lft.to/lastmile_qr_scan", "android": "https://dc.lft.to/lastmile_qr_scan"}, "is_reserved": 0}, {"lon": -77.03629316666667, "bike_id": "53afa0392216b52d30d8651d0f5bb926", "lat": 38.93078333333333, "fusion_lon": 0.0, "fusion_lat": 0.0, "type": "electric_scooter", "name": "53afa0392216b52d30d8651d0f5bb926", "is_disabled": 0, "rental_uris": {"ios": "https://dc.lft.to/lastmile_qr_scan", "android": "https://dc.lft.to/lastmile_qr_scan"}, "is_reserved": 0}, {"lon": -76.99930316666666, "bike_id": "4b94fe9a18e14bf7859035aacd4bab86", "lat": 38.8431645, "fusion_lon": 0.0, "fusion_lat": 0.0, "type": "electric_scooter", "name": "4b94fe9a18e14bf7859035aacd4bab86", "is_disabled": 0, "rental_uris": {"ios": "https://dc.lft.to/lastmile_qr_scan", "android": "https://dc.lft.to/lastmile_qr_scan"}, "is_reserved": 0}, {"lon": -77.07451066666667, "bike_id": "7e665fb0c2ffde6afad4dcdc83950306", "lat": 38.9450885, "fusion_lon": 0.0, "fusion_lat": 0.0, "type": "electric_scooter", "name": "7e665fb0c2ffde6afad4dcdc83950306", "is_disabled": 0, "rental_uris": {"ios": "https://dc.lft.to/lastmile_qr_scan", "android": "https://dc.lft.to/lastmile_qr_scan"}, "is_reserved": 0}, {"lon": -77.05159633333334, "bike_id": "8014d3bacf4ffd4b4c834bde66ba7f0f", "lat": 38.92729816666667, "fusion_lon": 0.0, "fusion_lat": 0.0, "type": "electric_scooter", "name": "8014d3bacf4ffd4b4c834bde66ba7f0f", "is_disabled": 0, "rental_uris": {"ios": "https://dc.lft.to/lastmile_qr_scan", "android": "https://dc.lft.to/lastmile_qr_scan"}, "is_reserved": 0}, {"lon": -77.02701633333334, "bike_id": "137f014bdc586a311d0e2864c6defd5d", "lat": 38.9066955, "fusion_lon": 0.0, "fusion_lat": 0.0, "type": "electric_scooter", "name": "137f014bdc586a311d0e2864c6defd5d", "is_disabled": 0, "rental_uris": {"ios": "https://dc.lft.to/lastmile_qr_scan", "android": "https://dc.lft.to/lastmile_qr_scan"}, "is_reserved": 0}, {"lon": -76.93733866666666, "bike_id": "1686dc009e9f09d2688ab8e69aa2c95f", "lat": 38.8901455, "fusion_lon": 0.0, "fusion_lat": 0.0, "type": "electric_scooter", "name": "1686dc009e9f09d2688ab8e69aa2c95f", "is_disabled": 0, "rental_uris": {"ios": "https://dc.lft.to/lastmile_qr_scan", "android": "https://dc.lft.to/lastmile_qr_scan"}, "is_reserved": 0}, {"lon": -77.03437483333333, "bike_id": "96a603dd7795ec15e52c5f9b98caaba2", "lat": 38.909702833333334, "fusion_lon": 0.0, "fusion_lat": 0.0, "type": "electric_scooter", "name": "96a603dd7795ec15e52c5f9b98caaba2", "is_disabled": 0, "rental_uris": {"ios": "https://dc.lft.to/lastmile_qr_scan", "android": "https://dc.lft.to/lastmile_qr_scan"}, "is_reserved": 0}, {"lon": -77.01734183333333, "bike_id": "531c154f34216e18a2b0117503565495", "lat": 38.94202933333333, "fusion_lon": 0.0, "fusion_lat": 0.0, "type": "electric_scooter", "name": "531c154f34216e18a2b0117503565495", "is_disabled": 0, "rental_uris": {"ios": "https://dc.lft.to/lastmile_qr_scan", "android": "https://dc.lft.to/lastmile_qr_scan"}, "is_reserved": 0}, {"lon": -76.99364933333334, "bike_id": "d92da61e8d7f4696529ce0ce351aeb9a", "lat": 38.94024316666667, "fusion_lon": 0.0, "fusion_lat": 0.0, "type": "electric_scooter", "name": "d92da61e8d7f4696529ce0ce351aeb9a", "is_disabled": 0, "rental_uris": {"ios": "https://dc.lft.to/lastmile_qr_scan", "android": "https://dc.lft.to/lastmile_qr_scan"}, "is_reserved": 0}, {"lon": -76.97864383333334, "bike_id": "58da7d492b8b1eebf7bad1233399cb87", "lat": 38.883042833333334, "fusion_lon": 0.0, "fusion_lat": 0.0, "type": "electric_scooter", "name": "58da7d492b8b1eebf7bad1233399cb87", "is_disabled": 0, "rental_uris": {"ios": "https://dc.lft.to/lastmile_qr_scan", "android": "https://dc.lft.to/lastmile_qr_scan"}, "is_reserved": 0}, {"lon": -77.02963216666667, "bike_id": "6190bfad04180009154b5b21420d64c4", "lat": 38.912752833333336, "fusion_lon": 0.0, "fusion_lat": 0.0, "type": "electric_scooter", "name": "6190bfad04180009154b5b21420d64c4", "is_disabled": 0, "rental_uris": {"ios": "https://dc.lft.to/lastmile_qr_scan", "android": "https://dc.lft.to/lastmile_qr_scan"}, "is_reserved": 0}, {"lon": -77.03858866666667, "bike_id": "3d49233f8a1a7c6d02945769ab8a9b21", "lat": 38.9201215, "fusion_lon": 0.0, "fusion_lat": 0.0, "type": "electric_scooter", "name": "3d49233f8a1a7c6d02945769ab8a9b21", "is_disabled": 0, "rental_uris": {"ios": "https://dc.lft.to/lastmile_qr_scan", "android": "https://dc.lft.to/lastmile_qr_scan"}, "is_reserved": 0}, {"lon": -77.02274566666667, "bike_id": "25bed6a7cbb4b244e4b4176a238d85fd", "lat": 38.902785, "fusion_lon": 0.0, "fusion_lat": 0.0, "type": "electric_scooter", "name": "25bed6a7cbb4b244e4b4176a238d85fd", "is_disabled": 0, "rental_uris": {"ios": "https://dc.lft.to/lastmile_qr_scan", "android": "https://dc.lft.to/lastmile_qr_scan"}, "is_reserved": 0}, {"lon": -76.99009766666667, "bike_id": "63b45b5f7f6b3436f16c6d59bef55fd3", "lat": 38.94603083333333, "fusion_lon": 0.0, "fusion_lat": 0.0, "type": "electric_scooter", "name": "63b45b5f7f6b3436f16c6d59bef55fd3", "is_disabled": 0, "rental_uris": {"ios": "https://dc.lft.to/lastmile_qr_scan", "android": "https://dc.lft.to/lastmile_qr_scan"}, "is_reserved": 0}, {"lon": -77.04978283333334, "bike_id": "e9e82ab94656d791341332c40ca6de96", "lat": 39.06296016666667, "fusion_lon": 0.0, "fusion_lat": 0.0, "type": "electric_bike", "name": "e9e82ab94656d791341332c40ca6de96", "is_disabled": 0, "rental_uris": {"ios": "https://dc.lft.to/lastmile_qr_scan", "android": "https://dc.lft.to/lastmile_qr_scan"}, "is_reserved": 0}, {"lon": -77.0629055, "bike_id": "e8b9d14dafac1b929b9fb7b1a140703d", "lat": 38.865442, "fusion_lon": 0.0, "fusion_lat": 0.0, "type": "electric_bike", "name": "e8b9d14dafac1b929b9fb7b1a140703d", "is_disabled": 0, "rental_uris": {"ios": "https://dc.lft.to/lastmile_qr_scan", "android": "https://dc.lft.to/lastmile_qr_scan"}, "is_reserved": 0}, {"lon": -77.03817216666667, "bike_id": "d0af746bd52f5ca4bf7fcd7fee68063e", "lat": 38.9097525, "fusion_lon": 0.0, "fusion_lat": 0.0, "type": "electric_scooter", "name": "d0af746bd52f5ca4bf7fcd7fee68063e", "is_disabled": 0, "rental_uris": {"ios": "https://dc.lft.to/lastmile_qr_scan", "android": "https://dc.lft.to/lastmile_qr_scan"}, "is_reserved": 0}, {"lon": -77.05141333333333, "bike_id": "dc87abb2be09a7b06e537ff8adbc8032", "lat": 38.89851266666667, "fusion_lon": 0.0, "fusion_lat": 0.0, "type": "electric_scooter", "name": "dc87abb2be09a7b06e537ff8adbc8032", "is_disabled": 0, "rental_uris": {"ios": "https://dc.lft.to/lastmile_qr_scan", "android": "https://dc.lft.to/lastmile_qr_scan"}, "is_reserved": 0}, {"lon": -76.99593566666667, "bike_id": "bb7e566897bf1e8547bdbdd2217679a4", "lat": 38.88432, "fusion_lon": 0.0, "fusion_lat": 0.0, "type": "electric_scooter", "name": "bb7e566897bf1e8547bdbdd2217679a4", "is_disabled": 0, "rental_uris": {"ios": "https://dc.lft.to/lastmile_qr_scan", "android": "https://dc.lft.to/lastmile_qr_scan"}, "is_reserved": 0}, {"lon": -77.01176383333333, "bike_id": "311f035a4f663c9d4c9c2d4aa5b9d314", "lat": 38.900243833333334, "fusion_lon": 0.0, "fusion_lat": 0.0, "type": "electric_scooter", "name": "311f035a4f663c9d4c9c2d4aa5b9d314", "is_disabled": 0, "rental_uris": {"ios": "https://dc.lft.to/lastmile_qr_scan", "android": "https://dc.lft.to/lastmile_qr_scan"}, "is_reserved": 0}, {"lon": -77.0413935, "bike_id": "b2848fa82209e1f6658b3026a9988961", "lat": 38.8992055, "fusion_lon": 0.0, "fusion_lat": 0.0, "type": "electric_scooter", "name": "b2848fa82209e1f6658b3026a9988961", "is_disabled": 0, "rental_uris": {"ios": "https://dc.lft.to/lastmile_qr_scan", "android": "https://dc.lft.to/lastmile_qr_scan"}, "is_reserved": 0}, {"lon": -77.03075166666666, "bike_id": "d977785424793aea575145749a2e28bf", "lat": 38.880380333333335, "fusion_lon": 0.0, "fusion_lat": 0.0, "type": "electric_scooter", "name": "d977785424793aea575145749a2e28bf", "is_disabled": 0, "rental_uris": {"ios": "https://dc.lft.to/lastmile_qr_scan", "android": "https://dc.lft.to/lastmile_qr_scan"}, "is_reserved": 0}, {"lon": -77.02692633333334, "bike_id": "0e83e5107675d8fdb21a382a040c7073", "lat": 38.91228666666667, "fusion_lon": 0.0, "fusion_lat": 0.0, "type": "electric_scooter", "name": "0e83e5107675d8fdb21a382a040c7073", "is_disabled": 0, "rental_uris": {"ios": "https://dc.lft.to/lastmile_qr_scan", "android": "https://dc.lft.to/lastmile_qr_scan"}, "is_reserved": 0}, {"lon": -77.04275983333333, "bike_id": "273ca1b623b0c5c3407788772c7bec0a", "lat": 38.934160166666665, "fusion_lon": 0.0, "fusion_lat": 0.0, "type": "electric_scooter", "name": "273ca1b623b0c5c3407788772c7bec0a", "is_disabled": 0, "rental_uris": {"ios": "https://dc.lft.to/lastmile_qr_scan", "android": "https://dc.lft.to/lastmile_qr_scan"}, "is_reserved": 0}, {"lon": -77.000511, "bike_id": "f5674f4f77c4db8ac04703269a06e22e", "lat": 38.907896, "fusion_lon": 0.0, "fusion_lat": 0.0, "type": "electric_scooter", "name": "f5674f4f77c4db8ac04703269a06e22e", "is_disabled": 0, "rental_uris": {"ios": "https://dc.lft.to/lastmile_qr_scan", "android": "https://dc.lft.to/lastmile_qr_scan"}, "is_reserved": 0}, {"lon": -77.0313645, "bike_id": "f156dc0a9a4d235c437ffd1024bfd470", "lat": 38.92960383333333, "fusion_lon": 0.0, "fusion_lat": 0.0, "type": "electric_scooter", "name": "f156dc0a9a4d235c437ffd1024bfd470", "is_disabled": 0, "rental_uris": {"ios": "https://dc.lft.to/lastmile_qr_scan", "android": "https://dc.lft.to/lastmile_qr_scan"}, "is_reserved": 0}, {"lon": -77.01204866666667, "bike_id": "9da83f0160e7e39091aaade58fce55e1", "lat": 38.885503666666665, "fusion_lon": 0.0, "fusion_lat": 0.0, "type": "electric_scooter", "name": "9da83f0160e7e39091aaade58fce55e1", "is_disabled": 0, "rental_uris": {"ios": "https://dc.lft.to/lastmile_qr_scan", "android": "https://dc.lft.to/lastmile_qr_scan"}, "is_reserved": 0}, {"lon": -77.03263866666667, "bike_id": "da06fcfb83dc705980c3422f18a1528c", "lat": 38.93922766666667, "fusion_lon": 0.0, "fusion_lat": 0.0, "type": "electric_scooter", "name": "da06fcfb83dc705980c3422f18a1528c", "is_disabled": 0, "rental_uris": {"ios": "https://dc.lft.to/lastmile_qr_scan", "android": "https://dc.lft.to/lastmile_qr_scan"}, "is_reserved": 0}, {"lon": -77.0383695, "bike_id": "7a6f7c322c64ae8c303a751d4694dab8", "lat": 38.9087585, "fusion_lon": 0.0, "fusion_lat": 0.0, "type": "electric_scooter", "name": "7a6f7c322c64ae8c303a751d4694dab8", "is_disabled": 0, "rental_uris": {"ios": "https://dc.lft.to/lastmile_qr_scan", "android": "https://dc.lft.to/lastmile_qr_scan"}, "is_reserved": 0}, {"lon": -76.98881533333333, "bike_id": "b89de306f5279ff10866e8d37180abde", "lat": 38.8665665, "fusion_lon": 0.0, "fusion_lat": 0.0, "type": "electric_scooter", "name": "b89de306f5279ff10866e8d37180abde", "is_disabled": 0, "rental_uris": {"ios": "https://dc.lft.to/lastmile_qr_scan", "android": "https://dc.lft.to/lastmile_qr_scan"}, "is_reserved": 0}, {"lon": -77.03117033333334, "bike_id": "086a0470adeeca91fdbaa31068e04894", "lat": 38.91900566666666, "fusion_lon": 0.0, "fusion_lat": 0.0, "type": "electric_scooter", "name": "086a0470adeeca91fdbaa31068e04894", "is_disabled": 0, "rental_uris": {"ios": "https://dc.lft.to/lastmile_qr_scan", "android": "https://dc.lft.to/lastmile_qr_scan"}, "is_reserved": 0}, {"lon": -77.0051905, "bike_id": "61e4eb3e5805c6258a447f6de465e438", "lat": 38.914818, "fusion_lon": 0.0, "fusion_lat": 0.0, "type": "electric_bike", "name": "61e4eb3e5805c6258a447f6de465e438", "is_disabled": 0, "rental_uris": {"ios": "https://dc.lft.to/lastmile_qr_scan", "android": "https://dc.lft.to/lastmile_qr_scan"}, "is_reserved": 0}, {"lon": -77.03254566666666, "bike_id": "98e3da52a62234ac247e64e45605f452", "lat": 38.9096425, "fusion_lon": 0.0, "fusion_lat": 0.0, "type": "electric_scooter", "name": "98e3da52a62234ac247e64e45605f452", "is_disabled": 0, "rental_uris": {"ios": "https://dc.lft.to/lastmile_qr_scan", "android": "https://dc.lft.to/lastmile_qr_scan"}, "is_reserved": 0}, {"lon": -77.0502645, "bike_id": "ac8db7eb29dea1aa413e36dcc5332f77", "lat": 38.905325833333336, "fusion_lon": 0.0, "fusion_lat": 0.0, "type": "electric_scooter", "name": "ac8db7eb29dea1aa413e36dcc5332f77", "is_disabled": 0, "rental_uris": {"ios": "https://dc.lft.to/lastmile_qr_scan", "android": "https://dc.lft.to/lastmile_qr_scan"}, "is_reserved": 0}, {"lon": -77.03275616666667, "bike_id": "ff3e6e3f9965cb183602276b3edccff4", "lat": 38.90117216666667, "fusion_lon": 0.0, "fusion_lat": 0.0, "type": "electric_scooter", "name": "ff3e6e3f9965cb183602276b3edccff4", "is_disabled": 0, "rental_uris": {"ios": "https://dc.lft.to/lastmile_qr_scan", "android": "https://dc.lft.to/lastmile_qr_scan"}, "is_reserved": 0}, {"lon": -77.02698433333333, "bike_id": "ac6f2c5dc4bdb1575f57682a4f0286e7", "lat": 38.9067155, "fusion_lon": 0.0, "fusion_lat": 0.0, "type": "electric_scooter", "name": "ac6f2c5dc4bdb1575f57682a4f0286e7", "is_disabled": 0, "rental_uris": {"ios": "https://dc.lft.to/lastmile_qr_scan", "android": "https://dc.lft.to/lastmile_qr_scan"}, "is_reserved": 0}, {"lon": -77.0429785, "bike_id": "4de0cc822260aa9b82042428c08810b8", "lat": 38.92248566666667, "fusion_lon": 0.0, "fusion_lat": 0.0, "type": "electric_scooter", "name": "4de0cc822260aa9b82042428c08810b8", "is_disabled": 0, "rental_uris": {"ios": "https://dc.lft.to/lastmile_qr_scan", "android": "https://dc.lft.to/lastmile_qr_scan"}, "is_reserved": 0}, {"lon": -77.0253465, "bike_id": "db8cee33d4ed9d7c8b8c5bea92782cf5", "lat": 38.940988833333336, "fusion_lon": 0.0, "fusion_lat": 0.0, "type": "electric_scooter", "name": "db8cee33d4ed9d7c8b8c5bea92782cf5", "is_disabled": 0, "rental_uris": {"ios": "https://dc.lft.to/lastmile_qr_scan", "android": "https://dc.lft.to/lastmile_qr_scan"}, "is_reserved": 0}, {"lon": -77.03963, "bike_id": "04318898b4e5c2e61680b201820f532f", "lat": 38.91626333333333, "fusion_lon": 0.0, "fusion_lat": 0.0, "type": "electric_scooter", "name": "04318898b4e5c2e61680b201820f532f", "is_disabled": 0, "rental_uris": {"ios": "https://dc.lft.to/lastmile_qr_scan", "android": "https://dc.lft.to/lastmile_qr_scan"}, "is_reserved": 0}, {"lon": -77.02626266666667, "bike_id": "4c5347e3e9bbb390ad29829b1fa358bf", "lat": 38.933562, "fusion_lon": 0.0, "fusion_lat": 0.0, "type": "electric_scooter", "name": "4c5347e3e9bbb390ad29829b1fa358bf", "is_disabled": 0, "rental_uris": {"ios": "https://dc.lft.to/lastmile_qr_scan", "android": "https://dc.lft.to/lastmile_qr_scan"}, "is_reserved": 0}, {"lon": -77.03774966666667, "bike_id": "e7f9e420e70812c1cb9e79802c052d50", "lat": 38.92966416666667, "fusion_lon": 0.0, "fusion_lat": 0.0, "type": "electric_scooter", "name": "e7f9e420e70812c1cb9e79802c052d50", "is_disabled": 0, "rental_uris": {"ios": "https://dc.lft.to/lastmile_qr_scan", "android": "https://dc.lft.to/lastmile_qr_scan"}, "is_reserved": 0}, {"lon": -76.98404333333333, "bike_id": "c6141551affd60d8097e3fa1487ca3dd", "lat": 38.90624733333333, "fusion_lon": 0.0, "fusion_lat": 0.0, "type": "electric_scooter", "name": "c6141551affd60d8097e3fa1487ca3dd", "is_disabled": 0, "rental_uris": {"ios": "https://dc.lft.to/lastmile_qr_scan", "android": "https://dc.lft.to/lastmile_qr_scan"}, "is_reserved": 0}, {"lon": -77.04513266666666, "bike_id": "c3c398b1bf5c281416908c88d3321dbb", "lat": 38.88603666666667, "fusion_lon": 0.0, "fusion_lat": 0.0, "type": "electric_scooter", "name": "c3c398b1bf5c281416908c88d3321dbb", "is_disabled": 0, "rental_uris": {"ios": "https://dc.lft.to/lastmile_qr_scan", "android": "https://dc.lft.to/lastmile_qr_scan"}, "is_reserved": 0}, {"lon": -76.98934416666667, "bike_id": "6fd5cde2ab338c0069be9a91ea3eda3a", "lat": 38.91835616666667, "fusion_lon": 0.0, "fusion_lat": 0.0, "type": "electric_scooter", "name": "6fd5cde2ab338c0069be9a91ea3eda3a", "is_disabled": 0, "rental_uris": {"ios": "https://dc.lft.to/lastmile_qr_scan", "android": "https://dc.lft.to/lastmile_qr_scan"}, "is_reserved": 0}, {"lon": -76.98773016666667, "bike_id": "27003fdb7bcacc70090e4faf8450b6f9", "lat": 38.86602416666667, "fusion_lon": 0.0, "fusion_lat": 0.0, "type": "electric_bike", "name": "27003fdb7bcacc70090e4faf8450b6f9", "is_disabled": 0, "rental_uris": {"ios": "https://dc.lft.to/lastmile_qr_scan", "android": "https://dc.lft.to/lastmile_qr_scan"}, "is_reserved": 0}, {"lon": -77.0424075, "bike_id": "2ac44b9a34fda3d0ebf2b62cea029a78", "lat": 38.90957016666667, "fusion_lon": 0.0, "fusion_lat": 0.0, "type": "electric_scooter", "name": "2ac44b9a34fda3d0ebf2b62cea029a78", "is_disabled": 0, "rental_uris": {"ios": "https://dc.lft.to/lastmile_qr_scan", "android": "https://dc.lft.to/lastmile_qr_scan"}, "is_reserved": 0}, {"lon": -76.99623533333333, "bike_id": "641abd1f15ece8be4ee3c3ec7f02449c", "lat": 38.901069, "fusion_lon": 0.0, "fusion_lat": 0.0, "type": "electric_scooter", "name": "641abd1f15ece8be4ee3c3ec7f02449c", "is_disabled": 0, "rental_uris": {"ios": "https://dc.lft.to/lastmile_qr_scan", "android": "https://dc.lft.to/lastmile_qr_scan"}, "is_reserved": 0},