{"data": {"bikes": [{"bike_id": "b9acf6472bde235768aaa1c02e4a0258", "is_reserved": 0, "name": "b9acf6472bde235768aaa1c02e4a0258", "lat": 38.898409, "fusion_lat": 0.0, "lon": -77.021939, "is_disabled": 0, "fusion_lon": 0.0, "rental_uris": {"android": "https://dc.lft.to/lastmile_qr_scan", "ios": "https://dc.lft.to/lastmile_qr_scan"}, "type": "electric_scooter"}, {"bike_id": "ad1577186184357c1337e3b7210d5e24", "is_reserved": 0, "name": "ad1577186184357c1337e3b7210d5e24", "lat": 38.9804255, "fusion_lat": 0.0, "lon": -76.9578305, "is_disabled": 0, "fusion_lon": 0.0, "rental_uris": {"android": "https://dc.lft.to/lastmile_qr_scan", "ios": "https://dc.lft.to/lastmile_qr_scan"}, "type": "electric_bike"}, {"bike_id": "66f43ec5342b955e2ffc0befe6c865fc", "is_reserved": 0, "name": "66f43ec5342b955e2ffc0befe6c865fc", "lat": 38.9148105, "fusion_lat": 0.0, "lon": -77.03842966666667, "is_disabled": 0, "fusion_lon": 0.0, "rental_uris": {"android": "https://dc.lft.to/lastmile_qr_scan", "ios": "https://dc.lft.to/lastmile_qr_scan"}, "type": "electric_scooter"}, {"bike_id": "9b749f4df8b46d842e953851d4fd7852", "is_reserved": 0, "name": "9b749f4df8b46d842e953851d4fd7852", "lat": 38.919240333333335, "fusion_lat": 0.0, "lon": -77.03261683333334, "is_disabled": 0, "fusion_lon": 0.0, "rental_uris": {"android": "https://dc.lft.to/lastmile_qr_scan", "ios": "https://dc.lft.to/lastmile_qr_scan"}, "type": "electric_scooter"}, {"bike_id": "bf3e58e3ae2f64fd7f05b140aea1d249", "is_reserved": 0, "name": "bf3e58e3ae2f64fd7f05b140aea1d249", "lat": 38.916014833333335, "fusion_lat": 0.0, "lon": -77.03213483333333, "is_disabled": 0, "fusion_lon": 0.0, "rental_uris": {"android": "https://dc.lft.to/lastmile_qr_scan", "ios": "https://dc.lft.to/lastmile_qr_scan"}, "type": "electric_scooter"}, {"bike_id": "524290e658e1a0976387fd96bb3cc4c5", "is_reserved": 0, "name": "524290e658e1a0976387fd96bb3cc4c5", "lat": 38.905753, "fusion_lat": 0.0, "lon": -77.0220855, "is_disabled": 0, "fusion_lon": 0.0, "rental_uris": {"android": "https://dc.lft.to/lastmile_qr_scan", "ios": "https://dc.lft.to/lastmile_qr_scan"}, "type": "electric_scooter"}, {"bike_id": "a1913801d5f6d820f504410771b4db0d", "is_reserved": 0, "name": "a1913801d5f6d820f504410771b4db0d", "lat": 38.95083283333334, "fusion_lat": 0.0, "lon": -77.01227133333333, "is_disabled": 0, "fusion_lon": 0.0, "rental_uris": {"android": "https://dc.lft.to/lastmile_qr_scan", "ios": "https://dc.lft.to/lastmile_qr_scan"}, "type": "electric_bike"}, {"bike_id": "12920a466b5f64830c747b72ba332126", "is_reserved": 0, "name": "12920a466b5f64830c747b72ba332126", "lat": 38.902691833333336, "fusion_lat": 0.0, "lon": -77.05315083333333, "is_disabled": 0, "fusion_lon": 0.0, "rental_uris": {"android": "https://dc.lft.to/lastmile_qr_scan", "ios": "https://dc.lft.to/lastmile_qr_scan"}, "type": "electric_scooter"}, {"bike_id": "1ff81abb34afddd89003da0e05d112c4", "is_reserved": 0, "name": "1ff81abb34afddd89003da0e05d112c4", "lat": 38.90252233333333, "fusion_lat": 0.0, "lon": -77.03419316666667, "is_disabled": 0, "fusion_lon": 0.0, "rental_uris": {"android": "https://dc.lft.to/lastmile_qr_scan", "ios": "https://dc.lft.to/lastmile_qr_scan"}, "type": "electric_scooter"}, {"bike_id": "52f161e238f6042d1ad823ccf9032ab1", "is_reserved": 0, "name": "52f161e238f6042d1ad823ccf9032ab1", "lat": 38.9164225, "fusion_lat": 0.0, "lon": -77.02395516666667, "is_disabled": 0, "fusion_lon": 0.0, "rental_uris": {"android": "https://dc.lft.to/lastmile_qr_scan", "ios": "https://dc.lft.to/lastmile_qr_scan"}, "type": "electric_scooter"}, {"bike_id": "114099b86dbd9c74231a29c7d6132f94", "is_reserved": 0, "name": "114099b86dbd9c74231a29c7d6132f94", "lat": 38.899331833333335, "fusion_lat": 0.0, "lon": -77.012732, "is_disabled": 0, "fusion_lon": 0.0, "rental_uris": {"android": "https://dc.lft.to/lastmile_qr_scan", "ios": "https://dc.lft.to/lastmile_qr_scan"}, "type": "electric_scooter"}, {"bike_id": "ff0d4eee794da1b5bdd80327741c402f", "is_reserved": 0, "name": "ff0d4eee794da1b5bdd80327741c402f", "lat": 38.89549983333333, "fusion_lat": 0.0, "lon": -77.00917416666667, "is_disabled": 0, "fusion_lon": 0.0, "rental_uris": {"android": "https://dc.lft.to/lastmile_qr_scan", "ios": "https://dc.lft.to/lastmile_qr_scan"}, "type": "electric_scooter"}, {"bike_id": "c739116154d26ab2d2bbf7919339d268", "is_reserved": 0, "name": "c739116154d26ab2d2bbf7919339d268", "lat": 38.9573165, "fusion_lat": 0.0, "lon": -77.02406483333333, "is_disabled": 0, "fusion_lon": 0.0, "rental_uris": {"android": "https://dc.lft.to/lastmile_qr_scan", "ios": "https://dc.lft.to/lastmile_qr_scan"}, "type": "electric_scooter"}, {"bike_id": "c7d20a455693dadd2679a2781952b0c8", "is_reserved": 0, "name": "c7d20a455693dadd2679a2781952b0c8", "lat": 38.941937, "fusion_lat": 0.0, "lon": -77.04111616666667, "is_disabled": 0, "fusion_lon": 0.0, "rental_uris": {"android": "https://dc.lft.to/lastmile_qr_scan", "ios": "https://dc.lft.to/lastmile_qr_scan"}, "type": "electric_scooter"}, {"bike_id": "9e82d57fd819bbc12ccd5c5b2cf9a09c", "is_reserved": 0, "name": "9e82d57fd819bbc12ccd5c5b2cf9a09c", "lat": 38.9160585, "fusion_lat": 0.0, "lon": -77.03168433333333, "is_disabled": 0, "fusion_lon": 0.0, "rental_uris": {"android": "https://dc.lft.to/lastmile_qr_scan", "ios": "https://dc.lft.to/lastmile_qr_scan"}, "type": "electric_scooter"}, {"bike_id": "4e3fc41f0eae3de9385ed67e76f445a0", "is_reserved": 0, "name": "4e3fc41f0eae3de9385ed67e76f445a0", "lat": 38.90178483333333, "fusion_lat": 0.0, "lon": -77.02742983333333, "is_disabled": 0, "fusion_lon": 0.0, "rental_uris": {"android": "https://dc.lft.to/lastmile_qr_scan", "ios": "https://dc.lft.to/lastmile_qr_scan"}, "type": "electric_scooter"}, {"bike_id": "48856ea4e0cb205d860b94545ee7aeb2", "is_reserved": 0, "name": "48856ea4e0cb205d860b94545ee7aeb2", "lat": 38.884933, "fusion_lat": 0.0, "lon": -76.98057933333334, "is_disabled": 0, "fusion_lon": 0.0, "rental_uris": {"android": "https://dc.lft.to/lastmile_qr_scan", "ios": "https://dc.lft.to/lastmile_qr_scan"}, "type": "electric_scooter"}, {"bike_id": "35368b91bdc3915c9159d597e5f9f2fc", "is_reserved": 0, "name": "35368b91bdc3915c9159d597e5f9f2fc", "lat": 38.901445, "fusion_lat": 0.0, "lon": -77.043504, "is_disabled": 0, "fusion_lon": 0.0, "rental_uris": {"android": "https://dc.lft.to/lastmile_qr_scan", "ios": "https://dc.lft.to/lastmile_qr_scan"}, "type": "electric_scooter"}, {"bike_id": "1b1546454b8e52bd1d3ba58dbada216b", "is_reserved": 0, "name": "1b1546454b8e52bd1d3ba58dbada216b", "lat": 38.867360833333336, "fusion_lat": 0.0, "lon": -76.98789083333334, "is_disabled": 0, "fusion_lon": 0.0, "rental_uris": {"android": "https://dc.lft.to/lastmile_qr_scan", "ios": "https://dc.lft.to/lastmile_qr_scan"}, "type": "electric_scooter"}, {"bike_id": "7da4fc70e624b4db9956f0715ea2edb8", "is_reserved": 0, "name": "7da4fc70e624b4db9956f0715ea2edb8", "lat": 38.886067833333335, "fusion_lat": 0.0, "lon": -76.995386, "is_disabled": 0, "fusion_lon": 0.0, "rental_uris": {"android": "https://dc.lft.to/lastmile_qr_scan", "ios": "https://dc.lft.to/lastmile_qr_scan"}, "type": "electric_scooter"}, {"bike_id": "2d6d80599810fba9788c957c74d16162", "is_reserved": 0, "name": "2d6d80599810fba9788c957c74d16162", "lat": 38.965732, "fusion_lat": 0.0, "lon": -77.00266716666667, "is_disabled": 0, "fusion_lon": 0.0, "rental_uris": {"android": "https://dc.lft.to/lastmile_qr_scan", "ios": "https://dc.lft.to/lastmile_qr_scan"}, "type": "electric_scooter"}, {"bike_id": "4a88678b2465155063e414726e2cdca0", "is_reserved": 0, "name": "4a88678b2465155063e414726e2cdca0", "lat": 38.89846, "fusion_lat": 0.0, "lon": -77.018686, "is_disabled": 0, "fusion_lon": 0.0, "rental_uris": {"android": "https://dc.lft.to/lastmile_qr_scan", "ios": "https://dc.lft.to/lastmile_qr_scan"}, "type": "electric_scooter"}, {"bike_id": "ff73d3d1121462543799cafbf05a79c4", "is_reserved": 0, "name": "ff73d3d1121462543799cafbf05a79c4", "lat": 38.9618185, "fusion_lat": 0.0, "lon": -77.052662, "is_disabled": 0, "fusion_lon": 0.0, "rental_uris": {"android": "https://dc.lft.to/lastmile_qr_scan", "ios": "https://dc.lft.to/lastmile_qr_scan"}, "type": "electric_bike"}, {"bike_id": "4b42efbea55017293db22290ddc74814", "is_reserved": 0, "name": "4b42efbea55017293db22290ddc74814", "lat": 38.89854016666666, "fusion_lat": 0.0, "lon": -77.0302875, "is_disabled": 0, "fusion_lon": 0.0, "rental_uris": {"android": "https://dc.lft.to/lastmile_qr_scan", "ios": "https://dc.lft.to/lastmile_qr_scan"}, "type": "electric_scooter"}, {"bike_id": "aa956b73044d2489ff63a54387c784af", "is_reserved": 0, "name": "aa956b73044d2489ff63a54387c784af", "lat": 38.924173333333336, "fusion_lat": 0.0, "lon": -77.05746016666667, "is_disabled": 0, "fusion_lon": 0.0, "rental_uris": {"android": "https://dc.lft.to/lastmile_qr_scan", "ios": "https://dc.lft.to/lastmile_qr_scan"}, "type": "electric_scooter"}, {"bike_id": "d3595e2ab81df4c02e50b47548a13548", "is_reserved": 0, "name": "d3595e2ab81df4c02e50b47548a13548", "lat": 38.904853333333335, "fusion_lat": 0.0, "lon": -77.02110483333334, "is_disabled": 0, "fusion_lon": 0.0, "rental_uris": {"android": "https://dc.lft.to/lastmile_qr_scan", "ios": "https://dc.lft.to/lastmile_qr_scan"}, "type": "electric_scooter"}, {"bike_id": "474c17cb282bd76df7b7c8c662f0bdf4", "is_reserved": 0, "name": "474c17cb282bd76df7b7c8c662f0bdf4", "lat": 38.873774166666664, "fusion_lat": 0.0, "lon": -77.001254, "is_disabled": 0, "fusion_lon": 0.0, "rental_uris": {"android": "https://dc.lft.to/lastmile_qr_scan", "ios": "https://dc.lft.to/lastmile_qr_scan"}, "type": "electric_scooter"}, {"bike_id": "e3643d0ad8b6bfe7d6f508a533132598", "is_reserved": 0, "name": "e3643d0ad8b6bfe7d6f508a533132598", "lat": 38.91214516666667, "fusion_lat": 0.0, "lon": -77.0319715, "is_disabled": 0, "fusion_lon": 0.0, "rental_uris": {"android": "https://dc.lft.to/lastmile_qr_scan", "ios": "https://dc.lft.to/lastmile_qr_scan"}, "type": "electric_scooter"}, {"bike_id": "221ec922c7cd0e92d1bb838990d4f452", "is_reserved": 0, "name": "221ec922c7cd0e92d1bb838990d4f452", "lat": 38.92054183333333, "fusion_lat": 0.0, "lon": -77.02184683333333, "is_disabled": 0, "fusion_lon": 0.0, "rental_uris": {"android": "https://dc.lft.to/lastmile_qr_scan", "ios": "https://dc.lft.to/lastmile_qr_scan"}, "type": "electric_scooter"}, {"bike_id": "5f88582e84da4390d6478b4abfe301e0", "is_reserved": 0, "name": "5f88582e84da4390d6478b4abfe301e0", "lat": 38.917271, "fusion_lat": 0.0, "lon": -77.02705883333333, "is_disabled": 0, "fusion_lon": 0.0, "rental_uris": {"android": "https://dc.lft.to/lastmile_qr_scan", "ios": "https://dc.lft.to/lastmile_qr_scan"}, "type": "electric_scooter"}, {"bike_id": "f4a5a3239f2b07f31844223ade438bee", "is_reserved": 0, "name": "f4a5a3239f2b07f31844223ade438bee", "lat": 38.91195316666666, "fusion_lat": 0.0, "lon": -77.03044116666666, "is_disabled": 0, "fusion_lon": 0.0, "rental_uris": {"android": "https://dc.lft.to/lastmile_qr_scan", "ios": "https://dc.lft.to/lastmile_qr_scan"}, "type": "electric_scooter"}, {"bike_id": "ed14de8a5761191daaf53a774661e0ce", "is_reserved": 0, "name": "ed14de8a5761191daaf53a774661e0ce", "lat": 38.89558383333333, "fusion_lat": 0.0, "lon": -76.94871866666666, "is_disabled": 0, "fusion_lon": 0.0, "rental_uris": {"android": "https://dc.lft.to/lastmile_qr_scan", "ios": "https://dc.lft.to/lastmile_qr_scan"}, "type": "electric_scooter"}, {"bike_id": "c5cd362825ba53e46c0dbdec19ad67e3", "is_reserved": 0, "name": "c5cd362825ba53e46c0dbdec19ad67e3", "lat": 38.89226883333333, "fusion_lat": 0.0, "lon": -77.02632, "is_disabled": 0, "fusion_lon": 0.0, "rental_uris": {"android": "https://dc.lft.to/lastmile_qr_scan", "ios": "https://dc.lft.to/lastmile_qr_scan"}, "type": "electric_scooter"}, {"bike_id": "cccefe6156d304b59504debb59d7277a", "is_reserved": 0, "name": "cccefe6156d304b59504debb59d7277a", "lat": 38.919306666666664, "fusion_lat": 0.0, "lon": -77.04493933333333, "is_disabled": 0, "fusion_lon": 0.0, "rental_uris": {"android": "https://dc.lft.to/lastmile_qr_scan", "ios": "https://dc.lft.to/lastmile_qr_scan"}, "type": "electric_scooter"}, {"bike_id": "7a8550336a6c621c2ce7c67285ac98ab", "is_reserved": 0, "name": "7a8550336a6c621c2ce7c67285ac98ab", "lat": 38.895801166666665, "fusion_lat": 0.0, "lon": -76.98322933333333, "is_disabled": 0, "fusion_lon": 0.0, "rental_uris": {"android": "https://dc.lft.to/lastmile_qr_scan", "ios": "https://dc.lft.to/lastmile_qr_scan"}, "type": "electric_scooter"}, {"bike_id": "3c7cff025b607b6c4f1fc10de2c86dd8", "is_reserved": 0, "name": "3c7cff025b607b6c4f1fc10de2c86dd8", "lat": 38.916329166666664, "fusion_lat": 0.0, "lon": -77.04012266666666, "is_disabled": 0, "fusion_lon": 0.0, "rental_uris": {"android": "https://dc.lft.to/lastmile_qr_scan", "ios": "https://dc.lft.to/lastmile_qr_scan"}, "type": "electric_scooter"}, {"bike_id": "1fa465a64f86236e55f0bcd6dce56f91", "is_reserved": 0, "name": "1fa465a64f86236e55f0bcd6dce56f91", "lat": 38.9234085, "fusion_lat": 0.0, "lon": -77.019062, "is_disabled": 0, "fusion_lon": 0.0, "rental_uris": {"android": "https://dc.lft.to/lastmile_qr_scan", "ios": "https://dc.lft.to/lastmile_qr_scan"}, "type": "electric_scooter"}, {"bike_id": "f5d10f137aaeca89b4ff30797274b48c", "is_reserved": 0, "name": "f5d10f137aaeca89b4ff30797274b48c", "lat": 38.87909333333333, "fusion_lat": 0.0, "lon": -76.99488116666667, "is_disabled": 0, "fusion_lon": 0.0, "rental_uris": {"android": "https://dc.lft.to/lastmile_qr_scan", "ios": "https://dc.lft.to/lastmile_qr_scan"}, "type": "electric_scooter"}, {"bike_id": "8455615ea657bdc4abd9238c552b72c4", "is_reserved": 0, "name": "8455615ea657bdc4abd9238c552b72c4", "lat": 38.904690333333335, "fusion_lat": 0.0, "lon": -77.02822533333334, "is_disabled": 0, "fusion_lon": 0.0, "rental_uris": {"android": "https://dc.lft.to/lastmile_qr_scan", "ios": "https://dc.lft.to/lastmile_qr_scan"}, "type": "electric_scooter"}, {"bike_id": "62a9c7cbaaea7ca0b95dc448cc3e150a", "is_reserved": 0, "name": "62a9c7cbaaea7ca0b95dc448cc3e150a", "lat": 38.92667616666667, "fusion_lat": 0.0, "lon": -77.0302415, "is_disabled": 0, "fusion_lon": 0.0, "rental_uris": {"android": "https://dc.lft.to/lastmile_qr_scan", "ios": "https://dc.lft.to/lastmile_qr_scan"}, "type": "electric_scooter"}, {"bike_id": "85aef6348503df1fa89755dbbd680d7b", "is_reserved": 0, "name": "85aef6348503df1fa89755dbbd680d7b", "lat": 38.9170475, "fusion_lat": 0.0, "lon": -77.04273883333333, "is_disabled": 0, "fusion_lon": 0.0, "rental_uris": {"android": "https://dc.lft.to/lastmile_qr_scan", "ios": "https://dc.lft.to/lastmile_qr_scan"}, "type": "electric_scooter"}, {"bike_id": "20df3f8282a09e4b53b3850c134d2353", "is_reserved": 0, "name": "20df3f8282a09e4b53b3850c134d2353", "lat": 38.93010833333334, "fusion_lat": 0.0, "lon": -77.055276, "is_disabled": 0, "fusion_lon": 0.0, "rental_uris": {"android": "https://dc.lft.to/lastmile_qr_scan", "ios": "https://dc.lft.to/lastmile_qr_scan"}, "type": "electric_scooter"}, {"bike_id": "6aa4c4e5e36ad7109c8236d7c3d7986f", "is_reserved": 0, "name": "6aa4c4e5e36ad7109c8236d7c3d7986f", "lat": 38.959385833333336, "fusion_lat": 0.0, "lon": -76.9283805, "is_disabled": 0, "fusion_lon": 0.0, "rental_uris": {"android": "https://dc.lft.to/lastmile_qr_scan", "ios": "https://dc.lft.to/lastmile_qr_scan"}, "type": "electric_bike"}, {"bike_id": "d1aee95322342c7a8bdb5412ea7abb9d", "is_reserved": 0, "name": "d1aee95322342c7a8bdb5412ea7abb9d", "lat": 38.8765375, "fusion_lat": 0.0, "lon": -77.00077, "is_disabled": 0, "fusion_lon": 0.0, "rental_uris": {"android": "https://dc.lft.to/lastmile_qr_scan", "ios": "https://dc.lft.to/lastmile_qr_scan"}, "type": "electric_scooter"}, {"bike_id": "ec040d8d08e7a8699cd909e6ae9c3315", "is_reserved": 0, "name": "ec040d8d08e7a8699cd909e6ae9c3315", "lat": 38.91481016666667, "fusion_lat": 0.0, "lon": -77.04607216666666, "is_disabled": 0, "fusion_lon": 0.0, "rental_uris": {"android": "https://dc.lft.to/lastmile_qr_scan", "ios": "https://dc.lft.to/lastmile_qr_scan"}, "type": "electric_scooter"}, {"bike_id": "0e01f9d7fb7411b82496e8cb3853e564", "is_reserved": 0, "name": "0e01f9d7fb7411b82496e8cb3853e564", "lat": 38.87489983333333, "fusion_lat": 0.0, "lon": -77.002829, "is_disabled": 0, "fusion_lon": 0.0, "rental_uris": {"android": "https://dc.lft.to/lastmile_qr_scan", "ios": "https://dc.lft.to/lastmile_qr_scan"}, "type": "electric_scooter"}, {"bike_id": "4cd86542ecf6e055dc16d4a12a48bce4", "is_reserved": 0, "name": "4cd86542ecf6e055dc16d4a12a48bce4", "lat": 38.92837933333333, "fusion_lat": 0.0, "lon": -77.01413583333333, "is_disabled": 0, "fusion_lon": 0.0, "rental_uris": {"android": "https://dc.lft.to/lastmile_qr_scan", "ios": "https://dc.lft.to/lastmile_qr_scan"}, "type": "electric_scooter"}, {"bike_id": "77fe55164fd8d22456b4fc5087039a61", "is_reserved": 0, "name": "77fe55164fd8d22456b4fc5087039a61", "lat": 38.92683483333333, "fusion_lat": 0.0, "lon": -77.03142283333334, "is_disabled": 0, "fusion_lon": 0.0, "rental_uris": {"android": "https://dc.lft.to/lastmile_qr_scan", "ios": "https://dc.lft.to/lastmile_qr_scan"}, "type": "electric_scooter"}, {"bike_id": "f8f18da62f8f7921ffae63c2a2968c32", "is_reserved": 0, "name": "f8f18da62f8f7921ffae63c2a2968c32", "lat": 38.918005, "fusion_lat": 0.0, "lon": -77.03183083333333, "is_disabled": 0, "fusion_lon": 0.0, "rental_uris": {"android": "https://dc.lft.to/lastmile_qr_scan", "ios": "https://dc.lft.to/lastmile_qr_scan"}, "type": "electric_scooter"}, {"bike_id": "037793c237ecaf1b7167fcc69f876d09", "is_reserved": 0, "name": "037793c237ecaf1b7167fcc69f876d09", "lat": 38.95410733333333, "fusion_lat": 0.0, "lon": -77.0279535, "is_disabled": 0, "fusion_lon": 0.0, "rental_uris": {"android": "https://dc.lft.to/lastmile_qr_scan", "ios": "https://dc.lft.to/lastmile_qr_scan"}, "type": "electric_scooter"}, {"bike_id": "36e6436a5b09f07fe7078974dc4f9fca", "is_reserved": 0, "name": "36e6436a5b09f07fe7078974dc4f9fca", "lat": 38.9318005, "fusion_lat": 0.0, "lon": -77.03155316666667, "is_disabled": 0, "fusion_lon": 0.0, "rental_uris": {"android": "https://dc.lft.to/lastmile_qr_scan", "ios": "https://dc.lft.to/lastmile_qr_scan"}, "type": "electric_scooter"}, {"bike_id": "12cdeb611a4e9b45c249d502e0945a64", "is_reserved": 0, "name": "12cdeb611a4e9b45c249d502e0945a64", "lat": 38.860230666666666, "fusion_lat": 0.0, "lon": -77.12804216666666, "is_disabled": 0, "fusion_lon": 0.0, "rental_uris": {"android": "https://dc.lft.to/lastmile_qr_scan", "ios": "https://dc.lft.to/lastmile_qr_scan"}, "type": "electric_bike"}, {"bike_id": "21b00e67d5f71c736c307c21dd4b2831", "is_reserved": 0, "name": "21b00e67d5f71c736c307c21dd4b2831", "lat": 38.924677, "fusion_lat": 0.0, "lon": -77.05233416666667, "is_disabled": 0, "fusion_lon": 0.0, "rental_uris": {"android": "https://dc.lft.to/lastmile_qr_scan", "ios": "https://dc.lft.to/lastmile_qr_scan"}, "type": "electric_scooter"}, {"bike_id": "bf45ff5370a3e6f6da406ccb37f54288", "is_reserved": 0, "name": "bf45ff5370a3e6f6da406ccb37f54288", "lat": 38.917295333333335, "fusion_lat": 0.0, "lon": -77.01922416666666, "is_disabled": 0, "fusion_lon": 0.0, "rental_uris": {"android": "https://dc.lft.to/lastmile_qr_scan", "ios": "https://dc.lft.to/lastmile_qr_scan"}, "type": "electric_scooter"}, {"bike_id": "53963c35a314d3747876e0f8ee9eb9bd", "is_reserved": 0, "name": "53963c35a314d3747876e0f8ee9eb9bd", "lat": 38.9168935, "fusion_lat": 0.0, "lon": -77.02957966666666, "is_disabled": 0, "fusion_lon": 0.0, "rental_uris": {"android": "https://dc.lft.to/lastmile_qr_scan", "ios": "https://dc.lft.to/lastmile_qr_scan"}, "type": "electric_scooter"}, {"bike_id": "27dfa74ac9a6f37c3588db1751a01d76", "is_reserved": 0, "name": "27dfa74ac9a6f37c3588db1751a01d76", "lat": 38.8666775, "fusion_lat": 0.0, "lon": -76.989015, "is_disabled": 0, "fusion_lon": 0.0, "rental_uris": {"android": "https://dc.lft.to/lastmile_qr_scan", "ios": "https://dc.lft.to/lastmile_qr_scan"}, "type": "electric_scooter"}, {"bike_id": "9ddf9a6531b3233c6bb3fd4114bf41e4", "is_reserved": 0, "name": "9ddf9a6531b3233c6bb3fd4114bf41e4", "lat": 38.90948683333333, "fusion_lat": 0.0, "lon": -77.02712566666666, "is_disabled": 0, "fusion_lon": 0.0, "rental_uris": {"android": "https://dc.lft.to/lastmile_qr_scan", "ios": "https://dc.lft.to/lastmile_qr_scan"}, "type": "electric_scooter"}, {"bike_id": "74df7343b4c8bd921140b11be846b749", "is_reserved": 0, "name": "74df7343b4c8bd921140b11be846b749", "lat": 38.887314833333335, "fusion_lat": 0.0, "lon": -77.03184966666667, "is_disabled": 0, "fusion_lon": 0.0, "rental_uris": {"android": "https://dc.lft.to/lastmile_qr_scan", "ios": "https://dc.lft.to/lastmile_qr_scan"}, "type": "electric_scooter"}, {"bike_id": "8e338ce8f955a944de2d3b306f5561d0", "is_reserved": 0, "name": "8e338ce8f955a944de2d3b306f5561d0", "lat": 38.91693016666667, "fusion_lat": 0.0, "lon": -77.0264325, "is_disabled": 0, "fusion_lon": 0.0, "rental_uris": {"android": "https://dc.lft.to/lastmile_qr_scan", "ios": "https://dc.lft.to/lastmile_qr_scan"}, "type": "electric_scooter"}, {"bike_id": "abdcdeb49481a426064412c459407e1b", "is_reserved": 0, "name": "abdcdeb49481a426064412c459407e1b", "lat": 38.93486083333333, "fusion_lat": 0.0, "lon": -77.0727375, "is_disabled": 0, "fusion_lon": 0.0, "rental_uris": {"android": "https://dc.lft.to/lastmile_qr_scan", "ios": "https://dc.lft.to/lastmile_qr_scan"}, "type": "electric_scooter"}, {"bike_id": "4f38abf77268af022288de13ca236cbf", "is_reserved": 0, "name": "4f38abf77268af022288de13ca236cbf", "lat": 38.8979115, "fusion_lat": 0.0, "lon": -76.94728533333333, "is_disabled": 0, "fusion_lon": 0.0, "rental_uris": {"android": "https://dc.lft.to/lastmile_qr_scan", "ios": "https://dc.lft.to/lastmile_qr_scan"}, "type": "electric_scooter"}, {"bike_id": "79fcf8d82ad6085da7ecdbfb6b135d0a", "is_reserved": 0, "name": "79fcf8d82ad6085da7ecdbfb6b135d0a", "lat": 38.91922116666667, "fusion_lat": 0.0, "lon": -77.032623, "is_disabled": 0, "fusion_lon": 0.0, "rental_uris": {"android": "https://dc.lft.to/lastmile_qr_scan", "ios": "https://dc.lft.to/lastmile_qr_scan"}, "type": "electric_scooter"}, {"bike_id": "b1d92805445ee43808e9ed60a25425bb", "is_reserved": 0, "name": "b1d92805445ee43808e9ed60a25425bb", "lat": 38.90388883333333, "fusion_lat": 0.0, "lon": -77.0298585, "is_disabled": 0, "fusion_lon": 0.0, "rental_uris": {"android": "https://dc.lft.to/lastmile_qr_scan", "ios": "https://dc.lft.to/lastmile_qr_scan"}, "type": "electric_scooter"}, {"bike_id": "e785c1e082a756266d58127eabc7eec7", "is_reserved": 0, "name": "e785c1e082a756266d58127eabc7eec7", "lat": 38.8702495, "fusion_lat": 0.0, "lon": -77.228961, "is_disabled": 0, "fusion_lon": 0.0, "rental_uris": {"android": "https://dc.lft.to/lastmile_qr_scan", "ios": "https://dc.lft.to/lastmile_qr_scan"}, "type": "electric_bike"}, {"bike_id": "6386f1a1cbc1aee2682a02787bc5eee3", "is_reserved": 0, "name": "6386f1a1cbc1aee2682a02787bc5eee3", "lat": 38.92344683333334, "fusion_lat": 0.0, "lon": -77.03901666666667, "is_disabled": 0, "fusion_lon": 0.0, "rental_uris": {"android": "https://dc.lft.to/lastmile_qr_scan", "ios": "https://dc.lft.to/lastmile_qr_scan"}, "type": "electric_scooter"}, {"bike_id": "33afec2ee24d073c0a845ab7cb88547b", "is_reserved": 0, "name": "33afec2ee24d073c0a845ab7cb88547b", "lat": 38.90268016666667, "fusion_lat": 0.0, "lon": -77.03630133333333, "is_disabled": 0, "fusion_lon": 0.0, "rental_uris": {"android": "https://dc.lft.to/lastmile_qr_scan", "ios": "https://dc.lft.to/lastmile_qr_scan"}, "type": "electric_scooter"}, {"bike_id": "ffa11b5816a763b78301c3cd8403cd12", "is_reserved": 0, "name": "ffa11b5816a763b78301c3cd8403cd12", "lat": 38.94272216666667, "fusion_lat": 0.0, "lon": -77.03251316666666, "is_disabled": 0, "fusion_lon": 0.0, "rental_uris": {"android": "https://dc.lft.to/lastmile_qr_scan", "ios": "https://dc.lft.to/lastmile_qr_scan"}, "type": "electric_scooter"}, {"bike_id": "bb89776dc6d870c246e40f61b878354c", "is_reserved": 0, "name": "bb89776dc6d870c246e40f61b878354c", "lat": 38.917154333333336, "fusion_lat": 0.0, "lon": -77.033479, "is_disabled": 0, "fusion_lon": 0.0, "rental_uris": {"android": "https://dc.lft.to/lastmile_qr_scan", "ios": "https://dc.lft.to/lastmile_qr_scan"}, "type": "electric_scooter"}, {"bike_id": "ba5797c5945861576c222d0191d84827", "is_reserved": 0, "name": "ba5797c5945861576c222d0191d84827", "lat": 38.9093715, "fusion_lat": 0.0, "lon": -76.99963583333333, "is_disabled": 0, "fusion_lon": 0.0, "rental_uris": {"android": "https://dc.lft.to/lastmile_qr_scan", "ios": "https://dc.lft.to/lastmile_qr_scan"}, "type": "electric_scooter"}, {"bike_id": "54c7a2f8787f3f2d012278dbd84a55d1", "is_reserved": 0, "name": "54c7a2f8787f3f2d012278dbd84a55d1", "lat": 38.903322833333334, "fusion_lat": 0.0, "lon": -77.04484433333333, "is_disabled": 0, "fusion_lon": 0.0, "rental_uris": {"android": "https://dc.lft.to/lastmile_qr_scan", "ios": "https://dc.lft.to/lastmile_qr_scan"}, "type": "electric_scooter"}, {"bike_id": "bfe54fafad457d14c412397a8484bfad", "is_reserved": 0, "name": "bfe54fafad457d14c412397a8484bfad", "lat": 38.89555716666667, "fusion_lat": 0.0, "lon": -76.94873833333334, "is_disabled": 0, "fusion_lon": 0.0, "rental_uris": {"android": "https://dc.lft.to/lastmile_qr_scan", "ios": "https://dc.lft.to/lastmile_qr_scan"}, "type": "electric_scooter"}, {"bike_id": "a973a478775fcf08d11d67ad8a0b6a33", "is_reserved": 0, "name": "a973a478775fcf08d11d67ad8a0b6a33", "lat": 38.907907333333334, "fusion_lat": 0.0, "lon": -77.02958783333334, "is_disabled": 0, "fusion_lon": 0.0, "rental_uris": {"android": "https://dc.lft.to/lastmile_qr_scan", "ios": "https://dc.lft.to/lastmile_qr_scan"}, "type": "electric_scooter"}, {"bike_id": "705fc0885a54cac8d88bf0f62442f2c8", "is_reserved": 0, "name": "705fc0885a54cac8d88bf0f62442f2c8", "lat": 38.905343, "fusion_lat": 0.0, "lon": -76.99803133333333, "is_disabled": 0, "fusion_lon": 0.0, "rental_uris": {"android": "https://dc.lft.to/lastmile_qr_scan", "ios": "https://dc.lft.to/lastmile_qr_scan"}, "type": "electric_bike"}, {"bike_id": "c74139107cc4217edf5cf9ff9d780ff5", "is_reserved": 0, "name": "c74139107cc4217edf5cf9ff9d780ff5", "lat": 38.898831333333334, "fusion_lat": 0.0, "lon": -77.03930783333334, "is_disabled": 0, "fusion_lon": 0.0, "rental_uris": {"android": "https://dc.lft.to/lastmile_qr_scan", "ios": "https://dc.lft.to/lastmile_qr_scan"}, "type": "electric_scooter"}, {"bike_id": "4cadf8a202d15df08a953e2fca1bf95a", "is_reserved": 0, "name": "4cadf8a202d15df08a953e2fca1bf95a", "lat": 38.900218333333335, "fusion_lat": 0.0, "lon": -76.99843816666667, "is_disabled": 0, "fusion_lon": 0.0, "rental_uris": {"android": "https://dc.lft.to/lastmile_qr_scan", "ios": "https://dc.lft.to/lastmile_qr_scan"}, "type": "electric_scooter"}, {"bike_id": "6a91d231fed6bfa32a8512d323eab842", "is_reserved": 0, "name": "6a91d231fed6bfa32a8512d323eab842", "lat": 38.909376333333334, "fusion_lat": 0.0, "lon": -77.02813066666667, "is_disabled": 0, "fusion_lon": 0.0, "rental_uris": {"android": "https://dc.lft.to/lastmile_qr_scan", "ios": "https://dc.lft.to/lastmile_qr_scan"}, "type": "electric_scooter"}, {"bike_id": "8911588cdee125ce768a9d6a3e4c6987", "is_reserved": 0, "name": "8911588cdee125ce768a9d6a3e4c6987", "lat": 38.877480166666665, "fusion_lat": 0.0, "lon": -77.00336483333334, "is_disabled": 0, "fusion_lon": 0.0, "rental_uris": {"android": "https://dc.lft.to/lastmile_qr_scan", "ios": "https://dc.lft.to/lastmile_qr_scan"}, "type": "electric_scooter"}, {"bike_id": "eadc21b2630ad496236484033ce71d48", "is_reserved": 0, "name": "eadc21b2630ad496236484033ce71d48", "lat": 38.90489316666667, "fusion_lat": 0.0, "lon": -77.06266583333333, "is_disabled": 0, "fusion_lon": 0.0, "rental_uris": {"android": "https://dc.lft.to/lastmile_qr_scan", "ios": "https://dc.lft.to/lastmile_qr_scan"}, "type": "electric_scooter"}, {"bike_id": "7650e07ecd7664e3bf59a88e1a2a73ca", "is_reserved": 0, "name": "7650e07ecd7664e3bf59a88e1a2a73ca", "lat": 38.896125833333336, "fusion_lat": 0.0, "lon": -77.01334583333333, "is_disabled": 0, "fusion_lon": 0.0, "rental_uris": {"android": "https://dc.lft.to/lastmile_qr_scan", "ios": "https://dc.lft.to/lastmile_qr_scan"}, "type": "electric_scooter"}, {"bike_id": "2d0e5427d6ce58a069800565450ee640", "is_reserved": 0, "name": "2d0e5427d6ce58a069800565450ee640", "lat": 38.92321916666667, "fusion_lat": 0.0, "lon": -77.04027966666666, "is_disabled": 0, "fusion_lon": 0.0, "rental_uris": {"android": "https://dc.lft.to/lastmile_qr_scan", "ios": "https://dc.lft.to/lastmile_qr_scan"}, "type": "electric_scooter"}, {"bike_id": "e5adaa902bb321becc411a945470a127", "is_reserved": 0, "name": "e5adaa902bb321becc411a945470a127", "lat": 38.9003095, "fusion_lat": 0.0, "lon": -76.99634383333333, "is_disabled": 0, "fusion_lon": 0.0, "rental_uris": {"android": "https://dc.lft.to/lastmile_qr_scan", "ios": "https://dc.lft.to/lastmile_qr_scan"}, "type": "electric_scooter"}, {"bike_id": "cd024cbae494b33b67c5e4a25fb608c2", "is_reserved": 0, "name": "cd024cbae494b33b67c5e4a25fb608c2", "lat": 38.917229666666664, "fusion_lat": 0.0, "lon": -77.02299866666667, "is_disabled": 0, "fusion_lon": 0.0, "rental_uris": {"android": "https://dc.lft.to/lastmile_qr_scan", "ios": "https://dc.lft.to/lastmile_qr_scan"}, "type": "electric_scooter"}, {"bike_id": "20cdefe7887eac17c56e4c624c2f46ea", "is_reserved": 0, "name": "20cdefe7887eac17c56e4c624c2f46ea", "lat": 38.904096333333335, "fusion_lat": 0.0, "lon": -77.06265483333334, "is_disabled": 0, "fusion_lon": 0.0, "rental_uris": {"android": "https://dc.lft.to/lastmile_qr_scan", "ios": "https://dc.lft.to/lastmile_qr_scan"}, "type": "electric_scooter"}, {"bike_id": "313250b0a095b28b863f18279a97cfa8", "is_reserved": 0, "name": "313250b0a095b28b863f18279a97cfa8", "lat": 38.841017, "fusion_lat": 0.0, "lon": -77.10703383333333, "is_disabled": 0, "fusion_lon": 0.0, "rental_uris": {"android": "https://dc.lft.to/lastmile_qr_scan", "ios": "https://dc.lft.to/lastmile_qr_scan"}, "type": "electric_bike"}, {"bike_id": "5e388febe00f93e5662cdec4ded57376", "is_reserved": 0, "name": "5e388febe00f93e5662cdec4ded57376", "lat": 38.89722716666667, "fusion_lat": 0.0, "lon": -77.002116, "is_disabled": 0, "fusion_lon": 0.0, "rental_uris": {"android": "https://dc.lft.to/lastmile_qr_scan", "ios": "https://dc.lft.to/lastmile_qr_scan"}, "type": "electric_scooter"}, {"bike_id": "f5b536a81af47309d0f25c8b7192c1c3", "is_reserved": 0, "name": "f5b536a81af47309d0f25c8b7192c1c3", "lat": 38.9003725, "fusion_lat": 0.0, "lon": -77.002223, "is_disabled": 0, "fusion_lon": 0.0, "rental_uris": {"android": "https://dc.lft.to/lastmile_qr_scan", "ios": "https://dc.lft.to/lastmile_qr_scan"}, "type": "electric_scooter"}, {"bike_id": "975e6e4e83df0aa585e0fb74b3897881", "is_reserved": 0, "name": "975e6e4e83df0aa585e0fb74b3897881", "lat": 38.92363683333333, "fusion_lat": 0.0, "lon": -77.021151, "is_disabled": 0, "fusion_lon": 0.0, "rental_uris": {"android": "https://dc.lft.to/lastmile_qr_scan", "ios": "https://dc.lft.to/lastmile_qr_scan"}, "type": "electric_scooter"}, {"bike_id": "0d9927c489920fe941d4c2d3d36628be", "is_reserved": 0, "name": "0d9927c489920fe941d4c2d3d36628be", "lat": 38.900034166666664, "fusion_lat": 0.0, "lon": -77.05418433333334, "is_disabled": 0, "fusion_lon": 0.0, "rental_uris": {"android": "https://dc.lft.to/lastmile_qr_scan", "ios": "https://dc.lft.to/lastmile_qr_scan"}, "type": "electric_scooter"}, {"bike_id": "b4dedb4cc61b28e3ea265bf621159869", "is_reserved": 0, "name": "b4dedb4cc61b28e3ea265bf621159869", "lat": 38.88312533333333, "fusion_lat": 0.0, "lon": -77.01379916666667, "is_disabled": 0, "fusion_lon": 0.0, "rental_uris": {"android": "https://dc.lft.to/lastmile_qr_scan", "ios": "https://dc.lft.to/lastmile_qr_scan"}, "type": "electric_scooter"}, {"bike_id": "2f617e3d8f4eb4db7a872811aa2b9395", "is_reserved": 0, "name": "2f617e3d8f4eb4db7a872811aa2b9395", "lat": 38.923447333333336, "fusion_lat": 0.0, "lon": -77.05179116666666, "is_disabled": 0, "fusion_lon": 0.0, "rental_uris": {"android": "https://dc.lft.to/lastmile_qr_scan", "ios": "https://dc.lft.to/lastmile_qr_scan"}, "type": "electric_scooter"}, {"bike_id": "d09548ffff4332745d4096bd521f82ce", "is_reserved": 0, "name": "d09548ffff4332745d4096bd521f82ce", "lat": 38.907896666666666, "fusion_lat": 0.0, "lon": -77.0450385, "is_disabled": 0, "fusion_lon": 0.0, "rental_uris": {"android": "https://dc.lft.to/lastmile_qr_scan", "ios": "https://dc.lft.to/lastmile_qr_scan"}, "type": "electric_scooter"}, {"bike_id": "d46890a883394d3c36cf7e606e57e45a", "is_reserved": 0, "name": "d46890a883394d3c36cf7e606e57e45a", "lat": 38.90522433333334, "fusion_lat": 0.0, "lon": -77.05080266666667, "is_disabled": 0, "fusion_lon": 0.0, "rental_uris": {"android": "https://dc.lft.to/lastmile_qr_scan", "ios": "https://dc.lft.to/lastmile_qr_scan"}, "type": "electric_scooter"}, {"bike_id": "5d9d1d5d6cc656e52b8e8bed290961c6", "is_reserved": 0, "name": "5d9d1d5d6cc656e52b8e8bed290961c6", "lat": 38.90219466666667, "fusion_lat": 0.0, "lon": -77.016094, "is_disabled": 0, "fusion_lon": 0.0, "rental_uris": {"android": "https://dc.lft.to/lastmile_qr_scan", "ios": "https://dc.lft.to/lastmile_qr_scan"}, "type": "electric_scooter"}, {"bike_id": "73932985d428987ab6e9e1d36c59b68c", "is_reserved": 0, "name": "73932985d428987ab6e9e1d36c59b68c", "lat": 38.871817, "fusion_lat": 0.0, "lon": -77.006063, "is_disabled": 0, "fusion_lon": 0.0, "rental_uris": {"android": "https://dc.lft.to/lastmile_qr_scan", "ios": "https://dc.lft.to/lastmile_qr_scan"}, "type": "electric_scooter"}, {"bike_id": "eb6b2b9b3d93ee3a3f32c9ce8bd0c654", "is_reserved": 0, "name": "eb6b2b9b3d93ee3a3f32c9ce8bd0c654", "lat": 38.995696, "fusion_lat": 0.0, "lon": -77.02407116666667, "is_disabled": 0, "fusion_lon": 0.0, "rental_uris": {"android": "https://dc.lft.to/lastmile_qr_scan", "ios": "https://dc.lft.to/lastmile_qr_scan"}, "type": "electric_bike"}, {"bike_id": "92e3e41c2bdf9b41f0a80b270d133f27", "is_reserved": 0, "name": "92e3e41c2bdf9b41f0a80b270d133f27", "lat": 38.91686583333333, "fusion_lat": 0.0, "lon": -77.02384516666666, "is_disabled": 0, "fusion_lon": 0.0, "rental_uris": {"android": "https://dc.lft.to/lastmile_qr_scan", "ios": "https://dc.lft.to/lastmile_qr_scan"}, "type": "electric_scooter"}, {"bike_id": "fef91540ea312982eefa39d09c0fcfd6", "is_reserved": 0, "name": "fef91540ea312982eefa39d09c0fcfd6", "lat": 38.91415583333333, "fusion_lat": 0.0, "lon": -77.03026883333334, "is_disabled": 0, "fusion_lon": 0.0, "rental_uris": {"android": "https://dc.lft.to/lastmile_qr_scan", "ios": "https://dc.lft.to/lastmile_qr_scan"}, "type": "electric_scooter"}, {"bike_id": "e0337639d58796b4c89be94f4c13cfc4", "is_reserved": 0, "name": "e0337639d58796b4c89be94f4c13cfc4", "lat": 38.90543516666666, "fusion_lat": 0.0, "lon": -77.045632, "is_disabled": 0, "fusion_lon": 0.0, "rental_uris": {"android": "https://dc.lft.to/lastmile_qr_scan", "ios": "https://dc.lft.to/lastmile_qr_scan"}, "type": "electric_scooter"}, {"bike_id": "4ff27c43e19cb9d5b9c4a5a242501266", "is_reserved": 0, "name": "4ff27c43e19cb9d5b9c4a5a242501266", "lat": 38.90288116666667, "fusion_lat": 0.0, "lon": -77.022724, "is_disabled": 0, "fusion_lon": 0.0, "rental_uris": {"android": "https://dc.lft.to/lastmile_qr_scan", "ios": "https://dc.lft.to/lastmile_qr_scan"}, "type": "electric_scooter"}, {"bike_id": "433fbc9707b9226e1dfb858ecc18751d", "is_reserved": 0, "name": "433fbc9707b9226e1dfb858ecc18751d", "lat": 38.921747, "fusion_lat": 0.0, "lon": -77.04028066666666, "is_disabled": 0, "fusion_lon": 0.0, "rental_uris": {"android": "https://dc.lft.to/lastmile_qr_scan", "ios": "https://dc.lft.to/lastmile_qr_scan"}, "type": "electric_scooter"}, {"bike_id": "a595b9e5fd1e61e31e2395d0e97c99fc", "is_reserved": 0, "name": "a595b9e5fd1e61e31e2395d0e97c99fc", "lat": 38.91271583333333, "fusion_lat": 0.0, "lon": -77.03122883333333, "is_disabled": 0, "fusion_lon": 0.0, "rental_uris": {"android": "https://dc.lft.to/lastmile_qr_scan", "ios": "https://dc.lft.to/lastmile_qr_scan"}, "type": "electric_scooter"}, {"bike_id": "f4653a33fd2c1a4f1c7de22888212f4a", "is_reserved": 0, "name": "f4653a33fd2c1a4f1c7de22888212f4a", "lat": 38.897508, "fusion_lat": 0.0, "lon": -77.00746383333333, "is_disabled": 0, "fusion_lon": 0.0, "rental_uris": {"android": "https://dc.lft.to/lastmile_qr_scan", "ios": "https://dc.lft.to/lastmile_qr_scan"}, "type": "electric_bike"}, {"bike_id": "9ddb4a21e758021d89f47654ea8aff39", "is_reserved": 0, "name": "9ddb4a21e758021d89f47654ea8aff39", "lat": 38.9071345, "fusion_lat": 0.0, "lon": -77.05043533333334, "is_disabled": 0, "fusion_lon": 0.0, "rental_uris": {"android": "https://dc.lft.to/lastmile_qr_scan", "ios": "https://dc.lft.to/lastmile_qr_scan"}, "type": "electric_scooter"}, {"bike_id": "d42f13fc6ffb5f8530418948542155a2", "is_reserved": 0, "name": "d42f13fc6ffb5f8530418948542155a2", "lat": 38.918231666666664, "fusion_lat": 0.0, "lon": -77.03143966666667, "is_disabled": 0, "fusion_lon": 0.0, "rental_uris": {"android": "https://dc.lft.to/lastmile_qr_scan", "ios": "https://dc.lft.to/lastmile_qr_scan"}, "type": "electric_scooter"}, {"bike_id": "a93081ac2e53819556e1d459937ec757", "is_reserved": 0, "name": "a93081ac2e53819556e1d459937ec757", "lat": 38.80676966666667, "fusion_lat": 0.0, "lon": -77.06916116666666, "is_disabled": 0, "fusion_lon": 0.0, "rental_uris": {"android": "https://dc.lft.to/lastmile_qr_scan", "ios": "https://dc.lft.to/lastmile_qr_scan"}, "type": "electric_bike"}, {"bike_id": "72550a978dd399c035c86e3574cfee7a", "is_reserved": 0, "name": "72550a978dd399c035c86e3574cfee7a", "lat": 38.90173083333333, "fusion_lat": 0.0, "lon": -76.99255366666667, "is_disabled": 0, "fusion_lon": 0.0, "rental_uris": {"android": "https://dc.lft.to/lastmile_qr_scan", "ios": "https://dc.lft.to/lastmile_qr_scan"}, "type": "electric_scooter"}, {"bike_id": "1b48a51a091c120a4a6b278df55435df", "is_reserved": 0, "name": "1b48a51a091c120a4a6b278df55435df", "lat": 38.92795316666667, "fusion_lat": 0.0, "lon": -77.02728616666667, "is_disabled": 0, "fusion_lon": 0.0, "rental_uris": {"android": "https://dc.lft.to/lastmile_qr_scan", "ios": "https://dc.lft.to/lastmile_qr_scan"}, "type": "electric_scooter"}, {"bike_id": "17c5d59f859df5b4b5737e53870e4d8a", "is_reserved": 0, "name": "17c5d59f859df5b4b5737e53870e4d8a", "lat": 38.922577833333335, "fusion_lat": 0.0, "lon": -77.01972283333333, "is_disabled": 0, "fusion_lon": 0.0, "rental_uris": {"android": "https://dc.lft.to/lastmile_qr_scan", "ios": "https://dc.lft.to/lastmile_qr_scan"}, "type": "electric_scooter"}, {"bike_id": "62b81a23f65b6b317666ee8f0c435c76", "is_reserved": 0, "name": "62b81a23f65b6b317666ee8f0c435c76", "lat": 38.80715683333333, "fusion_lat": 0.0, "lon": -77.061739, "is_disabled": 0, "fusion_lon": 0.0, "rental_uris": {"android": "https://dc.lft.to/lastmile_qr_scan", "ios": "https://dc.lft.to/lastmile_qr_scan"}, "type": "electric_bike"}, {"bike_id": "e02289eb21bd6969f35c033ab3812ef1", "is_reserved": 0, "name": "e02289eb21bd6969f35c033ab3812ef1", "lat": 38.92838916666667, "fusion_lat": 0.0, "lon": -77.0060035, "is_disabled": 0, "fusion_lon": 0.0, "rental_uris": {"android": "https://dc.lft.to/lastmile_qr_scan", "ios": "https://dc.lft.to/lastmile_qr_scan"}, "type": "electric_scooter"}, {"bike_id": "7fe85cfef9e9fd0e822fb31f17cb648f", "is_reserved": 0, "name": "7fe85cfef9e9fd0e822fb31f17cb648f", "lat": 38.93083383333333, "fusion_lat": 0.0, "lon": -77.03411416666667, "is_disabled": 0, "fusion_lon": 0.0, "rental_uris": {"android": "https://dc.lft.to/lastmile_qr_scan", "ios": "https://dc.lft.to/lastmile_qr_scan"}, "type": "electric_scooter"}, {"bike_id": "7f45ae4a40b50137eeb068dc65b11986", "is_reserved": 0, "name": "7f45ae4a40b50137eeb068dc65b11986", "lat": 38.8922985, "fusion_lat": 0.0, "lon": -76.98817466666667, "is_disabled": 0, "fusion_lon": 0.0, "rental_uris": {"android": "https://dc.lft.to/lastmile_qr_scan", "ios": "https://dc.lft.to/lastmile_qr_scan"}, "type": "electric_scooter"}, {"bike_id": "c70f6fb5b9f8a0e29a88708177950ed1", "is_reserved": 0, "name": "c70f6fb5b9f8a0e29a88708177950ed1", "lat": 38.937779, "fusion_lat": 0.0, "lon": -77.03263483333333, "is_disabled": 0, "fusion_lon": 0.0, "rental_uris": {"android": "https://dc.lft.to/lastmile_qr_scan", "ios": "https://dc.lft.to/lastmile_qr_scan"}, "type": "electric_scooter"}, {"bike_id": "145a87ab86b7bf19b55461d1b3c7fdc5", "is_reserved": 0, "name": "145a87ab86b7bf19b55461d1b3c7fdc5", "lat": 38.91265666666666, "fusion_lat": 0.0, "lon": -77.0282225, "is_disabled": 0, "fusion_lon": 0.0, "rental_uris": {"android": "https://dc.lft.to/lastmile_qr_scan", "ios": "https://dc.lft.to/lastmile_qr_scan"}, "type": "electric_scooter"}, {"bike_id": "57157192467b5e2625ee7fccef39a968", "is_reserved": 0, "name": "57157192467b5e2625ee7fccef39a968", "lat": 38.91189833333333, "fusion_lat": 0.0, "lon": -77.03756966666667, "is_disabled": 0, "fusion_lon": 0.0, "rental_uris": {"android": "https://dc.lft.to/lastmile_qr_scan", "ios": "https://dc.lft.to/lastmile_qr_scan"}, "type": "electric_scooter"}, {"bike_id": "236ac1d5fbd395c4799c81e70b171a8b", "is_reserved": 0, "name": "236ac1d5fbd395c4799c81e70b171a8b", "lat": 38.95604216666667, "fusion_lat": 0.0, "lon": -77.0335395, "is_disabled": 0, "fusion_lon": 0.0, "rental_uris": {"android": "https://dc.lft.to/lastmile_qr_scan", "ios": "https://dc.lft.to/lastmile_qr_scan"}, "type": "electric_scooter"}, {"bike_id": "a37f3a2b1c7067df6d0102baf67b6f8a", "is_reserved": 0, "name": "a37f3a2b1c7067df6d0102baf67b6f8a", "lat": 38.8960175, "fusion_lat": 0.0, "lon": -77.02350183333333, "is_disabled": 0, "fusion_lon": 0.0, "rental_uris": {"android": "https://dc.lft.to/lastmile_qr_scan", "ios": "https://dc.lft.to/lastmile_qr_scan"}, "type": "electric_scooter"}, {"bike_id": "6c8def16e9494649862ac54db72fc5a3", "is_reserved": 0, "name": "6c8def16e9494649862ac54db72fc5a3", "lat": 38.902713, "fusion_lat": 0.0, "lon": -77.033567, "is_disabled": 0, "fusion_lon": 0.0, "rental_uris": {"android": "https://dc.lft.to/lastmile_qr_scan", "ios": "https://dc.lft.to/lastmile_qr_scan"}, "type": "electric_scooter"}, {"bike_id": "0579f3cdc2bf03c0191f7fd4373faedd", "is_reserved": 0, "name": "0579f3cdc2bf03c0191f7fd4373faedd", "lat": 38.9181785, "fusion_lat": 0.0, "lon": -77.04002633333333, "is_disabled": 0, "fusion_lon": 0.0, "rental_uris": {"android": "https://dc.lft.to/lastmile_qr_scan", "ios": "https://dc.lft.to/lastmile_qr_scan"}, "type": "electric_scooter"}, {"bike_id": "0e1fd7af7054ea0e4d149e3ce3a30d37", "is_reserved": 0, "name": "0e1fd7af7054ea0e4d149e3ce3a30d37", "lat": 38.89210033333333, "fusion_lat": 0.0, "lon": -76.99572583333334, "is_disabled": 0, "fusion_lon": 0.0, "rental_uris": {"android": "https://dc.lft.to/lastmile_qr_scan", "ios": "https://dc.lft.to/lastmile_qr_scan"}, "type": "electric_scooter"}, {"bike_id": "3b3389dc84f44bd0830611cfd1971d89", "is_reserved": 0, "name": "3b3389dc84f44bd0830611cfd1971d89", "lat": 38.92155833333333, "fusion_lat": 0.0, "lon": -76.9935875, "is_disabled": 0, "fusion_lon": 0.0, "rental_uris": {"android": "https://dc.lft.to/lastmile_qr_scan", "ios": "https://dc.lft.to/lastmile_qr_scan"}, "type": "electric_scooter"}, {"bike_id": "c3a42b22dbc0fda1a6c190b728529110", "is_reserved": 0, "name": "c3a42b22dbc0fda1a6c190b728529110", "lat": 38.90686216666667, "fusion_lat": 0.0, "lon": -77.0269215, "is_disabled": 0, "fusion_lon": 0.0, "rental_uris": {"android": "https://dc.lft.to/lastmile_qr_scan", "ios": "https://dc.lft.to/lastmile_qr_scan"}, "type": "electric_scooter"}, {"bike_id": "7ab6c0984912df57dcb03042b3f22edd", "is_reserved": 0, "name": "7ab6c0984912df57dcb03042b3f22edd", "lat": 38.9238015, "fusion_lat": 0.0, "lon": -77.04094616666667, "is_disabled": 0, "fusion_lon": 0.0, "rental_uris": {"android": "https://dc.lft.to/lastmile_qr_scan", "ios": "https://dc.lft.to/lastmile_qr_scan"}, "type": "electric_scooter"}, {"bike_id": "bec9082e278c394ec862d9181b2180b2", "is_reserved": 0, "name": "bec9082e278c394ec862d9181b2180b2", "lat": 38.88752516666667, "fusion_lat": 0.0, "lon": -76.99605316666667, "is_disabled": 0, "fusion_lon": 0.0, "rental_uris": {"android": "https://dc.lft.to/lastmile_qr_scan", "ios": "https://dc.lft.to/lastmile_qr_scan"}, "type": "electric_scooter"}, {"bike_id": "cc0af7497734c487235e3791e060850b", "is_reserved": 0, "name": "cc0af7497734c487235e3791e060850b", "lat": 38.90172416666667, "fusion_lat": 0.0, "lon": -76.9926075, "is_disabled": 0, "fusion_lon": 0.0, "rental_uris": {"android": "https://dc.lft.to/lastmile_qr_scan", "ios": "https://dc.lft.to/lastmile_qr_scan"}, "type": "electric_scooter"}, {"bike_id": "20cd25ad352253bc9314cb319ee93765", "is_reserved": 0, "name": "20cd25ad352253bc9314cb319ee93765", "lat": 38.89698516666667, "fusion_lat": 0.0, "lon": -76.96304066666667, "is_disabled": 0, "fusion_lon": 0.0, "rental_uris": {"android": "https://dc.lft.to/lastmile_qr_scan", "ios": "https://dc.lft.to/lastmile_qr_scan"}, "type": "electric_bike"}, {"bike_id": "a66e0e8d22b52a52130e93479751c2ff", "is_reserved": 0, "name": "a66e0e8d22b52a52130e93479751c2ff", "lat": 38.847574, "fusion_lat": 0.0, "lon": -76.99501733333334, "is_disabled": 0, "fusion_lon": 0.0, "rental_uris": {"android": "https://dc.lft.to/lastmile_qr_scan", "ios": "https://dc.lft.to/lastmile_qr_scan"}, "type": "electric_scooter"}, {"bike_id": "c2b9d0786cd3107fbb35aefbf340f237", "is_reserved": 0, "name": "c2b9d0786cd3107fbb35aefbf340f237", "lat": 38.921052333333336, "fusion_lat": 0.0, "lon": -77.017645, "is_disabled": 0, "fusion_lon": 0.0, "rental_uris": {"android": "https://dc.lft.to/lastmile_qr_scan", "ios": "https://dc.lft.to/lastmile_qr_scan"}, "type": "electric_scooter"}, {"bike_id": "e4b29b7a3b33dd3ca351f2ddb9b9ba01", "is_reserved": 0, "name": "e4b29b7a3b33dd3ca351f2ddb9b9ba01", "lat": 38.9055725, "fusion_lat": 0.0, "lon": -77.02107616666666, "is_disabled": 0, "fusion_lon": 0.0, "rental_uris": {"android": "https://dc.lft.to/lastmile_qr_scan", "ios": "https://dc.lft.to/lastmile_qr_scan"}, "type": "electric_scooter"}, {"bike_id": "ebe7bbc3f56a692a9c48643047492603", "is_reserved": 0, "name": "ebe7bbc3f56a692a9c48643047492603", "lat": 38.88343483333333, "fusion_lat": 0.0, "lon": -77.0316635, "is_disabled": 0, "fusion_lon": 0.0, "rental_uris": {"android": "https://dc.lft.to/lastmile_qr_scan", "ios": "https://dc.lft.to/lastmile_qr_scan"}, "type": "electric_scooter"}, {"bike_id": "5ad49f2263f9d01164b067a5521f9f07", "is_reserved": 0, "name": "5ad49f2263f9d01164b067a5521f9f07", "lat": 38.898449, "fusion_lat": 0.0, "lon": -77.01368583333333, "is_disabled": 0, "fusion_lon": 0.0, "rental_uris": {"android": "https://dc.lft.to/lastmile_qr_scan", "ios": "https://dc.lft.to/lastmile_qr_scan"}, "type": "electric_scooter"}, {"bike_id": "67bcaffe5b9f5482133d0a7113b2b7ba", "is_reserved": 0, "name": "67bcaffe5b9f5482133d0a7113b2b7ba", "lat": 38.941840666666664, "fusion_lat": 0.0, "lon": -77.026134, "is_disabled": 0, "fusion_lon": 0.0, "rental_uris": {"android": "https://dc.lft.to/lastmile_qr_scan", "ios": "https://dc.lft.to/lastmile_qr_scan"}, "type": "electric_scooter"}, {"bike_id": "fa703479f643996c4979cf20774aa22c", "is_reserved": 0, "name": "fa703479f643996c4979cf20774aa22c", "lat": 38.90528333333334, "fusion_lat": 0.0, "lon": -77.06056883333333, "is_disabled": 0, "fusion_lon": 0.0, "rental_uris": {"android": "https://dc.lft.to/lastmile_qr_scan", "ios": "https://dc.lft.to/lastmile_qr_scan"}, "type": "electric_scooter"}, {"bike_id": "5683c69d5bbec088ad19efe26dce7e67", "is_reserved": 0, "name": "5683c69d5bbec088ad19efe26dce7e67", "lat": 38.913487, "fusion_lat": 0.0, "lon": -77.01742266666666, "is_disabled": 0, "fusion_lon": 0.0, "rental_uris": {"android": "https://dc.lft.to/lastmile_qr_scan", "ios": "https://dc.lft.to/lastmile_qr_scan"}, "type": "electric_scooter"}, {"bike_id": "8b205bf6bc7910be0fafbb2a5ebd8381", "is_reserved": 0, "name": "8b205bf6bc7910be0fafbb2a5ebd8381", "lat": 38.912924, "fusion_lat": 0.0, "lon": -77.036646, "is_disabled": 0, "fusion_lon": 0.0, "rental_uris": {"android": "https://dc.lft.to/lastmile_qr_scan", "ios": "https://dc.lft.to/lastmile_qr_scan"}, "type": "electric_scooter"}, {"bike_id": "96767012175a0bbacb0aadad3be3bf10", "is_reserved": 0, "name": "96767012175a0bbacb0aadad3be3bf10", "lat": 38.8975865, "fusion_lat": 0.0, "lon": -77.03305583333334, "is_disabled": 0, "fusion_lon": 0.0, "rental_uris": {"android": "https://dc.lft.to/lastmile_qr_scan", "ios": "https://dc.lft.to/lastmile_qr_scan"}, "type": "electric_scooter"}, {"bike_id": "c53bddabdcf7ff3527c0952ed7dcc808", "is_reserved": 0, "name": "c53bddabdcf7ff3527c0952ed7dcc808", "lat": 38.908099166666666, "fusion_lat": 0.0, "lon": -77.04177416666667, "is_disabled": 0, "fusion_lon": 0.0, "rental_uris": {"android": "https://dc.lft.to/lastmile_qr_scan", "ios": "https://dc.lft.to/lastmile_qr_scan"}, "type": "electric_scooter"}, {"bike_id": "0588ae39afbc9b3ab4720b59748e6afb", "is_reserved": 0, "name": "0588ae39afbc9b3ab4720b59748e6afb", "lat": 38.934463666666666, "fusion_lat": 0.0, "lon": -77.02970383333333, "is_disabled": 0, "fusion_lon": 0.0, "rental_uris": {"android": "https://dc.lft.to/lastmile_qr_scan", "ios": "https://dc.lft.to/lastmile_qr_scan"}, "type": "electric_bike"}, {"bike_id": "a624f4d5bcbada775573c6745edb4d69", "is_reserved": 0, "name": "a624f4d5bcbada775573c6745edb4d69", "lat": 38.9013295, "fusion_lat": 0.0, "lon": -77.04338833333334, "is_disabled": 0, "fusion_lon": 0.0, "rental_uris": {"android": "https://dc.lft.to/lastmile_qr_scan", "ios": "https://dc.lft.to/lastmile_qr_scan"}, "type": "electric_scooter"}, {"bike_id": "99b4fd57dc1fdc110dd4271a673854ca", "is_reserved": 0, "name": "99b4fd57dc1fdc110dd4271a673854ca", "lat": 38.9056215, "fusion_lat": 0.0, "lon": -77.00807716666667, "is_disabled": 0, "fusion_lon": 0.0, "rental_uris": {"android": "https://dc.lft.to/lastmile_qr_scan", "ios": "https://dc.lft.to/lastmile_qr_scan"}, "type": "electric_scooter"}, {"bike_id": "d03e5445b3a851edd38dcabb911cac5d", "is_reserved": 0, "name": "d03e5445b3a851edd38dcabb911cac5d", "lat": 38.898006333333335, "fusion_lat": 0.0, "lon": -77.04612683333333, "is_disabled": 0, "fusion_lon": 0.0, "rental_uris": {"android": "https://dc.lft.to/lastmile_qr_scan", "ios": "https://dc.lft.to/lastmile_qr_scan"}, "type": "electric_scooter"}, {"bike_id": "45ef2bf5346f31b48530e7d9f70ae164", "is_reserved": 0, "name": "45ef2bf5346f31b48530e7d9f70ae164", "lat": 38.876686166666666, "fusion_lat": 0.0, "lon": -77.00321933333333, "is_disabled": 0, "fusion_lon": 0.0, "rental_uris": {"android": "https://dc.lft.to/lastmile_qr_scan", "ios": "https://dc.lft.to/lastmile_qr_scan"}, "type": "electric_scooter"}, {"bike_id": "01d97b825118dbe9752c1db859c15e22", "is_reserved": 0, "name": "01d97b825118dbe9752c1db859c15e22", "lat": 38.92150383333333, "fusion_lat": 0.0, "lon": -77.04349183333333, "is_disabled": 0, "fusion_lon": 0.0, "rental_uris": {"android": "https://dc.lft.to/lastmile_qr_scan", "ios": "https://dc.lft.to/lastmile_qr_scan"}, "type": "electric_scooter"}, {"bike_id": "e6e59a2be1f2c50f5f2312213f427c4c", "is_reserved": 0, "name": "e6e59a2be1f2c50f5f2312213f427c4c", "lat": 38.90024666666667, "fusion_lat": 0.0, "lon": -76.99973016666667, "is_disabled": 0, "fusion_lon": 0.0, "rental_uris": {"android": "https://dc.lft.to/lastmile_qr_scan", "ios": "https://dc.lft.to/lastmile_qr_scan"}, "type": "electric_scooter"}, {"bike_id": "aa6229b19d3810f63ee9f6eab1e4c087", "is_reserved": 0, "name": "aa6229b19d3810f63ee9f6eab1e4c087", "lat": 38.897623333333335, "fusion_lat": 0.0, "lon": -77.04497016666667, "is_disabled": 0, "fusion_lon": 0.0, "rental_uris": {"android": "https://dc.lft.to/lastmile_qr_scan", "ios": "https://dc.lft.to/lastmile_qr_scan"}, "type": "electric_scooter"}, {"bike_id": "f718886b278355179879d126182a51d2", "is_reserved": 0, "name": "f718886b278355179879d126182a51d2", "lat": 38.9967705, "fusion_lat": 0.0, "lon": -77.02546983333333, "is_disabled": 0, "fusion_lon": 0.0, "rental_uris": {"android": "https://dc.lft.to/lastmile_qr_scan", "ios": "https://dc.lft.to/lastmile_qr_scan"}, "type": "electric_bike"}, {"bike_id": "70cbc4de674987cd041a6511fe88c288", "is_reserved": 0, "name": "70cbc4de674987cd041a6511fe88c288", "lat": 38.924243833333335, "fusion_lat": 0.0, "lon": -77.02695916666667, "is_disabled": 0, "fusion_lon": 0.0, "rental_uris": {"android": "https://dc.lft.to/lastmile_qr_scan", "ios": "https://dc.lft.to/lastmile_qr_scan"}, "type": "electric_scooter"}, {"bike_id": "cba5f570b03d3aff98fd196537c6c898", "is_reserved": 0, "name": "cba5f570b03d3aff98fd196537c6c898", "lat": 38.91479666666667, "fusion_lat": 0.0, "lon": -77.0424765, "is_disabled": 0, "fusion_lon": 0.0, "rental_uris": {"android": "https://dc.lft.to/lastmile_qr_scan", "ios": "https://dc.lft.to/lastmile_qr_scan"}, "type": "electric_scooter"}, {"bike_id": "ee14e8d170bda5de3c0e3cfa742d8106", "is_reserved": 0, "name": "ee14e8d170bda5de3c0e3cfa742d8106", "lat": 38.91600966666667, "fusion_lat": 0.0, "lon": -77.03213266666667, "is_disabled": 0, "fusion_lon": 0.0, "rental_uris": {"android": "https://dc.lft.to/lastmile_qr_scan", "ios": "https://dc.lft.to/lastmile_qr_scan"}, "type": "electric_scooter"}, {"bike_id": "2f01344274443c8759513062f943f5f0", "is_reserved": 0, "name": "2f01344274443c8759513062f943f5f0", "lat": 38.90755383333333, "fusion_lat": 0.0, "lon": -77.03582666666667, "is_disabled": 0, "fusion_lon": 0.0, "rental_uris": {"android": "https://dc.lft.to/lastmile_qr_scan", "ios": "https://dc.lft.to/lastmile_qr_scan"}, "type": "electric_scooter"}, {"bike_id": "7b35a1152f79ac036545a68531064a33", "is_reserved": 0, "name": "7b35a1152f79ac036545a68531064a33", "lat": 38.92843766666667, "fusion_lat": 0.0, "lon": -77.02062433333333, "is_disabled": 0, "fusion_lon": 0.0, "rental_uris": {"android": "https://dc.lft.to/lastmile_qr_scan", "ios": "https://dc.lft.to/lastmile_qr_scan"}, "type": "electric_bike"}, {"bike_id": "2ae4b12d7da762ae7a03b12bd5b6df87", "is_reserved": 0, "name": "2ae4b12d7da762ae7a03b12bd5b6df87", "lat": 38.93541366666667, "fusion_lat": 0.0, "lon": -77.05746616666667, "is_disabled": 0, "fusion_lon": 0.0, "rental_uris": {"android": "https://dc.lft.to/lastmile_qr_scan", "ios": "https://dc.lft.to/lastmile_qr_scan"}, "type": "electric_scooter"}, {"bike_id": "36b3dd0e732ca685127ac78de884e51f", "is_reserved": 0, "name": "36b3dd0e732ca685127ac78de884e51f", "lat": 38.91680266666667, "fusion_lat": 0.0, "lon": -77.02282666666666, "is_disabled": 0, "fusion_lon": 0.0, "rental_uris": {"android": "https://dc.lft.to/lastmile_qr_scan", "ios": "https://dc.lft.to/lastmile_qr_scan"}, "type": "electric_scooter"}, {"bike_id": "d055d3b2123c5327b9845ab11ca610e5", "is_reserved": 0, "name": "d055d3b2123c5327b9845ab11ca610e5", "lat": 38.9058105, "fusion_lat": 0.0, "lon": -77.008837, "is_disabled": 0, "fusion_lon": 0.0, "rental_uris": {"android": "https://dc.lft.to/lastmile_qr_scan", "ios": "https://dc.lft.to/lastmile_qr_scan"}, "type": "electric_scooter"}, {"bike_id": "d62bc2184303d07bc28ad8f91566cf08", "is_reserved": 0, "name": "d62bc2184303d07bc28ad8f91566cf08", "lat": 38.90389, "fusion_lat": 0.0, "lon": -77.04340816666667, "is_disabled": 0, "fusion_lon": 0.0, "rental_uris": {"android": "https://dc.lft.to/lastmile_qr_scan", "ios": "https://dc.lft.to/lastmile_qr_scan"}, "type": "electric_scooter"}, {"bike_id": "98bd058aa92450e6f76edcbd018bcf24", "is_reserved": 0, "name": "98bd058aa92450e6f76edcbd018bcf24", "lat": 38.9236275, "fusion_lat": 0.0, "lon": -77.05051416666667, "is_disabled": 0, "fusion_lon": 0.0, "rental_uris": {"android": "https://dc.lft.to/lastmile_qr_scan", "ios": "https://dc.lft.to/lastmile_qr_scan"}, "type": "electric_scooter"}, {"bike_id": "dd90ed2a5523ae7eaf665aeb8859514d", "is_reserved": 0, "name": "dd90ed2a5523ae7eaf665aeb8859514d", "lat": 38.9505395, "fusion_lat": 0.0, "lon": -77.08024216666666, "is_disabled": 0, "fusion_lon": 0.0, "rental_uris": {"android": "https://dc.lft.to/lastmile_qr_scan", "ios": "https://dc.lft.to/lastmile_qr_scan"}, "type": "electric_scooter"}, {"bike_id": "a6da9bb9273e11de57445edacefb6c1c", "is_reserved": 0, "name": "a6da9bb9273e11de57445edacefb6c1c", "lat": 38.907226333333334, "fusion_lat": 0.0, "lon": -77.0267865, "is_disabled": 0, "fusion_lon": 0.0, "rental_uris": {"android": "https://dc.lft.to/lastmile_qr_scan", "ios": "https://dc.lft.to/lastmile_qr_scan"}, "type": "electric_scooter"}, {"bike_id": "a2dd8c0d5baf17c5dfd7b26c2c744ea3", "is_reserved": 0, "name": "a2dd8c0d5baf17c5dfd7b26c2c744ea3", "lat": 38.931614, "fusion_lat": 0.0, "lon": -77.07839016666667, "is_disabled": 0, "fusion_lon": 0.0, "rental_uris": {"android": "https://dc.lft.to/lastmile_qr_scan", "ios": "https://dc.lft.to/lastmile_qr_scan"}, "type": "electric_scooter"}, {"bike_id": "ab9042c152dc3d8084f2dfda799ed6da", "is_reserved": 0, "name": "ab9042c152dc3d8084f2dfda799ed6da", "lat": 38.89901416666667, "fusion_lat": 0.0, "lon": -76.9995695, "is_disabled": 0, "fusion_lon": 0.0, "rental_uris": {"android": "https://dc.lft.to/lastmile_qr_scan", "ios": "https://dc.lft.to/lastmile_qr_scan"}, "type": "electric_scooter"}, {"bike_id": "c98588e800ce6e03e4ae15661615d375", "is_reserved": 0, "name": "c98588e800ce6e03e4ae15661615d375", "lat": 38.875773333333335, "fusion_lat": 0.0, "lon": -77.2340965, "is_disabled": 0, "fusion_lon": 0.0, "rental_uris": {"android": "https://dc.lft.to/lastmile_qr_scan", "ios": "https://dc.lft.to/lastmile_qr_scan"}, "type": "electric_bike"}, {"bike_id": "897ad91f311307a266abaaaf6ce72abf", "is_reserved": 0, "name": "897ad91f311307a266abaaaf6ce72abf", "lat": 38.90838216666667, "fusion_lat": 0.0, "lon": -77.033042, "is_disabled": 0, "fusion_lon": 0.0, "rental_uris": {"android": "https://dc.lft.to/lastmile_qr_scan", "ios": "https://dc.lft.to/lastmile_qr_scan"}, "type": "electric_scooter"}, {"bike_id": "6d4a919bc216a66e50cefcad4ac412fa", "is_reserved": 0, "name": "6d4a919bc216a66e50cefcad4ac412fa", "lat": 38.91712783333333, "fusion_lat": 0.0, "lon": -77.02595416666666, "is_disabled": 0, "fusion_lon": 0.0, "rental_uris": {"android": "https://dc.lft.to/lastmile_qr_scan", "ios": "https://dc.lft.to/lastmile_qr_scan"}, "type": "electric_scooter"}, {"bike_id": "6eed3b71334006b4b13914f2ce68f248", "is_reserved": 0, "name": "6eed3b71334006b4b13914f2ce68f248", "lat": 38.8968735, "fusion_lat": 0.0, "lon": -76.9371065, "is_disabled": 0, "fusion_lon": 0.0, "rental_uris": {"android": "https://dc.lft.to/lastmile_qr_scan", "ios": "https://dc.lft.to/lastmile_qr_scan"}, "type": "electric_scooter"}, {"bike_id": "12b6f0e68f8996103a61436150a599bc", "is_reserved": 0, "name": "12b6f0e68f8996103a61436150a599bc", "lat": 38.899885833333336, "fusion_lat": 0.0, "lon": -77.02726566666666, "is_disabled": 0, "fusion_lon": 0.0, "rental_uris": {"android": "https://dc.lft.to/lastmile_qr_scan", "ios": "https://dc.lft.to/lastmile_qr_scan"}, "type": "electric_scooter"}, {"bike_id": "e792e228a2dfd05c4129879d8f0e2e73", "is_reserved": 0, "name": "e792e228a2dfd05c4129879d8f0e2e73", "lat": 38.89911816666667, "fusion_lat": 0.0, "lon": -76.94556233333333, "is_disabled": 0, "fusion_lon": 0.0, "rental_uris": {"android": "https://dc.lft.to/lastmile_qr_scan", "ios": "https://dc.lft.to/lastmile_qr_scan"}, "type": "electric_scooter"}, {"bike_id": "294588064e95958851d3f7265b070c30", "is_reserved": 0, "name": "294588064e95958851d3f7265b070c30", "lat": 38.8922, "fusion_lat": 0.0, "lon": -77.0464155, "is_disabled": 0, "fusion_lon": 0.0, "rental_uris": {"android": "https://dc.lft.to/lastmile_qr_scan", "ios": "https://dc.lft.to/lastmile_qr_scan"}, "type": "electric_scooter"}, {"bike_id": "40f252ea12e6e8a3f0ad18f4e0b1a108", "is_reserved": 0, "name": "40f252ea12e6e8a3f0ad18f4e0b1a108", "lat": 38.850888833333336, "fusion_lat": 0.0, "lon": -76.956758, "is_disabled": 0, "fusion_lon": 0.0, "rental_uris": {"android": "https://dc.lft.to/lastmile_qr_scan", "ios": "https://dc.lft.to/lastmile_qr_scan"}, "type": "electric_bike"}, {"bike_id": "0b72b8231fbc5ccf6a3c92de7fc15788", "is_reserved": 0, "name": "0b72b8231fbc5ccf6a3c92de7fc15788", "lat": 38.916480166666666, "fusion_lat": 0.0, "lon": -77.03195666666667, "is_disabled": 0, "fusion_lon": 0.0, "rental_uris": {"android": "https://dc.lft.to/lastmile_qr_scan", "ios": "https://dc.lft.to/lastmile_qr_scan"}, "type": "electric_scooter"}, {"bike_id": "7aa56f10cd49b1ad54af47fb20969141", "is_reserved": 0, "name": "7aa56f10cd49b1ad54af47fb20969141", "lat": 38.926182833333336, "fusion_lat": 0.0, "lon": -77.04193816666667, "is_disabled": 0, "fusion_lon": 0.0, "rental_uris": {"android": "https://dc.lft.to/lastmile_qr_scan", "ios": "https://dc.lft.to/lastmile_qr_scan"}, "type": "electric_scooter"}, {"bike_id": "4f065a56e28684a345ff3efe26bc0ecc", "is_reserved": 0, "name": "4f065a56e28684a345ff3efe26bc0ecc", "lat": 38.93116033333333, "fusion_lat": 0.0, "lon": -77.0303255, "is_disabled": 0, "fusion_lon": 0.0, "rental_uris": {"android": "https://dc.lft.to/lastmile_qr_scan", "ios": "https://dc.lft.to/lastmile_qr_scan"}, "type": "electric_scooter"}, {"bike_id": "7b06db8dfc442d2eb04301d68c7d065e", "is_reserved": 0, "name": "7b06db8dfc442d2eb04301d68c7d065e", "lat": 38.87817666666667, "fusion_lat": 0.0, "lon": -77.00129216666667, "is_disabled": 0, "fusion_lon": 0.0, "rental_uris": {"android": "https://dc.lft.to/lastmile_qr_scan", "ios": "https://dc.lft.to/lastmile_qr_scan"}, "type": "electric_scooter"}, {"bike_id": "379befa752d155edd32d2b14d3fd3cb9", "is_reserved": 0, "name": "379befa752d155edd32d2b14d3fd3cb9", "lat": 38.873963333333336, "fusion_lat": 0.0, "lon": -77.00166466666667, "is_disabled": 0, "fusion_lon": 0.0, "rental_uris": {"android": "https://dc.lft.to/lastmile_qr_scan", "ios": "https://dc.lft.to/lastmile_qr_scan"}, "type": "electric_scooter"}, {"bike_id": "c4b4f13cfc749b84cd59c103ebf163c4", "is_reserved": 0, "name": "c4b4f13cfc749b84cd59c103ebf163c4", "lat": 38.865347166666666, "fusion_lat": 0.0, "lon": -76.98707133333333, "is_disabled": 0, "fusion_lon": 0.0, "rental_uris": {"android": "https://dc.lft.to/lastmile_qr_scan", "ios": "https://dc.lft.to/lastmile_qr_scan"}, "type": "electric_scooter"}, {"bike_id": "2209e235e9c646d809fe299f04fb5e8c", "is_reserved": 0, "name": "2209e235e9c646d809fe299f04fb5e8c", "lat": 38.904937833333335, "fusion_lat": 0.0, "lon": -77.04639583333334, "is_disabled": 0, "fusion_lon": 0.0, "rental_uris": {"android": "https://dc.lft.to/lastmile_qr_scan", "ios": "https://dc.lft.to/lastmile_qr_scan"}, "type": "electric_scooter"}, {"bike_id": "8095e19b45772081e0b191673f11073a", "is_reserved": 0, "name": "8095e19b45772081e0b191673f11073a", "lat": 38.921529666666665, "fusion_lat": 0.0, "lon": -77.03866116666667, "is_disabled": 0, "fusion_lon": 0.0, "rental_uris": {"android": "https://dc.lft.to/lastmile_qr_scan", "ios": "https://dc.lft.to/lastmile_qr_scan"}, "type": "electric_scooter"}, {"bike_id": "f95537dda58f5fb4dbabec027b8451b8", "is_reserved": 0, "name": "f95537dda58f5fb4dbabec027b8451b8", "lat": 38.93073616666667, "fusion_lat": 0.0, "lon": -77.02162933333334, "is_disabled": 0, "fusion_lon": 0.0, "rental_uris": {"android": "https://dc.lft.to/lastmile_qr_scan", "ios": "https://dc.lft.to/lastmile_qr_scan"}, "type": "electric_scooter"}, {"bike_id": "e7a9a526c1b4b73d303c853954593821", "is_reserved": 0, "name": "e7a9a526c1b4b73d303c853954593821", "lat": 38.88724966666667, "fusion_lat": 0.0, "lon": -77.02580633333334, "is_disabled": 0, "fusion_lon": 0.0, "rental_uris": {"android": "https://dc.lft.to/lastmile_qr_scan", "ios": "https://dc.lft.to/lastmile_qr_scan"}, "type": "electric_scooter"}, {"bike_id": "bbf563de5887a1c0d22db7471dc05b31", "is_reserved": 0, "name": "bbf563de5887a1c0d22db7471dc05b31", "lat": 38.89610233333333, "fusion_lat": 0.0, "lon": -77.005606, "is_disabled": 0, "fusion_lon": 0.0, "rental_uris": {"android": "https://dc.lft.to/lastmile_qr_scan", "ios": "https://dc.lft.to/lastmile_qr_scan"}, "type": "electric_scooter"}, {"bike_id": "6bca7d98c2b4e935981be71e0e1cc2c3", "is_reserved": 0, "name": "6bca7d98c2b4e935981be71e0e1cc2c3", "lat": 38.908779, "fusion_lat": 0.0, "lon": -77.03180633333334, "is_disabled": 0, "fusion_lon": 0.0, "rental_uris": {"android": "https://dc.lft.to/lastmile_qr_scan", "ios": "https://dc.lft.to/lastmile_qr_scan"}, "type": "electric_scooter"}, {"bike_id": "a28f23d1d1c9871c4bfb0571eb33def0", "is_reserved": 0, "name": "a28f23d1d1c9871c4bfb0571eb33def0", "lat": 38.903656833333336, "fusion_lat": 0.0, "lon": -77.00978466666666, "is_disabled": 0, "fusion_lon": 0.0, "rental_uris": {"android": "https://dc.lft.to/lastmile_qr_scan", "ios": "https://dc.lft.to/lastmile_qr_scan"}, "type": "electric_scooter"}, {"bike_id": "9d88eef2b4e743a557d6b277dbbcbc14", "is_reserved": 0, "name": "9d88eef2b4e743a557d6b277dbbcbc14", "lat": 38.917090333333334, "fusion_lat": 0.0, "lon": -77.02313316666667, "is_disabled": 0, "fusion_lon": 0.0, "rental_uris": {"android": "https://dc.lft.to/lastmile_qr_scan", "ios": "https://dc.lft.to/lastmile_qr_scan"}, "type": "electric_scooter"}, {"bike_id": "736fa74f9ed657fb943e99b39900f9b0", "is_reserved": 0, "name": "736fa74f9ed657fb943e99b39900f9b0", "lat": 38.9094865, "fusion_lat": 0.0, "lon": -77.02715833333333, "is_disabled": 0, "fusion_lon": 0.0, "rental_uris": {"android": "https://dc.lft.to/lastmile_qr_scan", "ios": "https://dc.lft.to/lastmile_qr_scan"}, "type": "electric_scooter"}, {"bike_id": "1fb8bd3d7711d3c78f5d366c685c33ea", "is_reserved": 0, "name": "1fb8bd3d7711d3c78f5d366c685c33ea", "lat": 38.950016166666664, "fusion_lat": 0.0, "lon": -77.08066233333334, "is_disabled": 0, "fusion_lon": 0.0, "rental_uris": {"android": "https://dc.lft.to/lastmile_qr_scan", "ios": "https://dc.lft.to/lastmile_qr_scan"}, "type": "electric_scooter"}, {"bike_id": "31f1d103f45666736ac917096e9b37bd", "is_reserved": 0, "name": "31f1d103f45666736ac917096e9b37bd", "lat": 38.905550833333336, "fusion_lat": 0.0, "lon": -76.99467666666666, "is_disabled": 0, "fusion_lon": 0.0, "rental_uris": {"android": "https://dc.lft.to/lastmile_qr_scan", "ios": "https://dc.lft.to/lastmile_qr_scan"}, "type": "electric_scooter"}, {"bike_id": "36213b4098c6be25f0d3f692ee7209c9", "is_reserved": 0, "name": "36213b4098c6be25f0d3f692ee7209c9", "lat": 38.8935985, "fusion_lat": 0.0, "lon": -77.00334066666667, "is_disabled": 0, "fusion_lon": 0.0, "rental_uris": {"android": "https://dc.lft.to/lastmile_qr_scan", "ios": "https://dc.lft.to/lastmile_qr_scan"}, "type": "electric_scooter"}, {"bike_id": "2d73f90e9e055658390d032e1db83690", "is_reserved": 0, "name": "2d73f90e9e055658390d032e1db83690", "lat": 38.92191916666667, "fusion_lat": 0.0, "lon": -77.03974583333333, "is_disabled": 0, "fusion_lon": 0.0, "rental_uris": {"android": "https://dc.lft.to/lastmile_qr_scan", "ios": "https://dc.lft.to/lastmile_qr_scan"}, "type": "electric_scooter"}, {"bike_id": "da8c2aee86ff82386891f284d742cf65", "is_reserved": 0, "name": "da8c2aee86ff82386891f284d742cf65", "lat": 38.892224, "fusion_lat": 0.0, "lon": -77.02653683333334, "is_disabled": 0, "fusion_lon": 0.0, "rental_uris": {"android": "https://dc.lft.to/lastmile_qr_scan", "ios": "https://dc.lft.to/lastmile_qr_scan"}, "type": "electric_scooter"}, {"bike_id": "fe8c6c44f06b11d88efce224ff3e368d", "is_reserved": 0, "name": "fe8c6c44f06b11d88efce224ff3e368d", "lat": 38.924403, "fusion_lat": 0.0, "lon": -77.02020666666667, "is_disabled": 0, "fusion_lon": 0.0, "rental_uris": {"android": "https://dc.lft.to/lastmile_qr_scan", "ios": "https://dc.lft.to/lastmile_qr_scan"}, "type": "electric_scooter"}, {"bike_id": "f0e2b1cc4f59fb1d543f0f6381992a90", "is_reserved": 0, "name": "f0e2b1cc4f59fb1d543f0f6381992a90", "lat": 38.918621, "fusion_lat": 0.0, "lon": -77.0366155, "is_disabled": 0, "fusion_lon": 0.0, "rental_uris": {"android": "https://dc.lft.to/lastmile_qr_scan", "ios": "https://dc.lft.to/lastmile_qr_scan"}, "type": "electric_scooter"}, {"bike_id": "96c1521557f35df50508c8efdbcae8bf", "is_reserved": 0, "name": "96c1521557f35df50508c8efdbcae8bf", "lat": 38.900089333333334, "fusion_lat": 0.0, "lon": -77.04134766666667, "is_disabled": 0, "fusion_lon": 0.0, "rental_uris": {"android": "https://dc.lft.to/lastmile_qr_scan", "ios": "https://dc.lft.to/lastmile_qr_scan"}, "type": "electric_scooter"}, {"bike_id": "ce3302fabe68bdc23fffe9119cec79cd", "is_reserved": 0, "name": "ce3302fabe68bdc23fffe9119cec79cd", "lat": 38.92120216666667, "fusion_lat": 0.0, "lon": -77.0255415, "is_disabled": 0, "fusion_lon": 0.0, "rental_uris": {"android": "https://dc.lft.to/lastmile_qr_scan", "ios": "https://dc.lft.to/lastmile_qr_scan"}, "type": "electric_scooter"}, {"bike_id": "4b62f8e2b18073aee4f63cb6cbb08c08", "is_reserved": 0, "name": "4b62f8e2b18073aee4f63cb6cbb08c08", "lat": 38.8788775, "fusion_lat": 0.0, "lon": -76.98241133333333, "is_disabled": 0, "fusion_lon": 0.0, "rental_uris": {"android": "https://dc.lft.to/lastmile_qr_scan", "ios": "https://dc.lft.to/lastmile_qr_scan"}, "type": "electric_scooter"}, {"bike_id": "d82ac8af81b8c536ee4fa3c5eb504da6", "is_reserved": 0, "name": "d82ac8af81b8c536ee4fa3c5eb504da6", "lat": 38.908909333333334, "fusion_lat": 0.0, "lon": -77.03845133333333, "is_disabled": 0, "fusion_lon": 0.0, "rental_uris": {"android": "https://dc.lft.to/lastmile_qr_scan", "ios": "https://dc.lft.to/lastmile_qr_scan"}, "type": "electric_scooter"}, {"bike_id": "83a2938f87b628f71c4bb8c7e0252146", "is_reserved": 0, "name": "83a2938f87b628f71c4bb8c7e0252146", "lat": 38.90047783333333, "fusion_lat": 0.0, "lon": -77.01640533333334, "is_disabled": 0, "fusion_lon": 0.0, "rental_uris": {"android": "https://dc.lft.to/lastmile_qr_scan", "ios": "https://dc.lft.to/lastmile_qr_scan"}, "type": "electric_scooter"}, {"bike_id": "f92d6ca15acf8cfad6025234d1fed6ef", "is_reserved": 0, "name": "f92d6ca15acf8cfad6025234d1fed6ef", "lat": 38.938318833333334, "fusion_lat": 0.0, "lon": -77.024413, "is_disabled": 0, "fusion_lon": 0.0, "rental_uris": {"android": "https://dc.lft.to/lastmile_qr_scan", "ios": "https://dc.lft.to/lastmile_qr_scan"}, "type": "electric_scooter"}, {"bike_id": "3af7efefcc162d0d049f2be617ab218a", "is_reserved": 0, "name": "3af7efefcc162d0d049f2be617ab218a", "lat": 38.8796615, "fusion_lat": 0.0, "lon": -76.91612366666666, "is_disabled": 0, "fusion_lon": 0.0, "rental_uris": {"android": "https://dc.lft.to/lastmile_qr_scan", "ios": "https://dc.lft.to/lastmile_qr_scan"}, "type": "electric_bike"}, {"bike_id": "349c0e30e63c6dcb0f1580ee0fb0cf22", "is_reserved": 0, "name": "349c0e30e63c6dcb0f1580ee0fb0cf22", "lat": 38.8996695, "fusion_lat": 0.0, "lon": -77.0161155, "is_disabled": 0, "fusion_lon": 0.0, "rental_uris": {"android": "https://dc.lft.to/lastmile_qr_scan", "ios": "https://dc.lft.to/lastmile_qr_scan"}, "type": "electric_scooter"}, {"bike_id": "0622952b9dabd3af07dabfab1fa70375", "is_reserved": 0, "name": "0622952b9dabd3af07dabfab1fa70375", "lat": 38.88747683333333, "fusion_lat": 0.0, "lon": -77.03074033333333, "is_disabled": 0, "fusion_lon": 0.0, "rental_uris": {"android": "https://dc.lft.to/lastmile_qr_scan", "ios": "https://dc.lft.to/lastmile_qr_scan"}, "type": "electric_scooter"}, {"bike_id": "4ad07c143911c3dad51c77f2d237fd04", "is_reserved": 0, "name": "4ad07c143911c3dad51c77f2d237fd04", "lat": 38.919332833333335, "fusion_lat": 0.0, "lon": -77.03225516666667, "is_disabled": 0, "fusion_lon": 0.0, "rental_uris": {"android": "https://dc.lft.to/lastmile_qr_scan", "ios": "https://dc.lft.to/lastmile_qr_scan"}, "type": "electric_scooter"}, {"bike_id": "63d828548e6091f3ab2e9d262a7cfa80", "is_reserved": 0, "name": "63d828548e6091f3ab2e9d262a7cfa80", "lat": 38.92796416666667, "fusion_lat": 0.0, "lon": -77.024567, "is_disabled": 0, "fusion_lon": 0.0, "rental_uris": {"android": "https://dc.lft.to/lastmile_qr_scan", "ios": "https://dc.lft.to/lastmile_qr_scan"}, "type": "electric_scooter"}, {"bike_id": "8ec0dd988ae492f99c47953f6371864d", "is_reserved": 0, "name": "8ec0dd988ae492f99c47953f6371864d", "lat": 38.89901566666666, "fusion_lat": 0.0, "lon": -76.99160016666667, "is_disabled": 0, "fusion_lon": 0.0, "rental_uris": {"android": "https://dc.lft.to/lastmile_qr_scan", "ios": "https://dc.lft.to/lastmile_qr_scan"}, "type": "electric_scooter"}, {"bike_id": "0ea35f0bc90ab267f9de7d6f040c3a2b", "is_reserved": 0, "name": "0ea35f0bc90ab267f9de7d6f040c3a2b", "lat": 38.904571, "fusion_lat": 0.0, "lon": -77.06282383333334, "is_disabled": 0, "fusion_lon": 0.0, "rental_uris": {"android": "https://dc.lft.to/lastmile_qr_scan", "ios": "https://dc.lft.to/lastmile_qr_scan"}, "type": "electric_scooter"}, {"bike_id": "d37990e1bd66eb52952a629e28b703e9", "is_reserved": 0, "name": "d37990e1bd66eb52952a629e28b703e9", "lat": 38.887275333333335, "fusion_lat": 0.0, "lon": -77.0176615, "is_disabled": 0, "fusion_lon": 0.0, "rental_uris": {"android": "https://dc.lft.to/lastmile_qr_scan", "ios": "https://dc.lft.to/lastmile_qr_scan"}, "type": "electric_scooter"}, {"bike_id": "59cfaa64b727e75e74777eec74510776", "is_reserved": 0, "name": "59cfaa64b727e75e74777eec74510776", "lat": 38.892249666666665, "fusion_lat": 0.0, "lon": -77.02627483333333, "is_disabled": 0, "fusion_lon": 0.0, "rental_uris": {"android": "https://dc.lft.to/lastmile_qr_scan", "ios": "https://dc.lft.to/lastmile_qr_scan"}, "type": "electric_scooter"}, {"bike_id": "057ea678816c4cf9ee6681445f4873b1", "is_reserved": 0, "name": "057ea678816c4cf9ee6681445f4873b1", "lat": 38.90398233333333, "fusion_lat": 0.0, "lon": -77.06805966666667, "is_disabled": 0, "fusion_lon": 0.0, "rental_uris": {"android": "https://dc.lft.to/lastmile_qr_scan", "ios": "https://dc.lft.to/lastmile_qr_scan"}, "type": "electric_scooter"}, {"bike_id": "1d8c2a1fd4af55238119b28a85453883", "is_reserved": 0, "name": "1d8c2a1fd4af55238119b28a85453883", "lat": 38.90775883333333, "fusion_lat": 0.0, "lon": -77.07164133333333, "is_disabled": 0, "fusion_lon": 0.0, "rental_uris": {"android": "https://dc.lft.to/lastmile_qr_scan", "ios": "https://dc.lft.to/lastmile_qr_scan"}, "type": "electric_scooter"}, {"bike_id": "8df92ced22a1698d3dfd0ace2d3f63ac", "is_reserved": 0, "name": "8df92ced22a1698d3dfd0ace2d3f63ac", "lat": 38.90036833333333, "fusion_lat": 0.0, "lon": -76.980588, "is_disabled": 0, "fusion_lon": 0.0, "rental_uris": {"android": "https://dc.lft.to/lastmile_qr_scan", "ios": "https://dc.lft.to/lastmile_qr_scan"}, "type": "electric_bike"}, {"bike_id": "3913840b9b069ab93612a6acf480a8dc", "is_reserved": 0, "name": "3913840b9b069ab93612a6acf480a8dc", "lat": 38.9045665, "fusion_lat": 0.0, "lon": -77.0016475, "is_disabled": 0, "fusion_lon": 0.0, "rental_uris": {"android": "https://dc.lft.to/lastmile_qr_scan", "ios": "https://dc.lft.to/lastmile_qr_scan"}, "type": "electric_scooter"}, {"bike_id": "0c6afb1886cc2d16ff8e7361181d2255", "is_reserved": 0, "name": "0c6afb1886cc2d16ff8e7361181d2255", "lat": 38.922574, "fusion_lat": 0.0, "lon": -77.03520333333333, "is_disabled": 0, "fusion_lon": 0.0, "rental_uris": {"android": "https://dc.lft.to/lastmile_qr_scan", "ios": "https://dc.lft.to/lastmile_qr_scan"}, "type": "electric_scooter"}, {"bike_id": "6c2306b39277b840cd0c270a6ac6ae38", "is_reserved": 0, "name": "6c2306b39277b840cd0c270a6ac6ae38", "lat": 38.88540066666667, "fusion_lat": 0.0, "lon": -77.000633, "is_disabled": 0, "fusion_lon": 0.0, "rental_uris": {"android": "https://dc.lft.to/lastmile_qr_scan", "ios": "https://dc.lft.to/lastmile_qr_scan"}, "type": "electric_scooter"}, {"bike_id": "992e0f3b83b909546b464a31634b947d", "is_reserved": 0, "name": "992e0f3b83b909546b464a31634b947d", "lat": 38.885385166666666, "fusion_lat": 0.0, "lon": -77.0006335, "is_disabled": 0, "fusion_lon": 0.0, "rental_uris": {"android": "https://dc.lft.to/lastmile_qr_scan", "ios": "https://dc.lft.to/lastmile_qr_scan"}, "type": "electric_scooter"}, {"bike_id": "bf25435936ddb293730b41409d855652", "is_reserved": 0, "name": "bf25435936ddb293730b41409d855652", "lat": 38.916992666666665, "fusion_lat": 0.0, "lon": -77.023471, "is_disabled": 0, "fusion_lon": 0.0, "rental_uris": {"android": "https://dc.lft.to/lastmile_qr_scan", "ios": "https://dc.lft.to/lastmile_qr_scan"}, "type": "electric_scooter"}, {"bike_id": "744f8884593aad6b9017b826795fb80d", "is_reserved": 0, "name": "744f8884593aad6b9017b826795fb80d", "lat": 38.91679533333333, "fusion_lat": 0.0, "lon": -77.03847933333333, "is_disabled": 0, "fusion_lon": 0.0, "rental_uris": {"android": "https://dc.lft.to/lastmile_qr_scan", "ios": "https://dc.lft.to/lastmile_qr_scan"}, "type": "electric_scooter"}, {"bike_id": "f77886d2ab6aed407bbc393287ed16e4", "is_reserved": 0, "name": "f77886d2ab6aed407bbc393287ed16e4", "lat": 38.90412666666667, "fusion_lat": 0.0, "lon": -77.02588683333333, "is_disabled": 0, "fusion_lon": 0.0, "rental_uris": {"android": "https://dc.lft.to/lastmile_qr_scan", "ios": "https://dc.lft.to/lastmile_qr_scan"}, "type": "electric_scooter"}, {"bike_id": "1168c99e134bd390423c5f127fe6343e", "is_reserved": 0, "name": "1168c99e134bd390423c5f127fe6343e", "lat": 38.898453833333335, "fusion_lat": 0.0, "lon": -77.03034983333333, "is_disabled": 0, "fusion_lon": 0.0, "rental_uris": {"android": "https://dc.lft.to/lastmile_qr_scan", "ios": "https://dc.lft.to/lastmile_qr_scan"}, "type": "electric_scooter"}, {"bike_id": "70a7f4db060022b97380b176a9fa0ffb", "is_reserved": 0, "name": "70a7f4db060022b97380b176a9fa0ffb", "lat": 38.8716475, "fusion_lat": 0.0, "lon": -77.00568583333333, "is_disabled": 0, "fusion_lon": 0.0, "rental_uris": {"android": "https://dc.lft.to/lastmile_qr_scan", "ios": "https://dc.lft.to/lastmile_qr_scan"}, "type": "electric_scooter"}, {"bike_id": "6d82f94c6f578580abc08e422d0427d7", "is_reserved": 0, "name": "6d82f94c6f578580abc08e422d0427d7", "lat": 38.899712, "fusion_lat": 0.0, "lon": -76.99482333333333, "is_disabled": 0, "fusion_lon": 0.0, "rental_uris": {"android": "https://dc.lft.to/lastmile_qr_scan", "ios": "https://dc.lft.to/lastmile_qr_scan"}, "type": "electric_scooter"}, {"bike_id": "945b9718df222300c063897454f46b95", "is_reserved": 0, "name": "945b9718df222300c063897454f46b95", "lat": 38.917984, "fusion_lat": 0.0, "lon": -77.03442433333333, "is_disabled": 0, "fusion_lon": 0.0, "rental_uris": {"android": "https://dc.lft.to/lastmile_qr_scan", "ios": "https://dc.lft.to/lastmile_qr_scan"}, "type": "electric_scooter"}, {"bike_id": "9274cfbd02986316683dafde0e8682ea", "is_reserved": 0, "name": "9274cfbd02986316683dafde0e8682ea", "lat": 38.897958333333335, "fusion_lat": 0.0, "lon": -76.98457816666667, "is_disabled": 0, "fusion_lon": 0.0, "rental_uris": {"android": "https://dc.lft.to/lastmile_qr_scan", "ios": "https://dc.lft.to/lastmile_qr_scan"}, "type": "electric_scooter"}, {"bike_id": "cd9ad1b051bacb6bac56e857858dfef1", "is_reserved": 0, "name": "cd9ad1b051bacb6bac56e857858dfef1", "lat": 38.90911166666667, "fusion_lat": 0.0, "lon": -77.04208766666666, "is_disabled": 0, "fusion_lon": 0.0, "rental_uris": {"android": "https://dc.lft.to/lastmile_qr_scan", "ios": "https://dc.lft.to/lastmile_qr_scan"}, "type": "electric_scooter"}, {"bike_id": "da5241be1f08bfc554ac3d461e2a2393", "is_reserved": 0, "name": "da5241be1f08bfc554ac3d461e2a2393", "lat": 38.8573275, "fusion_lat": 0.0, "lon": -77.098101, "is_disabled": 0, "fusion_lon": 0.0, "rental_uris": {"android": "https://dc.lft.to/lastmile_qr_scan", "ios": "https://dc.lft.to/lastmile_qr_scan"}, "type": "electric_bike"}, {"bike_id": "11020c9a4d01418cdca6355cfceeee8e", "is_reserved": 0, "name": "11020c9a4d01418cdca6355cfceeee8e", "lat": 38.86665466666667, "fusion_lat": 0.0, "lon": -76.98903083333333, "is_disabled": 0, "fusion_lon": 0.0, "rental_uris": {"android": "https://dc.lft.to/lastmile_qr_scan", "ios": "https://dc.lft.to/lastmile_qr_scan"}, "type": "electric_scooter"}, {"bike_id": "8044d7155a9b13c3e42b8bd2863d364c", "is_reserved": 0, "name": "8044d7155a9b13c3e42b8bd2863d364c", "lat": 38.89286533333333, "fusion_lat": 0.0, "lon": -77.01233383333333, "is_disabled": 0, "fusion_lon": 0.0, "rental_uris": {"android": "https://dc.lft.to/lastmile_qr_scan", "ios": "https://dc.lft.to/lastmile_qr_scan"}, "type": "electric_scooter"}, {"bike_id": "e64814c199ee8a7593fd8b23de734b4f", "is_reserved": 0, "name": "e64814c199ee8a7593fd8b23de734b4f", "lat": 38.8998285, "fusion_lat": 0.0, "lon": -77.0225, "is_disabled": 0, "fusion_lon": 0.0, "rental_uris": {"android": "https://dc.lft.to/lastmile_qr_scan", "ios": "https://dc.lft.to/lastmile_qr_scan"}, "type": "electric_scooter"}, {"bike_id": "dba296d40822fc40e6792319cc281efa", "is_reserved": 0, "name": "dba296d40822fc40e6792319cc281efa", "lat": 38.921501166666665, "fusion_lat": 0.0, "lon": -77.038693, "is_disabled": 0, "fusion_lon": 0.0, "rental_uris": {"android": "https://dc.lft.to/lastmile_qr_scan", "ios": "https://dc.lft.to/lastmile_qr_scan"}, "type": "electric_scooter"}, {"bike_id": "88b2f7c2e1cadde77a7be462dd22f3e7", "is_reserved": 0, "name": "88b2f7c2e1cadde77a7be462dd22f3e7", "lat": 38.9241345, "fusion_lat": 0.0, "lon": -77.035473, "is_disabled": 0, "fusion_lon": 0.0, "rental_uris": {"android": "https://dc.lft.to/lastmile_qr_scan", "ios": "https://dc.lft.to/lastmile_qr_scan"}, "type": "electric_scooter"}, {"bike_id": "e1aa60baaeaa649eb820562764328808", "is_reserved": 0, "name": "e1aa60baaeaa649eb820562764328808", "lat": 38.934294, "fusion_lat": 0.0, "lon": -77.040016, "is_disabled": 0, "fusion_lon": 0.0, "rental_uris": {"android": "https://dc.lft.to/lastmile_qr_scan", "ios": "https://dc.lft.to/lastmile_qr_scan"}, "type": "electric_scooter"}, {"bike_id": "f5e5dce243a7fb78dfbeac563e394307", "is_reserved": 0, "name": "f5e5dce243a7fb78dfbeac563e394307", "lat": 38.92977916666667, "fusion_lat": 0.0, "lon": -77.03652716666667, "is_disabled": 0, "fusion_lon": 0.0, "rental_uris": {"android": "https://dc.lft.to/lastmile_qr_scan", "ios": "https://dc.lft.to/lastmile_qr_scan"}, "type": "electric_scooter"}, {"bike_id": "8c201ce55bb351a4207b6b2901ec49ec", "is_reserved": 0, "name": "8c201ce55bb351a4207b6b2901ec49ec", "lat": 38.905338666666665, "fusion_lat": 0.0, "lon": -77.05639683333334, "is_disabled": 0, "fusion_lon": 0.0, "rental_uris": {"android": "https://dc.lft.to/lastmile_qr_scan", "ios": "https://dc.lft.to/lastmile_qr_scan"}, "type": "electric_scooter"}, {"bike_id": "54e7716cd1666b1b5a5d37d2754b04b8", "is_reserved": 0, "name": "54e7716cd1666b1b5a5d37d2754b04b8", "lat": 38.91927283333333, "fusion_lat": 0.0, "lon": -77.03132683333334, "is_disabled": 0, "fusion_lon": 0.0, "rental_uris": {"android": "https://dc.lft.to/lastmile_qr_scan", "ios": "https://dc.lft.to/lastmile_qr_scan"}, "type": "electric_scooter"}, {"bike_id": "ddb6faf0eb7ff8bdc3d55d2153974c6c", "is_reserved": 0, "name": "ddb6faf0eb7ff8bdc3d55d2153974c6c", "lat": 38.87736983333333, "fusion_lat": 0.0, "lon": -76.9703105, "is_disabled": 0, "fusion_lon": 0.0, "rental_uris": {"android": "https://dc.lft.to/lastmile_qr_scan", "ios": "https://dc.lft.to/lastmile_qr_scan"}, "type": "electric_scooter"}, {"bike_id": "2d5e5fe9e2ee4cf34af67899458cd969", "is_reserved": 0, "name": "2d5e5fe9e2ee4cf34af67899458cd969", "lat": 38.926917333333336, "fusion_lat": 0.0, "lon": -76.997699, "is_disabled": 0, "fusion_lon": 0.0, "rental_uris": {"android": "https://dc.lft.to/lastmile_qr_scan", "ios": "https://dc.lft.to/lastmile_qr_scan"}, "type": "electric_scooter"}, {"bike_id": "3b519b7fabfecdbb0371da90d9ab728d", "is_reserved": 0, "name": "3b519b7fabfecdbb0371da90d9ab728d", "lat": 38.9260375, "fusion_lat": 0.0, "lon": -77.06421366666666, "is_disabled": 0, "fusion_lon": 0.0, "rental_uris": {"android": "https://dc.lft.to/lastmile_qr_scan", "ios": "https://dc.lft.to/lastmile_qr_scan"}, "type": "electric_bike"}, {"bike_id": "ca7a6ac3b195843dfe52270b6f4414a2", "is_reserved": 0, "name": "ca7a6ac3b195843dfe52270b6f4414a2", "lat": 38.91274216666667, "fusion_lat": 0.0, "lon": -77.038335, "is_disabled": 0, "fusion_lon": 0.0, "rental_uris": {"android": "https://dc.lft.to/lastmile_qr_scan", "ios": "https://dc.lft.to/lastmile_qr_scan"}, "type": "electric_scooter"}, {"bike_id": "043b24c7822c99948e680368e1d335c2", "is_reserved": 0, "name": "043b24c7822c99948e680368e1d335c2", "lat": 38.89234783333333, "fusion_lat": 0.0, "lon": -77.04874616666666, "is_disabled": 0, "fusion_lon": 0.0, "rental_uris": {"android": "https://dc.lft.to/lastmile_qr_scan", "ios": "https://dc.lft.to/lastmile_qr_scan"}, "type": "electric_scooter"}, {"bike_id": "e562b70f80dab6654de01c98f96450c2", "is_reserved": 0, "name": "e562b70f80dab6654de01c98f96450c2", "lat": 38.90363683333333, "fusion_lat": 0.0, "lon": -77.03641933333333, "is_disabled": 0, "fusion_lon": 0.0, "rental_uris": {"android": "https://dc.lft.to/lastmile_qr_scan", "ios": "https://dc.lft.to/lastmile_qr_scan"}, "type": "electric_scooter"}, {"bike_id": "5bdf1c1023dec650bbc800d268d51b88", "is_reserved": 0, "name": "5bdf1c1023dec650bbc800d268d51b88", "lat": 38.91404633333333, "fusion_lat": 0.0, "lon": -77.02203, "is_disabled": 0, "fusion_lon": 0.0, "rental_uris": {"android": "https://dc.lft.to/lastmile_qr_scan", "ios": "https://dc.lft.to/lastmile_qr_scan"}, "type": "electric_scooter"}, {"bike_id": "745ed7733a12ce42680ae791d4e0b4be", "is_reserved": 0, "name": "745ed7733a12ce42680ae791d4e0b4be", "lat": 38.99221133333333, "fusion_lat": 0.0, "lon": -76.9442735, "is_disabled": 0, "fusion_lon": 0.0, "rental_uris": {"android": "https://dc.lft.to/lastmile_qr_scan", "ios": "https://dc.lft.to/lastmile_qr_scan"}, "type": "electric_bike"}, {"bike_id": "a7b1b84194eb9451220212207d2ce6fb", "is_reserved": 0, "name": "a7b1b84194eb9451220212207d2ce6fb", "lat": 38.90784416666666, "fusion_lat": 0.0, "lon": -77.0295, "is_disabled": 0, "fusion_lon": 0.0, "rental_uris": {"android": "https://dc.lft.to/lastmile_qr_scan", "ios": "https://dc.lft.to/lastmile_qr_scan"}, "type": "electric_scooter"}, {"bike_id": "30bc6f8984045f88070f23446b86f55d", "is_reserved": 0, "name": "30bc6f8984045f88070f23446b86f55d", "lat": 38.9231965, "fusion_lat": 0.0, "lon": -77.02889516666667, "is_disabled": 0, "fusion_lon": 0.0, "rental_uris": {"android": "https://dc.lft.to/lastmile_qr_scan", "ios": "https://dc.lft.to/lastmile_qr_scan"}, "type": "electric_scooter"}, {"bike_id": "c759be8f3a82d9d246eb5b158eeceaee", "is_reserved": 0, "name": "c759be8f3a82d9d246eb5b158eeceaee", "lat": 38.90584416666667, "fusion_lat": 0.0, "lon": -77.04612933333334, "is_disabled": 0, "fusion_lon": 0.0, "rental_uris": {"android": "https://dc.lft.to/lastmile_qr_scan", "ios": "https://dc.lft.to/lastmile_qr_scan"}, "type": "electric_scooter"}, {"bike_id": "c3b1bdc12077ceee03c942e5a4434033", "is_reserved": 0, "name": "c3b1bdc12077ceee03c942e5a4434033", "lat": 38.900299833333335, "fusion_lat": 0.0, "lon": -77.0118745, "is_disabled": 0, "fusion_lon": 0.0, "rental_uris": {"android": "https://dc.lft.to/lastmile_qr_scan", "ios": "https://dc.lft.to/lastmile_qr_scan"}, "type": "electric_scooter"}, {"bike_id": "e89f8ca589e7e38a5eb2703b3ba78fed", "is_reserved": 0, "name": "e89f8ca589e7e38a5eb2703b3ba78fed", "lat": 38.91551116666667, "fusion_lat": 0.0, "lon": -77.03850483333333, "is_disabled": 0, "fusion_lon": 0.0, "rental_uris": {"android": "https://dc.lft.to/lastmile_qr_scan", "ios": "https://dc.lft.to/lastmile_qr_scan"}, "type": "electric_scooter"}, {"bike_id": "4d9ee2278059521b7979a9a3520f12a8", "is_reserved": 0, "name": "4d9ee2278059521b7979a9a3520f12a8", "lat": 38.99849416666667, "fusion_lat": 0.0, "lon": -77.02650366666667, "is_disabled": 0, "fusion_lon": 0.0, "rental_uris": {"android": "https://dc.lft.to/lastmile_qr_scan", "ios": "https://dc.lft.to/lastmile_qr_scan"}, "type": "electric_bike"}, {"bike_id": "8cf3af51f84f7bd127ba2ae4b157cfde", "is_reserved": 0, "name": "8cf3af51f84f7bd127ba2ae4b157cfde", "lat": 38.885373666666666, "fusion_lat": 0.0, "lon": -76.978885, "is_disabled": 0, "fusion_lon": 0.0, "rental_uris": {"android": "https://dc.lft.to/lastmile_qr_scan", "ios": "https://dc.lft.to/lastmile_qr_scan"}, "type": "electric_scooter"}, {"bike_id": "e0f02a4372ea135ae9acbeb8eba87a0f", "is_reserved": 0, "name": "e0f02a4372ea135ae9acbeb8eba87a0f", "lat": 38.8874635, "fusion_lat": 0.0, "lon": -77.01782816666666, "is_disabled": 0, "fusion_lon": 0.0, "rental_uris": {"android": "https://dc.lft.to/lastmile_qr_scan", "ios": "https://dc.lft.to/lastmile_qr_scan"}, "type": "electric_scooter"}, {"bike_id": "baf012dbd924167d2e6effdd2b72924c", "is_reserved": 0, "name": "baf012dbd924167d2e6effdd2b72924c", "lat": 38.909710833333335, "fusion_lat": 0.0, "lon": -77.02683483333334, "is_disabled": 0, "fusion_lon": 0.0, "rental_uris": {"android": "https://dc.lft.to/lastmile_qr_scan", "ios": "https://dc.lft.to/lastmile_qr_scan"}, "type": "electric_scooter"}, {"bike_id": "c4d42c8f889cd0b46ce88b6a3e16823b", "is_reserved": 0, "name": "c4d42c8f889cd0b46ce88b6a3e16823b", "lat": 38.887491833333335, "fusion_lat": 0.0, "lon": -77.003127, "is_disabled": 0, "fusion_lon": 0.0, "rental_uris": {"android": "https://dc.lft.to/lastmile_qr_scan", "ios": "https://dc.lft.to/lastmile_qr_scan"}, "type": "electric_scooter"}, {"bike_id": "0e35f3a6ae0a26a84b049eeb0d9c855b", "is_reserved": 0, "name": "0e35f3a6ae0a26a84b049eeb0d9c855b", "lat": 38.86045583333333, "fusion_lat": 0.0, "lon": -77.00344966666667, "is_disabled": 0, "fusion_lon": 0.0, "rental_uris": {"android": "https://dc.lft.to/lastmile_qr_scan", "ios": "https://dc.lft.to/lastmile_qr_scan"}, "type": "electric_scooter"}, {"bike_id": "bc16c555dd6d3e1fa0fdfdd855a385b8", "is_reserved": 0, "name": "bc16c555dd6d3e1fa0fdfdd855a385b8", "lat": 38.902817, "fusion_lat": 0.0, "lon": -77.00593566666667, "is_disabled": 0, "fusion_lon": 0.0, "rental_uris": {"android": "https://dc.lft.to/lastmile_qr_scan", "ios": "https://dc.lft.to/lastmile_qr_scan"}, "type": "electric_scooter"}, {"bike_id": "e393bbefbce18c79c4c65b0a3316d598", "is_reserved": 0, "name": "e393bbefbce18c79c4c65b0a3316d598", "lat": 38.9199605, "fusion_lat": 0.0, "lon": -77.03281383333334, "is_disabled": 0, "fusion_lon": 0.0, "rental_uris": {"android": "https://dc.lft.to/lastmile_qr_scan", "ios": "https://dc.lft.to/lastmile_qr_scan"}, "type": "electric_scooter"}, {"bike_id": "ec6d3a400bfeaee1ff97858dc2c3930e", "is_reserved": 0, "name": "ec6d3a400bfeaee1ff97858dc2c3930e", "lat": 38.92267983333333, "fusion_lat": 0.0, "lon": -77.02957833333333, "is_disabled": 0, "fusion_lon": 0.0, "rental_uris": {"android": "https://dc.lft.to/lastmile_qr_scan", "ios": "https://dc.lft.to/lastmile_qr_scan"}, "type": "electric_scooter"}, {"bike_id": "0d0d48760c84725d1db934fb3f39aa78", "is_reserved": 0, "name": "0d0d48760c84725d1db934fb3f39aa78", "lat": 38.915577166666665, "fusion_lat": 0.0, "lon": -77.01056433333333, "is_disabled": 0, "fusion_lon": 0.0, "rental_uris": {"android": "https://dc.lft.to/lastmile_qr_scan", "ios": "https://dc.lft.to/lastmile_qr_scan"}, "type": "electric_scooter"}, {"bike_id": "3d6a2c17a927061722ba7273eea19453", "is_reserved": 0, "name": "3d6a2c17a927061722ba7273eea19453", "lat": 38.93859716666667, "fusion_lat": 0.0, "lon": -77.02650283333334, "is_disabled": 0, "fusion_lon": 0.0, "rental_uris": {"android": "https://dc.lft.to/lastmile_qr_scan", "ios": "https://dc.lft.to/lastmile_qr_scan"}, "type": "electric_scooter"}, {"bike_id": "4306a0082d164d9737054198ecc1d6f4", "is_reserved": 0, "name": "4306a0082d164d9737054198ecc1d6f4", "lat": 38.911886, "fusion_lat": 0.0, "lon": -77.03215416666667, "is_disabled": 0, "fusion_lon": 0.0, "rental_uris": {"android": "https://dc.lft.to/lastmile_qr_scan", "ios": "https://dc.lft.to/lastmile_qr_scan"}, "type": "electric_scooter"}, {"bike_id": "8dd00ad3c519d18014c2076bef79c456", "is_reserved": 0, "name": "8dd00ad3c519d18014c2076bef79c456", "lat": 38.90767316666667, "fusion_lat": 0.0, "lon": -77.0319115, "is_disabled": 0, "fusion_lon": 0.0, "rental_uris": {"android": "https://dc.lft.to/lastmile_qr_scan", "ios": "https://dc.lft.to/lastmile_qr_scan"}, "type": "electric_scooter"}, {"bike_id": "f1beb77bbb71725477d2735a351085a1", "is_reserved": 0, "name": "f1beb77bbb71725477d2735a351085a1", "lat": 38.9117595, "fusion_lat": 0.0, "lon": -77.00267466666666, "is_disabled": 0, "fusion_lon": 0.0, "rental_uris": {"android": "https://dc.lft.to/lastmile_qr_scan", "ios": "https://dc.lft.to/lastmile_qr_scan"}, "type": "electric_bike"}, {"bike_id": "d3227580fc2a1d30467e361bce35b45a", "is_reserved": 0, "name": "d3227580fc2a1d30467e361bce35b45a", "lat": 38.957812, "fusion_lat": 0.0, "lon": -77.02750166666667, "is_disabled": 0, "fusion_lon": 0.0, "rental_uris": {"android": "https://dc.lft.to/lastmile_qr_scan", "ios": "https://dc.lft.to/lastmile_qr_scan"}, "type": "electric_bike"}, {"bike_id": "233367b26776b1cd153881ea6bc5f2fd", "is_reserved": 0, "name": "233367b26776b1cd153881ea6bc5f2fd", "lat": 38.90562716666667, "fusion_lat": 0.0, "lon": -77.00394516666667, "is_disabled": 0, "fusion_lon": 0.0, "rental_uris": {"android": "https://dc.lft.to/lastmile_qr_scan", "ios": "https://dc.lft.to/lastmile_qr_scan"}, "type": "electric_scooter"}, {"bike_id": "2e8518b397711c9d77e09564fe60b774", "is_reserved": 0, "name": "2e8518b397711c9d77e09564fe60b774", "lat": 38.88993033333333, "fusion_lat": 0.0, "lon": -77.07129166666667, "is_disabled": 0, "fusion_lon": 0.0, "rental_uris": {"android": "https://dc.lft.to/lastmile_qr_scan", "ios": "https://dc.lft.to/lastmile_qr_scan"}, "type": "electric_bike"}, {"bike_id": "37650fe0d991a3bbce67b70d7a85fd85", "is_reserved": 0, "name": "37650fe0d991a3bbce67b70d7a85fd85", "lat": 38.9094755, "fusion_lat": 0.0, "lon": -76.9997255, "is_disabled": 0, "fusion_lon": 0.0, "rental_uris": {"android": "https://dc.lft.to/lastmile_qr_scan", "ios": "https://dc.lft.to/lastmile_qr_scan"}, "type": "electric_scooter"}, {"bike_id": "8614dd69984d901a1760fe34aa2fb8f7", "is_reserved": 0, "name": "8614dd69984d901a1760fe34aa2fb8f7", "lat": 38.9004715, "fusion_lat": 0.0, "lon": -77.00224433333334, "is_disabled": 0, "fusion_lon": 0.0, "rental_uris": {"android": "https://dc.lft.to/lastmile_qr_scan", "ios": "https://dc.lft.to/lastmile_qr_scan"}, "type": "electric_scooter"}, {"bike_id": "461777c197d35ded8f214cf80bdb5ad0", "is_reserved": 0, "name": "461777c197d35ded8f214cf80bdb5ad0", "lat": 38.892373, "fusion_lat": 0.0, "lon": -77.032004, "is_disabled": 0, "fusion_lon": 0.0, "rental_uris": {"android": "https://dc.lft.to/lastmile_qr_scan", "ios": "https://dc.lft.to/lastmile_qr_scan"}, "type": "electric_scooter"}, {"bike_id": "7da00402fc6b94f9afffe8db7f6e3202", "is_reserved": 0, "name": "7da00402fc6b94f9afffe8db7f6e3202", "lat": 38.903952333333336, "fusion_lat": 0.0, "lon": -77.03840383333333, "is_disabled": 0, "fusion_lon": 0.0, "rental_uris": {"android": "https://dc.lft.to/lastmile_qr_scan", "ios": "https://dc.lft.to/lastmile_qr_scan"}, "type": "electric_scooter"}, {"bike_id": "eded6d802e97106ad9199424ed5b2a96", "is_reserved": 0, "name": "eded6d802e97106ad9199424ed5b2a96", "lat": 38.90304183333333, "fusion_lat": 0.0, "lon": -77.025909, "is_disabled": 0, "fusion_lon": 0.0, "rental_uris": {"android": "https://dc.lft.to/lastmile_qr_scan", "ios": "https://dc.lft.to/lastmile_qr_scan"}, "type": "electric_scooter"}, {"bike_id": "f773ce51869d3fc975d9fa10571ec85a", "is_reserved": 0, "name": "f773ce51869d3fc975d9fa10571ec85a", "lat": 38.90910233333334, "fusion_lat": 0.0, "lon": -77.04211016666666, "is_disabled": 0, "fusion_lon": 0.0, "rental_uris": {"android": "https://dc.lft.to/lastmile_qr_scan", "ios": "https://dc.lft.to/lastmile_qr_scan"}, "type": "electric_scooter"}, {"bike_id": "13884881bfbb351c594c9089d3075cf2", "is_reserved": 0, "name": "13884881bfbb351c594c9089d3075cf2", "lat": 38.961631833333335, "fusion_lat": 0.0, "lon": -77.02786033333334, "is_disabled": 0, "fusion_lon": 0.0, "rental_uris": {"android": "https://dc.lft.to/lastmile_qr_scan", "ios": "https://dc.lft.to/lastmile_qr_scan"}, "type": "electric_bike"}, {"bike_id": "65270530fffd75b67a16dc52104b5316", "is_reserved": 0, "name": "65270530fffd75b67a16dc52104b5316", "lat": 38.907861833333335, "fusion_lat": 0.0, "lon": -77.03520033333334, "is_disabled": 0, "fusion_lon": 0.0, "rental_uris": {"android": "https://dc.lft.to/lastmile_qr_scan", "ios": "https://dc.lft.to/lastmile_qr_scan"}, "type": "electric_scooter"}, {"bike_id": "fc98401b8017bd9d0b244f62ad74125d", "is_reserved": 0, "name": "fc98401b8017bd9d0b244f62ad74125d", "lat": 38.88238233333333, "fusion_lat": 0.0, "lon": -77.0258025, "is_disabled": 0, "fusion_lon": 0.0, "rental_uris": {"android": "https://dc.lft.to/lastmile_qr_scan", "ios": "https://dc.lft.to/lastmile_qr_scan"}, "type": "electric_scooter"}, {"bike_id": "60a7e36fe52886e12a2e6bbda3a06269", "is_reserved": 0, "name": "60a7e36fe52886e12a2e6bbda3a06269", "lat": 38.90514116666667, "fusion_lat": 0.0, "lon": -77.04863366666666, "is_disabled": 0, "fusion_lon": 0.0, "rental_uris": {"android": "https://dc.lft.to/lastmile_qr_scan", "ios": "https://dc.lft.to/lastmile_qr_scan"}, "type": "electric_scooter"}, {"bike_id": "50ac3826923f4f038afc9233411de11c", "is_reserved": 0, "name": "50ac3826923f4f038afc9233411de11c", "lat": 38.9383075, "fusion_lat": 0.0, "lon": -76.99192783333334, "is_disabled": 0, "fusion_lon": 0.0, "rental_uris": {"android": "https://dc.lft.to/lastmile_qr_scan", "ios": "https://dc.lft.to/lastmile_qr_scan"}, "type": "electric_scooter"}, {"bike_id": "9ce039a5d2614139cb12897650fe45a5", "is_reserved": 0, "name": "9ce039a5d2614139cb12897650fe45a5", "lat": 38.8874205, "fusion_lat": 0.0, "lon": -77.0212885, "is_disabled": 0, "fusion_lon": 0.0, "rental_uris": {"android": "https://dc.lft.to/lastmile_qr_scan", "ios": "https://dc.lft.to/lastmile_qr_scan"}, "type": "electric_scooter"}, {"bike_id": "1663125899956d211df65788ca985850", "is_reserved": 0, "name": "1663125899956d211df65788ca985850", "lat": 38.916693333333335, "fusion_lat": 0.0, "lon": -77.02712683333333, "is_disabled": 0, "fusion_lon": 0.0, "rental_uris": {"android": "https://dc.lft.to/lastmile_qr_scan", "ios": "https://dc.lft.to/lastmile_qr_scan"}, "type": "electric_scooter"}, {"bike_id": "423861c21270e329041028498f94bbbe", "is_reserved": 0, "name": "423861c21270e329041028498f94bbbe", "lat": 38.90224666666667, "fusion_lat": 0.0, "lon": -77.01607616666666, "is_disabled": 0, "fusion_lon": 0.0, "rental_uris": {"android": "https://dc.lft.to/lastmile_qr_scan", "ios": "https://dc.lft.to/lastmile_qr_scan"}, "type": "electric_scooter"}, {"bike_id": "bd0c80bcdc15c21ba5c495795c8756ec", "is_reserved": 0, "name": "bd0c80bcdc15c21ba5c495795c8756ec", "lat": 38.90937266666667, "fusion_lat": 0.0, "lon": -76.99969133333333, "is_disabled": 0, "fusion_lon": 0.0, "rental_uris": {"android": "https://dc.lft.to/lastmile_qr_scan", "ios": "https://dc.lft.to/lastmile_qr_scan"}, "type": "electric_scooter"}, {"bike_id": "e5742fe88ae56582d79add55da991816", "is_reserved": 0, "name": "e5742fe88ae56582d79add55da991816", "lat": 38.8768275, "fusion_lat": 0.0, "lon": -77.00737783333334, "is_disabled": 0, "fusion_lon": 0.0, "rental_uris": {"android": "https://dc.lft.to/lastmile_qr_scan", "ios": "https://dc.lft.to/lastmile_qr_scan"}, "type": "electric_scooter"}, {"bike_id": "4ad7cb1879a5db5d1d83f9b8db063997", "is_reserved": 0, "name": "4ad7cb1879a5db5d1d83f9b8db063997", "lat": 38.8996055, "fusion_lat": 0.0, "lon": -77.050958, "is_disabled": 0, "fusion_lon": 0.0, "rental_uris": {"android": "https://dc.lft.to/lastmile_qr_scan", "ios": "https://dc.lft.to/lastmile_qr_scan"}, "type": "electric_scooter"}, {"bike_id": "3525ed5b084af7ebe4670fb4d3abe703", "is_reserved": 0, "name": "3525ed5b084af7ebe4670fb4d3abe703", "lat": 38.88378183333333, "fusion_lat": 0.0, "lon": -77.005217, "is_disabled": 0, "fusion_lon": 0.0, "rental_uris": {"android": "https://dc.lft.to/lastmile_qr_scan", "ios": "https://dc.lft.to/lastmile_qr_scan"}, "type": "electric_scooter"}, {"bike_id": "fe2801bc43d60ef09f5244f91dd0dc3a", "is_reserved": 0, "name": "fe2801bc43d60ef09f5244f91dd0dc3a", "lat": 38.907636, "fusion_lat": 0.0, "lon": -77.0354995, "is_disabled": 0, "fusion_lon": 0.0, "rental_uris": {"android": "https://dc.lft.to/lastmile_qr_scan", "ios": "https://dc.lft.to/lastmile_qr_scan"}, "type": "electric_scooter"}, {"bike_id": "62b73ebd7e12f6fb530ac2e343e83f0b", "is_reserved": 0, "name": "62b73ebd7e12f6fb530ac2e343e83f0b", "lat": 38.905937333333334, "fusion_lat": 0.0, "lon": -77.070063, "is_disabled": 0, "fusion_lon": 0.0, "rental_uris": {"android": "https://dc.lft.to/lastmile_qr_scan", "ios": "https://dc.lft.to/lastmile_qr_scan"}, "type": "electric_scooter"}, {"bike_id": "83990d3727e8e48b3d3138f581982d84", "is_reserved": 0, "name": "83990d3727e8e48b3d3138f581982d84", "lat": 38.909727, "fusion_lat": 0.0, "lon": -77.05216833333333, "is_disabled": 0, "fusion_lon": 0.0, "rental_uris": {"android": "https://dc.lft.to/lastmile_qr_scan", "ios": "https://dc.lft.to/lastmile_qr_scan"}, "type": "electric_scooter"},