{"data": {"bikes": [{"rental_uris": {"android": "https://dc.lft.to/lastmile_qr_scan", "ios": "https://dc.lft.to/lastmile_qr_scan"}, "fusion_lat": 0.0, "is_reserved": 0, "lat": 38.907416, "name": "1750887afe2b34f077eccb038907ab1d", "bike_id": "1750887afe2b34f077eccb038907ab1d", "is_disabled": 0, "fusion_lon": 0.0, "type": "electric_scooter", "lon": -76.99749766666666}, {"rental_uris": {"android": "https://dc.lft.to/lastmile_qr_scan", "ios": "https://dc.lft.to/lastmile_qr_scan"}, "fusion_lat": 0.0, "is_reserved": 0, "lat": 38.915533333333336, "name": "bfa80bf29bb1d64f1bd7f636f8fb29b2", "bike_id": "bfa80bf29bb1d64f1bd7f636f8fb29b2", "is_disabled": 0, "fusion_lon": 0.0, "type": "electric_scooter", "lon": -77.02443133333334}, {"rental_uris": {"android": "https://dc.lft.to/lastmile_qr_scan", "ios": "https://dc.lft.to/lastmile_qr_scan"}, "fusion_lat": 0.0, "is_reserved": 0, "lat": 38.87851033333333, "name": "456ddddcfb306dd1652ba06e4da2b8ff", "bike_id": "456ddddcfb306dd1652ba06e4da2b8ff", "is_disabled": 0, "fusion_lon": 0.0, "type": "electric_scooter", "lon": -77.02226733333333}, {"rental_uris": {"android": "https://dc.lft.to/lastmile_qr_scan", "ios": "https://dc.lft.to/lastmile_qr_scan"}, "fusion_lat": 0.0, "is_reserved": 0, "lat": 38.92639033333333, "name": "1960519a16262e8e348fd30357fa5ebb", "bike_id": "1960519a16262e8e348fd30357fa5ebb", "is_disabled": 0, "fusion_lon": 0.0, "type": "electric_scooter", "lon": -77.03476166666667}, {"rental_uris": {"android": "https://dc.lft.to/lastmile_qr_scan", "ios": "https://dc.lft.to/lastmile_qr_scan"}, "fusion_lat": 0.0, "is_reserved": 0, "lat": 38.927804333333334, "name": "804e23513076af974af2e74a157ab54b", "bike_id": "804e23513076af974af2e74a157ab54b", "is_disabled": 0, "fusion_lon": 0.0, "type": "electric_scooter", "lon": -77.02711066666667}, {"rental_uris": {"android": "https://dc.lft.to/lastmile_qr_scan", "ios": "https://dc.lft.to/lastmile_qr_scan"}, "fusion_lat": 0.0, "is_reserved": 0, "lat": 38.90238516666667, "name": "6e69cb8c0519ee23ea4fce6b9afa4360", "bike_id": "6e69cb8c0519ee23ea4fce6b9afa4360", "is_disabled": 0, "fusion_lon": 0.0, "type": "electric_scooter", "lon": -77.00594183333334}, {"rental_uris": {"android": "https://dc.lft.to/lastmile_qr_scan", "ios": "https://dc.lft.to/lastmile_qr_scan"}, "fusion_lat": 0.0, "is_reserved": 0, "lat": 38.89422833333333, "name": "e813cfc27175b85f4816c03dbcdcbd21", "bike_id": "e813cfc27175b85f4816c03dbcdcbd21", "is_disabled": 0, "fusion_lon": 0.0, "type": "electric_scooter", "lon": -77.02092983333333}, {"rental_uris": {"android": "https://dc.lft.to/lastmile_qr_scan", "ios": "https://dc.lft.to/lastmile_qr_scan"}, "fusion_lat": 0.0, "is_reserved": 0, "lat": 38.904323, "name": "3c690db2be6f8eb3050cb1018c112805", "bike_id": "3c690db2be6f8eb3050cb1018c112805", "is_disabled": 0, "fusion_lon": 0.0, "type": "electric_scooter", "lon": -77.02567883333333}, {"rental_uris": {"android": "https://dc.lft.to/lastmile_qr_scan", "ios": "https://dc.lft.to/lastmile_qr_scan"}, "fusion_lat": 0.0, "is_reserved": 0, "lat": 38.873423833333334, "name": "f4ed51c6d3f50e93c868ba478af2d012", "bike_id": "f4ed51c6d3f50e93c868ba478af2d012", "is_disabled": 0, "fusion_lon": 0.0, "type": "electric_scooter", "lon": -76.99168083333333}, {"rental_uris": {"android": "https://dc.lft.to/lastmile_qr_scan", "ios": "https://dc.lft.to/lastmile_qr_scan"}, "fusion_lat": 0.0, "is_reserved": 0, "lat": 38.89369466666667, "name": "5e5eb7fd2bb2c17b2daa0db3af4ce345", "bike_id": "5e5eb7fd2bb2c17b2daa0db3af4ce345", "is_disabled": 0, "fusion_lon": 0.0, "type": "electric_scooter", "lon": -77.02808066666667}, {"rental_uris": {"android": "https://dc.lft.to/lastmile_qr_scan", "ios": "https://dc.lft.to/lastmile_qr_scan"}, "fusion_lat": 0.0, "is_reserved": 0, "lat": 38.807355666666666, "name": "66c82f3edca01c0162fc158c306e9f36", "bike_id": "66c82f3edca01c0162fc158c306e9f36", "is_disabled": 0, "fusion_lon": 0.0, "type": "electric_bike", "lon": -76.99254333333333}, {"rental_uris": {"android": "https://dc.lft.to/lastmile_qr_scan", "ios": "https://dc.lft.to/lastmile_qr_scan"}, "fusion_lat": 0.0, "is_reserved": 0, "lat": 38.879977333333336, "name": "22f7f7263091dcf00e7fd0dab7cac39e", "bike_id": "22f7f7263091dcf00e7fd0dab7cac39e", "is_disabled": 0, "fusion_lon": 0.0, "type": "electric_scooter", "lon": -77.03742716666666}, {"rental_uris": {"android": "https://dc.lft.to/lastmile_qr_scan", "ios": "https://dc.lft.to/lastmile_qr_scan"}, "fusion_lat": 0.0, "is_reserved": 0, "lat": 38.935864333333335, "name": "2dd8d75ef394318e4fbd65805d902e07", "bike_id": "2dd8d75ef394318e4fbd65805d902e07", "is_disabled": 0, "fusion_lon": 0.0, "type": "electric_scooter", "lon": -77.0587995}, {"rental_uris": {"android": "https://dc.lft.to/lastmile_qr_scan", "ios": "https://dc.lft.to/lastmile_qr_scan"}, "fusion_lat": 0.0, "is_reserved": 0, "lat": 38.91884266666667, "name": "175727e8879a2c0b942c7f8f0f8d3352", "bike_id": "175727e8879a2c0b942c7f8f0f8d3352", "is_disabled": 0, "fusion_lon": 0.0, "type": "electric_scooter", "lon": -77.02707633333333}, {"rental_uris": {"android": "https://dc.lft.to/lastmile_qr_scan", "ios": "https://dc.lft.to/lastmile_qr_scan"}, "fusion_lat": 0.0, "is_reserved": 0, "lat": 38.905601, "name": "0f13a3e47743c98597b82f447127e86c", "bike_id": "0f13a3e47743c98597b82f447127e86c", "is_disabled": 0, "fusion_lon": 0.0, "type": "electric_scooter", "lon": -77.0357955}, {"rental_uris": {"android": "https://dc.lft.to/lastmile_qr_scan", "ios": "https://dc.lft.to/lastmile_qr_scan"}, "fusion_lat": 0.0, "is_reserved": 0, "lat": 38.88689316666667, "name": "c197f4c5c4cdc4a04ec90289305978c4", "bike_id": "c197f4c5c4cdc4a04ec90289305978c4", "is_disabled": 0, "fusion_lon": 0.0, "type": "electric_scooter", "lon": -77.01378766666667}, {"rental_uris": {"android": "https://dc.lft.to/lastmile_qr_scan", "ios": "https://dc.lft.to/lastmile_qr_scan"}, "fusion_lat": 0.0, "is_reserved": 0, "lat": 38.9261045, "name": "991a6c41eaa977146e78b25e2ccf383e", "bike_id": "991a6c41eaa977146e78b25e2ccf383e", "is_disabled": 0, "fusion_lon": 0.0, "type": "electric_scooter", "lon": -77.02164333333333}, {"rental_uris": {"android": "https://dc.lft.to/lastmile_qr_scan", "ios": "https://dc.lft.to/lastmile_qr_scan"}, "fusion_lat": 0.0, "is_reserved": 0, "lat": 38.91546483333333, "name": "585974162f9f86ae53b2c3d0513b39f4", "bike_id": "585974162f9f86ae53b2c3d0513b39f4", "is_disabled": 0, "fusion_lon": 0.0, "type": "electric_scooter", "lon": -77.02816616666667}, {"rental_uris": {"android": "https://dc.lft.to/lastmile_qr_scan", "ios": "https://dc.lft.to/lastmile_qr_scan"}, "fusion_lat": 0.0, "is_reserved": 0, "lat": 38.909603833333335, "name": "d23ea937f052dcd0e87e5b42bab549c1", "bike_id": "d23ea937f052dcd0e87e5b42bab549c1", "is_disabled": 0, "fusion_lon": 0.0, "type": "electric_scooter", "lon": -77.02281933333333}, {"rental_uris": {"android": "https://dc.lft.to/lastmile_qr_scan", "ios": "https://dc.lft.to/lastmile_qr_scan"}, "fusion_lat": 0.0, "is_reserved": 0, "lat": 38.92725866666667, "name": "316afcd440d927298fabb887e9d93eb8", "bike_id": "316afcd440d927298fabb887e9d93eb8", "is_disabled": 0, "fusion_lon": 0.0, "type": "electric_scooter", "lon": -77.0296455}, {"rental_uris": {"android": "https://dc.lft.to/lastmile_qr_scan", "ios": "https://dc.lft.to/lastmile_qr_scan"}, "fusion_lat": 0.0, "is_reserved": 0, "lat": 38.90166516666667, "name": "2b18e9be60b80ce85db0d3311ceb1f2a", "bike_id": "2b18e9be60b80ce85db0d3311ceb1f2a", "is_disabled": 0, "fusion_lon": 0.0, "type": "electric_scooter", "lon": -76.93024116666666}, {"rental_uris": {"android": "https://dc.lft.to/lastmile_qr_scan", "ios": "https://dc.lft.to/lastmile_qr_scan"}, "fusion_lat": 0.0, "is_reserved": 0, "lat": 38.897941833333334, "name": "ce0e4f82a4643b2880cd584eb1709113", "bike_id": "ce0e4f82a4643b2880cd584eb1709113", "is_disabled": 0, "fusion_lon": 0.0, "type": "electric_scooter", "lon": -77.01217483333333}, {"rental_uris": {"android": "https://dc.lft.to/lastmile_qr_scan", "ios": "https://dc.lft.to/lastmile_qr_scan"}, "fusion_lat": 0.0, "is_reserved": 0, "lat": 38.917835333333336, "name": "7a586fb5f0fe8df4d59d4fc17ef13d31", "bike_id": "7a586fb5f0fe8df4d59d4fc17ef13d31", "is_disabled": 0, "fusion_lon": 0.0, "type": "electric_scooter", "lon": -77.0231685}, {"rental_uris": {"android": "https://dc.lft.to/lastmile_qr_scan", "ios": "https://dc.lft.to/lastmile_qr_scan"}, "fusion_lat": 0.0, "is_reserved": 0, "lat": 38.86354383333333, "name": "dbf87040bb5b4f205a7bc699246a43c3", "bike_id": "dbf87040bb5b4f205a7bc699246a43c3", "is_disabled": 0, "fusion_lon": 0.0, "type": "electric_scooter", "lon": -76.9871415}, {"rental_uris": {"android": "https://dc.lft.to/lastmile_qr_scan", "ios": "https://dc.lft.to/lastmile_qr_scan"}, "fusion_lat": 0.0, "is_reserved": 0, "lat": 38.910448, "name": "e5a533b31f1a9b3ebc67b133d0a69dc5", "bike_id": "e5a533b31f1a9b3ebc67b133d0a69dc5", "is_disabled": 0, "fusion_lon": 0.0, "type": "electric_scooter", "lon": -77.0146195}, {"rental_uris": {"android": "https://dc.lft.to/lastmile_qr_scan", "ios": "https://dc.lft.to/lastmile_qr_scan"}, "fusion_lat": 0.0, "is_reserved": 0, "lat": 38.935924, "name": "404d04a66217f0b183b73a261a6368f7", "bike_id": "404d04a66217f0b183b73a261a6368f7", "is_disabled": 0, "fusion_lon": 0.0, "type": "electric_scooter", "lon": -77.02122033333333}, {"rental_uris": {"android": "https://dc.lft.to/lastmile_qr_scan", "ios": "https://dc.lft.to/lastmile_qr_scan"}, "fusion_lat": 0.0, "is_reserved": 0, "lat": 38.9238565, "name": "ff332da3ef961bf6fc61d7fe0c27d506", "bike_id": "ff332da3ef961bf6fc61d7fe0c27d506", "is_disabled": 0, "fusion_lon": 0.0, "type": "electric_scooter", "lon": -77.031347}, {"rental_uris": {"android": "https://dc.lft.to/lastmile_qr_scan", "ios": "https://dc.lft.to/lastmile_qr_scan"}, "fusion_lat": 0.0, "is_reserved": 0, "lat": 38.90419116666666, "name": "d08ca8522f1875452709d9edefda1a48", "bike_id": "d08ca8522f1875452709d9edefda1a48", "is_disabled": 0, "fusion_lon": 0.0, "type": "electric_scooter", "lon": -77.01917716666667}, {"rental_uris": {"android": "https://dc.lft.to/lastmile_qr_scan", "ios": "https://dc.lft.to/lastmile_qr_scan"}, "fusion_lat": 0.0, "is_reserved": 0, "lat": 38.9281875, "name": "9b9816adea18ce88cffb30cb0a20d4ee", "bike_id": "9b9816adea18ce88cffb30cb0a20d4ee", "is_disabled": 0, "fusion_lon": 0.0, "type": "electric_scooter", "lon": -77.01413833333334}, {"rental_uris": {"android": "https://dc.lft.to/lastmile_qr_scan", "ios": "https://dc.lft.to/lastmile_qr_scan"}, "fusion_lat": 0.0, "is_reserved": 0, "lat": 38.88784283333333, "name": "47081d657b945881d9b06e98bbcbc2dc", "bike_id": "47081d657b945881d9b06e98bbcbc2dc", "is_disabled": 0, "fusion_lon": 0.0, "type": "electric_bike", "lon": -77.03255}, {"rental_uris": {"android": "https://dc.lft.to/lastmile_qr_scan", "ios": "https://dc.lft.to/lastmile_qr_scan"}, "fusion_lat": 0.0, "is_reserved": 0, "lat": 38.9465385, "name": "443bf321efce68d6132091db06a34bd5", "bike_id": "443bf321efce68d6132091db06a34bd5", "is_disabled": 0, "fusion_lon": 0.0, "type": "electric_scooter", "lon": -77.06473233333334}, {"rental_uris": {"android": "https://dc.lft.to/lastmile_qr_scan", "ios": "https://dc.lft.to/lastmile_qr_scan"}, "fusion_lat": 0.0, "is_reserved": 0, "lat": 38.933324, "name": "cff1dee527bb8040b2060361cd925212", "bike_id": "cff1dee527bb8040b2060361cd925212", "is_disabled": 0, "fusion_lon": 0.0, "type": "electric_scooter", "lon": -77.03634833333334}, {"rental_uris": {"android": "https://dc.lft.to/lastmile_qr_scan", "ios": "https://dc.lft.to/lastmile_qr_scan"}, "fusion_lat": 0.0, "is_reserved": 0, "lat": 38.922773666666664, "name": "56e90d533c1c3937287fe7c2a445a837", "bike_id": "56e90d533c1c3937287fe7c2a445a837", "is_disabled": 0, "fusion_lon": 0.0, "type": "electric_scooter", "lon": -77.02128333333333}, {"rental_uris": {"android": "https://dc.lft.to/lastmile_qr_scan", "ios": "https://dc.lft.to/lastmile_qr_scan"}, "fusion_lat": 0.0, "is_reserved": 0, "lat": 38.8991485, "name": "ed833c4b034da85f3bf7c47530688db8", "bike_id": "ed833c4b034da85f3bf7c47530688db8", "is_disabled": 0, "fusion_lon": 0.0, "type": "electric_scooter", "lon": -76.933715}, {"rental_uris": {"android": "https://dc.lft.to/lastmile_qr_scan", "ios": "https://dc.lft.to/lastmile_qr_scan"}, "fusion_lat": 0.0, "is_reserved": 0, "lat": 38.90739883333333, "name": "55b671cd014f2b7414004409fdcfbfd1", "bike_id": "55b671cd014f2b7414004409fdcfbfd1", "is_disabled": 0, "fusion_lon": 0.0, "type": "electric_scooter", "lon": -77.03214083333333}, {"rental_uris": {"android": "https://dc.lft.to/lastmile_qr_scan", "ios": "https://dc.lft.to/lastmile_qr_scan"}, "fusion_lat": 0.0, "is_reserved": 0, "lat": 38.865358, "name": "af62357cd10ee4d08a08cc69ad757613", "bike_id": "af62357cd10ee4d08a08cc69ad757613", "is_disabled": 0, "fusion_lon": 0.0, "type": "electric_scooter", "lon": -76.97460083333333}, {"rental_uris": {"android": "https://dc.lft.to/lastmile_qr_scan", "ios": "https://dc.lft.to/lastmile_qr_scan"}, "fusion_lat": 0.0, "is_reserved": 0, "lat": 38.93142366666667, "name": "92f89fc0df47422f40e711ec11fd82cc", "bike_id": "92f89fc0df47422f40e711ec11fd82cc", "is_disabled": 0, "fusion_lon": 0.0, "type": "electric_bike", "lon": -77.028255}, {"rental_uris": {"android": "https://dc.lft.to/lastmile_qr_scan", "ios": "https://dc.lft.to/lastmile_qr_scan"}, "fusion_lat": 0.0, "is_reserved": 0, "lat": 38.90182083333333, "name": "bda61b4b6b12af41e87793dfe81eb439", "bike_id": "bda61b4b6b12af41e87793dfe81eb439", "is_disabled": 0, "fusion_lon": 0.0, "type": "electric_scooter", "lon": -76.93003316666666}, {"rental_uris": {"android": "https://dc.lft.to/lastmile_qr_scan", "ios": "https://dc.lft.to/lastmile_qr_scan"}, "fusion_lat": 0.0, "is_reserved": 0, "lat": 38.89480733333333, "name": "c880acdec9b75fe05928449b93a2efaa", "bike_id": "c880acdec9b75fe05928449b93a2efaa", "is_disabled": 0, "fusion_lon": 0.0, "type": "electric_scooter", "lon": -76.99579516666667}, {"rental_uris": {"android": "https://dc.lft.to/lastmile_qr_scan", "ios": "https://dc.lft.to/lastmile_qr_scan"}, "fusion_lat": 0.0, "is_reserved": 0, "lat": 38.919214333333336, "name": "a04740636812ae00dfe87346376aae96", "bike_id": "a04740636812ae00dfe87346376aae96", "is_disabled": 0, "fusion_lon": 0.0, "type": "electric_scooter", "lon": -77.03422833333333}, {"rental_uris": {"android": "https://dc.lft.to/lastmile_qr_scan", "ios": "https://dc.lft.to/lastmile_qr_scan"}, "fusion_lat": 0.0, "is_reserved": 0, "lat": 38.924685, "name": "0d3f0d6108e67db0703a8d6dfcbec865", "bike_id": "0d3f0d6108e67db0703a8d6dfcbec865", "is_disabled": 0, "fusion_lon": 0.0, "type": "electric_scooter", "lon": -77.02704783333333}, {"rental_uris": {"android": "https://dc.lft.to/lastmile_qr_scan", "ios": "https://dc.lft.to/lastmile_qr_scan"}, "fusion_lat": 0.0, "is_reserved": 0, "lat": 38.8867615, "name": "78dc3d15a7d25ca796725e5d1f9c4dfc", "bike_id": "78dc3d15a7d25ca796725e5d1f9c4dfc", "is_disabled": 0, "fusion_lon": 0.0, "type": "electric_scooter", "lon": -77.00200733333334}, {"rental_uris": {"android": "https://dc.lft.to/lastmile_qr_scan", "ios": "https://dc.lft.to/lastmile_qr_scan"}, "fusion_lat": 0.0, "is_reserved": 0, "lat": 38.939534333333334, "name": "ff72e1e79a3217678417847bf4325f77", "bike_id": "ff72e1e79a3217678417847bf4325f77", "is_disabled": 0, "fusion_lon": 0.0, "type": "electric_scooter", "lon": -77.0276235}, {"rental_uris": {"android": "https://dc.lft.to/lastmile_qr_scan", "ios": "https://dc.lft.to/lastmile_qr_scan"}, "fusion_lat": 0.0, "is_reserved": 0, "lat": 38.91711016666667, "name": "c9fe98c648b9eb56296e4af5252b0d6e", "bike_id": "c9fe98c648b9eb56296e4af5252b0d6e", "is_disabled": 0, "fusion_lon": 0.0, "type": "electric_scooter", "lon": -77.03453216666666}, {"rental_uris": {"android": "https://dc.lft.to/lastmile_qr_scan", "ios": "https://dc.lft.to/lastmile_qr_scan"}, "fusion_lat": 0.0, "is_reserved": 0, "lat": 38.909925333333334, "name": "fbb63bc287f2df670a3eed202683767f", "bike_id": "fbb63bc287f2df670a3eed202683767f", "is_disabled": 0, "fusion_lon": 0.0, "type": "electric_scooter", "lon": -77.02394383333333}, {"rental_uris": {"android": "https://dc.lft.to/lastmile_qr_scan", "ios": "https://dc.lft.to/lastmile_qr_scan"}, "fusion_lat": 0.0, "is_reserved": 0, "lat": 38.920739, "name": "fb695119be81344a6484f2746c09f810", "bike_id": "fb695119be81344a6484f2746c09f810", "is_disabled": 0, "fusion_lon": 0.0, "type": "electric_scooter", "lon": -77.023174}, {"rental_uris": {"android": "https://dc.lft.to/lastmile_qr_scan", "ios": "https://dc.lft.to/lastmile_qr_scan"}, "fusion_lat": 0.0, "is_reserved": 0, "lat": 38.925110333333336, "name": "b4f3f20e1efff743181ea583248eaa4d", "bike_id": "b4f3f20e1efff743181ea583248eaa4d", "is_disabled": 0, "fusion_lon": 0.0, "type": "electric_scooter", "lon": -77.0227095}, {"rental_uris": {"android": "https://dc.lft.to/lastmile_qr_scan", "ios": "https://dc.lft.to/lastmile_qr_scan"}, "fusion_lat": 0.0, "is_reserved": 0, "lat": 38.92457516666666, "name": "dfe061dd6d378f4bef328546a6a739a2", "bike_id": "dfe061dd6d378f4bef328546a6a739a2", "is_disabled": 0, "fusion_lon": 0.0, "type": "electric_scooter", "lon": -76.99913733333334}, {"rental_uris": {"android": "https://dc.lft.to/lastmile_qr_scan", "ios": "https://dc.lft.to/lastmile_qr_scan"}, "fusion_lat": 0.0, "is_reserved": 0, "lat": 38.918923166666666, "name": "0e591f297daed648838001ff21ffc877", "bike_id": "0e591f297daed648838001ff21ffc877", "is_disabled": 0, "fusion_lon": 0.0, "type": "electric_scooter", "lon": -77.00338116666667}, {"rental_uris": {"android": "https://dc.lft.to/lastmile_qr_scan", "ios": "https://dc.lft.to/lastmile_qr_scan"}, "fusion_lat": 0.0, "is_reserved": 0, "lat": 38.87576133333334, "name": "e2503d121ef02ae768ce6784b5ce8ba0", "bike_id": "e2503d121ef02ae768ce6784b5ce8ba0", "is_disabled": 0, "fusion_lon": 0.0, "type": "electric_scooter", "lon": -77.0199655}, {"rental_uris": {"android": "https://dc.lft.to/lastmile_qr_scan", "ios": "https://dc.lft.to/lastmile_qr_scan"}, "fusion_lat": 0.0, "is_reserved": 0, "lat": 38.868708833333336, "name": "471586f942c90377506a674b23defaf6", "bike_id": "471586f942c90377506a674b23defaf6", "is_disabled": 0, "fusion_lon": 0.0, "type": "electric_scooter", "lon": -76.9866385}, {"rental_uris": {"android": "https://dc.lft.to/lastmile_qr_scan", "ios": "https://dc.lft.to/lastmile_qr_scan"}, "fusion_lat": 0.0, "is_reserved": 0, "lat": 38.89623916666667, "name": "fd1090c1ea524e046e7456c9e94c56e7", "bike_id": "fd1090c1ea524e046e7456c9e94c56e7", "is_disabled": 0, "fusion_lon": 0.0, "type": "electric_scooter", "lon": -76.9985175}, {"rental_uris": {"android": "https://dc.lft.to/lastmile_qr_scan", "ios": "https://dc.lft.to/lastmile_qr_scan"}, "fusion_lat": 0.0, "is_reserved": 0, "lat": 38.90576133333333, "name": "12715e5ec0abfe8d3cac9e5e17bc41f2", "bike_id": "12715e5ec0abfe8d3cac9e5e17bc41f2", "is_disabled": 0, "fusion_lon": 0.0, "type": "electric_scooter", "lon": -77.04535133333333}, {"rental_uris": {"android": "https://dc.lft.to/lastmile_qr_scan", "ios": "https://dc.lft.to/lastmile_qr_scan"}, "fusion_lat": 0.0, "is_reserved": 0, "lat": 38.923891833333336, "name": "cf5828d4724405be86140ce6784f65b5", "bike_id": "cf5828d4724405be86140ce6784f65b5", "is_disabled": 0, "fusion_lon": 0.0, "type": "electric_scooter", "lon": -77.02496866666667}, {"rental_uris": {"android": "https://dc.lft.to/lastmile_qr_scan", "ios": "https://dc.lft.to/lastmile_qr_scan"}, "fusion_lat": 0.0, "is_reserved": 0, "lat": 38.919225833333336, "name": "faf0f46762403137127a7dc1e5ebfce6", "bike_id": "faf0f46762403137127a7dc1e5ebfce6", "is_disabled": 0, "fusion_lon": 0.0, "type": "electric_scooter", "lon": -77.0342}, {"rental_uris": {"android": "https://dc.lft.to/lastmile_qr_scan", "ios": "https://dc.lft.to/lastmile_qr_scan"}, "fusion_lat": 0.0, "is_reserved": 0, "lat": 38.88347783333333, "name": "e9dd3f6f01e0584447fafcde368afa26", "bike_id": "e9dd3f6f01e0584447fafcde368afa26", "is_disabled": 0, "fusion_lon": 0.0, "type": "electric_scooter", "lon": -76.9927625}, {"rental_uris": {"android": "https://dc.lft.to/lastmile_qr_scan", "ios": "https://dc.lft.to/lastmile_qr_scan"}, "fusion_lat": 0.0, "is_reserved": 0, "lat": 38.9029385, "name": "be0028abd49108a5c54e9bb85de02503", "bike_id": "be0028abd49108a5c54e9bb85de02503", "is_disabled": 0, "fusion_lon": 0.0, "type": "electric_scooter", "lon": -77.0580445}, {"rental_uris": {"android": "https://dc.lft.to/lastmile_qr_scan", "ios": "https://dc.lft.to/lastmile_qr_scan"}, "fusion_lat": 0.0, "is_reserved": 0, "lat": 38.911291166666665, "name": "222ce579c12a1271addf85c0c97e115b", "bike_id": "222ce579c12a1271addf85c0c97e115b", "is_disabled": 0, "fusion_lon": 0.0, "type": "electric_scooter", "lon": -77.02199866666666}, {"rental_uris": {"android": "https://dc.lft.to/lastmile_qr_scan", "ios": "https://dc.lft.to/lastmile_qr_scan"}, "fusion_lat": 0.0, "is_reserved": 0, "lat": 38.857117333333335, "name": "ca972e49b032f7edc97c8e1bbb67ebe7", "bike_id": "ca972e49b032f7edc97c8e1bbb67ebe7", "is_disabled": 0, "fusion_lon": 0.0, "type": "electric_scooter", "lon": -76.98214833333333}, {"rental_uris": {"android": "https://dc.lft.to/lastmile_qr_scan", "ios": "https://dc.lft.to/lastmile_qr_scan"}, "fusion_lat": 0.0, "is_reserved": 0, "lat": 38.870692166666664, "name": "3bfccd736c84ae8e3d53821f862c1951", "bike_id": "3bfccd736c84ae8e3d53821f862c1951", "is_disabled": 0, "fusion_lon": 0.0, "type": "electric_scooter", "lon": -76.97912066666666}, {"rental_uris": {"android": "https://dc.lft.to/lastmile_qr_scan", "ios": "https://dc.lft.to/lastmile_qr_scan"}, "fusion_lat": 0.0, "is_reserved": 0, "lat": 38.898649166666665, "name": "b56aa4e297632fb07aac39f21eeafd78", "bike_id": "b56aa4e297632fb07aac39f21eeafd78", "is_disabled": 0, "fusion_lon": 0.0, "type": "electric_scooter", "lon": -76.94677916666667}, {"rental_uris": {"android": "https://dc.lft.to/lastmile_qr_scan", "ios": "https://dc.lft.to/lastmile_qr_scan"}, "fusion_lat": 0.0, "is_reserved": 0, "lat": 38.90112416666667, "name": "cb7295723ea73157f8932885ba51a039", "bike_id": "cb7295723ea73157f8932885ba51a039", "is_disabled": 0, "fusion_lon": 0.0, "type": "electric_scooter", "lon": -77.0499235}, {"rental_uris": {"android": "https://dc.lft.to/lastmile_qr_scan", "ios": "https://dc.lft.to/lastmile_qr_scan"}, "fusion_lat": 0.0, "is_reserved": 0, "lat": 38.89508933333333, "name": "4c6713881f772febc8c923f21291298b", "bike_id": "4c6713881f772febc8c923f21291298b", "is_disabled": 0, "fusion_lon": 0.0, "type": "electric_scooter", "lon": -77.02201533333333}, {"rental_uris": {"android": "https://dc.lft.to/lastmile_qr_scan", "ios": "https://dc.lft.to/lastmile_qr_scan"}, "fusion_lat": 0.0, "is_reserved": 0, "lat": 38.91689483333333, "name": "87edc997750b75c4077db670ac31fcd9", "bike_id": "87edc997750b75c4077db670ac31fcd9", "is_disabled": 0, "fusion_lon": 0.0, "type": "electric_scooter", "lon": -77.04140983333333}, {"rental_uris": {"android": "https://dc.lft.to/lastmile_qr_scan", "ios": "https://dc.lft.to/lastmile_qr_scan"}, "fusion_lat": 0.0, "is_reserved": 0, "lat": 38.897448, "name": "a25d7b83cf910629a290d274235f9724", "bike_id": "a25d7b83cf910629a290d274235f9724", "is_disabled": 0, "fusion_lon": 0.0, "type": "electric_scooter", "lon": -77.0249705}, {"rental_uris": {"android": "https://dc.lft.to/lastmile_qr_scan", "ios": "https://dc.lft.to/lastmile_qr_scan"}, "fusion_lat": 0.0, "is_reserved": 0, "lat": 38.9204765, "name": "b15441ebdcc7e0f086159c00be2e6823", "bike_id": "b15441ebdcc7e0f086159c00be2e6823", "is_disabled": 0, "fusion_lon": 0.0, "type": "electric_scooter", "lon": -77.04827716666667}, {"rental_uris": {"android": "https://dc.lft.to/lastmile_qr_scan", "ios": "https://dc.lft.to/lastmile_qr_scan"}, "fusion_lat": 0.0, "is_reserved": 0, "lat": 38.9441595, "name": "4db7bea803a5060b5606708eadf7ebcf", "bike_id": "4db7bea803a5060b5606708eadf7ebcf", "is_disabled": 0, "fusion_lon": 0.0, "type": "electric_scooter", "lon": -77.06327533333334}, {"rental_uris": {"android": "https://dc.lft.to/lastmile_qr_scan", "ios": "https://dc.lft.to/lastmile_qr_scan"}, "fusion_lat": 0.0, "is_reserved": 0, "lat": 38.920289, "name": "7a140824df434cda20823db6664bc176", "bike_id": "7a140824df434cda20823db6664bc176", "is_disabled": 0, "fusion_lon": 0.0, "type": "electric_scooter", "lon": -77.0308565}, {"rental_uris": {"android": "https://dc.lft.to/lastmile_qr_scan", "ios": "https://dc.lft.to/lastmile_qr_scan"}, "fusion_lat": 0.0, "is_reserved": 0, "lat": 38.910188833333336, "name": "0106cabcb1e93b10c5ae145f4e4ae4f1", "bike_id": "0106cabcb1e93b10c5ae145f4e4ae4f1", "is_disabled": 0, "fusion_lon": 0.0, "type": "electric_scooter", "lon": -76.99374366666666}, {"rental_uris": {"android": "https://dc.lft.to/lastmile_qr_scan", "ios": "https://dc.lft.to/lastmile_qr_scan"}, "fusion_lat": 0.0, "is_reserved": 0, "lat": 38.908437166666666, "name": "4bda10fbd5fc5042276e5538daa803fe", "bike_id": "4bda10fbd5fc5042276e5538daa803fe", "is_disabled": 0, "fusion_lon": 0.0, "type": "electric_scooter", "lon": -77.00220366666667}, {"rental_uris": {"android": "https://dc.lft.to/lastmile_qr_scan", "ios": "https://dc.lft.to/lastmile_qr_scan"}, "fusion_lat": 0.0, "is_reserved": 0, "lat": 38.922625833333335, "name": "bf8bf918a19af9a419295875066bfe39", "bike_id": "bf8bf918a19af9a419295875066bfe39", "is_disabled": 0, "fusion_lon": 0.0, "type": "electric_scooter", "lon": -77.042915}, {"rental_uris": {"android": "https://dc.lft.to/lastmile_qr_scan", "ios": "https://dc.lft.to/lastmile_qr_scan"}, "fusion_lat": 0.0, "is_reserved": 0, "lat": 38.90161766666667, "name": "d5b8c606723bf859f778c4e133fae184", "bike_id": "d5b8c606723bf859f778c4e133fae184", "is_disabled": 0, "fusion_lon": 0.0, "type": "electric_scooter", "lon": -77.03176466666666}, {"rental_uris": {"android": "https://dc.lft.to/lastmile_qr_scan", "ios": "https://dc.lft.to/lastmile_qr_scan"}, "fusion_lat": 0.0, "is_reserved": 0, "lat": 38.92202533333333, "name": "13d65b2632df42ffb40ab7961109f512", "bike_id": "13d65b2632df42ffb40ab7961109f512", "is_disabled": 0, "fusion_lon": 0.0, "type": "electric_scooter", "lon": -77.020326}, {"rental_uris": {"android": "https://dc.lft.to/lastmile_qr_scan", "ios": "https://dc.lft.to/lastmile_qr_scan"}, "fusion_lat": 0.0, "is_reserved": 0, "lat": 38.92671466666667, "name": "eae52779be642cb829c08ee2c3040839", "bike_id": "eae52779be642cb829c08ee2c3040839", "is_disabled": 0, "fusion_lon": 0.0, "type": "electric_scooter", "lon": -77.02881466666666}, {"rental_uris": {"android": "https://dc.lft.to/lastmile_qr_scan", "ios": "https://dc.lft.to/lastmile_qr_scan"}, "fusion_lat": 0.0, "is_reserved": 0, "lat": 38.92388016666666, "name": "4323b52af3122676c88c94fadb8fc1c7", "bike_id": "4323b52af3122676c88c94fadb8fc1c7", "is_disabled": 0, "fusion_lon": 0.0, "type": "electric_scooter", "lon": -77.03656566666666}, {"rental_uris": {"android": "https://dc.lft.to/lastmile_qr_scan", "ios": "https://dc.lft.to/lastmile_qr_scan"}, "fusion_lat": 0.0, "is_reserved": 0, "lat": 38.90041333333333, "name": "c14b654eb5fe252acffd3d6fc2f29b5f", "bike_id": "c14b654eb5fe252acffd3d6fc2f29b5f", "is_disabled": 0, "fusion_lon": 0.0, "type": "electric_scooter", "lon": -77.01625183333333}, {"rental_uris": {"android": "https://dc.lft.to/lastmile_qr_scan", "ios": "https://dc.lft.to/lastmile_qr_scan"}, "fusion_lat": 0.0, "is_reserved": 0, "lat": 38.91538583333333, "name": "e6997913391dbf56a868c88dfcdd820b", "bike_id": "e6997913391dbf56a868c88dfcdd820b", "is_disabled": 0, "fusion_lon": 0.0, "type": "electric_scooter", "lon": -77.02003383333333}, {"rental_uris": {"android": "https://dc.lft.to/lastmile_qr_scan", "ios": "https://dc.lft.to/lastmile_qr_scan"}, "fusion_lat": 0.0, "is_reserved": 0, "lat": 38.887243, "name": "c9b50dae09466e5c2dd83b9f3ec40e92", "bike_id": "c9b50dae09466e5c2dd83b9f3ec40e92", "is_disabled": 0, "fusion_lon": 0.0, "type": "electric_scooter", "lon": -76.996784}, {"rental_uris": {"android": "https://dc.lft.to/lastmile_qr_scan", "ios": "https://dc.lft.to/lastmile_qr_scan"}, "fusion_lat": 0.0, "is_reserved": 0, "lat": 38.943298666666664, "name": "581895e9825e2a101434f33393ef52c3", "bike_id": "581895e9825e2a101434f33393ef52c3", "is_disabled": 0, "fusion_lon": 0.0, "type": "electric_scooter", "lon": -77.01554083333333}, {"rental_uris": {"android": "https://dc.lft.to/lastmile_qr_scan", "ios": "https://dc.lft.to/lastmile_qr_scan"}, "fusion_lat": 0.0, "is_reserved": 0, "lat": 38.9332065, "name": "2cebd83db8dbec0add2248fcfe60ff02", "bike_id": "2cebd83db8dbec0add2248fcfe60ff02", "is_disabled": 0, "fusion_lon": 0.0, "type": "electric_scooter", "lon": -77.0379645}, {"rental_uris": {"android": "https://dc.lft.to/lastmile_qr_scan", "ios": "https://dc.lft.to/lastmile_qr_scan"}, "fusion_lat": 0.0, "is_reserved": 0, "lat": 38.9284545, "name": "c0bfe5ad18a7982d7e3203f8bf7a2e22", "bike_id": "c0bfe5ad18a7982d7e3203f8bf7a2e22", "is_disabled": 0, "fusion_lon": 0.0, "type": "electric_scooter", "lon": -77.02487683333334}, {"rental_uris": {"android": "https://dc.lft.to/lastmile_qr_scan", "ios": "https://dc.lft.to/lastmile_qr_scan"}, "fusion_lat": 0.0, "is_reserved": 0, "lat": 38.93497933333333, "name": "a41a49dc2268fae66625fb6b512736cc", "bike_id": "a41a49dc2268fae66625fb6b512736cc", "is_disabled": 0, "fusion_lon": 0.0, "type": "electric_scooter", "lon": -77.04452016666667}, {"rental_uris": {"android": "https://dc.lft.to/lastmile_qr_scan", "ios": "https://dc.lft.to/lastmile_qr_scan"}, "fusion_lat": 0.0, "is_reserved": 0, "lat": 38.92137366666667, "name": "215eab435e2e1fa24f7ef368928af86e", "bike_id": "215eab435e2e1fa24f7ef368928af86e", "is_disabled": 0, "fusion_lon": 0.0, "type": "electric_scooter", "lon": -77.041276}, {"rental_uris": {"android": "https://dc.lft.to/lastmile_qr_scan", "ios": "https://dc.lft.to/lastmile_qr_scan"}, "fusion_lat": 0.0, "is_reserved": 0, "lat": 38.9012235, "name": "ec819d893eea9e0a1f5f84863355aaac", "bike_id": "ec819d893eea9e0a1f5f84863355aaac", "is_disabled": 0, "fusion_lon": 0.0, "type": "electric_scooter", "lon": -77.0449265}, {"rental_uris": {"android": "https://dc.lft.to/lastmile_qr_scan", "ios": "https://dc.lft.to/lastmile_qr_scan"}, "fusion_lat": 0.0, "is_reserved": 0, "lat": 38.898822333333335, "name": "e781484b8ac66757d93ea0dd8137b70d", "bike_id": "e781484b8ac66757d93ea0dd8137b70d", "is_disabled": 0, "fusion_lon": 0.0, "type": "electric_scooter", "lon": -76.98839033333333}, {"rental_uris": {"android": "https://dc.lft.to/lastmile_qr_scan", "ios": "https://dc.lft.to/lastmile_qr_scan"}, "fusion_lat": 0.0, "is_reserved": 0, "lat": 38.92641316666667, "name": "5262af6778c7b4751ffa17d1e340721e", "bike_id": "5262af6778c7b4751ffa17d1e340721e", "is_disabled": 0, "fusion_lon": 0.0, "type": "electric_scooter", "lon": -77.02514766666667}, {"rental_uris": {"android": "https://dc.lft.to/lastmile_qr_scan", "ios": "https://dc.lft.to/lastmile_qr_scan"}, "fusion_lat": 0.0, "is_reserved": 0, "lat": 38.896117, "name": "fc4af6f3fd1e56209b38c0345ecd9c1e", "bike_id": "fc4af6f3fd1e56209b38c0345ecd9c1e", "is_disabled": 0, "fusion_lon": 0.0, "type": "electric_scooter", "lon": -76.97287666666666}, {"rental_uris": {"android": "https://dc.lft.to/lastmile_qr_scan", "ios": "https://dc.lft.to/lastmile_qr_scan"}, "fusion_lat": 0.0, "is_reserved": 0, "lat": 38.923684333333334, "name": "c39cfedeb30293d5bbaa51925fd60f57", "bike_id": "c39cfedeb30293d5bbaa51925fd60f57", "is_disabled": 0, "fusion_lon": 0.0, "type": "electric_scooter", "lon": -77.01956416666667}, {"rental_uris": {"android": "https://dc.lft.to/lastmile_qr_scan", "ios": "https://dc.lft.to/lastmile_qr_scan"}, "fusion_lat": 0.0, "is_reserved": 0, "lat": 38.98989233333333, "name": "011adbb6d95e5e7f2dc1a8480645fce6", "bike_id": "011adbb6d95e5e7f2dc1a8480645fce6", "is_disabled": 0, "fusion_lon": 0.0, "type": "electric_scooter", "lon": -77.03362966666667}, {"rental_uris": {"android": "https://dc.lft.to/lastmile_qr_scan", "ios": "https://dc.lft.to/lastmile_qr_scan"}, "fusion_lat": 0.0, "is_reserved": 0, "lat": 38.92434516666667, "name": "d7df573e7941d7a06b5efe72e0687086", "bike_id": "d7df573e7941d7a06b5efe72e0687086", "is_disabled": 0, "fusion_lon": 0.0, "type": "electric_scooter", "lon": -77.05214366666667}, {"rental_uris": {"android": "https://dc.lft.to/lastmile_qr_scan", "ios": "https://dc.lft.to/lastmile_qr_scan"}, "fusion_lat": 0.0, "is_reserved": 0, "lat": 38.92463683333333, "name": "35faaadc1743cf6ef7d90a2f2a1155aa", "bike_id": "35faaadc1743cf6ef7d90a2f2a1155aa", "is_disabled": 0, "fusion_lon": 0.0, "type": "electric_scooter", "lon": -77.026961}, {"rental_uris": {"android": "https://dc.lft.to/lastmile_qr_scan", "ios": "https://dc.lft.to/lastmile_qr_scan"}, "fusion_lat": 0.0, "is_reserved": 0, "lat": 38.89777016666667, "name": "f5b701fcd3d446b91fcc945aa1f754ac", "bike_id": "f5b701fcd3d446b91fcc945aa1f754ac", "is_disabled": 0, "fusion_lon": 0.0, "type": "electric_scooter", "lon": -76.99269866666667}, {"rental_uris": {"android": "https://dc.lft.to/lastmile_qr_scan", "ios": "https://dc.lft.to/lastmile_qr_scan"}, "fusion_lat": 0.0, "is_reserved": 0, "lat": 38.86266883333333, "name": "2de9dd41368db7036639a003e23ce252", "bike_id": "2de9dd41368db7036639a003e23ce252", "is_disabled": 0, "fusion_lon": 0.0, "type": "electric_scooter", "lon": -76.981934}, {"rental_uris": {"android": "https://dc.lft.to/lastmile_qr_scan", "ios": "https://dc.lft.to/lastmile_qr_scan"}, "fusion_lat": 0.0, "is_reserved": 0, "lat": 38.88552383333333, "name": "f8e813a2d1857dc4ea2c08d9c867899e", "bike_id": "f8e813a2d1857dc4ea2c08d9c867899e", "is_disabled": 0, "fusion_lon": 0.0, "type": "electric_scooter", "lon": -77.02188116666666}, {"rental_uris": {"android": "https://dc.lft.to/lastmile_qr_scan", "ios": "https://dc.lft.to/lastmile_qr_scan"}, "fusion_lat": 0.0, "is_reserved": 0, "lat": 38.92927366666667, "name": "e4840ccdfd869dcc0f07573f905cdf68", "bike_id": "e4840ccdfd869dcc0f07573f905cdf68", "is_disabled": 0, "fusion_lon": 0.0, "type": "electric_scooter", "lon": -77.02966}, {"rental_uris": {"android": "https://dc.lft.to/lastmile_qr_scan", "ios": "https://dc.lft.to/lastmile_qr_scan"}, "fusion_lat": 0.0, "is_reserved": 0, "lat": 38.92066883333333, "name": "c76ad6ea741793949694489662d109a3", "bike_id": "c76ad6ea741793949694489662d109a3", "is_disabled": 0, "fusion_lon": 0.0, "type": "electric_scooter", "lon": -77.03458633333334}, {"rental_uris": {"android": "https://dc.lft.to/lastmile_qr_scan", "ios": "https://dc.lft.to/lastmile_qr_scan"}, "fusion_lat": 0.0, "is_reserved": 0, "lat": 38.93454583333333, "name": "1c8415a96ccbe25d4a815d2b6e753f4d", "bike_id": "1c8415a96ccbe25d4a815d2b6e753f4d", "is_disabled": 0, "fusion_lon": 0.0, "type": "electric_scooter", "lon": -77.02727783333333}, {"rental_uris": {"android": "https://dc.lft.to/lastmile_qr_scan", "ios": "https://dc.lft.to/lastmile_qr_scan"}, "fusion_lat": 0.0, "is_reserved": 0, "lat": 38.89917633333334, "name": "fa72d487afe5ed57b128f39ad2afcba9", "bike_id": "fa72d487afe5ed57b128f39ad2afcba9", "is_disabled": 0, "fusion_lon": 0.0, "type": "electric_scooter", "lon": -76.93366366666666}, {"rental_uris": {"android": "https://dc.lft.to/lastmile_qr_scan", "ios": "https://dc.lft.to/lastmile_qr_scan"}, "fusion_lat": 0.0, "is_reserved": 0, "lat": 38.904213166666665, "name": "86e2cc63cbe216514c0069f8d569da1c", "bike_id": "86e2cc63cbe216514c0069f8d569da1c", "is_disabled": 0, "fusion_lon": 0.0, "type": "electric_scooter", "lon": -77.025783}, {"rental_uris": {"android": "https://dc.lft.to/lastmile_qr_scan", "ios": "https://dc.lft.to/lastmile_qr_scan"}, "fusion_lat": 0.0, "is_reserved": 0, "lat": 38.90916283333333, "name": "02ba211dfa03e6da5bb1d973026b1dd5", "bike_id": "02ba211dfa03e6da5bb1d973026b1dd5", "is_disabled": 0, "fusion_lon": 0.0, "type": "electric_scooter", "lon": -77.03103033333333}, {"rental_uris": {"android": "https://dc.lft.to/lastmile_qr_scan", "ios": "https://dc.lft.to/lastmile_qr_scan"}, "fusion_lat": 0.0, "is_reserved": 0, "lat": 38.9132555, "name": "dc38ae5c33a6117a4179a0c82be77d09", "bike_id": "dc38ae5c33a6117a4179a0c82be77d09", "is_disabled": 0, "fusion_lon": 0.0, "type": "electric_scooter", "lon": -77.04726616666666}, {"rental_uris": {"android": "https://dc.lft.to/lastmile_qr_scan", "ios": "https://dc.lft.to/lastmile_qr_scan"}, "fusion_lat": 0.0, "is_reserved": 0, "lat": 38.91260583333333, "name": "e9ba8200151c1c4b11550108bba84db7", "bike_id": "e9ba8200151c1c4b11550108bba84db7", "is_disabled": 0, "fusion_lon": 0.0, "type": "electric_scooter", "lon": -77.03518066666666}, {"rental_uris": {"android": "https://dc.lft.to/lastmile_qr_scan", "ios": "https://dc.lft.to/lastmile_qr_scan"}, "fusion_lat": 0.0, "is_reserved": 0, "lat": 38.90586366666667, "name": "2b4b27e1504aed4a3246855054b5603d", "bike_id": "2b4b27e1504aed4a3246855054b5603d", "is_disabled": 0, "fusion_lon": 0.0, "type": "electric_scooter", "lon": -77.04229883333333}, {"rental_uris": {"android": "https://dc.lft.to/lastmile_qr_scan", "ios": "https://dc.lft.to/lastmile_qr_scan"}, "fusion_lat": 0.0, "is_reserved": 0, "lat": 38.94165533333333, "name": "712e55383186eb3db3a5f7ff15e537cb", "bike_id": "712e55383186eb3db3a5f7ff15e537cb", "is_disabled": 0, "fusion_lon": 0.0, "type": "electric_scooter", "lon": -77.025598}, {"rental_uris": {"android": "https://dc.lft.to/lastmile_qr_scan", "ios": "https://dc.lft.to/lastmile_qr_scan"}, "fusion_lat": 0.0, "is_reserved": 0, "lat": 38.922402166666664, "name": "793faf9421644fe41cee4e8bc42b0828", "bike_id": "793faf9421644fe41cee4e8bc42b0828", "is_disabled": 0, "fusion_lon": 0.0, "type": "electric_scooter", "lon": -77.036648}, {"rental_uris": {"android": "https://dc.lft.to/lastmile_qr_scan", "ios": "https://dc.lft.to/lastmile_qr_scan"}, "fusion_lat": 0.0, "is_reserved": 0, "lat": 38.91911566666667, "name": "7f3836129378db34c3c6ceeaf8f6b73d", "bike_id": "7f3836129378db34c3c6ceeaf8f6b73d", "is_disabled": 0, "fusion_lon": 0.0, "type": "electric_scooter", "lon": -77.04173883333333}, {"rental_uris": {"android": "https://dc.lft.to/lastmile_qr_scan", "ios": "https://dc.lft.to/lastmile_qr_scan"}, "fusion_lat": 0.0, "is_reserved": 0, "lat": 38.87897266666667, "name": "4af73b58d0d941b635b0c0f4103284c6", "bike_id": "4af73b58d0d941b635b0c0f4103284c6", "is_disabled": 0, "fusion_lon": 0.0, "type": "electric_scooter", "lon": -77.006002}, {"rental_uris": {"android": "https://dc.lft.to/lastmile_qr_scan", "ios": "https://dc.lft.to/lastmile_qr_scan"}, "fusion_lat": 0.0, "is_reserved": 0, "lat": 38.83029416666667, "name": "93a0299932981e62465e7f1829733a7a", "bike_id": "93a0299932981e62465e7f1829733a7a", "is_disabled": 0, "fusion_lon": 0.0, "type": "electric_bike", "lon": -77.08379633333334}, {"rental_uris": {"android": "https://dc.lft.to/lastmile_qr_scan", "ios": "https://dc.lft.to/lastmile_qr_scan"}, "fusion_lat": 0.0, "is_reserved": 0, "lat": 38.920525833333336, "name": "a6887644c3e52743d83cdbfda6762757", "bike_id": "a6887644c3e52743d83cdbfda6762757", "is_disabled": 0, "fusion_lon": 0.0, "type": "electric_scooter", "lon": -77.02435366666667}, {"rental_uris": {"android": "https://dc.lft.to/lastmile_qr_scan", "ios": "https://dc.lft.to/lastmile_qr_scan"}, "fusion_lat": 0.0, "is_reserved": 0, "lat": 38.926025333333335, "name": "5563b618ad317f74d74a40f51705dd24", "bike_id": "5563b618ad317f74d74a40f51705dd24", "is_disabled": 0, "fusion_lon": 0.0, "type": "electric_scooter", "lon": -77.02152016666666}, {"rental_uris": {"android": "https://dc.lft.to/lastmile_qr_scan", "ios": "https://dc.lft.to/lastmile_qr_scan"}, "fusion_lat": 0.0, "is_reserved": 0, "lat": 38.947481333333336, "name": "4cf72f58a9897aeae060421091b7e5e1", "bike_id": "4cf72f58a9897aeae060421091b7e5e1", "is_disabled": 0, "fusion_lon": 0.0, "type": "electric_scooter", "lon": -77.01952616666667}, {"rental_uris": {"android": "https://dc.lft.to/lastmile_qr_scan", "ios": "https://dc.lft.to/lastmile_qr_scan"}, "fusion_lat": 0.0, "is_reserved": 0, "lat": 38.904992166666666, "name": "4fcb6f475101b478408827e185a1079a", "bike_id": "4fcb6f475101b478408827e185a1079a", "is_disabled": 0, "fusion_lon": 0.0, "type": "electric_scooter", "lon": -76.98032583333334}, {"rental_uris": {"android": "https://dc.lft.to/lastmile_qr_scan", "ios": "https://dc.lft.to/lastmile_qr_scan"}, "fusion_lat": 0.0, "is_reserved": 0, "lat": 38.924729666666664, "name": "9bebc93343e10627c0bf7672d66f5f2f", "bike_id": "9bebc93343e10627c0bf7672d66f5f2f", "is_disabled": 0, "fusion_lon": 0.0, "type": "electric_scooter", "lon": -77.02114283333333}, {"rental_uris": {"android": "https://dc.lft.to/lastmile_qr_scan", "ios": "https://dc.lft.to/lastmile_qr_scan"}, "fusion_lat": 0.0, "is_reserved": 0, "lat": 38.91641383333334, "name": "e5288ddb3906fe892199b68823589a9d", "bike_id": "e5288ddb3906fe892199b68823589a9d", "is_disabled": 0, "fusion_lon": 0.0, "type": "electric_scooter", "lon": -77.01060133333333}, {"rental_uris": {"android": "https://dc.lft.to/lastmile_qr_scan", "ios": "https://dc.lft.to/lastmile_qr_scan"}, "fusion_lat": 0.0, "is_reserved": 0, "lat": 38.912642, "name": "23ed3c41bad28560104b0ebab8c580a0", "bike_id": "23ed3c41bad28560104b0ebab8c580a0", "is_disabled": 0, "fusion_lon": 0.0, "type": "electric_scooter", "lon": -77.007979}, {"rental_uris": {"android": "https://dc.lft.to/lastmile_qr_scan", "ios": "https://dc.lft.to/lastmile_qr_scan"}, "fusion_lat": 0.0, "is_reserved": 0, "lat": 38.8578005, "name": "baef650ba334c3cfbbb5b82cfb9af1d3", "bike_id": "baef650ba334c3cfbbb5b82cfb9af1d3", "is_disabled": 0, "fusion_lon": 0.0, "type": "electric_bike", "lon": -76.98754866666667}, {"rental_uris": {"android": "https://dc.lft.to/lastmile_qr_scan", "ios": "https://dc.lft.to/lastmile_qr_scan"}, "fusion_lat": 0.0, "is_reserved": 0, "lat": 38.90907766666667, "name": "faabdddebcb8cddbb1abd8763941677d", "bike_id": "faabdddebcb8cddbb1abd8763941677d", "is_disabled": 0, "fusion_lon": 0.0, "type": "electric_scooter", "lon": -77.0439875}, {"rental_uris": {"android": "https://dc.lft.to/lastmile_qr_scan", "ios": "https://dc.lft.to/lastmile_qr_scan"}, "fusion_lat": 0.0, "is_reserved": 0, "lat": 38.9161385, "name": "8a13f2f756d27447d3212755965a9b4f", "bike_id": "8a13f2f756d27447d3212755965a9b4f", "is_disabled": 0, "fusion_lon": 0.0, "type": "electric_scooter", "lon": -77.02292783333333}, {"rental_uris": {"android": "https://dc.lft.to/lastmile_qr_scan", "ios": "https://dc.lft.to/lastmile_qr_scan"}, "fusion_lat": 0.0, "is_reserved": 0, "lat": 38.89224683333333, "name": "da0e0595a84145bf5bbaaa8840b1cdee", "bike_id": "da0e0595a84145bf5bbaaa8840b1cdee", "is_disabled": 0, "fusion_lon": 0.0, "type": "electric_scooter", "lon": -77.03988716666667}, {"rental_uris": {"android": "https://dc.lft.to/lastmile_qr_scan", "ios": "https://dc.lft.to/lastmile_qr_scan"}, "fusion_lat": 0.0, "is_reserved": 0, "lat": 38.8729665, "name": "70841de36273fdd4e80b6aff39f0a96e", "bike_id": "70841de36273fdd4e80b6aff39f0a96e", "is_disabled": 0, "fusion_lon": 0.0, "type": "electric_scooter", "lon": -77.00229}, {"rental_uris": {"android": "https://dc.lft.to/lastmile_qr_scan", "ios": "https://dc.lft.to/lastmile_qr_scan"}, "fusion_lat": 0.0, "is_reserved": 0, "lat": 38.922373, "name": "91f861a5f58d858c07b1f56b577671ad", "bike_id": "91f861a5f58d858c07b1f56b577671ad", "is_disabled": 0, "fusion_lon": 0.0, "type": "electric_scooter", "lon": -77.03459683333334}, {"rental_uris": {"android": "https://dc.lft.to/lastmile_qr_scan", "ios": "https://dc.lft.to/lastmile_qr_scan"}, "fusion_lat": 0.0, "is_reserved": 0, "lat": 38.897930833333334, "name": "c00f307656774bb4bad45763658f0881", "bike_id": "c00f307656774bb4bad45763658f0881", "is_disabled": 0, "fusion_lon": 0.0, "type": "electric_scooter", "lon": -77.05481466666667}, {"rental_uris": {"android": "https://dc.lft.to/lastmile_qr_scan", "ios": "https://dc.lft.to/lastmile_qr_scan"}, "fusion_lat": 0.0, "is_reserved": 0, "lat": 38.881873666666664, "name": "ac5bcc5cf47c88895aea749329922fac", "bike_id": "ac5bcc5cf47c88895aea749329922fac", "is_disabled": 0, "fusion_lon": 0.0, "type": "electric_scooter", "lon": -76.990343}, {"rental_uris": {"android": "https://dc.lft.to/lastmile_qr_scan", "ios": "https://dc.lft.to/lastmile_qr_scan"}, "fusion_lat": 0.0, "is_reserved": 0, "lat": 38.91844966666667, "name": "b3b58e900751a62547936a24e3f6f822", "bike_id": "b3b58e900751a62547936a24e3f6f822", "is_disabled": 0, "fusion_lon": 0.0, "type": "electric_scooter", "lon": -77.02181183333333}, {"rental_uris": {"android": "https://dc.lft.to/lastmile_qr_scan", "ios": "https://dc.lft.to/lastmile_qr_scan"}, "fusion_lat": 0.0, "is_reserved": 0, "lat": 38.918580166666665, "name": "796913f36973311173b354fc2b5a8a8c", "bike_id": "796913f36973311173b354fc2b5a8a8c", "is_disabled": 0, "fusion_lon": 0.0, "type": "electric_scooter", "lon": -77.0135395}, {"rental_uris": {"android": "https://dc.lft.to/lastmile_qr_scan", "ios": "https://dc.lft.to/lastmile_qr_scan"}, "fusion_lat": 0.0, "is_reserved": 0, "lat": 38.94198316666667, "name": "6bc3cc0e40e851205ca2711694a47a5e", "bike_id": "6bc3cc0e40e851205ca2711694a47a5e", "is_disabled": 0, "fusion_lon": 0.0, "type": "electric_scooter", "lon": -77.024816}, {"rental_uris": {"android": "https://dc.lft.to/lastmile_qr_scan", "ios": "https://dc.lft.to/lastmile_qr_scan"}, "fusion_lat": 0.0, "is_reserved": 0, "lat": 38.91839383333333, "name": "8095aa208549f365bde6e60ed3c99d4a", "bike_id": "8095aa208549f365bde6e60ed3c99d4a", "is_disabled": 0, "fusion_lon": 0.0, "type": "electric_scooter", "lon": -76.96545683333333}, {"rental_uris": {"android": "https://dc.lft.to/lastmile_qr_scan", "ios": "https://dc.lft.to/lastmile_qr_scan"}, "fusion_lat": 0.0, "is_reserved": 0, "lat": 38.915689666666665, "name": "04411c32ab68f8bc4dc82a6d7ba766bf", "bike_id": "04411c32ab68f8bc4dc82a6d7ba766bf", "is_disabled": 0, "fusion_lon": 0.0, "type": "electric_scooter", "lon": -77.0228835}, {"rental_uris": {"android": "https://dc.lft.to/lastmile_qr_scan", "ios": "https://dc.lft.to/lastmile_qr_scan"}, "fusion_lat": 0.0, "is_reserved": 0, "lat": 38.9437285, "name": "a31a215dd5474dcc607d6ef15cb32fbe", "bike_id": "a31a215dd5474dcc607d6ef15cb32fbe", "is_disabled": 0, "fusion_lon": 0.0, "type": "electric_scooter", "lon": -77.0609785}, {"rental_uris": {"android": "https://dc.lft.to/lastmile_qr_scan", "ios": "https://dc.lft.to/lastmile_qr_scan"}, "fusion_lat": 0.0, "is_reserved": 0, "lat": 38.93115983333333, "name": "dc02a9c99272e49af724a568bf0f983d", "bike_id": "dc02a9c99272e49af724a568bf0f983d", "is_disabled": 0, "fusion_lon": 0.0, "type": "electric_scooter", "lon": -77.03030016666666}, {"rental_uris": {"android": "https://dc.lft.to/lastmile_qr_scan", "ios": "https://dc.lft.to/lastmile_qr_scan"}, "fusion_lat": 0.0, "is_reserved": 0, "lat": 38.92614366666667, "name": "e0f7476b04e0560c48f1ae00917a8195", "bike_id": "e0f7476b04e0560c48f1ae00917a8195", "is_disabled": 0, "fusion_lon": 0.0, "type": "electric_scooter", "lon": -77.0216195}, {"rental_uris": {"android": "https://dc.lft.to/lastmile_qr_scan", "ios": "https://dc.lft.to/lastmile_qr_scan"}, "fusion_lat": 0.0, "is_reserved": 0, "lat": 38.966482166666665, "name": "5a970cf6b1f488f2f2e066aac00adadb", "bike_id": "5a970cf6b1f488f2f2e066aac00adadb", "is_disabled": 0, "fusion_lon": 0.0, "type": "electric_scooter", "lon": -77.00892733333333}, {"rental_uris": {"android": "https://dc.lft.to/lastmile_qr_scan", "ios": "https://dc.lft.to/lastmile_qr_scan"}, "fusion_lat": 0.0, "is_reserved": 0, "lat": 38.9056165, "name": "bfc9262360cf516e6f580e068ce42193", "bike_id": "bfc9262360cf516e6f580e068ce42193", "is_disabled": 0, "fusion_lon": 0.0, "type": "electric_scooter", "lon": -77.006812}, {"rental_uris": {"android": "https://dc.lft.to/lastmile_qr_scan", "ios": "https://dc.lft.to/lastmile_qr_scan"}, "fusion_lat": 0.0, "is_reserved": 0, "lat": 38.8824845, "name": "0e0493065feb8e2b998abd4b27c617a6", "bike_id": "0e0493065feb8e2b998abd4b27c617a6", "is_disabled": 0, "fusion_lon": 0.0, "type": "electric_bike", "lon": -76.96261883333334}, {"rental_uris": {"android": "https://dc.lft.to/lastmile_qr_scan", "ios": "https://dc.lft.to/lastmile_qr_scan"}, "fusion_lat": 0.0, "is_reserved": 0, "lat": 38.917778166666665, "name": "635865df856af36d527b17d0978471a7", "bike_id": "635865df856af36d527b17d0978471a7", "is_disabled": 0, "fusion_lon": 0.0, "type": "electric_scooter", "lon": -77.0231885}, {"rental_uris": {"android": "https://dc.lft.to/lastmile_qr_scan", "ios": "https://dc.lft.to/lastmile_qr_scan"}, "fusion_lat": 0.0, "is_reserved": 0, "lat": 38.9301875, "name": "315e772b6262ebfd0119821b6009dc23", "bike_id": "315e772b6262ebfd0119821b6009dc23", "is_disabled": 0, "fusion_lon": 0.0, "type": "electric_scooter", "lon": -77.03656766666667}, {"rental_uris": {"android": "https://dc.lft.to/lastmile_qr_scan", "ios": "https://dc.lft.to/lastmile_qr_scan"}, "fusion_lat": 0.0, "is_reserved": 0, "lat": 38.9048035, "name": "c1f37e05d6d02cc426ab39438d1afe00", "bike_id": "c1f37e05d6d02cc426ab39438d1afe00", "is_disabled": 0, "fusion_lon": 0.0, "type": "electric_scooter", "lon": -77.01708583333334}, {"rental_uris": {"android": "https://dc.lft.to/lastmile_qr_scan", "ios": "https://dc.lft.to/lastmile_qr_scan"}, "fusion_lat": 0.0, "is_reserved": 0, "lat": 38.898500166666665, "name": "cafbdc6a9b166af7a6ebef21e4f6b6af", "bike_id": "cafbdc6a9b166af7a6ebef21e4f6b6af", "is_disabled": 0, "fusion_lon": 0.0, "type": "electric_bike", "lon": -77.11868233333334}, {"rental_uris": {"android": "https://dc.lft.to/lastmile_qr_scan", "ios": "https://dc.lft.to/lastmile_qr_scan"}, "fusion_lat": 0.0, "is_reserved": 0, "lat": 38.9149155, "name": "2009d9364718d0e0e8b18c4bb383ddba", "bike_id": "2009d9364718d0e0e8b18c4bb383ddba", "is_disabled": 0, "fusion_lon": 0.0, "type": "electric_scooter", "lon": -76.98379683333333}, {"rental_uris": {"android": "https://dc.lft.to/lastmile_qr_scan", "ios": "https://dc.lft.to/lastmile_qr_scan"}, "fusion_lat": 0.0, "is_reserved": 0, "lat": 38.9334775, "name": "31878676a4403d51bcbafe69071227a6", "bike_id": "31878676a4403d51bcbafe69071227a6", "is_disabled": 0, "fusion_lon": 0.0, "type": "electric_scooter", "lon": -77.05712066666666}, {"rental_uris": {"android": "https://dc.lft.to/lastmile_qr_scan", "ios": "https://dc.lft.to/lastmile_qr_scan"}, "fusion_lat": 0.0, "is_reserved": 0, "lat": 38.921073666666665, "name": "fe0cdf46b4943585a2bb7a8dc02d93c4", "bike_id": "fe0cdf46b4943585a2bb7a8dc02d93c4", "is_disabled": 0, "fusion_lon": 0.0, "type": "electric_scooter", "lon": -77.04212383333333}, {"rental_uris": {"android": "https://dc.lft.to/lastmile_qr_scan", "ios": "https://dc.lft.to/lastmile_qr_scan"}, "fusion_lat": 0.0, "is_reserved": 0, "lat": 38.9228245, "name": "544af3017f2dd825f4f7d2458f0ef371", "bike_id": "544af3017f2dd825f4f7d2458f0ef371", "is_disabled": 0, "fusion_lon": 0.0, "type": "electric_scooter", "lon": -77.0366405}, {"rental_uris": {"android": "https://dc.lft.to/lastmile_qr_scan", "ios": "https://dc.lft.to/lastmile_qr_scan"}, "fusion_lat": 0.0, "is_reserved": 0, "lat": 38.91192066666667, "name": "a04c67b33982cf0e065b9a0a0ec19710", "bike_id": "a04c67b33982cf0e065b9a0a0ec19710", "is_disabled": 0, "fusion_lon": 0.0, "type": "electric_scooter", "lon": -77.0383505}, {"rental_uris": {"android": "https://dc.lft.to/lastmile_qr_scan", "ios": "https://dc.lft.to/lastmile_qr_scan"}, "fusion_lat": 0.0, "is_reserved": 0, "lat": 38.90594933333333, "name": "c6eab806400c542218a85bd17472bd52", "bike_id": "c6eab806400c542218a85bd17472bd52", "is_disabled": 0, "fusion_lon": 0.0, "type": "electric_scooter", "lon": -77.01619083333334}, {"rental_uris": {"android": "https://dc.lft.to/lastmile_qr_scan", "ios": "https://dc.lft.to/lastmile_qr_scan"}, "fusion_lat": 0.0, "is_reserved": 0, "lat": 38.886028, "name": "a76ad2278c2d4320a6d88e83a487dfa2", "bike_id": "a76ad2278c2d4320a6d88e83a487dfa2", "is_disabled": 0, "fusion_lon": 0.0, "type": "electric_scooter", "lon": -77.045105}, {"rental_uris": {"android": "https://dc.lft.to/lastmile_qr_scan", "ios": "https://dc.lft.to/lastmile_qr_scan"}, "fusion_lat": 0.0, "is_reserved": 0, "lat": 38.98911316666667, "name": "a51988fe8024da776af98306e9da73b1", "bike_id": "a51988fe8024da776af98306e9da73b1", "is_disabled": 0, "fusion_lon": 0.0, "type": "electric_bike", "lon": -77.025454}, {"rental_uris": {"android": "https://dc.lft.to/lastmile_qr_scan", "ios": "https://dc.lft.to/lastmile_qr_scan"}, "fusion_lat": 0.0, "is_reserved": 0, "lat": 38.964883666666665, "name": "d1bdf3249d13565f39123af48e2558cd", "bike_id": "d1bdf3249d13565f39123af48e2558cd", "is_disabled": 0, "fusion_lon": 0.0, "type": "electric_bike", "lon": -77.02413233333333}, {"rental_uris": {"android": "https://dc.lft.to/lastmile_qr_scan", "ios": "https://dc.lft.to/lastmile_qr_scan"}, "fusion_lat": 0.0, "is_reserved": 0, "lat": 38.89854183333333, "name": "26b014ebd178b3c747ed525a49003bf1", "bike_id": "26b014ebd178b3c747ed525a49003bf1", "is_disabled": 0, "fusion_lon": 0.0, "type": "electric_scooter", "lon": -77.02222816666666}, {"rental_uris": {"android": "https://dc.lft.to/lastmile_qr_scan", "ios": "https://dc.lft.to/lastmile_qr_scan"}, "fusion_lat": 0.0, "is_reserved": 0, "lat": 38.92319633333334, "name": "b7d390cd4554c2617e1467ce2a32df6f", "bike_id": "b7d390cd4554c2617e1467ce2a32df6f", "is_disabled": 0, "fusion_lon": 0.0, "type": "electric_scooter", "lon": -77.02121833333334}, {"rental_uris": {"android": "https://dc.lft.to/lastmile_qr_scan", "ios": "https://dc.lft.to/lastmile_qr_scan"}, "fusion_lat": 0.0, "is_reserved": 0, "lat": 38.901869833333336, "name": "554faccf82c9cd2ef171e33631ff3022", "bike_id": "554faccf82c9cd2ef171e33631ff3022", "is_disabled": 0, "fusion_lon": 0.0, "type": "electric_scooter", "lon": -77.021703}, {"rental_uris": {"android": "https://dc.lft.to/lastmile_qr_scan", "ios": "https://dc.lft.to/lastmile_qr_scan"}, "fusion_lat": 0.0, "is_reserved": 0, "lat": 38.936048, "name": "9b1a329cc175180a5458f5dc3bc1f36e", "bike_id": "9b1a329cc175180a5458f5dc3bc1f36e", "is_disabled": 0, "fusion_lon": 0.0, "type": "electric_scooter", "lon": -77.05603333333333}, {"rental_uris": {"android": "https://dc.lft.to/lastmile_qr_scan", "ios": "https://dc.lft.to/lastmile_qr_scan"}, "fusion_lat": 0.0, "is_reserved": 0, "lat": 38.894899833333334, "name": "dc00dd6ca84ae7d86f6650c430382bea", "bike_id": "dc00dd6ca84ae7d86f6650c430382bea", "is_disabled": 0, "fusion_lon": 0.0, "type": "electric_scooter", "lon": -77.019338}, {"rental_uris": {"android": "https://dc.lft.to/lastmile_qr_scan", "ios": "https://dc.lft.to/lastmile_qr_scan"}, "fusion_lat": 0.0, "is_reserved": 0, "lat": 38.887285166666665, "name": "5b89362d2d9408f0720e3d76a0a6d09c", "bike_id": "5b89362d2d9408f0720e3d76a0a6d09c", "is_disabled": 0, "fusion_lon": 0.0, "type": "electric_scooter", "lon": -76.98378583333333}, {"rental_uris": {"android": "https://dc.lft.to/lastmile_qr_scan", "ios": "https://dc.lft.to/lastmile_qr_scan"}, "fusion_lat": 0.0, "is_reserved": 0, "lat": 38.95853233333333, "name": "0cf5f40d9ef9b1e895b07652592318d5", "bike_id": "0cf5f40d9ef9b1e895b07652592318d5", "is_disabled": 0, "fusion_lon": 0.0, "type": "electric_scooter", "lon": -77.00308366666667}, {"rental_uris": {"android": "https://dc.lft.to/lastmile_qr_scan", "ios": "https://dc.lft.to/lastmile_qr_scan"}, "fusion_lat": 0.0, "is_reserved": 0, "lat": 38.91881866666667, "name": "54281f45db031bfe1c26b272c9a4b321", "bike_id": "54281f45db031bfe1c26b272c9a4b321", "is_disabled": 0, "fusion_lon": 0.0, "type": "electric_scooter", "lon": -77.04174966666666}, {"rental_uris": {"android": "https://dc.lft.to/lastmile_qr_scan", "ios": "https://dc.lft.to/lastmile_qr_scan"}, "fusion_lat": 0.0, "is_reserved": 0, "lat": 38.8578645, "name": "f4e3931febbc17634d1630bdf5be9822", "bike_id": "f4e3931febbc17634d1630bdf5be9822", "is_disabled": 0, "fusion_lon": 0.0, "type": "electric_bike", "lon": -77.09963566666667}, {"rental_uris": {"android": "https://dc.lft.to/lastmile_qr_scan", "ios": "https://dc.lft.to/lastmile_qr_scan"}, "fusion_lat": 0.0, "is_reserved": 0, "lat": 38.900919333333334, "name": "6fe9c3e5febfa62b7a87aa4168c57504", "bike_id": "6fe9c3e5febfa62b7a87aa4168c57504", "is_disabled": 0, "fusion_lon": 0.0, "type": "electric_scooter", "lon": -77.0491385}, {"rental_uris": {"android": "https://dc.lft.to/lastmile_qr_scan", "ios": "https://dc.lft.to/lastmile_qr_scan"}, "fusion_lat": 0.0, "is_reserved": 0, "lat": 38.92880533333334, "name": "0d6c484398a9b9e9d4bca68f82759466", "bike_id": "0d6c484398a9b9e9d4bca68f82759466", "is_disabled": 0, "fusion_lon": 0.0, "type": "electric_scooter", "lon": -77.0324195}, {"rental_uris": {"android": "https://dc.lft.to/lastmile_qr_scan", "ios": "https://dc.lft.to/lastmile_qr_scan"}, "fusion_lat": 0.0, "is_reserved": 0, "lat": 38.90882166666667, "name": "89a9b1b65ce5065945691a19dcecf3b4", "bike_id": "89a9b1b65ce5065945691a19dcecf3b4", "is_disabled": 0, "fusion_lon": 0.0, "type": "electric_scooter", "lon": -77.02363066666666}, {"rental_uris": {"android": "https://dc.lft.to/lastmile_qr_scan", "ios": "https://dc.lft.to/lastmile_qr_scan"}, "fusion_lat": 0.0, "is_reserved": 0, "lat": 38.875655333333334, "name": "c5e496c80e7b42a1416ad60175895148", "bike_id": "c5e496c80e7b42a1416ad60175895148", "is_disabled": 0, "fusion_lon": 0.0, "type": "electric_scooter", "lon": -77.00605166666666}, {"rental_uris": {"android": "https://dc.lft.to/lastmile_qr_scan", "ios": "https://dc.lft.to/lastmile_qr_scan"}, "fusion_lat": 0.0, "is_reserved": 0, "lat": 38.924827666666665, "name": "8dc2c629ecd6cdce4fc1c77982bb5664", "bike_id": "8dc2c629ecd6cdce4fc1c77982bb5664", "is_disabled": 0, "fusion_lon": 0.0, "type": "electric_scooter", "lon": -77.03191483333333}, {"rental_uris": {"android": "https://dc.lft.to/lastmile_qr_scan", "ios": "https://dc.lft.to/lastmile_qr_scan"}, "fusion_lat": 0.0, "is_reserved": 0, "lat": 38.91786066666667, "name": "a3b6f56add4bab859e89bba2da43e3b2", "bike_id": "a3b6f56add4bab859e89bba2da43e3b2", "is_disabled": 0, "fusion_lon": 0.0, "type": "electric_scooter", "lon": -77.02198216666666}, {"rental_uris": {"android": "https://dc.lft.to/lastmile_qr_scan", "ios": "https://dc.lft.to/lastmile_qr_scan"}, "fusion_lat": 0.0, "is_reserved": 0, "lat": 38.925148166666666, "name": "f9cb3ca9bd27f45b616161350cfcb6dc", "bike_id": "f9cb3ca9bd27f45b616161350cfcb6dc", "is_disabled": 0, "fusion_lon": 0.0, "type": "electric_scooter", "lon": -77.02317133333334}, {"rental_uris": {"android": "https://dc.lft.to/lastmile_qr_scan", "ios": "https://dc.lft.to/lastmile_qr_scan"}, "fusion_lat": 0.0, "is_reserved": 0, "lat": 38.9019305, "name": "cdb3b6dbb8e44fd3ea6170308fa1520f", "bike_id": "cdb3b6dbb8e44fd3ea6170308fa1520f", "is_disabled": 0, "fusion_lon": 0.0, "type": "electric_scooter", "lon": -77.02168733333333}, {"rental_uris": {"android": "https://dc.lft.to/lastmile_qr_scan", "ios": "https://dc.lft.to/lastmile_qr_scan"}, "fusion_lat": 0.0, "is_reserved": 0, "lat": 38.9075085, "name": "e555091646736a6ed309b906ff31125d", "bike_id": "e555091646736a6ed309b906ff31125d", "is_disabled": 0, "fusion_lon": 0.0, "type": "electric_scooter", "lon": -77.04151083333333}, {"rental_uris": {"android": "https://dc.lft.to/lastmile_qr_scan", "ios": "https://dc.lft.to/lastmile_qr_scan"}, "fusion_lat": 0.0, "is_reserved": 0, "lat": 38.87677433333333, "name": "25d2be43dc85c6584b5d0c22f78b03df", "bike_id": "25d2be43dc85c6584b5d0c22f78b03df", "is_disabled": 0, "fusion_lon": 0.0, "type": "electric_scooter", "lon": -77.007293}, {"rental_uris": {"android": "https://dc.lft.to/lastmile_qr_scan", "ios": "https://dc.lft.to/lastmile_qr_scan"}, "fusion_lat": 0.0, "is_reserved": 0, "lat": 38.95103133333333, "name": "0b645f71400916f5c9616b320645fb72", "bike_id": "0b645f71400916f5c9616b320645fb72", "is_disabled": 0, "fusion_lon": 0.0, "type": "electric_scooter", "lon": -77.01884666666666}, {"rental_uris": {"android": "https://dc.lft.to/lastmile_qr_scan", "ios": "https://dc.lft.to/lastmile_qr_scan"}, "fusion_lat": 0.0, "is_reserved": 0, "lat": 38.917264833333334, "name": "ad60f9a8e3526ebd0c8139fbbffde7dd", "bike_id": "ad60f9a8e3526ebd0c8139fbbffde7dd", "is_disabled": 0, "fusion_lon": 0.0, "type": "electric_scooter", "lon": -77.06841783333333}, {"rental_uris": {"android": "https://dc.lft.to/lastmile_qr_scan", "ios": "https://dc.lft.to/lastmile_qr_scan"}, "fusion_lat": 0.0, "is_reserved": 0, "lat": 38.89732883333333, "name": "6c7525d16dcc48de814f4cd3d8e2ef39", "bike_id": "6c7525d16dcc48de814f4cd3d8e2ef39", "is_disabled": 0, "fusion_lon": 0.0, "type": "electric_scooter", "lon": -77.00784016666667}, {"rental_uris": {"android": "https://dc.lft.to/lastmile_qr_scan", "ios": "https://dc.lft.to/lastmile_qr_scan"}, "fusion_lat": 0.0, "is_reserved": 0, "lat": 38.91016616666667, "name": "bed5a43721f760f11a28b4e77e7baf2b", "bike_id": "bed5a43721f760f11a28b4e77e7baf2b", "is_disabled": 0, "fusion_lon": 0.0, "type": "electric_scooter", "lon": -77.04457266666667}, {"rental_uris": {"android": "https://dc.lft.to/lastmile_qr_scan", "ios": "https://dc.lft.to/lastmile_qr_scan"}, "fusion_lat": 0.0, "is_reserved": 0, "lat": 38.93383983333333, "name": "a88f495761985728e95a1ea339ba1808", "bike_id": "a88f495761985728e95a1ea339ba1808", "is_disabled": 0, "fusion_lon": 0.0, "type": "electric_scooter", "lon": -77.02391283333333}, {"rental_uris": {"android": "https://dc.lft.to/lastmile_qr_scan", "ios": "https://dc.lft.to/lastmile_qr_scan"}, "fusion_lat": 0.0, "is_reserved": 0, "lat": 38.90242333333333, "name": "e9462a3067717a877f7065731c3a2c13", "bike_id": "e9462a3067717a877f7065731c3a2c13", "is_disabled": 0, "fusion_lon": 0.0, "type": "electric_scooter", "lon": -77.015196}, {"rental_uris": {"android": "https://dc.lft.to/lastmile_qr_scan", "ios": "https://dc.lft.to/lastmile_qr_scan"}, "fusion_lat": 0.0, "is_reserved": 0, "lat": 38.9130405, "name": "57668d2e666798244753a5c6998cdbce", "bike_id": "57668d2e666798244753a5c6998cdbce", "is_disabled": 0, "fusion_lon": 0.0, "type": "electric_scooter", "lon": -77.02344783333334}, {"rental_uris": {"android": "https://dc.lft.to/lastmile_qr_scan", "ios": "https://dc.lft.to/lastmile_qr_scan"}, "fusion_lat": 0.0, "is_reserved": 0, "lat": 38.9284125, "name": "e765b8d39c85ca51ed498eebeb0322d7", "bike_id": "e765b8d39c85ca51ed498eebeb0322d7", "is_disabled": 0, "fusion_lon": 0.0, "type": "electric_scooter", "lon": -76.99907933333333}, {"rental_uris": {"android": "https://dc.lft.to/lastmile_qr_scan", "ios": "https://dc.lft.to/lastmile_qr_scan"}, "fusion_lat": 0.0, "is_reserved": 0, "lat": 38.901188833333336, "name": "5333ccccc5214aa086555d033e548244", "bike_id": "5333ccccc5214aa086555d033e548244", "is_disabled": 0, "fusion_lon": 0.0, "type": "electric_scooter", "lon": -77.0162705}, {"rental_uris": {"android": "https://dc.lft.to/lastmile_qr_scan", "ios": "https://dc.lft.to/lastmile_qr_scan"}, "fusion_lat": 0.0, "is_reserved": 0, "lat": 38.918023, "name": "c9fb12eb69951d60d01018c99dc33fe6", "bike_id": "c9fb12eb69951d60d01018c99dc33fe6", "is_disabled": 0, "fusion_lon": 0.0, "type": "electric_scooter", "lon": -77.04017316666666}, {"rental_uris": {"android": "https://dc.lft.to/lastmile_qr_scan", "ios": "https://dc.lft.to/lastmile_qr_scan"}, "fusion_lat": 0.0, "is_reserved": 0, "lat": 38.89648583333334, "name": "77e66b3ff80b1a917a5b639d27fff9f2", "bike_id": "77e66b3ff80b1a917a5b639d27fff9f2", "is_disabled": 0, "fusion_lon": 0.0, "type": "electric_scooter", "lon": -77.00922633333333}, {"rental_uris": {"android": "https://dc.lft.to/lastmile_qr_scan", "ios": "https://dc.lft.to/lastmile_qr_scan"}, "fusion_lat": 0.0, "is_reserved": 0, "lat": 38.90352016666667, "name": "b8f302f8bac527bfcf0cd42bb6cc8124", "bike_id": "b8f302f8bac527bfcf0cd42bb6cc8124", "is_disabled": 0, "fusion_lon": 0.0, "type": "electric_scooter", "lon": -77.026041}, {"rental_uris": {"android": "https://dc.lft.to/lastmile_qr_scan", "ios": "https://dc.lft.to/lastmile_qr_scan"}, "fusion_lat": 0.0, "is_reserved": 0, "lat": 38.9023525, "name": "67abe58aea64d4c638f29df9c92e0410", "bike_id": "67abe58aea64d4c638f29df9c92e0410", "is_disabled": 0, "fusion_lon": 0.0, "type": "electric_scooter", "lon": -77.0457155}, {"rental_uris": {"android": "https://dc.lft.to/lastmile_qr_scan", "ios": "https://dc.lft.to/lastmile_qr_scan"}, "fusion_lat": 0.0, "is_reserved": 0, "lat": 38.92366166666667, "name": "ee7ccec65c7c0e240bd6f203ba8e50b1", "bike_id": "ee7ccec65c7c0e240bd6f203ba8e50b1", "is_disabled": 0, "fusion_lon": 0.0, "type": "electric_scooter", "lon": -77.01923333333333}, {"rental_uris": {"android": "https://dc.lft.to/lastmile_qr_scan", "ios": "https://dc.lft.to/lastmile_qr_scan"}, "fusion_lat": 0.0, "is_reserved": 0, "lat": 38.90523133333333, "name": "d61998acb957ef9328032b594bacbfc1", "bike_id": "d61998acb957ef9328032b594bacbfc1", "is_disabled": 0, "fusion_lon": 0.0, "type": "electric_scooter", "lon": -76.98405666666666}, {"rental_uris": {"android": "https://dc.lft.to/lastmile_qr_scan", "ios": "https://dc.lft.to/lastmile_qr_scan"}, "fusion_lat": 0.0, "is_reserved": 0, "lat": 38.9156565, "name": "0e8d296b7492ead45fcdde158b9d1926", "bike_id": "0e8d296b7492ead45fcdde158b9d1926", "is_disabled": 0, "fusion_lon": 0.0, "type": "electric_scooter", "lon": -77.0313565}, {"rental_uris": {"android": "https://dc.lft.to/lastmile_qr_scan", "ios": "https://dc.lft.to/lastmile_qr_scan"}, "fusion_lat": 0.0, "is_reserved": 0, "lat": 38.89972933333333, "name": "16139a942ef0a09acd664399cea46e86", "bike_id": "16139a942ef0a09acd664399cea46e86", "is_disabled": 0, "fusion_lon": 0.0, "type": "electric_scooter", "lon": -77.0162245}, {"rental_uris": {"android": "https://dc.lft.to/lastmile_qr_scan", "ios": "https://dc.lft.to/lastmile_qr_scan"}, "fusion_lat": 0.0, "is_reserved": 0, "lat": 38.93358716666667, "name": "3192f371dee9533e991843c4c51a721d", "bike_id": "3192f371dee9533e991843c4c51a721d", "is_disabled": 0, "fusion_lon": 0.0, "type": "electric_scooter", "lon": -77.0412675}, {"rental_uris": {"android": "https://dc.lft.to/lastmile_qr_scan", "ios": "https://dc.lft.to/lastmile_qr_scan"}, "fusion_lat": 0.0, "is_reserved": 0, "lat": 38.91417233333333, "name": "7dc6c5a5a842841cc510eb9113a53e5e", "bike_id": "7dc6c5a5a842841cc510eb9113a53e5e", "is_disabled": 0, "fusion_lon": 0.0, "type": "electric_scooter", "lon": -77.00183933333334}, {"rental_uris": {"android": "https://dc.lft.to/lastmile_qr_scan", "ios": "https://dc.lft.to/lastmile_qr_scan"}, "fusion_lat": 0.0, "is_reserved": 0, "lat": 38.8987705, "name": "eaeb2b37ae70a19c163da0273ef36f8b", "bike_id": "eaeb2b37ae70a19c163da0273ef36f8b", "is_disabled": 0, "fusion_lon": 0.0, "type": "electric_scooter", "lon": -77.05003366666666}, {"rental_uris": {"android": "https://dc.lft.to/lastmile_qr_scan", "ios": "https://dc.lft.to/lastmile_qr_scan"}, "fusion_lat": 0.0, "is_reserved": 0, "lat": 38.923297, "name": "5c36db7f7201213a6536996612f98c71", "bike_id": "5c36db7f7201213a6536996612f98c71", "is_disabled": 0, "fusion_lon": 0.0, "type": "electric_scooter", "lon": -77.00058966666667}, {"rental_uris": {"android": "https://dc.lft.to/lastmile_qr_scan", "ios": "https://dc.lft.to/lastmile_qr_scan"}, "fusion_lat": 0.0, "is_reserved": 0, "lat": 38.91819916666667, "name": "02fb2243eb36f166173af0d408900c4b", "bike_id": "02fb2243eb36f166173af0d408900c4b", "is_disabled": 0, "fusion_lon": 0.0, "type": "electric_scooter", "lon": -77.031811}, {"rental_uris": {"android": "https://dc.lft.to/lastmile_qr_scan", "ios": "https://dc.lft.to/lastmile_qr_scan"}, "fusion_lat": 0.0, "is_reserved": 0, "lat": 38.836085, "name": "cbd00aa2574d33f4567117ae51ebf396", "bike_id": "cbd00aa2574d33f4567117ae51ebf396", "is_disabled": 0, "fusion_lon": 0.0, "type": "electric_bike", "lon": -77.003849}, {"rental_uris": {"android": "https://dc.lft.to/lastmile_qr_scan", "ios": "https://dc.lft.to/lastmile_qr_scan"}, "fusion_lat": 0.0, "is_reserved": 0, "lat": 38.908347, "name": "703802a059462e4d20dc6dbf029daac8", "bike_id": "703802a059462e4d20dc6dbf029daac8", "is_disabled": 0, "fusion_lon": 0.0, "type": "electric_scooter", "lon": -76.99702966666666}, {"rental_uris": {"android": "https://dc.lft.to/lastmile_qr_scan", "ios": "https://dc.lft.to/lastmile_qr_scan"}, "fusion_lat": 0.0, "is_reserved": 0, "lat": 38.93314066666667, "name": "dfdce594d1b96ecb3b327065c92192b7", "bike_id": "dfdce594d1b96ecb3b327065c92192b7", "is_disabled": 0, "fusion_lon": 0.0, "type": "electric_scooter", "lon": -77.02912383333333}, {"rental_uris": {"android": "https://dc.lft.to/lastmile_qr_scan", "ios": "https://dc.lft.to/lastmile_qr_scan"}, "fusion_lat": 0.0, "is_reserved": 0, "lat": 38.8462875, "name": "99b3eb4db9993407fef4dde298c49196", "bike_id": "99b3eb4db9993407fef4dde298c49196", "is_disabled": 0, "fusion_lon": 0.0, "type": "electric_scooter", "lon": -76.98122666666667}, {"rental_uris": {"android": "https://dc.lft.to/lastmile_qr_scan", "ios": "https://dc.lft.to/lastmile_qr_scan"}, "fusion_lat": 0.0, "is_reserved": 0, "lat": 38.99520066666667, "name": "f0c20eb88244984437063820ec41f4df", "bike_id": "f0c20eb88244984437063820ec41f4df", "is_disabled": 0, "fusion_lon": 0.0, "type": "electric_bike", "lon": -76.99953033333334}, {"rental_uris": {"android": "https://dc.lft.to/lastmile_qr_scan", "ios": "https://dc.lft.to/lastmile_qr_scan"}, "fusion_lat": 0.0, "is_reserved": 0, "lat": 38.9198155, "name": "7a43598542d5fa0492f41e86fa90f261", "bike_id": "7a43598542d5fa0492f41e86fa90f261", "is_disabled": 0, "fusion_lon": 0.0, "type": "electric_scooter", "lon": -77.04161633333334}, {"rental_uris": {"android": "https://dc.lft.to/lastmile_qr_scan", "ios": "https://dc.lft.to/lastmile_qr_scan"}, "fusion_lat": 0.0, "is_reserved": 0, "lat": 38.92360333333333, "name": "87a48c208e5292e02cb1f2d0299c54a8", "bike_id": "87a48c208e5292e02cb1f2d0299c54a8", "is_disabled": 0, "fusion_lon": 0.0, "type": "electric_scooter", "lon": -77.05033833333333}, {"rental_uris": {"android": "https://dc.lft.to/lastmile_qr_scan", "ios": "https://dc.lft.to/lastmile_qr_scan"}, "fusion_lat": 0.0, "is_reserved": 0, "lat": 38.90065333333333, "name": "9ae15de1c0a565ec3e381d0860a28742", "bike_id": "9ae15de1c0a565ec3e381d0860a28742", "is_disabled": 0, "fusion_lon": 0.0, "type": "electric_scooter", "lon": -77.01784716666667}, {"rental_uris": {"android": "https://dc.lft.to/lastmile_qr_scan", "ios": "https://dc.lft.to/lastmile_qr_scan"}, "fusion_lat": 0.0, "is_reserved": 0, "lat": 38.90707916666667, "name": "90d910db5ade6770735fee0e038e7f3f", "bike_id": "90d910db5ade6770735fee0e038e7f3f", "is_disabled": 0, "fusion_lon": 0.0, "type": "electric_scooter", "lon": -77.03188366666667}, {"rental_uris": {"android": "https://dc.lft.to/lastmile_qr_scan", "ios": "https://dc.lft.to/lastmile_qr_scan"}, "fusion_lat": 0.0, "is_reserved": 0, "lat": 38.908181666666664, "name": "5acecac2821ee949f841255285767a2b", "bike_id": "5acecac2821ee949f841255285767a2b", "is_disabled": 0, "fusion_lon": 0.0, "type": "electric_scooter", "lon": -77.06908766666666}, {"rental_uris": {"android": "https://dc.lft.to/lastmile_qr_scan", "ios": "https://dc.lft.to/lastmile_qr_scan"}, "fusion_lat": 0.0, "is_reserved": 0, "lat": 38.956259, "name": "0741525d862be18f366725b1473604c1", "bike_id": "0741525d862be18f366725b1473604c1", "is_disabled": 0, "fusion_lon": 0.0, "type": "electric_scooter", "lon": -77.02432566666667}, {"rental_uris": {"android": "https://dc.lft.to/lastmile_qr_scan", "ios": "https://dc.lft.to/lastmile_qr_scan"}, "fusion_lat": 0.0, "is_reserved": 0, "lat": 38.911910166666665, "name": "579104861b11e78e68ef4afc7f9c3e1a", "bike_id": "579104861b11e78e68ef4afc7f9c3e1a", "is_disabled": 0, "fusion_lon": 0.0, "type": "electric_scooter", "lon": -77.00788416666667}, {"rental_uris": {"android": "https://dc.lft.to/lastmile_qr_scan", "ios": "https://dc.lft.to/lastmile_qr_scan"}, "fusion_lat": 0.0, "is_reserved": 0, "lat": 38.896973333333335, "name": "be153cd19ba1b6a509dcb12145f0610e", "bike_id": "be153cd19ba1b6a509dcb12145f0610e", "is_disabled": 0, "fusion_lon": 0.0, "type": "electric_scooter", "lon": -77.028125}, {"rental_uris": {"android": "https://dc.lft.to/lastmile_qr_scan", "ios": "https://dc.lft.to/lastmile_qr_scan"}, "fusion_lat": 0.0, "is_reserved": 0, "lat": 38.86245666666667, "name": "c4de300ddc1d8fce9e4cf6ddb29b245c", "bike_id": "c4de300ddc1d8fce9e4cf6ddb29b245c", "is_disabled": 0, "fusion_lon": 0.0, "type": "electric_scooter", "lon": -76.99501433333333}, {"rental_uris": {"android": "https://dc.lft.to/lastmile_qr_scan", "ios": "https://dc.lft.to/lastmile_qr_scan"}, "fusion_lat": 0.0, "is_reserved": 0, "lat": 38.913932, "name": "6c715106798335897c960320a1d95a4a", "bike_id": "6c715106798335897c960320a1d95a4a", "is_disabled": 0, "fusion_lon": 0.0, "type": "electric_scooter", "lon": -76.9842215}, {"rental_uris": {"android": "https://dc.lft.to/lastmile_qr_scan", "ios": "https://dc.lft.to/lastmile_qr_scan"}, "fusion_lat": 0.0, "is_reserved": 0, "lat": 38.9086245, "name": "d56e835afcffacf75bcb294929d893a5", "bike_id": "d56e835afcffacf75bcb294929d893a5", "is_disabled": 0, "fusion_lon": 0.0, "type": "electric_scooter", "lon": -77.00369616666667}, {"rental_uris": {"android": "https://dc.lft.to/lastmile_qr_scan", "ios": "https://dc.lft.to/lastmile_qr_scan"}, "fusion_lat": 0.0, "is_reserved": 0, "lat": 38.9158245, "name": "c7d62b3083637201eba6dd3fca76a196", "bike_id": "c7d62b3083637201eba6dd3fca76a196", "is_disabled": 0, "fusion_lon": 0.0, "type": "electric_scooter", "lon": -77.01240166666666}, {"rental_uris": {"android": "https://dc.lft.to/lastmile_qr_scan", "ios": "https://dc.lft.to/lastmile_qr_scan"}, "fusion_lat": 0.0, "is_reserved": 0, "lat": 38.9843605, "name": "4de30c2b135c2ef0d58795bb47d23812", "bike_id": "4de30c2b135c2ef0d58795bb47d23812", "is_disabled": 0, "fusion_lon": 0.0, "type": "electric_scooter", "lon": -77.02675433333333}, {"rental_uris": {"android": "https://dc.lft.to/lastmile_qr_scan", "ios": "https://dc.lft.to/lastmile_qr_scan"}, "fusion_lat": 0.0, "is_reserved": 0, "lat": 38.935148833333336, "name": "dd0b9a24d45bfab0644fd8f911b96622", "bike_id": "dd0b9a24d45bfab0644fd8f911b96622", "is_disabled": 0, "fusion_lon": 0.0, "type": "electric_scooter", "lon": -77.03290833333334}, {"rental_uris": {"android": "https://dc.lft.to/lastmile_qr_scan", "ios": "https://dc.lft.to/lastmile_qr_scan"}, "fusion_lat": 0.0, "is_reserved": 0, "lat": 38.919704333333335, "name": "70dc14c868c53e0d0af6b548dcdfabe4", "bike_id": "70dc14c868c53e0d0af6b548dcdfabe4", "is_disabled": 0, "fusion_lon": 0.0, "type": "electric_scooter", "lon": -77.0422315}, {"rental_uris": {"android": "https://dc.lft.to/lastmile_qr_scan", "ios": "https://dc.lft.to/lastmile_qr_scan"}, "fusion_lat": 0.0, "is_reserved": 0, "lat": 38.88441866666667, "name": "b9b81131b4d77420ab8a1c0ee77061d2", "bike_id": "b9b81131b4d77420ab8a1c0ee77061d2", "is_disabled": 0, "fusion_lon": 0.0, "type": "electric_scooter", "lon": -77.0034775}, {"rental_uris": {"android": "https://dc.lft.to/lastmile_qr_scan", "ios": "https://dc.lft.to/lastmile_qr_scan"}, "fusion_lat": 0.0, "is_reserved": 0, "lat": 38.8981235, "name": "192080cb11f932632ecb77e93f537df1", "bike_id": "192080cb11f932632ecb77e93f537df1", "is_disabled": 0, "fusion_lon": 0.0, "type": "electric_bike", "lon": -76.99073783333333}, {"rental_uris": {"android": "https://dc.lft.to/lastmile_qr_scan", "ios": "https://dc.lft.to/lastmile_qr_scan"}, "fusion_lat": 0.0, "is_reserved": 0, "lat": 38.914501666666666, "name": "2c3a97840d1bb8d8314b597a490db927", "bike_id": "2c3a97840d1bb8d8314b597a490db927", "is_disabled": 0, "fusion_lon": 0.0, "type": "electric_scooter", "lon": -77.0219095}, {"rental_uris": {"android": "https://dc.lft.to/lastmile_qr_scan", "ios": "https://dc.lft.to/lastmile_qr_scan"}, "fusion_lat": 0.0, "is_reserved": 0, "lat": 38.849238166666666, "name": "54e7b289a36c39259e1bf7f0f7462687", "bike_id": "54e7b289a36c39259e1bf7f0f7462687", "is_disabled": 0, "fusion_lon": 0.0, "type": "electric_bike", "lon": -77.08373916666666}, {"rental_uris": {"android": "https://dc.lft.to/lastmile_qr_scan", "ios": "https://dc.lft.to/lastmile_qr_scan"}, "fusion_lat": 0.0, "is_reserved": 0, "lat": 38.901935333333334, "name": "3a44e83ce0c0c21d612aee04c23d5c9c", "bike_id": "3a44e83ce0c0c21d612aee04c23d5c9c", "is_disabled": 0, "fusion_lon": 0.0, "type": "electric_scooter", "lon": -77.0208945}, {"rental_uris": {"android": "https://dc.lft.to/lastmile_qr_scan", "ios": "https://dc.lft.to/lastmile_qr_scan"}, "fusion_lat": 0.0, "is_reserved": 0, "lat": 38.90704683333333, "name": "47c9a6dd78d1a227bf09d04024dd4b5f", "bike_id": "47c9a6dd78d1a227bf09d04024dd4b5f", "is_disabled": 0, "fusion_lon": 0.0, "type": "electric_scooter", "lon": -76.99767133333333}, {"rental_uris": {"android": "https://dc.lft.to/lastmile_qr_scan", "ios": "https://dc.lft.to/lastmile_qr_scan"}, "fusion_lat": 0.0, "is_reserved": 0, "lat": 38.90567516666667, "name": "0ee3ce423740bda547a33cb23d6e978d", "bike_id": "0ee3ce423740bda547a33cb23d6e978d", "is_disabled": 0, "fusion_lon": 0.0, "type": "electric_scooter", "lon": -77.024222}, {"rental_uris": {"android": "https://dc.lft.to/lastmile_qr_scan", "ios": "https://dc.lft.to/lastmile_qr_scan"}, "fusion_lat": 0.0, "is_reserved": 0, "lat": 38.902599333333335, "name": "a7e756c6385869289e11f0094a6ff038", "bike_id": "a7e756c6385869289e11f0094a6ff038", "is_disabled": 0, "fusion_lon": 0.0, "type": "electric_scooter", "lon": -77.0580545}, {"rental_uris": {"android": "https://dc.lft.to/lastmile_qr_scan", "ios": "https://dc.lft.to/lastmile_qr_scan"}, "fusion_lat": 0.0, "is_reserved": 0, "lat": 38.90270133333333, "name": "dbef6591544d237afb4ee7fa65661f78", "bike_id": "dbef6591544d237afb4ee7fa65661f78", "is_disabled": 0, "fusion_lon": 0.0, "type": "electric_scooter", "lon": -76.99000033333333}, {"rental_uris": {"android": "https://dc.lft.to/lastmile_qr_scan", "ios": "https://dc.lft.to/lastmile_qr_scan"}, "fusion_lat": 0.0, "is_reserved": 0, "lat": 38.92316683333333, "name": "c1a4f5bd639e9faa5ac9499757042cad", "bike_id": "c1a4f5bd639e9faa5ac9499757042cad", "is_disabled": 0, "fusion_lon": 0.0, "type": "electric_scooter", "lon": -77.02803933333334}, {"rental_uris": {"android": "https://dc.lft.to/lastmile_qr_scan", "ios": "https://dc.lft.to/lastmile_qr_scan"}, "fusion_lat": 0.0, "is_reserved": 0, "lat": 38.899786666666664, "name": "e7c3f8637b2299141b3092c5b841a0ea", "bike_id": "e7c3f8637b2299141b3092c5b841a0ea", "is_disabled": 0, "fusion_lon": 0.0, "type": "electric_scooter", "lon": -76.98370266666667}, {"rental_uris": {"android": "https://dc.lft.to/lastmile_qr_scan", "ios": "https://dc.lft.to/lastmile_qr_scan"}, "fusion_lat": 0.0, "is_reserved": 0, "lat": 38.91071633333333, "name": "c60c824367f1d248d5e52b7e8966b97a", "bike_id": "c60c824367f1d248d5e52b7e8966b97a", "is_disabled": 0, "fusion_lon": 0.0, "type": "electric_scooter", "lon": -76.9913925}, {"rental_uris": {"android": "https://dc.lft.to/lastmile_qr_scan", "ios": "https://dc.lft.to/lastmile_qr_scan"}, "fusion_lat": 0.0, "is_reserved": 0, "lat": 38.907174, "name": "74fb736758b47ed08ad9e4136d235e3f", "bike_id": "74fb736758b47ed08ad9e4136d235e3f", "is_disabled": 0, "fusion_lon": 0.0, "type": "electric_scooter", "lon": -77.02533516666666}, {"rental_uris": {"android": "https://dc.lft.to/lastmile_qr_scan", "ios": "https://dc.lft.to/lastmile_qr_scan"}, "fusion_lat": 0.0, "is_reserved": 0, "lat": 38.893496166666665, "name": "71895e403c7d46fa4d4f5e536b85ddac", "bike_id": "71895e403c7d46fa4d4f5e536b85ddac", "is_disabled": 0, "fusion_lon": 0.0, "type": "electric_scooter", "lon": -77.039702}, {"rental_uris": {"android": "https://dc.lft.to/lastmile_qr_scan", "ios": "https://dc.lft.to/lastmile_qr_scan"}, "fusion_lat": 0.0, "is_reserved": 0, "lat": 38.92352983333333, "name": "ab366a0190845c3351e4aef2a33bf92c", "bike_id": "ab366a0190845c3351e4aef2a33bf92c", "is_disabled": 0, "fusion_lon": 0.0, "type": "electric_scooter", "lon": -77.03640066666667}, {"rental_uris": {"android": "https://dc.lft.to/lastmile_qr_scan", "ios": "https://dc.lft.to/lastmile_qr_scan"}, "fusion_lat": 0.0, "is_reserved": 0, "lat": 38.8944895, "name": "052321244827f4e250c3503c964e6a72", "bike_id": "052321244827f4e250c3503c964e6a72", "is_disabled": 0, "fusion_lon": 0.0, "type": "electric_scooter", "lon": -77.045397}, {"rental_uris": {"android": "https://dc.lft.to/lastmile_qr_scan", "ios": "https://dc.lft.to/lastmile_qr_scan"}, "fusion_lat": 0.0, "is_reserved": 0, "lat": 38.89718233333333, "name": "625c9d82db5067ea2f976b5dd18f6452", "bike_id": "625c9d82db5067ea2f976b5dd18f6452", "is_disabled": 0, "fusion_lon": 0.0, "type": "electric_scooter", "lon": -77.02686333333334}, {"rental_uris": {"android": "https://dc.lft.to/lastmile_qr_scan", "ios": "https://dc.lft.to/lastmile_qr_scan"}, "fusion_lat": 0.0, "is_reserved": 0, "lat": 38.90475933333333, "name": "6c073a5bbe2f3dabff01543014ed8f38", "bike_id": "6c073a5bbe2f3dabff01543014ed8f38", "is_disabled": 0, "fusion_lon": 0.0, "type": "electric_scooter", "lon": -77.0487255}, {"rental_uris": {"android": "https://dc.lft.to/lastmile_qr_scan", "ios": "https://dc.lft.to/lastmile_qr_scan"}, "fusion_lat": 0.0, "is_reserved": 0, "lat": 38.92437983333333, "name": "20d8c6592366f92a4fe1b3d9e303999d", "bike_id": "20d8c6592366f92a4fe1b3d9e303999d", "is_disabled": 0, "fusion_lon": 0.0, "type": "electric_scooter", "lon": -77.000729}, {"rental_uris": {"android": "https://dc.lft.to/lastmile_qr_scan", "ios": "https://dc.lft.to/lastmile_qr_scan"}, "fusion_lat": 0.0, "is_reserved": 0, "lat": 38.92786, "name": "9f86f8b33918c2eff139b04b7b7909d8", "bike_id": "9f86f8b33918c2eff139b04b7b7909d8", "is_disabled": 0, "fusion_lon": 0.0, "type": "electric_scooter", "lon": -77.03084983333333}, {"rental_uris": {"android": "https://dc.lft.to/lastmile_qr_scan", "ios": "https://dc.lft.to/lastmile_qr_scan"}, "fusion_lat": 0.0, "is_reserved": 0, "lat": 38.90895416666667, "name": "33aeff8b83c2db3f6c94282722af426a", "bike_id": "33aeff8b83c2db3f6c94282722af426a", "is_disabled": 0, "fusion_lon": 0.0, "type": "electric_scooter", "lon": -77.07278116666667}, {"rental_uris": {"android": "https://dc.lft.to/lastmile_qr_scan", "ios": "https://dc.lft.to/lastmile_qr_scan"}, "fusion_lat": 0.0, "is_reserved": 0, "lat": 38.919858166666664, "name": "676d9cb12e28093467b3a0d9aae7c814", "bike_id": "676d9cb12e28093467b3a0d9aae7c814", "is_disabled": 0, "fusion_lon": 0.0, "type": "electric_scooter", "lon": -77.033114}, {"rental_uris": {"android": "https://dc.lft.to/lastmile_qr_scan", "ios": "https://dc.lft.to/lastmile_qr_scan"}, "fusion_lat": 0.0, "is_reserved": 0, "lat": 38.906481666666664, "name": "5a063a93a5978d54785700b2086b106c", "bike_id": "5a063a93a5978d54785700b2086b106c", "is_disabled": 0, "fusion_lon": 0.0, "type": "electric_scooter", "lon": -77.05328166666666}, {"rental_uris": {"android": "https://dc.lft.to/lastmile_qr_scan", "ios": "https://dc.lft.to/lastmile_qr_scan"}, "fusion_lat": 0.0, "is_reserved": 0, "lat": 38.83543916666667, "name": "2603d8cddd204bc3e33dd6388ae8e25b", "bike_id": "2603d8cddd204bc3e33dd6388ae8e25b", "is_disabled": 0, "fusion_lon": 0.0, "type": "electric_bike", "lon": -77.007509}, {"rental_uris": {"android": "https://dc.lft.to/lastmile_qr_scan", "ios": "https://dc.lft.to/lastmile_qr_scan"}, "fusion_lat": 0.0, "is_reserved": 0, "lat": 38.94332333333333, "name": "2b18f2a70490bf331438222bdd8fdbb4", "bike_id": "2b18f2a70490bf331438222bdd8fdbb4", "is_disabled": 0, "fusion_lon": 0.0, "type": "electric_scooter", "lon": -77.01493183333334}, {"rental_uris": {"android": "https://dc.lft.to/lastmile_qr_scan", "ios": "https://dc.lft.to/lastmile_qr_scan"}, "fusion_lat": 0.0, "is_reserved": 0, "lat": 38.96402283333333, "name": "0e91bf7a92e1590561ae53493b5ccc9e", "bike_id": "0e91bf7a92e1590561ae53493b5ccc9e", "is_disabled": 0, "fusion_lon": 0.0, "type": "electric_scooter", "lon": -77.02770933333333}, {"rental_uris": {"android": "https://dc.lft.to/lastmile_qr_scan", "ios": "https://dc.lft.to/lastmile_qr_scan"}, "fusion_lat": 0.0, "is_reserved": 0, "lat": 38.935562, "name": "5c4c9c91a49c079dd096df853d54297f", "bike_id": "5c4c9c91a49c079dd096df853d54297f", "is_disabled": 0, "fusion_lon": 0.0, "type": "electric_scooter", "lon": -77.034872}, {"rental_uris": {"android": "https://dc.lft.to/lastmile_qr_scan", "ios": "https://dc.lft.to/lastmile_qr_scan"}, "fusion_lat": 0.0, "is_reserved": 0, "lat": 38.89682883333333, "name": "4d3a07ac102e09aa256620b88896105e", "bike_id": "4d3a07ac102e09aa256620b88896105e", "is_disabled": 0, "fusion_lon": 0.0, "type": "electric_scooter", "lon": -77.03365616666666}, {"rental_uris": {"android": "https://dc.lft.to/lastmile_qr_scan", "ios": "https://dc.lft.to/lastmile_qr_scan"}, "fusion_lat": 0.0, "is_reserved": 0, "lat": 38.906707, "name": "d7b2612b6770bc1a47d4f4c0685ee826", "bike_id": "d7b2612b6770bc1a47d4f4c0685ee826", "is_disabled": 0, "fusion_lon": 0.0, "type": "electric_scooter", "lon": -77.02814566666666}, {"rental_uris": {"android": "https://dc.lft.to/lastmile_qr_scan", "ios": "https://dc.lft.to/lastmile_qr_scan"}, "fusion_lat": 0.0, "is_reserved": 0, "lat": 38.91552816666667, "name": "bc20bff2783865904196a4bb21f72819", "bike_id": "bc20bff2783865904196a4bb21f72819", "is_disabled": 0, "fusion_lon": 0.0, "type": "electric_scooter", "lon": -77.01411883333333}, {"rental_uris": {"android": "https://dc.lft.to/lastmile_qr_scan", "ios": "https://dc.lft.to/lastmile_qr_scan"}, "fusion_lat": 0.0, "is_reserved": 0, "lat": 39.074705333333334, "name": "ddc76a0f05edf83a02b5617db2d4184d", "bike_id": "ddc76a0f05edf83a02b5617db2d4184d", "is_disabled": 0, "fusion_lon": 0.0, "type": "electric_bike", "lon": -77.11510483333333}, {"rental_uris": {"android": "https://dc.lft.to/lastmile_qr_scan", "ios": "https://dc.lft.to/lastmile_qr_scan"}, "fusion_lat": 0.0, "is_reserved": 0, "lat": 38.81593216666667, "name": "ed6123debfb100cba157f6b8a61c1b36", "bike_id": "ed6123debfb100cba157f6b8a61c1b36", "is_disabled": 0, "fusion_lon": 0.0, "type": "electric_bike", "lon": -77.04939683333333}, {"rental_uris": {"android": "https://dc.lft.to/lastmile_qr_scan", "ios": "https://dc.lft.to/lastmile_qr_scan"}, "fusion_lat": 0.0, "is_reserved": 0, "lat": 38.9395655, "name": "132b1eaaed4017de124e87a2084f5f72", "bike_id": "132b1eaaed4017de124e87a2084f5f72", "is_disabled": 0, "fusion_lon": 0.0, "type": "electric_scooter", "lon": -77.07244216666666}, {"rental_uris": {"android": "https://dc.lft.to/lastmile_qr_scan", "ios": "https://dc.lft.to/lastmile_qr_scan"}, "fusion_lat": 0.0, "is_reserved": 0, "lat": 38.887211666666666, "name": "7db40a7f683077b41faf4516c95383f0", "bike_id": "7db40a7f683077b41faf4516c95383f0", "is_disabled": 0, "fusion_lon": 0.0, "type": "electric_scooter", "lon": -77.02175333333334}, {"rental_uris": {"android": "https://dc.lft.to/lastmile_qr_scan", "ios": "https://dc.lft.to/lastmile_qr_scan"}, "fusion_lat": 0.0, "is_reserved": 0, "lat": 38.918153833333335, "name": "12f65ddc257884492f772e895ea7140b", "bike_id": "12f65ddc257884492f772e895ea7140b", "is_disabled": 0, "fusion_lon": 0.0, "type": "electric_scooter", "lon": -77.02475033333333}, {"rental_uris": {"android": "https://dc.lft.to/lastmile_qr_scan", "ios": "https://dc.lft.to/lastmile_qr_scan"}, "fusion_lat": 0.0, "is_reserved": 0, "lat": 38.898007166666666, "name": "7a4beffa3e721153399c3bf9f2ff251b", "bike_id": "7a4beffa3e721153399c3bf9f2ff251b", "is_disabled": 0, "fusion_lon": 0.0, "type": "electric_scooter", "lon": -77.04614383333333}, {"rental_uris": {"android": "https://dc.lft.to/lastmile_qr_scan", "ios": "https://dc.lft.to/lastmile_qr_scan"}, "fusion_lat": 0.0, "is_reserved": 0, "lat": 38.93467866666667, "name": "728a700e817e1439ff72ebfdea3dcb49", "bike_id": "728a700e817e1439ff72ebfdea3dcb49", "is_disabled": 0, "fusion_lon": 0.0, "type": "electric_scooter", "lon": -77.04133733333333}, {"rental_uris": {"android": "https://dc.lft.to/lastmile_qr_scan", "ios": "https://dc.lft.to/lastmile_qr_scan"}, "fusion_lat": 0.0, "is_reserved": 0, "lat": 38.91414666666667, "name": "665e61a1c87baa19ff226bb9327a49f8", "bike_id": "665e61a1c87baa19ff226bb9327a49f8", "is_disabled": 0, "fusion_lon": 0.0, "type": "electric_scooter", "lon": -77.0190985}, {"rental_uris": {"android": "https://dc.lft.to/lastmile_qr_scan", "ios": "https://dc.lft.to/lastmile_qr_scan"}, "fusion_lat": 0.0, "is_reserved": 0, "lat": 38.90779033333333, "name": "a7b7716d31fec78093f41e6a4a838c5f", "bike_id": "a7b7716d31fec78093f41e6a4a838c5f", "is_disabled": 0, "fusion_lon": 0.0, "type": "electric_scooter", "lon": -77.03760833333334}, {"rental_uris": {"android": "https://dc.lft.to/lastmile_qr_scan", "ios": "https://dc.lft.to/lastmile_qr_scan"}, "fusion_lat": 0.0, "is_reserved": 0, "lat": 38.92204483333333, "name": "2a160fede7ccde9b2e42f09e4b243704", "bike_id": "2a160fede7ccde9b2e42f09e4b243704", "is_disabled": 0, "fusion_lon": 0.0, "type": "electric_scooter", "lon": -77.02714066666667}, {"rental_uris": {"android": "https://dc.lft.to/lastmile_qr_scan", "ios": "https://dc.lft.to/lastmile_qr_scan"}, "fusion_lat": 0.0, "is_reserved": 0, "lat": 38.91044333333333, "name": "746bce0a68436ba609e3ca43e5aeaa97", "bike_id": "746bce0a68436ba609e3ca43e5aeaa97", "is_disabled": 0, "fusion_lon": 0.0, "type": "electric_scooter", "lon": -77.02198983333334}, {"rental_uris": {"android": "https://dc.lft.to/lastmile_qr_scan", "ios": "https://dc.lft.to/lastmile_qr_scan"}, "fusion_lat": 0.0, "is_reserved": 0, "lat": 38.9148535, "name": "af35b15949c739509d9ca50c29ac0607", "bike_id": "af35b15949c739509d9ca50c29ac0607", "is_disabled": 0, "fusion_lon": 0.0, "type": "electric_scooter", "lon": -77.02189966666667}, {"rental_uris": {"android": "https://dc.lft.to/lastmile_qr_scan", "ios": "https://dc.lft.to/lastmile_qr_scan"}, "fusion_lat": 0.0, "is_reserved": 0, "lat": 38.92230416666666, "name": "ccc6945da1a3512c826991698c282a9d", "bike_id": "ccc6945da1a3512c826991698c282a9d", "is_disabled": 0, "fusion_lon": 0.0, "type": "electric_scooter", "lon": -77.02330866666667}, {"rental_uris": {"android": "https://dc.lft.to/lastmile_qr_scan", "ios": "https://dc.lft.to/lastmile_qr_scan"}, "fusion_lat": 0.0, "is_reserved": 0, "lat": 38.87180216666667, "name": "4f291e27ebe0cc5bb4045792c1e4fb63", "bike_id": "4f291e27ebe0cc5bb4045792c1e4fb63", "is_disabled": 0, "fusion_lon": 0.0, "type": "electric_scooter", "lon": -77.00609783333333}, {"rental_uris": {"android": "https://dc.lft.to/lastmile_qr_scan", "ios": "https://dc.lft.to/lastmile_qr_scan"}, "fusion_lat": 0.0, "is_reserved": 0, "lat": 38.89784216666666, "name": "ed61a3c07fbc7dc886ae32cd21b7313b", "bike_id": "ed61a3c07fbc7dc886ae32cd21b7313b", "is_disabled": 0, "fusion_lon": 0.0, "type": "electric_scooter", "lon": -77.015833}, {"rental_uris": {"android": "https://dc.lft.to/lastmile_qr_scan", "ios": "https://dc.lft.to/lastmile_qr_scan"}, "fusion_lat": 0.0, "is_reserved": 0, "lat": 38.89014133333333, "name": "ef9d61e75ec960f8f10d03aa1f4dfd17", "bike_id": "ef9d61e75ec960f8f10d03aa1f4dfd17", "is_disabled": 0, "fusion_lon": 0.0, "type": "electric_scooter", "lon": -76.9373445}, {"rental_uris": {"android": "https://dc.lft.to/lastmile_qr_scan", "ios": "https://dc.lft.to/lastmile_qr_scan"}, "fusion_lat": 0.0, "is_reserved": 0, "lat": 38.919819833333335, "name": "c8ea5a0150ba0b530de486b370a7389b", "bike_id": "c8ea5a0150ba0b530de486b370a7389b", "is_disabled": 0, "fusion_lon": 0.0, "type": "electric_scooter", "lon": -77.02181216666666}, {"rental_uris": {"android": "https://dc.lft.to/lastmile_qr_scan", "ios": "https://dc.lft.to/lastmile_qr_scan"}, "fusion_lat": 0.0, "is_reserved": 0, "lat": 38.9011245, "name": "aecc11093c97a8136a8f2b1961d07119", "bike_id": "aecc11093c97a8136a8f2b1961d07119", "is_disabled": 0, "fusion_lon": 0.0, "type": "electric_scooter", "lon": -76.9800805}, {"rental_uris": {"android": "https://dc.lft.to/lastmile_qr_scan", "ios": "https://dc.lft.to/lastmile_qr_scan"}, "fusion_lat": 0.0, "is_reserved": 0, "lat": 38.9053415, "name": "36038377175202014a2215e77134cf9d", "bike_id": "36038377175202014a2215e77134cf9d", "is_disabled": 0, "fusion_lon": 0.0, "type": "electric_scooter", "lon": -77.00525933333333}, {"rental_uris": {"android": "https://dc.lft.to/lastmile_qr_scan", "ios": "https://dc.lft.to/lastmile_qr_scan"}, "fusion_lat": 0.0, "is_reserved": 0, "lat": 38.91103833333333, "name": "ccfadc8192d25651baa8561736cfe395", "bike_id": "ccfadc8192d25651baa8561736cfe395", "is_disabled": 0, "fusion_lon": 0.0, "type": "electric_scooter", "lon": -77.0735025}, {"rental_uris": {"android": "https://dc.lft.to/lastmile_qr_scan", "ios": "https://dc.lft.to/lastmile_qr_scan"}, "fusion_lat": 0.0, "is_reserved": 0, "lat": 38.84277683333333, "name": "b6c2af7a8b067eee6c10b0036ec7d62a", "bike_id": "b6c2af7a8b067eee6c10b0036ec7d62a", "is_disabled": 0, "fusion_lon": 0.0, "type": "electric_bike", "lon": -76.9884175}, {"rental_uris": {"android": "https://dc.lft.to/lastmile_qr_scan", "ios": "https://dc.lft.to/lastmile_qr_scan"}, "fusion_lat": 0.0, "is_reserved": 0, "lat": 38.95761983333333, "name": "4f397059cf1cdff07a11ebf92ea13a53", "bike_id": "4f397059cf1cdff07a11ebf92ea13a53", "is_disabled": 0, "fusion_lon": 0.0, "type": "electric_bike", "lon": -76.9675855}, {"rental_uris": {"android": "https://dc.lft.to/lastmile_qr_scan", "ios": "https://dc.lft.to/lastmile_qr_scan"}, "fusion_lat": 0.0, "is_reserved": 0, "lat": 38.91567633333333, "name": "fb08440b66434ceb98ae991d64fd67f7", "bike_id": "fb08440b66434ceb98ae991d64fd67f7", "is_disabled": 0, "fusion_lon": 0.0, "type": "electric_scooter", "lon": -77.04699566666666}, {"rental_uris": {"android": "https://dc.lft.to/lastmile_qr_scan", "ios": "https://dc.lft.to/lastmile_qr_scan"}, "fusion_lat": 0.0, "is_reserved": 0, "lat": 38.872705833333335, "name": "941ab82cc66fb880fd4e20eb894448a9", "bike_id": "941ab82cc66fb880fd4e20eb894448a9", "is_disabled": 0, "fusion_lon": 0.0, "type": "electric_scooter", "lon": -77.01708783333333}, {"rental_uris": {"android": "https://dc.lft.to/lastmile_qr_scan", "ios": "https://dc.lft.to/lastmile_qr_scan"}, "fusion_lat": 0.0, "is_reserved": 0, "lat": 38.917147666666665, "name": "ceb5fb3928f98a5cc3b87e56f2133665", "bike_id": "ceb5fb3928f98a5cc3b87e56f2133665", "is_disabled": 0, "fusion_lon": 0.0, "type": "electric_scooter", "lon": -77.02283833333334}, {"rental_uris": {"android": "https://dc.lft.to/lastmile_qr_scan", "ios": "https://dc.lft.to/lastmile_qr_scan"}, "fusion_lat": 0.0, "is_reserved": 0, "lat": 38.922642333333336, "name": "0447708d7fd73d69a63a484b95b601cb", "bike_id": "0447708d7fd73d69a63a484b95b601cb", "is_disabled": 0, "fusion_lon": 0.0, "type": "electric_scooter", "lon": -77.03686116666667}, {"rental_uris": {"android": "https://dc.lft.to/lastmile_qr_scan", "ios": "https://dc.lft.to/lastmile_qr_scan"}, "fusion_lat": 0.0, "is_reserved": 0, "lat": 38.808627666666666, "name": "ffe9eb17c2ce1937fb0421c41c364fe1", "bike_id": "ffe9eb17c2ce1937fb0421c41c364fe1", "is_disabled": 0, "fusion_lon": 0.0, "type": "electric_bike", "lon": -77.1125495}, {"rental_uris": {"android": "https://dc.lft.to/lastmile_qr_scan", "ios": "https://dc.lft.to/lastmile_qr_scan"}, "fusion_lat": 0.0, "is_reserved": 0, "lat": 38.901412, "name": "f20315e543202e5b585a3492fa883d3d", "bike_id": "f20315e543202e5b585a3492fa883d3d", "is_disabled": 0, "fusion_lon": 0.0, "type": "electric_scooter", "lon": -77.00072666666667}, {"rental_uris": {"android": "https://dc.lft.to/lastmile_qr_scan", "ios": "https://dc.lft.to/lastmile_qr_scan"}, "fusion_lat": 0.0, "is_reserved": 0, "lat": 38.871572, "name": "3a869e8990252c072ed6fd378aec2299", "bike_id": "3a869e8990252c072ed6fd378aec2299", "is_disabled": 0, "fusion_lon": 0.0, "type": "electric_scooter", "lon": -77.0131775}, {"rental_uris": {"android": "https://dc.lft.to/lastmile_qr_scan", "ios": "https://dc.lft.to/lastmile_qr_scan"}, "fusion_lat": 0.0, "is_reserved": 0, "lat": 38.927926, "name": "a76b04634739840d76c5bc5633fa3fcd", "bike_id": "a76b04634739840d76c5bc5633fa3fcd", "is_disabled": 0, "fusion_lon": 0.0, "type": "electric_scooter", "lon": -77.026044}, {"rental_uris": {"android": "https://dc.lft.to/lastmile_qr_scan", "ios": "https://dc.lft.to/lastmile_qr_scan"}, "fusion_lat": 0.0, "is_reserved": 0, "lat": 38.935833833333334, "name": "92ad32d9e1360e859a6504a3faa6c510", "bike_id": "92ad32d9e1360e859a6504a3faa6c510", "is_disabled": 0, "fusion_lon": 0.0, "type": "electric_scooter", "lon": -77.05878883333334}, {"rental_uris": {"android": "https://dc.lft.to/lastmile_qr_scan", "ios": "https://dc.lft.to/lastmile_qr_scan"}, "fusion_lat": 0.0, "is_reserved": 0, "lat": 38.92367333333333, "name": "480ab5bcec553c43ab2b9f877f001ce0", "bike_id": "480ab5bcec553c43ab2b9f877f001ce0", "is_disabled": 0, "fusion_lon": 0.0, "type": "electric_scooter", "lon": -77.01921133333333}, {"rental_uris": {"android": "https://dc.lft.to/lastmile_qr_scan", "ios": "https://dc.lft.to/lastmile_qr_scan"}, "fusion_lat": 0.0, "is_reserved": 0, "lat": 38.8922065, "name": "d494a6a947b94e1df07514681321df17", "bike_id": "d494a6a947b94e1df07514681321df17", "is_disabled": 0, "fusion_lon": 0.0, "type": "electric_scooter", "lon": -77.03978416666666}, {"rental_uris": {"android": "https://dc.lft.to/lastmile_qr_scan", "ios": "https://dc.lft.to/lastmile_qr_scan"}, "fusion_lat": 0.0, "is_reserved": 0, "lat": 38.9416595, "name": "5256cbe5544390770a03b7a107cdd992", "bike_id": "5256cbe5544390770a03b7a107cdd992", "is_disabled": 0, "fusion_lon": 0.0, "type": "electric_scooter", "lon": -77.02559583333333}, {"rental_uris": {"android": "https://dc.lft.to/lastmile_qr_scan", "ios": "https://dc.lft.to/lastmile_qr_scan"}, "fusion_lat": 0.0, "is_reserved": 0, "lat": 38.920237666666665, "name": "4b2fa78f1c4f5a35935c145c8a127346", "bike_id": "4b2fa78f1c4f5a35935c145c8a127346", "is_disabled": 0, "fusion_lon": 0.0, "type": "electric_scooter", "lon": -77.03160366666667}, {"rental_uris": {"android": "https://dc.lft.to/lastmile_qr_scan", "ios": "https://dc.lft.to/lastmile_qr_scan"}, "fusion_lat": 0.0, "is_reserved": 0, "lat": 38.892075166666665, "name": "b51635b03a27bf9989f95725a48d929c", "bike_id": "b51635b03a27bf9989f95725a48d929c", "is_disabled": 0, "fusion_lon": 0.0, "type": "electric_scooter", "lon": -76.9292495}, {"rental_uris": {"android": "https://dc.lft.to/lastmile_qr_scan", "ios": "https://dc.lft.to/lastmile_qr_scan"}, "fusion_lat": 0.0, "is_reserved": 0, "lat": 38.932075, "name": "5727d3adf1fc55562bd21a0a7a6f73dc", "bike_id": "5727d3adf1fc55562bd21a0a7a6f73dc", "is_disabled": 0, "fusion_lon": 0.0, "type": "electric_scooter", "lon": -77.02394433333333}, {"rental_uris": {"android": "https://dc.lft.to/lastmile_qr_scan", "ios": "https://dc.lft.to/lastmile_qr_scan"}, "fusion_lat": 0.0, "is_reserved": 0, "lat": 38.9283655, "name": "cbc075105c6d79757e62d5f940eda2c5", "bike_id": "cbc075105c6d79757e62d5f940eda2c5", "is_disabled": 0, "fusion_lon": 0.0, "type": "electric_scooter", "lon": -77.01407366666666}, {"rental_uris": {"android": "https://dc.lft.to/lastmile_qr_scan", "ios": "https://dc.lft.to/lastmile_qr_scan"}, "fusion_lat": 0.0, "is_reserved": 0, "lat": 38.9438375, "name": "a62576ee4be389258a60ec89cd39fadc", "bike_id": "a62576ee4be389258a60ec89cd39fadc", "is_disabled": 0, "fusion_lon": 0.0, "type": "electric_bike", "lon": -77.02355616666667}, {"rental_uris": {"android": "https://dc.lft.to/lastmile_qr_scan", "ios": "https://dc.lft.to/lastmile_qr_scan"}, "fusion_lat": 0.0, "is_reserved": 0, "lat": 38.901869833333336, "name": "8de09b752e0bc562059768d12f200384", "bike_id": "8de09b752e0bc562059768d12f200384", "is_disabled": 0, "fusion_lon": 0.0, "type": "electric_scooter", "lon": -77.02174083333334}, {"rental_uris": {"android": "https://dc.lft.to/lastmile_qr_scan", "ios": "https://dc.lft.to/lastmile_qr_scan"}, "fusion_lat": 0.0, "is_reserved": 0, "lat": 38.91453583333333, "name": "bd90111f65e5fe55447d34d8f840b9ef", "bike_id": "bd90111f65e5fe55447d34d8f840b9ef", "is_disabled": 0, "fusion_lon": 0.0, "type": "electric_bike", "lon": -76.97281933333333}, {"rental_uris": {"android": "https://dc.lft.to/lastmile_qr_scan", "ios": "https://dc.lft.to/lastmile_qr_scan"}, "fusion_lat": 0.0, "is_reserved": 0, "lat": 38.89885733333333, "name": "b8d74517ecb96bed58a169e726564ca3", "bike_id": "b8d74517ecb96bed58a169e726564ca3", "is_disabled": 0, "fusion_lon": 0.0, "type": "electric_scooter", "lon": -76.9800355}, {"rental_uris": {"android": "https://dc.lft.to/lastmile_qr_scan", "ios": "https://dc.lft.to/lastmile_qr_scan"}, "fusion_lat": 0.0, "is_reserved": 0, "lat": 38.919179, "name": "14c3d8f4461d203a3f4d30c3b97c96d0", "bike_id": "14c3d8f4461d203a3f4d30c3b97c96d0", "is_disabled": 0, "fusion_lon": 0.0, "type": "electric_scooter", "lon": -77.0727595}, {"rental_uris": {"android": "https://dc.lft.to/lastmile_qr_scan", "ios": "https://dc.lft.to/lastmile_qr_scan"}, "fusion_lat": 0.0, "is_reserved": 0, "lat": 38.917182333333336, "name": "02ceee9c7357a3d96cc5bb79cfaabd11", "bike_id": "02ceee9c7357a3d96cc5bb79cfaabd11", "is_disabled": 0, "fusion_lon": 0.0, "type": "electric_scooter", "lon": -77.0281305},