{"data": {"bikes": [{"rental_uris": {"ios": "https://dc.lft.to/lastmile_qr_scan", "android": "https://dc.lft.to/lastmile_qr_scan"}, "lon": -76.93194466666667, "type": "electric_scooter", "fusion_lat": 0.0, "lat": 38.88992966666667, "name": "c4f4e8185157161c4ff6f8c777733b82", "fusion_lon": 0.0, "bike_id": "c4f4e8185157161c4ff6f8c777733b82", "is_disabled": 0, "is_reserved": 0}, {"rental_uris": {"ios": "https://dc.lft.to/lastmile_qr_scan", "android": "https://dc.lft.to/lastmile_qr_scan"}, "lon": -76.97347533333334, "type": "electric_scooter", "fusion_lat": 0.0, "lat": 38.865118333333335, "name": "a250a1658c6ff7926426a2b8c7129d92", "fusion_lon": 0.0, "bike_id": "a250a1658c6ff7926426a2b8c7129d92", "is_disabled": 0, "is_reserved": 0}, {"rental_uris": {"ios": "https://dc.lft.to/lastmile_qr_scan", "android": "https://dc.lft.to/lastmile_qr_scan"}, "lon": -77.01795583333333, "type": "electric_scooter", "fusion_lat": 0.0, "lat": 38.903966, "name": "cf24846bf01ed3ccb2ba49c154d82edf", "fusion_lon": 0.0, "bike_id": "cf24846bf01ed3ccb2ba49c154d82edf", "is_disabled": 0, "is_reserved": 0}, {"rental_uris": {"ios": "https://dc.lft.to/lastmile_qr_scan", "android": "https://dc.lft.to/lastmile_qr_scan"}, "lon": -77.02702483333333, "type": "electric_scooter", "fusion_lat": 0.0, "lat": 38.90682183333333, "name": "2e43c64eee904918fa2512e996a7ba8b", "fusion_lon": 0.0, "bike_id": "2e43c64eee904918fa2512e996a7ba8b", "is_disabled": 0, "is_reserved": 0}, {"rental_uris": {"ios": "https://dc.lft.to/lastmile_qr_scan", "android": "https://dc.lft.to/lastmile_qr_scan"}, "lon": -77.0298635, "type": "electric_scooter", "fusion_lat": 0.0, "lat": 38.92473566666666, "name": "56533e990ffd254e4840fedd332d8acf", "fusion_lon": 0.0, "bike_id": "56533e990ffd254e4840fedd332d8acf", "is_disabled": 0, "is_reserved": 0}, {"rental_uris": {"ios": "https://dc.lft.to/lastmile_qr_scan", "android": "https://dc.lft.to/lastmile_qr_scan"}, "lon": -77.00602766666667, "type": "electric_scooter", "fusion_lat": 0.0, "lat": 38.906425666666664, "name": "d4947af7e3da3562c426f04501ea861b", "fusion_lon": 0.0, "bike_id": "d4947af7e3da3562c426f04501ea861b", "is_disabled": 0, "is_reserved": 0}, {"rental_uris": {"ios": "https://dc.lft.to/lastmile_qr_scan", "android": "https://dc.lft.to/lastmile_qr_scan"}, "lon": -77.01510166666667, "type": "electric_scooter", "fusion_lat": 0.0, "lat": 38.90160783333333, "name": "7efd3a2db9709d60bf78333c9373d26e", "fusion_lon": 0.0, "bike_id": "7efd3a2db9709d60bf78333c9373d26e", "is_disabled": 0, "is_reserved": 0}, {"rental_uris": {"ios": "https://dc.lft.to/lastmile_qr_scan", "android": "https://dc.lft.to/lastmile_qr_scan"}, "lon": -77.03655616666667, "type": "electric_scooter", "fusion_lat": 0.0, "lat": 38.923050833333335, "name": "11309383de8150147d73244cbb2fba4f", "fusion_lon": 0.0, "bike_id": "11309383de8150147d73244cbb2fba4f", "is_disabled": 0, "is_reserved": 0}, {"rental_uris": {"ios": "https://dc.lft.to/lastmile_qr_scan", "android": "https://dc.lft.to/lastmile_qr_scan"}, "lon": -76.9869965, "type": "electric_scooter", "fusion_lat": 0.0, "lat": 38.90155683333333, "name": "5df240994b80b2cb55a5934e4721dade", "fusion_lon": 0.0, "bike_id": "5df240994b80b2cb55a5934e4721dade", "is_disabled": 0, "is_reserved": 0}, {"rental_uris": {"ios": "https://dc.lft.to/lastmile_qr_scan", "android": "https://dc.lft.to/lastmile_qr_scan"}, "lon": -77.02176766666666, "type": "electric_scooter", "fusion_lat": 0.0, "lat": 38.89251, "name": "974d32ad359d43eefca29d770a6731e3", "fusion_lon": 0.0, "bike_id": "974d32ad359d43eefca29d770a6731e3", "is_disabled": 0, "is_reserved": 0}, {"rental_uris": {"ios": "https://dc.lft.to/lastmile_qr_scan", "android": "https://dc.lft.to/lastmile_qr_scan"}, "lon": -77.03849533333333, "type": "electric_scooter", "fusion_lat": 0.0, "lat": 38.915604333333334, "name": "b31bfaf082474da870357fd00e0d9f82", "fusion_lon": 0.0, "bike_id": "b31bfaf082474da870357fd00e0d9f82", "is_disabled": 0, "is_reserved": 0}, {"rental_uris": {"ios": "https://dc.lft.to/lastmile_qr_scan", "android": "https://dc.lft.to/lastmile_qr_scan"}, "lon": -77.04511366666667, "type": "electric_scooter", "fusion_lat": 0.0, "lat": 38.907771, "name": "46571e51f7d14963762e76d9a87f52f5", "fusion_lon": 0.0, "bike_id": "46571e51f7d14963762e76d9a87f52f5", "is_disabled": 0, "is_reserved": 0}, {"rental_uris": {"ios": "https://dc.lft.to/lastmile_qr_scan", "android": "https://dc.lft.to/lastmile_qr_scan"}, "lon": -77.04034916666667, "type": "electric_bike", "fusion_lat": 0.0, "lat": 38.92437233333333, "name": "1ab94887e0cb1291fd56eb43a0090c38", "fusion_lon": 0.0, "bike_id": "1ab94887e0cb1291fd56eb43a0090c38", "is_disabled": 0, "is_reserved": 0}, {"rental_uris": {"ios": "https://dc.lft.to/lastmile_qr_scan", "android": "https://dc.lft.to/lastmile_qr_scan"}, "lon": -77.03692166666667, "type": "electric_scooter", "fusion_lat": 0.0, "lat": 38.93525616666667, "name": "206097afbbae8734c9d9b6d22894ac9c", "fusion_lon": 0.0, "bike_id": "206097afbbae8734c9d9b6d22894ac9c", "is_disabled": 0, "is_reserved": 0}, {"rental_uris": {"ios": "https://dc.lft.to/lastmile_qr_scan", "android": "https://dc.lft.to/lastmile_qr_scan"}, "lon": -77.0418105, "type": "electric_scooter", "fusion_lat": 0.0, "lat": 38.90364833333334, "name": "adfef9f85048ffa9ecf5b072915a3afc", "fusion_lon": 0.0, "bike_id": "adfef9f85048ffa9ecf5b072915a3afc", "is_disabled": 0, "is_reserved": 0}, {"rental_uris": {"ios": "https://dc.lft.to/lastmile_qr_scan", "android": "https://dc.lft.to/lastmile_qr_scan"}, "lon": -77.02209716666667, "type": "electric_scooter", "fusion_lat": 0.0, "lat": 38.915393, "name": "7c74eff0f886904b3d2c5a2b375f0c0c", "fusion_lon": 0.0, "bike_id": "7c74eff0f886904b3d2c5a2b375f0c0c", "is_disabled": 0, "is_reserved": 0}, {"rental_uris": {"ios": "https://dc.lft.to/lastmile_qr_scan", "android": "https://dc.lft.to/lastmile_qr_scan"}, "lon": -77.03323833333333, "type": "electric_scooter", "fusion_lat": 0.0, "lat": 38.901487833333334, "name": "e79f7e01aa54fead3314f678b369dda9", "fusion_lon": 0.0, "bike_id": "e79f7e01aa54fead3314f678b369dda9", "is_disabled": 0, "is_reserved": 0}, {"rental_uris": {"ios": "https://dc.lft.to/lastmile_qr_scan", "android": "https://dc.lft.to/lastmile_qr_scan"}, "lon": -77.02805633333334, "type": "electric_scooter", "fusion_lat": 0.0, "lat": 38.9308425, "name": "0c26a90f1865f35a81c6caa3ce90b73e", "fusion_lon": 0.0, "bike_id": "0c26a90f1865f35a81c6caa3ce90b73e", "is_disabled": 0, "is_reserved": 0}, {"rental_uris": {"ios": "https://dc.lft.to/lastmile_qr_scan", "android": "https://dc.lft.to/lastmile_qr_scan"}, "lon": -77.0634805, "type": "electric_scooter", "fusion_lat": 0.0, "lat": 38.94449816666667, "name": "9677df03a220b4d7418ffa3b2ddd07e0", "fusion_lon": 0.0, "bike_id": "9677df03a220b4d7418ffa3b2ddd07e0", "is_disabled": 0, "is_reserved": 0}, {"rental_uris": {"ios": "https://dc.lft.to/lastmile_qr_scan", "android": "https://dc.lft.to/lastmile_qr_scan"}, "lon": -77.021532, "type": "electric_scooter", "fusion_lat": 0.0, "lat": 38.92823883333333, "name": "f9f7219a0376397f0080046793a1590c", "fusion_lon": 0.0, "bike_id": "f9f7219a0376397f0080046793a1590c", "is_disabled": 0, "is_reserved": 0}, {"rental_uris": {"ios": "https://dc.lft.to/lastmile_qr_scan", "android": "https://dc.lft.to/lastmile_qr_scan"}, "lon": -77.03427883333333, "type": "electric_scooter", "fusion_lat": 0.0, "lat": 38.919198, "name": "1b9ec112306a8a75fd28364705fe5c73", "fusion_lon": 0.0, "bike_id": "1b9ec112306a8a75fd28364705fe5c73", "is_disabled": 0, "is_reserved": 0}, {"rental_uris": {"ios": "https://dc.lft.to/lastmile_qr_scan", "android": "https://dc.lft.to/lastmile_qr_scan"}, "lon": -76.947177, "type": "electric_scooter", "fusion_lat": 0.0, "lat": 38.896804833333334, "name": "4517a0fbe12d1daa55515742d575e2e6", "fusion_lon": 0.0, "bike_id": "4517a0fbe12d1daa55515742d575e2e6", "is_disabled": 0, "is_reserved": 0}, {"rental_uris": {"ios": "https://dc.lft.to/lastmile_qr_scan", "android": "https://dc.lft.to/lastmile_qr_scan"}, "lon": -77.02486716666667, "type": "electric_scooter", "fusion_lat": 0.0, "lat": 38.897578333333335, "name": "dee78bba6c0670d2915eec7b69a3332c", "fusion_lon": 0.0, "bike_id": "dee78bba6c0670d2915eec7b69a3332c", "is_disabled": 0, "is_reserved": 0}, {"rental_uris": {"ios": "https://dc.lft.to/lastmile_qr_scan", "android": "https://dc.lft.to/lastmile_qr_scan"}, "lon": -76.99845516666667, "type": "electric_scooter", "fusion_lat": 0.0, "lat": 38.9005055, "name": "ca11cbae4d402eaf0109eb997bc438bd", "fusion_lon": 0.0, "bike_id": "ca11cbae4d402eaf0109eb997bc438bd", "is_disabled": 0, "is_reserved": 0}, {"rental_uris": {"ios": "https://dc.lft.to/lastmile_qr_scan", "android": "https://dc.lft.to/lastmile_qr_scan"}, "lon": -76.98850116666667, "type": "electric_scooter", "fusion_lat": 0.0, "lat": 38.90348133333333, "name": "172e6cfe904ac43af1a3d1334d6d6c86", "fusion_lon": 0.0, "bike_id": "172e6cfe904ac43af1a3d1334d6d6c86", "is_disabled": 0, "is_reserved": 0}, {"rental_uris": {"ios": "https://dc.lft.to/lastmile_qr_scan", "android": "https://dc.lft.to/lastmile_qr_scan"}, "lon": -77.03656033333333, "type": "electric_scooter", "fusion_lat": 0.0, "lat": 38.93085516666667, "name": "f0e7585140ee3f0e2b198ecfff4ad5f6", "fusion_lon": 0.0, "bike_id": "f0e7585140ee3f0e2b198ecfff4ad5f6", "is_disabled": 0, "is_reserved": 0}, {"rental_uris": {"ios": "https://dc.lft.to/lastmile_qr_scan", "android": "https://dc.lft.to/lastmile_qr_scan"}, "lon": -77.02478416666666, "type": "electric_scooter", "fusion_lat": 0.0, "lat": 38.90407416666667, "name": "1b40cc57da2d56da786c947f58b6e8e1", "fusion_lon": 0.0, "bike_id": "1b40cc57da2d56da786c947f58b6e8e1", "is_disabled": 0, "is_reserved": 0}, {"rental_uris": {"ios": "https://dc.lft.to/lastmile_qr_scan", "android": "https://dc.lft.to/lastmile_qr_scan"}, "lon": -77.02781383333334, "type": "electric_scooter", "fusion_lat": 0.0, "lat": 38.9237175, "name": "77766d863081ba29f580415f066f3f4c", "fusion_lon": 0.0, "bike_id": "77766d863081ba29f580415f066f3f4c", "is_disabled": 0, "is_reserved": 0}, {"rental_uris": {"ios": "https://dc.lft.to/lastmile_qr_scan", "android": "https://dc.lft.to/lastmile_qr_scan"}, "lon": -77.04712216666667, "type": "electric_scooter", "fusion_lat": 0.0, "lat": 38.9096305, "name": "26ae3cc9a29ebb9ec360e7f36b26298a", "fusion_lon": 0.0, "bike_id": "26ae3cc9a29ebb9ec360e7f36b26298a", "is_disabled": 0, "is_reserved": 0}, {"rental_uris": {"ios": "https://dc.lft.to/lastmile_qr_scan", "android": "https://dc.lft.to/lastmile_qr_scan"}, "lon": -77.03849316666667, "type": "electric_scooter", "fusion_lat": 0.0, "lat": 38.90378833333333, "name": "fdf94c45a351692af95f5563b10c595b", "fusion_lon": 0.0, "bike_id": "fdf94c45a351692af95f5563b10c595b", "is_disabled": 0, "is_reserved": 0}, {"rental_uris": {"ios": "https://dc.lft.to/lastmile_qr_scan", "android": "https://dc.lft.to/lastmile_qr_scan"}, "lon": -77.10713266666667, "type": "electric_bike", "fusion_lat": 0.0, "lat": 38.85548383333333, "name": "183910f97bbaed825dc701fa2a5619d0", "fusion_lon": 0.0, "bike_id": "183910f97bbaed825dc701fa2a5619d0", "is_disabled": 0, "is_reserved": 0}, {"rental_uris": {"ios": "https://dc.lft.to/lastmile_qr_scan", "android": "https://dc.lft.to/lastmile_qr_scan"}, "lon": -77.04423533333333, "type": "electric_scooter", "fusion_lat": 0.0, "lat": 38.91081483333333, "name": "8f4bc912cf0c4f707f96610350573f25", "fusion_lon": 0.0, "bike_id": "8f4bc912cf0c4f707f96610350573f25", "is_disabled": 0, "is_reserved": 0}, {"rental_uris": {"ios": "https://dc.lft.to/lastmile_qr_scan", "android": "https://dc.lft.to/lastmile_qr_scan"}, "lon": -77.05271733333333, "type": "electric_scooter", "fusion_lat": 0.0, "lat": 38.898397, "name": "78972607541a5c8bb373ab3d201905fa", "fusion_lon": 0.0, "bike_id": "78972607541a5c8bb373ab3d201905fa", "is_disabled": 0, "is_reserved": 0}, {"rental_uris": {"ios": "https://dc.lft.to/lastmile_qr_scan", "android": "https://dc.lft.to/lastmile_qr_scan"}, "lon": -77.00334733333334, "type": "electric_bike", "fusion_lat": 0.0, "lat": 38.91986933333333, "name": "256c43058d4d189186e714369eadc954", "fusion_lon": 0.0, "bike_id": "256c43058d4d189186e714369eadc954", "is_disabled": 0, "is_reserved": 0}, {"rental_uris": {"ios": "https://dc.lft.to/lastmile_qr_scan", "android": "https://dc.lft.to/lastmile_qr_scan"}, "lon": -77.002163, "type": "electric_scooter", "fusion_lat": 0.0, "lat": 38.9002505, "name": "fd30abb0d972f5cd166323555a297317", "fusion_lon": 0.0, "bike_id": "fd30abb0d972f5cd166323555a297317", "is_disabled": 0, "is_reserved": 0}, {"rental_uris": {"ios": "https://dc.lft.to/lastmile_qr_scan", "android": "https://dc.lft.to/lastmile_qr_scan"}, "lon": -77.03868016666667, "type": "electric_scooter", "fusion_lat": 0.0, "lat": 38.912573, "name": "da06e8a3a7824b6f95b6f2af63b88818", "fusion_lon": 0.0, "bike_id": "da06e8a3a7824b6f95b6f2af63b88818", "is_disabled": 0, "is_reserved": 0}, {"rental_uris": {"ios": "https://dc.lft.to/lastmile_qr_scan", "android": "https://dc.lft.to/lastmile_qr_scan"}, "lon": -77.066723, "type": "electric_scooter", "fusion_lat": 0.0, "lat": 38.9140835, "name": "928c91756673a43e78ae222cab533969", "fusion_lon": 0.0, "bike_id": "928c91756673a43e78ae222cab533969", "is_disabled": 0, "is_reserved": 0}, {"rental_uris": {"ios": "https://dc.lft.to/lastmile_qr_scan", "android": "https://dc.lft.to/lastmile_qr_scan"}, "lon": -77.066065, "type": "electric_scooter", "fusion_lat": 0.0, "lat": 38.905213333333336, "name": "dfc45f186efc093f7da18dd164300f6e", "fusion_lon": 0.0, "bike_id": "dfc45f186efc093f7da18dd164300f6e", "is_disabled": 0, "is_reserved": 0}, {"rental_uris": {"ios": "https://dc.lft.to/lastmile_qr_scan", "android": "https://dc.lft.to/lastmile_qr_scan"}, "lon": -77.0280375, "type": "electric_scooter", "fusion_lat": 0.0, "lat": 38.89920766666667, "name": "a3893da7ccc1596b8ec3818f1e2a66ed", "fusion_lon": 0.0, "bike_id": "a3893da7ccc1596b8ec3818f1e2a66ed", "is_disabled": 0, "is_reserved": 0}, {"rental_uris": {"ios": "https://dc.lft.to/lastmile_qr_scan", "android": "https://dc.lft.to/lastmile_qr_scan"}, "lon": -77.02712516666666, "type": "electric_scooter", "fusion_lat": 0.0, "lat": 38.91180466666667, "name": "b603d299620a96caeb0e37dc5f563164", "fusion_lon": 0.0, "bike_id": "b603d299620a96caeb0e37dc5f563164", "is_disabled": 0, "is_reserved": 0}, {"rental_uris": {"ios": "https://dc.lft.to/lastmile_qr_scan", "android": "https://dc.lft.to/lastmile_qr_scan"}, "lon": -76.965269, "type": "electric_scooter", "fusion_lat": 0.0, "lat": 38.87631233333333, "name": "621bf5b674e50cd033849b91f015307e", "fusion_lon": 0.0, "bike_id": "621bf5b674e50cd033849b91f015307e", "is_disabled": 0, "is_reserved": 0}, {"rental_uris": {"ios": "https://dc.lft.to/lastmile_qr_scan", "android": "https://dc.lft.to/lastmile_qr_scan"}, "lon": -77.04000733333334, "type": "electric_scooter", "fusion_lat": 0.0, "lat": 38.92187633333333, "name": "37c1f34afda50cf6987a55f775d616b0", "fusion_lon": 0.0, "bike_id": "37c1f34afda50cf6987a55f775d616b0", "is_disabled": 0, "is_reserved": 0}, {"rental_uris": {"ios": "https://dc.lft.to/lastmile_qr_scan", "android": "https://dc.lft.to/lastmile_qr_scan"}, "lon": -77.04192933333333, "type": "electric_scooter", "fusion_lat": 0.0, "lat": 38.9126475, "name": "ef5b5073661a69c730043fa77f5da271", "fusion_lon": 0.0, "bike_id": "ef5b5073661a69c730043fa77f5da271", "is_disabled": 0, "is_reserved": 0}, {"rental_uris": {"ios": "https://dc.lft.to/lastmile_qr_scan", "android": "https://dc.lft.to/lastmile_qr_scan"}, "lon": -77.03166433333334, "type": "electric_scooter", "fusion_lat": 0.0, "lat": 38.915538833333336, "name": "a842b6e3306a997f9b4661cd55c25717", "fusion_lon": 0.0, "bike_id": "a842b6e3306a997f9b4661cd55c25717", "is_disabled": 0, "is_reserved": 0}, {"rental_uris": {"ios": "https://dc.lft.to/lastmile_qr_scan", "android": "https://dc.lft.to/lastmile_qr_scan"}, "lon": -77.01605266666667, "type": "electric_scooter", "fusion_lat": 0.0, "lat": 38.8999985, "name": "5ad2bada49a25e60e7144575bb6aa163", "fusion_lon": 0.0, "bike_id": "5ad2bada49a25e60e7144575bb6aa163", "is_disabled": 0, "is_reserved": 0}, {"rental_uris": {"ios": "https://dc.lft.to/lastmile_qr_scan", "android": "https://dc.lft.to/lastmile_qr_scan"}, "lon": -77.01106483333334, "type": "electric_scooter", "fusion_lat": 0.0, "lat": 38.90361466666667, "name": "abcb31ee21c93756191b54d71f38391c", "fusion_lon": 0.0, "bike_id": "abcb31ee21c93756191b54d71f38391c", "is_disabled": 0, "is_reserved": 0}, {"rental_uris": {"ios": "https://dc.lft.to/lastmile_qr_scan", "android": "https://dc.lft.to/lastmile_qr_scan"}, "lon": -77.01515633333334, "type": "electric_scooter", "fusion_lat": 0.0, "lat": 38.916112166666665, "name": "ae20d0fe795a496b6af8561ad85854c8", "fusion_lon": 0.0, "bike_id": "ae20d0fe795a496b6af8561ad85854c8", "is_disabled": 0, "is_reserved": 0}, {"rental_uris": {"ios": "https://dc.lft.to/lastmile_qr_scan", "android": "https://dc.lft.to/lastmile_qr_scan"}, "lon": -77.06526866666667, "type": "electric_scooter", "fusion_lat": 0.0, "lat": 38.9112835, "name": "ffb1a73f85dc33838586a92f94fecd19", "fusion_lon": 0.0, "bike_id": "ffb1a73f85dc33838586a92f94fecd19", "is_disabled": 0, "is_reserved": 0}, {"rental_uris": {"ios": "https://dc.lft.to/lastmile_qr_scan", "android": "https://dc.lft.to/lastmile_qr_scan"}, "lon": -77.01503916666667, "type": "electric_scooter", "fusion_lat": 0.0, "lat": 38.9072435, "name": "00c2f5f3ccb6e3f3b943739577278e1a", "fusion_lon": 0.0, "bike_id": "00c2f5f3ccb6e3f3b943739577278e1a", "is_disabled": 0, "is_reserved": 0}, {"rental_uris": {"ios": "https://dc.lft.to/lastmile_qr_scan", "android": "https://dc.lft.to/lastmile_qr_scan"}, "lon": -76.99514633333334, "type": "electric_scooter", "fusion_lat": 0.0, "lat": 38.894833166666665, "name": "7286840b7f768fb7ed2f8f4279e70203", "fusion_lon": 0.0, "bike_id": "7286840b7f768fb7ed2f8f4279e70203", "is_disabled": 0, "is_reserved": 0}, {"rental_uris": {"ios": "https://dc.lft.to/lastmile_qr_scan", "android": "https://dc.lft.to/lastmile_qr_scan"}, "lon": -77.03696516666666, "type": "electric_bike", "fusion_lat": 0.0, "lat": 38.93562266666667, "name": "49a3e91ebad64b78b1eb217363405db5", "fusion_lon": 0.0, "bike_id": "49a3e91ebad64b78b1eb217363405db5", "is_disabled": 0, "is_reserved": 0}, {"rental_uris": {"ios": "https://dc.lft.to/lastmile_qr_scan", "android": "https://dc.lft.to/lastmile_qr_scan"}, "lon": -77.03653083333333, "type": "electric_scooter", "fusion_lat": 0.0, "lat": 38.907976833333336, "name": "da2e1b0eb6756846de30a673958c3680", "fusion_lon": 0.0, "bike_id": "da2e1b0eb6756846de30a673958c3680", "is_disabled": 0, "is_reserved": 0}, {"rental_uris": {"ios": "https://dc.lft.to/lastmile_qr_scan", "android": "https://dc.lft.to/lastmile_qr_scan"}, "lon": -76.94839983333334, "type": "electric_scooter", "fusion_lat": 0.0, "lat": 38.894862833333335, "name": "6e07698a421453eb59cc2edede4de8f4", "fusion_lon": 0.0, "bike_id": "6e07698a421453eb59cc2edede4de8f4", "is_disabled": 0, "is_reserved": 0}, {"rental_uris": {"ios": "https://dc.lft.to/lastmile_qr_scan", "android": "https://dc.lft.to/lastmile_qr_scan"}, "lon": -76.93175066666667, "type": "electric_scooter", "fusion_lat": 0.0, "lat": 38.898850833333334, "name": "102d060399e212aab4cd2a55fdb503ae", "fusion_lon": 0.0, "bike_id": "102d060399e212aab4cd2a55fdb503ae", "is_disabled": 0, "is_reserved": 0}, {"rental_uris": {"ios": "https://dc.lft.to/lastmile_qr_scan", "android": "https://dc.lft.to/lastmile_qr_scan"}, "lon": -76.9485485, "type": "electric_scooter", "fusion_lat": 0.0, "lat": 38.883014833333334, "name": "4973c17689ddd399e1b8dbda1c154b8c", "fusion_lon": 0.0, "bike_id": "4973c17689ddd399e1b8dbda1c154b8c", "is_disabled": 0, "is_reserved": 0}, {"rental_uris": {"ios": "https://dc.lft.to/lastmile_qr_scan", "android": "https://dc.lft.to/lastmile_qr_scan"}, "lon": -77.028298, "type": "electric_scooter", "fusion_lat": 0.0, "lat": 38.912588166666666, "name": "5e8bf3829fb38ae961496ac97584d03a", "fusion_lon": 0.0, "bike_id": "5e8bf3829fb38ae961496ac97584d03a", "is_disabled": 0, "is_reserved": 0}, {"rental_uris": {"ios": "https://dc.lft.to/lastmile_qr_scan", "android": "https://dc.lft.to/lastmile_qr_scan"}, "lon": -77.04093916666666, "type": "electric_scooter", "fusion_lat": 0.0, "lat": 38.90520683333333, "name": "b1dd074209b0d3df46256fdc4bdf61d6", "fusion_lon": 0.0, "bike_id": "b1dd074209b0d3df46256fdc4bdf61d6", "is_disabled": 0, "is_reserved": 0}, {"rental_uris": {"ios": "https://dc.lft.to/lastmile_qr_scan", "android": "https://dc.lft.to/lastmile_qr_scan"}, "lon": -77.1070485, "type": "electric_bike", "fusion_lat": 0.0, "lat": 38.85530766666667, "name": "524a464f000eff1f4541027080e2963d", "fusion_lon": 0.0, "bike_id": "524a464f000eff1f4541027080e2963d", "is_disabled": 0, "is_reserved": 0}, {"rental_uris": {"ios": "https://dc.lft.to/lastmile_qr_scan", "android": "https://dc.lft.to/lastmile_qr_scan"}, "lon": -77.03353666666666, "type": "electric_scooter", "fusion_lat": 0.0, "lat": 38.88507666666667, "name": "be7741cbfa6d4a1ce995f029af73b212", "fusion_lon": 0.0, "bike_id": "be7741cbfa6d4a1ce995f029af73b212", "is_disabled": 0, "is_reserved": 0}, {"rental_uris": {"ios": "https://dc.lft.to/lastmile_qr_scan", "android": "https://dc.lft.to/lastmile_qr_scan"}, "lon": -77.03212066666667, "type": "electric_scooter", "fusion_lat": 0.0, "lat": 38.91156316666667, "name": "6ea7fcc74592f8629b5dc2da39808967", "fusion_lon": 0.0, "bike_id": "6ea7fcc74592f8629b5dc2da39808967", "is_disabled": 0, "is_reserved": 0}, {"rental_uris": {"ios": "https://dc.lft.to/lastmile_qr_scan", "android": "https://dc.lft.to/lastmile_qr_scan"}, "lon": -76.9926865, "type": "electric_scooter", "fusion_lat": 0.0, "lat": 38.89689716666667, "name": "e3de54d1c3dae9815c45cf9c2add76ce", "fusion_lon": 0.0, "bike_id": "e3de54d1c3dae9815c45cf9c2add76ce", "is_disabled": 0, "is_reserved": 0}, {"rental_uris": {"ios": "https://dc.lft.to/lastmile_qr_scan", "android": "https://dc.lft.to/lastmile_qr_scan"}, "lon": -77.0233135, "type": "electric_scooter", "fusion_lat": 0.0, "lat": 38.928903, "name": "989496d100fc9a02d6e80d99c163cd74", "fusion_lon": 0.0, "bike_id": "989496d100fc9a02d6e80d99c163cd74", "is_disabled": 0, "is_reserved": 0}, {"rental_uris": {"ios": "https://dc.lft.to/lastmile_qr_scan", "android": "https://dc.lft.to/lastmile_qr_scan"}, "lon": -76.99591566666666, "type": "electric_scooter", "fusion_lat": 0.0, "lat": 38.92229583333334, "name": "b00884812f2165ea03c1c7a325833733", "fusion_lon": 0.0, "bike_id": "b00884812f2165ea03c1c7a325833733", "is_disabled": 0, "is_reserved": 0}, {"rental_uris": {"ios": "https://dc.lft.to/lastmile_qr_scan", "android": "https://dc.lft.to/lastmile_qr_scan"}, "lon": -77.00032716666666, "type": "electric_scooter", "fusion_lat": 0.0, "lat": 38.87398316666667, "name": "7cacc71f0f41ff3616aa654d524d2e04", "fusion_lon": 0.0, "bike_id": "7cacc71f0f41ff3616aa654d524d2e04", "is_disabled": 0, "is_reserved": 0}, {"rental_uris": {"ios": "https://dc.lft.to/lastmile_qr_scan", "android": "https://dc.lft.to/lastmile_qr_scan"}, "lon": -77.0297595, "type": "electric_scooter", "fusion_lat": 0.0, "lat": 38.94049366666667, "name": "64a9498dd1012ff64626e9a4e81a94d2", "fusion_lon": 0.0, "bike_id": "64a9498dd1012ff64626e9a4e81a94d2", "is_disabled": 0, "is_reserved": 0}, {"rental_uris": {"ios": "https://dc.lft.to/lastmile_qr_scan", "android": "https://dc.lft.to/lastmile_qr_scan"}, "lon": -77.1412005, "type": "electric_bike", "fusion_lat": 0.0, "lat": 38.81605783333333, "name": "57abf3532df3044ee272e8ea69db275b", "fusion_lon": 0.0, "bike_id": "57abf3532df3044ee272e8ea69db275b", "is_disabled": 0, "is_reserved": 0}, {"rental_uris": {"ios": "https://dc.lft.to/lastmile_qr_scan", "android": "https://dc.lft.to/lastmile_qr_scan"}, "lon": -77.00681983333334, "type": "electric_scooter", "fusion_lat": 0.0, "lat": 38.874716666666664, "name": "e7af617c0a1ec782d7ff185ba86a2754", "fusion_lon": 0.0, "bike_id": "e7af617c0a1ec782d7ff185ba86a2754", "is_disabled": 0, "is_reserved": 0}, {"rental_uris": {"ios": "https://dc.lft.to/lastmile_qr_scan", "android": "https://dc.lft.to/lastmile_qr_scan"}, "lon": -77.05940566666666, "type": "electric_bike", "fusion_lat": 0.0, "lat": 38.904278833333336, "name": "5d1445ac1e912abeccabb80caac2dc9e", "fusion_lon": 0.0, "bike_id": "5d1445ac1e912abeccabb80caac2dc9e", "is_disabled": 0, "is_reserved": 0}, {"rental_uris": {"ios": "https://dc.lft.to/lastmile_qr_scan", "android": "https://dc.lft.to/lastmile_qr_scan"}, "lon": -77.0393155, "type": "electric_scooter", "fusion_lat": 0.0, "lat": 38.92621366666667, "name": "d3b79c99f090a8747d7934cd3f848b02", "fusion_lon": 0.0, "bike_id": "d3b79c99f090a8747d7934cd3f848b02", "is_disabled": 0, "is_reserved": 0}, {"rental_uris": {"ios": "https://dc.lft.to/lastmile_qr_scan", "android": "https://dc.lft.to/lastmile_qr_scan"}, "lon": -77.00798066666667, "type": "electric_bike", "fusion_lat": 0.0, "lat": 38.9492435, "name": "cc00132e97d5c419661233c893ce3efd", "fusion_lon": 0.0, "bike_id": "cc00132e97d5c419661233c893ce3efd", "is_disabled": 0, "is_reserved": 0}, {"rental_uris": {"ios": "https://dc.lft.to/lastmile_qr_scan", "android": "https://dc.lft.to/lastmile_qr_scan"}, "lon": -77.02760016666667, "type": "electric_scooter", "fusion_lat": 0.0, "lat": 38.8920005, "name": "eb3857f80cdcc13bf1b0435d4e6d60dd", "fusion_lon": 0.0, "bike_id": "eb3857f80cdcc13bf1b0435d4e6d60dd", "is_disabled": 0, "is_reserved": 0}, {"rental_uris": {"ios": "https://dc.lft.to/lastmile_qr_scan", "android": "https://dc.lft.to/lastmile_qr_scan"}, "lon": -77.03855516666667, "type": "electric_scooter", "fusion_lat": 0.0, "lat": 38.90377766666667, "name": "6722137b3823ca1aa93830a27dfca2e9", "fusion_lon": 0.0, "bike_id": "6722137b3823ca1aa93830a27dfca2e9", "is_disabled": 0, "is_reserved": 0}, {"rental_uris": {"ios": "https://dc.lft.to/lastmile_qr_scan", "android": "https://dc.lft.to/lastmile_qr_scan"}, "lon": -77.03928316666666, "type": "electric_scooter", "fusion_lat": 0.0, "lat": 38.91753833333333, "name": "7c9c37a7369e1bca5692b536a7f6aed0", "fusion_lon": 0.0, "bike_id": "7c9c37a7369e1bca5692b536a7f6aed0", "is_disabled": 0, "is_reserved": 0}, {"rental_uris": {"ios": "https://dc.lft.to/lastmile_qr_scan", "android": "https://dc.lft.to/lastmile_qr_scan"}, "lon": -77.03451966666667, "type": "electric_scooter", "fusion_lat": 0.0, "lat": 38.9057635, "name": "c3b9b603ae7d948e0a477a4116146b22", "fusion_lon": 0.0, "bike_id": "c3b9b603ae7d948e0a477a4116146b22", "is_disabled": 0, "is_reserved": 0}, {"rental_uris": {"ios": "https://dc.lft.to/lastmile_qr_scan", "android": "https://dc.lft.to/lastmile_qr_scan"}, "lon": -77.04633933333334, "type": "electric_scooter", "fusion_lat": 0.0, "lat": 38.892252166666665, "name": "9e19b0fd45858207bfe2cecae1c24984", "fusion_lon": 0.0, "bike_id": "9e19b0fd45858207bfe2cecae1c24984", "is_disabled": 0, "is_reserved": 0}, {"rental_uris": {"ios": "https://dc.lft.to/lastmile_qr_scan", "android": "https://dc.lft.to/lastmile_qr_scan"}, "lon": -77.04648816666666, "type": "electric_scooter", "fusion_lat": 0.0, "lat": 38.89646666666667, "name": "e9db0fc7c295f148bf6f9a3d050fa5af", "fusion_lon": 0.0, "bike_id": "e9db0fc7c295f148bf6f9a3d050fa5af", "is_disabled": 0, "is_reserved": 0}, {"rental_uris": {"ios": "https://dc.lft.to/lastmile_qr_scan", "android": "https://dc.lft.to/lastmile_qr_scan"}, "lon": -76.98367433333334, "type": "electric_scooter", "fusion_lat": 0.0, "lat": 38.860308333333336, "name": "a43c8ed2c0fdcea13a4b3e3f24f61acc", "fusion_lon": 0.0, "bike_id": "a43c8ed2c0fdcea13a4b3e3f24f61acc", "is_disabled": 0, "is_reserved": 0}, {"rental_uris": {"ios": "https://dc.lft.to/lastmile_qr_scan", "android": "https://dc.lft.to/lastmile_qr_scan"}, "lon": -77.04028166666667, "type": "electric_bike", "fusion_lat": 0.0, "lat": 38.80429483333333, "name": "0d45f55e65ac80cd26a17b377091d80e", "fusion_lon": 0.0, "bike_id": "0d45f55e65ac80cd26a17b377091d80e", "is_disabled": 0, "is_reserved": 0}, {"rental_uris": {"ios": "https://dc.lft.to/lastmile_qr_scan", "android": "https://dc.lft.to/lastmile_qr_scan"}, "lon": -76.97499666666667, "type": "electric_bike", "fusion_lat": 0.0, "lat": 38.919366333333336, "name": "1ecccacf77d2b7dc393d8375c3f898cd", "fusion_lon": 0.0, "bike_id": "1ecccacf77d2b7dc393d8375c3f898cd", "is_disabled": 0, "is_reserved": 0}, {"rental_uris": {"ios": "https://dc.lft.to/lastmile_qr_scan", "android": "https://dc.lft.to/lastmile_qr_scan"}, "lon": -76.973233, "type": "electric_scooter", "fusion_lat": 0.0, "lat": 38.93031916666666, "name": "ea4aaf24e27ba52c09098635ef841a67", "fusion_lon": 0.0, "bike_id": "ea4aaf24e27ba52c09098635ef841a67", "is_disabled": 0, "is_reserved": 0}, {"rental_uris": {"ios": "https://dc.lft.to/lastmile_qr_scan", "android": "https://dc.lft.to/lastmile_qr_scan"}, "lon": -77.042956, "type": "electric_scooter", "fusion_lat": 0.0, "lat": 38.90854566666667, "name": "1f7264e2952bf0fd21670f7ef8b9e711", "fusion_lon": 0.0, "bike_id": "1f7264e2952bf0fd21670f7ef8b9e711", "is_disabled": 0, "is_reserved": 0}, {"rental_uris": {"ios": "https://dc.lft.to/lastmile_qr_scan", "android": "https://dc.lft.to/lastmile_qr_scan"}, "lon": -76.97560916666667, "type": "electric_scooter", "fusion_lat": 0.0, "lat": 38.90448516666667, "name": "196e2a851a517f9fa663351defa411b9", "fusion_lon": 0.0, "bike_id": "196e2a851a517f9fa663351defa411b9", "is_disabled": 0, "is_reserved": 0}, {"rental_uris": {"ios": "https://dc.lft.to/lastmile_qr_scan", "android": "https://dc.lft.to/lastmile_qr_scan"}, "lon": -76.99606616666667, "type": "electric_scooter", "fusion_lat": 0.0, "lat": 38.88624766666667, "name": "f84e12a7f45679351f60f3f2fcb21011", "fusion_lon": 0.0, "bike_id": "f84e12a7f45679351f60f3f2fcb21011", "is_disabled": 0, "is_reserved": 0}, {"rental_uris": {"ios": "https://dc.lft.to/lastmile_qr_scan", "android": "https://dc.lft.to/lastmile_qr_scan"}, "lon": -77.04489183333334, "type": "electric_scooter", "fusion_lat": 0.0, "lat": 38.915249, "name": "5f53ae05df9b925358967282cd269234", "fusion_lon": 0.0, "bike_id": "5f53ae05df9b925358967282cd269234", "is_disabled": 0, "is_reserved": 0}, {"rental_uris": {"ios": "https://dc.lft.to/lastmile_qr_scan", "android": "https://dc.lft.to/lastmile_qr_scan"}, "lon": -77.0109395, "type": "electric_scooter", "fusion_lat": 0.0, "lat": 38.915645833333336, "name": "f49af0c04f345fd5d3296a2dd0e9519c", "fusion_lon": 0.0, "bike_id": "f49af0c04f345fd5d3296a2dd0e9519c", "is_disabled": 0, "is_reserved": 0}, {"rental_uris": {"ios": "https://dc.lft.to/lastmile_qr_scan", "android": "https://dc.lft.to/lastmile_qr_scan"}, "lon": -76.98561266666667, "type": "electric_scooter", "fusion_lat": 0.0, "lat": 38.86150766666667, "name": "ae0d2b4a3ac10f0d1bf5f1e1a5c360d8", "fusion_lon": 0.0, "bike_id": "ae0d2b4a3ac10f0d1bf5f1e1a5c360d8", "is_disabled": 0, "is_reserved": 0}, {"rental_uris": {"ios": "https://dc.lft.to/lastmile_qr_scan", "android": "https://dc.lft.to/lastmile_qr_scan"}, "lon": -77.04318466666666, "type": "electric_scooter", "fusion_lat": 0.0, "lat": 38.92621783333333, "name": "9251cddd23ce8502d71299c4dd239797", "fusion_lon": 0.0, "bike_id": "9251cddd23ce8502d71299c4dd239797", "is_disabled": 0, "is_reserved": 0}, {"rental_uris": {"ios": "https://dc.lft.to/lastmile_qr_scan", "android": "https://dc.lft.to/lastmile_qr_scan"}, "lon": -77.0473575, "type": "electric_scooter", "fusion_lat": 0.0, "lat": 38.90722183333333, "name": "e871a47f1e7554055dd50543c18ec032", "fusion_lon": 0.0, "bike_id": "e871a47f1e7554055dd50543c18ec032", "is_disabled": 0, "is_reserved": 0}, {"rental_uris": {"ios": "https://dc.lft.to/lastmile_qr_scan", "android": "https://dc.lft.to/lastmile_qr_scan"}, "lon": -77.00778816666667, "type": "electric_scooter", "fusion_lat": 0.0, "lat": 38.90780133333333, "name": "6bc080f9e85de362b4a304d9ea1a82a1", "fusion_lon": 0.0, "bike_id": "6bc080f9e85de362b4a304d9ea1a82a1", "is_disabled": 0, "is_reserved": 0}, {"rental_uris": {"ios": "https://dc.lft.to/lastmile_qr_scan", "android": "https://dc.lft.to/lastmile_qr_scan"}, "lon": -77.00898433333333, "type": "electric_scooter", "fusion_lat": 0.0, "lat": 38.92409383333333, "name": "5deed5535604bbd7ac1cc833443b96ef", "fusion_lon": 0.0, "bike_id": "5deed5535604bbd7ac1cc833443b96ef", "is_disabled": 0, "is_reserved": 0}, {"rental_uris": {"ios": "https://dc.lft.to/lastmile_qr_scan", "android": "https://dc.lft.to/lastmile_qr_scan"}, "lon": -77.06093616666666, "type": "electric_scooter", "fusion_lat": 0.0, "lat": 38.91222666666667, "name": "8fa8d3d4e38311ffb3cb6c332f69416b", "fusion_lon": 0.0, "bike_id": "8fa8d3d4e38311ffb3cb6c332f69416b", "is_disabled": 0, "is_reserved": 0}, {"rental_uris": {"ios": "https://dc.lft.to/lastmile_qr_scan", "android": "https://dc.lft.to/lastmile_qr_scan"}, "lon": -77.0060045, "type": "electric_scooter", "fusion_lat": 0.0, "lat": 38.90567183333334, "name": "7b86fd60fdb51231985b92cabefadda9", "fusion_lon": 0.0, "bike_id": "7b86fd60fdb51231985b92cabefadda9", "is_disabled": 0, "is_reserved": 0}, {"rental_uris": {"ios": "https://dc.lft.to/lastmile_qr_scan", "android": "https://dc.lft.to/lastmile_qr_scan"}, "lon": -76.9353335, "type": "electric_scooter", "fusion_lat": 0.0, "lat": 38.89685566666667, "name": "fb91ca14d5bdedc335df3b2a24ec9fa1", "fusion_lon": 0.0, "bike_id": "fb91ca14d5bdedc335df3b2a24ec9fa1", "is_disabled": 0, "is_reserved": 0}, {"rental_uris": {"ios": "https://dc.lft.to/lastmile_qr_scan", "android": "https://dc.lft.to/lastmile_qr_scan"}, "lon": -77.04542766666667, "type": "electric_scooter", "fusion_lat": 0.0, "lat": 38.9194025, "name": "212d363201db283602c8a442cf3d5477", "fusion_lon": 0.0, "bike_id": "212d363201db283602c8a442cf3d5477", "is_disabled": 0, "is_reserved": 0}, {"rental_uris": {"ios": "https://dc.lft.to/lastmile_qr_scan", "android": "https://dc.lft.to/lastmile_qr_scan"}, "lon": -77.02576933333333, "type": "electric_scooter", "fusion_lat": 0.0, "lat": 38.88406, "name": "0c39821d396193cc11fda1beb4ab227d", "fusion_lon": 0.0, "bike_id": "0c39821d396193cc11fda1beb4ab227d", "is_disabled": 0, "is_reserved": 0}, {"rental_uris": {"ios": "https://dc.lft.to/lastmile_qr_scan", "android": "https://dc.lft.to/lastmile_qr_scan"}, "lon": -77.05273083333333, "type": "electric_scooter", "fusion_lat": 0.0, "lat": 38.910246666666666, "name": "4aff0f8c0b713ff3577810cfdf2b9bf1", "fusion_lon": 0.0, "bike_id": "4aff0f8c0b713ff3577810cfdf2b9bf1", "is_disabled": 0, "is_reserved": 0}, {"rental_uris": {"ios": "https://dc.lft.to/lastmile_qr_scan", "android": "https://dc.lft.to/lastmile_qr_scan"}, "lon": -76.97331116666666, "type": "electric_bike", "fusion_lat": 0.0, "lat": 38.85063616666667, "name": "ad69f03c8ae14cd04b96849b90845b8d", "fusion_lon": 0.0, "bike_id": "ad69f03c8ae14cd04b96849b90845b8d", "is_disabled": 0, "is_reserved": 0}, {"rental_uris": {"ios": "https://dc.lft.to/lastmile_qr_scan", "android": "https://dc.lft.to/lastmile_qr_scan"}, "lon": -77.03187133333333, "type": "electric_scooter", "fusion_lat": 0.0, "lat": 38.917357, "name": "f9f51f46f8e07d6fa05f70507649abfe", "fusion_lon": 0.0, "bike_id": "f9f51f46f8e07d6fa05f70507649abfe", "is_disabled": 0, "is_reserved": 0}, {"rental_uris": {"ios": "https://dc.lft.to/lastmile_qr_scan", "android": "https://dc.lft.to/lastmile_qr_scan"}, "lon": -77.03969516666666, "type": "electric_scooter", "fusion_lat": 0.0, "lat": 38.902499166666665, "name": "651fd00c4de4f294f6d997b8ece395ab", "fusion_lon": 0.0, "bike_id": "651fd00c4de4f294f6d997b8ece395ab", "is_disabled": 0, "is_reserved": 0}, {"rental_uris": {"ios": "https://dc.lft.to/lastmile_qr_scan", "android": "https://dc.lft.to/lastmile_qr_scan"}, "lon": -77.00597816666667, "type": "electric_scooter", "fusion_lat": 0.0, "lat": 38.905647333333334, "name": "2cccf019b22170ac87a487411cff2bb5", "fusion_lon": 0.0, "bike_id": "2cccf019b22170ac87a487411cff2bb5", "is_disabled": 0, "is_reserved": 0}, {"rental_uris": {"ios": "https://dc.lft.to/lastmile_qr_scan", "android": "https://dc.lft.to/lastmile_qr_scan"}, "lon": -77.01963316666667, "type": "electric_scooter", "fusion_lat": 0.0, "lat": 38.87846116666667, "name": "7e25b4c5077a049dcceb590c5cd1b4f5", "fusion_lon": 0.0, "bike_id": "7e25b4c5077a049dcceb590c5cd1b4f5", "is_disabled": 0, "is_reserved": 0}, {"rental_uris": {"ios": "https://dc.lft.to/lastmile_qr_scan", "android": "https://dc.lft.to/lastmile_qr_scan"}, "lon": -77.04716783333333, "type": "electric_scooter", "fusion_lat": 0.0, "lat": 38.90963, "name": "25fe425e1eed015b0e4a730a199d51e6", "fusion_lon": 0.0, "bike_id": "25fe425e1eed015b0e4a730a199d51e6", "is_disabled": 0, "is_reserved": 0}, {"rental_uris": {"ios": "https://dc.lft.to/lastmile_qr_scan", "android": "https://dc.lft.to/lastmile_qr_scan"}, "lon": -77.071556, "type": "electric_scooter", "fusion_lat": 0.0, "lat": 38.90743616666666, "name": "7f5f17467dae8bb8e68aec091397abad", "fusion_lon": 0.0, "bike_id": "7f5f17467dae8bb8e68aec091397abad", "is_disabled": 0, "is_reserved": 0}, {"rental_uris": {"ios": "https://dc.lft.to/lastmile_qr_scan", "android": "https://dc.lft.to/lastmile_qr_scan"}, "lon": -77.0087125, "type": "electric_scooter", "fusion_lat": 0.0, "lat": 38.911773333333336, "name": "e0469f460d4e305d9b023fa1885173c3", "fusion_lon": 0.0, "bike_id": "e0469f460d4e305d9b023fa1885173c3", "is_disabled": 0, "is_reserved": 0}, {"rental_uris": {"ios": "https://dc.lft.to/lastmile_qr_scan", "android": "https://dc.lft.to/lastmile_qr_scan"}, "lon": -77.03442683333333, "type": "electric_scooter", "fusion_lat": 0.0, "lat": 38.918443333333336, "name": "37fa89028fdf1d60b4bbb097d654faf6", "fusion_lon": 0.0, "bike_id": "37fa89028fdf1d60b4bbb097d654faf6", "is_disabled": 0, "is_reserved": 0}, {"rental_uris": {"ios": "https://dc.lft.to/lastmile_qr_scan", "android": "https://dc.lft.to/lastmile_qr_scan"}, "lon": -76.93183266666666, "type": "electric_scooter", "fusion_lat": 0.0, "lat": 38.89876683333333, "name": "9e7fe6c8bab6cb1dc0148b4317fc75f3", "fusion_lon": 0.0, "bike_id": "9e7fe6c8bab6cb1dc0148b4317fc75f3", "is_disabled": 0, "is_reserved": 0}, {"rental_uris": {"ios": "https://dc.lft.to/lastmile_qr_scan", "android": "https://dc.lft.to/lastmile_qr_scan"}, "lon": -76.95199566666666, "type": "electric_bike", "fusion_lat": 0.0, "lat": 38.936681166666666, "name": "ea336661c3f79a53344cbb92271235a7", "fusion_lon": 0.0, "bike_id": "ea336661c3f79a53344cbb92271235a7", "is_disabled": 0, "is_reserved": 0}, {"rental_uris": {"ios": "https://dc.lft.to/lastmile_qr_scan", "android": "https://dc.lft.to/lastmile_qr_scan"}, "lon": -77.024681, "type": "electric_scooter", "fusion_lat": 0.0, "lat": 38.897157, "name": "4022dbcb61892bac9d339382c5c23d3c", "fusion_lon": 0.0, "bike_id": "4022dbcb61892bac9d339382c5c23d3c", "is_disabled": 0, "is_reserved": 0}, {"rental_uris": {"ios": "https://dc.lft.to/lastmile_qr_scan", "android": "https://dc.lft.to/lastmile_qr_scan"}, "lon": -77.02504466666667, "type": "electric_scooter", "fusion_lat": 0.0, "lat": 38.907235, "name": "8f8b28f0d417893b21ebc12e938c9b74", "fusion_lon": 0.0, "bike_id": "8f8b28f0d417893b21ebc12e938c9b74", "is_disabled": 0, "is_reserved": 0}, {"rental_uris": {"ios": "https://dc.lft.to/lastmile_qr_scan", "android": "https://dc.lft.to/lastmile_qr_scan"}, "lon": -77.02558433333333, "type": "electric_scooter", "fusion_lat": 0.0, "lat": 38.939808, "name": "430a86995ec3807c301cea071ab9337f", "fusion_lon": 0.0, "bike_id": "430a86995ec3807c301cea071ab9337f", "is_disabled": 0, "is_reserved": 0}, {"rental_uris": {"ios": "https://dc.lft.to/lastmile_qr_scan", "android": "https://dc.lft.to/lastmile_qr_scan"}, "lon": -77.03212433333333, "type": "electric_scooter", "fusion_lat": 0.0, "lat": 38.907802, "name": "0229adac876fa6c2d9a37240f39ea5eb", "fusion_lon": 0.0, "bike_id": "0229adac876fa6c2d9a37240f39ea5eb", "is_disabled": 0, "is_reserved": 0}, {"rental_uris": {"ios": "https://dc.lft.to/lastmile_qr_scan", "android": "https://dc.lft.to/lastmile_qr_scan"}, "lon": -77.04478133333333, "type": "electric_scooter", "fusion_lat": 0.0, "lat": 38.90562233333333, "name": "9ddc7ce30ed5453f7bbaffb940ea0fcb", "fusion_lon": 0.0, "bike_id": "9ddc7ce30ed5453f7bbaffb940ea0fcb", "is_disabled": 0, "is_reserved": 0}, {"rental_uris": {"ios": "https://dc.lft.to/lastmile_qr_scan", "android": "https://dc.lft.to/lastmile_qr_scan"}, "lon": -77.03848983333333, "type": "electric_scooter", "fusion_lat": 0.0, "lat": 38.91344183333333, "name": "c561c4fe95dcd2010e4b8afe898ebfc0", "fusion_lon": 0.0, "bike_id": "c561c4fe95dcd2010e4b8afe898ebfc0", "is_disabled": 0, "is_reserved": 0}, {"rental_uris": {"ios": "https://dc.lft.to/lastmile_qr_scan", "android": "https://dc.lft.to/lastmile_qr_scan"}, "lon": -76.9897865, "type": "electric_scooter", "fusion_lat": 0.0, "lat": 38.890481333333334, "name": "082c6562ff1248de5dd892011d04ecf3", "fusion_lon": 0.0, "bike_id": "082c6562ff1248de5dd892011d04ecf3", "is_disabled": 0, "is_reserved": 0}, {"rental_uris": {"ios": "https://dc.lft.to/lastmile_qr_scan", "android": "https://dc.lft.to/lastmile_qr_scan"}, "lon": -76.96492333333333, "type": "electric_bike", "fusion_lat": 0.0, "lat": 38.87551, "name": "8a17a2e212eb00f6d7d1fc11efba0848", "fusion_lon": 0.0, "bike_id": "8a17a2e212eb00f6d7d1fc11efba0848", "is_disabled": 0, "is_reserved": 0}, {"rental_uris": {"ios": "https://dc.lft.to/lastmile_qr_scan", "android": "https://dc.lft.to/lastmile_qr_scan"}, "lon": -77.03876216666667, "type": "electric_scooter", "fusion_lat": 0.0, "lat": 38.923117166666664, "name": "87c92817bf6483b23918e5edb769fbaa", "fusion_lon": 0.0, "bike_id": "87c92817bf6483b23918e5edb769fbaa", "is_disabled": 0, "is_reserved": 0}, {"rental_uris": {"ios": "https://dc.lft.to/lastmile_qr_scan", "android": "https://dc.lft.to/lastmile_qr_scan"}, "lon": -77.0512105, "type": "electric_scooter", "fusion_lat": 0.0, "lat": 38.92358516666667, "name": "4907c225400ad57b6c03dd41041da0d9", "fusion_lon": 0.0, "bike_id": "4907c225400ad57b6c03dd41041da0d9", "is_disabled": 0, "is_reserved": 0}, {"rental_uris": {"ios": "https://dc.lft.to/lastmile_qr_scan", "android": "https://dc.lft.to/lastmile_qr_scan"}, "lon": -77.02281383333333, "type": "electric_scooter", "fusion_lat": 0.0, "lat": 38.909614166666664, "name": "bf4fb88be962a4e032e7f01291bef0fb", "fusion_lon": 0.0, "bike_id": "bf4fb88be962a4e032e7f01291bef0fb", "is_disabled": 0, "is_reserved": 0}, {"rental_uris": {"ios": "https://dc.lft.to/lastmile_qr_scan", "android": "https://dc.lft.to/lastmile_qr_scan"}, "lon": -77.00131933333333, "type": "electric_scooter", "fusion_lat": 0.0, "lat": 38.90411533333334, "name": "e4747f4bd222bd29aabc728f391a0efb", "fusion_lon": 0.0, "bike_id": "e4747f4bd222bd29aabc728f391a0efb", "is_disabled": 0, "is_reserved": 0}, {"rental_uris": {"ios": "https://dc.lft.to/lastmile_qr_scan", "android": "https://dc.lft.to/lastmile_qr_scan"}, "lon": -77.017457, "type": "electric_scooter", "fusion_lat": 0.0, "lat": 38.90561066666667, "name": "7476d8cd457fb6ad9e869dfce02f066c", "fusion_lon": 0.0, "bike_id": "7476d8cd457fb6ad9e869dfce02f066c", "is_disabled": 0, "is_reserved": 0}, {"rental_uris": {"ios": "https://dc.lft.to/lastmile_qr_scan", "android": "https://dc.lft.to/lastmile_qr_scan"}, "lon": -77.017487, "type": "electric_scooter", "fusion_lat": 0.0, "lat": 38.877331, "name": "899bd7cc2edcadd9600e2a2e91923b42", "fusion_lon": 0.0, "bike_id": "899bd7cc2edcadd9600e2a2e91923b42", "is_disabled": 0, "is_reserved": 0}, {"rental_uris": {"ios": "https://dc.lft.to/lastmile_qr_scan", "android": "https://dc.lft.to/lastmile_qr_scan"}, "lon": -77.03855616666667, "type": "electric_scooter", "fusion_lat": 0.0, "lat": 38.90820183333334, "name": "300f7560411669510c9cbca04c49ca4b", "fusion_lon": 0.0, "bike_id": "300f7560411669510c9cbca04c49ca4b", "is_disabled": 0, "is_reserved": 0}, {"rental_uris": {"ios": "https://dc.lft.to/lastmile_qr_scan", "android": "https://dc.lft.to/lastmile_qr_scan"}, "lon": -77.03620316666667, "type": "electric_scooter", "fusion_lat": 0.0, "lat": 38.937422166666664, "name": "7d4648b1bef3d2f05abe68cb02065609", "fusion_lon": 0.0, "bike_id": "7d4648b1bef3d2f05abe68cb02065609", "is_disabled": 0, "is_reserved": 0}, {"rental_uris": {"ios": "https://dc.lft.to/lastmile_qr_scan", "android": "https://dc.lft.to/lastmile_qr_scan"}, "lon": -77.06345633333333, "type": "electric_scooter", "fusion_lat": 0.0, "lat": 38.944514166666664, "name": "a587088b58fb61429b3f399adf14cb64", "fusion_lon": 0.0, "bike_id": "a587088b58fb61429b3f399adf14cb64", "is_disabled": 0, "is_reserved": 0}, {"rental_uris": {"ios": "https://dc.lft.to/lastmile_qr_scan", "android": "https://dc.lft.to/lastmile_qr_scan"}, "lon": -77.01861783333334, "type": "electric_scooter", "fusion_lat": 0.0, "lat": 38.89263033333334, "name": "e650d86667d5049c283a6003ade505e3", "fusion_lon": 0.0, "bike_id": "e650d86667d5049c283a6003ade505e3", "is_disabled": 0, "is_reserved": 0}, {"rental_uris": {"ios": "https://dc.lft.to/lastmile_qr_scan", "android": "https://dc.lft.to/lastmile_qr_scan"}, "lon": -77.02550766666667, "type": "electric_scooter", "fusion_lat": 0.0, "lat": 38.89229983333333, "name": "3b96ce28da3e4c9b3a2a03e21dc0b401", "fusion_lon": 0.0, "bike_id": "3b96ce28da3e4c9b3a2a03e21dc0b401", "is_disabled": 0, "is_reserved": 0}, {"rental_uris": {"ios": "https://dc.lft.to/lastmile_qr_scan", "android": "https://dc.lft.to/lastmile_qr_scan"}, "lon": -77.063805, "type": "electric_scooter", "fusion_lat": 0.0, "lat": 38.905047833333334, "name": "29e15634af910481fa2d2b8935153a40", "fusion_lon": 0.0, "bike_id": "29e15634af910481fa2d2b8935153a40", "is_disabled": 0, "is_reserved": 0}, {"rental_uris": {"ios": "https://dc.lft.to/lastmile_qr_scan", "android": "https://dc.lft.to/lastmile_qr_scan"}, "lon": -77.00466766666666, "type": "electric_scooter", "fusion_lat": 0.0, "lat": 38.9118225, "name": "57d3d01f88389d9e3950994c05750308", "fusion_lon": 0.0, "bike_id": "57d3d01f88389d9e3950994c05750308", "is_disabled": 0, "is_reserved": 0}, {"rental_uris": {"ios": "https://dc.lft.to/lastmile_qr_scan", "android": "https://dc.lft.to/lastmile_qr_scan"}, "lon": -77.04852966666667, "type": "electric_scooter", "fusion_lat": 0.0, "lat": 38.919624666666664, "name": "c8dad814848a4cdf4793694740082f71", "fusion_lon": 0.0, "bike_id": "c8dad814848a4cdf4793694740082f71", "is_disabled": 0, "is_reserved": 0}, {"rental_uris": {"ios": "https://dc.lft.to/lastmile_qr_scan", "android": "https://dc.lft.to/lastmile_qr_scan"}, "lon": -77.00247516666667, "type": "electric_bike", "fusion_lat": 0.0, "lat": 38.911811666666665, "name": "e14fab2c0e59a3c88da42aab7b4f1d7d", "fusion_lon": 0.0, "bike_id": "e14fab2c0e59a3c88da42aab7b4f1d7d", "is_disabled": 0, "is_reserved": 0}, {"rental_uris": {"ios": "https://dc.lft.to/lastmile_qr_scan", "android": "https://dc.lft.to/lastmile_qr_scan"}, "lon": -77.03309833333333, "type": "electric_scooter", "fusion_lat": 0.0, "lat": 38.901537833333336, "name": "5ba151d60cf307d0cf864b9a4d711caf", "fusion_lon": 0.0, "bike_id": "5ba151d60cf307d0cf864b9a4d711caf", "is_disabled": 0, "is_reserved": 0}, {"rental_uris": {"ios": "https://dc.lft.to/lastmile_qr_scan", "android": "https://dc.lft.to/lastmile_qr_scan"}, "lon": -77.18286583333334, "type": "electric_bike", "fusion_lat": 0.0, "lat": 38.88345366666667, "name": "00e0cdb6c33afc2358d285416073d4f6", "fusion_lon": 0.0, "bike_id": "00e0cdb6c33afc2358d285416073d4f6", "is_disabled": 0, "is_reserved": 0}, {"rental_uris": {"ios": "https://dc.lft.to/lastmile_qr_scan", "android": "https://dc.lft.to/lastmile_qr_scan"}, "lon": -77.03974483333333, "type": "electric_scooter", "fusion_lat": 0.0, "lat": 38.900210333333334, "name": "3cb660d2717de18fc4eee4c987e24198", "fusion_lon": 0.0, "bike_id": "3cb660d2717de18fc4eee4c987e24198", "is_disabled": 0, "is_reserved": 0}, {"rental_uris": {"ios": "https://dc.lft.to/lastmile_qr_scan", "android": "https://dc.lft.to/lastmile_qr_scan"}, "lon": -76.97817433333333, "type": "electric_scooter", "fusion_lat": 0.0, "lat": 38.8952275, "name": "04e0dfbefb2b82b02f84d2f4631b65d7", "fusion_lon": 0.0, "bike_id": "04e0dfbefb2b82b02f84d2f4631b65d7", "is_disabled": 0, "is_reserved": 0}, {"rental_uris": {"ios": "https://dc.lft.to/lastmile_qr_scan", "android": "https://dc.lft.to/lastmile_qr_scan"}, "lon": -76.99019266666667, "type": "electric_scooter", "fusion_lat": 0.0, "lat": 38.858697, "name": "a4d8d1a56e2fc2a68a330a9d7c6c29cc", "fusion_lon": 0.0, "bike_id": "a4d8d1a56e2fc2a68a330a9d7c6c29cc", "is_disabled": 0, "is_reserved": 0}, {"rental_uris": {"ios": "https://dc.lft.to/lastmile_qr_scan", "android": "https://dc.lft.to/lastmile_qr_scan"}, "lon": -77.02964083333333, "type": "electric_scooter", "fusion_lat": 0.0, "lat": 38.907843166666666, "name": "faae3db0c6825879e4f7d4546ec4dd0b", "fusion_lon": 0.0, "bike_id": "faae3db0c6825879e4f7d4546ec4dd0b", "is_disabled": 0, "is_reserved": 0}, {"rental_uris": {"ios": "https://dc.lft.to/lastmile_qr_scan", "android": "https://dc.lft.to/lastmile_qr_scan"}, "lon": -77.005914, "type": "electric_scooter", "fusion_lat": 0.0, "lat": 38.91558666666667, "name": "703b7cbe57e656a679828496a931a929", "fusion_lon": 0.0, "bike_id": "703b7cbe57e656a679828496a931a929", "is_disabled": 0, "is_reserved": 0}, {"rental_uris": {"ios": "https://dc.lft.to/lastmile_qr_scan", "android": "https://dc.lft.to/lastmile_qr_scan"}, "lon": -77.02843016666667, "type": "electric_scooter", "fusion_lat": 0.0, "lat": 38.93074983333333, "name": "3314e2899d502b28181e82df2c817184", "fusion_lon": 0.0, "bike_id": "3314e2899d502b28181e82df2c817184", "is_disabled": 0, "is_reserved": 0}, {"rental_uris": {"ios": "https://dc.lft.to/lastmile_qr_scan", "android": "https://dc.lft.to/lastmile_qr_scan"}, "lon": -77.04218416666667, "type": "electric_scooter", "fusion_lat": 0.0, "lat": 38.907567, "name": "0edb551a668d0e5f5dbd468753ec95ee", "fusion_lon": 0.0, "bike_id": "0edb551a668d0e5f5dbd468753ec95ee", "is_disabled": 0, "is_reserved": 0}, {"rental_uris": {"ios": "https://dc.lft.to/lastmile_qr_scan", "android": "https://dc.lft.to/lastmile_qr_scan"}, "lon": -77.04380266666666, "type": "electric_scooter", "fusion_lat": 0.0, "lat": 38.929471666666664, "name": "54183595a36f154b50a9c014f18ebe60", "fusion_lon": 0.0, "bike_id": "54183595a36f154b50a9c014f18ebe60", "is_disabled": 0, "is_reserved": 0}, {"rental_uris": {"ios": "https://dc.lft.to/lastmile_qr_scan", "android": "https://dc.lft.to/lastmile_qr_scan"}, "lon": -77.1249705, "type": "electric_bike", "fusion_lat": 0.0, "lat": 39.02423916666667, "name": "c06ddac63fcaa22ed53cd969340451bc", "fusion_lon": 0.0, "bike_id": "c06ddac63fcaa22ed53cd969340451bc", "is_disabled": 0, "is_reserved": 0}, {"rental_uris": {"ios": "https://dc.lft.to/lastmile_qr_scan", "android": "https://dc.lft.to/lastmile_qr_scan"}, "lon": -77.03077383333333, "type": "electric_scooter", "fusion_lat": 0.0, "lat": 38.922399666666664, "name": "0e67458a9f87847a2d3d34d1ef3e1c93", "fusion_lon": 0.0, "bike_id": "0e67458a9f87847a2d3d34d1ef3e1c93", "is_disabled": 0, "is_reserved": 0}, {"rental_uris": {"ios": "https://dc.lft.to/lastmile_qr_scan", "android": "https://dc.lft.to/lastmile_qr_scan"}, "lon": -77.03010033333334, "type": "electric_scooter", "fusion_lat": 0.0, "lat": 38.91931683333333, "name": "631e0fa2f56806d7c64280fa0570855c", "fusion_lon": 0.0, "bike_id": "631e0fa2f56806d7c64280fa0570855c", "is_disabled": 0, "is_reserved": 0}, {"rental_uris": {"ios": "https://dc.lft.to/lastmile_qr_scan", "android": "https://dc.lft.to/lastmile_qr_scan"}, "lon": -77.22209666666667, "type": "electric_bike", "fusion_lat": 0.0, "lat": 38.9208235, "name": "4008dfbfed8f4b476516e77b13d3b31c", "fusion_lon": 0.0, "bike_id": "4008dfbfed8f4b476516e77b13d3b31c", "is_disabled": 0, "is_reserved": 0}, {"rental_uris": {"ios": "https://dc.lft.to/lastmile_qr_scan", "android": "https://dc.lft.to/lastmile_qr_scan"}, "lon": -77.02289733333333, "type": "electric_scooter", "fusion_lat": 0.0, "lat": 38.91570816666667, "name": "ce5215117e6e77f2d616116e4dccd20d", "fusion_lon": 0.0, "bike_id": "ce5215117e6e77f2d616116e4dccd20d", "is_disabled": 0, "is_reserved": 0}, {"rental_uris": {"ios": "https://dc.lft.to/lastmile_qr_scan", "android": "https://dc.lft.to/lastmile_qr_scan"}, "lon": -77.0070135, "type": "electric_scooter", "fusion_lat": 0.0, "lat": 38.905959833333334, "name": "fc786763b926a0c254542ed55b238189", "fusion_lon": 0.0, "bike_id": "fc786763b926a0c254542ed55b238189", "is_disabled": 0, "is_reserved": 0}, {"rental_uris": {"ios": "https://dc.lft.to/lastmile_qr_scan", "android": "https://dc.lft.to/lastmile_qr_scan"}, "lon": -77.03894483333333, "type": "electric_scooter", "fusion_lat": 0.0, "lat": 38.923326, "name": "127a826270e7946089d3bfa7dd9e0110", "fusion_lon": 0.0, "bike_id": "127a826270e7946089d3bfa7dd9e0110", "is_disabled": 0, "is_reserved": 0}, {"rental_uris": {"ios": "https://dc.lft.to/lastmile_qr_scan", "android": "https://dc.lft.to/lastmile_qr_scan"}, "lon": -77.0234065, "type": "electric_scooter", "fusion_lat": 0.0, "lat": 38.96209433333333, "name": "dc162cf956c1acffe7adcd374165a177", "fusion_lon": 0.0, "bike_id": "dc162cf956c1acffe7adcd374165a177", "is_disabled": 0, "is_reserved": 0}, {"rental_uris": {"ios": "https://dc.lft.to/lastmile_qr_scan", "android": "https://dc.lft.to/lastmile_qr_scan"}, "lon": -77.0200425, "type": "electric_scooter", "fusion_lat": 0.0, "lat": 38.90262933333333, "name": "057b007633b7337b789d0395cb63b373", "fusion_lon": 0.0, "bike_id": "057b007633b7337b789d0395cb63b373", "is_disabled": 0, "is_reserved": 0}, {"rental_uris": {"ios": "https://dc.lft.to/lastmile_qr_scan", "android": "https://dc.lft.to/lastmile_qr_scan"}, "lon": -77.053089, "type": "electric_scooter", "fusion_lat": 0.0, "lat": 38.92782966666667, "name": "6b43e8eef01043915a6f2d9120570eca", "fusion_lon": 0.0, "bike_id": "6b43e8eef01043915a6f2d9120570eca", "is_disabled": 0, "is_reserved": 0}, {"rental_uris": {"ios": "https://dc.lft.to/lastmile_qr_scan", "android": "https://dc.lft.to/lastmile_qr_scan"}, "lon": -77.02596516666667, "type": "electric_scooter", "fusion_lat": 0.0, "lat": 38.97586866666666, "name": "509362545bf9821096494e3f50889ffc", "fusion_lon": 0.0, "bike_id": "509362545bf9821096494e3f50889ffc", "is_disabled": 0, "is_reserved": 0}, {"rental_uris": {"ios": "https://dc.lft.to/lastmile_qr_scan", "android": "https://dc.lft.to/lastmile_qr_scan"}, "lon": -77.026882, "type": "electric_scooter", "fusion_lat": 0.0, "lat": 38.9064365, "name": "950a00a25ced49cbd4b62cec77f5c502", "fusion_lon": 0.0, "bike_id": "950a00a25ced49cbd4b62cec77f5c502", "is_disabled": 0, "is_reserved": 0}, {"rental_uris": {"ios": "https://dc.lft.to/lastmile_qr_scan", "android": "https://dc.lft.to/lastmile_qr_scan"}, "lon": -77.05353916666667, "type": "electric_scooter", "fusion_lat": 0.0, "lat": 38.92800716666667, "name": "0f195594608d685913c57ebda2a2b0eb", "fusion_lon": 0.0, "bike_id": "0f195594608d685913c57ebda2a2b0eb", "is_disabled": 0, "is_reserved": 0}, {"rental_uris": {"ios": "https://dc.lft.to/lastmile_qr_scan", "android": "https://dc.lft.to/lastmile_qr_scan"}, "lon": -77.02382716666666, "type": "electric_scooter", "fusion_lat": 0.0, "lat": 38.91594583333333, "name": "d8d241a7216c72da890d0d89e259465c", "fusion_lon": 0.0, "bike_id": "d8d241a7216c72da890d0d89e259465c", "is_disabled": 0, "is_reserved": 0}, {"rental_uris": {"ios": "https://dc.lft.to/lastmile_qr_scan", "android": "https://dc.lft.to/lastmile_qr_scan"}, "lon": -77.0521985, "type": "electric_scooter", "fusion_lat": 0.0, "lat": 38.92495916666667, "name": "afce3e596c0ab30364d2ebfe0d9b1263", "fusion_lon": 0.0, "bike_id": "afce3e596c0ab30364d2ebfe0d9b1263", "is_disabled": 0, "is_reserved": 0}, {"rental_uris": {"ios": "https://dc.lft.to/lastmile_qr_scan", "android": "https://dc.lft.to/lastmile_qr_scan"}, "lon": -77.0269385, "type": "electric_scooter", "fusion_lat": 0.0, "lat": 38.90875416666667, "name": "3564937e933c36637c7ed5c1d5891500", "fusion_lon": 0.0, "bike_id": "3564937e933c36637c7ed5c1d5891500", "is_disabled": 0, "is_reserved": 0}, {"rental_uris": {"ios": "https://dc.lft.to/lastmile_qr_scan", "android": "https://dc.lft.to/lastmile_qr_scan"}, "lon": -77.06629983333333, "type": "electric_scooter", "fusion_lat": 0.0, "lat": 38.913725, "name": "c3b3d892dd839378278e55ef966ce73b", "fusion_lon": 0.0, "bike_id": "c3b3d892dd839378278e55ef966ce73b", "is_disabled": 0, "is_reserved": 0}, {"rental_uris": {"ios": "https://dc.lft.to/lastmile_qr_scan", "android": "https://dc.lft.to/lastmile_qr_scan"}, "lon": -77.01829883333333, "type": "electric_scooter", "fusion_lat": 0.0, "lat": 38.87717883333333, "name": "e7bae3740af14d52720bcb8cdeaf5568", "fusion_lon": 0.0, "bike_id": "e7bae3740af14d52720bcb8cdeaf5568", "is_disabled": 0, "is_reserved": 0}, {"rental_uris": {"ios": "https://dc.lft.to/lastmile_qr_scan", "android": "https://dc.lft.to/lastmile_qr_scan"}, "lon": -77.04888166666667, "type": "electric_scooter", "fusion_lat": 0.0, "lat": 38.90598083333333, "name": "79ab5b24da2191ee20f3bfe24bb6e740", "fusion_lon": 0.0, "bike_id": "79ab5b24da2191ee20f3bfe24bb6e740", "is_disabled": 0, "is_reserved": 0}, {"rental_uris": {"ios": "https://dc.lft.to/lastmile_qr_scan", "android": "https://dc.lft.to/lastmile_qr_scan"}, "lon": -76.983772, "type": "electric_scooter", "fusion_lat": 0.0, "lat": 38.8603225, "name": "ec3aef802518a135c6c88ea7561e209f", "fusion_lon": 0.0, "bike_id": "ec3aef802518a135c6c88ea7561e209f", "is_disabled": 0, "is_reserved": 0}, {"rental_uris": {"ios": "https://dc.lft.to/lastmile_qr_scan", "android": "https://dc.lft.to/lastmile_qr_scan"}, "lon": -77.12900783333333, "type": "electric_bike", "fusion_lat": 0.0, "lat": 38.863779, "name": "1bbf5b0689c25d8cbc802dbe140bdb08", "fusion_lon": 0.0, "bike_id": "1bbf5b0689c25d8cbc802dbe140bdb08", "is_disabled": 0, "is_reserved": 0}, {"rental_uris": {"ios": "https://dc.lft.to/lastmile_qr_scan", "android": "https://dc.lft.to/lastmile_qr_scan"}, "lon": -77.05164466666666, "type": "electric_scooter", "fusion_lat": 0.0, "lat": 38.8977145, "name": "35a4d610d99c3f244cbdf7126af107ba", "fusion_lon": 0.0, "bike_id": "35a4d610d99c3f244cbdf7126af107ba", "is_disabled": 0, "is_reserved": 0}, {"rental_uris": {"ios": "https://dc.lft.to/lastmile_qr_scan", "android": "https://dc.lft.to/lastmile_qr_scan"}, "lon": -77.04250016666667, "type": "electric_scooter", "fusion_lat": 0.0, "lat": 38.920652833333335, "name": "bfabba2258bc35dc2f47587e17029a59", "fusion_lon": 0.0, "bike_id": "bfabba2258bc35dc2f47587e17029a59", "is_disabled": 0, "is_reserved": 0}, {"rental_uris": {"ios": "https://dc.lft.to/lastmile_qr_scan", "android": "https://dc.lft.to/lastmile_qr_scan"}, "lon": -77.03384083333333, "type": "electric_scooter", "fusion_lat": 0.0, "lat": 38.88660083333333, "name": "a53478a2c4281f03719375c05f820085", "fusion_lon": 0.0, "bike_id": "a53478a2c4281f03719375c05f820085", "is_disabled": 0, "is_reserved": 0}, {"rental_uris": {"ios": "https://dc.lft.to/lastmile_qr_scan", "android": "https://dc.lft.to/lastmile_qr_scan"}, "lon": -77.02078383333334, "type": "electric_scooter", "fusion_lat": 0.0, "lat": 38.88188666666667, "name": "3b879c80dfe1f334165bec2becd106d8", "fusion_lon": 0.0, "bike_id": "3b879c80dfe1f334165bec2becd106d8", "is_disabled": 0, "is_reserved": 0}, {"rental_uris": {"ios": "https://dc.lft.to/lastmile_qr_scan", "android": "https://dc.lft.to/lastmile_qr_scan"}, "lon": -77.02110216666667, "type": "electric_scooter", "fusion_lat": 0.0, "lat": 38.89479633333333, "name": "07dc4c6e76f029fdc5300c11aee35a7b", "fusion_lon": 0.0, "bike_id": "07dc4c6e76f029fdc5300c11aee35a7b", "is_disabled": 0, "is_reserved": 0}, {"rental_uris": {"ios": "https://dc.lft.to/lastmile_qr_scan", "android": "https://dc.lft.to/lastmile_qr_scan"}, "lon": -77.02703566666666, "type": "electric_scooter", "fusion_lat": 0.0, "lat": 38.906734666666665, "name": "a3e66280a16a90fdff0e7769c70a9e8d", "fusion_lon": 0.0, "bike_id": "a3e66280a16a90fdff0e7769c70a9e8d", "is_disabled": 0, "is_reserved": 0}, {"rental_uris": {"ios": "https://dc.lft.to/lastmile_qr_scan", "android": "https://dc.lft.to/lastmile_qr_scan"}, "lon": -77.04659533333333, "type": "electric_scooter", "fusion_lat": 0.0, "lat": 38.89342033333333, "name": "ca2463485e57b72e60939c368023fa09", "fusion_lon": 0.0, "bike_id": "ca2463485e57b72e60939c368023fa09", "is_disabled": 0, "is_reserved": 0}, {"rental_uris": {"ios": "https://dc.lft.to/lastmile_qr_scan", "android": "https://dc.lft.to/lastmile_qr_scan"}, "lon": -77.10683583333334, "type": "electric_bike", "fusion_lat": 0.0, "lat": 38.935856, "name": "d6471e6ee259090d10bdd72d01852f89", "fusion_lon": 0.0, "bike_id": "d6471e6ee259090d10bdd72d01852f89", "is_disabled": 0, "is_reserved": 0}, {"rental_uris": {"ios": "https://dc.lft.to/lastmile_qr_scan", "android": "https://dc.lft.to/lastmile_qr_scan"}, "lon": -77.04910733333334, "type": "electric_scooter", "fusion_lat": 0.0, "lat": 38.905289833333335, "name": "ff0a7c56e43133d876d0cbf05a0c3ebf", "fusion_lon": 0.0, "bike_id": "ff0a7c56e43133d876d0cbf05a0c3ebf", "is_disabled": 0, "is_reserved": 0}, {"rental_uris": {"ios": "https://dc.lft.to/lastmile_qr_scan", "android": "https://dc.lft.to/lastmile_qr_scan"}, "lon": -77.0221385, "type": "electric_scooter", "fusion_lat": 0.0, "lat": 38.905732666666665, "name": "4b00feb8afcb552509c4b7d18f3eef0f", "fusion_lon": 0.0, "bike_id": "4b00feb8afcb552509c4b7d18f3eef0f", "is_disabled": 0, "is_reserved": 0}, {"rental_uris": {"ios": "https://dc.lft.to/lastmile_qr_scan", "android": "https://dc.lft.to/lastmile_qr_scan"}, "lon": -77.01841766666666, "type": "electric_bike", "fusion_lat": 0.0, "lat": 38.908696, "name": "2709d7edd4a2d3e43d9c49c03cd1368d", "fusion_lon": 0.0, "bike_id": "2709d7edd4a2d3e43d9c49c03cd1368d", "is_disabled": 0, "is_reserved": 0}, {"rental_uris": {"ios": "https://dc.lft.to/lastmile_qr_scan", "android": "https://dc.lft.to/lastmile_qr_scan"}, "lon": -77.05121133333333, "type": "electric_scooter", "fusion_lat": 0.0, "lat": 38.92362833333333, "name": "b086793da60813714586238ae8fb2f7b", "fusion_lon": 0.0, "bike_id": "b086793da60813714586238ae8fb2f7b", "is_disabled": 0, "is_reserved": 0}, {"rental_uris": {"ios": "https://dc.lft.to/lastmile_qr_scan", "android": "https://dc.lft.to/lastmile_qr_scan"}, "lon": -77.01090433333333, "type": "electric_scooter", "fusion_lat": 0.0, "lat": 38.894923166666665, "name": "a6cdb930c2967f7e2bda6f12c72692ad", "fusion_lon": 0.0, "bike_id": "a6cdb930c2967f7e2bda6f12c72692ad", "is_disabled": 0, "is_reserved": 0}, {"rental_uris": {"ios": "https://dc.lft.to/lastmile_qr_scan", "android": "https://dc.lft.to/lastmile_qr_scan"}, "lon": -77.042628, "type": "electric_scooter", "fusion_lat": 0.0, "lat": 38.90268983333333, "name": "e2a19fa536199786b962bc58d7d5d99d", "fusion_lon": 0.0, "bike_id": "e2a19fa536199786b962bc58d7d5d99d", "is_disabled": 0, "is_reserved": 0}, {"rental_uris": {"ios": "https://dc.lft.to/lastmile_qr_scan", "android": "https://dc.lft.to/lastmile_qr_scan"}, "lon": -76.99683366666666, "type": "electric_scooter", "fusion_lat": 0.0, "lat": 38.90503983333333, "name": "d50620c6ec82a70f34f667ce0bcda059", "fusion_lon": 0.0, "bike_id": "d50620c6ec82a70f34f667ce0bcda059", "is_disabled": 0, "is_reserved": 0}, {"rental_uris": {"ios": "https://dc.lft.to/lastmile_qr_scan", "android": "https://dc.lft.to/lastmile_qr_scan"}, "lon": -77.0066595, "type": "electric_bike", "fusion_lat": 0.0, "lat": 38.945128, "name": "e3f4b160e455ae963015c25b25fbf8cc", "fusion_lon": 0.0, "bike_id": "e3f4b160e455ae963015c25b25fbf8cc", "is_disabled": 0, "is_reserved": 0}, {"rental_uris": {"ios": "https://dc.lft.to/lastmile_qr_scan", "android": "https://dc.lft.to/lastmile_qr_scan"}, "lon": -77.06954633333334, "type": "electric_bike", "fusion_lat": 0.0, "lat": 38.99045483333333, "name": "d097a9c35aa94225282eeac65e08ab45", "fusion_lon": 0.0, "bike_id": "d097a9c35aa94225282eeac65e08ab45", "is_disabled": 0, "is_reserved": 0}, {"rental_uris": {"ios": "https://dc.lft.to/lastmile_qr_scan", "android": "https://dc.lft.to/lastmile_qr_scan"}, "lon": -77.00708433333334, "type": "electric_scooter", "fusion_lat": 0.0, "lat": 38.88488233333333, "name": "13b45cbb47c169ac58e934561cad657d", "fusion_lon": 0.0, "bike_id": "13b45cbb47c169ac58e934561cad657d", "is_disabled": 0, "is_reserved": 0}, {"rental_uris": {"ios": "https://dc.lft.to/lastmile_qr_scan", "android": "https://dc.lft.to/lastmile_qr_scan"}, "lon": -77.058795, "type": "electric_scooter", "fusion_lat": 0.0, "lat": 38.936383666666664, "name": "4108105116c04ce6ec2af59960815941", "fusion_lon": 0.0, "bike_id": "4108105116c04ce6ec2af59960815941", "is_disabled": 0, "is_reserved": 0}, {"rental_uris": {"ios": "https://dc.lft.to/lastmile_qr_scan", "android": "https://dc.lft.to/lastmile_qr_scan"}, "lon": -77.04733233333333, "type": "electric_scooter", "fusion_lat": 0.0, "lat": 38.911151333333336, "name": "3c7e574b1bed1bc1e7f6edf752a17611", "fusion_lon": 0.0, "bike_id": "3c7e574b1bed1bc1e7f6edf752a17611", "is_disabled": 0, "is_reserved": 0}, {"rental_uris": {"ios": "https://dc.lft.to/lastmile_qr_scan", "android": "https://dc.lft.to/lastmile_qr_scan"}, "lon": -77.02758566666667, "type": "electric_scooter", "fusion_lat": 0.0, "lat": 38.956164666666666, "name": "611d712e0a44e12520feb155a7a20d9b", "fusion_lon": 0.0, "bike_id": "611d712e0a44e12520feb155a7a20d9b", "is_disabled": 0, "is_reserved": 0}, {"rental_uris": {"ios": "https://dc.lft.to/lastmile_qr_scan", "android": "https://dc.lft.to/lastmile_qr_scan"}, "lon": -77.0296495, "type": "electric_scooter", "fusion_lat": 0.0, "lat": 38.9542555, "name": "3494758c7b1f0e62dd2c7f9e291db230", "fusion_lon": 0.0, "bike_id": "3494758c7b1f0e62dd2c7f9e291db230", "is_disabled": 0, "is_reserved": 0}, {"rental_uris": {"ios": "https://dc.lft.to/lastmile_qr_scan", "android": "https://dc.lft.to/lastmile_qr_scan"}, "lon": -77.035683, "type": "electric_scooter", "fusion_lat": 0.0, "lat": 38.918123, "name": "9cc871f3372cd5695e99ded24d9f3616", "fusion_lon": 0.0, "bike_id": "9cc871f3372cd5695e99ded24d9f3616", "is_disabled": 0, "is_reserved": 0}, {"rental_uris": {"ios": "https://dc.lft.to/lastmile_qr_scan", "android": "https://dc.lft.to/lastmile_qr_scan"}, "lon": -77.0270705, "type": "electric_scooter", "fusion_lat": 0.0, "lat": 38.9181965, "name": "9210b4829bc646448099ef9dffca9e25", "fusion_lon": 0.0, "bike_id": "9210b4829bc646448099ef9dffca9e25", "is_disabled": 0, "is_reserved": 0}, {"rental_uris": {"ios": "https://dc.lft.to/lastmile_qr_scan", "android": "https://dc.lft.to/lastmile_qr_scan"}, "lon": -77.01959116666667, "type": "electric_scooter", "fusion_lat": 0.0, "lat": 38.92977533333333, "name": "99de65fb7d6410ad1815a71f678d3c3d", "fusion_lon": 0.0, "bike_id": "99de65fb7d6410ad1815a71f678d3c3d", "is_disabled": 0, "is_reserved": 0}, {"rental_uris": {"ios": "https://dc.lft.to/lastmile_qr_scan", "android": "https://dc.lft.to/lastmile_qr_scan"}, "lon": -77.01997233333333, "type": "electric_scooter", "fusion_lat": 0.0, "lat": 38.90466966666666, "name": "278609cf7eefc16883c9858feff9d395", "fusion_lon": 0.0, "bike_id": "278609cf7eefc16883c9858feff9d395", "is_disabled": 0, "is_reserved": 0}, {"rental_uris": {"ios": "https://dc.lft.to/lastmile_qr_scan", "android": "https://dc.lft.to/lastmile_qr_scan"}, "lon": -77.023149, "type": "electric_scooter", "fusion_lat": 0.0, "lat": 38.929399, "name": "cbda1573ecb7170639901a2ed4251278", "fusion_lon": 0.0, "bike_id": "cbda1573ecb7170639901a2ed4251278", "is_disabled": 0, "is_reserved": 0}, {"rental_uris": {"ios": "https://dc.lft.to/lastmile_qr_scan", "android": "https://dc.lft.to/lastmile_qr_scan"}, "lon": -77.01757466666666, "type": "electric_scooter", "fusion_lat": 0.0, "lat": 38.9171885, "name": "2a40ad40e4aa0d640097917b3d9e199b", "fusion_lon": 0.0, "bike_id": "2a40ad40e4aa0d640097917b3d9e199b", "is_disabled": 0, "is_reserved": 0}, {"rental_uris": {"ios": "https://dc.lft.to/lastmile_qr_scan", "android": "https://dc.lft.to/lastmile_qr_scan"}, "lon": -77.030824, "type": "electric_scooter", "fusion_lat": 0.0, "lat": 38.90995433333333, "name": "9bbd43e315067d3fdd1aad0455c7a7a0", "fusion_lon": 0.0, "bike_id": "9bbd43e315067d3fdd1aad0455c7a7a0", "is_disabled": 0, "is_reserved": 0}, {"rental_uris": {"ios": "https://dc.lft.to/lastmile_qr_scan", "android": "https://dc.lft.to/lastmile_qr_scan"}, "lon": -76.90432866666667, "type": "electric_bike", "fusion_lat": 0.0, "lat": 38.897718, "name": "c5cbeab56c3f939b430cecea26db195e", "fusion_lon": 0.0, "bike_id": "c5cbeab56c3f939b430cecea26db195e", "is_disabled": 0, "is_reserved": 0}, {"rental_uris": {"ios": "https://dc.lft.to/lastmile_qr_scan", "android": "https://dc.lft.to/lastmile_qr_scan"}, "lon": -77.01209516666667, "type": "electric_scooter", "fusion_lat": 0.0, "lat": 38.9151895, "name": "fcef51b8f6b7301bc2c88266bff8318e", "fusion_lon": 0.0, "bike_id": "fcef51b8f6b7301bc2c88266bff8318e", "is_disabled": 0, "is_reserved": 0}, {"rental_uris": {"ios": "https://dc.lft.to/lastmile_qr_scan", "android": "https://dc.lft.to/lastmile_qr_scan"}, "lon": -77.03588766666667, "type": "electric_scooter", "fusion_lat": 0.0, "lat": 38.9022795, "name": "8e5f4428a82b88ca76210d82fad037a1", "fusion_lon": 0.0, "bike_id": "8e5f4428a82b88ca76210d82fad037a1", "is_disabled": 0, "is_reserved": 0}, {"rental_uris": {"ios": "https://dc.lft.to/lastmile_qr_scan", "android": "https://dc.lft.to/lastmile_qr_scan"}, "lon": -77.04869716666667, "type": "electric_scooter", "fusion_lat": 0.0, "lat": 38.912372166666664, "name": "7c80f69a5c65c2f274ac106019ee546a", "fusion_lon": 0.0, "bike_id": "7c80f69a5c65c2f274ac106019ee546a", "is_disabled": 0, "is_reserved": 0}, {"rental_uris": {"ios": "https://dc.lft.to/lastmile_qr_scan", "android": "https://dc.lft.to/lastmile_qr_scan"}, "lon": -77.03441233333334, "type": "electric_scooter", "fusion_lat": 0.0, "lat": 38.90354683333333, "name": "cda91dfe7941720d37e957c132da71e5", "fusion_lon": 0.0, "bike_id": "cda91dfe7941720d37e957c132da71e5", "is_disabled": 0, "is_reserved": 0}, {"rental_uris": {"ios": "https://dc.lft.to/lastmile_qr_scan", "android": "https://dc.lft.to/lastmile_qr_scan"}, "lon": -77.03519833333333, "type": "electric_scooter", "fusion_lat": 0.0, "lat": 38.918389833333336, "name": "b8c5d43da415cebb34ecd72d45d777fd", "fusion_lon": 0.0, "bike_id": "b8c5d43da415cebb34ecd72d45d777fd", "is_disabled": 0, "is_reserved": 0}, {"rental_uris": {"ios": "https://dc.lft.to/lastmile_qr_scan", "android": "https://dc.lft.to/lastmile_qr_scan"}, "lon": -77.01512016666666, "type": "electric_scooter", "fusion_lat": 0.0, "lat": 38.887364833333336, "name": "e7c77c3a50f8379654d59544dca644b5", "fusion_lon": 0.0, "bike_id": "e7c77c3a50f8379654d59544dca644b5", "is_disabled": 0, "is_reserved": 0}, {"rental_uris": {"ios": "https://dc.lft.to/lastmile_qr_scan", "android": "https://dc.lft.to/lastmile_qr_scan"}, "lon": -77.0072245, "type": "electric_scooter", "fusion_lat": 0.0, "lat": 38.884912, "name": "72b451f40c9e89c4843dc83fd7b99244", "fusion_lon": 0.0, "bike_id": "72b451f40c9e89c4843dc83fd7b99244", "is_disabled": 0, "is_reserved": 0}, {"rental_uris": {"ios": "https://dc.lft.to/lastmile_qr_scan", "android": "https://dc.lft.to/lastmile_qr_scan"}, "lon": -77.0252475, "type": "electric_scooter", "fusion_lat": 0.0, "lat": 38.918208666666665, "name": "fcb4134be28ab0f928a9772001d49a32", "fusion_lon": 0.0, "bike_id": "fcb4134be28ab0f928a9772001d49a32", "is_disabled": 0, "is_reserved": 0}, {"rental_uris": {"ios": "https://dc.lft.to/lastmile_qr_scan", "android": "https://dc.lft.to/lastmile_qr_scan"}, "lon": -77.02711983333333, "type": "electric_scooter", "fusion_lat": 0.0, "lat": 38.903559, "name": "523c78053fece09d91930d7f1bedc93f", "fusion_lon": 0.0, "bike_id": "523c78053fece09d91930d7f1bedc93f", "is_disabled": 0, "is_reserved": 0}, {"rental_uris": {"ios": "https://dc.lft.to/lastmile_qr_scan", "android": "https://dc.lft.to/lastmile_qr_scan"}, "lon": -77.04814066666667, "type": "electric_scooter", "fusion_lat": 0.0, "lat": 38.91331266666667, "name": "681cf104b1d50e6b2042bd49c73d7069", "fusion_lon": 0.0, "bike_id": "681cf104b1d50e6b2042bd49c73d7069", "is_disabled": 0, "is_reserved": 0}, {"rental_uris": {"ios": "https://dc.lft.to/lastmile_qr_scan", "android": "https://dc.lft.to/lastmile_qr_scan"}, "lon": -77.0653115, "type": "electric_scooter", "fusion_lat": 0.0, "lat": 38.934780833333335, "name": "ee03fe8fd4b3ec00427d05619660b6c7", "fusion_lon": 0.0, "bike_id": "ee03fe8fd4b3ec00427d05619660b6c7", "is_disabled": 0, "is_reserved": 0}, {"rental_uris": {"ios": "https://dc.lft.to/lastmile_qr_scan", "android": "https://dc.lft.to/lastmile_qr_scan"}, "lon": -77.02833433333333, "type": "electric_scooter", "fusion_lat": 0.0, "lat": 38.92483, "name": "11e59a4da2d7240907e35d086fc830f6", "fusion_lon": 0.0, "bike_id": "11e59a4da2d7240907e35d086fc830f6", "is_disabled": 0, "is_reserved": 0}, {"rental_uris": {"ios": "https://dc.lft.to/lastmile_qr_scan", "android": "https://dc.lft.to/lastmile_qr_scan"}, "lon": -77.09559466666667, "type": "electric_bike", "fusion_lat": 0.0, "lat": 38.91706533333333, "name": "8491319e952902ea5a7ae6a9a01612fd", "fusion_lon": 0.0, "bike_id": "8491319e952902ea5a7ae6a9a01612fd", "is_disabled": 0, "is_reserved": 0}, {"rental_uris": {"ios": "https://dc.lft.to/lastmile_qr_scan", "android": "https://dc.lft.to/lastmile_qr_scan"}, "lon": -76.908184, "type": "electric_bike", "fusion_lat": 0.0, "lat": 38.9945655, "name": "59d27fe80c6e8fb4453995e1b677ac0a", "fusion_lon": 0.0, "bike_id": "59d27fe80c6e8fb4453995e1b677ac0a", "is_disabled": 0, "is_reserved": 0}, {"rental_uris": {"ios": "https://dc.lft.to/lastmile_qr_scan", "android": "https://dc.lft.to/lastmile_qr_scan"}, "lon": -77.01326616666667, "type": "electric_scooter", "fusion_lat": 0.0, "lat": 38.892361666666666, "name": "9705883624eb35113349c1bcc4eaa770", "fusion_lon": 0.0, "bike_id": "9705883624eb35113349c1bcc4eaa770", "is_disabled": 0, "is_reserved": 0}, {"rental_uris": {"ios": "https://dc.lft.to/lastmile_qr_scan", "android": "https://dc.lft.to/lastmile_qr_scan"}, "lon": -77.00047316666667, "type": "electric_bike", "fusion_lat": 0.0, "lat": 38.874406666666665, "name": "6897327dcaa1318129989b5b22f7ed1f", "fusion_lon": 0.0, "bike_id": "6897327dcaa1318129989b5b22f7ed1f", "is_disabled": 0, "is_reserved": 0}, {"rental_uris": {"ios": "https://dc.lft.to/lastmile_qr_scan", "android": "https://dc.lft.to/lastmile_qr_scan"}, "lon": -77.0214685, "type": "electric_scooter", "fusion_lat": 0.0, "lat": 38.8999925, "name": "ead4910cab0073e516b619767297ceeb", "fusion_lon": 0.0, "bike_id": "ead4910cab0073e516b619767297ceeb", "is_disabled": 0, "is_reserved": 0}, {"rental_uris": {"ios": "https://dc.lft.to/lastmile_qr_scan", "android": "https://dc.lft.to/lastmile_qr_scan"}, "lon": -76.984364, "type": "electric_scooter", "fusion_lat": 0.0, "lat": 38.91423066666667, "name": "6acecaba43197382307aad4d2635e05f", "fusion_lon": 0.0, "bike_id": "6acecaba43197382307aad4d2635e05f", "is_disabled": 0, "is_reserved": 0}, {"rental_uris": {"ios": "https://dc.lft.to/lastmile_qr_scan", "android": "https://dc.lft.to/lastmile_qr_scan"}, "lon": -77.0552485, "type": "electric_scooter", "fusion_lat": 0.0, "lat": 38.89933166666667, "name": "2d75c869a3fc22c4af3de8c2ebeb2731", "fusion_lon": 0.0, "bike_id": "2d75c869a3fc22c4af3de8c2ebeb2731", "is_disabled": 0, "is_reserved": 0}, {"rental_uris": {"ios": "https://dc.lft.to/lastmile_qr_scan", "android": "https://dc.lft.to/lastmile_qr_scan"}, "lon": -77.02213566666667, "type": "electric_scooter", "fusion_lat": 0.0, "lat": 38.8877045, "name": "d5f763a771963cfa3594141fb69948b4", "fusion_lon": 0.0, "bike_id": "d5f763a771963cfa3594141fb69948b4", "is_disabled": 0, "is_reserved": 0}, {"rental_uris": {"ios": "https://dc.lft.to/lastmile_qr_scan", "android": "https://dc.lft.to/lastmile_qr_scan"}, "lon": -77.0894835, "type": "electric_bike", "fusion_lat": 0.0, "lat": 38.8410515, "name": "ae1c7d692292216f382cf3b095d99ae8", "fusion_lon": 0.0, "bike_id": "ae1c7d692292216f382cf3b095d99ae8", "is_disabled": 0, "is_reserved": 0}, {"rental_uris": {"ios": "https://dc.lft.to/lastmile_qr_scan", "android": "https://dc.lft.to/lastmile_qr_scan"}, "lon": -77.03090333333333, "type": "electric_scooter", "fusion_lat": 0.0, "lat": 38.90024416666667, "name": "8e1d7107c89569137a06e8d0e95f3220", "fusion_lon": 0.0, "bike_id": "8e1d7107c89569137a06e8d0e95f3220", "is_disabled": 0, "is_reserved": 0}, {"rental_uris": {"ios": "https://dc.lft.to/lastmile_qr_scan", "android": "https://dc.lft.to/lastmile_qr_scan"}, "lon": -77.04474416666666, "type": "electric_scooter", "fusion_lat": 0.0, "lat": 38.915485333333336, "name": "1735129c6c2a853602ef877b222a7ea0", "fusion_lon": 0.0, "bike_id": "1735129c6c2a853602ef877b222a7ea0", "is_disabled": 0, "is_reserved": 0}, {"rental_uris": {"ios": "https://dc.lft.to/lastmile_qr_scan", "android": "https://dc.lft.to/lastmile_qr_scan"}, "lon": -77.00275916666666, "type": "electric_scooter", "fusion_lat": 0.0, "lat": 38.89741883333333, "name": "f00ef23199fa51a97f0167b94bd24032", "fusion_lon": 0.0, "bike_id": "f00ef23199fa51a97f0167b94bd24032", "is_disabled": 0, "is_reserved": 0}, {"rental_uris": {"ios": "https://dc.lft.to/lastmile_qr_scan", "android": "https://dc.lft.to/lastmile_qr_scan"}, "lon": -77.0066015, "type": "electric_scooter", "fusion_lat": 0.0, "lat": 38.944615666666664, "name": "f599a91ddf6d445aa496398c0436a70d", "fusion_lon": 0.0, "bike_id": "f599a91ddf6d445aa496398c0436a70d", "is_disabled": 0, "is_reserved": 0}, {"rental_uris": {"ios": "https://dc.lft.to/lastmile_qr_scan", "android": "https://dc.lft.to/lastmile_qr_scan"}, "lon": -77.1050905, "type": "electric_bike", "fusion_lat": 0.0, "lat": 38.9284735, "name": "1539196512fdc215e0d8ef3732534913", "fusion_lon": 0.0, "bike_id": "1539196512fdc215e0d8ef3732534913", "is_disabled": 0, "is_reserved": 0}, {"rental_uris": {"ios": "https://dc.lft.to/lastmile_qr_scan", "android": "https://dc.lft.to/lastmile_qr_scan"}, "lon": -76.98407433333334, "type": "electric_scooter", "fusion_lat": 0.0, "lat": 38.85971083333333, "name": "77c4c796e75b716f54f5ee43b7fe512e", "fusion_lon": 0.0, "bike_id": "77c4c796e75b716f54f5ee43b7fe512e", "is_disabled": 0, "is_reserved": 0}, {"rental_uris": {"ios": "https://dc.lft.to/lastmile_qr_scan", "android": "https://dc.lft.to/lastmile_qr_scan"}, "lon": -77.02836833333333, "type": "electric_scooter", "fusion_lat": 0.0, "lat": 38.8876815, "name": "76dad7cd67f28a95f59faff486e5fe9a", "fusion_lon": 0.0, "bike_id": "76dad7cd67f28a95f59faff486e5fe9a", "is_disabled": 0, "is_reserved": 0}, {"rental_uris": {"ios": "https://dc.lft.to/lastmile_qr_scan", "android": "https://dc.lft.to/lastmile_qr_scan"}, "lon": -77.04045416666666, "type": "electric_scooter", "fusion_lat": 0.0, "lat": 38.925671333333334, "name": "6f4cd72012b9383fdd7838d35a302ccc", "fusion_lon": 0.0, "bike_id": "6f4cd72012b9383fdd7838d35a302ccc", "is_disabled": 0, "is_reserved": 0}, {"rental_uris": {"ios": "https://dc.lft.to/lastmile_qr_scan", "android": "https://dc.lft.to/lastmile_qr_scan"}, "lon": -77.03261683333334, "type": "electric_scooter", "fusion_lat": 0.0, "lat": 38.914062333333334, "name": "62a032cc5ed94b361e4db80d8aa2c350", "fusion_lon": 0.0, "bike_id": "62a032cc5ed94b361e4db80d8aa2c350", "is_disabled": 0, "is_reserved": 0}, {"rental_uris": {"ios": "https://dc.lft.to/lastmile_qr_scan", "android": "https://dc.lft.to/lastmile_qr_scan"}, "lon": -77.03170066666667, "type": "electric_scooter", "fusion_lat": 0.0, "lat": 38.896057166666665, "name": "74391486324c2203530dc7bd2db20ce9", "fusion_lon": 0.0, "bike_id": "74391486324c2203530dc7bd2db20ce9", "is_disabled": 0, "is_reserved": 0}, {"rental_uris": {"ios": "https://dc.lft.to/lastmile_qr_scan", "android": "https://dc.lft.to/lastmile_qr_scan"}, "lon": -77.02393866666667, "type": "electric_scooter", "fusion_lat": 0.0, "lat": 38.887399, "name": "9aeb852fa9fd9bf2152db61474e995bd", "fusion_lon": 0.0, "bike_id": "9aeb852fa9fd9bf2152db61474e995bd", "is_disabled": 0, "is_reserved": 0}, {"rental_uris": {"ios": "https://dc.lft.to/lastmile_qr_scan", "android": "https://dc.lft.to/lastmile_qr_scan"}, "lon": -77.061621, "type": "electric_scooter", "fusion_lat": 0.0, "lat": 38.942221833333335, "name": "c95c936758b372e60aa52f62d516485a", "fusion_lon": 0.0, "bike_id": "c95c936758b372e60aa52f62d516485a", "is_disabled": 0, "is_reserved": 0}, {"rental_uris": {"ios": "https://dc.lft.to/lastmile_qr_scan", "android": "https://dc.lft.to/lastmile_qr_scan"}, "lon": -77.12743583333334, "type": "electric_bike", "fusion_lat": 0.0, "lat": 38.88821033333333, "name": "f9b8687f8a9b64dd7d9ff663daa94e90", "fusion_lon": 0.0, "bike_id": "f9b8687f8a9b64dd7d9ff663daa94e90", "is_disabled": 0, "is_reserved": 0}, {"rental_uris": {"ios": "https://dc.lft.to/lastmile_qr_scan", "android": "https://dc.lft.to/lastmile_qr_scan"}, "lon": -77.0298905, "type": "electric_scooter", "fusion_lat": 0.0, "lat": 38.931246, "name": "a57259c51ea85f058bf7d0297177c801", "fusion_lon": 0.0, "bike_id": "a57259c51ea85f058bf7d0297177c801", "is_disabled": 0, "is_reserved": 0}, {"rental_uris": {"ios": "https://dc.lft.to/lastmile_qr_scan", "android": "https://dc.lft.to/lastmile_qr_scan"}, "lon": -76.97887633333333, "type": "electric_scooter", "fusion_lat": 0.0, "lat": 38.916752833333334, "name": "efa8ebb5528681afa1b67a8c776c5868", "fusion_lon": 0.0, "bike_id": "efa8ebb5528681afa1b67a8c776c5868", "is_disabled": 0, "is_reserved": 0}, {"rental_uris": {"ios": "https://dc.lft.to/lastmile_qr_scan", "android": "https://dc.lft.to/lastmile_qr_scan"}, "lon": -77.02319133333333, "type": "electric_scooter", "fusion_lat": 0.0, "lat": 38.92764233333333, "name": "6c625497172664f38ae1be9f604b8460", "fusion_lon": 0.0, "bike_id": "6c625497172664f38ae1be9f604b8460", "is_disabled": 0, "is_reserved": 0}, {"rental_uris": {"ios": "https://dc.lft.to/lastmile_qr_scan", "android": "https://dc.lft.to/lastmile_qr_scan"}, "lon": -77.04664316666667, "type": "electric_scooter", "fusion_lat": 0.0, "lat": 38.90563216666666, "name": "92f8c9f20a61351c7b9e27a84288dc1a", "fusion_lon": 0.0, "bike_id": "92f8c9f20a61351c7b9e27a84288dc1a", "is_disabled": 0, "is_reserved": 0}, {"rental_uris": {"ios": "https://dc.lft.to/lastmile_qr_scan", "android": "https://dc.lft.to/lastmile_qr_scan"}, "lon": -77.04958683333334, "type": "electric_scooter", "fusion_lat": 0.0, "lat": 38.896553, "name": "c502a7c3d3ef23646796636eed3421a4", "fusion_lon": 0.0, "bike_id": "c502a7c3d3ef23646796636eed3421a4", "is_disabled": 0, "is_reserved": 0}, {"rental_uris": {"ios": "https://dc.lft.to/lastmile_qr_scan", "android": "https://dc.lft.to/lastmile_qr_scan"}, "lon": -76.93160416666667, "type": "electric_scooter", "fusion_lat": 0.0, "lat": 38.8987685, "name": "a96114790354f07a5e464511216e488e", "fusion_lon": 0.0, "bike_id": "a96114790354f07a5e464511216e488e", "is_disabled": 0, "is_reserved": 0}, {"rental_uris": {"ios": "https://dc.lft.to/lastmile_qr_scan", "android": "https://dc.lft.to/lastmile_qr_scan"}, "lon": -76.98772566666666, "type": "electric_scooter", "fusion_lat": 0.0, "lat": 38.9117145, "name": "64b6b4c03389cb7f784eb8efd22b94ab", "fusion_lon": 0.0, "bike_id": "64b6b4c03389cb7f784eb8efd22b94ab", "is_disabled": 0, "is_reserved": 0}, {"rental_uris": {"ios": "https://dc.lft.to/lastmile_qr_scan", "android": "https://dc.lft.to/lastmile_qr_scan"}, "lon": -76.93515616666667, "type": "electric_scooter", "fusion_lat": 0.0, "lat": 38.908746666666666, "name": "8ed39cb3cba50012bb484d7a4945e644", "fusion_lon": 0.0, "bike_id": "8ed39cb3cba50012bb484d7a4945e644", "is_disabled": 0, "is_reserved": 0}, {"rental_uris": {"ios": "https://dc.lft.to/lastmile_qr_scan", "android": "https://dc.lft.to/lastmile_qr_scan"}, "lon": -77.0294735, "type": "electric_scooter", "fusion_lat": 0.0, "lat": 38.90779766666667, "name": "416ad856cb03025f8825e94b52fc6366", "fusion_lon": 0.0, "bike_id": "416ad856cb03025f8825e94b52fc6366", "is_disabled": 0, "is_reserved": 0}, {"rental_uris": {"ios": "https://dc.lft.to/lastmile_qr_scan", "android": "https://dc.lft.to/lastmile_qr_scan"}, "lon": -76.9381035, "type": "electric_scooter", "fusion_lat": 0.0, "lat": 38.913127333333335, "name": "0c01ff7e3a8c0b55150804de663e908f", "fusion_lon": 0.0, "bike_id": "0c01ff7e3a8c0b55150804de663e908f", "is_disabled": 0, "is_reserved": 0}, {"rental_uris": {"ios": "https://dc.lft.to/lastmile_qr_scan", "android": "https://dc.lft.to/lastmile_qr_scan"}, "lon": -77.02046266666666, "type": "electric_scooter", "fusion_lat": 0.0, "lat": 38.9155715, "name": "bd1a977f97a393267a55f3246c918109", "fusion_lon": 0.0, "bike_id": "bd1a977f97a393267a55f3246c918109", "is_disabled": 0, "is_reserved": 0}, {"rental_uris": {"ios": "https://dc.lft.to/lastmile_qr_scan", "android": "https://dc.lft.to/lastmile_qr_scan"}, "lon": -77.052153, "type": "electric_scooter", "fusion_lat": 0.0, "lat": 38.9249565, "name": "85a6342608ccff4893fdb221bf4c9f93", "fusion_lon": 0.0, "bike_id": "85a6342608ccff4893fdb221bf4c9f93", "is_disabled": 0, "is_reserved": 0}, {"rental_uris": {"ios": "https://dc.lft.to/lastmile_qr_scan", "android": "https://dc.lft.to/lastmile_qr_scan"}, "lon": -77.00492083333333, "type": "electric_scooter", "fusion_lat": 0.0, "lat": 38.8789225, "name": "5f886bb57b8270e0bbc4d98984ea730c", "fusion_lon": 0.0, "bike_id": "5f886bb57b8270e0bbc4d98984ea730c", "is_disabled": 0, "is_reserved": 0}, {"rental_uris": {"ios": "https://dc.lft.to/lastmile_qr_scan", "android": "https://dc.lft.to/lastmile_qr_scan"}, "lon": -76.986429, "type": "electric_scooter", "fusion_lat": 0.0, "lat": 38.900174, "name": "4d3d2a96e38b34405373cde5115b1892", "fusion_lon": 0.0, "bike_id": "4d3d2a96e38b34405373cde5115b1892", "is_disabled": 0, "is_reserved": 0}, {"rental_uris": {"ios": "https://dc.lft.to/lastmile_qr_scan", "android": "https://dc.lft.to/lastmile_qr_scan"}, "lon": -77.00341, "type": "electric_scooter", "fusion_lat": 0.0, "lat": 38.892596166666664, "name": "1aa56b96ccd954cf4093f29fb02c2e6b", "fusion_lon": 0.0, "bike_id": "1aa56b96ccd954cf4093f29fb02c2e6b", "is_disabled": 0, "is_reserved": 0}, {"rental_uris": {"ios": "https://dc.lft.to/lastmile_qr_scan", "android": "https://dc.lft.to/lastmile_qr_scan"}, "lon": -77.04115983333334, "type": "electric_scooter", "fusion_lat": 0.0, "lat": 38.93402066666667, "name": "003576bb4aff87d1f4390ad14f96bfa6", "fusion_lon": 0.0, "bike_id": "003576bb4aff87d1f4390ad14f96bfa6", "is_disabled": 0, "is_reserved": 0}, {"rental_uris": {"ios": "https://dc.lft.to/lastmile_qr_scan", "android": "https://dc.lft.to/lastmile_qr_scan"}, "lon": -76.98998, "type": "electric_scooter", "fusion_lat": 0.0, "lat": 38.86506116666666, "name": "1f8487565db7204545f14dc49b9142fa", "fusion_lon": 0.0, "bike_id": "1f8487565db7204545f14dc49b9142fa", "is_disabled": 0, "is_reserved": 0}, {"rental_uris": {"ios": "https://dc.lft.to/lastmile_qr_scan", "android": "https://dc.lft.to/lastmile_qr_scan"}, "lon": -77.03706683333333, "type": "electric_scooter", "fusion_lat": 0.0, "lat": 38.9263765, "name": "183818a7e1e53a42a0f9c8cbabefd694", "fusion_lon": 0.0, "bike_id": "183818a7e1e53a42a0f9c8cbabefd694", "is_disabled": 0, "is_reserved": 0}, {"rental_uris": {"ios": "https://dc.lft.to/lastmile_qr_scan", "android": "https://dc.lft.to/lastmile_qr_scan"}, "lon": -77.0265705, "type": "electric_scooter", "fusion_lat": 0.0, "lat": 38.89844683333333, "name": "0c70b1d39bb848895d122903b0a0a66c", "fusion_lon": 0.0, "bike_id": "0c70b1d39bb848895d122903b0a0a66c", "is_disabled": 0, "is_reserved": 0}, {"rental_uris": {"ios": "https://dc.lft.to/lastmile_qr_scan", "android": "https://dc.lft.to/lastmile_qr_scan"}, "lon": -77.002227, "type": "electric_scooter", "fusion_lat": 0.0, "lat": 38.913407666666664, "name": "d28f8f10160ece6861ccb76d2b4eea58", "fusion_lon": 0.0, "bike_id": "d28f8f10160ece6861ccb76d2b4eea58", "is_disabled": 0, "is_reserved": 0}, {"rental_uris": {"ios": "https://dc.lft.to/lastmile_qr_scan", "android": "https://dc.lft.to/lastmile_qr_scan"}, "lon": -77.12501916666666, "type": "electric_bike", "fusion_lat": 0.0, "lat": 39.02427433333333, "name": "9060d8d69199ac1bf92e3a89e9b2702f", "fusion_lon": 0.0, "bike_id": "9060d8d69199ac1bf92e3a89e9b2702f", "is_disabled": 0, "is_reserved": 0}, {"rental_uris": {"ios": "https://dc.lft.to/lastmile_qr_scan", "android": "https://dc.lft.to/lastmile_qr_scan"}, "lon": -77.0342725, "type": "electric_scooter", "fusion_lat": 0.0, "lat": 38.9191745, "name": "431047649ccb293f8c7d2c711fd2cd37", "fusion_lon": 0.0, "bike_id": "431047649ccb293f8c7d2c711fd2cd37", "is_disabled": 0, "is_reserved": 0}, {"rental_uris": {"ios": "https://dc.lft.to/lastmile_qr_scan", "android": "https://dc.lft.to/lastmile_qr_scan"}, "lon": -77.04018733333334, "type": "electric_bike", "fusion_lat": 0.0, "lat": 38.92373216666667, "name": "d826f0f5f517c3693b5243374d635b8d", "fusion_lon": 0.0, "bike_id": "d826f0f5f517c3693b5243374d635b8d", "is_disabled": 0, "is_reserved": 0}, {"rental_uris": {"ios": "https://dc.lft.to/lastmile_qr_scan", "android": "https://dc.lft.to/lastmile_qr_scan"}, "lon": -76.99462033333333, "type": "electric_bike", "fusion_lat": 0.0, "lat": 38.940680666666665, "name": "d737873eac20f60201d2eb91264d0809", "fusion_lon": 0.0, "bike_id": "d737873eac20f60201d2eb91264d0809", "is_disabled": 0, "is_reserved": 0}, {"rental_uris": {"ios": "https://dc.lft.to/lastmile_qr_scan", "android": "https://dc.lft.to/lastmile_qr_scan"}, "lon": -77.120359, "type": "electric_bike", "fusion_lat": 0.0, "lat": 38.855154166666665, "name": "89402d0508195254cb3f108eb7729818", "fusion_lon": 0.0, "bike_id": "89402d0508195254cb3f108eb7729818", "is_disabled": 0, "is_reserved": 0}, {"rental_uris": {"ios": "https://dc.lft.to/lastmile_qr_scan", "android": "https://dc.lft.to/lastmile_qr_scan"}, "lon": -76.931779, "type": "electric_scooter", "fusion_lat": 0.0, "lat": 38.898837, "name": "0b3403f789022bccdc1e6f71e5c5dd6e", "fusion_lon": 0.0, "bike_id": "0b3403f789022bccdc1e6f71e5c5dd6e", "is_disabled": 0, "is_reserved": 0}, {"rental_uris": {"ios": "https://dc.lft.to/lastmile_qr_scan", "android": "https://dc.lft.to/lastmile_qr_scan"}, "lon": -76.94972333333334, "type": "electric_scooter", "fusion_lat": 0.0, "lat": 38.893725, "name": "9297539c86dac99eaef267dc570b4fc3", "fusion_lon": 0.0, "bike_id": "9297539c86dac99eaef267dc570b4fc3", "is_disabled": 0, "is_reserved": 0}, {"rental_uris": {"ios": "https://dc.lft.to/lastmile_qr_scan", "android": "https://dc.lft.to/lastmile_qr_scan"}, "lon": -77.01857366666667, "type": "electric_scooter", "fusion_lat": 0.0, "lat": 38.900869166666666, "name": "25fe0aba46401c0d0662c310e44b5bbc", "fusion_lon": 0.0, "bike_id": "25fe0aba46401c0d0662c310e44b5bbc", "is_disabled": 0, "is_reserved": 0}, {"rental_uris": {"ios": "https://dc.lft.to/lastmile_qr_scan", "android": "https://dc.lft.to/lastmile_qr_scan"}, "lon": -77.03165033333333, "type": "electric_scooter", "fusion_lat": 0.0, "lat": 38.886304833333334, "name": "4f05f0a3c36c2412cb1bf4b4eeb13b4b", "fusion_lon": 0.0, "bike_id": "4f05f0a3c36c2412cb1bf4b4eeb13b4b", "is_disabled": 0, "is_reserved": 0}, {"rental_uris": {"ios": "https://dc.lft.to/lastmile_qr_scan", "android": "https://dc.lft.to/lastmile_qr_scan"}, "lon": -77.00207633333333, "type": "electric_scooter", "fusion_lat": 0.0, "lat": 38.902249833333336, "name": "2e395406bc8573ae3dd8b627f91821ee", "fusion_lon": 0.0, "bike_id": "2e395406bc8573ae3dd8b627f91821ee", "is_disabled": 0, "is_reserved": 0}, {"rental_uris": {"ios": "https://dc.lft.to/lastmile_qr_scan", "android": "https://dc.lft.to/lastmile_qr_scan"}, "lon": -77.05150233333333, "type": "electric_scooter", "fusion_lat": 0.0, "lat": 38.89770983333333, "name": "9612774f87f3b4cbd2b41bc7b50827e9", "fusion_lon": 0.0, "bike_id": "9612774f87f3b4cbd2b41bc7b50827e9", "is_disabled": 0, "is_reserved": 0}, {"rental_uris": {"ios": "https://dc.lft.to/lastmile_qr_scan", "android": "https://dc.lft.to/lastmile_qr_scan"}, "lon": -77.04655183333334, "type": "electric_scooter", "fusion_lat": 0.0, "lat": 38.89334216666666, "name": "59ce350012ca7801afb734a5911865bc", "fusion_lon": 0.0, "bike_id": "59ce350012ca7801afb734a5911865bc", "is_disabled": 0, "is_reserved": 0}, {"rental_uris": {"ios": "https://dc.lft.to/lastmile_qr_scan", "android": "https://dc.lft.to/lastmile_qr_scan"}, "lon": -77.00069366666666, "type": "electric_scooter", "fusion_lat": 0.0, "lat": 38.92552766666667, "name": "9543b96cffff5480064f91f786157854", "fusion_lon": 0.0, "bike_id": "9543b96cffff5480064f91f786157854", "is_disabled": 0, "is_reserved": 0}, {"rental_uris": {"ios": "https://dc.lft.to/lastmile_qr_scan", "android": "https://dc.lft.to/lastmile_qr_scan"}, "lon": -77.04810983333333, "type": "electric_scooter", "fusion_lat": 0.0, "lat": 38.92029983333333, "name": "8fe7adf28356fe748e28271b29ee008f", "fusion_lon": 0.0, "bike_id": "8fe7adf28356fe748e28271b29ee008f", "is_disabled": 0, "is_reserved": 0}, {"rental_uris": {"ios": "https://dc.lft.to/lastmile_qr_scan", "android": "https://dc.lft.to/lastmile_qr_scan"}, "lon": -76.9466405, "type": "electric_scooter", "fusion_lat": 0.0, "lat": 38.89869216666666, "name": "6a5d1c5f6cadf766b6e58897dd08b732", "fusion_lon": 0.0, "bike_id": "6a5d1c5f6cadf766b6e58897dd08b732", "is_disabled": 0, "is_reserved": 0}, {"rental_uris": {"ios": "https://dc.lft.to/lastmile_qr_scan", "android": "https://dc.lft.to/lastmile_qr_scan"}, "lon": -77.01188483333334, "type": "electric_scooter", "fusion_lat": 0.0, "lat": 38.91549066666666, "name": "30f076ecc7fa424f7d076a32085a6453", "fusion_lon": 0.0, "bike_id": "30f076ecc7fa424f7d076a32085a6453", "is_disabled": 0, "is_reserved": 0}, {"rental_uris": {"ios": "https://dc.lft.to/lastmile_qr_scan", "android": "https://dc.lft.to/lastmile_qr_scan"}, "lon": -76.99818883333333, "type": "electric_bike", "fusion_lat": 0.0, "lat": 38.844561166666665, "name": "abd190377aa7b380dcf8563f68998f57", "fusion_lon": 0.0, "bike_id": "abd190377aa7b380dcf8563f68998f57", "is_disabled": 0, "is_reserved": 0}, {"rental_uris": {"ios": "https://dc.lft.to/lastmile_qr_scan", "android": "https://dc.lft.to/lastmile_qr_scan"}, "lon": -77.04860466666666, "type": "electric_scooter", "fusion_lat": 0.0, "lat": 38.9067655, "name": "372424822e6fcbd9a971bc242cdf40c7", "fusion_lon": 0.0, "bike_id": "372424822e6fcbd9a971bc242cdf40c7", "is_disabled": 0, "is_reserved": 0}, {"rental_uris": {"ios": "https://dc.lft.to/lastmile_qr_scan", "android": "https://dc.lft.to/lastmile_qr_scan"}, "lon": -76.99514533333334, "type": "electric_scooter", "fusion_lat": 0.0, "lat": 38.89485633333334, "name": "d2744975b463719524f70f8ef99210b4", "fusion_lon": 0.0, "bike_id": "d2744975b463719524f70f8ef99210b4", "is_disabled": 0, "is_reserved": 0}, {"rental_uris": {"ios": "https://dc.lft.to/lastmile_qr_scan", "android": "https://dc.lft.to/lastmile_qr_scan"}, "lon": -77.00332366666666, "type": "electric_scooter", "fusion_lat": 0.0, "lat": 38.89357433333333, "name": "340a83e6c2c71ebfcc344c5c23ffa867", "fusion_lon": 0.0, "bike_id": "340a83e6c2c71ebfcc344c5c23ffa867", "is_disabled": 0, "is_reserved": 0}, {"rental_uris": {"ios": "https://dc.lft.to/lastmile_qr_scan", "android": "https://dc.lft.to/lastmile_qr_scan"}, "lon": -76.9969735, "type": "electric_scooter", "fusion_lat": 0.0, "lat": 38.90086433333333, "name": "ba310a0017e95181c9f40415e1541a41", "fusion_lon": 0.0, "bike_id": "ba310a0017e95181c9f40415e1541a41", "is_disabled": 0, "is_reserved": 0}, {"rental_uris": {"ios": "https://dc.lft.to/lastmile_qr_scan", "android": "https://dc.lft.to/lastmile_qr_scan"}, "lon": -77.04634616666667, "type": "electric_scooter", "fusion_lat": 0.0, "lat": 38.89224216666667, "name": "900b4add74d1ee73cb3c13db2124b60a", "fusion_lon": 0.0, "bike_id": "900b4add74d1ee73cb3c13db2124b60a", "is_disabled": 0, "is_reserved": 0}, {"rental_uris": {"ios": "https://dc.lft.to/lastmile_qr_scan", "android": "https://dc.lft.to/lastmile_qr_scan"}, "lon": -76.97289766666667, "type": "electric_scooter", "fusion_lat": 0.0, "lat": 38.9034095, "name": "d30618ba2fc5448bd49912f0f2141e54", "fusion_lon": 0.0, "bike_id": "d30618ba2fc5448bd49912f0f2141e54", "is_disabled": 0, "is_reserved": 0}, {"rental_uris": {"ios": "https://dc.lft.to/lastmile_qr_scan", "android": "https://dc.lft.to/lastmile_qr_scan"}, "lon": -76.94214216666667, "type": "electric_scooter", "fusion_lat": 0.0, "lat": 38.89683, "name": "a206ac3fe1a99bfff6d7af9fbb10a4f9", "fusion_lon": 0.0, "bike_id": "a206ac3fe1a99bfff6d7af9fbb10a4f9", "is_disabled": 0, "is_reserved": 0}, {"rental_uris": {"ios": "https://dc.lft.to/lastmile_qr_scan", "android": "https://dc.lft.to/lastmile_qr_scan"}, "lon": -77.09206966666666, "type": "electric_scooter", "fusion_lat": 0.0, "lat": 38.941343333333336, "name": "c67fac5f93657aa5c7834e13961fda02", "fusion_lon": 0.0, "bike_id": "c67fac5f93657aa5c7834e13961fda02", "is_disabled": 0, "is_reserved": 0}, {"rental_uris": {"ios": "https://dc.lft.to/lastmile_qr_scan", "android": "https://dc.lft.to/lastmile_qr_scan"}, "lon": -77.12963166666667, "type": "electric_bike", "fusion_lat": 0.0, "lat": 38.852188, "name": "9eb598e06a6b4e5c35e46af47c33f9b2", "fusion_lon": 0.0, "bike_id": "9eb598e06a6b4e5c35e46af47c33f9b2", "is_disabled": 0, "is_reserved": 0}, {"rental_uris": {"ios": "https://dc.lft.to/lastmile_qr_scan", "android": "https://dc.lft.to/lastmile_qr_scan"}, "lon": -77.05473033333334, "type": "electric_scooter", "fusion_lat": 0.0, "lat": 38.893909, "name": "2ed24497c73ab296cadd53247f28cfae", "fusion_lon": 0.0, "bike_id": "2ed24497c73ab296cadd53247f28cfae", "is_disabled": 0, "is_reserved": 0}, {"rental_uris": {"ios": "https://dc.lft.to/lastmile_qr_scan", "android": "https://dc.lft.to/lastmile_qr_scan"}, "lon": -76.93229183333334, "type": "electric_bike", "fusion_lat": 0.0, "lat": 38.8659785, "name": "428f59f769a92cdb5ebfe79820b1ae4c", "fusion_lon": 0.0, "bike_id": "428f59f769a92cdb5ebfe79820b1ae4c", "is_disabled": 0, "is_reserved": 0}, {"rental_uris": {"ios": "https://dc.lft.to/lastmile_qr_scan", "android": "https://dc.lft.to/lastmile_qr_scan"}, "lon": -77.007356, "type": "electric_scooter", "fusion_lat": 0.0, "lat": 38.879287, "name": "337a34b00085bf68a1b45f76c8244b54", "fusion_lon": 0.0, "bike_id": "337a34b00085bf68a1b45f76c8244b54", "is_disabled": 0, "is_reserved": 0}, {"rental_uris": {"ios": "https://dc.lft.to/lastmile_qr_scan", "android": "https://dc.lft.to/lastmile_qr_scan"}, "lon": -77.01578033333334, "type": "electric_scooter", "fusion_lat": 0.0, "lat": 38.91681066666666, "name": "bd51ffc687fa1f7a2fdc32634e13e2d0", "fusion_lon": 0.0, "bike_id": "bd51ffc687fa1f7a2fdc32634e13e2d0", "is_disabled": 0, "is_reserved": 0}, {"rental_uris": {"ios": "https://dc.lft.to/lastmile_qr_scan", "android": "https://dc.lft.to/lastmile_qr_scan"}, "lon": -77.3609115, "type": "electric_bike", "fusion_lat": 0.0, "lat": 38.939637, "name": "55964800ffdd362327365e278a3ed486", "fusion_lon": 0.0, "bike_id": "55964800ffdd362327365e278a3ed486", "is_disabled": 0, "is_reserved": 0}, {"rental_uris": {"ios": "https://dc.lft.to/lastmile_qr_scan", "android": "https://dc.lft.to/lastmile_qr_scan"}, "lon": -76.979921, "type": "electric_bike", "fusion_lat": 0.0, "lat": 38.87749683333333, "name": "406e3d1427201d7feeb2d5273d0791b8", "fusion_lon": 0.0, "bike_id": "406e3d1427201d7feeb2d5273d0791b8", "is_disabled": 0, "is_reserved": 0}, {"rental_uris": {"ios": "https://dc.lft.to/lastmile_qr_scan", "android": "https://dc.lft.to/lastmile_qr_scan"}, "lon": -77.0349475, "type": "electric_scooter", "fusion_lat": 0.0, "lat": 38.9285845, "name": "317c732108d9254d107f97f8c18f894a", "fusion_lon": 0.0, "bike_id": "317c732108d9254d107f97f8c18f894a", "is_disabled": 0, "is_reserved": 0}, {"rental_uris": {"ios": "https://dc.lft.to/lastmile_qr_scan", "android": "https://dc.lft.to/lastmile_qr_scan"}, "lon": -77.01148483333333, "type": "electric_scooter", "fusion_lat": 0.0, "lat": 38.90736, "name": "cd8d10ea03ee911d78fb97f9c9d7bb0e", "fusion_lon": 0.0, "bike_id": "cd8d10ea03ee911d78fb97f9c9d7bb0e", "is_disabled": 0, "is_reserved": 0}, {"rental_uris": {"ios": "https://dc.lft.to/lastmile_qr_scan", "android": "https://dc.lft.to/lastmile_qr_scan"}, "lon": -77.04649916666666, "type": "electric_scooter", "fusion_lat": 0.0, "lat": 38.90561916666667, "name": "a20e81cd821243f83dd6870979682fa4", "fusion_lon": 0.0, "bike_id": "a20e81cd821243f83dd6870979682fa4", "is_disabled": 0, "is_reserved": 0}, {"rental_uris": {"ios": "https://dc.lft.to/lastmile_qr_scan", "android": "https://dc.lft.to/lastmile_qr_scan"}, "lon": -77.01086166666667, "type": "electric_scooter", "fusion_lat": 0.0, "lat": 38.91822483333333, "name": "b02fb84da08eeddaf297cfbb3a6aee8f", "fusion_lon": 0.0, "bike_id": "b02fb84da08eeddaf297cfbb3a6aee8f", "is_disabled": 0, "is_reserved": 0}, {"rental_uris": {"ios": "https://dc.lft.to/lastmile_qr_scan", "android": "https://dc.lft.to/lastmile_qr_scan"}, "lon": -77.04080866666666, "type": "electric_scooter", "fusion_lat": 0.0, "lat": 38.9072445, "name": "b484109438707447ccfd861d63c69409", "fusion_lon": 0.0, "bike_id": "b484109438707447ccfd861d63c69409", "is_disabled": 0, "is_reserved": 0},