{"data": {"bikes": [{"bike_id": "8b7d035d672d76cc12ba62bf21e6f31e", "lat": 38.88767133333333, "is_reserved": 0, "fusion_lat": 0.0, "rental_uris": {"android": "https://dc.lft.to/lastmile_qr_scan", "ios": "https://dc.lft.to/lastmile_qr_scan"}, "fusion_lon": 0.0, "name": "8b7d035d672d76cc12ba62bf21e6f31e", "lon": -77.02619983333334, "is_disabled": 0, "type": "electric_scooter"}, {"bike_id": "4d7b4c4b451dd1fb127b702c12bbdefe", "lat": 38.93072983333333, "is_reserved": 0, "fusion_lat": 0.0, "rental_uris": {"android": "https://dc.lft.to/lastmile_qr_scan", "ios": "https://dc.lft.to/lastmile_qr_scan"}, "fusion_lon": 0.0, "name": "4d7b4c4b451dd1fb127b702c12bbdefe", "lon": -77.02835216666666, "is_disabled": 0, "type": "electric_scooter"}, {"bike_id": "a71aaeba7ebd54d3f6f0f96ab6cc6f62", "lat": 38.90074716666667, "is_reserved": 0, "fusion_lat": 0.0, "rental_uris": {"android": "https://dc.lft.to/lastmile_qr_scan", "ios": "https://dc.lft.to/lastmile_qr_scan"}, "fusion_lon": 0.0, "name": "a71aaeba7ebd54d3f6f0f96ab6cc6f62", "lon": -77.0323095, "is_disabled": 0, "type": "electric_scooter"}, {"bike_id": "e55278c8522a465456aac9c72e6d03ac", "lat": 38.9785805, "is_reserved": 0, "fusion_lat": 0.0, "rental_uris": {"android": "https://dc.lft.to/lastmile_qr_scan", "ios": "https://dc.lft.to/lastmile_qr_scan"}, "fusion_lon": 0.0, "name": "e55278c8522a465456aac9c72e6d03ac", "lon": -76.9404945, "is_disabled": 0, "type": "electric_bike"}, {"bike_id": "e0506f0548a21463fbecad7b240a99e1", "lat": 38.86701716666666, "is_reserved": 0, "fusion_lat": 0.0, "rental_uris": {"android": "https://dc.lft.to/lastmile_qr_scan", "ios": "https://dc.lft.to/lastmile_qr_scan"}, "fusion_lon": 0.0, "name": "e0506f0548a21463fbecad7b240a99e1", "lon": -76.98711433333334, "is_disabled": 0, "type": "electric_scooter"}, {"bike_id": "ab60c99ef64e67d1c8020824ba5d354d", "lat": 38.902778833333336, "is_reserved": 0, "fusion_lat": 0.0, "rental_uris": {"android": "https://dc.lft.to/lastmile_qr_scan", "ios": "https://dc.lft.to/lastmile_qr_scan"}, "fusion_lon": 0.0, "name": "ab60c99ef64e67d1c8020824ba5d354d", "lon": -77.03353, "is_disabled": 0, "type": "electric_scooter"}, {"bike_id": "34f16f33949743a544293cfd04a8df0f", "lat": 38.902743, "is_reserved": 0, "fusion_lat": 0.0, "rental_uris": {"android": "https://dc.lft.to/lastmile_qr_scan", "ios": "https://dc.lft.to/lastmile_qr_scan"}, "fusion_lon": 0.0, "name": "34f16f33949743a544293cfd04a8df0f", "lon": -77.0392775, "is_disabled": 0, "type": "electric_scooter"}, {"bike_id": "5569d24a9d2e92b27cf5010b45d9c972", "lat": 38.86698916666667, "is_reserved": 0, "fusion_lat": 0.0, "rental_uris": {"android": "https://dc.lft.to/lastmile_qr_scan", "ios": "https://dc.lft.to/lastmile_qr_scan"}, "fusion_lon": 0.0, "name": "5569d24a9d2e92b27cf5010b45d9c972", "lon": -76.98712266666666, "is_disabled": 0, "type": "electric_scooter"}, {"bike_id": "5ed3bd799b0a2554ddda2d2c26378555", "lat": 38.878817, "is_reserved": 0, "fusion_lat": 0.0, "rental_uris": {"android": "https://dc.lft.to/lastmile_qr_scan", "ios": "https://dc.lft.to/lastmile_qr_scan"}, "fusion_lon": 0.0, "name": "5ed3bd799b0a2554ddda2d2c26378555", "lon": -77.01914016666667, "is_disabled": 0, "type": "electric_scooter"}, {"bike_id": "b3e9eec5088dda211181c42659643eaa", "lat": 38.898693333333334, "is_reserved": 0, "fusion_lat": 0.0, "rental_uris": {"android": "https://dc.lft.to/lastmile_qr_scan", "ios": "https://dc.lft.to/lastmile_qr_scan"}, "fusion_lon": 0.0, "name": "b3e9eec5088dda211181c42659643eaa", "lon": -76.94641766666666, "is_disabled": 0, "type": "electric_scooter"}, {"bike_id": "78dc7186e6e9e8e17ee391ced7ae505b", "lat": 38.9282455, "is_reserved": 0, "fusion_lat": 0.0, "rental_uris": {"android": "https://dc.lft.to/lastmile_qr_scan", "ios": "https://dc.lft.to/lastmile_qr_scan"}, "fusion_lon": 0.0, "name": "78dc7186e6e9e8e17ee391ced7ae505b", "lon": -77.02255916666667, "is_disabled": 0, "type": "electric_scooter"}, {"bike_id": "19391db9644db54bdffe79ecc8926a77", "lat": 38.915461666666666, "is_reserved": 0, "fusion_lat": 0.0, "rental_uris": {"android": "https://dc.lft.to/lastmile_qr_scan", "ios": "https://dc.lft.to/lastmile_qr_scan"}, "fusion_lon": 0.0, "name": "19391db9644db54bdffe79ecc8926a77", "lon": -77.04455566666667, "is_disabled": 0, "type": "electric_scooter"}, {"bike_id": "e6639e5b245cdd227e9831262dd3f6f6", "lat": 38.89716583333333, "is_reserved": 0, "fusion_lat": 0.0, "rental_uris": {"android": "https://dc.lft.to/lastmile_qr_scan", "ios": "https://dc.lft.to/lastmile_qr_scan"}, "fusion_lon": 0.0, "name": "e6639e5b245cdd227e9831262dd3f6f6", "lon": -77.0268785, "is_disabled": 0, "type": "electric_scooter"}, {"bike_id": "bd7509de0b4f0fdd8d678f9daf4b36a1", "lat": 38.894284166666665, "is_reserved": 0, "fusion_lat": 0.0, "rental_uris": {"android": "https://dc.lft.to/lastmile_qr_scan", "ios": "https://dc.lft.to/lastmile_qr_scan"}, "fusion_lon": 0.0, "name": "bd7509de0b4f0fdd8d678f9daf4b36a1", "lon": -77.039649, "is_disabled": 0, "type": "electric_scooter"}, {"bike_id": "977809eb031802e6896244bd3003aa92", "lat": 38.94920233333333, "is_reserved": 0, "fusion_lat": 0.0, "rental_uris": {"android": "https://dc.lft.to/lastmile_qr_scan", "ios": "https://dc.lft.to/lastmile_qr_scan"}, "fusion_lon": 0.0, "name": "977809eb031802e6896244bd3003aa92", "lon": -77.01858166666666, "is_disabled": 0, "type": "electric_scooter"}, {"bike_id": "00c729071fbe7348a0440ec7997489c7", "lat": 38.90978416666667, "is_reserved": 0, "fusion_lat": 0.0, "rental_uris": {"android": "https://dc.lft.to/lastmile_qr_scan", "ios": "https://dc.lft.to/lastmile_qr_scan"}, "fusion_lon": 0.0, "name": "00c729071fbe7348a0440ec7997489c7", "lon": -77.03440583333334, "is_disabled": 0, "type": "electric_scooter"}, {"bike_id": "bd55cfd000c678320cae2d7a5a69c2f8", "lat": 38.90710283333333, "is_reserved": 0, "fusion_lat": 0.0, "rental_uris": {"android": "https://dc.lft.to/lastmile_qr_scan", "ios": "https://dc.lft.to/lastmile_qr_scan"}, "fusion_lon": 0.0, "name": "bd55cfd000c678320cae2d7a5a69c2f8", "lon": -77.00230966666666, "is_disabled": 0, "type": "electric_scooter"}, {"bike_id": "a34e4bec23b0cdb3061660e51ee7a384", "lat": 38.9032085, "is_reserved": 0, "fusion_lat": 0.0, "rental_uris": {"android": "https://dc.lft.to/lastmile_qr_scan", "ios": "https://dc.lft.to/lastmile_qr_scan"}, "fusion_lon": 0.0, "name": "a34e4bec23b0cdb3061660e51ee7a384", "lon": -77.00592683333333, "is_disabled": 0, "type": "electric_scooter"}, {"bike_id": "74e019d8577d25fcc76f93701fad36f6", "lat": 38.9307815, "is_reserved": 0, "fusion_lat": 0.0, "rental_uris": {"android": "https://dc.lft.to/lastmile_qr_scan", "ios": "https://dc.lft.to/lastmile_qr_scan"}, "fusion_lon": 0.0, "name": "74e019d8577d25fcc76f93701fad36f6", "lon": -77.02794283333333, "is_disabled": 0, "type": "electric_scooter"}, {"bike_id": "fc4d12669fdcbbea66e904593d40be27", "lat": 38.902803, "is_reserved": 0, "fusion_lat": 0.0, "rental_uris": {"android": "https://dc.lft.to/lastmile_qr_scan", "ios": "https://dc.lft.to/lastmile_qr_scan"}, "fusion_lon": 0.0, "name": "fc4d12669fdcbbea66e904593d40be27", "lon": -77.03952316666667, "is_disabled": 0, "type": "electric_scooter"}, {"bike_id": "df30aed0442cf020e648e869b10e35ed", "lat": 38.900217, "is_reserved": 0, "fusion_lat": 0.0, "rental_uris": {"android": "https://dc.lft.to/lastmile_qr_scan", "ios": "https://dc.lft.to/lastmile_qr_scan"}, "fusion_lon": 0.0, "name": "df30aed0442cf020e648e869b10e35ed", "lon": -77.04043183333333, "is_disabled": 0, "type": "electric_scooter"}, {"bike_id": "20e6ec71aabcf246849e33cfc6233359", "lat": 38.91562483333333, "is_reserved": 0, "fusion_lat": 0.0, "rental_uris": {"android": "https://dc.lft.to/lastmile_qr_scan", "ios": "https://dc.lft.to/lastmile_qr_scan"}, "fusion_lon": 0.0, "name": "20e6ec71aabcf246849e33cfc6233359", "lon": -77.010412, "is_disabled": 0, "type": "electric_scooter"}, {"bike_id": "05ae31f41710c67105b4a204d05d6376", "lat": 38.92064283333333, "is_reserved": 0, "fusion_lat": 0.0, "rental_uris": {"android": "https://dc.lft.to/lastmile_qr_scan", "ios": "https://dc.lft.to/lastmile_qr_scan"}, "fusion_lon": 0.0, "name": "05ae31f41710c67105b4a204d05d6376", "lon": -77.0326385, "is_disabled": 0, "type": "electric_scooter"}, {"bike_id": "c0ad2abf3ad9ba11f03fabe3ed167e84", "lat": 38.9155095, "is_reserved": 0, "fusion_lat": 0.0, "rental_uris": {"android": "https://dc.lft.to/lastmile_qr_scan", "ios": "https://dc.lft.to/lastmile_qr_scan"}, "fusion_lon": 0.0, "name": "c0ad2abf3ad9ba11f03fabe3ed167e84", "lon": -77.06673416666666, "is_disabled": 0, "type": "electric_bike"}, {"bike_id": "932413134f5ada49eeb1e1cf8c1fd40e", "lat": 38.917421, "is_reserved": 0, "fusion_lat": 0.0, "rental_uris": {"android": "https://dc.lft.to/lastmile_qr_scan", "ios": "https://dc.lft.to/lastmile_qr_scan"}, "fusion_lon": 0.0, "name": "932413134f5ada49eeb1e1cf8c1fd40e", "lon": -77.03185683333334, "is_disabled": 0, "type": "electric_scooter"}, {"bike_id": "04c79badb5a5d855dd6e9e32fa0e5cf3", "lat": 38.91676483333333, "is_reserved": 0, "fusion_lat": 0.0, "rental_uris": {"android": "https://dc.lft.to/lastmile_qr_scan", "ios": "https://dc.lft.to/lastmile_qr_scan"}, "fusion_lon": 0.0, "name": "04c79badb5a5d855dd6e9e32fa0e5cf3", "lon": -77.01582416666666, "is_disabled": 0, "type": "electric_scooter"}, {"bike_id": "813f10686bd2be5412ff8ae8e289f8d8", "lat": 38.845268833333336, "is_reserved": 0, "fusion_lat": 0.0, "rental_uris": {"android": "https://dc.lft.to/lastmile_qr_scan", "ios": "https://dc.lft.to/lastmile_qr_scan"}, "fusion_lon": 0.0, "name": "813f10686bd2be5412ff8ae8e289f8d8", "lon": -76.97401533333333, "is_disabled": 0, "type": "electric_bike"}, {"bike_id": "7647ee066285ff842903c73b921f7607", "lat": 38.903343666666665, "is_reserved": 0, "fusion_lat": 0.0, "rental_uris": {"android": "https://dc.lft.to/lastmile_qr_scan", "ios": "https://dc.lft.to/lastmile_qr_scan"}, "fusion_lon": 0.0, "name": "7647ee066285ff842903c73b921f7607", "lon": -77.03835133333334, "is_disabled": 0, "type": "electric_scooter"}, {"bike_id": "d9f69c9d9b5de2d55e17fdb16df039fd", "lat": 38.91908333333333, "is_reserved": 0, "fusion_lat": 0.0, "rental_uris": {"android": "https://dc.lft.to/lastmile_qr_scan", "ios": "https://dc.lft.to/lastmile_qr_scan"}, "fusion_lon": 0.0, "name": "d9f69c9d9b5de2d55e17fdb16df039fd", "lon": -77.03446966666667, "is_disabled": 0, "type": "electric_scooter"}, {"bike_id": "c60d7979748bfe6e794e255b02494853", "lat": 38.94785383333333, "is_reserved": 0, "fusion_lat": 0.0, "rental_uris": {"android": "https://dc.lft.to/lastmile_qr_scan", "ios": "https://dc.lft.to/lastmile_qr_scan"}, "fusion_lon": 0.0, "name": "c60d7979748bfe6e794e255b02494853", "lon": -77.02132366666666, "is_disabled": 0, "type": "electric_scooter"}, {"bike_id": "e03a1844ffc9c95a5776a005c98a8d33", "lat": 38.8976155, "is_reserved": 0, "fusion_lat": 0.0, "rental_uris": {"android": "https://dc.lft.to/lastmile_qr_scan", "ios": "https://dc.lft.to/lastmile_qr_scan"}, "fusion_lon": 0.0, "name": "e03a1844ffc9c95a5776a005c98a8d33", "lon": -77.03051733333334, "is_disabled": 0, "type": "electric_scooter"}, {"bike_id": "7dfa4d37ab51686d7c69c0767619885f", "lat": 38.92081, "is_reserved": 0, "fusion_lat": 0.0, "rental_uris": {"android": "https://dc.lft.to/lastmile_qr_scan", "ios": "https://dc.lft.to/lastmile_qr_scan"}, "fusion_lon": 0.0, "name": "7dfa4d37ab51686d7c69c0767619885f", "lon": -77.023088, "is_disabled": 0, "type": "electric_scooter"}, {"bike_id": "ccb51141202c544bddf3438ac5e9efe9", "lat": 38.9129125, "is_reserved": 0, "fusion_lat": 0.0, "rental_uris": {"android": "https://dc.lft.to/lastmile_qr_scan", "ios": "https://dc.lft.to/lastmile_qr_scan"}, "fusion_lon": 0.0, "name": "ccb51141202c544bddf3438ac5e9efe9", "lon": -77.02385516666666, "is_disabled": 0, "type": "electric_scooter"}, {"bike_id": "96498f676f47b5563d0d199b3265bf3b", "lat": 38.89221533333333, "is_reserved": 0, "fusion_lat": 0.0, "rental_uris": {"android": "https://dc.lft.to/lastmile_qr_scan", "ios": "https://dc.lft.to/lastmile_qr_scan"}, "fusion_lon": 0.0, "name": "96498f676f47b5563d0d199b3265bf3b", "lon": -77.04009766666667, "is_disabled": 0, "type": "electric_scooter"}, {"bike_id": "972308f72b75a968a44e53e56269b0a7", "lat": 38.907803, "is_reserved": 0, "fusion_lat": 0.0, "rental_uris": {"android": "https://dc.lft.to/lastmile_qr_scan", "ios": "https://dc.lft.to/lastmile_qr_scan"}, "fusion_lon": 0.0, "name": "972308f72b75a968a44e53e56269b0a7", "lon": -77.02980466666666, "is_disabled": 0, "type": "electric_scooter"}, {"bike_id": "0fd8b8f3d208ed7ea546b22a769cdc0c", "lat": 38.893371333333334, "is_reserved": 0, "fusion_lat": 0.0, "rental_uris": {"android": "https://dc.lft.to/lastmile_qr_scan", "ios": "https://dc.lft.to/lastmile_qr_scan"}, "fusion_lon": 0.0, "name": "0fd8b8f3d208ed7ea546b22a769cdc0c", "lon": -77.03160066666666, "is_disabled": 0, "type": "electric_scooter"}, {"bike_id": "4c6021a3827792cddbcc7f589166b760", "lat": 38.900224, "is_reserved": 0, "fusion_lat": 0.0, "rental_uris": {"android": "https://dc.lft.to/lastmile_qr_scan", "ios": "https://dc.lft.to/lastmile_qr_scan"}, "fusion_lon": 0.0, "name": "4c6021a3827792cddbcc7f589166b760", "lon": -76.998505, "is_disabled": 0, "type": "electric_scooter"}, {"bike_id": "34472f63df87cc1453705aa0e7f9019a", "lat": 38.91694, "is_reserved": 0, "fusion_lat": 0.0, "rental_uris": {"android": "https://dc.lft.to/lastmile_qr_scan", "ios": "https://dc.lft.to/lastmile_qr_scan"}, "fusion_lon": 0.0, "name": "34472f63df87cc1453705aa0e7f9019a", "lon": -77.0376445, "is_disabled": 0, "type": "electric_scooter"}, {"bike_id": "debd9e2406ca553d1e271a38cf131dff", "lat": 38.90618083333333, "is_reserved": 0, "fusion_lat": 0.0, "rental_uris": {"android": "https://dc.lft.to/lastmile_qr_scan", "ios": "https://dc.lft.to/lastmile_qr_scan"}, "fusion_lon": 0.0, "name": "debd9e2406ca553d1e271a38cf131dff", "lon": -77.048743, "is_disabled": 0, "type": "electric_scooter"}, {"bike_id": "00786500f16577250628e5fb26b8862a", "lat": 38.918049833333335, "is_reserved": 0, "fusion_lat": 0.0, "rental_uris": {"android": "https://dc.lft.to/lastmile_qr_scan", "ios": "https://dc.lft.to/lastmile_qr_scan"}, "fusion_lon": 0.0, "name": "00786500f16577250628e5fb26b8862a", "lon": -77.0308125, "is_disabled": 0, "type": "electric_scooter"}, {"bike_id": "226164b8c161712b3d7d22583868f0f8", "lat": 38.90304666666667, "is_reserved": 0, "fusion_lat": 0.0, "rental_uris": {"android": "https://dc.lft.to/lastmile_qr_scan", "ios": "https://dc.lft.to/lastmile_qr_scan"}, "fusion_lon": 0.0, "name": "226164b8c161712b3d7d22583868f0f8", "lon": -77.04701833333333, "is_disabled": 0, "type": "electric_scooter"}, {"bike_id": "f7d30ee5b6d53fe1e5ceb2d90ffdbd91", "lat": 38.89702583333333, "is_reserved": 0, "fusion_lat": 0.0, "rental_uris": {"android": "https://dc.lft.to/lastmile_qr_scan", "ios": "https://dc.lft.to/lastmile_qr_scan"}, "fusion_lon": 0.0, "name": "f7d30ee5b6d53fe1e5ceb2d90ffdbd91", "lon": -77.0282335, "is_disabled": 0, "type": "electric_scooter"}, {"bike_id": "2de9b086d6dd8e767c08b1eb98538269", "lat": 38.896528, "is_reserved": 0, "fusion_lat": 0.0, "rental_uris": {"android": "https://dc.lft.to/lastmile_qr_scan", "ios": "https://dc.lft.to/lastmile_qr_scan"}, "fusion_lon": 0.0, "name": "2de9b086d6dd8e767c08b1eb98538269", "lon": -77.02707583333333, "is_disabled": 0, "type": "electric_scooter"}, {"bike_id": "d9605eab31697ff9189d698369b1122d", "lat": 38.922320166666665, "is_reserved": 0, "fusion_lat": 0.0, "rental_uris": {"android": "https://dc.lft.to/lastmile_qr_scan", "ios": "https://dc.lft.to/lastmile_qr_scan"}, "fusion_lon": 0.0, "name": "d9605eab31697ff9189d698369b1122d", "lon": -77.04376366666666, "is_disabled": 0, "type": "electric_scooter"}, {"bike_id": "b8786bf8d206ad2d5ca07a5413f15440", "lat": 38.939971166666666, "is_reserved": 0, "fusion_lat": 0.0, "rental_uris": {"android": "https://dc.lft.to/lastmile_qr_scan", "ios": "https://dc.lft.to/lastmile_qr_scan"}, "fusion_lon": 0.0, "name": "b8786bf8d206ad2d5ca07a5413f15440", "lon": -77.03804883333333, "is_disabled": 0, "type": "electric_scooter"}, {"bike_id": "005a6cc548aa65906bcafba57daf53fe", "lat": 38.89654433333333, "is_reserved": 0, "fusion_lat": 0.0, "rental_uris": {"android": "https://dc.lft.to/lastmile_qr_scan", "ios": "https://dc.lft.to/lastmile_qr_scan"}, "fusion_lon": 0.0, "name": "005a6cc548aa65906bcafba57daf53fe", "lon": -77.05027133333333, "is_disabled": 0, "type": "electric_scooter"}, {"bike_id": "410d94cb46ac79f092e217f06cb32ea4", "lat": 38.884682, "is_reserved": 0, "fusion_lat": 0.0, "rental_uris": {"android": "https://dc.lft.to/lastmile_qr_scan", "ios": "https://dc.lft.to/lastmile_qr_scan"}, "fusion_lon": 0.0, "name": "410d94cb46ac79f092e217f06cb32ea4", "lon": -77.000423, "is_disabled": 0, "type": "electric_scooter"}, {"bike_id": "66456c1fcb4ce4022d827f18e67eda82", "lat": 38.898653333333336, "is_reserved": 0, "fusion_lat": 0.0, "rental_uris": {"android": "https://dc.lft.to/lastmile_qr_scan", "ios": "https://dc.lft.to/lastmile_qr_scan"}, "fusion_lon": 0.0, "name": "66456c1fcb4ce4022d827f18e67eda82", "lon": -77.01247183333334, "is_disabled": 0, "type": "electric_scooter"}, {"bike_id": "60fadc212c8838e598251876a0e44f34", "lat": 38.900051500000004, "is_reserved": 0, "fusion_lat": 0.0, "rental_uris": {"android": "https://dc.lft.to/lastmile_qr_scan", "ios": "https://dc.lft.to/lastmile_qr_scan"}, "fusion_lon": 0.0, "name": "60fadc212c8838e598251876a0e44f34", "lon": -77.02707666666667, "is_disabled": 0, "type": "electric_scooter"}, {"bike_id": "5a133f601d6fbe1f186451ed7ae704b1", "lat": 38.90940616666666, "is_reserved": 0, "fusion_lat": 0.0, "rental_uris": {"android": "https://dc.lft.to/lastmile_qr_scan", "ios": "https://dc.lft.to/lastmile_qr_scan"}, "fusion_lon": 0.0, "name": "5a133f601d6fbe1f186451ed7ae704b1", "lon": -77.0319265, "is_disabled": 0, "type": "electric_scooter"}, {"bike_id": "78f5b4b4b3e9876a9931ceb66d7d53f4", "lat": 38.89959366666667, "is_reserved": 0, "fusion_lat": 0.0, "rental_uris": {"android": "https://dc.lft.to/lastmile_qr_scan", "ios": "https://dc.lft.to/lastmile_qr_scan"}, "fusion_lon": 0.0, "name": "78f5b4b4b3e9876a9931ceb66d7d53f4", "lon": -77.01992966666667, "is_disabled": 0, "type": "electric_scooter"}, {"bike_id": "36d24a227dba2abf353f1b2741d42225", "lat": 38.92070533333333, "is_reserved": 0, "fusion_lat": 0.0, "rental_uris": {"android": "https://dc.lft.to/lastmile_qr_scan", "ios": "https://dc.lft.to/lastmile_qr_scan"}, "fusion_lon": 0.0, "name": "36d24a227dba2abf353f1b2741d42225", "lon": -77.02319466666667, "is_disabled": 0, "type": "electric_scooter"}, {"bike_id": "7d43894f4f5b2347f1fb90185555fb58", "lat": 38.89886033333333, "is_reserved": 0, "fusion_lat": 0.0, "rental_uris": {"android": "https://dc.lft.to/lastmile_qr_scan", "ios": "https://dc.lft.to/lastmile_qr_scan"}, "fusion_lon": 0.0, "name": "7d43894f4f5b2347f1fb90185555fb58", "lon": -76.93175533333333, "is_disabled": 0, "type": "electric_scooter"}, {"bike_id": "fed5fd1e6514d3601d594a021625e99e", "lat": 38.923246166666665, "is_reserved": 0, "fusion_lat": 0.0, "rental_uris": {"android": "https://dc.lft.to/lastmile_qr_scan", "ios": "https://dc.lft.to/lastmile_qr_scan"}, "fusion_lon": 0.0, "name": "fed5fd1e6514d3601d594a021625e99e", "lon": -77.055795, "is_disabled": 0, "type": "electric_scooter"}, {"bike_id": "14cd768c8774ac2d1974e9a718219085", "lat": 38.91806366666667, "is_reserved": 0, "fusion_lat": 0.0, "rental_uris": {"android": "https://dc.lft.to/lastmile_qr_scan", "ios": "https://dc.lft.to/lastmile_qr_scan"}, "fusion_lon": 0.0, "name": "14cd768c8774ac2d1974e9a718219085", "lon": -77.034389, "is_disabled": 0, "type": "electric_scooter"}, {"bike_id": "c4f3de431939fbce31b7da49557b9e11", "lat": 38.866307666666664, "is_reserved": 0, "fusion_lat": 0.0, "rental_uris": {"android": "https://dc.lft.to/lastmile_qr_scan", "ios": "https://dc.lft.to/lastmile_qr_scan"}, "fusion_lon": 0.0, "name": "c4f3de431939fbce31b7da49557b9e11", "lon": -76.98716583333334, "is_disabled": 0, "type": "electric_scooter"}, {"bike_id": "12f70ade37d946b6a6581ac8ed420ffb", "lat": 38.914798833333336, "is_reserved": 0, "fusion_lat": 0.0, "rental_uris": {"android": "https://dc.lft.to/lastmile_qr_scan", "ios": "https://dc.lft.to/lastmile_qr_scan"}, "fusion_lon": 0.0, "name": "12f70ade37d946b6a6581ac8ed420ffb", "lon": -77.03574633333334, "is_disabled": 0, "type": "electric_scooter"}, {"bike_id": "8051756846f0c041a62b52e50afefe45", "lat": 38.89650483333333, "is_reserved": 0, "fusion_lat": 0.0, "rental_uris": {"android": "https://dc.lft.to/lastmile_qr_scan", "ios": "https://dc.lft.to/lastmile_qr_scan"}, "fusion_lon": 0.0, "name": "8051756846f0c041a62b52e50afefe45", "lon": -77.07101566666667, "is_disabled": 0, "type": "electric_scooter"}, {"bike_id": "85a43234a97eb2adbb75aac063f3cedf", "lat": 38.9292375, "is_reserved": 0, "fusion_lat": 0.0, "rental_uris": {"android": "https://dc.lft.to/lastmile_qr_scan", "ios": "https://dc.lft.to/lastmile_qr_scan"}, "fusion_lon": 0.0, "name": "85a43234a97eb2adbb75aac063f3cedf", "lon": -77.02054583333333, "is_disabled": 0, "type": "electric_bike"}, {"bike_id": "fc32bbd09eabfd0bb0acc9f35e39f696", "lat": 38.931699333333334, "is_reserved": 0, "fusion_lat": 0.0, "rental_uris": {"android": "https://dc.lft.to/lastmile_qr_scan", "ios": "https://dc.lft.to/lastmile_qr_scan"}, "fusion_lon": 0.0, "name": "fc32bbd09eabfd0bb0acc9f35e39f696", "lon": -77.031578, "is_disabled": 0, "type": "electric_scooter"}, {"bike_id": "e7b8572a02b0329ce847244377ee421f", "lat": 38.8878245, "is_reserved": 0, "fusion_lat": 0.0, "rental_uris": {"android": "https://dc.lft.to/lastmile_qr_scan", "ios": "https://dc.lft.to/lastmile_qr_scan"}, "fusion_lon": 0.0, "name": "e7b8572a02b0329ce847244377ee421f", "lon": -76.95532583333333, "is_disabled": 0, "type": "electric_scooter"}, {"bike_id": "1064f15118e5c172b57a21adfb049677", "lat": 38.928804166666666, "is_reserved": 0, "fusion_lat": 0.0, "rental_uris": {"android": "https://dc.lft.to/lastmile_qr_scan", "ios": "https://dc.lft.to/lastmile_qr_scan"}, "fusion_lon": 0.0, "name": "1064f15118e5c172b57a21adfb049677", "lon": -77.039266, "is_disabled": 0, "type": "electric_scooter"}, {"bike_id": "741d939a751e95046084773c3c457c2d", "lat": 38.89737933333333, "is_reserved": 0, "fusion_lat": 0.0, "rental_uris": {"android": "https://dc.lft.to/lastmile_qr_scan", "ios": "https://dc.lft.to/lastmile_qr_scan"}, "fusion_lon": 0.0, "name": "741d939a751e95046084773c3c457c2d", "lon": -77.02731466666667, "is_disabled": 0, "type": "electric_scooter"}, {"bike_id": "4624c303507b9e98e47a7bf53998adde", "lat": 38.903580833333336, "is_reserved": 0, "fusion_lat": 0.0, "rental_uris": {"android": "https://dc.lft.to/lastmile_qr_scan", "ios": "https://dc.lft.to/lastmile_qr_scan"}, "fusion_lon": 0.0, "name": "4624c303507b9e98e47a7bf53998adde", "lon": -77.03171483333334, "is_disabled": 0, "type": "electric_scooter"}, {"bike_id": "d3fbc95acde6eb1dd3c3e84914da5cc9", "lat": 38.907259, "is_reserved": 0, "fusion_lat": 0.0, "rental_uris": {"android": "https://dc.lft.to/lastmile_qr_scan", "ios": "https://dc.lft.to/lastmile_qr_scan"}, "fusion_lon": 0.0, "name": "d3fbc95acde6eb1dd3c3e84914da5cc9", "lon": -77.00085066666666, "is_disabled": 0, "type": "electric_scooter"}, {"bike_id": "2cdbf12ef3b7ca84053ee8e5bdae5f5a", "lat": 38.920202, "is_reserved": 0, "fusion_lat": 0.0, "rental_uris": {"android": "https://dc.lft.to/lastmile_qr_scan", "ios": "https://dc.lft.to/lastmile_qr_scan"}, "fusion_lon": 0.0, "name": "2cdbf12ef3b7ca84053ee8e5bdae5f5a", "lon": -77.01925083333333, "is_disabled": 0, "type": "electric_scooter"}, {"bike_id": "7ff76b82e23b50680ce2e8554a80c8c2", "lat": 38.923733, "is_reserved": 0, "fusion_lat": 0.0, "rental_uris": {"android": "https://dc.lft.to/lastmile_qr_scan", "ios": "https://dc.lft.to/lastmile_qr_scan"}, "fusion_lon": 0.0, "name": "7ff76b82e23b50680ce2e8554a80c8c2", "lon": -77.03132833333333, "is_disabled": 0, "type": "electric_scooter"}, {"bike_id": "013108a23392486ef9c69fed4c2ae474", "lat": 38.8463945, "is_reserved": 0, "fusion_lat": 0.0, "rental_uris": {"android": "https://dc.lft.to/lastmile_qr_scan", "ios": "https://dc.lft.to/lastmile_qr_scan"}, "fusion_lon": 0.0, "name": "013108a23392486ef9c69fed4c2ae474", "lon": -76.9913075, "is_disabled": 0, "type": "electric_scooter"}, {"bike_id": "57d6388cd91bf27353b105a2939643c0", "lat": 38.90637316666667, "is_reserved": 0, "fusion_lat": 0.0, "rental_uris": {"android": "https://dc.lft.to/lastmile_qr_scan", "ios": "https://dc.lft.to/lastmile_qr_scan"}, "fusion_lon": 0.0, "name": "57d6388cd91bf27353b105a2939643c0", "lon": -77.02173516666667, "is_disabled": 0, "type": "electric_scooter"}, {"bike_id": "b7c225d36b2aebdea37583ce62e8f7ff", "lat": 38.92253933333333, "is_reserved": 0, "fusion_lat": 0.0, "rental_uris": {"android": "https://dc.lft.to/lastmile_qr_scan", "ios": "https://dc.lft.to/lastmile_qr_scan"}, "fusion_lon": 0.0, "name": "b7c225d36b2aebdea37583ce62e8f7ff", "lon": -77.0195765, "is_disabled": 0, "type": "electric_scooter"}, {"bike_id": "06f69832ddda7d23ff6a0d1ff6c2e9a7", "lat": 38.91466583333333, "is_reserved": 0, "fusion_lat": 0.0, "rental_uris": {"android": "https://dc.lft.to/lastmile_qr_scan", "ios": "https://dc.lft.to/lastmile_qr_scan"}, "fusion_lon": 0.0, "name": "06f69832ddda7d23ff6a0d1ff6c2e9a7", "lon": -76.9811495, "is_disabled": 0, "type": "electric_scooter"}, {"bike_id": "3a9c5710903dee65e65d65bce468e876", "lat": 38.9037655, "is_reserved": 0, "fusion_lat": 0.0, "rental_uris": {"android": "https://dc.lft.to/lastmile_qr_scan", "ios": "https://dc.lft.to/lastmile_qr_scan"}, "fusion_lon": 0.0, "name": "3a9c5710903dee65e65d65bce468e876", "lon": -77.044989, "is_disabled": 0, "type": "electric_scooter"}, {"bike_id": "3b3b6c7d2fdd3174eaae7d2744da2ee4", "lat": 38.900123, "is_reserved": 0, "fusion_lat": 0.0, "rental_uris": {"android": "https://dc.lft.to/lastmile_qr_scan", "ios": "https://dc.lft.to/lastmile_qr_scan"}, "fusion_lon": 0.0, "name": "3b3b6c7d2fdd3174eaae7d2744da2ee4", "lon": -76.98702583333333, "is_disabled": 0, "type": "electric_scooter"}, {"bike_id": "b37a8739e97681f228a59b0d99ad01b8", "lat": 38.821703666666664, "is_reserved": 0, "fusion_lat": 0.0, "rental_uris": {"android": "https://dc.lft.to/lastmile_qr_scan", "ios": "https://dc.lft.to/lastmile_qr_scan"}, "fusion_lon": 0.0, "name": "b37a8739e97681f228a59b0d99ad01b8", "lon": -76.99508416666667, "is_disabled": 0, "type": "electric_bike"}, {"bike_id": "f5b1d038e79102d5523f86fedd1590d8", "lat": 38.918212833333335, "is_reserved": 0, "fusion_lat": 0.0, "rental_uris": {"android": "https://dc.lft.to/lastmile_qr_scan", "ios": "https://dc.lft.to/lastmile_qr_scan"}, "fusion_lon": 0.0, "name": "f5b1d038e79102d5523f86fedd1590d8", "lon": -77.0394845, "is_disabled": 0, "type": "electric_scooter"}, {"bike_id": "484b9e0cd0c414f6311ec0e871c37a13", "lat": 38.87685583333333, "is_reserved": 0, "fusion_lat": 0.0, "rental_uris": {"android": "https://dc.lft.to/lastmile_qr_scan", "ios": "https://dc.lft.to/lastmile_qr_scan"}, "fusion_lon": 0.0, "name": "484b9e0cd0c414f6311ec0e871c37a13", "lon": -77.01759316666667, "is_disabled": 0, "type": "electric_scooter"}, {"bike_id": "4ec4ccf57b71bccfaaaebaeb6ddd1638", "lat": 38.893607333333335, "is_reserved": 0, "fusion_lat": 0.0, "rental_uris": {"android": "https://dc.lft.to/lastmile_qr_scan", "ios": "https://dc.lft.to/lastmile_qr_scan"}, "fusion_lon": 0.0, "name": "4ec4ccf57b71bccfaaaebaeb6ddd1638", "lon": -76.94936883333334, "is_disabled": 0, "type": "electric_scooter"}, {"bike_id": "1ade9caa485c948dd5e68827d71ff237", "lat": 38.92069516666667, "is_reserved": 0, "fusion_lat": 0.0, "rental_uris": {"android": "https://dc.lft.to/lastmile_qr_scan", "ios": "https://dc.lft.to/lastmile_qr_scan"}, "fusion_lon": 0.0, "name": "1ade9caa485c948dd5e68827d71ff237", "lon": -77.02689916666667, "is_disabled": 0, "type": "electric_scooter"}, {"bike_id": "6dbeb4019180193971bf041f8c600c76", "lat": 38.915645166666664, "is_reserved": 0, "fusion_lat": 0.0, "rental_uris": {"android": "https://dc.lft.to/lastmile_qr_scan", "ios": "https://dc.lft.to/lastmile_qr_scan"}, "fusion_lon": 0.0, "name": "6dbeb4019180193971bf041f8c600c76", "lon": -77.02005383333334, "is_disabled": 0, "type": "electric_scooter"}, {"bike_id": "a1ebda4dd961a80cdb09dc28619e9105", "lat": 38.90260966666666, "is_reserved": 0, "fusion_lat": 0.0, "rental_uris": {"android": "https://dc.lft.to/lastmile_qr_scan", "ios": "https://dc.lft.to/lastmile_qr_scan"}, "fusion_lon": 0.0, "name": "a1ebda4dd961a80cdb09dc28619e9105", "lon": -77.02151, "is_disabled": 0, "type": "electric_scooter"}, {"bike_id": "7660f71c1d767e57ef6e4a7cbe2bde0f", "lat": 38.84596583333333, "is_reserved": 0, "fusion_lat": 0.0, "rental_uris": {"android": "https://dc.lft.to/lastmile_qr_scan", "ios": "https://dc.lft.to/lastmile_qr_scan"}, "fusion_lon": 0.0, "name": "7660f71c1d767e57ef6e4a7cbe2bde0f", "lon": -77.10863266666667, "is_disabled": 0, "type": "electric_bike"}, {"bike_id": "9ca36abc3ffc00f4ca253b17f700b126", "lat": 38.912695166666666, "is_reserved": 0, "fusion_lat": 0.0, "rental_uris": {"android": "https://dc.lft.to/lastmile_qr_scan", "ios": "https://dc.lft.to/lastmile_qr_scan"}, "fusion_lon": 0.0, "name": "9ca36abc3ffc00f4ca253b17f700b126", "lon": -77.02214133333334, "is_disabled": 0, "type": "electric_scooter"}, {"bike_id": "e24a852f56fa3a3ff793ce590e94a6ad", "lat": 38.91416233333333, "is_reserved": 0, "fusion_lat": 0.0, "rental_uris": {"android": "https://dc.lft.to/lastmile_qr_scan", "ios": "https://dc.lft.to/lastmile_qr_scan"}, "fusion_lon": 0.0, "name": "e24a852f56fa3a3ff793ce590e94a6ad", "lon": -77.02124016666667, "is_disabled": 0, "type": "electric_scooter"}, {"bike_id": "09f3227bfb690c90fb36dd75a56923c7", "lat": 38.920421, "is_reserved": 0, "fusion_lat": 0.0, "rental_uris": {"android": "https://dc.lft.to/lastmile_qr_scan", "ios": "https://dc.lft.to/lastmile_qr_scan"}, "fusion_lon": 0.0, "name": "09f3227bfb690c90fb36dd75a56923c7", "lon": -77.0168805, "is_disabled": 0, "type": "electric_scooter"}, {"bike_id": "5d553060633e47074b48aab495b4e8cd", "lat": 38.905577666666666, "is_reserved": 0, "fusion_lat": 0.0, "rental_uris": {"android": "https://dc.lft.to/lastmile_qr_scan", "ios": "https://dc.lft.to/lastmile_qr_scan"}, "fusion_lon": 0.0, "name": "5d553060633e47074b48aab495b4e8cd", "lon": -77.065271, "is_disabled": 0, "type": "electric_scooter"}, {"bike_id": "5815ed5b93d06a9299ae6bb2d1a2dd4c", "lat": 38.87171033333333, "is_reserved": 0, "fusion_lat": 0.0, "rental_uris": {"android": "https://dc.lft.to/lastmile_qr_scan", "ios": "https://dc.lft.to/lastmile_qr_scan"}, "fusion_lon": 0.0, "name": "5815ed5b93d06a9299ae6bb2d1a2dd4c", "lon": -77.00673016666667, "is_disabled": 0, "type": "electric_scooter"}, {"bike_id": "ac8a86c86b7b0fba2f976b32ab377136", "lat": 38.901452, "is_reserved": 0, "fusion_lat": 0.0, "rental_uris": {"android": "https://dc.lft.to/lastmile_qr_scan", "ios": "https://dc.lft.to/lastmile_qr_scan"}, "fusion_lon": 0.0, "name": "ac8a86c86b7b0fba2f976b32ab377136", "lon": -77.0293495, "is_disabled": 0, "type": "electric_scooter"}, {"bike_id": "c472af1a65adedc9acdb82b5ecae15e4", "lat": 38.919016166666665, "is_reserved": 0, "fusion_lat": 0.0, "rental_uris": {"android": "https://dc.lft.to/lastmile_qr_scan", "ios": "https://dc.lft.to/lastmile_qr_scan"}, "fusion_lon": 0.0, "name": "c472af1a65adedc9acdb82b5ecae15e4", "lon": -77.01963183333334, "is_disabled": 0, "type": "electric_scooter"}, {"bike_id": "975ddb0187fb11811d3d1c1e7a35e6ae", "lat": 38.860571166666666, "is_reserved": 0, "fusion_lat": 0.0, "rental_uris": {"android": "https://dc.lft.to/lastmile_qr_scan", "ios": "https://dc.lft.to/lastmile_qr_scan"}, "fusion_lon": 0.0, "name": "975ddb0187fb11811d3d1c1e7a35e6ae", "lon": -76.985109, "is_disabled": 0, "type": "electric_scooter"}, {"bike_id": "b95043e6e23cec51d1d6bfbfa7a263f6", "lat": 38.91805166666666, "is_reserved": 0, "fusion_lat": 0.0, "rental_uris": {"android": "https://dc.lft.to/lastmile_qr_scan", "ios": "https://dc.lft.to/lastmile_qr_scan"}, "fusion_lon": 0.0, "name": "b95043e6e23cec51d1d6bfbfa7a263f6", "lon": -77.00930766666667, "is_disabled": 0, "type": "electric_scooter"}, {"bike_id": "91efab60b1907147f6bcdb68a5f3408e", "lat": 38.886588833333334, "is_reserved": 0, "fusion_lat": 0.0, "rental_uris": {"android": "https://dc.lft.to/lastmile_qr_scan", "ios": "https://dc.lft.to/lastmile_qr_scan"}, "fusion_lon": 0.0, "name": "91efab60b1907147f6bcdb68a5f3408e", "lon": -77.0283325, "is_disabled": 0, "type": "electric_scooter"}, {"bike_id": "9322f4fd288fcb51785f982b1621c1f6", "lat": 38.993202333333336, "is_reserved": 0, "fusion_lat": 0.0, "rental_uris": {"android": "https://dc.lft.to/lastmile_qr_scan", "ios": "https://dc.lft.to/lastmile_qr_scan"}, "fusion_lon": 0.0, "name": "9322f4fd288fcb51785f982b1621c1f6", "lon": -77.02317766666667, "is_disabled": 0, "type": "electric_bike"}, {"bike_id": "1d59249483aa89ef9b85299645b5574c", "lat": 38.89944, "is_reserved": 0, "fusion_lat": 0.0, "rental_uris": {"android": "https://dc.lft.to/lastmile_qr_scan", "ios": "https://dc.lft.to/lastmile_qr_scan"}, "fusion_lon": 0.0, "name": "1d59249483aa89ef9b85299645b5574c", "lon": -77.01502033333334, "is_disabled": 0, "type": "electric_scooter"}, {"bike_id": "022f262137bf078d24c3328c50b8f20a", "lat": 38.80977733333334, "is_reserved": 0, "fusion_lat": 0.0, "rental_uris": {"android": "https://dc.lft.to/lastmile_qr_scan", "ios": "https://dc.lft.to/lastmile_qr_scan"}, "fusion_lon": 0.0, "name": "022f262137bf078d24c3328c50b8f20a", "lon": -77.08631083333333, "is_disabled": 0, "type": "electric_bike"}, {"bike_id": "d40ae3f67c04dc1ef72885f5fc9bf3e9", "lat": 38.893906333333334, "is_reserved": 0, "fusion_lat": 0.0, "rental_uris": {"android": "https://dc.lft.to/lastmile_qr_scan", "ios": "https://dc.lft.to/lastmile_qr_scan"}, "fusion_lon": 0.0, "name": "d40ae3f67c04dc1ef72885f5fc9bf3e9", "lon": -77.01104183333334, "is_disabled": 0, "type": "electric_scooter"}, {"bike_id": "5619777dbc28940c48d5bb854978f437", "lat": 38.93527366666667, "is_reserved": 0, "fusion_lat": 0.0, "rental_uris": {"android": "https://dc.lft.to/lastmile_qr_scan", "ios": "https://dc.lft.to/lastmile_qr_scan"}, "fusion_lon": 0.0, "name": "5619777dbc28940c48d5bb854978f437", "lon": -76.964522, "is_disabled": 0, "type": "electric_bike"}, {"bike_id": "64f33d2e866bb265fff246e4b06aba25", "lat": 38.917665, "is_reserved": 0, "fusion_lat": 0.0, "rental_uris": {"android": "https://dc.lft.to/lastmile_qr_scan", "ios": "https://dc.lft.to/lastmile_qr_scan"}, "fusion_lon": 0.0, "name": "64f33d2e866bb265fff246e4b06aba25", "lon": -77.047716, "is_disabled": 0, "type": "electric_scooter"}, {"bike_id": "f30c3110a9935024ec6d41ebd378c006", "lat": 38.92167, "is_reserved": 0, "fusion_lat": 0.0, "rental_uris": {"android": "https://dc.lft.to/lastmile_qr_scan", "ios": "https://dc.lft.to/lastmile_qr_scan"}, "fusion_lon": 0.0, "name": "f30c3110a9935024ec6d41ebd378c006", "lon": -77.03240933333333, "is_disabled": 0, "type": "electric_scooter"}, {"bike_id": "54384307a92961c4727303109230580f", "lat": 38.92270583333333, "is_reserved": 0, "fusion_lat": 0.0, "rental_uris": {"android": "https://dc.lft.to/lastmile_qr_scan", "ios": "https://dc.lft.to/lastmile_qr_scan"}, "fusion_lon": 0.0, "name": "54384307a92961c4727303109230580f", "lon": -77.03651683333334, "is_disabled": 0, "type": "electric_scooter"}, {"bike_id": "ff0c3c70685ddb09d6ae96f3fd3dbb61", "lat": 38.91112666666667, "is_reserved": 0, "fusion_lat": 0.0, "rental_uris": {"android": "https://dc.lft.to/lastmile_qr_scan", "ios": "https://dc.lft.to/lastmile_qr_scan"}, "fusion_lon": 0.0, "name": "ff0c3c70685ddb09d6ae96f3fd3dbb61", "lon": -77.03149983333333, "is_disabled": 0, "type": "electric_scooter"}, {"bike_id": "5b92672c674e739b68f506140a14cf5a", "lat": 38.90948266666667, "is_reserved": 0, "fusion_lat": 0.0, "rental_uris": {"android": "https://dc.lft.to/lastmile_qr_scan", "ios": "https://dc.lft.to/lastmile_qr_scan"}, "fusion_lon": 0.0, "name": "5b92672c674e739b68f506140a14cf5a", "lon": -77.03179583333333, "is_disabled": 0, "type": "electric_scooter"}, {"bike_id": "12d2871444ba8b3bf48323bc704d1707", "lat": 38.915505833333334, "is_reserved": 0, "fusion_lat": 0.0, "rental_uris": {"android": "https://dc.lft.to/lastmile_qr_scan", "ios": "https://dc.lft.to/lastmile_qr_scan"}, "fusion_lon": 0.0, "name": "12d2871444ba8b3bf48323bc704d1707", "lon": -77.0445405, "is_disabled": 0, "type": "electric_scooter"}, {"bike_id": "86cac172f7e5f9dd9bb0002e72b49410", "lat": 38.9048495, "is_reserved": 0, "fusion_lat": 0.0, "rental_uris": {"android": "https://dc.lft.to/lastmile_qr_scan", "ios": "https://dc.lft.to/lastmile_qr_scan"}, "fusion_lon": 0.0, "name": "86cac172f7e5f9dd9bb0002e72b49410", "lon": -77.04483833333333, "is_disabled": 0, "type": "electric_scooter"}, {"bike_id": "981b00841d77057e26f97967503e5c05", "lat": 38.91681583333333, "is_reserved": 0, "fusion_lat": 0.0, "rental_uris": {"android": "https://dc.lft.to/lastmile_qr_scan", "ios": "https://dc.lft.to/lastmile_qr_scan"}, "fusion_lon": 0.0, "name": "981b00841d77057e26f97967503e5c05", "lon": -77.02379216666667, "is_disabled": 0, "type": "electric_scooter"}, {"bike_id": "2e84a6be6e41a3a5e0acdc42e2229fe1", "lat": 38.9031625, "is_reserved": 0, "fusion_lat": 0.0, "rental_uris": {"android": "https://dc.lft.to/lastmile_qr_scan", "ios": "https://dc.lft.to/lastmile_qr_scan"}, "fusion_lon": 0.0, "name": "2e84a6be6e41a3a5e0acdc42e2229fe1", "lon": -76.99129466666666, "is_disabled": 0, "type": "electric_scooter"}, {"bike_id": "5b9a1a81501530eeb85052723c9d8895", "lat": 38.9210595, "is_reserved": 0, "fusion_lat": 0.0, "rental_uris": {"android": "https://dc.lft.to/lastmile_qr_scan", "ios": "https://dc.lft.to/lastmile_qr_scan"}, "fusion_lon": 0.0, "name": "5b9a1a81501530eeb85052723c9d8895", "lon": -77.04150983333334, "is_disabled": 0, "type": "electric_scooter"}, {"bike_id": "f0ecfcabd3c3073526bd93d6b71b790b", "lat": 38.944861833333334, "is_reserved": 0, "fusion_lat": 0.0, "rental_uris": {"android": "https://dc.lft.to/lastmile_qr_scan", "ios": "https://dc.lft.to/lastmile_qr_scan"}, "fusion_lon": 0.0, "name": "f0ecfcabd3c3073526bd93d6b71b790b", "lon": -77.09437566666666, "is_disabled": 0, "type": "electric_scooter"}, {"bike_id": "6ab99fbf5b4f7ae2c4307c46281cffd2", "lat": 38.899281333333334, "is_reserved": 0, "fusion_lat": 0.0, "rental_uris": {"android": "https://dc.lft.to/lastmile_qr_scan", "ios": "https://dc.lft.to/lastmile_qr_scan"}, "fusion_lon": 0.0, "name": "6ab99fbf5b4f7ae2c4307c46281cffd2", "lon": -76.93157816666667, "is_disabled": 0, "type": "electric_scooter"}, {"bike_id": "169f0047f11bb449eb5194a53612a092", "lat": 38.908084333333335, "is_reserved": 0, "fusion_lat": 0.0, "rental_uris": {"android": "https://dc.lft.to/lastmile_qr_scan", "ios": "https://dc.lft.to/lastmile_qr_scan"}, "fusion_lon": 0.0, "name": "169f0047f11bb449eb5194a53612a092", "lon": -77.03447916666667, "is_disabled": 0, "type": "electric_scooter"}, {"bike_id": "515b26cc2cbc492c659f2d4d5960396a", "lat": 38.8731105, "is_reserved": 0, "fusion_lat": 0.0, "rental_uris": {"android": "https://dc.lft.to/lastmile_qr_scan", "ios": "https://dc.lft.to/lastmile_qr_scan"}, "fusion_lon": 0.0, "name": "515b26cc2cbc492c659f2d4d5960396a", "lon": -77.0014835, "is_disabled": 0, "type": "electric_scooter"}, {"bike_id": "118efab2d53bbce851fd8d673c7f1ced", "lat": 38.87895016666667, "is_reserved": 0, "fusion_lat": 0.0, "rental_uris": {"android": "https://dc.lft.to/lastmile_qr_scan", "ios": "https://dc.lft.to/lastmile_qr_scan"}, "fusion_lon": 0.0, "name": "118efab2d53bbce851fd8d673c7f1ced", "lon": -77.02247266666667, "is_disabled": 0, "type": "electric_scooter"}, {"bike_id": "ab6588a7f80147903eda5dece00f7988", "lat": 38.923261833333335, "is_reserved": 0, "fusion_lat": 0.0, "rental_uris": {"android": "https://dc.lft.to/lastmile_qr_scan", "ios": "https://dc.lft.to/lastmile_qr_scan"}, "fusion_lon": 0.0, "name": "ab6588a7f80147903eda5dece00f7988", "lon": -77.036853, "is_disabled": 0, "type": "electric_scooter"}, {"bike_id": "6f05e198a9fd348804d77b19a3e75324", "lat": 38.905315333333334, "is_reserved": 0, "fusion_lat": 0.0, "rental_uris": {"android": "https://dc.lft.to/lastmile_qr_scan", "ios": "https://dc.lft.to/lastmile_qr_scan"}, "fusion_lon": 0.0, "name": "6f05e198a9fd348804d77b19a3e75324", "lon": -77.07029216666666, "is_disabled": 0, "type": "electric_scooter"}, {"bike_id": "daf8b93ef6dcf2173703e646879e2b16", "lat": 38.916345166666666, "is_reserved": 0, "fusion_lat": 0.0, "rental_uris": {"android": "https://dc.lft.to/lastmile_qr_scan", "ios": "https://dc.lft.to/lastmile_qr_scan"}, "fusion_lon": 0.0, "name": "daf8b93ef6dcf2173703e646879e2b16", "lon": -77.03205916666667, "is_disabled": 0, "type": "electric_scooter"}, {"bike_id": "c4b4c56aa421094604533ec120cdb5f7", "lat": 38.91707433333333, "is_reserved": 0, "fusion_lat": 0.0, "rental_uris": {"android": "https://dc.lft.to/lastmile_qr_scan", "ios": "https://dc.lft.to/lastmile_qr_scan"}, "fusion_lon": 0.0, "name": "c4b4c56aa421094604533ec120cdb5f7", "lon": -77.03467016666667, "is_disabled": 0, "type": "electric_scooter"}, {"bike_id": "9c288b341a97beeca5f1a03e94d2ecf9", "lat": 38.921915166666665, "is_reserved": 0, "fusion_lat": 0.0, "rental_uris": {"android": "https://dc.lft.to/lastmile_qr_scan", "ios": "https://dc.lft.to/lastmile_qr_scan"}, "fusion_lon": 0.0, "name": "9c288b341a97beeca5f1a03e94d2ecf9", "lon": -77.03932983333333, "is_disabled": 0, "type": "electric_scooter"}, {"bike_id": "9480f0e78b07d8505c4bb5e9307ad8d7", "lat": 38.95523433333334, "is_reserved": 0, "fusion_lat": 0.0, "rental_uris": {"android": "https://dc.lft.to/lastmile_qr_scan", "ios": "https://dc.lft.to/lastmile_qr_scan"}, "fusion_lon": 0.0, "name": "9480f0e78b07d8505c4bb5e9307ad8d7", "lon": -77.023093, "is_disabled": 0, "type": "electric_scooter"}, {"bike_id": "9924c895052fff9c045c092cadc5f737", "lat": 38.9666455, "is_reserved": 0, "fusion_lat": 0.0, "rental_uris": {"android": "https://dc.lft.to/lastmile_qr_scan", "ios": "https://dc.lft.to/lastmile_qr_scan"}, "fusion_lon": 0.0, "name": "9924c895052fff9c045c092cadc5f737", "lon": -76.9744875, "is_disabled": 0, "type": "electric_bike"}, {"bike_id": "cac9c9cf2fa5ad83c3ad7c5edb9d10bb", "lat": 38.90385416666667, "is_reserved": 0, "fusion_lat": 0.0, "rental_uris": {"android": "https://dc.lft.to/lastmile_qr_scan", "ios": "https://dc.lft.to/lastmile_qr_scan"}, "fusion_lon": 0.0, "name": "cac9c9cf2fa5ad83c3ad7c5edb9d10bb", "lon": -77.034818, "is_disabled": 0, "type": "electric_scooter"}, {"bike_id": "f105d639aabced5eda9c9dcd215cf71b", "lat": 38.96317966666667, "is_reserved": 0, "fusion_lat": 0.0, "rental_uris": {"android": "https://dc.lft.to/lastmile_qr_scan", "ios": "https://dc.lft.to/lastmile_qr_scan"}, "fusion_lon": 0.0, "name": "f105d639aabced5eda9c9dcd215cf71b", "lon": -76.97374866666667, "is_disabled": 0, "type": "electric_bike"}, {"bike_id": "4fc3ce45d07ae9ce4176005e02a324f4", "lat": 38.89221333333333, "is_reserved": 0, "fusion_lat": 0.0, "rental_uris": {"android": "https://dc.lft.to/lastmile_qr_scan", "ios": "https://dc.lft.to/lastmile_qr_scan"}, "fusion_lon": 0.0, "name": "4fc3ce45d07ae9ce4176005e02a324f4", "lon": -77.00343916666667, "is_disabled": 0, "type": "electric_scooter"}, {"bike_id": "68759d6c8d8c86d5d1b72afba0ef73a0", "lat": 38.9186615, "is_reserved": 0, "fusion_lat": 0.0, "rental_uris": {"android": "https://dc.lft.to/lastmile_qr_scan", "ios": "https://dc.lft.to/lastmile_qr_scan"}, "fusion_lon": 0.0, "name": "68759d6c8d8c86d5d1b72afba0ef73a0", "lon": -77.04155883333334, "is_disabled": 0, "type": "electric_scooter"}, {"bike_id": "b540a0f4aa0368ac3c47b38ca5a79255", "lat": 38.876485, "is_reserved": 0, "fusion_lat": 0.0, "rental_uris": {"android": "https://dc.lft.to/lastmile_qr_scan", "ios": "https://dc.lft.to/lastmile_qr_scan"}, "fusion_lon": 0.0, "name": "b540a0f4aa0368ac3c47b38ca5a79255", "lon": -76.965062, "is_disabled": 0, "type": "electric_scooter"}, {"bike_id": "017ea31ef0f24145a4f5b6809dfd0f9f", "lat": 38.914174333333335, "is_reserved": 0, "fusion_lat": 0.0, "rental_uris": {"android": "https://dc.lft.to/lastmile_qr_scan", "ios": "https://dc.lft.to/lastmile_qr_scan"}, "fusion_lon": 0.0, "name": "017ea31ef0f24145a4f5b6809dfd0f9f", "lon": -77.02207816666666, "is_disabled": 0, "type": "electric_scooter"}, {"bike_id": "23cb5e6a8a6e27d0db86aa75ed88f184", "lat": 38.86194416666667, "is_reserved": 0, "fusion_lat": 0.0, "rental_uris": {"android": "https://dc.lft.to/lastmile_qr_scan", "ios": "https://dc.lft.to/lastmile_qr_scan"}, "fusion_lon": 0.0, "name": "23cb5e6a8a6e27d0db86aa75ed88f184", "lon": -76.95953983333334, "is_disabled": 0, "type": "electric_scooter"}, {"bike_id": "c11f2dc1715c390edb2e45f7b4e014f4", "lat": 38.907373666666665, "is_reserved": 0, "fusion_lat": 0.0, "rental_uris": {"android": "https://dc.lft.to/lastmile_qr_scan", "ios": "https://dc.lft.to/lastmile_qr_scan"}, "fusion_lon": 0.0, "name": "c11f2dc1715c390edb2e45f7b4e014f4", "lon": -76.99971866666667, "is_disabled": 0, "type": "electric_scooter"}, {"bike_id": "0f0ed943556b4b5a0d5200361e3900c8", "lat": 38.90275066666667, "is_reserved": 0, "fusion_lat": 0.0, "rental_uris": {"android": "https://dc.lft.to/lastmile_qr_scan", "ios": "https://dc.lft.to/lastmile_qr_scan"}, "fusion_lon": 0.0, "name": "0f0ed943556b4b5a0d5200361e3900c8", "lon": -77.033545, "is_disabled": 0, "type": "electric_scooter"}, {"bike_id": "d2bc7eb1ad97bed5330ceb2ecb89e19e", "lat": 38.968482, "is_reserved": 0, "fusion_lat": 0.0, "rental_uris": {"android": "https://dc.lft.to/lastmile_qr_scan", "ios": "https://dc.lft.to/lastmile_qr_scan"}, "fusion_lon": 0.0, "name": "d2bc7eb1ad97bed5330ceb2ecb89e19e", "lon": -77.0273205, "is_disabled": 0, "type": "electric_scooter"}, {"bike_id": "f49a2dd0b1725aa7dcc0a11c4ff176c1", "lat": 38.92872366666667, "is_reserved": 0, "fusion_lat": 0.0, "rental_uris": {"android": "https://dc.lft.to/lastmile_qr_scan", "ios": "https://dc.lft.to/lastmile_qr_scan"}, "fusion_lon": 0.0, "name": "f49a2dd0b1725aa7dcc0a11c4ff176c1", "lon": -77.03340466666667, "is_disabled": 0, "type": "electric_scooter"}, {"bike_id": "4e7de1c3f2cc9bafb99d56a8dfb7d5bc", "lat": 38.89609133333333, "is_reserved": 0, "fusion_lat": 0.0, "rental_uris": {"android": "https://dc.lft.to/lastmile_qr_scan", "ios": "https://dc.lft.to/lastmile_qr_scan"}, "fusion_lon": 0.0, "name": "4e7de1c3f2cc9bafb99d56a8dfb7d5bc", "lon": -77.02216016666667, "is_disabled": 0, "type": "electric_scooter"}, {"bike_id": "0c8d5c0a10d36863a9385582ffa22f95", "lat": 38.86241716666667, "is_reserved": 0, "fusion_lat": 0.0, "rental_uris": {"android": "https://dc.lft.to/lastmile_qr_scan", "ios": "https://dc.lft.to/lastmile_qr_scan"}, "fusion_lon": 0.0, "name": "0c8d5c0a10d36863a9385582ffa22f95", "lon": -76.9949845, "is_disabled": 0, "type": "electric_scooter"}, {"bike_id": "1e34f1d2334aabddf379fcb3b0c261a9", "lat": 38.9221515, "is_reserved": 0, "fusion_lat": 0.0, "rental_uris": {"android": "https://dc.lft.to/lastmile_qr_scan", "ios": "https://dc.lft.to/lastmile_qr_scan"}, "fusion_lon": 0.0, "name": "1e34f1d2334aabddf379fcb3b0c261a9", "lon": -77.04243, "is_disabled": 0, "type": "electric_scooter"}, {"bike_id": "eef85ffbfcfbaf91464ca96587e7df41", "lat": 38.90350383333333, "is_reserved": 0, "fusion_lat": 0.0, "rental_uris": {"android": "https://dc.lft.to/lastmile_qr_scan", "ios": "https://dc.lft.to/lastmile_qr_scan"}, "fusion_lon": 0.0, "name": "eef85ffbfcfbaf91464ca96587e7df41", "lon": -77.002176, "is_disabled": 0, "type": "electric_scooter"}, {"bike_id": "59bf7c4389394932cef4db272f4f6faa", "lat": 38.91667866666667, "is_reserved": 0, "fusion_lat": 0.0, "rental_uris": {"android": "https://dc.lft.to/lastmile_qr_scan", "ios": "https://dc.lft.to/lastmile_qr_scan"}, "fusion_lon": 0.0, "name": "59bf7c4389394932cef4db272f4f6faa", "lon": -76.9818065, "is_disabled": 0, "type": "electric_scooter"}, {"bike_id": "8878d70801658c2a7b56a9b264a905b1", "lat": 38.89968266666666, "is_reserved": 0, "fusion_lat": 0.0, "rental_uris": {"android": "https://dc.lft.to/lastmile_qr_scan", "ios": "https://dc.lft.to/lastmile_qr_scan"}, "fusion_lon": 0.0, "name": "8878d70801658c2a7b56a9b264a905b1", "lon": -77.04717583333333, "is_disabled": 0, "type": "electric_scooter"}, {"bike_id": "93336b82ca52884ecee30fc898b3f89e", "lat": 38.91542283333333, "is_reserved": 0, "fusion_lat": 0.0, "rental_uris": {"android": "https://dc.lft.to/lastmile_qr_scan", "ios": "https://dc.lft.to/lastmile_qr_scan"}, "fusion_lon": 0.0, "name": "93336b82ca52884ecee30fc898b3f89e", "lon": -77.04454433333333, "is_disabled": 0, "type": "electric_scooter"}, {"bike_id": "6b14fcec6ddacbe78ba2b8b5aef6fb2b", "lat": 38.91139483333333, "is_reserved": 0, "fusion_lat": 0.0, "rental_uris": {"android": "https://dc.lft.to/lastmile_qr_scan", "ios": "https://dc.lft.to/lastmile_qr_scan"}, "fusion_lon": 0.0, "name": "6b14fcec6ddacbe78ba2b8b5aef6fb2b", "lon": -76.9901505, "is_disabled": 0, "type": "electric_scooter"}, {"bike_id": "2a2bde8c7c463ba0cb346207d5f97526", "lat": 38.928449666666666, "is_reserved": 0, "fusion_lat": 0.0, "rental_uris": {"android": "https://dc.lft.to/lastmile_qr_scan", "ios": "https://dc.lft.to/lastmile_qr_scan"}, "fusion_lon": 0.0, "name": "2a2bde8c7c463ba0cb346207d5f97526", "lon": -77.03251433333334, "is_disabled": 0, "type": "electric_scooter"}, {"bike_id": "b3d4d91c75be4f88559bfdc897e83331", "lat": 38.89222983333333, "is_reserved": 0, "fusion_lat": 0.0, "rental_uris": {"android": "https://dc.lft.to/lastmile_qr_scan", "ios": "https://dc.lft.to/lastmile_qr_scan"}, "fusion_lon": 0.0, "name": "b3d4d91c75be4f88559bfdc897e83331", "lon": -77.0254325, "is_disabled": 0, "type": "electric_scooter"}, {"bike_id": "0e3253667b2ee4273cd93c649ac8dcb6", "lat": 38.8729655, "is_reserved": 0, "fusion_lat": 0.0, "rental_uris": {"android": "https://dc.lft.to/lastmile_qr_scan", "ios": "https://dc.lft.to/lastmile_qr_scan"}, "fusion_lon": 0.0, "name": "0e3253667b2ee4273cd93c649ac8dcb6", "lon": -77.13932783333334, "is_disabled": 0, "type": "electric_bike"}, {"bike_id": "e2d7e25b8412fd45fe3e747f975e765f", "lat": 38.871762, "is_reserved": 0, "fusion_lat": 0.0, "rental_uris": {"android": "https://dc.lft.to/lastmile_qr_scan", "ios": "https://dc.lft.to/lastmile_qr_scan"}, "fusion_lon": 0.0, "name": "e2d7e25b8412fd45fe3e747f975e765f", "lon": -77.00629633333334, "is_disabled": 0, "type": "electric_scooter"}, {"bike_id": "da77da51507e496890c641ae6174c4be", "lat": 38.89985716666666, "is_reserved": 0, "fusion_lat": 0.0, "rental_uris": {"android": "https://dc.lft.to/lastmile_qr_scan", "ios": "https://dc.lft.to/lastmile_qr_scan"}, "fusion_lon": 0.0, "name": "da77da51507e496890c641ae6174c4be", "lon": -77.0556715, "is_disabled": 0, "type": "electric_scooter"}, {"bike_id": "549549bed327797da1aeb59e7074eeab", "lat": 38.898375, "is_reserved": 0, "fusion_lat": 0.0, "rental_uris": {"android": "https://dc.lft.to/lastmile_qr_scan", "ios": "https://dc.lft.to/lastmile_qr_scan"}, "fusion_lon": 0.0, "name": "549549bed327797da1aeb59e7074eeab", "lon": -77.048292, "is_disabled": 0, "type": "electric_scooter"}, {"bike_id": "61c45d596a2c10d4c327e143aa79fc59", "lat": 38.916752, "is_reserved": 0, "fusion_lat": 0.0, "rental_uris": {"android": "https://dc.lft.to/lastmile_qr_scan", "ios": "https://dc.lft.to/lastmile_qr_scan"}, "fusion_lon": 0.0, "name": "61c45d596a2c10d4c327e143aa79fc59", "lon": -77.0369615, "is_disabled": 0, "type": "electric_scooter"}, {"bike_id": "0dca62464960e765af1737f2809a2d69", "lat": 38.896143333333335, "is_reserved": 0, "fusion_lat": 0.0, "rental_uris": {"android": "https://dc.lft.to/lastmile_qr_scan", "ios": "https://dc.lft.to/lastmile_qr_scan"}, "fusion_lon": 0.0, "name": "0dca62464960e765af1737f2809a2d69", "lon": -77.02210333333333, "is_disabled": 0, "type": "electric_scooter"}, {"bike_id": "c4f833566a2990dbdc4c287878016fcb", "lat": 38.917607, "is_reserved": 0, "fusion_lat": 0.0, "rental_uris": {"android": "https://dc.lft.to/lastmile_qr_scan", "ios": "https://dc.lft.to/lastmile_qr_scan"}, "fusion_lon": 0.0, "name": "c4f833566a2990dbdc4c287878016fcb", "lon": -77.02305766666667, "is_disabled": 0, "type": "electric_scooter"}, {"bike_id": "85b3c78655373f918392bbfffd9fbd10", "lat": 38.9286965, "is_reserved": 0, "fusion_lat": 0.0, "rental_uris": {"android": "https://dc.lft.to/lastmile_qr_scan", "ios": "https://dc.lft.to/lastmile_qr_scan"}, "fusion_lon": 0.0, "name": "85b3c78655373f918392bbfffd9fbd10", "lon": -77.0323045, "is_disabled": 0, "type": "electric_scooter"}, {"bike_id": "0f5bd67776ba90d22040078c672d1bbc", "lat": 38.89981616666667, "is_reserved": 0, "fusion_lat": 0.0, "rental_uris": {"android": "https://dc.lft.to/lastmile_qr_scan", "ios": "https://dc.lft.to/lastmile_qr_scan"}, "fusion_lon": 0.0, "name": "0f5bd67776ba90d22040078c672d1bbc", "lon": -76.99616233333333, "is_disabled": 0, "type": "electric_scooter"}, {"bike_id": "67b84a5392ba87ea0186931047a5dcdd", "lat": 38.931570666666666, "is_reserved": 0, "fusion_lat": 0.0, "rental_uris": {"android": "https://dc.lft.to/lastmile_qr_scan", "ios": "https://dc.lft.to/lastmile_qr_scan"}, "fusion_lon": 0.0, "name": "67b84a5392ba87ea0186931047a5dcdd", "lon": -77.00120083333333, "is_disabled": 0, "type": "electric_bike"}, {"bike_id": "ac6ac2e929caae61eb1bc0e209bce115", "lat": 38.85968283333333, "is_reserved": 0, "fusion_lat": 0.0, "rental_uris": {"android": "https://dc.lft.to/lastmile_qr_scan", "ios": "https://dc.lft.to/lastmile_qr_scan"}, "fusion_lon": 0.0, "name": "ac6ac2e929caae61eb1bc0e209bce115", "lon": -76.9916, "is_disabled": 0, "type": "electric_scooter"}, {"bike_id": "4f2f3f3076d099af63a59f03c4ad4945", "lat": 38.92569, "is_reserved": 0, "fusion_lat": 0.0, "rental_uris": {"android": "https://dc.lft.to/lastmile_qr_scan", "ios": "https://dc.lft.to/lastmile_qr_scan"}, "fusion_lon": 0.0, "name": "4f2f3f3076d099af63a59f03c4ad4945", "lon": -77.0376785, "is_disabled": 0, "type": "electric_scooter"}, {"bike_id": "388f781bf5757201485b54ea21f75df5", "lat": 38.8855105, "is_reserved": 0, "fusion_lat": 0.0, "rental_uris": {"android": "https://dc.lft.to/lastmile_qr_scan", "ios": "https://dc.lft.to/lastmile_qr_scan"}, "fusion_lon": 0.0, "name": "388f781bf5757201485b54ea21f75df5", "lon": -76.99618616666666, "is_disabled": 0, "type": "electric_scooter"}, {"bike_id": "9a3176ff0a6fb17a2b69cf7658bb3ddf", "lat": 38.941823, "is_reserved": 0, "fusion_lat": 0.0, "rental_uris": {"android": "https://dc.lft.to/lastmile_qr_scan", "ios": "https://dc.lft.to/lastmile_qr_scan"}, "fusion_lon": 0.0, "name": "9a3176ff0a6fb17a2b69cf7658bb3ddf", "lon": -77.02489983333334, "is_disabled": 0, "type": "electric_scooter"}, {"bike_id": "91c336f7514ca05e01ad2304e717342d", "lat": 38.928672, "is_reserved": 0, "fusion_lat": 0.0, "rental_uris": {"android": "https://dc.lft.to/lastmile_qr_scan", "ios": "https://dc.lft.to/lastmile_qr_scan"}, "fusion_lon": 0.0, "name": "91c336f7514ca05e01ad2304e717342d", "lon": -77.03325033333333, "is_disabled": 0, "type": "electric_scooter"}, {"bike_id": "5a9f1b1566315ca25ca0f857c8304abc", "lat": 38.956498833333335, "is_reserved": 0, "fusion_lat": 0.0, "rental_uris": {"android": "https://dc.lft.to/lastmile_qr_scan", "ios": "https://dc.lft.to/lastmile_qr_scan"}, "fusion_lon": 0.0, "name": "5a9f1b1566315ca25ca0f857c8304abc", "lon": -77.01964866666667, "is_disabled": 0, "type": "electric_scooter"}, {"bike_id": "d4dc5409cd2ff9fc163d628dea6d11a4", "lat": 38.951004166666664, "is_reserved": 0, "fusion_lat": 0.0, "rental_uris": {"android": "https://dc.lft.to/lastmile_qr_scan", "ios": "https://dc.lft.to/lastmile_qr_scan"}, "fusion_lon": 0.0, "name": "d4dc5409cd2ff9fc163d628dea6d11a4", "lon": -77.09718233333334, "is_disabled": 0, "type": "electric_scooter"}, {"bike_id": "96a650e89ab64c24a4bea2b7dce0671d", "lat": 38.916103166666666, "is_reserved": 0, "fusion_lat": 0.0, "rental_uris": {"android": "https://dc.lft.to/lastmile_qr_scan", "ios": "https://dc.lft.to/lastmile_qr_scan"}, "fusion_lon": 0.0, "name": "96a650e89ab64c24a4bea2b7dce0671d", "lon": -77.02313066666666, "is_disabled": 0, "type": "electric_scooter"}, {"bike_id": "2fb095696406fe6da085f52b3059657c", "lat": 38.900164, "is_reserved": 0, "fusion_lat": 0.0, "rental_uris": {"android": "https://dc.lft.to/lastmile_qr_scan", "ios": "https://dc.lft.to/lastmile_qr_scan"}, "fusion_lon": 0.0, "name": "2fb095696406fe6da085f52b3059657c", "lon": -76.98702683333333, "is_disabled": 0, "type": "electric_scooter"}, {"bike_id": "b4db5062c47081393a2ac0f3cc50e1a4", "lat": 38.932695333333335, "is_reserved": 0, "fusion_lat": 0.0, "rental_uris": {"android": "https://dc.lft.to/lastmile_qr_scan", "ios": "https://dc.lft.to/lastmile_qr_scan"}, "fusion_lon": 0.0, "name": "b4db5062c47081393a2ac0f3cc50e1a4", "lon": -77.03502566666667, "is_disabled": 0, "type": "electric_scooter"}, {"bike_id": "d7e14fdb7d8f9a000d0cd3a9783c1721", "lat": 38.897965166666665, "is_reserved": 0, "fusion_lat": 0.0, "rental_uris": {"android": "https://dc.lft.to/lastmile_qr_scan", "ios": "https://dc.lft.to/lastmile_qr_scan"}, "fusion_lon": 0.0, "name": "d7e14fdb7d8f9a000d0cd3a9783c1721", "lon": -77.02481333333333, "is_disabled": 0, "type": "electric_scooter"}, {"bike_id": "a0708cde800106a5491fa08695e1072c", "lat": 38.89237933333333, "is_reserved": 0, "fusion_lat": 0.0, "rental_uris": {"android": "https://dc.lft.to/lastmile_qr_scan", "ios": "https://dc.lft.to/lastmile_qr_scan"}, "fusion_lon": 0.0, "name": "a0708cde800106a5491fa08695e1072c", "lon": -76.94105033333334, "is_disabled": 0, "type": "electric_scooter"}, {"bike_id": "186ef49eec754717ec63aae0d513dda9", "lat": 38.90412583333333, "is_reserved": 0, "fusion_lat": 0.0, "rental_uris": {"android": "https://dc.lft.to/lastmile_qr_scan", "ios": "https://dc.lft.to/lastmile_qr_scan"}, "fusion_lon": 0.0, "name": "186ef49eec754717ec63aae0d513dda9", "lon": -77.029631, "is_disabled": 0, "type": "electric_scooter"}, {"bike_id": "c5e1ebb6489b271e7696f33511db0e84", "lat": 38.9175245, "is_reserved": 0, "fusion_lat": 0.0, "rental_uris": {"android": "https://dc.lft.to/lastmile_qr_scan", "ios": "https://dc.lft.to/lastmile_qr_scan"}, "fusion_lon": 0.0, "name": "c5e1ebb6489b271e7696f33511db0e84", "lon": -77.02706666666667, "is_disabled": 0, "type": "electric_scooter"}, {"bike_id": "fbcc74b64efae593dafba6d3abb50d98", "lat": 38.891989333333335, "is_reserved": 0, "fusion_lat": 0.0, "rental_uris": {"android": "https://dc.lft.to/lastmile_qr_scan", "ios": "https://dc.lft.to/lastmile_qr_scan"}, "fusion_lon": 0.0, "name": "fbcc74b64efae593dafba6d3abb50d98", "lon": -77.0030565, "is_disabled": 0, "type": "electric_scooter"}, {"bike_id": "9dd331654bc210eb5f6925c17c5d363e", "lat": 38.920554, "is_reserved": 0, "fusion_lat": 0.0, "rental_uris": {"android": "https://dc.lft.to/lastmile_qr_scan", "ios": "https://dc.lft.to/lastmile_qr_scan"}, "fusion_lon": 0.0, "name": "9dd331654bc210eb5f6925c17c5d363e", "lon": -77.04230533333333, "is_disabled": 0, "type": "electric_scooter"}, {"bike_id": "45331592cbde0cb45fd41a21dcc6beb6", "lat": 38.9351265, "is_reserved": 0, "fusion_lat": 0.0, "rental_uris": {"android": "https://dc.lft.to/lastmile_qr_scan", "ios": "https://dc.lft.to/lastmile_qr_scan"}, "fusion_lon": 0.0, "name": "45331592cbde0cb45fd41a21dcc6beb6", "lon": -77.0329905, "is_disabled": 0, "type": "electric_scooter"}, {"bike_id": "287cc5b50f285539c4d1028481177275", "lat": 38.92878733333333, "is_reserved": 0, "fusion_lat": 0.0, "rental_uris": {"android": "https://dc.lft.to/lastmile_qr_scan", "ios": "https://dc.lft.to/lastmile_qr_scan"}, "fusion_lon": 0.0, "name": "287cc5b50f285539c4d1028481177275", "lon": -77.02711583333334, "is_disabled": 0, "type": "electric_scooter"}, {"bike_id": "176c55ebd6879ebb11ec13149a6dda23", "lat": 38.92269866666667, "is_reserved": 0, "fusion_lat": 0.0, "rental_uris": {"android": "https://dc.lft.to/lastmile_qr_scan", "ios": "https://dc.lft.to/lastmile_qr_scan"}, "fusion_lon": 0.0, "name": "176c55ebd6879ebb11ec13149a6dda23", "lon": -77.02245616666667, "is_disabled": 0, "type": "electric_scooter"}, {"bike_id": "c5e0a45a7fc1db5cf7f45eaea9a63865", "lat": 38.9103185, "is_reserved": 0, "fusion_lat": 0.0, "rental_uris": {"android": "https://dc.lft.to/lastmile_qr_scan", "ios": "https://dc.lft.to/lastmile_qr_scan"}, "fusion_lon": 0.0, "name": "c5e0a45a7fc1db5cf7f45eaea9a63865", "lon": -76.98553533333333, "is_disabled": 0, "type": "electric_scooter"}, {"bike_id": "1a7af5efa179dce61d2e22cdd0756a4f", "lat": 38.907712333333336, "is_reserved": 0, "fusion_lat": 0.0, "rental_uris": {"android": "https://dc.lft.to/lastmile_qr_scan", "ios": "https://dc.lft.to/lastmile_qr_scan"}, "fusion_lon": 0.0, "name": "1a7af5efa179dce61d2e22cdd0756a4f", "lon": -77.07394633333334, "is_disabled": 0, "type": "electric_scooter"}, {"bike_id": "228b07722134953c7a8d715ed40144b7", "lat": 38.90233166666667, "is_reserved": 0, "fusion_lat": 0.0, "rental_uris": {"android": "https://dc.lft.to/lastmile_qr_scan", "ios": "https://dc.lft.to/lastmile_qr_scan"}, "fusion_lon": 0.0, "name": "228b07722134953c7a8d715ed40144b7", "lon": -77.0591475, "is_disabled": 0, "type": "electric_scooter"}, {"bike_id": "39d7e5377208cf3254be8af728372eb2", "lat": 38.943498166666664, "is_reserved": 0, "fusion_lat": 0.0, "rental_uris": {"android": "https://dc.lft.to/lastmile_qr_scan", "ios": "https://dc.lft.to/lastmile_qr_scan"}, "fusion_lon": 0.0, "name": "39d7e5377208cf3254be8af728372eb2", "lon": -77.0376795, "is_disabled": 0, "type": "electric_scooter"}, {"bike_id": "9b2f225a4f3afd96f3880391e798a40f", "lat": 38.86684433333333, "is_reserved": 0, "fusion_lat": 0.0, "rental_uris": {"android": "https://dc.lft.to/lastmile_qr_scan", "ios": "https://dc.lft.to/lastmile_qr_scan"}, "fusion_lon": 0.0, "name": "9b2f225a4f3afd96f3880391e798a40f", "lon": -76.9857855, "is_disabled": 0, "type": "electric_scooter"}, {"bike_id": "d80714807c93824d88265e743739f089", "lat": 38.929686333333336, "is_reserved": 0, "fusion_lat": 0.0, "rental_uris": {"android": "https://dc.lft.to/lastmile_qr_scan", "ios": "https://dc.lft.to/lastmile_qr_scan"}, "fusion_lon": 0.0, "name": "d80714807c93824d88265e743739f089", "lon": -77.02790983333334, "is_disabled": 0, "type": "electric_scooter"}, {"bike_id": "c97578e3665fced305f3e6cdc8ca96d3", "lat": 38.90547766666667, "is_reserved": 0, "fusion_lat": 0.0, "rental_uris": {"android": "https://dc.lft.to/lastmile_qr_scan", "ios": "https://dc.lft.to/lastmile_qr_scan"}, "fusion_lon": 0.0, "name": "c97578e3665fced305f3e6cdc8ca96d3", "lon": -77.0416115, "is_disabled": 0, "type": "electric_scooter"}, {"bike_id": "e1ef6a6ca63cd97a41e02dc365f78b9f", "lat": 38.8983805, "is_reserved": 0, "fusion_lat": 0.0, "rental_uris": {"android": "https://dc.lft.to/lastmile_qr_scan", "ios": "https://dc.lft.to/lastmile_qr_scan"}, "fusion_lon": 0.0, "name": "e1ef6a6ca63cd97a41e02dc365f78b9f", "lon": -76.91955866666666, "is_disabled": 0, "type": "electric_scooter"}, {"bike_id": "05e77d74bcbe171e67ca5365d74a6c88", "lat": 38.9003225, "is_reserved": 0, "fusion_lat": 0.0, "rental_uris": {"android": "https://dc.lft.to/lastmile_qr_scan", "ios": "https://dc.lft.to/lastmile_qr_scan"}, "fusion_lon": 0.0, "name": "05e77d74bcbe171e67ca5365d74a6c88", "lon": -76.97226183333333, "is_disabled": 0, "type": "electric_bike"}, {"bike_id": "65909e2a28fc3faf7e54c65fa86b1a85", "lat": 38.915488833333335, "is_reserved": 0, "fusion_lat": 0.0, "rental_uris": {"android": "https://dc.lft.to/lastmile_qr_scan", "ios": "https://dc.lft.to/lastmile_qr_scan"}, "fusion_lon": 0.0, "name": "65909e2a28fc3faf7e54c65fa86b1a85", "lon": -77.04451783333333, "is_disabled": 0, "type": "electric_scooter"}, {"bike_id": "9549a8514730ce80f267ed1d12da3e46", "lat": 38.916665, "is_reserved": 0, "fusion_lat": 0.0, "rental_uris": {"android": "https://dc.lft.to/lastmile_qr_scan", "ios": "https://dc.lft.to/lastmile_qr_scan"}, "fusion_lon": 0.0, "name": "9549a8514730ce80f267ed1d12da3e46", "lon": -77.02322816666667, "is_disabled": 0, "type": "electric_scooter"}, {"bike_id": "d72b83976a74d2affe21b2dcc10f52ca", "lat": 38.86502816666667, "is_reserved": 0, "fusion_lat": 0.0, "rental_uris": {"android": "https://dc.lft.to/lastmile_qr_scan", "ios": "https://dc.lft.to/lastmile_qr_scan"}, "fusion_lon": 0.0, "name": "d72b83976a74d2affe21b2dcc10f52ca", "lon": -76.990095, "is_disabled": 0, "type": "electric_scooter"}, {"bike_id": "93868aa2033ab48f8fce186e2ced9aeb", "lat": 38.91978233333333, "is_reserved": 0, "fusion_lat": 0.0, "rental_uris": {"android": "https://dc.lft.to/lastmile_qr_scan", "ios": "https://dc.lft.to/lastmile_qr_scan"}, "fusion_lon": 0.0, "name": "93868aa2033ab48f8fce186e2ced9aeb", "lon": -77.01208983333333, "is_disabled": 0, "type": "electric_scooter"}, {"bike_id": "ae48937db94953494d798e8908ff6b1e", "lat": 38.917060166666666, "is_reserved": 0, "fusion_lat": 0.0, "rental_uris": {"android": "https://dc.lft.to/lastmile_qr_scan", "ios": "https://dc.lft.to/lastmile_qr_scan"}, "fusion_lon": 0.0, "name": "ae48937db94953494d798e8908ff6b1e", "lon": -77.09579066666667, "is_disabled": 0, "type": "electric_scooter"}, {"bike_id": "61ea4ebac09411205ae1da60b71aa486", "lat": 38.9052425, "is_reserved": 0, "fusion_lat": 0.0, "rental_uris": {"android": "https://dc.lft.to/lastmile_qr_scan", "ios": "https://dc.lft.to/lastmile_qr_scan"}, "fusion_lon": 0.0, "name": "61ea4ebac09411205ae1da60b71aa486", "lon": -77.04110983333334, "is_disabled": 0, "type": "electric_scooter"}, {"bike_id": "a7d06b5d1dc54549ee1bd9f85f0ff672", "lat": 38.883871, "is_reserved": 0, "fusion_lat": 0.0, "rental_uris": {"android": "https://dc.lft.to/lastmile_qr_scan", "ios": "https://dc.lft.to/lastmile_qr_scan"}, "fusion_lon": 0.0, "name": "a7d06b5d1dc54549ee1bd9f85f0ff672", "lon": -77.01768983333334, "is_disabled": 0, "type": "electric_scooter"}, {"bike_id": "8ca58efc9c742356ebb943d208fa6630", "lat": 38.9068115, "is_reserved": 0, "fusion_lat": 0.0, "rental_uris": {"android": "https://dc.lft.to/lastmile_qr_scan", "ios": "https://dc.lft.to/lastmile_qr_scan"}, "fusion_lon": 0.0, "name": "8ca58efc9c742356ebb943d208fa6630", "lon": -76.98001866666667, "is_disabled": 0, "type": "electric_scooter"}, {"bike_id": "ea1c5319da14553ec44744defd830f76", "lat": 38.916107833333335, "is_reserved": 0, "fusion_lat": 0.0, "rental_uris": {"android": "https://dc.lft.to/lastmile_qr_scan", "ios": "https://dc.lft.to/lastmile_qr_scan"}, "fusion_lon": 0.0, "name": "ea1c5319da14553ec44744defd830f76", "lon": -77.0488345, "is_disabled": 0, "type": "electric_scooter"}, {"bike_id": "47f1069bea5885c5a3732424550b286d", "lat": 38.91687816666666, "is_reserved": 0, "fusion_lat": 0.0, "rental_uris": {"android": "https://dc.lft.to/lastmile_qr_scan", "ios": "https://dc.lft.to/lastmile_qr_scan"}, "fusion_lon": 0.0, "name": "47f1069bea5885c5a3732424550b286d", "lon": -77.02376166666667, "is_disabled": 0, "type": "electric_scooter"}, {"bike_id": "96c891bc10f7041eb7a9460423374ad2", "lat": 38.912047, "is_reserved": 0, "fusion_lat": 0.0, "rental_uris": {"android": "https://dc.lft.to/lastmile_qr_scan", "ios": "https://dc.lft.to/lastmile_qr_scan"}, "fusion_lon": 0.0, "name": "96c891bc10f7041eb7a9460423374ad2", "lon": -77.04476466666667, "is_disabled": 0, "type": "electric_scooter"}, {"bike_id": "0657c175257685f6e3c02c1722862856", "lat": 38.8849075, "is_reserved": 0, "fusion_lat": 0.0, "rental_uris": {"android": "https://dc.lft.to/lastmile_qr_scan", "ios": "https://dc.lft.to/lastmile_qr_scan"}, "fusion_lon": 0.0, "name": "0657c175257685f6e3c02c1722862856", "lon": -77.007162, "is_disabled": 0, "type": "electric_scooter"}, {"bike_id": "5d4a3b4dc02514cb1c4d86aa7d5766e9", "lat": 38.904667833333335, "is_reserved": 0, "fusion_lat": 0.0, "rental_uris": {"android": "https://dc.lft.to/lastmile_qr_scan", "ios": "https://dc.lft.to/lastmile_qr_scan"}, "fusion_lon": 0.0, "name": "5d4a3b4dc02514cb1c4d86aa7d5766e9", "lon": -77.04350783333334, "is_disabled": 0, "type": "electric_scooter"}, {"bike_id": "e46945ab30cbd939b354f7310b328a47", "lat": 38.87371566666667, "is_reserved": 0, "fusion_lat": 0.0, "rental_uris": {"android": "https://dc.lft.to/lastmile_qr_scan", "ios": "https://dc.lft.to/lastmile_qr_scan"}, "fusion_lon": 0.0, "name": "e46945ab30cbd939b354f7310b328a47", "lon": -77.00111416666667, "is_disabled": 0, "type": "electric_scooter"}, {"bike_id": "b53de44686bddc4d18117bea249866a9", "lat": 38.9053085, "is_reserved": 0, "fusion_lat": 0.0, "rental_uris": {"android": "https://dc.lft.to/lastmile_qr_scan", "ios": "https://dc.lft.to/lastmile_qr_scan"}, "fusion_lon": 0.0, "name": "b53de44686bddc4d18117bea249866a9", "lon": -77.058293, "is_disabled": 0, "type": "electric_scooter"}, {"bike_id": "3a663b3220d4a1b0bc347ce07c2ae310", "lat": 38.9140925, "is_reserved": 0, "fusion_lat": 0.0, "rental_uris": {"android": "https://dc.lft.to/lastmile_qr_scan", "ios": "https://dc.lft.to/lastmile_qr_scan"}, "fusion_lon": 0.0, "name": "3a663b3220d4a1b0bc347ce07c2ae310", "lon": -77.03227116666666, "is_disabled": 0, "type": "electric_scooter"}, {"bike_id": "bfe0c309af87bfb63096a2a924cb1507", "lat": 38.928715833333335, "is_reserved": 0, "fusion_lat": 0.0, "rental_uris": {"android": "https://dc.lft.to/lastmile_qr_scan", "ios": "https://dc.lft.to/lastmile_qr_scan"}, "fusion_lon": 0.0, "name": "bfe0c309af87bfb63096a2a924cb1507", "lon": -77.027746, "is_disabled": 0, "type": "electric_scooter"}, {"bike_id": "579fcf513e9d4f510772f7e087123bc4", "lat": 38.885136333333335, "is_reserved": 0, "fusion_lat": 0.0, "rental_uris": {"android": "https://dc.lft.to/lastmile_qr_scan", "ios": "https://dc.lft.to/lastmile_qr_scan"}, "fusion_lon": 0.0, "name": "579fcf513e9d4f510772f7e087123bc4", "lon": -76.95632416666666, "is_disabled": 0, "type": "electric_bike"}, {"bike_id": "68370b7a2c126c7c11d4adb9f5edce7f", "lat": 38.932267, "is_reserved": 0, "fusion_lat": 0.0, "rental_uris": {"android": "https://dc.lft.to/lastmile_qr_scan", "ios": "https://dc.lft.to/lastmile_qr_scan"}, "fusion_lon": 0.0, "name": "68370b7a2c126c7c11d4adb9f5edce7f", "lon": -77.18123583333333, "is_disabled": 0, "type": "electric_bike"}, {"bike_id": "1065419a315e855f4b63d56663fc8d26", "lat": 38.9315865, "is_reserved": 0, "fusion_lat": 0.0, "rental_uris": {"android": "https://dc.lft.to/lastmile_qr_scan", "ios": "https://dc.lft.to/lastmile_qr_scan"}, "fusion_lon": 0.0, "name": "1065419a315e855f4b63d56663fc8d26", "lon": -77.04541516666667, "is_disabled": 0, "type": "electric_scooter"}, {"bike_id": "d57be2d06991679df9897f2a5d2a96dd", "lat": 38.874726333333335, "is_reserved": 0, "fusion_lat": 0.0, "rental_uris": {"android": "https://dc.lft.to/lastmile_qr_scan", "ios": "https://dc.lft.to/lastmile_qr_scan"}, "fusion_lon": 0.0, "name": "d57be2d06991679df9897f2a5d2a96dd", "lon": -77.00924283333333, "is_disabled": 0, "type": "electric_scooter"}, {"bike_id": "cc4b9c3d74ec0ef46d5b6a3b6a6e2bb3", "lat": 38.904682, "is_reserved": 0, "fusion_lat": 0.0, "rental_uris": {"android": "https://dc.lft.to/lastmile_qr_scan", "ios": "https://dc.lft.to/lastmile_qr_scan"}, "fusion_lon": 0.0, "name": "cc4b9c3d74ec0ef46d5b6a3b6a6e2bb3", "lon": -76.97610883333333, "is_disabled": 0, "type": "electric_scooter"}, {"bike_id": "a20165fb2b62a0db0cc96dfeccf55e17", "lat": 38.88114316666667, "is_reserved": 0, "fusion_lat": 0.0, "rental_uris": {"android": "https://dc.lft.to/lastmile_qr_scan", "ios": "https://dc.lft.to/lastmile_qr_scan"}, "fusion_lon": 0.0, "name": "a20165fb2b62a0db0cc96dfeccf55e17", "lon": -77.01648016666667, "is_disabled": 0, "type": "electric_scooter"}, {"bike_id": "8857b1daefdf1c2f7053d6673e32240a", "lat": 38.9198345, "is_reserved": 0, "fusion_lat": 0.0, "rental_uris": {"android": "https://dc.lft.to/lastmile_qr_scan", "ios": "https://dc.lft.to/lastmile_qr_scan"}, "fusion_lon": 0.0, "name": "8857b1daefdf1c2f7053d6673e32240a", "lon": -77.02497266666667, "is_disabled": 0, "type": "electric_scooter"}, {"bike_id": "ea5280d24c835f8117a30113ef67bbe5", "lat": 38.8756275, "is_reserved": 0, "fusion_lat": 0.0, "rental_uris": {"android": "https://dc.lft.to/lastmile_qr_scan", "ios": "https://dc.lft.to/lastmile_qr_scan"}, "fusion_lon": 0.0, "name": "ea5280d24c835f8117a30113ef67bbe5", "lon": -76.958666, "is_disabled": 0, "type": "electric_scooter"}, {"bike_id": "19bc7258be09cdfea43f68d43821ab18", "lat": 38.939162, "is_reserved": 0, "fusion_lat": 0.0, "rental_uris": {"android": "https://dc.lft.to/lastmile_qr_scan", "ios": "https://dc.lft.to/lastmile_qr_scan"}, "fusion_lon": 0.0, "name": "19bc7258be09cdfea43f68d43821ab18", "lon": -77.06048766666666, "is_disabled": 0, "type": "electric_scooter"}, {"bike_id": "e26dbba55c28043ee7df7403953e6a90", "lat": 38.9159055, "is_reserved": 0, "fusion_lat": 0.0, "rental_uris": {"android": "https://dc.lft.to/lastmile_qr_scan", "ios": "https://dc.lft.to/lastmile_qr_scan"}, "fusion_lon": 0.0, "name": "e26dbba55c28043ee7df7403953e6a90", "lon": -77.02303766666667, "is_disabled": 0, "type": "electric_scooter"}, {"bike_id": "9366a2e31dcd4097ad1256ce4515a257", "lat": 38.89828216666667, "is_reserved": 0, "fusion_lat": 0.0, "rental_uris": {"android": "https://dc.lft.to/lastmile_qr_scan", "ios": "https://dc.lft.to/lastmile_qr_scan"}, "fusion_lon": 0.0, "name": "9366a2e31dcd4097ad1256ce4515a257", "lon": -77.01752666666667, "is_disabled": 0, "type": "electric_scooter"}, {"bike_id": "96006240acbbfd7885fbae0c164bdc4e", "lat": 38.9509515, "is_reserved": 0, "fusion_lat": 0.0, "rental_uris": {"android": "https://dc.lft.to/lastmile_qr_scan", "ios": "https://dc.lft.to/lastmile_qr_scan"}, "fusion_lon": 0.0, "name": "96006240acbbfd7885fbae0c164bdc4e", "lon": -77.08089933333333, "is_disabled": 0, "type": "electric_bike"}, {"bike_id": "a58e1f6cce25c9ebe3f5435a60269816", "lat": 38.897173333333335, "is_reserved": 0, "fusion_lat": 0.0, "rental_uris": {"android": "https://dc.lft.to/lastmile_qr_scan", "ios": "https://dc.lft.to/lastmile_qr_scan"}, "fusion_lon": 0.0, "name": "a58e1f6cce25c9ebe3f5435a60269816", "lon": -76.98360866666667, "is_disabled": 0, "type": "electric_scooter"}, {"bike_id": "2121456a29f9f9d9425b73ef29b06238", "lat": 38.898469666666664, "is_reserved": 0, "fusion_lat": 0.0, "rental_uris": {"android": "https://dc.lft.to/lastmile_qr_scan", "ios": "https://dc.lft.to/lastmile_qr_scan"}, "fusion_lon": 0.0, "name": "2121456a29f9f9d9425b73ef29b06238", "lon": -77.03352783333334, "is_disabled": 0, "type": "electric_scooter"}, {"bike_id": "e5f8b1a06f3ba1186f26b55bf10e10d8", "lat": 38.914871833333336, "is_reserved": 0, "fusion_lat": 0.0, "rental_uris": {"android": "https://dc.lft.to/lastmile_qr_scan", "ios": "https://dc.lft.to/lastmile_qr_scan"}, "fusion_lon": 0.0, "name": "e5f8b1a06f3ba1186f26b55bf10e10d8", "lon": -77.02587516666667, "is_disabled": 0, "type": "electric_scooter"}, {"bike_id": "d73e285d2d8a3c3b7d6259edf56cefec", "lat": 38.937731, "is_reserved": 0, "fusion_lat": 0.0, "rental_uris": {"android": "https://dc.lft.to/lastmile_qr_scan", "ios": "https://dc.lft.to/lastmile_qr_scan"}, "fusion_lon": 0.0, "name": "d73e285d2d8a3c3b7d6259edf56cefec", "lon": -77.01913566666667, "is_disabled": 0, "type": "electric_bike"}, {"bike_id": "d0926a85cb1b75f0f925ae0417e50876", "lat": 38.912661666666665, "is_reserved": 0, "fusion_lat": 0.0, "rental_uris": {"android": "https://dc.lft.to/lastmile_qr_scan", "ios": "https://dc.lft.to/lastmile_qr_scan"}, "fusion_lon": 0.0, "name": "d0926a85cb1b75f0f925ae0417e50876", "lon": -77.072153, "is_disabled": 0, "type": "electric_scooter"}, {"bike_id": "9396d4f6de433eefd56ef2806d09a42e", "lat": 38.9141505, "is_reserved": 0, "fusion_lat": 0.0, "rental_uris": {"android": "https://dc.lft.to/lastmile_qr_scan", "ios": "https://dc.lft.to/lastmile_qr_scan"}, "fusion_lon": 0.0, "name": "9396d4f6de433eefd56ef2806d09a42e", "lon": -77.02615666666667, "is_disabled": 0, "type": "electric_scooter"}, {"bike_id": "979b17529770d51b45c2b62e615c9736", "lat": 39.037076666666664, "is_reserved": 0, "fusion_lat": 0.0, "rental_uris": {"android": "https://dc.lft.to/lastmile_qr_scan", "ios": "https://dc.lft.to/lastmile_qr_scan"}, "fusion_lon": 0.0, "name": "979b17529770d51b45c2b62e615c9736", "lon": -77.028679, "is_disabled": 0, "type": "electric_bike"}, {"bike_id": "be3b6e4804de5831d2aba16345f55b0d", "lat": 38.91534466666667, "is_reserved": 0, "fusion_lat": 0.0, "rental_uris": {"android": "https://dc.lft.to/lastmile_qr_scan", "ios": "https://dc.lft.to/lastmile_qr_scan"}, "fusion_lon": 0.0, "name": "be3b6e4804de5831d2aba16345f55b0d", "lon": -77.01839683333333, "is_disabled": 0, "type": "electric_scooter"}, {"bike_id": "2109407e182cdf8dc1117dfa46aed1d8", "lat": 38.919548666666664, "is_reserved": 0, "fusion_lat": 0.0, "rental_uris": {"android": "https://dc.lft.to/lastmile_qr_scan", "ios": "https://dc.lft.to/lastmile_qr_scan"}, "fusion_lon": 0.0, "name": "2109407e182cdf8dc1117dfa46aed1d8", "lon": -77.013913, "is_disabled": 0, "type": "electric_scooter"}, {"bike_id": "68b05a9035cf6d320aad81872078e90c", "lat": 38.87176183333333, "is_reserved": 0, "fusion_lat": 0.0, "rental_uris": {"android": "https://dc.lft.to/lastmile_qr_scan", "ios": "https://dc.lft.to/lastmile_qr_scan"}, "fusion_lon": 0.0, "name": "68b05a9035cf6d320aad81872078e90c", "lon": -77.00629816666667, "is_disabled": 0, "type": "electric_scooter"}, {"bike_id": "f2436a139b92302465c63296c6b3c277", "lat": 38.9157245, "is_reserved": 0, "fusion_lat": 0.0, "rental_uris": {"android": "https://dc.lft.to/lastmile_qr_scan", "ios": "https://dc.lft.to/lastmile_qr_scan"}, "fusion_lon": 0.0, "name": "f2436a139b92302465c63296c6b3c277", "lon": -77.01955766666667, "is_disabled": 0, "type": "electric_scooter"}, {"bike_id": "db8b10c39170c1c01dd7d3033d469278", "lat": 38.90107866666666, "is_reserved": 0, "fusion_lat": 0.0, "rental_uris": {"android": "https://dc.lft.to/lastmile_qr_scan", "ios": "https://dc.lft.to/lastmile_qr_scan"}, "fusion_lon": 0.0, "name": "db8b10c39170c1c01dd7d3033d469278", "lon": -77.05131866666666, "is_disabled": 0, "type": "electric_scooter"}, {"bike_id": "37f7fdafdcb529a46a98ec90ac074ce6", "lat": 38.87462883333333, "is_reserved": 0, "fusion_lat": 0.0, "rental_uris": {"android": "https://dc.lft.to/lastmile_qr_scan", "ios": "https://dc.lft.to/lastmile_qr_scan"}, "fusion_lon": 0.0, "name": "37f7fdafdcb529a46a98ec90ac074ce6", "lon": -77.00494433333333, "is_disabled": 0, "type": "electric_scooter"}, {"bike_id": "24ac1c679a8da71e10cbd93b4c8ff955", "lat": 38.9056055, "is_reserved": 0, "fusion_lat": 0.0, "rental_uris": {"android": "https://dc.lft.to/lastmile_qr_scan", "ios": "https://dc.lft.to/lastmile_qr_scan"}, "fusion_lon": 0.0, "name": "24ac1c679a8da71e10cbd93b4c8ff955", "lon": -77.03239666666667, "is_disabled": 0, "type": "electric_scooter"}, {"bike_id": "739c8e4085a0b920a9eaa7af1c098f43", "lat": 38.892555333333334, "is_reserved": 0, "fusion_lat": 0.0, "rental_uris": {"android": "https://dc.lft.to/lastmile_qr_scan", "ios": "https://dc.lft.to/lastmile_qr_scan"}, "fusion_lon": 0.0, "name": "739c8e4085a0b920a9eaa7af1c098f43", "lon": -76.92571716666667, "is_disabled": 0, "type": "electric_scooter"}, {"bike_id": "957eb59884d95a1de1243406b4442dd6", "lat": 38.9039315, "is_reserved": 0, "fusion_lat": 0.0, "rental_uris": {"android": "https://dc.lft.to/lastmile_qr_scan", "ios": "https://dc.lft.to/lastmile_qr_scan"}, "fusion_lon": 0.0, "name": "957eb59884d95a1de1243406b4442dd6", "lon": -76.989405, "is_disabled": 0, "type": "electric_scooter"}, {"bike_id": "83453888ecd1b5347ecc5c8dddc9e582", "lat": 38.90140233333333, "is_reserved": 0, "fusion_lat": 0.0, "rental_uris": {"android": "https://dc.lft.to/lastmile_qr_scan", "ios": "https://dc.lft.to/lastmile_qr_scan"}, "fusion_lon": 0.0, "name": "83453888ecd1b5347ecc5c8dddc9e582", "lon": -77.04783633333334, "is_disabled": 0, "type": "electric_scooter"}, {"bike_id": "a9b14df971d7fb5eb657f5fef6dd3ef9", "lat": 38.93072933333333, "is_reserved": 0, "fusion_lat": 0.0, "rental_uris": {"android": "https://dc.lft.to/lastmile_qr_scan", "ios": "https://dc.lft.to/lastmile_qr_scan"}, "fusion_lon": 0.0, "name": "a9b14df971d7fb5eb657f5fef6dd3ef9", "lon": -77.05829283333334, "is_disabled": 0, "type": "electric_scooter"}, {"bike_id": "ef69721ec1dd0b356aaffae9acdac93d", "lat": 38.898775, "is_reserved": 0, "fusion_lat": 0.0, "rental_uris": {"android": "https://dc.lft.to/lastmile_qr_scan", "ios": "https://dc.lft.to/lastmile_qr_scan"}, "fusion_lon": 0.0, "name": "ef69721ec1dd0b356aaffae9acdac93d", "lon": -77.04885416666667, "is_disabled": 0, "type": "electric_scooter"}, {"bike_id": "107c767f6f08368971e78000eac0dcf1", "lat": 38.899888, "is_reserved": 0, "fusion_lat": 0.0, "rental_uris": {"android": "https://dc.lft.to/lastmile_qr_scan", "ios": "https://dc.lft.to/lastmile_qr_scan"}, "fusion_lon": 0.0, "name": "107c767f6f08368971e78000eac0dcf1", "lon": -77.04588783333334, "is_disabled": 0, "type": "electric_scooter"}, {"bike_id": "17bf33703971e3bda7cacf1d833359ff", "lat": 38.87160033333333, "is_reserved": 0, "fusion_lat": 0.0, "rental_uris": {"android": "https://dc.lft.to/lastmile_qr_scan", "ios": "https://dc.lft.to/lastmile_qr_scan"}, "fusion_lon": 0.0, "name": "17bf33703971e3bda7cacf1d833359ff", "lon": -77.01353916666666, "is_disabled": 0, "type": "electric_scooter"}, {"bike_id": "6fce7f8b788ac4b8d8265af097a25074", "lat": 38.89745583333333, "is_reserved": 0, "fusion_lat": 0.0, "rental_uris": {"android": "https://dc.lft.to/lastmile_qr_scan", "ios": "https://dc.lft.to/lastmile_qr_scan"}, "fusion_lon": 0.0, "name": "6fce7f8b788ac4b8d8265af097a25074", "lon": -77.02704016666667, "is_disabled": 0, "type": "electric_scooter"}, {"bike_id": "9b0a75fa615d28575e7b28806bcc4257", "lat": 38.87664566666667, "is_reserved": 0, "fusion_lat": 0.0, "rental_uris": {"android": "https://dc.lft.to/lastmile_qr_scan", "ios": "https://dc.lft.to/lastmile_qr_scan"}, "fusion_lon": 0.0, "name": "9b0a75fa615d28575e7b28806bcc4257", "lon": -77.00707333333334, "is_disabled": 0, "type": "electric_scooter"}, {"bike_id": "554018038bbe09694a758f9136aea59f", "lat": 38.91188116666667, "is_reserved": 0, "fusion_lat": 0.0, "rental_uris": {"android": "https://dc.lft.to/lastmile_qr_scan", "ios": "https://dc.lft.to/lastmile_qr_scan"}, "fusion_lon": 0.0, "name": "554018038bbe09694a758f9136aea59f", "lon": -77.03267366666667, "is_disabled": 0, "type": "electric_scooter"}, {"bike_id": "75d7f98037c8aeccb16c4ece468e7d10", "lat": 38.9320365, "is_reserved": 0, "fusion_lat": 0.0, "rental_uris": {"android": "https://dc.lft.to/lastmile_qr_scan", "ios": "https://dc.lft.to/lastmile_qr_scan"}, "fusion_lon": 0.0, "name": "75d7f98037c8aeccb16c4ece468e7d10", "lon": -77.03855183333333, "is_disabled": 0, "type": "electric_scooter"}, {"bike_id": "9954351244b36351d5affa259069e68a", "lat": 38.8841645, "is_reserved": 0, "fusion_lat": 0.0, "rental_uris": {"android": "https://dc.lft.to/lastmile_qr_scan", "ios": "https://dc.lft.to/lastmile_qr_scan"}, "fusion_lon": 0.0, "name": "9954351244b36351d5affa259069e68a", "lon": -77.00056183333334, "is_disabled": 0, "type": "electric_scooter"}, {"bike_id": "cb86f453779b29c0777600bfeb7aafa9", "lat": 38.8929145, "is_reserved": 0, "fusion_lat": 0.0, "rental_uris": {"android": "https://dc.lft.to/lastmile_qr_scan", "ios": "https://dc.lft.to/lastmile_qr_scan"}, "fusion_lon": 0.0, "name": "cb86f453779b29c0777600bfeb7aafa9", "lon": -77.04879483333333, "is_disabled": 0, "type": "electric_scooter"}, {"bike_id": "e1cd45aa89ed4704ffa14d25d093aacc", "lat": 38.90022466666667, "is_reserved": 0, "fusion_lat": 0.0, "rental_uris": {"android": "https://dc.lft.to/lastmile_qr_scan", "ios": "https://dc.lft.to/lastmile_qr_scan"}, "fusion_lon": 0.0, "name": "e1cd45aa89ed4704ffa14d25d093aacc", "lon": -77.0450235, "is_disabled": 0, "type": "electric_scooter"}, {"bike_id": "f9d767ed7872733629e9f83d223068bc", "lat": 38.90637916666667, "is_reserved": 0, "fusion_lat": 0.0, "rental_uris": {"android": "https://dc.lft.to/lastmile_qr_scan", "ios": "https://dc.lft.to/lastmile_qr_scan"}, "fusion_lon": 0.0, "name": "f9d767ed7872733629e9f83d223068bc", "lon": -77.01831816666666, "is_disabled": 0, "type": "electric_scooter"}, {"bike_id": "d4c56ae40b1827c7e6f252801ab9c295", "lat": 38.92468366666667, "is_reserved": 0, "fusion_lat": 0.0, "rental_uris": {"android": "https://dc.lft.to/lastmile_qr_scan", "ios": "https://dc.lft.to/lastmile_qr_scan"}, "fusion_lon": 0.0, "name": "d4c56ae40b1827c7e6f252801ab9c295", "lon": -77.05238783333333, "is_disabled": 0, "type": "electric_scooter"}, {"bike_id": "0f80e0ef8a1b7ab8bdfad359be83daf3", "lat": 38.89884516666667, "is_reserved": 0, "fusion_lat": 0.0, "rental_uris": {"android": "https://dc.lft.to/lastmile_qr_scan", "ios": "https://dc.lft.to/lastmile_qr_scan"}, "fusion_lon": 0.0, "name": "0f80e0ef8a1b7ab8bdfad359be83daf3", "lon": -76.931795, "is_disabled": 0, "type": "electric_scooter"}, {"bike_id": "7ac97b9cb36b7dbf2c7b97c67116941d", "lat": 38.867551166666665, "is_reserved": 0, "fusion_lat": 0.0, "rental_uris": {"android": "https://dc.lft.to/lastmile_qr_scan", "ios": "https://dc.lft.to/lastmile_qr_scan"}, "fusion_lon": 0.0, "name": "7ac97b9cb36b7dbf2c7b97c67116941d", "lon": -76.94533816666667, "is_disabled": 0, "type": "electric_bike"}, {"bike_id": "cd462f023ed1434a47b8078ec59f2f13", "lat": 38.903376333333334, "is_reserved": 0, "fusion_lat": 0.0, "rental_uris": {"android": "https://dc.lft.to/lastmile_qr_scan", "ios": "https://dc.lft.to/lastmile_qr_scan"}, "fusion_lon": 0.0, "name": "cd462f023ed1434a47b8078ec59f2f13", "lon": -77.0618925, "is_disabled": 0, "type": "electric_scooter"}, {"bike_id": "1ab241eaac4b7771ded35042f785e016", "lat": 38.882656, "is_reserved": 0, "fusion_lat": 0.0, "rental_uris": {"android": "https://dc.lft.to/lastmile_qr_scan", "ios": "https://dc.lft.to/lastmile_qr_scan"}, "fusion_lon": 0.0, "name": "1ab241eaac4b7771ded35042f785e016", "lon": -77.00513483333333, "is_disabled": 0, "type": "electric_scooter"}, {"bike_id": "be2a00edc93349620ae397644d343c5c", "lat": 38.85889066666667, "is_reserved": 0, "fusion_lat": 0.0, "rental_uris": {"android": "https://dc.lft.to/lastmile_qr_scan", "ios": "https://dc.lft.to/lastmile_qr_scan"}, "fusion_lon": 0.0, "name": "be2a00edc93349620ae397644d343c5c", "lon": -76.995546, "is_disabled": 0, "type": "electric_scooter"}, {"bike_id": "e9bc5a0a9711dc54967393b3cbfa2a67", "lat": 38.901503166666664, "is_reserved": 0, "fusion_lat": 0.0, "rental_uris": {"android": "https://dc.lft.to/lastmile_qr_scan", "ios": "https://dc.lft.to/lastmile_qr_scan"}, "fusion_lon": 0.0, "name": "e9bc5a0a9711dc54967393b3cbfa2a67", "lon": -77.02925566666667, "is_disabled": 0, "type": "electric_scooter"}, {"bike_id": "fe07ab9e99a9416e0c1656ec2e390d8c", "lat": 38.938969166666666, "is_reserved": 0, "fusion_lat": 0.0, "rental_uris": {"android": "https://dc.lft.to/lastmile_qr_scan", "ios": "https://dc.lft.to/lastmile_qr_scan"}, "fusion_lon": 0.0, "name": "fe07ab9e99a9416e0c1656ec2e390d8c", "lon": -77.0333505, "is_disabled": 0, "type": "electric_scooter"}, {"bike_id": "013675f76e362d63ebcd5c64a6e67d92", "lat": 38.9086975, "is_reserved": 0, "fusion_lat": 0.0, "rental_uris": {"android": "https://dc.lft.to/lastmile_qr_scan", "ios": "https://dc.lft.to/lastmile_qr_scan"}, "fusion_lon": 0.0, "name": "013675f76e362d63ebcd5c64a6e67d92", "lon": -76.99790583333333, "is_disabled": 0, "type": "electric_scooter"}, {"bike_id": "2a577bff92853bdacdec297f69db44eb", "lat": 38.8874565, "is_reserved": 0, "fusion_lat": 0.0, "rental_uris": {"android": "https://dc.lft.to/lastmile_qr_scan", "ios": "https://dc.lft.to/lastmile_qr_scan"}, "fusion_lon": 0.0, "name": "2a577bff92853bdacdec297f69db44eb", "lon": -77.03168733333334, "is_disabled": 0, "type": "electric_scooter"}, {"bike_id": "c2296dae994285aa7e7acc38d32117b9", "lat": 38.929166333333335, "is_reserved": 0, "fusion_lat": 0.0, "rental_uris": {"android": "https://dc.lft.to/lastmile_qr_scan", "ios": "https://dc.lft.to/lastmile_qr_scan"}, "fusion_lon": 0.0, "name": "c2296dae994285aa7e7acc38d32117b9", "lon": -77.0209365, "is_disabled": 0, "type": "electric_scooter"}, {"bike_id": "4a23a89dbe1a82431fb23ef0541ece70", "lat": 38.93730766666667, "is_reserved": 0, "fusion_lat": 0.0, "rental_uris": {"android": "https://dc.lft.to/lastmile_qr_scan", "ios": "https://dc.lft.to/lastmile_qr_scan"}, "fusion_lon": 0.0, "name": "4a23a89dbe1a82431fb23ef0541ece70", "lon": -77.032693, "is_disabled": 0, "type": "electric_scooter"}, {"bike_id": "3e745f34eeeac4bf29b272dea9d6dda0", "lat": 38.927620166666664, "is_reserved": 0, "fusion_lat": 0.0, "rental_uris": {"android": "https://dc.lft.to/lastmile_qr_scan", "ios": "https://dc.lft.to/lastmile_qr_scan"}, "fusion_lon": 0.0, "name": "3e745f34eeeac4bf29b272dea9d6dda0", "lon": -77.02785566666667, "is_disabled": 0, "type": "electric_scooter"}, {"bike_id": "8483332dfce1a9b76d000b3963de353c", "lat": 38.92067633333333, "is_reserved": 0, "fusion_lat": 0.0, "rental_uris": {"android": "https://dc.lft.to/lastmile_qr_scan", "ios": "https://dc.lft.to/lastmile_qr_scan"}, "fusion_lon": 0.0, "name": "8483332dfce1a9b76d000b3963de353c", "lon": -76.89074683333334, "is_disabled": 0, "type": "electric_bike"}, {"bike_id": "e92947a09b54c668265ab75f5437bf9d", "lat": 38.906212, "is_reserved": 0, "fusion_lat": 0.0, "rental_uris": {"android": "https://dc.lft.to/lastmile_qr_scan", "ios": "https://dc.lft.to/lastmile_qr_scan"}, "fusion_lon": 0.0, "name": "e92947a09b54c668265ab75f5437bf9d", "lon": -77.03967616666667, "is_disabled": 0, "type": "electric_scooter"}, {"bike_id": "e2cb213a1be0c0356d1f45b5199a813b", "lat": 38.897268833333335, "is_reserved": 0, "fusion_lat": 0.0, "rental_uris": {"android": "https://dc.lft.to/lastmile_qr_scan", "ios": "https://dc.lft.to/lastmile_qr_scan"}, "fusion_lon": 0.0, "name": "e2cb213a1be0c0356d1f45b5199a813b", "lon": -77.02167083333333, "is_disabled": 0, "type": "electric_scooter"}, {"bike_id": "8bcac627cd041b5f9f6840740b1992a1", "lat": 38.912796666666665, "is_reserved": 0, "fusion_lat": 0.0, "rental_uris": {"android": "https://dc.lft.to/lastmile_qr_scan", "ios": "https://dc.lft.to/lastmile_qr_scan"}, "fusion_lon": 0.0, "name": "8bcac627cd041b5f9f6840740b1992a1", "lon": -77.0611735, "is_disabled": 0, "type": "electric_scooter"}, {"bike_id": "480234cfde3d90968fc2831974fc5697", "lat": 38.924238833333334, "is_reserved": 0, "fusion_lat": 0.0, "rental_uris": {"android": "https://dc.lft.to/lastmile_qr_scan", "ios": "https://dc.lft.to/lastmile_qr_scan"}, "fusion_lon": 0.0, "name": "480234cfde3d90968fc2831974fc5697", "lon": -77.019503, "is_disabled": 0, "type": "electric_scooter"}, {"bike_id": "0f3252a2071b2c50413d83cd59e81356", "lat": 38.831447, "is_reserved": 0, "fusion_lat": 0.0, "rental_uris": {"android": "https://dc.lft.to/lastmile_qr_scan", "ios": "https://dc.lft.to/lastmile_qr_scan"}, "fusion_lon": 0.0, "name": "0f3252a2071b2c50413d83cd59e81356", "lon": -77.00788183333333, "is_disabled": 0, "type": "electric_scooter"}, {"bike_id": "20f748b940aa829427597a706059d315", "lat": 38.903770333333334, "is_reserved": 0, "fusion_lat": 0.0, "rental_uris": {"android": "https://dc.lft.to/lastmile_qr_scan", "ios": "https://dc.lft.to/lastmile_qr_scan"}, "fusion_lon": 0.0, "name": "20f748b940aa829427597a706059d315", "lon": -77.04567483333334, "is_disabled": 0, "type": "electric_scooter"}, {"bike_id": "b126d57840a2dbcf0c61527cb7607ea2", "lat": 38.919802, "is_reserved": 0, "fusion_lat": 0.0, "rental_uris": {"android": "https://dc.lft.to/lastmile_qr_scan", "ios": "https://dc.lft.to/lastmile_qr_scan"}, "fusion_lon": 0.0, "name": "b126d57840a2dbcf0c61527cb7607ea2", "lon": -77.02185766666666, "is_disabled": 0, "type": "electric_scooter"}, {"bike_id": "d775e1726a58f22a65a48b34c25ae014", "lat": 38.925253166666664, "is_reserved": 0, "fusion_lat": 0.0, "rental_uris": {"android": "https://dc.lft.to/lastmile_qr_scan", "ios": "https://dc.lft.to/lastmile_qr_scan"}, "fusion_lon": 0.0, "name": "d775e1726a58f22a65a48b34c25ae014", "lon": -77.04116766666667, "is_disabled": 0, "type": "electric_scooter"}, {"bike_id": "71534040ca35fe677e3f5a23ef8affb4", "lat": 38.89619016666666, "is_reserved": 0, "fusion_lat": 0.0, "rental_uris": {"android": "https://dc.lft.to/lastmile_qr_scan", "ios": "https://dc.lft.to/lastmile_qr_scan"}, "fusion_lon": 0.0, "name": "71534040ca35fe677e3f5a23ef8affb4", "lon": -77.023547, "is_disabled": 0, "type": "electric_scooter"}, {"bike_id": "5d91a727d3577a42185f7aedd3063ef8", "lat": 38.8835055, "is_reserved": 0, "fusion_lat": 0.0, "rental_uris": {"android": "https://dc.lft.to/lastmile_qr_scan", "ios": "https://dc.lft.to/lastmile_qr_scan"}, "fusion_lon": 0.0, "name": "5d91a727d3577a42185f7aedd3063ef8", "lon": -76.99484933333333, "is_disabled": 0, "type": "electric_bike"}, {"bike_id": "cfa39df8ef2d0a5bfe7b0802057c721b", "lat": 38.914806666666664, "is_reserved": 0, "fusion_lat": 0.0, "rental_uris": {"android": "https://dc.lft.to/lastmile_qr_scan", "ios": "https://dc.lft.to/lastmile_qr_scan"}, "fusion_lon": 0.0, "name": "cfa39df8ef2d0a5bfe7b0802057c721b", "lon": -77.02584166666666, "is_disabled": 0, "type": "electric_scooter"}, {"bike_id": "813a5ab395c24171ddfb17d23a00e874", "lat": 38.899484666666666, "is_reserved": 0, "fusion_lat": 0.0, "rental_uris": {"android": "https://dc.lft.to/lastmile_qr_scan", "ios": "https://dc.lft.to/lastmile_qr_scan"}, "fusion_lon": 0.0, "name": "813a5ab395c24171ddfb17d23a00e874", "lon": -77.04493566666666, "is_disabled": 0, "type": "electric_scooter"}, {"bike_id": "e4940d33f5b2013583d6ebcaabf4a608", "lat": 38.897483, "is_reserved": 0, "fusion_lat": 0.0, "rental_uris": {"android": "https://dc.lft.to/lastmile_qr_scan", "ios": "https://dc.lft.to/lastmile_qr_scan"}, "fusion_lon": 0.0, "name": "e4940d33f5b2013583d6ebcaabf4a608", "lon": -76.941916, "is_disabled": 0, "type": "electric_scooter"}, {"bike_id": "a354d530d05936a284428edaa71b4859", "lat": 38.91112666666667, "is_reserved": 0, "fusion_lat": 0.0, "rental_uris": {"android": "https://dc.lft.to/lastmile_qr_scan", "ios": "https://dc.lft.to/lastmile_qr_scan"}, "fusion_lon": 0.0, "name": "a354d530d05936a284428edaa71b4859", "lon": -77.04356766666666, "is_disabled": 0, "type": "electric_scooter"}, {"bike_id": "94183332c289c706e67308e604703371", "lat": 38.85760333333333, "is_reserved": 0, "fusion_lat": 0.0, "rental_uris": {"android": "https://dc.lft.to/lastmile_qr_scan", "ios": "https://dc.lft.to/lastmile_qr_scan"}, "fusion_lon": 0.0, "name": "94183332c289c706e67308e604703371", "lon": -76.9876115, "is_disabled": 0, "type": "electric_bike"}, {"bike_id": "71ac9a873b1c0afdcd23b2d35557342b", "lat": 38.917001666666664, "is_reserved": 0, "fusion_lat": 0.0, "rental_uris": {"android": "https://dc.lft.to/lastmile_qr_scan", "ios": "https://dc.lft.to/lastmile_qr_scan"}, "fusion_lon": 0.0, "name": "71ac9a873b1c0afdcd23b2d35557342b", "lon": -77.00816366666666, "is_disabled": 0, "type": "electric_scooter"}, {"bike_id": "3e5f00e709e6fb5e03e3a2f34f27ac25", "lat": 38.91591283333333, "is_reserved": 0, "fusion_lat": 0.0, "rental_uris": {"android": "https://dc.lft.to/lastmile_qr_scan", "ios": "https://dc.lft.to/lastmile_qr_scan"}, "fusion_lon": 0.0, "name": "3e5f00e709e6fb5e03e3a2f34f27ac25", "lon": -77.0364595, "is_disabled": 0, "type": "electric_scooter"}, {"bike_id": "52598b122f2d12bbe99480e48feee137", "lat": 38.9185555, "is_reserved": 0, "fusion_lat": 0.0, "rental_uris": {"android": "https://dc.lft.to/lastmile_qr_scan", "ios": "https://dc.lft.to/lastmile_qr_scan"}, "fusion_lon": 0.0, "name": "52598b122f2d12bbe99480e48feee137", "lon": -77.03520266666666, "is_disabled": 0, "type": "electric_scooter"}, {"bike_id": "c4a2616285f721c4e742dac5e95510a9", "lat": 38.86248966666667, "is_reserved": 0, "fusion_lat": 0.0, "rental_uris": {"android": "https://dc.lft.to/lastmile_qr_scan", "ios": "https://dc.lft.to/lastmile_qr_scan"}, "fusion_lon": 0.0, "name": "c4a2616285f721c4e742dac5e95510a9", "lon": -76.99496933333333, "is_disabled": 0, "type": "electric_scooter"}, {"bike_id": "7e5cb77b8f1713342f40606dc69a44d5", "lat": 38.904015666666666, "is_reserved": 0, "fusion_lat": 0.0, "rental_uris": {"android": "https://dc.lft.to/lastmile_qr_scan", "ios": "https://dc.lft.to/lastmile_qr_scan"}, "fusion_lon": 0.0, "name": "7e5cb77b8f1713342f40606dc69a44d5", "lon": -77.03861116666667, "is_disabled": 0, "type": "electric_scooter"}, {"bike_id": "3d21944d5a05027cc1e1826dbb5babcf", "lat": 38.9237315, "is_reserved": 0, "fusion_lat": 0.0, "rental_uris": {"android": "https://dc.lft.to/lastmile_qr_scan", "ios": "https://dc.lft.to/lastmile_qr_scan"}, "fusion_lon": 0.0, "name": "3d21944d5a05027cc1e1826dbb5babcf", "lon": -77.031361, "is_disabled": 0, "type": "electric_scooter"}, {"bike_id": "4e4af6f62344eb24cb407b263a623d07", "lat": 38.89611983333333, "is_reserved": 0, "fusion_lat": 0.0, "rental_uris": {"android": "https://dc.lft.to/lastmile_qr_scan", "ios": "https://dc.lft.to/lastmile_qr_scan"}, "fusion_lon": 0.0, "name": "4e4af6f62344eb24cb407b263a623d07", "lon": -77.04483783333333, "is_disabled": 0, "type": "electric_scooter"}, {"bike_id": "8bd9a2cb3de9ce0a4625f2a1b72095ba", "lat": 38.92320133333333, "is_reserved": 0, "fusion_lat": 0.0, "rental_uris": {"android": "https://dc.lft.to/lastmile_qr_scan", "ios": "https://dc.lft.to/lastmile_qr_scan"}, "fusion_lon": 0.0, "name": "8bd9a2cb3de9ce0a4625f2a1b72095ba", "lon": -77.02134, "is_disabled": 0, "type": "electric_scooter"}, {"bike_id": "0fc85ae4178724f372a4f87b66917e8d", "lat": 38.91422983333333, "is_reserved": 0, "fusion_lat": 0.0, "rental_uris": {"android": "https://dc.lft.to/lastmile_qr_scan", "ios": "https://dc.lft.to/lastmile_qr_scan"}, "fusion_lon": 0.0, "name": "0fc85ae4178724f372a4f87b66917e8d", "lon": -77.04818316666666, "is_disabled": 0, "type": "electric_scooter"}, {"bike_id": "34bd9a166c1c91653e51bd8db461a8b7", "lat": 38.921076166666666, "is_reserved": 0, "fusion_lat": 0.0, "rental_uris": {"android": "https://dc.lft.to/lastmile_qr_scan", "ios": "https://dc.lft.to/lastmile_qr_scan"}, "fusion_lon": 0.0, "name": "34bd9a166c1c91653e51bd8db461a8b7", "lon": -77.03173266666667, "is_disabled": 0, "type": "electric_scooter"}, {"bike_id": "8b467d9f2261e00215a14574d5226bed", "lat": 38.9208885, "is_reserved": 0, "fusion_lat": 0.0, "rental_uris": {"android": "https://dc.lft.to/lastmile_qr_scan", "ios": "https://dc.lft.to/lastmile_qr_scan"}, "fusion_lon": 0.0, "name": "8b467d9f2261e00215a14574d5226bed", "lon": -77.02340166666667, "is_disabled": 0, "type": "electric_scooter"}, {"bike_id": "3940881ddfb63c332485841750e65ba0", "lat": 38.908305166666665, "is_reserved": 0, "fusion_lat": 0.0, "rental_uris": {"android": "https://dc.lft.to/lastmile_qr_scan", "ios": "https://dc.lft.to/lastmile_qr_scan"}, "fusion_lon": 0.0, "name": "3940881ddfb63c332485841750e65ba0", "lon": -77.042932, "is_disabled": 0, "type": "electric_scooter"}, {"bike_id": "2c920d64804f191272cd618fc067ff6a", "lat": 38.869589833333336, "is_reserved": 0, "fusion_lat": 0.0, "rental_uris": {"android": "https://dc.lft.to/lastmile_qr_scan", "ios": "https://dc.lft.to/lastmile_qr_scan"}, "fusion_lon": 0.0, "name": "2c920d64804f191272cd618fc067ff6a", "lon": -76.981796, "is_disabled": 0, "type": "electric_scooter"}, {"bike_id": "0223fa45910362a25405d1d1487b225d", "lat": 38.87254316666667, "is_reserved": 0, "fusion_lat": 0.0, "rental_uris": {"android": "https://dc.lft.to/lastmile_qr_scan", "ios": "https://dc.lft.to/lastmile_qr_scan"}, "fusion_lon": 0.0, "name": "0223fa45910362a25405d1d1487b225d", "lon": -77.2325955, "is_disabled": 0, "type": "electric_bike"}, {"bike_id": "1546bda353946d9647d715232387655c", "lat": 38.89778733333333, "is_reserved": 0, "fusion_lat": 0.0, "rental_uris": {"android": "https://dc.lft.to/lastmile_qr_scan", "ios": "https://dc.lft.to/lastmile_qr_scan"}, "fusion_lon": 0.0, "name": "1546bda353946d9647d715232387655c", "lon": -77.00145266666667, "is_disabled": 0, "type": "electric_scooter"}, {"bike_id": "f75579f77152a69ebaa9749470649810", "lat": 38.924439666666665, "is_reserved": 0, "fusion_lat": 0.0, "rental_uris": {"android": "https://dc.lft.to/lastmile_qr_scan", "ios": "https://dc.lft.to/lastmile_qr_scan"}, "fusion_lon": 0.0, "name": "f75579f77152a69ebaa9749470649810", "lon": -77.041155, "is_disabled": 0, "type": "electric_scooter"}, {"bike_id": "a86a233be31bfa755769805f3a2ea74b", "lat": 38.898461, "is_reserved": 0, "fusion_lat": 0.0, "rental_uris": {"android": "https://dc.lft.to/lastmile_qr_scan", "ios": "https://dc.lft.to/lastmile_qr_scan"}, "fusion_lon": 0.0, "name": "a86a233be31bfa755769805f3a2ea74b", "lon": -76.978353, "is_disabled": 0, "type": "electric_scooter"}, {"bike_id": "11d3d6f3daa76f704e19b7c6ae12e569", "lat": 38.9097435, "is_reserved": 0, "fusion_lat": 0.0, "rental_uris": {"android": "https://dc.lft.to/lastmile_qr_scan", "ios": "https://dc.lft.to/lastmile_qr_scan"}, "fusion_lon": 0.0, "name": "11d3d6f3daa76f704e19b7c6ae12e569", "lon": -77.22877783333334, "is_disabled": 0, "type": "electric_bike"},