{"data": {"bikes": [{"rental_uris": {"ios": "https://dc.lft.to/lastmile_qr_scan", "android": "https://dc.lft.to/lastmile_qr_scan"}, "lon": -77.07899583333334, "type": "electric_bike", "fusion_lat": 0.0, "lat": 38.83935533333333, "name": "02353a7792cdf0ac0573abb92d25722b", "fusion_lon": 0.0, "bike_id": "02353a7792cdf0ac0573abb92d25722b", "is_disabled": 0, "is_reserved": 0}, {"rental_uris": {"ios": "https://dc.lft.to/lastmile_qr_scan", "android": "https://dc.lft.to/lastmile_qr_scan"}, "lon": -76.936195, "type": "electric_bike", "fusion_lat": 0.0, "lat": 38.97051616666667, "name": "a3f011faf75ba2e3da5eec0b0fe0fa0c", "fusion_lon": 0.0, "bike_id": "a3f011faf75ba2e3da5eec0b0fe0fa0c", "is_disabled": 0, "is_reserved": 0}, {"rental_uris": {"ios": "https://dc.lft.to/lastmile_qr_scan", "android": "https://dc.lft.to/lastmile_qr_scan"}, "lon": -76.99968083333333, "type": "electric_scooter", "fusion_lat": 0.0, "lat": 38.90135216666667, "name": "a2b3542be60d76759c0b0c548cd2131e", "fusion_lon": 0.0, "bike_id": "a2b3542be60d76759c0b0c548cd2131e", "is_disabled": 0, "is_reserved": 0}, {"rental_uris": {"ios": "https://dc.lft.to/lastmile_qr_scan", "android": "https://dc.lft.to/lastmile_qr_scan"}, "lon": -77.05100333333333, "type": "electric_scooter", "fusion_lat": 0.0, "lat": 38.90514, "name": "58a5fbc39ed0df882ca9b4df02cce041", "fusion_lon": 0.0, "bike_id": "58a5fbc39ed0df882ca9b4df02cce041", "is_disabled": 0, "is_reserved": 0}, {"rental_uris": {"ios": "https://dc.lft.to/lastmile_qr_scan", "android": "https://dc.lft.to/lastmile_qr_scan"}, "lon": -77.02473283333333, "type": "electric_scooter", "fusion_lat": 0.0, "lat": 38.938482666666665, "name": "aa00d13b6bd0498ebbdbcff172ba0fb7", "fusion_lon": 0.0, "bike_id": "aa00d13b6bd0498ebbdbcff172ba0fb7", "is_disabled": 0, "is_reserved": 0}, {"rental_uris": {"ios": "https://dc.lft.to/lastmile_qr_scan", "android": "https://dc.lft.to/lastmile_qr_scan"}, "lon": -76.99791416666666, "type": "electric_scooter", "fusion_lat": 0.0, "lat": 38.908696666666664, "name": "0934269053c6490d673d9664b242c5b4", "fusion_lon": 0.0, "bike_id": "0934269053c6490d673d9664b242c5b4", "is_disabled": 0, "is_reserved": 0}, {"rental_uris": {"ios": "https://dc.lft.to/lastmile_qr_scan", "android": "https://dc.lft.to/lastmile_qr_scan"}, "lon": -76.98088233333333, "type": "electric_bike", "fusion_lat": 0.0, "lat": 38.90287, "name": "3f2c726d1b4774c511b3c96b02068ed7", "fusion_lon": 0.0, "bike_id": "3f2c726d1b4774c511b3c96b02068ed7", "is_disabled": 0, "is_reserved": 0}, {"rental_uris": {"ios": "https://dc.lft.to/lastmile_qr_scan", "android": "https://dc.lft.to/lastmile_qr_scan"}, "lon": -77.00637783333333, "type": "electric_scooter", "fusion_lat": 0.0, "lat": 38.876307, "name": "1052c16197c130ca9e70538b2e7503c1", "fusion_lon": 0.0, "bike_id": "1052c16197c130ca9e70538b2e7503c1", "is_disabled": 0, "is_reserved": 0}, {"rental_uris": {"ios": "https://dc.lft.to/lastmile_qr_scan", "android": "https://dc.lft.to/lastmile_qr_scan"}, "lon": -77.029744, "type": "electric_scooter", "fusion_lat": 0.0, "lat": 38.962256833333335, "name": "8215050de3bf30e4c92f3597f9c595f4", "fusion_lon": 0.0, "bike_id": "8215050de3bf30e4c92f3597f9c595f4", "is_disabled": 0, "is_reserved": 0}, {"rental_uris": {"ios": "https://dc.lft.to/lastmile_qr_scan", "android": "https://dc.lft.to/lastmile_qr_scan"}, "lon": -76.92588233333333, "type": "electric_scooter", "fusion_lat": 0.0, "lat": 38.89729416666667, "name": "bc92c04f8b6051c5728421a3c48200ce", "fusion_lon": 0.0, "bike_id": "bc92c04f8b6051c5728421a3c48200ce", "is_disabled": 0, "is_reserved": 0}, {"rental_uris": {"ios": "https://dc.lft.to/lastmile_qr_scan", "android": "https://dc.lft.to/lastmile_qr_scan"}, "lon": -77.01276916666667, "type": "electric_bike", "fusion_lat": 0.0, "lat": 38.881203666666664, "name": "2932b8b8e9c5d9bfd9484df30e3f133c", "fusion_lon": 0.0, "bike_id": "2932b8b8e9c5d9bfd9484df30e3f133c", "is_disabled": 0, "is_reserved": 0}, {"rental_uris": {"ios": "https://dc.lft.to/lastmile_qr_scan", "android": "https://dc.lft.to/lastmile_qr_scan"}, "lon": -77.00708866666666, "type": "electric_scooter", "fusion_lat": 0.0, "lat": 38.884927, "name": "94f02f126b4371a8cd549477de13c943", "fusion_lon": 0.0, "bike_id": "94f02f126b4371a8cd549477de13c943", "is_disabled": 0, "is_reserved": 0}, {"rental_uris": {"ios": "https://dc.lft.to/lastmile_qr_scan", "android": "https://dc.lft.to/lastmile_qr_scan"}, "lon": -77.10338683333333, "type": "electric_bike", "fusion_lat": 0.0, "lat": 38.85226316666667, "name": "ffc42ce95d5d26c3367cc00350229d30", "fusion_lon": 0.0, "bike_id": "ffc42ce95d5d26c3367cc00350229d30", "is_disabled": 0, "is_reserved": 0}, {"rental_uris": {"ios": "https://dc.lft.to/lastmile_qr_scan", "android": "https://dc.lft.to/lastmile_qr_scan"}, "lon": -77.03763933333333, "type": "electric_scooter", "fusion_lat": 0.0, "lat": 38.91680183333333, "name": "eb61e81cbf29e6f38bd0c6596257ce80", "fusion_lon": 0.0, "bike_id": "eb61e81cbf29e6f38bd0c6596257ce80", "is_disabled": 0, "is_reserved": 0}, {"rental_uris": {"ios": "https://dc.lft.to/lastmile_qr_scan", "android": "https://dc.lft.to/lastmile_qr_scan"}, "lon": -77.0274085, "type": "electric_scooter", "fusion_lat": 0.0, "lat": 38.8817165, "name": "636b6c83a64b44ca322367a9f337318d", "fusion_lon": 0.0, "bike_id": "636b6c83a64b44ca322367a9f337318d", "is_disabled": 0, "is_reserved": 0}, {"rental_uris": {"ios": "https://dc.lft.to/lastmile_qr_scan", "android": "https://dc.lft.to/lastmile_qr_scan"}, "lon": -77.02994866666667, "type": "electric_scooter", "fusion_lat": 0.0, "lat": 38.897536833333334, "name": "6b003bb670f20eb1812aa4ced281712d", "fusion_lon": 0.0, "bike_id": "6b003bb670f20eb1812aa4ced281712d", "is_disabled": 0, "is_reserved": 0}, {"rental_uris": {"ios": "https://dc.lft.to/lastmile_qr_scan", "android": "https://dc.lft.to/lastmile_qr_scan"}, "lon": -77.001309, "type": "electric_scooter", "fusion_lat": 0.0, "lat": 38.904083666666665, "name": "40e9b5e28037e001a57cbec81839b101", "fusion_lon": 0.0, "bike_id": "40e9b5e28037e001a57cbec81839b101", "is_disabled": 0, "is_reserved": 0}, {"rental_uris": {"ios": "https://dc.lft.to/lastmile_qr_scan", "android": "https://dc.lft.to/lastmile_qr_scan"}, "lon": -76.927213, "type": "electric_scooter", "fusion_lat": 0.0, "lat": 38.880381666666665, "name": "333de23f30c0a6554f2afcb188df2607", "fusion_lon": 0.0, "bike_id": "333de23f30c0a6554f2afcb188df2607", "is_disabled": 0, "is_reserved": 0}, {"rental_uris": {"ios": "https://dc.lft.to/lastmile_qr_scan", "android": "https://dc.lft.to/lastmile_qr_scan"}, "lon": -77.00876666666667, "type": "electric_scooter", "fusion_lat": 0.0, "lat": 38.913985, "name": "8b107a077469786655d36cfbd41855b3", "fusion_lon": 0.0, "bike_id": "8b107a077469786655d36cfbd41855b3", "is_disabled": 0, "is_reserved": 0}, {"rental_uris": {"ios": "https://dc.lft.to/lastmile_qr_scan", "android": "https://dc.lft.to/lastmile_qr_scan"}, "lon": -77.022126, "type": "electric_scooter", "fusion_lat": 0.0, "lat": 38.90567, "name": "c3f71fb6a4347ceb34fb5846976167ab", "fusion_lon": 0.0, "bike_id": "c3f71fb6a4347ceb34fb5846976167ab", "is_disabled": 0, "is_reserved": 0}, {"rental_uris": {"ios": "https://dc.lft.to/lastmile_qr_scan", "android": "https://dc.lft.to/lastmile_qr_scan"}, "lon": -77.03313383333334, "type": "electric_scooter", "fusion_lat": 0.0, "lat": 38.89846633333333, "name": "229df94fef9807536310eab67ec60ebe", "fusion_lon": 0.0, "bike_id": "229df94fef9807536310eab67ec60ebe", "is_disabled": 0, "is_reserved": 0}, {"rental_uris": {"ios": "https://dc.lft.to/lastmile_qr_scan", "android": "https://dc.lft.to/lastmile_qr_scan"}, "lon": -77.03586916666667, "type": "electric_scooter", "fusion_lat": 0.0, "lat": 38.932329833333334, "name": "0f4c0d6c4131b840648be9b14a268024", "fusion_lon": 0.0, "bike_id": "0f4c0d6c4131b840648be9b14a268024", "is_disabled": 0, "is_reserved": 0}, {"rental_uris": {"ios": "https://dc.lft.to/lastmile_qr_scan", "android": "https://dc.lft.to/lastmile_qr_scan"}, "lon": -77.06276716666666, "type": "electric_scooter", "fusion_lat": 0.0, "lat": 38.90630766666666, "name": "015c5e97094eb304e693494d0610cd22", "fusion_lon": 0.0, "bike_id": "015c5e97094eb304e693494d0610cd22", "is_disabled": 0, "is_reserved": 0}, {"rental_uris": {"ios": "https://dc.lft.to/lastmile_qr_scan", "android": "https://dc.lft.to/lastmile_qr_scan"}, "lon": -77.04825866666667, "type": "electric_scooter", "fusion_lat": 0.0, "lat": 38.90793816666667, "name": "e831fffad5a94508c845533bd7df2355", "fusion_lon": 0.0, "bike_id": "e831fffad5a94508c845533bd7df2355", "is_disabled": 0, "is_reserved": 0}, {"rental_uris": {"ios": "https://dc.lft.to/lastmile_qr_scan", "android": "https://dc.lft.to/lastmile_qr_scan"}, "lon": -77.0217225, "type": "electric_scooter", "fusion_lat": 0.0, "lat": 38.9429005, "name": "28ecde689205c9dc4433679149e6dcfd", "fusion_lon": 0.0, "bike_id": "28ecde689205c9dc4433679149e6dcfd", "is_disabled": 0, "is_reserved": 0}, {"rental_uris": {"ios": "https://dc.lft.to/lastmile_qr_scan", "android": "https://dc.lft.to/lastmile_qr_scan"}, "lon": -77.06328966666666, "type": "electric_bike", "fusion_lat": 0.0, "lat": 38.92105816666667, "name": "b028301eaf4589d5a9431170d7965d36", "fusion_lon": 0.0, "bike_id": "b028301eaf4589d5a9431170d7965d36", "is_disabled": 0, "is_reserved": 0}, {"rental_uris": {"ios": "https://dc.lft.to/lastmile_qr_scan", "android": "https://dc.lft.to/lastmile_qr_scan"}, "lon": -77.03168666666667, "type": "electric_scooter", "fusion_lat": 0.0, "lat": 38.913387666666665, "name": "70e76297afb1d6495016bff3e625e82e", "fusion_lon": 0.0, "bike_id": "70e76297afb1d6495016bff3e625e82e", "is_disabled": 0, "is_reserved": 0}, {"rental_uris": {"ios": "https://dc.lft.to/lastmile_qr_scan", "android": "https://dc.lft.to/lastmile_qr_scan"}, "lon": -76.9463135, "type": "electric_scooter", "fusion_lat": 0.0, "lat": 38.898416833333336, "name": "7b6655e242826b0fb55928a2feb6b1cc", "fusion_lon": 0.0, "bike_id": "7b6655e242826b0fb55928a2feb6b1cc", "is_disabled": 0, "is_reserved": 0}, {"rental_uris": {"ios": "https://dc.lft.to/lastmile_qr_scan", "android": "https://dc.lft.to/lastmile_qr_scan"}, "lon": -77.05863983333333, "type": "electric_scooter", "fusion_lat": 0.0, "lat": 38.93605316666667, "name": "9f2e0fa0773e26e2e5bac599f7ad43bd", "fusion_lon": 0.0, "bike_id": "9f2e0fa0773e26e2e5bac599f7ad43bd", "is_disabled": 0, "is_reserved": 0}, {"rental_uris": {"ios": "https://dc.lft.to/lastmile_qr_scan", "android": "https://dc.lft.to/lastmile_qr_scan"}, "lon": -77.01363083333334, "type": "electric_scooter", "fusion_lat": 0.0, "lat": 38.86369116666667, "name": "40b1a45818259ba2120f629cbe14d08a", "fusion_lon": 0.0, "bike_id": "40b1a45818259ba2120f629cbe14d08a", "is_disabled": 0, "is_reserved": 0}, {"rental_uris": {"ios": "https://dc.lft.to/lastmile_qr_scan", "android": "https://dc.lft.to/lastmile_qr_scan"}, "lon": -77.03306266666667, "type": "electric_scooter", "fusion_lat": 0.0, "lat": 38.92651266666667, "name": "c473feda651796e829d9c8f487fe6faa", "fusion_lon": 0.0, "bike_id": "c473feda651796e829d9c8f487fe6faa", "is_disabled": 0, "is_reserved": 0}, {"rental_uris": {"ios": "https://dc.lft.to/lastmile_qr_scan", "android": "https://dc.lft.to/lastmile_qr_scan"}, "lon": -77.11043616666667, "type": "electric_bike", "fusion_lat": 0.0, "lat": 38.8707755, "name": "5bbe4439be31ca27c93e65c3c7b2e749", "fusion_lon": 0.0, "bike_id": "5bbe4439be31ca27c93e65c3c7b2e749", "is_disabled": 0, "is_reserved": 0}, {"rental_uris": {"ios": "https://dc.lft.to/lastmile_qr_scan", "android": "https://dc.lft.to/lastmile_qr_scan"}, "lon": -77.00735416666667, "type": "electric_scooter", "fusion_lat": 0.0, "lat": 38.91621683333334, "name": "c2c3e5fa1caba6b0ae5be46f3da23de2", "fusion_lon": 0.0, "bike_id": "c2c3e5fa1caba6b0ae5be46f3da23de2", "is_disabled": 0, "is_reserved": 0}, {"rental_uris": {"ios": "https://dc.lft.to/lastmile_qr_scan", "android": "https://dc.lft.to/lastmile_qr_scan"}, "lon": -77.03245766666667, "type": "electric_scooter", "fusion_lat": 0.0, "lat": 38.918138166666665, "name": "25b4e4dc3455c4926edbde99d6c92f41", "fusion_lon": 0.0, "bike_id": "25b4e4dc3455c4926edbde99d6c92f41", "is_disabled": 0, "is_reserved": 0}, {"rental_uris": {"ios": "https://dc.lft.to/lastmile_qr_scan", "android": "https://dc.lft.to/lastmile_qr_scan"}, "lon": -77.01737166666666, "type": "electric_scooter", "fusion_lat": 0.0, "lat": 38.87716133333333, "name": "e81cc10f096bde4aa0db0469e908d124", "fusion_lon": 0.0, "bike_id": "e81cc10f096bde4aa0db0469e908d124", "is_disabled": 0, "is_reserved": 0}, {"rental_uris": {"ios": "https://dc.lft.to/lastmile_qr_scan", "android": "https://dc.lft.to/lastmile_qr_scan"}, "lon": -77.01986316666667, "type": "electric_scooter", "fusion_lat": 0.0, "lat": 38.9152235, "name": "aa580b7f47c055460a5f9f7b10f8c873", "fusion_lon": 0.0, "bike_id": "aa580b7f47c055460a5f9f7b10f8c873", "is_disabled": 0, "is_reserved": 0}, {"rental_uris": {"ios": "https://dc.lft.to/lastmile_qr_scan", "android": "https://dc.lft.to/lastmile_qr_scan"}, "lon": -77.03192266666667, "type": "electric_bike", "fusion_lat": 0.0, "lat": 38.90922716666667, "name": "db4ed8a1f4202c878f072b41ce31d789", "fusion_lon": 0.0, "bike_id": "db4ed8a1f4202c878f072b41ce31d789", "is_disabled": 0, "is_reserved": 0}, {"rental_uris": {"ios": "https://dc.lft.to/lastmile_qr_scan", "android": "https://dc.lft.to/lastmile_qr_scan"}, "lon": -76.9956595, "type": "electric_scooter", "fusion_lat": 0.0, "lat": 38.8842155, "name": "93ea723327821eb8d2d055fcc40bd17a", "fusion_lon": 0.0, "bike_id": "93ea723327821eb8d2d055fcc40bd17a", "is_disabled": 0, "is_reserved": 0}, {"rental_uris": {"ios": "https://dc.lft.to/lastmile_qr_scan", "android": "https://dc.lft.to/lastmile_qr_scan"}, "lon": -77.03587733333333, "type": "electric_scooter", "fusion_lat": 0.0, "lat": 38.9168925, "name": "1a9ba250842fe87c80c34e0dcf11ce22", "fusion_lon": 0.0, "bike_id": "1a9ba250842fe87c80c34e0dcf11ce22", "is_disabled": 0, "is_reserved": 0}, {"rental_uris": {"ios": "https://dc.lft.to/lastmile_qr_scan", "android": "https://dc.lft.to/lastmile_qr_scan"}, "lon": -76.98022033333334, "type": "electric_scooter", "fusion_lat": 0.0, "lat": 38.88767283333333, "name": "0da5c6360345085fd200cb963b4526ea", "fusion_lon": 0.0, "bike_id": "0da5c6360345085fd200cb963b4526ea", "is_disabled": 0, "is_reserved": 0}, {"rental_uris": {"ios": "https://dc.lft.to/lastmile_qr_scan", "android": "https://dc.lft.to/lastmile_qr_scan"}, "lon": -77.03149616666667, "type": "electric_scooter", "fusion_lat": 0.0, "lat": 38.91565516666667, "name": "6f014937a6d640b5ea0ef6826a9e00ea", "fusion_lon": 0.0, "bike_id": "6f014937a6d640b5ea0ef6826a9e00ea", "is_disabled": 0, "is_reserved": 0}, {"rental_uris": {"ios": "https://dc.lft.to/lastmile_qr_scan", "android": "https://dc.lft.to/lastmile_qr_scan"}, "lon": -77.03184433333334, "type": "electric_scooter", "fusion_lat": 0.0, "lat": 38.92954916666667, "name": "7bb12166be8df88cab759d1b2e338d36", "fusion_lon": 0.0, "bike_id": "7bb12166be8df88cab759d1b2e338d36", "is_disabled": 0, "is_reserved": 0}, {"rental_uris": {"ios": "https://dc.lft.to/lastmile_qr_scan", "android": "https://dc.lft.to/lastmile_qr_scan"}, "lon": -77.04040783333333, "type": "electric_scooter", "fusion_lat": 0.0, "lat": 38.9246445, "name": "8d40c4aa9651ae36f6769998d1b6c181", "fusion_lon": 0.0, "bike_id": "8d40c4aa9651ae36f6769998d1b6c181", "is_disabled": 0, "is_reserved": 0}, {"rental_uris": {"ios": "https://dc.lft.to/lastmile_qr_scan", "android": "https://dc.lft.to/lastmile_qr_scan"}, "lon": -77.02374633333334, "type": "electric_scooter", "fusion_lat": 0.0, "lat": 38.93692683333333, "name": "7b7efcb8936193657567191fb25eb4d6", "fusion_lon": 0.0, "bike_id": "7b7efcb8936193657567191fb25eb4d6", "is_disabled": 0, "is_reserved": 0}, {"rental_uris": {"ios": "https://dc.lft.to/lastmile_qr_scan", "android": "https://dc.lft.to/lastmile_qr_scan"}, "lon": -76.97266283333333, "type": "electric_bike", "fusion_lat": 0.0, "lat": 38.919735833333334, "name": "22b06ffaf6b40b0b9865a5540bce77bd", "fusion_lon": 0.0, "bike_id": "22b06ffaf6b40b0b9865a5540bce77bd", "is_disabled": 0, "is_reserved": 0}, {"rental_uris": {"ios": "https://dc.lft.to/lastmile_qr_scan", "android": "https://dc.lft.to/lastmile_qr_scan"}, "lon": -77.04235933333334, "type": "electric_scooter", "fusion_lat": 0.0, "lat": 38.922083666666666, "name": "ccb2dd283ba825fb2c52489b8bb17330", "fusion_lon": 0.0, "bike_id": "ccb2dd283ba825fb2c52489b8bb17330", "is_disabled": 0, "is_reserved": 0}, {"rental_uris": {"ios": "https://dc.lft.to/lastmile_qr_scan", "android": "https://dc.lft.to/lastmile_qr_scan"}, "lon": -76.9742705, "type": "electric_bike", "fusion_lat": 0.0, "lat": 38.932050333333336, "name": "8045311df5744b3d2aee8d76ba738f39", "fusion_lon": 0.0, "bike_id": "8045311df5744b3d2aee8d76ba738f39", "is_disabled": 0, "is_reserved": 0}, {"rental_uris": {"ios": "https://dc.lft.to/lastmile_qr_scan", "android": "https://dc.lft.to/lastmile_qr_scan"}, "lon": -77.02500866666666, "type": "electric_scooter", "fusion_lat": 0.0, "lat": 38.90724066666667, "name": "1b865b6c23cc9055c60d8a4c580bd971", "fusion_lon": 0.0, "bike_id": "1b865b6c23cc9055c60d8a4c580bd971", "is_disabled": 0, "is_reserved": 0}, {"rental_uris": {"ios": "https://dc.lft.to/lastmile_qr_scan", "android": "https://dc.lft.to/lastmile_qr_scan"}, "lon": -77.03191766666667, "type": "electric_scooter", "fusion_lat": 0.0, "lat": 38.899313, "name": "4304a12649acd0076eaf053830168fc8", "fusion_lon": 0.0, "bike_id": "4304a12649acd0076eaf053830168fc8", "is_disabled": 0, "is_reserved": 0}, {"rental_uris": {"ios": "https://dc.lft.to/lastmile_qr_scan", "android": "https://dc.lft.to/lastmile_qr_scan"}, "lon": -77.0161315, "type": "electric_scooter", "fusion_lat": 0.0, "lat": 38.899625666666665, "name": "d0047a6dcd602e2d3135c0fd0d94159e", "fusion_lon": 0.0, "bike_id": "d0047a6dcd602e2d3135c0fd0d94159e", "is_disabled": 0, "is_reserved": 0}, {"rental_uris": {"ios": "https://dc.lft.to/lastmile_qr_scan", "android": "https://dc.lft.to/lastmile_qr_scan"}, "lon": -76.94999216666666, "type": "electric_scooter", "fusion_lat": 0.0, "lat": 38.89371116666667, "name": "26d3d48d26e32e0b7d7f23d9a2ac6194", "fusion_lon": 0.0, "bike_id": "26d3d48d26e32e0b7d7f23d9a2ac6194", "is_disabled": 0, "is_reserved": 0}, {"rental_uris": {"ios": "https://dc.lft.to/lastmile_qr_scan", "android": "https://dc.lft.to/lastmile_qr_scan"}, "lon": -77.18296566666666, "type": "electric_bike", "fusion_lat": 0.0, "lat": 38.88342016666667, "name": "0bec03728854a13c3d9b811b15654d81", "fusion_lon": 0.0, "bike_id": "0bec03728854a13c3d9b811b15654d81", "is_disabled": 0, "is_reserved": 0}, {"rental_uris": {"ios": "https://dc.lft.to/lastmile_qr_scan", "android": "https://dc.lft.to/lastmile_qr_scan"}, "lon": -77.02276416666666, "type": "electric_scooter", "fusion_lat": 0.0, "lat": 38.90955316666667, "name": "1f49653bd9fc656c55675866c640ba3f", "fusion_lon": 0.0, "bike_id": "1f49653bd9fc656c55675866c640ba3f", "is_disabled": 0, "is_reserved": 0}, {"rental_uris": {"ios": "https://dc.lft.to/lastmile_qr_scan", "android": "https://dc.lft.to/lastmile_qr_scan"}, "lon": -77.033195, "type": "electric_scooter", "fusion_lat": 0.0, "lat": 38.901474666666665, "name": "347c0faffc6486342a907f70404900c9", "fusion_lon": 0.0, "bike_id": "347c0faffc6486342a907f70404900c9", "is_disabled": 0, "is_reserved": 0}, {"rental_uris": {"ios": "https://dc.lft.to/lastmile_qr_scan", "android": "https://dc.lft.to/lastmile_qr_scan"}, "lon": -76.97814016666666, "type": "electric_scooter", "fusion_lat": 0.0, "lat": 38.895180833333335, "name": "fd3632819490375127e2b6eb050511c6", "fusion_lon": 0.0, "bike_id": "fd3632819490375127e2b6eb050511c6", "is_disabled": 0, "is_reserved": 0}, {"rental_uris": {"ios": "https://dc.lft.to/lastmile_qr_scan", "android": "https://dc.lft.to/lastmile_qr_scan"}, "lon": -77.0675725, "type": "electric_scooter", "fusion_lat": 0.0, "lat": 38.915603, "name": "a070df0a84737b476876520afadf6e8b", "fusion_lon": 0.0, "bike_id": "a070df0a84737b476876520afadf6e8b", "is_disabled": 0, "is_reserved": 0}, {"rental_uris": {"ios": "https://dc.lft.to/lastmile_qr_scan", "android": "https://dc.lft.to/lastmile_qr_scan"}, "lon": -77.01284016666666, "type": "electric_bike", "fusion_lat": 0.0, "lat": 39.0037555, "name": "b500f2ba65c92e542abf14014ac939cd", "fusion_lon": 0.0, "bike_id": "b500f2ba65c92e542abf14014ac939cd", "is_disabled": 0, "is_reserved": 0}, {"rental_uris": {"ios": "https://dc.lft.to/lastmile_qr_scan", "android": "https://dc.lft.to/lastmile_qr_scan"}, "lon": -77.08391733333333, "type": "electric_scooter", "fusion_lat": 0.0, "lat": 38.96089816666667, "name": "f690bb382c0218ce8f2f262e866cdd0c", "fusion_lon": 0.0, "bike_id": "f690bb382c0218ce8f2f262e866cdd0c", "is_disabled": 0, "is_reserved": 0}, {"rental_uris": {"ios": "https://dc.lft.to/lastmile_qr_scan", "android": "https://dc.lft.to/lastmile_qr_scan"}, "lon": -77.03180933333333, "type": "electric_scooter", "fusion_lat": 0.0, "lat": 38.88736383333333, "name": "c232d12b5f602785b22048e4770a09a1", "fusion_lon": 0.0, "bike_id": "c232d12b5f602785b22048e4770a09a1", "is_disabled": 0, "is_reserved": 0}, {"rental_uris": {"ios": "https://dc.lft.to/lastmile_qr_scan", "android": "https://dc.lft.to/lastmile_qr_scan"}, "lon": -77.03204966666667, "type": "electric_scooter", "fusion_lat": 0.0, "lat": 38.915358833333336, "name": "77eddfde3966b7cc2a08e8b371dad433", "fusion_lon": 0.0, "bike_id": "77eddfde3966b7cc2a08e8b371dad433", "is_disabled": 0, "is_reserved": 0}, {"rental_uris": {"ios": "https://dc.lft.to/lastmile_qr_scan", "android": "https://dc.lft.to/lastmile_qr_scan"}, "lon": -77.01608266666666, "type": "electric_scooter", "fusion_lat": 0.0, "lat": 38.90181166666667, "name": "254ddb563534070457a5e45eefacb46e", "fusion_lon": 0.0, "bike_id": "254ddb563534070457a5e45eefacb46e", "is_disabled": 0, "is_reserved": 0}, {"rental_uris": {"ios": "https://dc.lft.to/lastmile_qr_scan", "android": "https://dc.lft.to/lastmile_qr_scan"}, "lon": -77.04645683333334, "type": "electric_bike", "fusion_lat": 0.0, "lat": 38.852077333333334, "name": "3f671c8262895947c9d92172c8419f02", "fusion_lon": 0.0, "bike_id": "3f671c8262895947c9d92172c8419f02", "is_disabled": 0, "is_reserved": 0}, {"rental_uris": {"ios": "https://dc.lft.to/lastmile_qr_scan", "android": "https://dc.lft.to/lastmile_qr_scan"}, "lon": -76.9903725, "type": "electric_scooter", "fusion_lat": 0.0, "lat": 38.8565605, "name": "c860e92dc9e90767b77abbf01c25ec15", "fusion_lon": 0.0, "bike_id": "c860e92dc9e90767b77abbf01c25ec15", "is_disabled": 0, "is_reserved": 0}, {"rental_uris": {"ios": "https://dc.lft.to/lastmile_qr_scan", "android": "https://dc.lft.to/lastmile_qr_scan"}, "lon": -76.93243383333333, "type": "electric_scooter", "fusion_lat": 0.0, "lat": 38.89404783333333, "name": "b659899a3192938b84c800c9fc2f307b", "fusion_lon": 0.0, "bike_id": "b659899a3192938b84c800c9fc2f307b", "is_disabled": 0, "is_reserved": 0}, {"rental_uris": {"ios": "https://dc.lft.to/lastmile_qr_scan", "android": "https://dc.lft.to/lastmile_qr_scan"}, "lon": -77.0285105, "type": "electric_scooter", "fusion_lat": 0.0, "lat": 38.888750333333334, "name": "729259337d8b4ca12762373a4bbc51f0", "fusion_lon": 0.0, "bike_id": "729259337d8b4ca12762373a4bbc51f0", "is_disabled": 0, "is_reserved": 0}, {"rental_uris": {"ios": "https://dc.lft.to/lastmile_qr_scan", "android": "https://dc.lft.to/lastmile_qr_scan"}, "lon": -77.12965183333333, "type": "electric_bike", "fusion_lat": 0.0, "lat": 38.8078895, "name": "1bd2750d693e65d93ceed409b9a0cb22", "fusion_lon": 0.0, "bike_id": "1bd2750d693e65d93ceed409b9a0cb22", "is_disabled": 0, "is_reserved": 0}, {"rental_uris": {"ios": "https://dc.lft.to/lastmile_qr_scan", "android": "https://dc.lft.to/lastmile_qr_scan"}, "lon": -77.05521466666667, "type": "electric_scooter", "fusion_lat": 0.0, "lat": 38.89725033333333, "name": "1d9ba618c05d9c794ec4d8ee22b3be21", "fusion_lon": 0.0, "bike_id": "1d9ba618c05d9c794ec4d8ee22b3be21", "is_disabled": 0, "is_reserved": 0}, {"rental_uris": {"ios": "https://dc.lft.to/lastmile_qr_scan", "android": "https://dc.lft.to/lastmile_qr_scan"}, "lon": -77.048651, "type": "electric_scooter", "fusion_lat": 0.0, "lat": 38.90848233333333, "name": "291bd225fc2afed03fecbcc59ab459a3", "fusion_lon": 0.0, "bike_id": "291bd225fc2afed03fecbcc59ab459a3", "is_disabled": 0, "is_reserved": 0}, {"rental_uris": {"ios": "https://dc.lft.to/lastmile_qr_scan", "android": "https://dc.lft.to/lastmile_qr_scan"}, "lon": -77.17845466666667, "type": "electric_bike", "fusion_lat": 0.0, "lat": 39.08855633333334, "name": "71358b1a9bf15149281c79886865d4ba", "fusion_lon": 0.0, "bike_id": "71358b1a9bf15149281c79886865d4ba", "is_disabled": 0, "is_reserved": 0}, {"rental_uris": {"ios": "https://dc.lft.to/lastmile_qr_scan", "android": "https://dc.lft.to/lastmile_qr_scan"}, "lon": -77.021252, "type": "electric_scooter", "fusion_lat": 0.0, "lat": 38.91608516666667, "name": "fabd50ae1d44f365168f2f236b7d1ed4", "fusion_lon": 0.0, "bike_id": "fabd50ae1d44f365168f2f236b7d1ed4", "is_disabled": 0, "is_reserved": 0}, {"rental_uris": {"ios": "https://dc.lft.to/lastmile_qr_scan", "android": "https://dc.lft.to/lastmile_qr_scan"}, "lon": -77.00117766666666, "type": "electric_scooter", "fusion_lat": 0.0, "lat": 38.877933666666664, "name": "0e24a4ecebdde2dafa77cdd76e0883b1", "fusion_lon": 0.0, "bike_id": "0e24a4ecebdde2dafa77cdd76e0883b1", "is_disabled": 0, "is_reserved": 0}, {"rental_uris": {"ios": "https://dc.lft.to/lastmile_qr_scan", "android": "https://dc.lft.to/lastmile_qr_scan"}, "lon": -77.04774183333333, "type": "electric_bike", "fusion_lat": 0.0, "lat": 39.0531765, "name": "5a4641b237614ff3a99de1c228273aee", "fusion_lon": 0.0, "bike_id": "5a4641b237614ff3a99de1c228273aee", "is_disabled": 0, "is_reserved": 0}, {"rental_uris": {"ios": "https://dc.lft.to/lastmile_qr_scan", "android": "https://dc.lft.to/lastmile_qr_scan"}, "lon": -76.995027, "type": "electric_scooter", "fusion_lat": 0.0, "lat": 38.86244166666667, "name": "1be68d380c53b2667e85532d5a9ec119", "fusion_lon": 0.0, "bike_id": "1be68d380c53b2667e85532d5a9ec119", "is_disabled": 0, "is_reserved": 0}, {"rental_uris": {"ios": "https://dc.lft.to/lastmile_qr_scan", "android": "https://dc.lft.to/lastmile_qr_scan"}, "lon": -77.0569925, "type": "electric_scooter", "fusion_lat": 0.0, "lat": 38.905395166666665, "name": "47d8b398946c34e62493036a765f4f50", "fusion_lon": 0.0, "bike_id": "47d8b398946c34e62493036a765f4f50", "is_disabled": 0, "is_reserved": 0}, {"rental_uris": {"ios": "https://dc.lft.to/lastmile_qr_scan", "android": "https://dc.lft.to/lastmile_qr_scan"}, "lon": -76.98904883333333, "type": "electric_scooter", "fusion_lat": 0.0, "lat": 38.866903, "name": "bc3fea7ba0f2846c269362c25b1ea62e", "fusion_lon": 0.0, "bike_id": "bc3fea7ba0f2846c269362c25b1ea62e", "is_disabled": 0, "is_reserved": 0}, {"rental_uris": {"ios": "https://dc.lft.to/lastmile_qr_scan", "android": "https://dc.lft.to/lastmile_qr_scan"}, "lon": -76.95355916666666, "type": "electric_bike", "fusion_lat": 0.0, "lat": 38.939515166666666, "name": "9558cc414cfc87f17edf0b0d90ff740b", "fusion_lon": 0.0, "bike_id": "9558cc414cfc87f17edf0b0d90ff740b", "is_disabled": 0, "is_reserved": 0}, {"rental_uris": {"ios": "https://dc.lft.to/lastmile_qr_scan", "android": "https://dc.lft.to/lastmile_qr_scan"}, "lon": -76.99382433333334, "type": "electric_scooter", "fusion_lat": 0.0, "lat": 38.88744833333333, "name": "bef7d07b9cf3bc3c26d4da61f8b6d3a1", "fusion_lon": 0.0, "bike_id": "bef7d07b9cf3bc3c26d4da61f8b6d3a1", "is_disabled": 0, "is_reserved": 0}, {"rental_uris": {"ios": "https://dc.lft.to/lastmile_qr_scan", "android": "https://dc.lft.to/lastmile_qr_scan"}, "lon": -77.032251, "type": "electric_scooter", "fusion_lat": 0.0, "lat": 38.926671, "name": "60f13336b47cd50571022345fb63c714", "fusion_lon": 0.0, "bike_id": "60f13336b47cd50571022345fb63c714", "is_disabled": 0, "is_reserved": 0}, {"rental_uris": {"ios": "https://dc.lft.to/lastmile_qr_scan", "android": "https://dc.lft.to/lastmile_qr_scan"}, "lon": -77.02332933333334, "type": "electric_scooter", "fusion_lat": 0.0, "lat": 38.92931266666667, "name": "2789c7cc1cd711eace93ebe51611abd8", "fusion_lon": 0.0, "bike_id": "2789c7cc1cd711eace93ebe51611abd8", "is_disabled": 0, "is_reserved": 0}, {"rental_uris": {"ios": "https://dc.lft.to/lastmile_qr_scan", "android": "https://dc.lft.to/lastmile_qr_scan"}, "lon": -77.0502, "type": "electric_scooter", "fusion_lat": 0.0, "lat": 38.917969666666664, "name": "5abba3dde6f71a324e121b2b779d6f21", "fusion_lon": 0.0, "bike_id": "5abba3dde6f71a324e121b2b779d6f21", "is_disabled": 0, "is_reserved": 0}, {"rental_uris": {"ios": "https://dc.lft.to/lastmile_qr_scan", "android": "https://dc.lft.to/lastmile_qr_scan"}, "lon": -76.94418683333333, "type": "electric_scooter", "fusion_lat": 0.0, "lat": 38.8978955, "name": "66327ca706d709be657f28c468f7700f", "fusion_lon": 0.0, "bike_id": "66327ca706d709be657f28c468f7700f", "is_disabled": 0, "is_reserved": 0}, {"rental_uris": {"ios": "https://dc.lft.to/lastmile_qr_scan", "android": "https://dc.lft.to/lastmile_qr_scan"}, "lon": -76.98341766666667, "type": "electric_scooter", "fusion_lat": 0.0, "lat": 38.915398333333336, "name": "41050a65329405da011e3210ee893acb", "fusion_lon": 0.0, "bike_id": "41050a65329405da011e3210ee893acb", "is_disabled": 0, "is_reserved": 0}, {"rental_uris": {"ios": "https://dc.lft.to/lastmile_qr_scan", "android": "https://dc.lft.to/lastmile_qr_scan"}, "lon": -77.042123, "type": "electric_scooter", "fusion_lat": 0.0, "lat": 38.921041333333335, "name": "b164c89842a8810fde3496d6b58e5431", "fusion_lon": 0.0, "bike_id": "b164c89842a8810fde3496d6b58e5431", "is_disabled": 0, "is_reserved": 0}, {"rental_uris": {"ios": "https://dc.lft.to/lastmile_qr_scan", "android": "https://dc.lft.to/lastmile_qr_scan"}, "lon": -77.064932, "type": "electric_bike", "fusion_lat": 0.0, "lat": 38.96493783333333, "name": "5e26406e4bba46b4324ba9794b4a6618", "fusion_lon": 0.0, "bike_id": "5e26406e4bba46b4324ba9794b4a6618", "is_disabled": 0, "is_reserved": 0}, {"rental_uris": {"ios": "https://dc.lft.to/lastmile_qr_scan", "android": "https://dc.lft.to/lastmile_qr_scan"}, "lon": -77.04864583333334, "type": "electric_scooter", "fusion_lat": 0.0, "lat": 38.908505, "name": "1061e2b423e9907dd933fd62496f827f", "fusion_lon": 0.0, "bike_id": "1061e2b423e9907dd933fd62496f827f", "is_disabled": 0, "is_reserved": 0}, {"rental_uris": {"ios": "https://dc.lft.to/lastmile_qr_scan", "android": "https://dc.lft.to/lastmile_qr_scan"}, "lon": -77.10681366666667, "type": "electric_bike", "fusion_lat": 0.0, "lat": 38.93578216666667, "name": "2a636bd75c3ce0c20392c4f13a318d9a", "fusion_lon": 0.0, "bike_id": "2a636bd75c3ce0c20392c4f13a318d9a", "is_disabled": 0, "is_reserved": 0}, {"rental_uris": {"ios": "https://dc.lft.to/lastmile_qr_scan", "android": "https://dc.lft.to/lastmile_qr_scan"}, "lon": -77.03977983333333, "type": "electric_scooter", "fusion_lat": 0.0, "lat": 38.899043666666664, "name": "8d2420d39c84fa258c26237bdfecdf5a", "fusion_lon": 0.0, "bike_id": "8d2420d39c84fa258c26237bdfecdf5a", "is_disabled": 0, "is_reserved": 0}, {"rental_uris": {"ios": "https://dc.lft.to/lastmile_qr_scan", "android": "https://dc.lft.to/lastmile_qr_scan"}, "lon": -77.0434965, "type": "electric_scooter", "fusion_lat": 0.0, "lat": 38.90618116666667, "name": "f67f5463aeda9f743837cc35d839989d", "fusion_lon": 0.0, "bike_id": "f67f5463aeda9f743837cc35d839989d", "is_disabled": 0, "is_reserved": 0}, {"rental_uris": {"ios": "https://dc.lft.to/lastmile_qr_scan", "android": "https://dc.lft.to/lastmile_qr_scan"}, "lon": -77.042551, "type": "electric_scooter", "fusion_lat": 0.0, "lat": 38.9027325, "name": "0332ceccd8e7eee48dec10e3e69ab86c", "fusion_lon": 0.0, "bike_id": "0332ceccd8e7eee48dec10e3e69ab86c", "is_disabled": 0, "is_reserved": 0}, {"rental_uris": {"ios": "https://dc.lft.to/lastmile_qr_scan", "android": "https://dc.lft.to/lastmile_qr_scan"}, "lon": -77.032669, "type": "electric_scooter", "fusion_lat": 0.0, "lat": 38.92544133333333, "name": "86ab12bafaf7dec5243b384678085bd9", "fusion_lon": 0.0, "bike_id": "86ab12bafaf7dec5243b384678085bd9", "is_disabled": 0, "is_reserved": 0}, {"rental_uris": {"ios": "https://dc.lft.to/lastmile_qr_scan", "android": "https://dc.lft.to/lastmile_qr_scan"}, "lon": -77.06685583333334, "type": "electric_scooter", "fusion_lat": 0.0, "lat": 38.905099666666665, "name": "0d6d317ae35b69e597dda63cdb54c39e", "fusion_lon": 0.0, "bike_id": "0d6d317ae35b69e597dda63cdb54c39e", "is_disabled": 0, "is_reserved": 0}, {"rental_uris": {"ios": "https://dc.lft.to/lastmile_qr_scan", "android": "https://dc.lft.to/lastmile_qr_scan"}, "lon": -77.04330516666667, "type": "electric_scooter", "fusion_lat": 0.0, "lat": 38.89583783333333, "name": "7e72fbdcca1bca6d3b2ea8ee01ea756b", "fusion_lon": 0.0, "bike_id": "7e72fbdcca1bca6d3b2ea8ee01ea756b", "is_disabled": 0, "is_reserved": 0}, {"rental_uris": {"ios": "https://dc.lft.to/lastmile_qr_scan", "android": "https://dc.lft.to/lastmile_qr_scan"}, "lon": -77.03186266666667, "type": "electric_scooter", "fusion_lat": 0.0, "lat": 38.918000666666664, "name": "1cb9810942185dca295aff054eaa30f6", "fusion_lon": 0.0, "bike_id": "1cb9810942185dca295aff054eaa30f6", "is_disabled": 0, "is_reserved": 0}, {"rental_uris": {"ios": "https://dc.lft.to/lastmile_qr_scan", "android": "https://dc.lft.to/lastmile_qr_scan"}, "lon": -76.94880616666667, "type": "electric_scooter", "fusion_lat": 0.0, "lat": 38.895045833333334, "name": "26db1a819c1b94f38ae85f9f6e3d6745", "fusion_lon": 0.0, "bike_id": "26db1a819c1b94f38ae85f9f6e3d6745", "is_disabled": 0, "is_reserved": 0}, {"rental_uris": {"ios": "https://dc.lft.to/lastmile_qr_scan", "android": "https://dc.lft.to/lastmile_qr_scan"}, "lon": -77.0065755, "type": "electric_scooter", "fusion_lat": 0.0, "lat": 38.944612166666666, "name": "7b75611d5504cd3ba8d88d440db740a4", "fusion_lon": 0.0, "bike_id": "7b75611d5504cd3ba8d88d440db740a4", "is_disabled": 0, "is_reserved": 0}, {"rental_uris": {"ios": "https://dc.lft.to/lastmile_qr_scan", "android": "https://dc.lft.to/lastmile_qr_scan"}, "lon": -77.00419533333333, "type": "electric_scooter", "fusion_lat": 0.0, "lat": 38.91761416666667, "name": "7c80c576c40eca5ea2ccf057a33b5b77", "fusion_lon": 0.0, "bike_id": "7c80c576c40eca5ea2ccf057a33b5b77", "is_disabled": 0, "is_reserved": 0}, {"rental_uris": {"ios": "https://dc.lft.to/lastmile_qr_scan", "android": "https://dc.lft.to/lastmile_qr_scan"}, "lon": -77.0293435, "type": "electric_scooter", "fusion_lat": 0.0, "lat": 38.9046065, "name": "29ac9b46ff3c0c1a6fa69851f8322904", "fusion_lon": 0.0, "bike_id": "29ac9b46ff3c0c1a6fa69851f8322904", "is_disabled": 0, "is_reserved": 0}, {"rental_uris": {"ios": "https://dc.lft.to/lastmile_qr_scan", "android": "https://dc.lft.to/lastmile_qr_scan"}, "lon": -77.02870266666666, "type": "electric_scooter", "fusion_lat": 0.0, "lat": 38.905719500000004, "name": "e559a6dfb06ea8d47ad7f33ab50727e7", "fusion_lon": 0.0, "bike_id": "e559a6dfb06ea8d47ad7f33ab50727e7", "is_disabled": 0, "is_reserved": 0}, {"rental_uris": {"ios": "https://dc.lft.to/lastmile_qr_scan", "android": "https://dc.lft.to/lastmile_qr_scan"}, "lon": -77.0346325, "type": "electric_scooter", "fusion_lat": 0.0, "lat": 38.91683033333333, "name": "ed6e4218b3425bb9057b3961aaf010b3", "fusion_lon": 0.0, "bike_id": "ed6e4218b3425bb9057b3961aaf010b3", "is_disabled": 0, "is_reserved": 0}, {"rental_uris": {"ios": "https://dc.lft.to/lastmile_qr_scan", "android": "https://dc.lft.to/lastmile_qr_scan"}, "lon": -77.03265533333334, "type": "electric_scooter", "fusion_lat": 0.0, "lat": 38.9441285, "name": "8f1a649c5b53da42a46556b358bd47ae", "fusion_lon": 0.0, "bike_id": "8f1a649c5b53da42a46556b358bd47ae", "is_disabled": 0, "is_reserved": 0}, {"rental_uris": {"ios": "https://dc.lft.to/lastmile_qr_scan", "android": "https://dc.lft.to/lastmile_qr_scan"}, "lon": -77.02207366666667, "type": "electric_scooter", "fusion_lat": 0.0, "lat": 38.89765966666667, "name": "b1f0464d5137614789c6a01afc44ff13", "fusion_lon": 0.0, "bike_id": "b1f0464d5137614789c6a01afc44ff13", "is_disabled": 0, "is_reserved": 0}, {"rental_uris": {"ios": "https://dc.lft.to/lastmile_qr_scan", "android": "https://dc.lft.to/lastmile_qr_scan"}, "lon": -77.02020766666666, "type": "electric_scooter", "fusion_lat": 0.0, "lat": 38.932455166666664, "name": "86646e91d6eae24f8a905def971c88d1", "fusion_lon": 0.0, "bike_id": "86646e91d6eae24f8a905def971c88d1", "is_disabled": 0, "is_reserved": 0}, {"rental_uris": {"ios": "https://dc.lft.to/lastmile_qr_scan", "android": "https://dc.lft.to/lastmile_qr_scan"}, "lon": -77.02951666666667, "type": "electric_scooter", "fusion_lat": 0.0, "lat": 38.90500633333333, "name": "04f4f31c050e1cbb10bb7bc1a85129f2", "fusion_lon": 0.0, "bike_id": "04f4f31c050e1cbb10bb7bc1a85129f2", "is_disabled": 0, "is_reserved": 0}, {"rental_uris": {"ios": "https://dc.lft.to/lastmile_qr_scan", "android": "https://dc.lft.to/lastmile_qr_scan"}, "lon": -76.99779483333333, "type": "electric_scooter", "fusion_lat": 0.0, "lat": 38.8442615, "name": "db4823e58027ffc1128e42bf79a7b78c", "fusion_lon": 0.0, "bike_id": "db4823e58027ffc1128e42bf79a7b78c", "is_disabled": 0, "is_reserved": 0}, {"rental_uris": {"ios": "https://dc.lft.to/lastmile_qr_scan", "android": "https://dc.lft.to/lastmile_qr_scan"}, "lon": -77.01788383333333, "type": "electric_scooter", "fusion_lat": 0.0, "lat": 38.94111783333334, "name": "b463af6d8e3ea35bd2ff7c868ad0c3c1", "fusion_lon": 0.0, "bike_id": "b463af6d8e3ea35bd2ff7c868ad0c3c1", "is_disabled": 0, "is_reserved": 0}, {"rental_uris": {"ios": "https://dc.lft.to/lastmile_qr_scan", "android": "https://dc.lft.to/lastmile_qr_scan"}, "lon": -77.04743433333333, "type": "electric_scooter", "fusion_lat": 0.0, "lat": 38.905229, "name": "7a08dc7b3d6040e4fdc4d919cea5f703", "fusion_lon": 0.0, "bike_id": "7a08dc7b3d6040e4fdc4d919cea5f703", "is_disabled": 0, "is_reserved": 0}, {"rental_uris": {"ios": "https://dc.lft.to/lastmile_qr_scan", "android": "https://dc.lft.to/lastmile_qr_scan"}, "lon": -76.984953, "type": "electric_scooter", "fusion_lat": 0.0, "lat": 38.86043433333333, "name": "d133113eb7b67004a917991d782a1dd8", "fusion_lon": 0.0, "bike_id": "d133113eb7b67004a917991d782a1dd8", "is_disabled": 0, "is_reserved": 0}, {"rental_uris": {"ios": "https://dc.lft.to/lastmile_qr_scan", "android": "https://dc.lft.to/lastmile_qr_scan"}, "lon": -76.9788965, "type": "electric_scooter", "fusion_lat": 0.0, "lat": 38.90418066666667, "name": "6158185f8ac7cd5ad099c8d9f9e82a73", "fusion_lon": 0.0, "bike_id": "6158185f8ac7cd5ad099c8d9f9e82a73", "is_disabled": 0, "is_reserved": 0}, {"rental_uris": {"ios": "https://dc.lft.to/lastmile_qr_scan", "android": "https://dc.lft.to/lastmile_qr_scan"}, "lon": -76.9874245, "type": "electric_bike", "fusion_lat": 0.0, "lat": 38.857892666666665, "name": "015a63f39e5c911d79813cbf06a7873b", "fusion_lon": 0.0, "bike_id": "015a63f39e5c911d79813cbf06a7873b", "is_disabled": 0, "is_reserved": 0}, {"rental_uris": {"ios": "https://dc.lft.to/lastmile_qr_scan", "android": "https://dc.lft.to/lastmile_qr_scan"}, "lon": -76.9959455, "type": "electric_scooter", "fusion_lat": 0.0, "lat": 38.84538033333333, "name": "0ef8262abf72697e665a46c55b22f936", "fusion_lon": 0.0, "bike_id": "0ef8262abf72697e665a46c55b22f936", "is_disabled": 0, "is_reserved": 0}, {"rental_uris": {"ios": "https://dc.lft.to/lastmile_qr_scan", "android": "https://dc.lft.to/lastmile_qr_scan"}, "lon": -77.04457116666667, "type": "electric_scooter", "fusion_lat": 0.0, "lat": 38.91117233333333, "name": "1504929bb43de5a5ed2f9b9dda094c91", "fusion_lon": 0.0, "bike_id": "1504929bb43de5a5ed2f9b9dda094c91", "is_disabled": 0, "is_reserved": 0}, {"rental_uris": {"ios": "https://dc.lft.to/lastmile_qr_scan", "android": "https://dc.lft.to/lastmile_qr_scan"}, "lon": -77.01533016666667, "type": "electric_scooter", "fusion_lat": 0.0, "lat": 38.901973, "name": "a0187079c192b900f5cc97405da2d87b", "fusion_lon": 0.0, "bike_id": "a0187079c192b900f5cc97405da2d87b", "is_disabled": 0, "is_reserved": 0}, {"rental_uris": {"ios": "https://dc.lft.to/lastmile_qr_scan", "android": "https://dc.lft.to/lastmile_qr_scan"}, "lon": -77.01388433333334, "type": "electric_scooter", "fusion_lat": 0.0, "lat": 38.970125333333336, "name": "99f0515a31fb328403efe5adb52fa0dc", "fusion_lon": 0.0, "bike_id": "99f0515a31fb328403efe5adb52fa0dc", "is_disabled": 0, "is_reserved": 0}, {"rental_uris": {"ios": "https://dc.lft.to/lastmile_qr_scan", "android": "https://dc.lft.to/lastmile_qr_scan"}, "lon": -77.031686, "type": "electric_scooter", "fusion_lat": 0.0, "lat": 38.91334583333333, "name": "00ae43b6ff991cb60bb179f39bf8c0e7", "fusion_lon": 0.0, "bike_id": "00ae43b6ff991cb60bb179f39bf8c0e7", "is_disabled": 0, "is_reserved": 0}, {"rental_uris": {"ios": "https://dc.lft.to/lastmile_qr_scan", "android": "https://dc.lft.to/lastmile_qr_scan"}, "lon": -76.99793566666666, "type": "electric_scooter", "fusion_lat": 0.0, "lat": 38.92178, "name": "f6ed131575dda5e6f949a99f5a3761cb", "fusion_lon": 0.0, "bike_id": "f6ed131575dda5e6f949a99f5a3761cb", "is_disabled": 0, "is_reserved": 0}, {"rental_uris": {"ios": "https://dc.lft.to/lastmile_qr_scan", "android": "https://dc.lft.to/lastmile_qr_scan"}, "lon": -77.03936333333333, "type": "electric_scooter", "fusion_lat": 0.0, "lat": 38.899134833333335, "name": "c7475ca9cf35e675309bf022b7e0f96d", "fusion_lon": 0.0, "bike_id": "c7475ca9cf35e675309bf022b7e0f96d", "is_disabled": 0, "is_reserved": 0}, {"rental_uris": {"ios": "https://dc.lft.to/lastmile_qr_scan", "android": "https://dc.lft.to/lastmile_qr_scan"}, "lon": -77.1008935, "type": "electric_bike", "fusion_lat": 0.0, "lat": 38.95953683333333, "name": "3e4dbc44f5f72f7fc84892629b44eb15", "fusion_lon": 0.0, "bike_id": "3e4dbc44f5f72f7fc84892629b44eb15", "is_disabled": 0, "is_reserved": 0}, {"rental_uris": {"ios": "https://dc.lft.to/lastmile_qr_scan", "android": "https://dc.lft.to/lastmile_qr_scan"}, "lon": -77.03146133333334, "type": "electric_scooter", "fusion_lat": 0.0, "lat": 38.91117966666667, "name": "e00e9118815bea9d538278ac47b75ada", "fusion_lon": 0.0, "bike_id": "e00e9118815bea9d538278ac47b75ada", "is_disabled": 0, "is_reserved": 0}, {"rental_uris": {"ios": "https://dc.lft.to/lastmile_qr_scan", "android": "https://dc.lft.to/lastmile_qr_scan"}, "lon": -77.02713433333334, "type": "electric_scooter", "fusion_lat": 0.0, "lat": 38.91802933333334, "name": "a6b3c7c42ed8da031e0cb569fa1d336a", "fusion_lon": 0.0, "bike_id": "a6b3c7c42ed8da031e0cb569fa1d336a", "is_disabled": 0, "is_reserved": 0}, {"rental_uris": {"ios": "https://dc.lft.to/lastmile_qr_scan", "android": "https://dc.lft.to/lastmile_qr_scan"}, "lon": -77.04465516666667, "type": "electric_scooter", "fusion_lat": 0.0, "lat": 38.911137333333336, "name": "d2320a7a303099282a6fc10283b1c15d", "fusion_lon": 0.0, "bike_id": "d2320a7a303099282a6fc10283b1c15d", "is_disabled": 0, "is_reserved": 0}, {"rental_uris": {"ios": "https://dc.lft.to/lastmile_qr_scan", "android": "https://dc.lft.to/lastmile_qr_scan"}, "lon": -77.036638, "type": "electric_scooter", "fusion_lat": 0.0, "lat": 38.918134333333334, "name": "71ecdfe2ab3d5176b999b38425d6659b", "fusion_lon": 0.0, "bike_id": "71ecdfe2ab3d5176b999b38425d6659b", "is_disabled": 0, "is_reserved": 0}, {"rental_uris": {"ios": "https://dc.lft.to/lastmile_qr_scan", "android": "https://dc.lft.to/lastmile_qr_scan"}, "lon": -77.05277233333334, "type": "electric_scooter", "fusion_lat": 0.0, "lat": 38.910105, "name": "0dac746d9a49cb2f8c60a1fa98f8f512", "fusion_lon": 0.0, "bike_id": "0dac746d9a49cb2f8c60a1fa98f8f512", "is_disabled": 0, "is_reserved": 0}, {"rental_uris": {"ios": "https://dc.lft.to/lastmile_qr_scan", "android": "https://dc.lft.to/lastmile_qr_scan"}, "lon": -77.04930583333334, "type": "electric_scooter", "fusion_lat": 0.0, "lat": 38.896071666666664, "name": "4c132b2b77fd33fe60f7edd6fc67b93c", "fusion_lon": 0.0, "bike_id": "4c132b2b77fd33fe60f7edd6fc67b93c", "is_disabled": 0, "is_reserved": 0}, {"rental_uris": {"ios": "https://dc.lft.to/lastmile_qr_scan", "android": "https://dc.lft.to/lastmile_qr_scan"}, "lon": -77.03185866666666, "type": "electric_scooter", "fusion_lat": 0.0, "lat": 38.91801133333333, "name": "470f0c6eb83a7a1a5c7eb80ff0cd141a", "fusion_lon": 0.0, "bike_id": "470f0c6eb83a7a1a5c7eb80ff0cd141a", "is_disabled": 0, "is_reserved": 0}, {"rental_uris": {"ios": "https://dc.lft.to/lastmile_qr_scan", "android": "https://dc.lft.to/lastmile_qr_scan"}, "lon": -77.007153, "type": "electric_scooter", "fusion_lat": 0.0, "lat": 38.91344266666667, "name": "8a4987f9bbc5c33539815db1b6aa2283", "fusion_lon": 0.0, "bike_id": "8a4987f9bbc5c33539815db1b6aa2283", "is_disabled": 0, "is_reserved": 0}, {"rental_uris": {"ios": "https://dc.lft.to/lastmile_qr_scan", "android": "https://dc.lft.to/lastmile_qr_scan"}, "lon": -76.93950583333333, "type": "electric_scooter", "fusion_lat": 0.0, "lat": 38.894161, "name": "d22f84dde2b2b46ba17480372ada8d27", "fusion_lon": 0.0, "bike_id": "d22f84dde2b2b46ba17480372ada8d27", "is_disabled": 0, "is_reserved": 0}, {"rental_uris": {"ios": "https://dc.lft.to/lastmile_qr_scan", "android": "https://dc.lft.to/lastmile_qr_scan"}, "lon": -77.01904383333333, "type": "electric_scooter", "fusion_lat": 0.0, "lat": 38.90211033333333, "name": "87be8c70a7342bc49f467f2962e77c53", "fusion_lon": 0.0, "bike_id": "87be8c70a7342bc49f467f2962e77c53", "is_disabled": 0, "is_reserved": 0}, {"rental_uris": {"ios": "https://dc.lft.to/lastmile_qr_scan", "android": "https://dc.lft.to/lastmile_qr_scan"}, "lon": -76.929959, "type": "electric_bike", "fusion_lat": 0.0, "lat": 38.88794883333333, "name": "4d06adf01bd3699bfc5b0a02c73d66e6", "fusion_lon": 0.0, "bike_id": "4d06adf01bd3699bfc5b0a02c73d66e6", "is_disabled": 0, "is_reserved": 0}, {"rental_uris": {"ios": "https://dc.lft.to/lastmile_qr_scan", "android": "https://dc.lft.to/lastmile_qr_scan"}, "lon": -77.03296683333333, "type": "electric_bike", "fusion_lat": 0.0, "lat": 38.907241166666665, "name": "dc7704eba3f79ca49860d60bfe8056c2", "fusion_lon": 0.0, "bike_id": "dc7704eba3f79ca49860d60bfe8056c2", "is_disabled": 0, "is_reserved": 0}, {"rental_uris": {"ios": "https://dc.lft.to/lastmile_qr_scan", "android": "https://dc.lft.to/lastmile_qr_scan"}, "lon": -77.035607, "type": "electric_scooter", "fusion_lat": 0.0, "lat": 38.927384, "name": "ccfa4d9edab450914267e0b65410647d", "fusion_lon": 0.0, "bike_id": "ccfa4d9edab450914267e0b65410647d", "is_disabled": 0, "is_reserved": 0}, {"rental_uris": {"ios": "https://dc.lft.to/lastmile_qr_scan", "android": "https://dc.lft.to/lastmile_qr_scan"}, "lon": -77.12376683333333, "type": "electric_bike", "fusion_lat": 0.0, "lat": 38.847357333333335, "name": "f7927eb125f51aeaaab55e6da75abafd", "fusion_lon": 0.0, "bike_id": "f7927eb125f51aeaaab55e6da75abafd", "is_disabled": 0, "is_reserved": 0}, {"rental_uris": {"ios": "https://dc.lft.to/lastmile_qr_scan", "android": "https://dc.lft.to/lastmile_qr_scan"}, "lon": -76.988248, "type": "electric_scooter", "fusion_lat": 0.0, "lat": 38.88023666666667, "name": "61494f7085c103d6d1a2d74fe242dcf9", "fusion_lon": 0.0, "bike_id": "61494f7085c103d6d1a2d74fe242dcf9", "is_disabled": 0, "is_reserved": 0}, {"rental_uris": {"ios": "https://dc.lft.to/lastmile_qr_scan", "android": "https://dc.lft.to/lastmile_qr_scan"}, "lon": -77.03214866666667, "type": "electric_scooter", "fusion_lat": 0.0, "lat": 38.918064, "name": "879944a4331eeeb1f817fe7f1c81c5ea", "fusion_lon": 0.0, "bike_id": "879944a4331eeeb1f817fe7f1c81c5ea", "is_disabled": 0, "is_reserved": 0}, {"rental_uris": {"ios": "https://dc.lft.to/lastmile_qr_scan", "android": "https://dc.lft.to/lastmile_qr_scan"}, "lon": -77.0484155, "type": "electric_scooter", "fusion_lat": 0.0, "lat": 38.9110075, "name": "a9acdf4bd3ad69098fd691f6881c3c38", "fusion_lon": 0.0, "bike_id": "a9acdf4bd3ad69098fd691f6881c3c38", "is_disabled": 0, "is_reserved": 0}, {"rental_uris": {"ios": "https://dc.lft.to/lastmile_qr_scan", "android": "https://dc.lft.to/lastmile_qr_scan"}, "lon": -77.02522616666667, "type": "electric_scooter", "fusion_lat": 0.0, "lat": 38.940595, "name": "18a6d935fe0c7d2a9691edcf83010c6e", "fusion_lon": 0.0, "bike_id": "18a6d935fe0c7d2a9691edcf83010c6e", "is_disabled": 0, "is_reserved": 0}, {"rental_uris": {"ios": "https://dc.lft.to/lastmile_qr_scan", "android": "https://dc.lft.to/lastmile_qr_scan"}, "lon": -77.0358375, "type": "electric_scooter", "fusion_lat": 0.0, "lat": 38.931334166666666, "name": "69ea49dbe397e273c8f53440bb4e6ba2", "fusion_lon": 0.0, "bike_id": "69ea49dbe397e273c8f53440bb4e6ba2", "is_disabled": 0, "is_reserved": 0}, {"rental_uris": {"ios": "https://dc.lft.to/lastmile_qr_scan", "android": "https://dc.lft.to/lastmile_qr_scan"}, "lon": -76.99635533333333, "type": "electric_bike", "fusion_lat": 0.0, "lat": 38.84664166666666, "name": "88a84418f60627c51cad4934f5dc678f", "fusion_lon": 0.0, "bike_id": "88a84418f60627c51cad4934f5dc678f", "is_disabled": 0, "is_reserved": 0}, {"rental_uris": {"ios": "https://dc.lft.to/lastmile_qr_scan", "android": "https://dc.lft.to/lastmile_qr_scan"}, "lon": -77.048642, "type": "electric_scooter", "fusion_lat": 0.0, "lat": 38.89220433333333, "name": "cb6215b6becb23f131b7be5777dce969", "fusion_lon": 0.0, "bike_id": "cb6215b6becb23f131b7be5777dce969", "is_disabled": 0, "is_reserved": 0}, {"rental_uris": {"ios": "https://dc.lft.to/lastmile_qr_scan", "android": "https://dc.lft.to/lastmile_qr_scan"}, "lon": -77.070631, "type": "electric_scooter", "fusion_lat": 0.0, "lat": 38.90110083333333, "name": "cb1930be63a510c856c9d481815fd22b", "fusion_lon": 0.0, "bike_id": "cb1930be63a510c856c9d481815fd22b", "is_disabled": 0, "is_reserved": 0}, {"rental_uris": {"ios": "https://dc.lft.to/lastmile_qr_scan", "android": "https://dc.lft.to/lastmile_qr_scan"}, "lon": -77.06878183333333, "type": "electric_scooter", "fusion_lat": 0.0, "lat": 38.905066833333336, "name": "527b8186345a05cec10266d6ccdc2c30", "fusion_lon": 0.0, "bike_id": "527b8186345a05cec10266d6ccdc2c30", "is_disabled": 0, "is_reserved": 0}, {"rental_uris": {"ios": "https://dc.lft.to/lastmile_qr_scan", "android": "https://dc.lft.to/lastmile_qr_scan"}, "lon": -77.04864483333333, "type": "electric_scooter", "fusion_lat": 0.0, "lat": 38.90849033333333, "name": "1011db5db18bf26d2ff8224fed603d35", "fusion_lon": 0.0, "bike_id": "1011db5db18bf26d2ff8224fed603d35", "is_disabled": 0, "is_reserved": 0}, {"rental_uris": {"ios": "https://dc.lft.to/lastmile_qr_scan", "android": "https://dc.lft.to/lastmile_qr_scan"}, "lon": -77.03224666666667, "type": "electric_scooter", "fusion_lat": 0.0, "lat": 38.926692333333335, "name": "b90e69277f43db49f042c9b333c54cf7", "fusion_lon": 0.0, "bike_id": "b90e69277f43db49f042c9b333c54cf7", "is_disabled": 0, "is_reserved": 0}, {"rental_uris": {"ios": "https://dc.lft.to/lastmile_qr_scan", "android": "https://dc.lft.to/lastmile_qr_scan"}, "lon": -77.0581395, "type": "electric_scooter", "fusion_lat": 0.0, "lat": 38.934479, "name": "03021d59468ced50b0747920f25c0c8a", "fusion_lon": 0.0, "bike_id": "03021d59468ced50b0747920f25c0c8a", "is_disabled": 0, "is_reserved": 0}, {"rental_uris": {"ios": "https://dc.lft.to/lastmile_qr_scan", "android": "https://dc.lft.to/lastmile_qr_scan"}, "lon": -76.97402433333333, "type": "electric_scooter", "fusion_lat": 0.0, "lat": 38.90156966666667, "name": "890fec471c973eb1e02741f048b2797b", "fusion_lon": 0.0, "bike_id": "890fec471c973eb1e02741f048b2797b", "is_disabled": 0, "is_reserved": 0}, {"rental_uris": {"ios": "https://dc.lft.to/lastmile_qr_scan", "android": "https://dc.lft.to/lastmile_qr_scan"}, "lon": -76.97489833333333, "type": "electric_bike", "fusion_lat": 0.0, "lat": 38.920022333333335, "name": "abe7b13910a7cc12c81a219d7a4efd1a", "fusion_lon": 0.0, "bike_id": "abe7b13910a7cc12c81a219d7a4efd1a", "is_disabled": 0, "is_reserved": 0}, {"rental_uris": {"ios": "https://dc.lft.to/lastmile_qr_scan", "android": "https://dc.lft.to/lastmile_qr_scan"}, "lon": -77.0427915, "type": "electric_scooter", "fusion_lat": 0.0, "lat": 38.9080625, "name": "115364f1e6ef4577bef6f4b534f36be2", "fusion_lon": 0.0, "bike_id": "115364f1e6ef4577bef6f4b534f36be2", "is_disabled": 0, "is_reserved": 0}, {"rental_uris": {"ios": "https://dc.lft.to/lastmile_qr_scan", "android": "https://dc.lft.to/lastmile_qr_scan"}, "lon": -76.99800933333333, "type": "electric_scooter", "fusion_lat": 0.0, "lat": 38.90871033333333, "name": "9bbfdf4d8a210e351b60af58fa76d779", "fusion_lon": 0.0, "bike_id": "9bbfdf4d8a210e351b60af58fa76d779", "is_disabled": 0, "is_reserved": 0}, {"rental_uris": {"ios": "https://dc.lft.to/lastmile_qr_scan", "android": "https://dc.lft.to/lastmile_qr_scan"}, "lon": -76.93717433333333, "type": "electric_scooter", "fusion_lat": 0.0, "lat": 38.89586633333333, "name": "baafd44998161755ab3c6f3deb5ffad5", "fusion_lon": 0.0, "bike_id": "baafd44998161755ab3c6f3deb5ffad5", "is_disabled": 0, "is_reserved": 0}, {"rental_uris": {"ios": "https://dc.lft.to/lastmile_qr_scan", "android": "https://dc.lft.to/lastmile_qr_scan"}, "lon": -77.0341685, "type": "electric_scooter", "fusion_lat": 0.0, "lat": 38.935359166666665, "name": "19fec59d3a5f4ae3d772dcfbc63f26e6", "fusion_lon": 0.0, "bike_id": "19fec59d3a5f4ae3d772dcfbc63f26e6", "is_disabled": 0, "is_reserved": 0}, {"rental_uris": {"ios": "https://dc.lft.to/lastmile_qr_scan", "android": "https://dc.lft.to/lastmile_qr_scan"}, "lon": -77.023848, "type": "electric_scooter", "fusion_lat": 0.0, "lat": 38.91372366666667, "name": "f1ca7df4e346baa3592d2d2b7aba0614", "fusion_lon": 0.0, "bike_id": "f1ca7df4e346baa3592d2d2b7aba0614", "is_disabled": 0, "is_reserved": 0}, {"rental_uris": {"ios": "https://dc.lft.to/lastmile_qr_scan", "android": "https://dc.lft.to/lastmile_qr_scan"}, "lon": -77.04108816666667, "type": "electric_scooter", "fusion_lat": 0.0, "lat": 38.924420833333336, "name": "cc15ab1779fee2e1b2cbf2db74240b3b", "fusion_lon": 0.0, "bike_id": "cc15ab1779fee2e1b2cbf2db74240b3b", "is_disabled": 0, "is_reserved": 0}, {"rental_uris": {"ios": "https://dc.lft.to/lastmile_qr_scan", "android": "https://dc.lft.to/lastmile_qr_scan"}, "lon": -77.00650383333333, "type": "electric_scooter", "fusion_lat": 0.0, "lat": 38.8717625, "name": "32a4af3f9d74226a1607b163879b4459", "fusion_lon": 0.0, "bike_id": "32a4af3f9d74226a1607b163879b4459", "is_disabled": 0, "is_reserved": 0}, {"rental_uris": {"ios": "https://dc.lft.to/lastmile_qr_scan", "android": "https://dc.lft.to/lastmile_qr_scan"}, "lon": -77.025996, "type": "electric_scooter", "fusion_lat": 0.0, "lat": 38.89257533333333, "name": "34e1cb996e9f0613e37a66a35d50d22b", "fusion_lon": 0.0, "bike_id": "34e1cb996e9f0613e37a66a35d50d22b", "is_disabled": 0, "is_reserved": 0}, {"rental_uris": {"ios": "https://dc.lft.to/lastmile_qr_scan", "android": "https://dc.lft.to/lastmile_qr_scan"}, "lon": -77.0561095, "type": "electric_bike", "fusion_lat": 0.0, "lat": 38.924166, "name": "fced79b09dcb9ad6c46be4d3ec79c8fd", "fusion_lon": 0.0, "bike_id": "fced79b09dcb9ad6c46be4d3ec79c8fd", "is_disabled": 0, "is_reserved": 0}, {"rental_uris": {"ios": "https://dc.lft.to/lastmile_qr_scan", "android": "https://dc.lft.to/lastmile_qr_scan"}, "lon": -77.01119316666667, "type": "electric_scooter", "fusion_lat": 0.0, "lat": 38.912612333333335, "name": "ff7af9d978a72450ec33f6a4784ec5d7", "fusion_lon": 0.0, "bike_id": "ff7af9d978a72450ec33f6a4784ec5d7", "is_disabled": 0, "is_reserved": 0}, {"rental_uris": {"ios": "https://dc.lft.to/lastmile_qr_scan", "android": "https://dc.lft.to/lastmile_qr_scan"}, "lon": -77.0319845, "type": "electric_scooter", "fusion_lat": 0.0, "lat": 38.909813666666665, "name": "b63691d8d6ae503c22971d3cdbd6335f", "fusion_lon": 0.0, "bike_id": "b63691d8d6ae503c22971d3cdbd6335f", "is_disabled": 0, "is_reserved": 0}, {"rental_uris": {"ios": "https://dc.lft.to/lastmile_qr_scan", "android": "https://dc.lft.to/lastmile_qr_scan"}, "lon": -77.03212216666667, "type": "electric_scooter", "fusion_lat": 0.0, "lat": 38.933801333333335, "name": "b382aa27928c3ef6c13da6d37775b6f3", "fusion_lon": 0.0, "bike_id": "b382aa27928c3ef6c13da6d37775b6f3", "is_disabled": 0, "is_reserved": 0}, {"rental_uris": {"ios": "https://dc.lft.to/lastmile_qr_scan", "android": "https://dc.lft.to/lastmile_qr_scan"}, "lon": -76.97214866666667, "type": "electric_bike", "fusion_lat": 0.0, "lat": 38.844755666666664, "name": "ba185fb45856ab5306d12d2ea1c2e648", "fusion_lon": 0.0, "bike_id": "ba185fb45856ab5306d12d2ea1c2e648", "is_disabled": 0, "is_reserved": 0}, {"rental_uris": {"ios": "https://dc.lft.to/lastmile_qr_scan", "android": "https://dc.lft.to/lastmile_qr_scan"}, "lon": -77.025055, "type": "electric_bike", "fusion_lat": 0.0, "lat": 38.93413916666667, "name": "88c84845ab228cc2a7a38087c0e3e388", "fusion_lon": 0.0, "bike_id": "88c84845ab228cc2a7a38087c0e3e388", "is_disabled": 0, "is_reserved": 0}, {"rental_uris": {"ios": "https://dc.lft.to/lastmile_qr_scan", "android": "https://dc.lft.to/lastmile_qr_scan"}, "lon": -76.94437916666666, "type": "electric_bike", "fusion_lat": 0.0, "lat": 38.90293483333333, "name": "0a8e89ef5faa3efd453405c42f16b699", "fusion_lon": 0.0, "bike_id": "0a8e89ef5faa3efd453405c42f16b699", "is_disabled": 0, "is_reserved": 0}, {"rental_uris": {"ios": "https://dc.lft.to/lastmile_qr_scan", "android": "https://dc.lft.to/lastmile_qr_scan"}, "lon": -77.03174233333333, "type": "electric_scooter", "fusion_lat": 0.0, "lat": 38.909690166666664, "name": "0949f90dbd20256c341d56dce9f76531", "fusion_lon": 0.0, "bike_id": "0949f90dbd20256c341d56dce9f76531", "is_disabled": 0, "is_reserved": 0}, {"rental_uris": {"ios": "https://dc.lft.to/lastmile_qr_scan", "android": "https://dc.lft.to/lastmile_qr_scan"}, "lon": -77.0037765, "type": "electric_bike", "fusion_lat": 0.0, "lat": 38.83602716666667, "name": "0369f193a84f91fce33868865790eb9a", "fusion_lon": 0.0, "bike_id": "0369f193a84f91fce33868865790eb9a", "is_disabled": 0, "is_reserved": 0}, {"rental_uris": {"ios": "https://dc.lft.to/lastmile_qr_scan", "android": "https://dc.lft.to/lastmile_qr_scan"}, "lon": -77.03201016666667, "type": "electric_scooter", "fusion_lat": 0.0, "lat": 38.91243516666667, "name": "fae778dcc47f0558a7a7ee40d933ab65", "fusion_lon": 0.0, "bike_id": "fae778dcc47f0558a7a7ee40d933ab65", "is_disabled": 0, "is_reserved": 0}, {"rental_uris": {"ios": "https://dc.lft.to/lastmile_qr_scan", "android": "https://dc.lft.to/lastmile_qr_scan"}, "lon": -77.02888966666667, "type": "electric_scooter", "fusion_lat": 0.0, "lat": 38.907166833333335, "name": "cfc7f9dbed46ecb270a36bbf1ec8788f", "fusion_lon": 0.0, "bike_id": "cfc7f9dbed46ecb270a36bbf1ec8788f", "is_disabled": 0, "is_reserved": 0}, {"rental_uris": {"ios": "https://dc.lft.to/lastmile_qr_scan", "android": "https://dc.lft.to/lastmile_qr_scan"}, "lon": -77.02807366666667, "type": "electric_scooter", "fusion_lat": 0.0, "lat": 38.96138333333333, "name": "90a23e6d7c025f507b01a42d1b312e50", "fusion_lon": 0.0, "bike_id": "90a23e6d7c025f507b01a42d1b312e50", "is_disabled": 0, "is_reserved": 0}, {"rental_uris": {"ios": "https://dc.lft.to/lastmile_qr_scan", "android": "https://dc.lft.to/lastmile_qr_scan"}, "lon": -76.93158933333333, "type": "electric_bike", "fusion_lat": 0.0, "lat": 38.908624333333336, "name": "a040b4b0c455dee27e6514a1e141a9f7", "fusion_lon": 0.0, "bike_id": "a040b4b0c455dee27e6514a1e141a9f7", "is_disabled": 0, "is_reserved": 0}, {"rental_uris": {"ios": "https://dc.lft.to/lastmile_qr_scan", "android": "https://dc.lft.to/lastmile_qr_scan"}, "lon": -77.02934033333334, "type": "electric_scooter", "fusion_lat": 0.0, "lat": 38.9206035, "name": "1d3df4a67155b25c9b8ba9e48b95d13f", "fusion_lon": 0.0, "bike_id": "1d3df4a67155b25c9b8ba9e48b95d13f", "is_disabled": 0, "is_reserved": 0}, {"rental_uris": {"ios": "https://dc.lft.to/lastmile_qr_scan", "android": "https://dc.lft.to/lastmile_qr_scan"}, "lon": -76.97007, "type": "electric_bike", "fusion_lat": 0.0, "lat": 38.86368316666667, "name": "40d7b37d9498c35b3483f7cfcb5ab350", "fusion_lon": 0.0, "bike_id": "40d7b37d9498c35b3483f7cfcb5ab350", "is_disabled": 0, "is_reserved": 0}, {"rental_uris": {"ios": "https://dc.lft.to/lastmile_qr_scan", "android": "https://dc.lft.to/lastmile_qr_scan"}, "lon": -77.0389305, "type": "electric_scooter", "fusion_lat": 0.0, "lat": 38.943945, "name": "475521df66681ae8476009702ae680f5", "fusion_lon": 0.0, "bike_id": "475521df66681ae8476009702ae680f5", "is_disabled": 0, "is_reserved": 0}, {"rental_uris": {"ios": "https://dc.lft.to/lastmile_qr_scan", "android": "https://dc.lft.to/lastmile_qr_scan"}, "lon": -76.99061666666667, "type": "electric_scooter", "fusion_lat": 0.0, "lat": 38.863542333333335, "name": "fd215ff63208af08afe2d4aaaeeda2e5", "fusion_lon": 0.0, "bike_id": "fd215ff63208af08afe2d4aaaeeda2e5", "is_disabled": 0, "is_reserved": 0}, {"rental_uris": {"ios": "https://dc.lft.to/lastmile_qr_scan", "android": "https://dc.lft.to/lastmile_qr_scan"}, "lon": -76.98883266666667, "type": "electric_scooter", "fusion_lat": 0.0, "lat": 38.866567833333335, "name": "c7027cfaa6ba414200be41e822150b48", "fusion_lon": 0.0, "bike_id": "c7027cfaa6ba414200be41e822150b48", "is_disabled": 0, "is_reserved": 0}, {"rental_uris": {"ios": "https://dc.lft.to/lastmile_qr_scan", "android": "https://dc.lft.to/lastmile_qr_scan"}, "lon": -77.04685866666667, "type": "electric_scooter", "fusion_lat": 0.0, "lat": 38.8973265, "name": "a319371019fe31abbaa23f058b9ad3d6", "fusion_lon": 0.0, "bike_id": "a319371019fe31abbaa23f058b9ad3d6", "is_disabled": 0, "is_reserved": 0}, {"rental_uris": {"ios": "https://dc.lft.to/lastmile_qr_scan", "android": "https://dc.lft.to/lastmile_qr_scan"}, "lon": -77.02944333333333, "type": "electric_scooter", "fusion_lat": 0.0, "lat": 38.90591, "name": "d51ec89a8808571029b8adb77f015ec3", "fusion_lon": 0.0, "bike_id": "d51ec89a8808571029b8adb77f015ec3", "is_disabled": 0, "is_reserved": 0}, {"rental_uris": {"ios": "https://dc.lft.to/lastmile_qr_scan", "android": "https://dc.lft.to/lastmile_qr_scan"}, "lon": -77.08540183333334, "type": "electric_bike", "fusion_lat": 0.0, "lat": 38.85618933333333, "name": "7bc7f3ccc934484742d15958965198e1", "fusion_lon": 0.0, "bike_id": "7bc7f3ccc934484742d15958965198e1", "is_disabled": 0, "is_reserved": 0}, {"rental_uris": {"ios": "https://dc.lft.to/lastmile_qr_scan", "android": "https://dc.lft.to/lastmile_qr_scan"}, "lon": -77.0115105, "type": "electric_scooter", "fusion_lat": 0.0, "lat": 38.900156833333334, "name": "406af8f3d49523265df6c060867c4875", "fusion_lon": 0.0, "bike_id": "406af8f3d49523265df6c060867c4875", "is_disabled": 0, "is_reserved": 0}, {"rental_uris": {"ios": "https://dc.lft.to/lastmile_qr_scan", "android": "https://dc.lft.to/lastmile_qr_scan"}, "lon": -77.02657816666667, "type": "electric_scooter", "fusion_lat": 0.0, "lat": 38.916938333333334, "name": "948fc749dce215ff9f24f4f675307af1", "fusion_lon": 0.0, "bike_id": "948fc749dce215ff9f24f4f675307af1", "is_disabled": 0, "is_reserved": 0}, {"rental_uris": {"ios": "https://dc.lft.to/lastmile_qr_scan", "android": "https://dc.lft.to/lastmile_qr_scan"}, "lon": -77.05475483333333, "type": "electric_scooter", "fusion_lat": 0.0, "lat": 38.920964, "name": "7636b095513b9159d33065c0301743b9", "fusion_lon": 0.0, "bike_id": "7636b095513b9159d33065c0301743b9", "is_disabled": 0, "is_reserved": 0}, {"rental_uris": {"ios": "https://dc.lft.to/lastmile_qr_scan", "android": "https://dc.lft.to/lastmile_qr_scan"}, "lon": -77.05103166666666, "type": "electric_scooter", "fusion_lat": 0.0, "lat": 38.905081, "name": "b6468d8339be6820580b1051c8d6cf57", "fusion_lon": 0.0, "bike_id": "b6468d8339be6820580b1051c8d6cf57", "is_disabled": 0, "is_reserved": 0}, {"rental_uris": {"ios": "https://dc.lft.to/lastmile_qr_scan", "android": "https://dc.lft.to/lastmile_qr_scan"}, "lon": -76.95527533333333, "type": "electric_scooter", "fusion_lat": 0.0, "lat": 38.88778383333333, "name": "d173ed78c5877fad58b323ab82b32bd2", "fusion_lon": 0.0, "bike_id": "d173ed78c5877fad58b323ab82b32bd2", "is_disabled": 0, "is_reserved": 0}, {"rental_uris": {"ios": "https://dc.lft.to/lastmile_qr_scan", "android": "https://dc.lft.to/lastmile_qr_scan"}, "lon": -77.020958, "type": "electric_scooter", "fusion_lat": 0.0, "lat": 38.91412783333333, "name": "c8e39c0f43dc5b7f6fc6ac45edf282b1", "fusion_lon": 0.0, "bike_id": "c8e39c0f43dc5b7f6fc6ac45edf282b1", "is_disabled": 0, "is_reserved": 0}, {"rental_uris": {"ios": "https://dc.lft.to/lastmile_qr_scan", "android": "https://dc.lft.to/lastmile_qr_scan"}, "lon": -77.06006683333334, "type": "electric_scooter", "fusion_lat": 0.0, "lat": 38.91264366666667, "name": "b14e4bd3e0c0ec487ca836ad7153ef51", "fusion_lon": 0.0, "bike_id": "b14e4bd3e0c0ec487ca836ad7153ef51", "is_disabled": 0, "is_reserved": 0}, {"rental_uris": {"ios": "https://dc.lft.to/lastmile_qr_scan", "android": "https://dc.lft.to/lastmile_qr_scan"}, "lon": -76.98714183333334, "type": "electric_scooter", "fusion_lat": 0.0, "lat": 38.862568, "name": "7c6ae5677334ddc12bcb54daadba5dbb", "fusion_lon": 0.0, "bike_id": "7c6ae5677334ddc12bcb54daadba5dbb", "is_disabled": 0, "is_reserved": 0}, {"rental_uris": {"ios": "https://dc.lft.to/lastmile_qr_scan", "android": "https://dc.lft.to/lastmile_qr_scan"}, "lon": -76.9418015, "type": "electric_scooter", "fusion_lat": 0.0, "lat": 38.88217216666666, "name": "8a9b3ddc40356aa6895fb2b9cf38da85", "fusion_lon": 0.0, "bike_id": "8a9b3ddc40356aa6895fb2b9cf38da85", "is_disabled": 0, "is_reserved": 0}, {"rental_uris": {"ios": "https://dc.lft.to/lastmile_qr_scan", "android": "https://dc.lft.to/lastmile_qr_scan"}, "lon": -77.04487633333333, "type": "electric_scooter", "fusion_lat": 0.0, "lat": 38.910515, "name": "5850da2dd9a964688b55d1119276fef2", "fusion_lon": 0.0, "bike_id": "5850da2dd9a964688b55d1119276fef2", "is_disabled": 0, "is_reserved": 0}, {"rental_uris": {"ios": "https://dc.lft.to/lastmile_qr_scan", "android": "https://dc.lft.to/lastmile_qr_scan"}, "lon": -77.0361935, "type": "electric_scooter", "fusion_lat": 0.0, "lat": 38.9325325, "name": "399af8ee6ce1e6bb2c9d5792e0682b5e", "fusion_lon": 0.0, "bike_id": "399af8ee6ce1e6bb2c9d5792e0682b5e", "is_disabled": 0, "is_reserved": 0}, {"rental_uris": {"ios": "https://dc.lft.to/lastmile_qr_scan", "android": "https://dc.lft.to/lastmile_qr_scan"}, "lon": -77.03861116666667, "type": "electric_scooter", "fusion_lat": 0.0, "lat": 38.915587333333335, "name": "56fffd44e1daa2b844270f64c873246c", "fusion_lon": 0.0, "bike_id": "56fffd44e1daa2b844270f64c873246c", "is_disabled": 0, "is_reserved": 0}, {"rental_uris": {"ios": "https://dc.lft.to/lastmile_qr_scan", "android": "https://dc.lft.to/lastmile_qr_scan"}, "lon": -76.99498066666666, "type": "electric_scooter", "fusion_lat": 0.0, "lat": 38.8800235, "name": "a08c1e1df5727c0d45a015ed643c86e1", "fusion_lon": 0.0, "bike_id": "a08c1e1df5727c0d45a015ed643c86e1", "is_disabled": 0, "is_reserved": 0}, {"rental_uris": {"ios": "https://dc.lft.to/lastmile_qr_scan", "android": "https://dc.lft.to/lastmile_qr_scan"}, "lon": -76.9914695, "type": "electric_scooter", "fusion_lat": 0.0, "lat": 38.9003755, "name": "788f52e3d7398b6d92921b2c5d42e025", "fusion_lon": 0.0, "bike_id": "788f52e3d7398b6d92921b2c5d42e025", "is_disabled": 0, "is_reserved": 0}, {"rental_uris": {"ios": "https://dc.lft.to/lastmile_qr_scan", "android": "https://dc.lft.to/lastmile_qr_scan"}, "lon": -77.04262883333334, "type": "electric_scooter", "fusion_lat": 0.0, "lat": 38.922003, "name": "fb54df3330b090b72ade380aac415581", "fusion_lon": 0.0, "bike_id": "fb54df3330b090b72ade380aac415581", "is_disabled": 0, "is_reserved": 0}, {"rental_uris": {"ios": "https://dc.lft.to/lastmile_qr_scan", "android": "https://dc.lft.to/lastmile_qr_scan"}, "lon": -77.03394333333334, "type": "electric_scooter", "fusion_lat": 0.0, "lat": 38.90971966666667, "name": "72db8508209bdfc0691cf4c4c3c1d4d4", "fusion_lon": 0.0, "bike_id": "72db8508209bdfc0691cf4c4c3c1d4d4", "is_disabled": 0, "is_reserved": 0}, {"rental_uris": {"ios": "https://dc.lft.to/lastmile_qr_scan", "android": "https://dc.lft.to/lastmile_qr_scan"}, "lon": -76.95760016666667, "type": "electric_scooter", "fusion_lat": 0.0, "lat": 38.88683983333333, "name": "f58d9741dc932dddc1449f10406d862c", "fusion_lon": 0.0, "bike_id": "f58d9741dc932dddc1449f10406d862c", "is_disabled": 0, "is_reserved": 0}, {"rental_uris": {"ios": "https://dc.lft.to/lastmile_qr_scan", "android": "https://dc.lft.to/lastmile_qr_scan"}, "lon": -77.00342766666667, "type": "electric_scooter", "fusion_lat": 0.0, "lat": 38.887687666666665, "name": "63d06ed3a2e6497a5195426340bc3bf3", "fusion_lon": 0.0, "bike_id": "63d06ed3a2e6497a5195426340bc3bf3", "is_disabled": 0, "is_reserved": 0}, {"rental_uris": {"ios": "https://dc.lft.to/lastmile_qr_scan", "android": "https://dc.lft.to/lastmile_qr_scan"}, "lon": -77.02389383333333, "type": "electric_scooter", "fusion_lat": 0.0, "lat": 38.897467666666664, "name": "2abbfda86de2c8a52cf5349736cb52fd", "fusion_lon": 0.0, "bike_id": "2abbfda86de2c8a52cf5349736cb52fd", "is_disabled": 0, "is_reserved": 0}, {"rental_uris": {"ios": "https://dc.lft.to/lastmile_qr_scan", "android": "https://dc.lft.to/lastmile_qr_scan"}, "lon": -76.95885783333334, "type": "electric_scooter", "fusion_lat": 0.0, "lat": 38.85843666666667, "name": "add61beaf83577c44224a2c82631621b", "fusion_lon": 0.0, "bike_id": "add61beaf83577c44224a2c82631621b", "is_disabled": 0, "is_reserved": 0}, {"rental_uris": {"ios": "https://dc.lft.to/lastmile_qr_scan", "android": "https://dc.lft.to/lastmile_qr_scan"}, "lon": -77.08167033333334, "type": "electric_bike", "fusion_lat": 0.0, "lat": 38.807871, "name": "d25c0f1fa718d5b66be5a5ca44a8128b", "fusion_lon": 0.0, "bike_id": "d25c0f1fa718d5b66be5a5ca44a8128b", "is_disabled": 0, "is_reserved": 0}, {"rental_uris": {"ios": "https://dc.lft.to/lastmile_qr_scan", "android": "https://dc.lft.to/lastmile_qr_scan"}, "lon": -77.043268, "type": "electric_scooter", "fusion_lat": 0.0, "lat": 38.927922, "name": "53d9c1c622825b6ed83ede22fee70a80", "fusion_lon": 0.0, "bike_id": "53d9c1c622825b6ed83ede22fee70a80", "is_disabled": 0, "is_reserved": 0}, {"rental_uris": {"ios": "https://dc.lft.to/lastmile_qr_scan", "android": "https://dc.lft.to/lastmile_qr_scan"}, "lon": -77.065372, "type": "electric_scooter", "fusion_lat": 0.0, "lat": 38.90482933333333, "name": "771db1bae981295021fbbd166828702c", "fusion_lon": 0.0, "bike_id": "771db1bae981295021fbbd166828702c", "is_disabled": 0, "is_reserved": 0}, {"rental_uris": {"ios": "https://dc.lft.to/lastmile_qr_scan", "android": "https://dc.lft.to/lastmile_qr_scan"}, "lon": -77.0652535, "type": "electric_bike", "fusion_lat": 0.0, "lat": 38.9045165, "name": "1927d5b3779f960f3d889fefb68a03e5", "fusion_lon": 0.0, "bike_id": "1927d5b3779f960f3d889fefb68a03e5", "is_disabled": 0, "is_reserved": 0}, {"rental_uris": {"ios": "https://dc.lft.to/lastmile_qr_scan", "android": "https://dc.lft.to/lastmile_qr_scan"}, "lon": -77.02172666666667, "type": "electric_scooter", "fusion_lat": 0.0, "lat": 38.942885, "name": "4919569224144d37a724b02b6d02c612", "fusion_lon": 0.0, "bike_id": "4919569224144d37a724b02b6d02c612", "is_disabled": 0, "is_reserved": 0}, {"rental_uris": {"ios": "https://dc.lft.to/lastmile_qr_scan", "android": "https://dc.lft.to/lastmile_qr_scan"}, "lon": -77.0363165, "type": "electric_bike", "fusion_lat": 0.0, "lat": 38.95600683333333, "name": "ee347140dcbf3355d12e6105c5551b6f", "fusion_lon": 0.0, "bike_id": "ee347140dcbf3355d12e6105c5551b6f", "is_disabled": 0, "is_reserved": 0}, {"rental_uris": {"ios": "https://dc.lft.to/lastmile_qr_scan", "android": "https://dc.lft.to/lastmile_qr_scan"}, "lon": -76.97878566666667, "type": "electric_scooter", "fusion_lat": 0.0, "lat": 38.88767966666666, "name": "98754707f05e0eea8a6d0045668535c1", "fusion_lon": 0.0, "bike_id": "98754707f05e0eea8a6d0045668535c1", "is_disabled": 0, "is_reserved": 0}, {"rental_uris": {"ios": "https://dc.lft.to/lastmile_qr_scan", "android": "https://dc.lft.to/lastmile_qr_scan"}, "lon": -76.96087033333333, "type": "electric_scooter", "fusion_lat": 0.0, "lat": 38.87415133333333, "name": "66f7c7253d56bd5ae900ef8f8ded5286", "fusion_lon": 0.0, "bike_id": "66f7c7253d56bd5ae900ef8f8ded5286", "is_disabled": 0, "is_reserved": 0}, {"rental_uris": {"ios": "https://dc.lft.to/lastmile_qr_scan", "android": "https://dc.lft.to/lastmile_qr_scan"}, "lon": -76.98975633333333, "type": "electric_scooter", "fusion_lat": 0.0, "lat": 38.85915633333333, "name": "06307a48b2b003d5e036f6c6b7133f75", "fusion_lon": 0.0, "bike_id": "06307a48b2b003d5e036f6c6b7133f75", "is_disabled": 0, "is_reserved": 0}, {"rental_uris": {"ios": "https://dc.lft.to/lastmile_qr_scan", "android": "https://dc.lft.to/lastmile_qr_scan"}, "lon": -77.03810383333334, "type": "electric_scooter", "fusion_lat": 0.0, "lat": 38.933943166666666, "name": "15ed7609829ad54e77fbda0aa7436f88", "fusion_lon": 0.0, "bike_id": "15ed7609829ad54e77fbda0aa7436f88", "is_disabled": 0, "is_reserved": 0}, {"rental_uris": {"ios": "https://dc.lft.to/lastmile_qr_scan", "android": "https://dc.lft.to/lastmile_qr_scan"}, "lon": -77.03825216666667, "type": "electric_scooter", "fusion_lat": 0.0, "lat": 38.8988515, "name": "41a7e9610f266ea9fbd5e33d67b857bc", "fusion_lon": 0.0, "bike_id": "41a7e9610f266ea9fbd5e33d67b857bc", "is_disabled": 0, "is_reserved": 0}, {"rental_uris": {"ios": "https://dc.lft.to/lastmile_qr_scan", "android": "https://dc.lft.to/lastmile_qr_scan"}, "lon": -76.9499705, "type": "electric_scooter", "fusion_lat": 0.0, "lat": 38.89371283333333, "name": "bd9a1dfb0ecbad035b83ab6d6143309a", "fusion_lon": 0.0, "bike_id": "bd9a1dfb0ecbad035b83ab6d6143309a", "is_disabled": 0, "is_reserved": 0}, {"rental_uris": {"ios": "https://dc.lft.to/lastmile_qr_scan", "android": "https://dc.lft.to/lastmile_qr_scan"}, "lon": -76.93173966666667, "type": "electric_scooter", "fusion_lat": 0.0, "lat": 38.89884766666667, "name": "fb3c80024ecb705517a9060e46164f76", "fusion_lon": 0.0, "bike_id": "fb3c80024ecb705517a9060e46164f76", "is_disabled": 0, "is_reserved": 0}, {"rental_uris": {"ios": "https://dc.lft.to/lastmile_qr_scan", "android": "https://dc.lft.to/lastmile_qr_scan"}, "lon": -77.02373366666667, "type": "electric_scooter", "fusion_lat": 0.0, "lat": 38.89622216666667, "name": "f5416ba3993aa30693fec24851e038ec", "fusion_lon": 0.0, "bike_id": "f5416ba3993aa30693fec24851e038ec", "is_disabled": 0, "is_reserved": 0}, {"rental_uris": {"ios": "https://dc.lft.to/lastmile_qr_scan", "android": "https://dc.lft.to/lastmile_qr_scan"}, "lon": -77.0432295, "type": "electric_scooter", "fusion_lat": 0.0, "lat": 38.91027866666667, "name": "124066c7306b90361a4c4090b7eb3d88", "fusion_lon": 0.0, "bike_id": "124066c7306b90361a4c4090b7eb3d88", "is_disabled": 0, "is_reserved": 0}, {"rental_uris": {"ios": "https://dc.lft.to/lastmile_qr_scan", "android": "https://dc.lft.to/lastmile_qr_scan"}, "lon": -77.02223633333334, "type": "electric_scooter", "fusion_lat": 0.0, "lat": 38.89217133333333, "name": "73beb11d8f7953b0d6121bd9716b9ecf", "fusion_lon": 0.0, "bike_id": "73beb11d8f7953b0d6121bd9716b9ecf", "is_disabled": 0, "is_reserved": 0}, {"rental_uris": {"ios": "https://dc.lft.to/lastmile_qr_scan", "android": "https://dc.lft.to/lastmile_qr_scan"}, "lon": -76.9379195, "type": "electric_scooter", "fusion_lat": 0.0, "lat": 38.89081916666667, "name": "03be9530dbc5672f7075a82b4e19e0bd", "fusion_lon": 0.0, "bike_id": "03be9530dbc5672f7075a82b4e19e0bd", "is_disabled": 0, "is_reserved": 0}, {"rental_uris": {"ios": "https://dc.lft.to/lastmile_qr_scan", "android": "https://dc.lft.to/lastmile_qr_scan"}, "lon": -76.9575755, "type": "electric_scooter", "fusion_lat": 0.0, "lat": 38.88424166666667, "name": "6dcdde9bcccd40f9077fc6e7f8d0bc49", "fusion_lon": 0.0, "bike_id": "6dcdde9bcccd40f9077fc6e7f8d0bc49", "is_disabled": 0, "is_reserved": 0}, {"rental_uris": {"ios": "https://dc.lft.to/lastmile_qr_scan", "android": "https://dc.lft.to/lastmile_qr_scan"}, "lon": -76.9650565, "type": "electric_scooter", "fusion_lat": 0.0, "lat": 38.876463, "name": "151f77c808ba225d3b6f8f848c911d1d", "fusion_lon": 0.0, "bike_id": "151f77c808ba225d3b6f8f848c911d1d", "is_disabled": 0, "is_reserved": 0}, {"rental_uris": {"ios": "https://dc.lft.to/lastmile_qr_scan", "android": "https://dc.lft.to/lastmile_qr_scan"}, "lon": -77.022209, "type": "electric_scooter", "fusion_lat": 0.0, "lat": 38.89351416666667, "name": "7d16f58c38b9c797a2b3f303b08e3a2d", "fusion_lon": 0.0, "bike_id": "7d16f58c38b9c797a2b3f303b08e3a2d", "is_disabled": 0, "is_reserved": 0}, {"rental_uris": {"ios": "https://dc.lft.to/lastmile_qr_scan", "android": "https://dc.lft.to/lastmile_qr_scan"}, "lon": -77.15268633333334, "type": "electric_bike", "fusion_lat": 0.0, "lat": 39.1056355, "name": "571f4a741b9c655446540320237d9bea", "fusion_lon": 0.0, "bike_id": "571f4a741b9c655446540320237d9bea", "is_disabled": 0, "is_reserved": 0}, {"rental_uris": {"ios": "https://dc.lft.to/lastmile_qr_scan", "android": "https://dc.lft.to/lastmile_qr_scan"}, "lon": -76.94654916666667, "type": "electric_scooter", "fusion_lat": 0.0, "lat": 38.89823066666666, "name": "c8aeb69660e639e6e113de10e4dc4283", "fusion_lon": 0.0, "bike_id": "c8aeb69660e639e6e113de10e4dc4283", "is_disabled": 0, "is_reserved": 0}, {"rental_uris": {"ios": "https://dc.lft.to/lastmile_qr_scan", "android": "https://dc.lft.to/lastmile_qr_scan"}, "lon": -77.02016883333333, "type": "electric_scooter", "fusion_lat": 0.0, "lat": 38.901846, "name": "7eaab97dba038f1516f4f3d334423fa6", "fusion_lon": 0.0, "bike_id": "7eaab97dba038f1516f4f3d334423fa6", "is_disabled": 0, "is_reserved": 0}, {"rental_uris": {"ios": "https://dc.lft.to/lastmile_qr_scan", "android": "https://dc.lft.to/lastmile_qr_scan"}, "lon": -77.028684, "type": "electric_scooter", "fusion_lat": 0.0, "lat": 38.88286316666667, "name": "a230a7b09473adff73fa708d72c27e6b", "fusion_lon": 0.0, "bike_id": "a230a7b09473adff73fa708d72c27e6b", "is_disabled": 0, "is_reserved": 0}, {"rental_uris": {"ios": "https://dc.lft.to/lastmile_qr_scan", "android": "https://dc.lft.to/lastmile_qr_scan"}, "lon": -77.03326933333334, "type": "electric_scooter", "fusion_lat": 0.0, "lat": 38.898230166666664, "name": "c2d38a76a8505bb65b52f6d3b269c066", "fusion_lon": 0.0, "bike_id": "c2d38a76a8505bb65b52f6d3b269c066", "is_disabled": 0, "is_reserved": 0}, {"rental_uris": {"ios": "https://dc.lft.to/lastmile_qr_scan", "android": "https://dc.lft.to/lastmile_qr_scan"}, "lon": -76.97666716666667, "type": "electric_bike", "fusion_lat": 0.0, "lat": 38.96617633333334, "name": "e7bc98b2fe5e7af187680d8722acd9ad", "fusion_lon": 0.0, "bike_id": "e7bc98b2fe5e7af187680d8722acd9ad", "is_disabled": 0, "is_reserved": 0}, {"rental_uris": {"ios": "https://dc.lft.to/lastmile_qr_scan", "android": "https://dc.lft.to/lastmile_qr_scan"}, "lon": -77.0380525, "type": "electric_scooter", "fusion_lat": 0.0, "lat": 38.906622, "name": "bab6f53b0c98be8eecddd295b30601ef", "fusion_lon": 0.0, "bike_id": "bab6f53b0c98be8eecddd295b30601ef", "is_disabled": 0, "is_reserved": 0}, {"rental_uris": {"ios": "https://dc.lft.to/lastmile_qr_scan", "android": "https://dc.lft.to/lastmile_qr_scan"}, "lon": -77.017877, "type": "electric_scooter", "fusion_lat": 0.0, "lat": 38.908221833333336, "name": "d8e4a3c8d725257182d3aa8b33275be8", "fusion_lon": 0.0, "bike_id": "d8e4a3c8d725257182d3aa8b33275be8", "is_disabled": 0, "is_reserved": 0}, {"rental_uris": {"ios": "https://dc.lft.to/lastmile_qr_scan", "android": "https://dc.lft.to/lastmile_qr_scan"}, "lon": -77.029861, "type": "electric_scooter", "fusion_lat": 0.0, "lat": 38.90041166666666, "name": "8e71d988f213406c6cae996dff45140e", "fusion_lon": 0.0, "bike_id": "8e71d988f213406c6cae996dff45140e", "is_disabled": 0, "is_reserved": 0}, {"rental_uris": {"ios": "https://dc.lft.to/lastmile_qr_scan", "android": "https://dc.lft.to/lastmile_qr_scan"}, "lon": -77.03407416666667, "type": "electric_scooter", "fusion_lat": 0.0, "lat": 38.92317, "name": "8dc7d2af5ce3f9ac1c96ee2b7ab3278a", "fusion_lon": 0.0, "bike_id": "8dc7d2af5ce3f9ac1c96ee2b7ab3278a", "is_disabled": 0, "is_reserved": 0}, {"rental_uris": {"ios": "https://dc.lft.to/lastmile_qr_scan", "android": "https://dc.lft.to/lastmile_qr_scan"}, "lon": -77.02730666666666, "type": "electric_scooter", "fusion_lat": 0.0, "lat": 38.89922216666667, "name": "785c365053e807504e9d20c12043611d", "fusion_lon": 0.0, "bike_id": "785c365053e807504e9d20c12043611d", "is_disabled": 0, "is_reserved": 0}, {"rental_uris": {"ios": "https://dc.lft.to/lastmile_qr_scan", "android": "https://dc.lft.to/lastmile_qr_scan"}, "lon": -77.035413, "type": "electric_scooter", "fusion_lat": 0.0, "lat": 38.92621583333333, "name": "e3f155be6816da0aec58f1572e906e57", "fusion_lon": 0.0, "bike_id": "e3f155be6816da0aec58f1572e906e57", "is_disabled": 0, "is_reserved": 0}, {"rental_uris": {"ios": "https://dc.lft.to/lastmile_qr_scan", "android": "https://dc.lft.to/lastmile_qr_scan"}, "lon": -76.97702233333334, "type": "electric_scooter", "fusion_lat": 0.0, "lat": 38.897051166666664, "name": "c5ad33c5dd3d3cbf9d585ab3f9058630", "fusion_lon": 0.0, "bike_id": "c5ad33c5dd3d3cbf9d585ab3f9058630", "is_disabled": 0, "is_reserved": 0}, {"rental_uris": {"ios": "https://dc.lft.to/lastmile_qr_scan", "android": "https://dc.lft.to/lastmile_qr_scan"}, "lon": -77.035578, "type": "electric_scooter", "fusion_lat": 0.0, "lat": 38.9179915, "name": "6c838895a2acb7cd2fd747f3ba4b7d32", "fusion_lon": 0.0, "bike_id": "6c838895a2acb7cd2fd747f3ba4b7d32", "is_disabled": 0, "is_reserved": 0}, {"rental_uris": {"ios": "https://dc.lft.to/lastmile_qr_scan", "android": "https://dc.lft.to/lastmile_qr_scan"}, "lon": -77.04687866666667, "type": "electric_scooter", "fusion_lat": 0.0, "lat": 38.89221916666666, "name": "8ab592b1fcb7c708591761db236b9656", "fusion_lon": 0.0, "bike_id": "8ab592b1fcb7c708591761db236b9656", "is_disabled": 0, "is_reserved": 0}, {"rental_uris": {"ios": "https://dc.lft.to/lastmile_qr_scan", "android": "https://dc.lft.to/lastmile_qr_scan"}, "lon": -77.03532666666666, "type": "electric_scooter", "fusion_lat": 0.0, "lat": 38.90045516666667, "name": "2d9417963f8d227a83118955d7b5e43f", "fusion_lon": 0.0, "bike_id": "2d9417963f8d227a83118955d7b5e43f", "is_disabled": 0, "is_reserved": 0}, {"rental_uris": {"ios": "https://dc.lft.to/lastmile_qr_scan", "android": "https://dc.lft.to/lastmile_qr_scan"}, "lon": -77.01767483333333, "type": "electric_scooter", "fusion_lat": 0.0, "lat": 38.88729766666667, "name": "d04712052de8e9d51dd51b30ddb1c8aa", "fusion_lon": 0.0, "bike_id": "d04712052de8e9d51dd51b30ddb1c8aa", "is_disabled": 0, "is_reserved": 0}, {"rental_uris": {"ios": "https://dc.lft.to/lastmile_qr_scan", "android": "https://dc.lft.to/lastmile_qr_scan"}, "lon": -77.018924, "type": "electric_scooter", "fusion_lat": 0.0, "lat": 38.915056166666666, "name": "31e50f709b49c99aeeb65becb59af42b", "fusion_lon": 0.0, "bike_id": "31e50f709b49c99aeeb65becb59af42b", "is_disabled": 0, "is_reserved": 0}, {"rental_uris": {"ios": "https://dc.lft.to/lastmile_qr_scan", "android": "https://dc.lft.to/lastmile_qr_scan"}, "lon": -77.03576866666667, "type": "electric_scooter", "fusion_lat": 0.0, "lat": 38.907638, "name": "5a275bed1af878c87a0d6e52190abfe2", "fusion_lon": 0.0, "bike_id": "5a275bed1af878c87a0d6e52190abfe2", "is_disabled": 0, "is_reserved": 0}, {"rental_uris": {"ios": "https://dc.lft.to/lastmile_qr_scan", "android": "https://dc.lft.to/lastmile_qr_scan"}, "lon": -77.04899083333333, "type": "electric_scooter", "fusion_lat": 0.0, "lat": 38.89662916666666, "name": "abc299cc29ae40a60cc687bf31d37934", "fusion_lon": 0.0, "bike_id": "abc299cc29ae40a60cc687bf31d37934", "is_disabled": 0, "is_reserved": 0}, {"rental_uris": {"ios": "https://dc.lft.to/lastmile_qr_scan", "android": "https://dc.lft.to/lastmile_qr_scan"}, "lon": -77.02385483333333, "type": "electric_scooter", "fusion_lat": 0.0, "lat": 38.925079333333336, "name": "0a47bba8630230ea1d91505b5a66615d", "fusion_lon": 0.0, "bike_id": "0a47bba8630230ea1d91505b5a66615d", "is_disabled": 0, "is_reserved": 0}, {"rental_uris": {"ios": "https://dc.lft.to/lastmile_qr_scan", "android": "https://dc.lft.to/lastmile_qr_scan"}, "lon": -77.0126735, "type": "electric_scooter", "fusion_lat": 0.0, "lat": 38.915422, "name": "28ff1cb0bffda5b6dd79ff523eaf369e", "fusion_lon": 0.0, "bike_id": "28ff1cb0bffda5b6dd79ff523eaf369e", "is_disabled": 0, "is_reserved": 0}, {"rental_uris": {"ios": "https://dc.lft.to/lastmile_qr_scan", "android": "https://dc.lft.to/lastmile_qr_scan"}, "lon": -77.075397, "type": "electric_scooter", "fusion_lat": 0.0, "lat": 38.920779, "name": "d6d39fc04edb7695b30073accfda669e", "fusion_lon": 0.0, "bike_id": "d6d39fc04edb7695b30073accfda669e", "is_disabled": 0, "is_reserved": 0}, {"rental_uris": {"ios": "https://dc.lft.to/lastmile_qr_scan", "android": "https://dc.lft.to/lastmile_qr_scan"}, "lon": -77.0222985, "type": "electric_scooter", "fusion_lat": 0.0, "lat": 38.891904833333335, "name": "38d4c5b5d690734c3f68272b37d73668", "fusion_lon": 0.0, "bike_id": "38d4c5b5d690734c3f68272b37d73668", "is_disabled": 0, "is_reserved": 0}, {"rental_uris": {"ios": "https://dc.lft.to/lastmile_qr_scan", "android": "https://dc.lft.to/lastmile_qr_scan"}, "lon": -77.03208983333333, "type": "electric_scooter", "fusion_lat": 0.0, "lat": 38.91106533333333, "name": "20e2c97d33ab9060a9c8f28c4ef18a11", "fusion_lon": 0.0, "bike_id": "20e2c97d33ab9060a9c8f28c4ef18a11", "is_disabled": 0, "is_reserved": 0}, {"rental_uris": {"ios": "https://dc.lft.to/lastmile_qr_scan", "android": "https://dc.lft.to/lastmile_qr_scan"}, "lon": -77.07325866666666, "type": "electric_scooter", "fusion_lat": 0.0, "lat": 38.924949166666664, "name": "1e84ffdab2463b9f74f0e118425ac330", "fusion_lon": 0.0, "bike_id": "1e84ffdab2463b9f74f0e118425ac330", "is_disabled": 0, "is_reserved": 0}, {"rental_uris": {"ios": "https://dc.lft.to/lastmile_qr_scan", "android": "https://dc.lft.to/lastmile_qr_scan"}, "lon": -77.03655816666667, "type": "electric_scooter", "fusion_lat": 0.0, "lat": 38.9292855, "name": "9b843f3614d76c02815b341e8d44817a", "fusion_lon": 0.0, "bike_id": "9b843f3614d76c02815b341e8d44817a", "is_disabled": 0, "is_reserved": 0}, {"rental_uris": {"ios": "https://dc.lft.to/lastmile_qr_scan", "android": "https://dc.lft.to/lastmile_qr_scan"}, "lon": -77.02817216666666, "type": "electric_scooter", "fusion_lat": 0.0, "lat": 38.8965095, "name": "91d8b2fc9fe18ec342df3d9d4a9df2f3", "fusion_lon": 0.0, "bike_id": "91d8b2fc9fe18ec342df3d9d4a9df2f3", "is_disabled": 0, "is_reserved": 0}, {"rental_uris": {"ios": "https://dc.lft.to/lastmile_qr_scan", "android": "https://dc.lft.to/lastmile_qr_scan"}, "lon": -77.07564683333334, "type": "electric_scooter", "fusion_lat": 0.0, "lat": 38.9142615, "name": "cabac2a3733d5500ab12fb2c86d2a737", "fusion_lon": 0.0, "bike_id": "cabac2a3733d5500ab12fb2c86d2a737", "is_disabled": 0, "is_reserved": 0}, {"rental_uris": {"ios": "https://dc.lft.to/lastmile_qr_scan", "android": "https://dc.lft.to/lastmile_qr_scan"}, "lon": -77.01746933333334, "type": "electric_scooter", "fusion_lat": 0.0, "lat": 38.88407, "name": "38b79c8a73a2c26c3dc3c038b1904df1", "fusion_lon": 0.0, "bike_id": "38b79c8a73a2c26c3dc3c038b1904df1", "is_disabled": 0, "is_reserved": 0}, {"rental_uris": {"ios": "https://dc.lft.to/lastmile_qr_scan", "android": "https://dc.lft.to/lastmile_qr_scan"}, "lon": -77.0172545, "type": "electric_scooter", "fusion_lat": 0.0, "lat": 38.90244533333333, "name": "348aca0c8bd4017a3deb1c518bcb6562", "fusion_lon": 0.0, "bike_id": "348aca0c8bd4017a3deb1c518bcb6562", "is_disabled": 0, "is_reserved": 0}, {"rental_uris": {"ios": "https://dc.lft.to/lastmile_qr_scan", "android": "https://dc.lft.to/lastmile_qr_scan"}, "lon": -77.0387525, "type": "electric_scooter", "fusion_lat": 0.0, "lat": 38.93158966666667, "name": "243d54bf96f74c63eec9ec921ccf3263", "fusion_lon": 0.0, "bike_id": "243d54bf96f74c63eec9ec921ccf3263", "is_disabled": 0, "is_reserved": 0}, {"rental_uris": {"ios": "https://dc.lft.to/lastmile_qr_scan", "android": "https://dc.lft.to/lastmile_qr_scan"}, "lon": -76.9888125, "type": "electric_scooter", "fusion_lat": 0.0, "lat": 38.8665815, "name": "383146dfa56a6aeba6ab676a545006bc", "fusion_lon": 0.0, "bike_id": "383146dfa56a6aeba6ab676a545006bc", "is_disabled": 0, "is_reserved": 0}, {"rental_uris": {"ios": "https://dc.lft.to/lastmile_qr_scan", "android": "https://dc.lft.to/lastmile_qr_scan"}, "lon": -77.01391266666667, "type": "electric_scooter", "fusion_lat": 0.0, "lat": 38.91942133333333, "name": "31fae5e8d3ac9f3ce9d0a59b61b79e59", "fusion_lon": 0.0, "bike_id": "31fae5e8d3ac9f3ce9d0a59b61b79e59", "is_disabled": 0, "is_reserved": 0}, {"rental_uris": {"ios": "https://dc.lft.to/lastmile_qr_scan", "android": "https://dc.lft.to/lastmile_qr_scan"}, "lon": -77.03892466666667, "type": "electric_scooter", "fusion_lat": 0.0, "lat": 38.921861666666665, "name": "3dd466595d2350b77035499c034e89a6", "fusion_lon": 0.0, "bike_id": "3dd466595d2350b77035499c034e89a6", "is_disabled": 0, "is_reserved": 0}, {"rental_uris": {"ios": "https://dc.lft.to/lastmile_qr_scan", "android": "https://dc.lft.to/lastmile_qr_scan"}, "lon": -76.97708266666666, "type": "electric_scooter", "fusion_lat": 0.0, "lat": 38.902527, "name": "0f4116eb145e9ab428d7fdb2c894ce92", "fusion_lon": 0.0, "bike_id": "0f4116eb145e9ab428d7fdb2c894ce92", "is_disabled": 0, "is_reserved": 0}, {"rental_uris": {"ios": "https://dc.lft.to/lastmile_qr_scan", "android": "https://dc.lft.to/lastmile_qr_scan"}, "lon": -77.0468795, "type": "electric_scooter", "fusion_lat": 0.0, "lat": 38.8960215, "name": "9359ae38f5e5302ab54e58363b4bd661", "fusion_lon": 0.0, "bike_id": "9359ae38f5e5302ab54e58363b4bd661", "is_disabled": 0, "is_reserved": 0}, {"rental_uris": {"ios": "https://dc.lft.to/lastmile_qr_scan", "android": "https://dc.lft.to/lastmile_qr_scan"}, "lon": -77.032222, "type": "electric_scooter", "fusion_lat": 0.0, "lat": 38.908635833333335, "name": "5af01f087a961cd4d6b21d3bdcf84a75", "fusion_lon": 0.0, "bike_id": "5af01f087a961cd4d6b21d3bdcf84a75", "is_disabled": 0, "is_reserved": 0}, {"rental_uris": {"ios": "https://dc.lft.to/lastmile_qr_scan", "android": "https://dc.lft.to/lastmile_qr_scan"}, "lon": -77.01058133333333, "type": "electric_scooter", "fusion_lat": 0.0, "lat": 38.87579483333333, "name": "1f9c843f38031360c6596a596c8b9009", "fusion_lon": 0.0, "bike_id": "1f9c843f38031360c6596a596c8b9009", "is_disabled": 0, "is_reserved": 0}, {"rental_uris": {"ios": "https://dc.lft.to/lastmile_qr_scan", "android": "https://dc.lft.to/lastmile_qr_scan"}, "lon": -77.031719, "type": "electric_scooter", "fusion_lat": 0.0, "lat": 38.918053666666665, "name": "ae796154bf639d339a9a83882c861e89", "fusion_lon": 0.0, "bike_id": "ae796154bf639d339a9a83882c861e89", "is_disabled": 0, "is_reserved": 0}, {"rental_uris": {"ios": "https://dc.lft.to/lastmile_qr_scan", "android": "https://dc.lft.to/lastmile_qr_scan"}, "lon": -76.937456, "type": "electric_scooter", "fusion_lat": 0.0, "lat": 38.912865, "name": "36277c001d8af6c1bc75fab7c290a676", "fusion_lon": 0.0, "bike_id": "36277c001d8af6c1bc75fab7c290a676", "is_disabled": 0, "is_reserved": 0}, {"rental_uris": {"ios": "https://dc.lft.to/lastmile_qr_scan", "android": "https://dc.lft.to/lastmile_qr_scan"}, "lon": -77.0328605, "type": "electric_scooter", "fusion_lat": 0.0, "lat": 38.934824666666664, "name": "795b206332b530e1cf488dddd68d6de6", "fusion_lon": 0.0, "bike_id": "795b206332b530e1cf488dddd68d6de6", "is_disabled": 0, "is_reserved": 0}, {"rental_uris": {"ios": "https://dc.lft.to/lastmile_qr_scan", "android": "https://dc.lft.to/lastmile_qr_scan"}, "lon": -77.04249116666666, "type": "electric_scooter", "fusion_lat": 0.0, "lat": 38.92058866666667, "name": "1d99279a51b0ff2e435f40e195fe44b7", "fusion_lon": 0.0, "bike_id": "1d99279a51b0ff2e435f40e195fe44b7", "is_disabled": 0, "is_reserved": 0}, {"rental_uris": {"ios": "https://dc.lft.to/lastmile_qr_scan", "android": "https://dc.lft.to/lastmile_qr_scan"}, "lon": -77.03355016666667, "type": "electric_scooter", "fusion_lat": 0.0, "lat": 38.91721533333333, "name": "35b5eb2906ce15651798574337c3ba4e", "fusion_lon": 0.0, "bike_id": "35b5eb2906ce15651798574337c3ba4e", "is_disabled": 0, "is_reserved": 0}, {"rental_uris": {"ios": "https://dc.lft.to/lastmile_qr_scan", "android": "https://dc.lft.to/lastmile_qr_scan"}, "lon": -77.02232366666667, "type": "electric_scooter", "fusion_lat": 0.0, "lat": 38.89192466666667, "name": "cd96348bbd915970678c7f3c562eef39", "fusion_lon": 0.0, "bike_id": "cd96348bbd915970678c7f3c562eef39", "is_disabled": 0, "is_reserved": 0}, {"rental_uris": {"ios": "https://dc.lft.to/lastmile_qr_scan", "android": "https://dc.lft.to/lastmile_qr_scan"}, "lon": -77.09664666666667, "type": "electric_scooter", "fusion_lat": 0.0, "lat": 38.91767866666667, "name": "271da5572a687b4101e9ad3d0d86858a", "fusion_lon": 0.0, "bike_id": "271da5572a687b4101e9ad3d0d86858a", "is_disabled": 0, "is_reserved": 0}, {"rental_uris": {"ios": "https://dc.lft.to/lastmile_qr_scan", "android": "https://dc.lft.to/lastmile_qr_scan"}, "lon": -77.03554266666667, "type": "electric_scooter", "fusion_lat": 0.0, "lat": 38.908380333333334, "name": "80f7cccde80189d10155d5cfcb565dc9", "fusion_lon": 0.0, "bike_id": "80f7cccde80189d10155d5cfcb565dc9", "is_disabled": 0, "is_reserved": 0}, {"rental_uris": {"ios": "https://dc.lft.to/lastmile_qr_scan", "android": "https://dc.lft.to/lastmile_qr_scan"}, "lon": -77.03192616666666, "type": "electric_scooter", "fusion_lat": 0.0, "lat": 38.899482666666664, "name": "ae142be194dcc9e55836a0c6f183ca3c", "fusion_lon": 0.0, "bike_id": "ae142be194dcc9e55836a0c6f183ca3c", "is_disabled": 0, "is_reserved": 0}, {"rental_uris": {"ios": "https://dc.lft.to/lastmile_qr_scan", "android": "https://dc.lft.to/lastmile_qr_scan"}, "lon": -76.98878616666667, "type": "electric_scooter", "fusion_lat": 0.0, "lat": 38.8322615, "name": "6645aea66df5a5f4928bbde041cb2608", "fusion_lon": 0.0, "bike_id": "6645aea66df5a5f4928bbde041cb2608", "is_disabled": 0, "is_reserved": 0}, {"rental_uris": {"ios": "https://dc.lft.to/lastmile_qr_scan", "android": "https://dc.lft.to/lastmile_qr_scan"}, "lon": -77.03182266666667, "type": "electric_scooter", "fusion_lat": 0.0, "lat": 38.908462, "name": "a2677727ff628a61b93943911f250da7", "fusion_lon": 0.0, "bike_id": "a2677727ff628a61b93943911f250da7", "is_disabled": 0, "is_reserved": 0}, {"rental_uris": {"ios": "https://dc.lft.to/lastmile_qr_scan", "android": "https://dc.lft.to/lastmile_qr_scan"}, "lon": -77.02672916666667, "type": "electric_scooter", "fusion_lat": 0.0, "lat": 38.91692466666667, "name": "b58da64e73991d200e786490c6f309a2", "fusion_lon": 0.0, "bike_id": "b58da64e73991d200e786490c6f309a2", "is_disabled": 0, "is_reserved": 0}, {"rental_uris": {"ios": "https://dc.lft.to/lastmile_qr_scan", "android": "https://dc.lft.to/lastmile_qr_scan"}, "lon": -77.0168955, "type": "electric_bike", "fusion_lat": 0.0, "lat": 38.9751785, "name": "4455fffef5224186e97e57de9771d0b7", "fusion_lon": 0.0, "bike_id": "4455fffef5224186e97e57de9771d0b7", "is_disabled": 0, "is_reserved": 0}, {"rental_uris": {"ios": "https://dc.lft.to/lastmile_qr_scan", "android": "https://dc.lft.to/lastmile_qr_scan"}, "lon": -76.99276233333333, "type": "electric_scooter", "fusion_lat": 0.0, "lat": 38.921341166666664, "name": "719236d1337ccbdc5d3b13d5c3ae1276", "fusion_lon": 0.0, "bike_id": "719236d1337ccbdc5d3b13d5c3ae1276", "is_disabled": 0, "is_reserved": 0}, {"rental_uris": {"ios": "https://dc.lft.to/lastmile_qr_scan", "android": "https://dc.lft.to/lastmile_qr_scan"}, "lon": -77.06400416666666, "type": "electric_bike", "fusion_lat": 0.0, "lat": 38.84345016666666, "name": "4fd316af8760f25a7b6aed22ce5b404b", "fusion_lon": 0.0, "bike_id": "4fd316af8760f25a7b6aed22ce5b404b", "is_disabled": 0, "is_reserved": 0}, {"rental_uris": {"ios": "https://dc.lft.to/lastmile_qr_scan", "android": "https://dc.lft.to/lastmile_qr_scan"}, "lon": -77.0537435, "type": "electric_scooter", "fusion_lat": 0.0, "lat": 38.9025705, "name": "e5b9b7f9e69cadb0887c7fdcbbd38e20", "fusion_lon": 0.0, "bike_id": "e5b9b7f9e69cadb0887c7fdcbbd38e20", "is_disabled": 0, "is_reserved": 0}, {"rental_uris": {"ios": "https://dc.lft.to/lastmile_qr_scan", "android": "https://dc.lft.to/lastmile_qr_scan"}, "lon": -77.00853533333333, "type": "electric_scooter", "fusion_lat": 0.0, "lat": 38.925926833333335, "name": "b202c9686027fc182bdb397b7466c362", "fusion_lon": 0.0, "bike_id": "b202c9686027fc182bdb397b7466c362", "is_disabled": 0, "is_reserved": 0}, {"rental_uris": {"ios": "https://dc.lft.to/lastmile_qr_scan", "android": "https://dc.lft.to/lastmile_qr_scan"}, "lon": -76.9379205, "type": "electric_scooter", "fusion_lat": 0.0, "lat": 38.912851, "name": "ea9ecd99ad1fef44671f848ffd8e0079", "fusion_lon": 0.0, "bike_id": "ea9ecd99ad1fef44671f848ffd8e0079", "is_disabled": 0, "is_reserved": 0}, {"rental_uris": {"ios": "https://dc.lft.to/lastmile_qr_scan", "android": "https://dc.lft.to/lastmile_qr_scan"}, "lon": -76.97889366666666, "type": "electric_scooter", "fusion_lat": 0.0, "lat": 38.91673083333333, "name": "647c385c8a6eced28de92743cdfb0bd3", "fusion_lon": 0.0, "bike_id": "647c385c8a6eced28de92743cdfb0bd3", "is_disabled": 0, "is_reserved": 0}, {"rental_uris": {"ios": "https://dc.lft.to/lastmile_qr_scan", "android": "https://dc.lft.to/lastmile_qr_scan"}, "lon": -76.98763716666667, "type": "electric_scooter", "fusion_lat": 0.0, "lat": 38.91172266666667, "name": "eda47f49e634977727cfc75a1a96b0f1", "fusion_lon": 0.0, "bike_id": "eda47f49e634977727cfc75a1a96b0f1", "is_disabled": 0, "is_reserved": 0}, {"rental_uris": {"ios": "https://dc.lft.to/lastmile_qr_scan", "android": "https://dc.lft.to/lastmile_qr_scan"}, "lon": -77.0513325, "type": "electric_scooter", "fusion_lat": 0.0, "lat": 38.902289, "name": "2282e9241c89a7a7b7e62aaf539e5929", "fusion_lon": 0.0, "bike_id": "2282e9241c89a7a7b7e62aaf539e5929", "is_disabled": 0, "is_reserved": 0}, {"rental_uris": {"ios": "https://dc.lft.to/lastmile_qr_scan", "android": "https://dc.lft.to/lastmile_qr_scan"}, "lon": -77.0836845, "type": "electric_scooter", "fusion_lat": 0.0, "lat": 38.93031333333333, "name": "9176628ce842678ca2adf2911583ea96", "fusion_lon": 0.0, "bike_id": "9176628ce842678ca2adf2911583ea96", "is_disabled": 0, "is_reserved": 0}, {"rental_uris": {"ios": "https://dc.lft.to/lastmile_qr_scan", "android": "https://dc.lft.to/lastmile_qr_scan"}, "lon": -77.12742983333334, "type": "electric_bike", "fusion_lat": 0.0, "lat": 38.888179, "name": "8ae5b00730d0059960501aff6e215f76", "fusion_lon": 0.0, "bike_id": "8ae5b00730d0059960501aff6e215f76", "is_disabled": 0, "is_reserved": 0}, {"rental_uris": {"ios": "https://dc.lft.to/lastmile_qr_scan", "android": "https://dc.lft.to/lastmile_qr_scan"}, "lon": -77.04963683333334, "type": "electric_scooter", "fusion_lat": 0.0, "lat": 38.896496166666665, "name": "6256a48fef336d215da2fcafa50eb373", "fusion_lon": 0.0, "bike_id": "6256a48fef336d215da2fcafa50eb373", "is_disabled": 0, "is_reserved": 0}, {"rental_uris": {"ios": "https://dc.lft.to/lastmile_qr_scan", "android": "https://dc.lft.to/lastmile_qr_scan"}, "lon": -76.99540916666666, "type": "electric_scooter", "fusion_lat": 0.0, "lat": 38.92666466666667, "name": "33a994a13c8c390fe571dfe87e6a72fc", "fusion_lon": 0.0, "bike_id": "33a994a13c8c390fe571dfe87e6a72fc", "is_disabled": 0, "is_reserved": 0}, {"rental_uris": {"ios": "https://dc.lft.to/lastmile_qr_scan", "android": "https://dc.lft.to/lastmile_qr_scan"}, "lon": -77.017559, "type": "electric_scooter", "fusion_lat": 0.0, "lat": 38.93890783333333, "name": "798cfbc7e644db873b160d773d6c701e", "fusion_lon": 0.0, "bike_id": "798cfbc7e644db873b160d773d6c701e", "is_disabled": 0, "is_reserved": 0}, {"rental_uris": {"ios": "https://dc.lft.to/lastmile_qr_scan", "android": "https://dc.lft.to/lastmile_qr_scan"}, "lon": -77.05100033333333, "type": "electric_scooter", "fusion_lat": 0.0, "lat": 38.905094166666665, "name": "1b8ebcea37579c4c2e8e09598f4a69f1", "fusion_lon": 0.0, "bike_id": "1b8ebcea37579c4c2e8e09598f4a69f1", "is_disabled": 0, "is_reserved": 0}, {"rental_uris": {"ios": "https://dc.lft.to/lastmile_qr_scan", "android": "https://dc.lft.to/lastmile_qr_scan"}, "lon": -77.0463635, "type": "electric_scooter", "fusion_lat": 0.0, "lat": 38.91568816666667, "name": "73346f43362daa283f6f11a677c67174", "fusion_lon": 0.0, "bike_id": "73346f43362daa283f6f11a677c67174", "is_disabled": 0, "is_reserved": 0}, {"rental_uris": {"ios": "https://dc.lft.to/lastmile_qr_scan", "android": "https://dc.lft.to/lastmile_qr_scan"}, "lon": -77.02714783333333, "type": "electric_scooter", "fusion_lat": 0.0, "lat": 38.92481266666667, "name": "6f821f7d07c5a36d0f2ff70b14c31181", "fusion_lon": 0.0, "bike_id": "6f821f7d07c5a36d0f2ff70b14c31181", "is_disabled": 0, "is_reserved": 0}, {"rental_uris": {"ios": "https://dc.lft.to/lastmile_qr_scan", "android": "https://dc.lft.to/lastmile_qr_scan"},