{"data": {"bikes": [{"lat": 38.89205116666667, "is_disabled": 0, "type": "electric_scooter", "lon": -76.9856505, "bike_id": "697850859b44761bb753eaaf70ab02be", "fusion_lat": 0.0, "name": "697850859b44761bb753eaaf70ab02be", "is_reserved": 0, "rental_uris": {"android": "https://dc.lft.to/lastmile_qr_scan", "ios": "https://dc.lft.to/lastmile_qr_scan"}, "fusion_lon": 0.0}, {"lat": 38.93863483333333, "is_disabled": 0, "type": "electric_scooter", "lon": -77.03097616666666, "bike_id": "b37e4756f99294151dd09ff712200c96", "fusion_lat": 0.0, "name": "b37e4756f99294151dd09ff712200c96", "is_reserved": 0, "rental_uris": {"android": "https://dc.lft.to/lastmile_qr_scan", "ios": "https://dc.lft.to/lastmile_qr_scan"}, "fusion_lon": 0.0}, {"lat": 38.9131485, "is_disabled": 0, "type": "electric_scooter", "lon": -76.98643333333334, "bike_id": "6d58bda45b1ce4b23f67a2b100f8c65b", "fusion_lat": 0.0, "name": "6d58bda45b1ce4b23f67a2b100f8c65b", "is_reserved": 0, "rental_uris": {"android": "https://dc.lft.to/lastmile_qr_scan", "ios": "https://dc.lft.to/lastmile_qr_scan"}, "fusion_lon": 0.0}, {"lat": 39.024258, "is_disabled": 0, "type": "electric_bike", "lon": -77.1310125, "bike_id": "0990daed5fc998ab94b3f4aaa8b30bb1", "fusion_lat": 0.0, "name": "0990daed5fc998ab94b3f4aaa8b30bb1", "is_reserved": 0, "rental_uris": {"android": "https://dc.lft.to/lastmile_qr_scan", "ios": "https://dc.lft.to/lastmile_qr_scan"}, "fusion_lon": 0.0}, {"lat": 38.91745916666667, "is_disabled": 0, "type": "electric_scooter", "lon": -77.031927, "bike_id": "15d80d8773908ef07797207ca8fd2b8f", "fusion_lat": 0.0, "name": "15d80d8773908ef07797207ca8fd2b8f", "is_reserved": 0, "rental_uris": {"android": "https://dc.lft.to/lastmile_qr_scan", "ios": "https://dc.lft.to/lastmile_qr_scan"}, "fusion_lon": 0.0}, {"lat": 38.907220333333335, "is_disabled": 0, "type": "electric_scooter", "lon": -77.02977533333333, "bike_id": "ed7cc193d69427e22372f6af3868b757", "fusion_lat": 0.0, "name": "ed7cc193d69427e22372f6af3868b757", "is_reserved": 0, "rental_uris": {"android": "https://dc.lft.to/lastmile_qr_scan", "ios": "https://dc.lft.to/lastmile_qr_scan"}, "fusion_lon": 0.0}, {"lat": 38.901118333333336, "is_disabled": 0, "type": "electric_scooter", "lon": -77.03180783333333, "bike_id": "14bcbede33cfdb4a77c8806bcb9772c5", "fusion_lat": 0.0, "name": "14bcbede33cfdb4a77c8806bcb9772c5", "is_reserved": 0, "rental_uris": {"android": "https://dc.lft.to/lastmile_qr_scan", "ios": "https://dc.lft.to/lastmile_qr_scan"}, "fusion_lon": 0.0}, {"lat": 39.03041183333333, "is_disabled": 0, "type": "electric_bike", "lon": -77.09481866666667, "bike_id": "90f7f925d88f4b41c8d4bad27c6a251f", "fusion_lat": 0.0, "name": "90f7f925d88f4b41c8d4bad27c6a251f", "is_reserved": 0, "rental_uris": {"android": "https://dc.lft.to/lastmile_qr_scan", "ios": "https://dc.lft.to/lastmile_qr_scan"}, "fusion_lon": 0.0}, {"lat": 38.949779666666664, "is_disabled": 0, "type": "electric_scooter", "lon": -77.06561183333334, "bike_id": "2e666349d157cb151d6bde124b0546fb", "fusion_lat": 0.0, "name": "2e666349d157cb151d6bde124b0546fb", "is_reserved": 0, "rental_uris": {"android": "https://dc.lft.to/lastmile_qr_scan", "ios": "https://dc.lft.to/lastmile_qr_scan"}, "fusion_lon": 0.0}, {"lat": 38.998147833333334, "is_disabled": 0, "type": "electric_bike", "lon": -76.88375733333334, "bike_id": "48c780e8d56fc581f9bf75c62f5cddf7", "fusion_lat": 0.0, "name": "48c780e8d56fc581f9bf75c62f5cddf7", "is_reserved": 0, "rental_uris": {"android": "https://dc.lft.to/lastmile_qr_scan", "ios": "https://dc.lft.to/lastmile_qr_scan"}, "fusion_lon": 0.0}, {"lat": 38.92259966666667, "is_disabled": 0, "type": "electric_scooter", "lon": -77.07469816666666, "bike_id": "56e6c574b7b82d7ede14a125ddd33946", "fusion_lat": 0.0, "name": "56e6c574b7b82d7ede14a125ddd33946", "is_reserved": 0, "rental_uris": {"android": "https://dc.lft.to/lastmile_qr_scan", "ios": "https://dc.lft.to/lastmile_qr_scan"}, "fusion_lon": 0.0}, {"lat": 38.90141066666666, "is_disabled": 0, "type": "electric_scooter", "lon": -77.02895683333334, "bike_id": "1038bb202d4029265c098c2d047a6d4b", "fusion_lat": 0.0, "name": "1038bb202d4029265c098c2d047a6d4b", "is_reserved": 0, "rental_uris": {"android": "https://dc.lft.to/lastmile_qr_scan", "ios": "https://dc.lft.to/lastmile_qr_scan"}, "fusion_lon": 0.0}, {"lat": 38.917024, "is_disabled": 0, "type": "electric_scooter", "lon": -77.02729433333333, "bike_id": "875f7ac94dc6bb945ebbed1e226b3c66", "fusion_lat": 0.0, "name": "875f7ac94dc6bb945ebbed1e226b3c66", "is_reserved": 0, "rental_uris": {"android": "https://dc.lft.to/lastmile_qr_scan", "ios": "https://dc.lft.to/lastmile_qr_scan"}, "fusion_lon": 0.0}, {"lat": 38.8766605, "is_disabled": 0, "type": "electric_scooter", "lon": -77.00892316666666, "bike_id": "d7fc8e143b1bfde5ed1113e72ce47989", "fusion_lat": 0.0, "name": "d7fc8e143b1bfde5ed1113e72ce47989", "is_reserved": 0, "rental_uris": {"android": "https://dc.lft.to/lastmile_qr_scan", "ios": "https://dc.lft.to/lastmile_qr_scan"}, "fusion_lon": 0.0}, {"lat": 38.898287, "is_disabled": 0, "type": "electric_scooter", "lon": -76.931017, "bike_id": "998e9924202e8835dd375af1dec768d5", "fusion_lat": 0.0, "name": "998e9924202e8835dd375af1dec768d5", "is_reserved": 0, "rental_uris": {"android": "https://dc.lft.to/lastmile_qr_scan", "ios": "https://dc.lft.to/lastmile_qr_scan"}, "fusion_lon": 0.0}, {"lat": 38.90688166666666, "is_disabled": 0, "type": "electric_scooter", "lon": -77.05827983333333, "bike_id": "8cd0cd08dd477ad5a545a4e30a7166b2", "fusion_lat": 0.0, "name": "8cd0cd08dd477ad5a545a4e30a7166b2", "is_reserved": 0, "rental_uris": {"android": "https://dc.lft.to/lastmile_qr_scan", "ios": "https://dc.lft.to/lastmile_qr_scan"}, "fusion_lon": 0.0}, {"lat": 38.90311233333333, "is_disabled": 0, "type": "electric_scooter", "lon": -76.98995633333334, "bike_id": "0bfc0f3b37b557cd702c2391993fc602", "fusion_lat": 0.0, "name": "0bfc0f3b37b557cd702c2391993fc602", "is_reserved": 0, "rental_uris": {"android": "https://dc.lft.to/lastmile_qr_scan", "ios": "https://dc.lft.to/lastmile_qr_scan"}, "fusion_lon": 0.0}, {"lat": 38.96927866666667, "is_disabled": 0, "type": "electric_bike", "lon": -77.026177, "bike_id": "d479de8d5f1e99b31c6839dd1c87eeb5", "fusion_lat": 0.0, "name": "d479de8d5f1e99b31c6839dd1c87eeb5", "is_reserved": 0, "rental_uris": {"android": "https://dc.lft.to/lastmile_qr_scan", "ios": "https://dc.lft.to/lastmile_qr_scan"}, "fusion_lon": 0.0}, {"lat": 38.92077716666667, "is_disabled": 0, "type": "electric_bike", "lon": -76.99185683333333, "bike_id": "8156bcdde5c5c5df7a6b33439409e5d7", "fusion_lat": 0.0, "name": "8156bcdde5c5c5df7a6b33439409e5d7", "is_reserved": 0, "rental_uris": {"android": "https://dc.lft.to/lastmile_qr_scan", "ios": "https://dc.lft.to/lastmile_qr_scan"}, "fusion_lon": 0.0}, {"lat": 38.904520166666664, "is_disabled": 0, "type": "electric_scooter", "lon": -76.994595, "bike_id": "14263099a529e60bde4ebccd48300009", "fusion_lat": 0.0, "name": "14263099a529e60bde4ebccd48300009", "is_reserved": 0, "rental_uris": {"android": "https://dc.lft.to/lastmile_qr_scan", "ios": "https://dc.lft.to/lastmile_qr_scan"}, "fusion_lon": 0.0}, {"lat": 38.90607383333333, "is_disabled": 0, "type": "electric_scooter", "lon": -77.063495, "bike_id": "869270e086328af85b9d320023121bca", "fusion_lat": 0.0, "name": "869270e086328af85b9d320023121bca", "is_reserved": 0, "rental_uris": {"android": "https://dc.lft.to/lastmile_qr_scan", "ios": "https://dc.lft.to/lastmile_qr_scan"}, "fusion_lon": 0.0}, {"lat": 38.905567166666664, "is_disabled": 0, "type": "electric_scooter", "lon": -77.0342505, "bike_id": "a0eaddbea53d52bd9fd2384b20377878", "fusion_lat": 0.0, "name": "a0eaddbea53d52bd9fd2384b20377878", "is_reserved": 0, "rental_uris": {"android": "https://dc.lft.to/lastmile_qr_scan", "ios": "https://dc.lft.to/lastmile_qr_scan"}, "fusion_lon": 0.0}, {"lat": 38.93360633333333, "is_disabled": 0, "type": "electric_scooter", "lon": -77.057501, "bike_id": "51b2ca0032640fbcdef3912bb334efbf", "fusion_lat": 0.0, "name": "51b2ca0032640fbcdef3912bb334efbf", "is_reserved": 0, "rental_uris": {"android": "https://dc.lft.to/lastmile_qr_scan", "ios": "https://dc.lft.to/lastmile_qr_scan"}, "fusion_lon": 0.0}, {"lat": 38.93092933333333, "is_disabled": 0, "type": "electric_scooter", "lon": -77.025556, "bike_id": "167f7ecf122aeaa024bc6574b3c99014", "fusion_lat": 0.0, "name": "167f7ecf122aeaa024bc6574b3c99014", "is_reserved": 0, "rental_uris": {"android": "https://dc.lft.to/lastmile_qr_scan", "ios": "https://dc.lft.to/lastmile_qr_scan"}, "fusion_lon": 0.0}, {"lat": 38.9086285, "is_disabled": 0, "type": "electric_bike", "lon": -76.93158616666666, "bike_id": "86ecd06117f95e3608c004414e4ae0d8", "fusion_lat": 0.0, "name": "86ecd06117f95e3608c004414e4ae0d8", "is_reserved": 0, "rental_uris": {"android": "https://dc.lft.to/lastmile_qr_scan", "ios": "https://dc.lft.to/lastmile_qr_scan"}, "fusion_lon": 0.0}, {"lat": 38.8924895, "is_disabled": 0, "type": "electric_scooter", "lon": -77.04894833333333, "bike_id": "3c90057932663c726b7770d831e46311", "fusion_lat": 0.0, "name": "3c90057932663c726b7770d831e46311", "is_reserved": 0, "rental_uris": {"android": "https://dc.lft.to/lastmile_qr_scan", "ios": "https://dc.lft.to/lastmile_qr_scan"}, "fusion_lon": 0.0}, {"lat": 38.929736166666665, "is_disabled": 0, "type": "electric_scooter", "lon": -77.01301316666667, "bike_id": "9aee66531ffadeeabdb36fba0dd73d31", "fusion_lat": 0.0, "name": "9aee66531ffadeeabdb36fba0dd73d31", "is_reserved": 0, "rental_uris": {"android": "https://dc.lft.to/lastmile_qr_scan", "ios": "https://dc.lft.to/lastmile_qr_scan"}, "fusion_lon": 0.0}, {"lat": 38.90640716666667, "is_disabled": 0, "type": "electric_scooter", "lon": -77.03846416666667, "bike_id": "0bf4be8e412bc55aa04e7b8c17959a85", "fusion_lat": 0.0, "name": "0bf4be8e412bc55aa04e7b8c17959a85", "is_reserved": 0, "rental_uris": {"android": "https://dc.lft.to/lastmile_qr_scan", "ios": "https://dc.lft.to/lastmile_qr_scan"}, "fusion_lon": 0.0}, {"lat": 38.917692833333334, "is_disabled": 0, "type": "electric_scooter", "lon": -77.0149355, "bike_id": "9cf19d4a72fb8949b5e0bb300510c0e3", "fusion_lat": 0.0, "name": "9cf19d4a72fb8949b5e0bb300510c0e3", "is_reserved": 0, "rental_uris": {"android": "https://dc.lft.to/lastmile_qr_scan", "ios": "https://dc.lft.to/lastmile_qr_scan"}, "fusion_lon": 0.0}, {"lat": 38.8571575, "is_disabled": 0, "type": "electric_bike", "lon": -76.97130533333333, "bike_id": "4fb2c732eab8293e62105084052a25a1", "fusion_lat": 0.0, "name": "4fb2c732eab8293e62105084052a25a1", "is_reserved": 0, "rental_uris": {"android": "https://dc.lft.to/lastmile_qr_scan", "ios": "https://dc.lft.to/lastmile_qr_scan"}, "fusion_lon": 0.0}, {"lat": 38.871427833333335, "is_disabled": 0, "type": "electric_bike", "lon": -76.937022, "bike_id": "c1f856ba9f027a1a137706801c473c21", "fusion_lat": 0.0, "name": "c1f856ba9f027a1a137706801c473c21", "is_reserved": 0, "rental_uris": {"android": "https://dc.lft.to/lastmile_qr_scan", "ios": "https://dc.lft.to/lastmile_qr_scan"}, "fusion_lon": 0.0}, {"lat": 38.88771083333334, "is_disabled": 0, "type": "electric_scooter", "lon": -77.03320866666667, "bike_id": "234e35e3d0fd019f1b91e04b2862897a", "fusion_lat": 0.0, "name": "234e35e3d0fd019f1b91e04b2862897a", "is_reserved": 0, "rental_uris": {"android": "https://dc.lft.to/lastmile_qr_scan", "ios": "https://dc.lft.to/lastmile_qr_scan"}, "fusion_lon": 0.0}, {"lat": 38.961354166666666, "is_disabled": 0, "type": "electric_scooter", "lon": -77.022336, "bike_id": "5703d824c02e298e5b0bc44933b15748", "fusion_lat": 0.0, "name": "5703d824c02e298e5b0bc44933b15748", "is_reserved": 0, "rental_uris": {"android": "https://dc.lft.to/lastmile_qr_scan", "ios": "https://dc.lft.to/lastmile_qr_scan"}, "fusion_lon": 0.0}, {"lat": 38.916177, "is_disabled": 0, "type": "electric_scooter", "lon": -77.023025, "bike_id": "8baddea1b630f0e3823285b8ee56e93b", "fusion_lat": 0.0, "name": "8baddea1b630f0e3823285b8ee56e93b", "is_reserved": 0, "rental_uris": {"android": "https://dc.lft.to/lastmile_qr_scan", "ios": "https://dc.lft.to/lastmile_qr_scan"}, "fusion_lon": 0.0}, {"lat": 38.922738, "is_disabled": 0, "type": "electric_scooter", "lon": -77.02241833333333, "bike_id": "33db83cad5b86476ab758e64de49be36", "fusion_lat": 0.0, "name": "33db83cad5b86476ab758e64de49be36", "is_reserved": 0, "rental_uris": {"android": "https://dc.lft.to/lastmile_qr_scan", "ios": "https://dc.lft.to/lastmile_qr_scan"}, "fusion_lon": 0.0}, {"lat": 38.90523966666667, "is_disabled": 0, "type": "electric_scooter", "lon": -77.06239833333333, "bike_id": "b4af745b1f78a8376ae53534ffcb32fc", "fusion_lat": 0.0, "name": "b4af745b1f78a8376ae53534ffcb32fc", "is_reserved": 0, "rental_uris": {"android": "https://dc.lft.to/lastmile_qr_scan", "ios": "https://dc.lft.to/lastmile_qr_scan"}, "fusion_lon": 0.0}, {"lat": 38.9332235, "is_disabled": 0, "type": "electric_scooter", "lon": -77.043685, "bike_id": "15853badee69faff4c444fba2d9718fe", "fusion_lat": 0.0, "name": "15853badee69faff4c444fba2d9718fe", "is_reserved": 0, "rental_uris": {"android": "https://dc.lft.to/lastmile_qr_scan", "ios": "https://dc.lft.to/lastmile_qr_scan"}, "fusion_lon": 0.0}, {"lat": 38.919514, "is_disabled": 0, "type": "electric_scooter", "lon": -76.9807355, "bike_id": "05881a845c876432b5bd3df2326efd87", "fusion_lat": 0.0, "name": "05881a845c876432b5bd3df2326efd87", "is_reserved": 0, "rental_uris": {"android": "https://dc.lft.to/lastmile_qr_scan", "ios": "https://dc.lft.to/lastmile_qr_scan"}, "fusion_lon": 0.0}, {"lat": 38.89731316666666, "is_disabled": 0, "type": "electric_scooter", "lon": -77.007754, "bike_id": "8797855a1915cacf38b3926ff4f4f9be", "fusion_lat": 0.0, "name": "8797855a1915cacf38b3926ff4f4f9be", "is_reserved": 0, "rental_uris": {"android": "https://dc.lft.to/lastmile_qr_scan", "ios": "https://dc.lft.to/lastmile_qr_scan"}, "fusion_lon": 0.0}, {"lat": 38.8556055, "is_disabled": 0, "type": "electric_bike", "lon": -77.1113795, "bike_id": "30b44378fb7dee40600eed2679a511f8", "fusion_lat": 0.0, "name": "30b44378fb7dee40600eed2679a511f8", "is_reserved": 0, "rental_uris": {"android": "https://dc.lft.to/lastmile_qr_scan", "ios": "https://dc.lft.to/lastmile_qr_scan"}, "fusion_lon": 0.0}, {"lat": 38.933198, "is_disabled": 0, "type": "electric_scooter", "lon": -77.045256, "bike_id": "89820440ec69c7e5b0f94f0f5622c4db", "fusion_lat": 0.0, "name": "89820440ec69c7e5b0f94f0f5622c4db", "is_reserved": 0, "rental_uris": {"android": "https://dc.lft.to/lastmile_qr_scan", "ios": "https://dc.lft.to/lastmile_qr_scan"}, "fusion_lon": 0.0}, {"lat": 38.94892466666667, "is_disabled": 0, "type": "electric_scooter", "lon": -77.03044716666666, "bike_id": "e5f464f4546be261c09196f085cfc7cd", "fusion_lat": 0.0, "name": "e5f464f4546be261c09196f085cfc7cd", "is_reserved": 0, "rental_uris": {"android": "https://dc.lft.to/lastmile_qr_scan", "ios": "https://dc.lft.to/lastmile_qr_scan"}, "fusion_lon": 0.0}, {"lat": 38.972292, "is_disabled": 0, "type": "electric_bike", "lon": -76.99338883333333, "bike_id": "9e7a02ea3fd6c3ca5d6d4337a8b557b6", "fusion_lat": 0.0, "name": "9e7a02ea3fd6c3ca5d6d4337a8b557b6", "is_reserved": 0, "rental_uris": {"android": "https://dc.lft.to/lastmile_qr_scan", "ios": "https://dc.lft.to/lastmile_qr_scan"}, "fusion_lon": 0.0}, {"lat": 38.90831133333333, "is_disabled": 0, "type": "electric_scooter", "lon": -76.9969055, "bike_id": "f3e66c72ce9fef7304f7f74c72ae9d58", "fusion_lat": 0.0, "name": "f3e66c72ce9fef7304f7f74c72ae9d58", "is_reserved": 0, "rental_uris": {"android": "https://dc.lft.to/lastmile_qr_scan", "ios": "https://dc.lft.to/lastmile_qr_scan"}, "fusion_lon": 0.0}, {"lat": 38.903234, "is_disabled": 0, "type": "electric_scooter", "lon": -77.03791066666666, "bike_id": "714dd13bc8cad568e589017ce9589bf1", "fusion_lat": 0.0, "name": "714dd13bc8cad568e589017ce9589bf1", "is_reserved": 0, "rental_uris": {"android": "https://dc.lft.to/lastmile_qr_scan", "ios": "https://dc.lft.to/lastmile_qr_scan"}, "fusion_lon": 0.0}, {"lat": 38.922341833333334, "is_disabled": 0, "type": "electric_scooter", "lon": -77.045754, "bike_id": "d2686de1f52b755552cba31ec405c8b0", "fusion_lat": 0.0, "name": "d2686de1f52b755552cba31ec405c8b0", "is_reserved": 0, "rental_uris": {"android": "https://dc.lft.to/lastmile_qr_scan", "ios": "https://dc.lft.to/lastmile_qr_scan"}, "fusion_lon": 0.0}, {"lat": 38.90966433333333, "is_disabled": 0, "type": "electric_scooter", "lon": -77.03572233333334, "bike_id": "e8525c714933637b47f53d4cf78d8400", "fusion_lat": 0.0, "name": "e8525c714933637b47f53d4cf78d8400", "is_reserved": 0, "rental_uris": {"android": "https://dc.lft.to/lastmile_qr_scan", "ios": "https://dc.lft.to/lastmile_qr_scan"}, "fusion_lon": 0.0}, {"lat": 38.906905, "is_disabled": 0, "type": "electric_bike", "lon": -77.063664, "bike_id": "e9a3dd40ed7f63aa58ac79069984d9a2", "fusion_lat": 0.0, "name": "e9a3dd40ed7f63aa58ac79069984d9a2", "is_reserved": 0, "rental_uris": {"android": "https://dc.lft.to/lastmile_qr_scan", "ios": "https://dc.lft.to/lastmile_qr_scan"}, "fusion_lon": 0.0}, {"lat": 38.9197475, "is_disabled": 0, "type": "electric_scooter", "lon": -77.02400416666667, "bike_id": "3e2b2357b7166d149db1892c45172a67", "fusion_lat": 0.0, "name": "3e2b2357b7166d149db1892c45172a67", "is_reserved": 0, "rental_uris": {"android": "https://dc.lft.to/lastmile_qr_scan", "ios": "https://dc.lft.to/lastmile_qr_scan"}, "fusion_lon": 0.0}, {"lat": 38.8867835, "is_disabled": 0, "type": "electric_bike", "lon": -77.00210216666666, "bike_id": "5240245028798dcd5a72f18a2be9dd30", "fusion_lat": 0.0, "name": "5240245028798dcd5a72f18a2be9dd30", "is_reserved": 0, "rental_uris": {"android": "https://dc.lft.to/lastmile_qr_scan", "ios": "https://dc.lft.to/lastmile_qr_scan"}, "fusion_lon": 0.0}, {"lat": 38.91989233333334, "is_disabled": 0, "type": "electric_scooter", "lon": -77.03249733333334, "bike_id": "9b407acf971e674c91d9893999d5b1d4", "fusion_lat": 0.0, "name": "9b407acf971e674c91d9893999d5b1d4", "is_reserved": 0, "rental_uris": {"android": "https://dc.lft.to/lastmile_qr_scan", "ios": "https://dc.lft.to/lastmile_qr_scan"}, "fusion_lon": 0.0}, {"lat": 38.86379866666667, "is_disabled": 0, "type": "electric_scooter", "lon": -76.99252533333333, "bike_id": "0dba13124c8eeae99c2ae104782143a4", "fusion_lat": 0.0, "name": "0dba13124c8eeae99c2ae104782143a4", "is_reserved": 0, "rental_uris": {"android": "https://dc.lft.to/lastmile_qr_scan", "ios": "https://dc.lft.to/lastmile_qr_scan"}, "fusion_lon": 0.0}, {"lat": 38.91691133333333, "is_disabled": 0, "type": "electric_scooter", "lon": -77.02599983333333, "bike_id": "c53ec7434a93293616421fc55468290b", "fusion_lat": 0.0, "name": "c53ec7434a93293616421fc55468290b", "is_reserved": 0, "rental_uris": {"android": "https://dc.lft.to/lastmile_qr_scan", "ios": "https://dc.lft.to/lastmile_qr_scan"}, "fusion_lon": 0.0}, {"lat": 38.94305683333333, "is_disabled": 0, "type": "electric_scooter", "lon": -77.0592635, "bike_id": "7dd8c40f276203dd859e8e044c0123cb", "fusion_lat": 0.0, "name": "7dd8c40f276203dd859e8e044c0123cb", "is_reserved": 0, "rental_uris": {"android": "https://dc.lft.to/lastmile_qr_scan", "ios": "https://dc.lft.to/lastmile_qr_scan"}, "fusion_lon": 0.0}, {"lat": 38.978357, "is_disabled": 0, "type": "electric_bike", "lon": -77.02648066666667, "bike_id": "00ac74a8b3165e7edd25ab597fd51b70", "fusion_lat": 0.0, "name": "00ac74a8b3165e7edd25ab597fd51b70", "is_reserved": 0, "rental_uris": {"android": "https://dc.lft.to/lastmile_qr_scan", "ios": "https://dc.lft.to/lastmile_qr_scan"}, "fusion_lon": 0.0}, {"lat": 38.85450566666667, "is_disabled": 0, "type": "electric_scooter", "lon": -76.97224416666667, "bike_id": "822c5d5a2f9bc0210e39d138ca9ee1d3", "fusion_lat": 0.0, "name": "822c5d5a2f9bc0210e39d138ca9ee1d3", "is_reserved": 0, "rental_uris": {"android": "https://dc.lft.to/lastmile_qr_scan", "ios": "https://dc.lft.to/lastmile_qr_scan"}, "fusion_lon": 0.0}, {"lat": 38.896686833333334, "is_disabled": 0, "type": "electric_bike", "lon": -77.0925315, "bike_id": "bd5f21da23aaf3e033ede94f79f2571a", "fusion_lat": 0.0, "name": "bd5f21da23aaf3e033ede94f79f2571a", "is_reserved": 0, "rental_uris": {"android": "https://dc.lft.to/lastmile_qr_scan", "ios": "https://dc.lft.to/lastmile_qr_scan"}, "fusion_lon": 0.0}, {"lat": 38.92359, "is_disabled": 0, "type": "electric_scooter", "lon": -77.04382116666666, "bike_id": "2580e4059271dfb7737c32f30a28f85e", "fusion_lat": 0.0, "name": "2580e4059271dfb7737c32f30a28f85e", "is_reserved": 0, "rental_uris": {"android": "https://dc.lft.to/lastmile_qr_scan", "ios": "https://dc.lft.to/lastmile_qr_scan"}, "fusion_lon": 0.0}, {"lat": 38.926729, "is_disabled": 0, "type": "electric_scooter", "lon": -77.01502933333333, "bike_id": "c83a1c531d9e6fe5c25276e2319a11e2", "fusion_lat": 0.0, "name": "c83a1c531d9e6fe5c25276e2319a11e2", "is_reserved": 0, "rental_uris": {"android": "https://dc.lft.to/lastmile_qr_scan", "ios": "https://dc.lft.to/lastmile_qr_scan"}, "fusion_lon": 0.0}, {"lat": 38.9338375, "is_disabled": 0, "type": "electric_scooter", "lon": -77.03251533333334, "bike_id": "93dbaedf553ba0f8f5b01509fd24f202", "fusion_lat": 0.0, "name": "93dbaedf553ba0f8f5b01509fd24f202", "is_reserved": 0, "rental_uris": {"android": "https://dc.lft.to/lastmile_qr_scan", "ios": "https://dc.lft.to/lastmile_qr_scan"}, "fusion_lon": 0.0}, {"lat": 38.914163333333335, "is_disabled": 0, "type": "electric_scooter", "lon": -77.02944433333333, "bike_id": "cec45b4d09d7955fc27b016653cf11a4", "fusion_lat": 0.0, "name": "cec45b4d09d7955fc27b016653cf11a4", "is_reserved": 0, "rental_uris": {"android": "https://dc.lft.to/lastmile_qr_scan", "ios": "https://dc.lft.to/lastmile_qr_scan"}, "fusion_lon": 0.0}, {"lat": 38.90264033333333, "is_disabled": 0, "type": "electric_scooter", "lon": -77.03630316666667, "bike_id": "751fd7e54239989139b399ffcf3f7068", "fusion_lat": 0.0, "name": "751fd7e54239989139b399ffcf3f7068", "is_reserved": 0, "rental_uris": {"android": "https://dc.lft.to/lastmile_qr_scan", "ios": "https://dc.lft.to/lastmile_qr_scan"}, "fusion_lon": 0.0}, {"lat": 38.90269516666667, "is_disabled": 0, "type": "electric_scooter", "lon": -77.043991, "bike_id": "ae46b1d48df9ec75d41e46f37fc9c49c", "fusion_lat": 0.0, "name": "ae46b1d48df9ec75d41e46f37fc9c49c", "is_reserved": 0, "rental_uris": {"android": "https://dc.lft.to/lastmile_qr_scan", "ios": "https://dc.lft.to/lastmile_qr_scan"}, "fusion_lon": 0.0}, {"lat": 38.92252033333333, "is_disabled": 0, "type": "electric_scooter", "lon": -77.02343583333334, "bike_id": "b452ef8a95ccfbff4455ed05432cb398", "fusion_lat": 0.0, "name": "b452ef8a95ccfbff4455ed05432cb398", "is_reserved": 0, "rental_uris": {"android": "https://dc.lft.to/lastmile_qr_scan", "ios": "https://dc.lft.to/lastmile_qr_scan"}, "fusion_lon": 0.0}, {"lat": 38.927296, "is_disabled": 0, "type": "electric_scooter", "lon": -77.02248333333333, "bike_id": "a54e30ae5e6fd3e0c17c9e6d38c3f0de", "fusion_lat": 0.0, "name": "a54e30ae5e6fd3e0c17c9e6d38c3f0de", "is_reserved": 0, "rental_uris": {"android": "https://dc.lft.to/lastmile_qr_scan", "ios": "https://dc.lft.to/lastmile_qr_scan"}, "fusion_lon": 0.0}, {"lat": 38.913229, "is_disabled": 0, "type": "electric_scooter", "lon": -77.04481983333334, "bike_id": "fa2f0f89f5c69fc6a3471afd8dbb913c", "fusion_lat": 0.0, "name": "fa2f0f89f5c69fc6a3471afd8dbb913c", "is_reserved": 0, "rental_uris": {"android": "https://dc.lft.to/lastmile_qr_scan", "ios": "https://dc.lft.to/lastmile_qr_scan"}, "fusion_lon": 0.0}, {"lat": 38.885932, "is_disabled": 0, "type": "electric_scooter", "lon": -77.02208216666666, "bike_id": "b9b2400efbdb752a4bed03a5e0b281a9", "fusion_lat": 0.0, "name": "b9b2400efbdb752a4bed03a5e0b281a9", "is_reserved": 0, "rental_uris": {"android": "https://dc.lft.to/lastmile_qr_scan", "ios": "https://dc.lft.to/lastmile_qr_scan"}, "fusion_lon": 0.0}, {"lat": 38.90438616666667, "is_disabled": 0, "type": "electric_scooter", "lon": -77.05320183333333, "bike_id": "0507c9ea5f3d725296aa187dd28afe63", "fusion_lat": 0.0, "name": "0507c9ea5f3d725296aa187dd28afe63", "is_reserved": 0, "rental_uris": {"android": "https://dc.lft.to/lastmile_qr_scan", "ios": "https://dc.lft.to/lastmile_qr_scan"}, "fusion_lon": 0.0}, {"lat": 38.9148365, "is_disabled": 0, "type": "electric_scooter", "lon": -77.02577366666667, "bike_id": "fbb42c07232b96e378aef56e0bccddaa", "fusion_lat": 0.0, "name": "fbb42c07232b96e378aef56e0bccddaa", "is_reserved": 0, "rental_uris": {"android": "https://dc.lft.to/lastmile_qr_scan", "ios": "https://dc.lft.to/lastmile_qr_scan"}, "fusion_lon": 0.0}, {"lat": 38.91122516666667, "is_disabled": 0, "type": "electric_scooter", "lon": -77.03222716666667, "bike_id": "2de0afbebe7be6994b7f63e9eae2e5c4", "fusion_lat": 0.0, "name": "2de0afbebe7be6994b7f63e9eae2e5c4", "is_reserved": 0, "rental_uris": {"android": "https://dc.lft.to/lastmile_qr_scan", "ios": "https://dc.lft.to/lastmile_qr_scan"}, "fusion_lon": 0.0}, {"lat": 38.91267216666667, "is_disabled": 0, "type": "electric_scooter", "lon": -77.0176655, "bike_id": "0ccf8be338eff2d7993ecbb07cc7044b", "fusion_lat": 0.0, "name": "0ccf8be338eff2d7993ecbb07cc7044b", "is_reserved": 0, "rental_uris": {"android": "https://dc.lft.to/lastmile_qr_scan", "ios": "https://dc.lft.to/lastmile_qr_scan"}, "fusion_lon": 0.0}, {"lat": 38.909559333333334, "is_disabled": 0, "type": "electric_scooter", "lon": -77.03419783333334, "bike_id": "013f32dce2485ec21282735b7a92ea28", "fusion_lat": 0.0, "name": "013f32dce2485ec21282735b7a92ea28", "is_reserved": 0, "rental_uris": {"android": "https://dc.lft.to/lastmile_qr_scan", "ios": "https://dc.lft.to/lastmile_qr_scan"}, "fusion_lon": 0.0}, {"lat": 38.857305833333335, "is_disabled": 0, "type": "electric_scooter", "lon": -76.99437433333334, "bike_id": "22748c5e16c43cac82466c576c28112c", "fusion_lat": 0.0, "name": "22748c5e16c43cac82466c576c28112c", "is_reserved": 0, "rental_uris": {"android": "https://dc.lft.to/lastmile_qr_scan", "ios": "https://dc.lft.to/lastmile_qr_scan"}, "fusion_lon": 0.0}, {"lat": 38.92062466666667, "is_disabled": 0, "type": "electric_scooter", "lon": -77.04240566666667, "bike_id": "ce10b8cebb817dc38be83649a5d83e43", "fusion_lat": 0.0, "name": "ce10b8cebb817dc38be83649a5d83e43", "is_reserved": 0, "rental_uris": {"android": "https://dc.lft.to/lastmile_qr_scan", "ios": "https://dc.lft.to/lastmile_qr_scan"}, "fusion_lon": 0.0}, {"lat": 38.936670166666666, "is_disabled": 0, "type": "electric_scooter", "lon": -77.03640783333333, "bike_id": "f610cb4fbae21857be1ea26625fbd99a", "fusion_lat": 0.0, "name": "f610cb4fbae21857be1ea26625fbd99a", "is_reserved": 0, "rental_uris": {"android": "https://dc.lft.to/lastmile_qr_scan", "ios": "https://dc.lft.to/lastmile_qr_scan"}, "fusion_lon": 0.0}, {"lat": 38.902032166666665, "is_disabled": 0, "type": "electric_scooter", "lon": -77.02175833333334, "bike_id": "ee8bb8635cc7de55e2e5bd7c9b2886ba", "fusion_lat": 0.0, "name": "ee8bb8635cc7de55e2e5bd7c9b2886ba", "is_reserved": 0, "rental_uris": {"android": "https://dc.lft.to/lastmile_qr_scan", "ios": "https://dc.lft.to/lastmile_qr_scan"}, "fusion_lon": 0.0}, {"lat": 38.919113833333334, "is_disabled": 0, "type": "electric_bike", "lon": -77.10173016666667, "bike_id": "fbd8953baf93cacabdd215a892108078", "fusion_lat": 0.0, "name": "fbd8953baf93cacabdd215a892108078", "is_reserved": 0, "rental_uris": {"android": "https://dc.lft.to/lastmile_qr_scan", "ios": "https://dc.lft.to/lastmile_qr_scan"}, "fusion_lon": 0.0}, {"lat": 38.94438183333333, "is_disabled": 0, "type": "electric_scooter", "lon": -77.02340616666666, "bike_id": "21415b9274f37766598a3c6499ff4f00", "fusion_lat": 0.0, "name": "21415b9274f37766598a3c6499ff4f00", "is_reserved": 0, "rental_uris": {"android": "https://dc.lft.to/lastmile_qr_scan", "ios": "https://dc.lft.to/lastmile_qr_scan"}, "fusion_lon": 0.0}, {"lat": 38.940397, "is_disabled": 0, "type": "electric_bike", "lon": -77.05160633333334, "bike_id": "db31f09f26667106fbeefa979ccb53f3", "fusion_lat": 0.0, "name": "db31f09f26667106fbeefa979ccb53f3", "is_reserved": 0, "rental_uris": {"android": "https://dc.lft.to/lastmile_qr_scan", "ios": "https://dc.lft.to/lastmile_qr_scan"}, "fusion_lon": 0.0}, {"lat": 38.921138166666665, "is_disabled": 0, "type": "electric_bike", "lon": -76.9857365, "bike_id": "14f718b594349b938e5605226bfa0ba1", "fusion_lat": 0.0, "name": "14f718b594349b938e5605226bfa0ba1", "is_reserved": 0, "rental_uris": {"android": "https://dc.lft.to/lastmile_qr_scan", "ios": "https://dc.lft.to/lastmile_qr_scan"}, "fusion_lon": 0.0}, {"lat": 38.91168666666667, "is_disabled": 0, "type": "electric_scooter", "lon": -77.03855066666667, "bike_id": "49d88b4b72454f3c1fe3298cf4af2f26", "fusion_lat": 0.0, "name": "49d88b4b72454f3c1fe3298cf4af2f26", "is_reserved": 0, "rental_uris": {"android": "https://dc.lft.to/lastmile_qr_scan", "ios": "https://dc.lft.to/lastmile_qr_scan"}, "fusion_lon": 0.0}, {"lat": 38.90914266666667, "is_disabled": 0, "type": "electric_bike", "lon": -77.0873995, "bike_id": "28a51340d5f7d56bcbf58bf0894bc938", "fusion_lat": 0.0, "name": "28a51340d5f7d56bcbf58bf0894bc938", "is_reserved": 0, "rental_uris": {"android": "https://dc.lft.to/lastmile_qr_scan", "ios": "https://dc.lft.to/lastmile_qr_scan"}, "fusion_lon": 0.0}, {"lat": 38.91707616666667, "is_disabled": 0, "type": "electric_scooter", "lon": -77.02462133333333, "bike_id": "a88798efbb04867cb60d9e97d384ea4f", "fusion_lat": 0.0, "name": "a88798efbb04867cb60d9e97d384ea4f", "is_reserved": 0, "rental_uris": {"android": "https://dc.lft.to/lastmile_qr_scan", "ios": "https://dc.lft.to/lastmile_qr_scan"}, "fusion_lon": 0.0}, {"lat": 38.841016833333335, "is_disabled": 0, "type": "electric_bike", "lon": -77.089389, "bike_id": "a81cc7c6bf26cd6860f868ac84d43860", "fusion_lat": 0.0, "name": "a81cc7c6bf26cd6860f868ac84d43860", "is_reserved": 0, "rental_uris": {"android": "https://dc.lft.to/lastmile_qr_scan", "ios": "https://dc.lft.to/lastmile_qr_scan"}, "fusion_lon": 0.0}, {"lat": 38.905461, "is_disabled": 0, "type": "electric_scooter", "lon": -77.0570535, "bike_id": "cfaa8c7d72364ad9d38ead34e38bbcc9", "fusion_lat": 0.0, "name": "cfaa8c7d72364ad9d38ead34e38bbcc9", "is_reserved": 0, "rental_uris": {"android": "https://dc.lft.to/lastmile_qr_scan", "ios": "https://dc.lft.to/lastmile_qr_scan"}, "fusion_lon": 0.0}, {"lat": 38.92564466666666, "is_disabled": 0, "type": "electric_scooter", "lon": -77.03771116666667, "bike_id": "887fcd99ba78218b3c801aba886025ad", "fusion_lat": 0.0, "name": "887fcd99ba78218b3c801aba886025ad", "is_reserved": 0, "rental_uris": {"android": "https://dc.lft.to/lastmile_qr_scan", "ios": "https://dc.lft.to/lastmile_qr_scan"}, "fusion_lon": 0.0}, {"lat": 38.934719, "is_disabled": 0, "type": "electric_scooter", "lon": -77.02411833333333, "bike_id": "429a9ca3a372738036bb9730db1b20ee", "fusion_lat": 0.0, "name": "429a9ca3a372738036bb9730db1b20ee", "is_reserved": 0, "rental_uris": {"android": "https://dc.lft.to/lastmile_qr_scan", "ios": "https://dc.lft.to/lastmile_qr_scan"}, "fusion_lon": 0.0}, {"lat": 38.893456666666665, "is_disabled": 0, "type": "electric_scooter", "lon": -77.04135733333334, "bike_id": "84d562eb325abcff990099cbdd755c16", "fusion_lat": 0.0, "name": "84d562eb325abcff990099cbdd755c16", "is_reserved": 0, "rental_uris": {"android": "https://dc.lft.to/lastmile_qr_scan", "ios": "https://dc.lft.to/lastmile_qr_scan"}, "fusion_lon": 0.0}, {"lat": 38.95881683333333, "is_disabled": 0, "type": "electric_bike", "lon": -76.92485716666667, "bike_id": "9ec8957c183dd11e82933f3b54bf3fc8", "fusion_lat": 0.0, "name": "9ec8957c183dd11e82933f3b54bf3fc8", "is_reserved": 0, "rental_uris": {"android": "https://dc.lft.to/lastmile_qr_scan", "ios": "https://dc.lft.to/lastmile_qr_scan"}, "fusion_lon": 0.0}, {"lat": 38.91284433333333, "is_disabled": 0, "type": "electric_scooter", "lon": -77.03198683333333, "bike_id": "fd8f5751e2c7e0d1556d93330862c40a", "fusion_lat": 0.0, "name": "fd8f5751e2c7e0d1556d93330862c40a", "is_reserved": 0, "rental_uris": {"android": "https://dc.lft.to/lastmile_qr_scan", "ios": "https://dc.lft.to/lastmile_qr_scan"}, "fusion_lon": 0.0}, {"lat": 38.8763715, "is_disabled": 0, "type": "electric_scooter", "lon": -77.00565783333333, "bike_id": "6487487e6bf3f2401428df6cee266ba0", "fusion_lat": 0.0, "name": "6487487e6bf3f2401428df6cee266ba0", "is_reserved": 0, "rental_uris": {"android": "https://dc.lft.to/lastmile_qr_scan", "ios": "https://dc.lft.to/lastmile_qr_scan"}, "fusion_lon": 0.0}, {"lat": 38.91419116666667, "is_disabled": 0, "type": "electric_scooter", "lon": -77.03184283333333, "bike_id": "9eabd649f9082249e3344dcdc764040e", "fusion_lat": 0.0, "name": "9eabd649f9082249e3344dcdc764040e", "is_reserved": 0, "rental_uris": {"android": "https://dc.lft.to/lastmile_qr_scan", "ios": "https://dc.lft.to/lastmile_qr_scan"}, "fusion_lon": 0.0}, {"lat": 38.931136, "is_disabled": 0, "type": "electric_scooter", "lon": -77.03398733333333, "bike_id": "d9453a674410b6b717a8205498a2caf2", "fusion_lat": 0.0, "name": "d9453a674410b6b717a8205498a2caf2", "is_reserved": 0, "rental_uris": {"android": "https://dc.lft.to/lastmile_qr_scan", "ios": "https://dc.lft.to/lastmile_qr_scan"}, "fusion_lon": 0.0}, {"lat": 38.902906, "is_disabled": 0, "type": "electric_scooter", "lon": -77.06350816666667, "bike_id": "cc8129300dc6c93687655f5bdc5a1729", "fusion_lat": 0.0, "name": "cc8129300dc6c93687655f5bdc5a1729", "is_reserved": 0, "rental_uris": {"android": "https://dc.lft.to/lastmile_qr_scan", "ios": "https://dc.lft.to/lastmile_qr_scan"}, "fusion_lon": 0.0}, {"lat": 38.89364166666667, "is_disabled": 0, "type": "electric_bike", "lon": -76.99326266666667, "bike_id": "9bcf98c069dbdb16e9738cc575bcc593", "fusion_lat": 0.0, "name": "9bcf98c069dbdb16e9738cc575bcc593", "is_reserved": 0, "rental_uris": {"android": "https://dc.lft.to/lastmile_qr_scan", "ios": "https://dc.lft.to/lastmile_qr_scan"}, "fusion_lon": 0.0}, {"lat": 38.902056333333334, "is_disabled": 0, "type": "electric_scooter", "lon": -77.02317966666666, "bike_id": "b25a7d2e7eb411516394ee6bc45b1204", "fusion_lat": 0.0, "name": "b25a7d2e7eb411516394ee6bc45b1204", "is_reserved": 0, "rental_uris": {"android": "https://dc.lft.to/lastmile_qr_scan", "ios": "https://dc.lft.to/lastmile_qr_scan"}, "fusion_lon": 0.0}, {"lat": 38.94403783333333, "is_disabled": 0, "type": "electric_scooter", "lon": -77.02644533333333, "bike_id": "5ec12721bde16c03a12207f1a2501fd0", "fusion_lat": 0.0, "name": "5ec12721bde16c03a12207f1a2501fd0", "is_reserved": 0, "rental_uris": {"android": "https://dc.lft.to/lastmile_qr_scan", "ios": "https://dc.lft.to/lastmile_qr_scan"}, "fusion_lon": 0.0}, {"lat": 38.900702333333335, "is_disabled": 0, "type": "electric_scooter", "lon": -77.0021075, "bike_id": "e44a9605efcc8f0a222a30e18e6efada", "fusion_lat": 0.0, "name": "e44a9605efcc8f0a222a30e18e6efada", "is_reserved": 0, "rental_uris": {"android": "https://dc.lft.to/lastmile_qr_scan", "ios": "https://dc.lft.to/lastmile_qr_scan"}, "fusion_lon": 0.0}, {"lat": 38.88924216666667, "is_disabled": 0, "type": "electric_scooter", "lon": -76.973732, "bike_id": "38f9e27a324986b63dae0f2891053ff7", "fusion_lat": 0.0, "name": "38f9e27a324986b63dae0f2891053ff7", "is_reserved": 0, "rental_uris": {"android": "https://dc.lft.to/lastmile_qr_scan", "ios": "https://dc.lft.to/lastmile_qr_scan"}, "fusion_lon": 0.0}, {"lat": 38.908536833333336, "is_disabled": 0, "type": "electric_scooter", "lon": -77.0477095, "bike_id": "7ef670aa7a2395ce1c05d0327e9add88", "fusion_lat": 0.0, "name": "7ef670aa7a2395ce1c05d0327e9add88", "is_reserved": 0, "rental_uris": {"android": "https://dc.lft.to/lastmile_qr_scan", "ios": "https://dc.lft.to/lastmile_qr_scan"}, "fusion_lon": 0.0}, {"lat": 38.905314, "is_disabled": 0, "type": "electric_scooter", "lon": -77.05827016666667, "bike_id": "1a83b8f17dfee8cb6619e6f193cc97ac", "fusion_lat": 0.0, "name": "1a83b8f17dfee8cb6619e6f193cc97ac", "is_reserved": 0, "rental_uris": {"android": "https://dc.lft.to/lastmile_qr_scan", "ios": "https://dc.lft.to/lastmile_qr_scan"}, "fusion_lon": 0.0}, {"lat": 38.86253216666667, "is_disabled": 0, "type": "electric_scooter", "lon": -76.99510366666667, "bike_id": "1347f0a5decd659802e140232e725495", "fusion_lat": 0.0, "name": "1347f0a5decd659802e140232e725495", "is_reserved": 0, "rental_uris": {"android": "https://dc.lft.to/lastmile_qr_scan", "ios": "https://dc.lft.to/lastmile_qr_scan"}, "fusion_lon": 0.0}, {"lat": 38.9168875, "is_disabled": 0, "type": "electric_scooter", "lon": -77.02686616666666, "bike_id": "9a34eeae32af933fcce599c5ee9a48a8", "fusion_lat": 0.0, "name": "9a34eeae32af933fcce599c5ee9a48a8", "is_reserved": 0, "rental_uris": {"android": "https://dc.lft.to/lastmile_qr_scan", "ios": "https://dc.lft.to/lastmile_qr_scan"}, "fusion_lon": 0.0}, {"lat": 38.862099, "is_disabled": 0, "type": "electric_bike", "lon": -76.99779533333333, "bike_id": "ab9ed14e9435111af4f35a697996846d", "fusion_lat": 0.0, "name": "ab9ed14e9435111af4f35a697996846d", "is_reserved": 0, "rental_uris": {"android": "https://dc.lft.to/lastmile_qr_scan", "ios": "https://dc.lft.to/lastmile_qr_scan"}, "fusion_lon": 0.0}, {"lat": 38.87062533333334, "is_disabled": 0, "type": "electric_scooter", "lon": -77.008386, "bike_id": "17c70bb02828698eba4167754a6cd0a2", "fusion_lat": 0.0, "name": "17c70bb02828698eba4167754a6cd0a2", "is_reserved": 0, "rental_uris": {"android": "https://dc.lft.to/lastmile_qr_scan", "ios": "https://dc.lft.to/lastmile_qr_scan"}, "fusion_lon": 0.0}, {"lat": 38.8667575, "is_disabled": 0, "type": "electric_scooter", "lon": -76.9853845, "bike_id": "e9961a2dd77486ab58c2c10b555aa768", "fusion_lat": 0.0, "name": "e9961a2dd77486ab58c2c10b555aa768", "is_reserved": 0, "rental_uris": {"android": "https://dc.lft.to/lastmile_qr_scan", "ios": "https://dc.lft.to/lastmile_qr_scan"}, "fusion_lon": 0.0}, {"lat": 38.916933666666665, "is_disabled": 0, "type": "electric_scooter", "lon": -77.03590133333333, "bike_id": "0bcc80dfae76f50ee3abcdcd1606f0a3", "fusion_lat": 0.0, "name": "0bcc80dfae76f50ee3abcdcd1606f0a3", "is_reserved": 0, "rental_uris": {"android": "https://dc.lft.to/lastmile_qr_scan", "ios": "https://dc.lft.to/lastmile_qr_scan"}, "fusion_lon": 0.0}, {"lat": 38.93442833333334, "is_disabled": 0, "type": "electric_scooter", "lon": -77.03457766666666, "bike_id": "a0702db4e37b8e1792c3f67935b2fe1e", "fusion_lat": 0.0, "name": "a0702db4e37b8e1792c3f67935b2fe1e", "is_reserved": 0, "rental_uris": {"android": "https://dc.lft.to/lastmile_qr_scan", "ios": "https://dc.lft.to/lastmile_qr_scan"}, "fusion_lon": 0.0}, {"lat": 39.034301166666665, "is_disabled": 0, "type": "electric_bike", "lon": -77.04301766666667, "bike_id": "1ec92cbaf9f7ad9eb6a40e1a0215c3dd", "fusion_lat": 0.0, "name": "1ec92cbaf9f7ad9eb6a40e1a0215c3dd", "is_reserved": 0, "rental_uris": {"android": "https://dc.lft.to/lastmile_qr_scan", "ios": "https://dc.lft.to/lastmile_qr_scan"}, "fusion_lon": 0.0}, {"lat": 38.84430033333334, "is_disabled": 0, "type": "electric_scooter", "lon": -76.9965815, "bike_id": "9f230415f1079dc7ce95a2c81a3f2577", "fusion_lat": 0.0, "name": "9f230415f1079dc7ce95a2c81a3f2577", "is_reserved": 0, "rental_uris": {"android": "https://dc.lft.to/lastmile_qr_scan", "ios": "https://dc.lft.to/lastmile_qr_scan"}, "fusion_lon": 0.0}, {"lat": 38.93655066666667, "is_disabled": 0, "type": "electric_bike", "lon": -76.95219816666666, "bike_id": "0d75dd894e891ca199794ebd26946dc6", "fusion_lat": 0.0, "name": "0d75dd894e891ca199794ebd26946dc6", "is_reserved": 0, "rental_uris": {"android": "https://dc.lft.to/lastmile_qr_scan", "ios": "https://dc.lft.to/lastmile_qr_scan"}, "fusion_lon": 0.0}, {"lat": 38.89069533333333, "is_disabled": 0, "type": "electric_scooter", "lon": -76.98833133333333, "bike_id": "6e32dc5a014de88bad73c43af18a2a09", "fusion_lat": 0.0, "name": "6e32dc5a014de88bad73c43af18a2a09", "is_reserved": 0, "rental_uris": {"android": "https://dc.lft.to/lastmile_qr_scan", "ios": "https://dc.lft.to/lastmile_qr_scan"}, "fusion_lon": 0.0}, {"lat": 38.917277166666665, "is_disabled": 0, "type": "electric_scooter", "lon": -77.02300766666667, "bike_id": "be2163eab1df69893b8f4cf1cda7026d", "fusion_lat": 0.0, "name": "be2163eab1df69893b8f4cf1cda7026d", "is_reserved": 0, "rental_uris": {"android": "https://dc.lft.to/lastmile_qr_scan", "ios": "https://dc.lft.to/lastmile_qr_scan"}, "fusion_lon": 0.0}, {"lat": 38.900666, "is_disabled": 0, "type": "electric_scooter", "lon": -77.049019, "bike_id": "09ebf8130de4d45d802d64f29245f9d0", "fusion_lat": 0.0, "name": "09ebf8130de4d45d802d64f29245f9d0", "is_reserved": 0, "rental_uris": {"android": "https://dc.lft.to/lastmile_qr_scan", "ios": "https://dc.lft.to/lastmile_qr_scan"}, "fusion_lon": 0.0}, {"lat": 38.92589016666667, "is_disabled": 0, "type": "electric_scooter", "lon": -77.04403533333333, "bike_id": "4f4af75668efbe9d9557aeb9d1b2845e", "fusion_lat": 0.0, "name": "4f4af75668efbe9d9557aeb9d1b2845e", "is_reserved": 0, "rental_uris": {"android": "https://dc.lft.to/lastmile_qr_scan", "ios": "https://dc.lft.to/lastmile_qr_scan"}, "fusion_lon": 0.0}, {"lat": 38.90605633333333, "is_disabled": 0, "type": "electric_scooter", "lon": -77.0634695, "bike_id": "897a6721cacb8384c62a1d0921cea148", "fusion_lat": 0.0, "name": "897a6721cacb8384c62a1d0921cea148", "is_reserved": 0, "rental_uris": {"android": "https://dc.lft.to/lastmile_qr_scan", "ios": "https://dc.lft.to/lastmile_qr_scan"}, "fusion_lon": 0.0}, {"lat": 38.909775, "is_disabled": 0, "type": "electric_scooter", "lon": -77.0320075, "bike_id": "c9a1e711036050dad1d4137bec5b2954", "fusion_lat": 0.0, "name": "c9a1e711036050dad1d4137bec5b2954", "is_reserved": 0, "rental_uris": {"android": "https://dc.lft.to/lastmile_qr_scan", "ios": "https://dc.lft.to/lastmile_qr_scan"}, "fusion_lon": 0.0}, {"lat": 38.9925585, "is_disabled": 0, "type": "electric_scooter", "lon": -77.03653916666667, "bike_id": "b4e8c9a34a8cc0d02e9f6354ff2b81c9", "fusion_lat": 0.0, "name": "b4e8c9a34a8cc0d02e9f6354ff2b81c9", "is_reserved": 0, "rental_uris": {"android": "https://dc.lft.to/lastmile_qr_scan", "ios": "https://dc.lft.to/lastmile_qr_scan"}, "fusion_lon": 0.0}, {"lat": 38.8934755, "is_disabled": 0, "type": "electric_scooter", "lon": -77.0414135, "bike_id": "46ef5f9483fc9b4c518695f5f4d6f405", "fusion_lat": 0.0, "name": "46ef5f9483fc9b4c518695f5f4d6f405", "is_reserved": 0, "rental_uris": {"android": "https://dc.lft.to/lastmile_qr_scan", "ios": "https://dc.lft.to/lastmile_qr_scan"}, "fusion_lon": 0.0}, {"lat": 38.905141, "is_disabled": 0, "type": "electric_scooter", "lon": -77.0630875, "bike_id": "1da5be4099a39c88e1c154a02fd1e6a8", "fusion_lat": 0.0, "name": "1da5be4099a39c88e1c154a02fd1e6a8", "is_reserved": 0, "rental_uris": {"android": "https://dc.lft.to/lastmile_qr_scan", "ios": "https://dc.lft.to/lastmile_qr_scan"}, "fusion_lon": 0.0}, {"lat": 38.86255, "is_disabled": 0, "type": "electric_scooter", "lon": -76.99519283333333, "bike_id": "13c224a89e956a65ac494c9edba23b4b", "fusion_lat": 0.0, "name": "13c224a89e956a65ac494c9edba23b4b", "is_reserved": 0, "rental_uris": {"android": "https://dc.lft.to/lastmile_qr_scan", "ios": "https://dc.lft.to/lastmile_qr_scan"}, "fusion_lon": 0.0}, {"lat": 38.93738583333333, "is_disabled": 0, "type": "electric_scooter", "lon": -77.03617216666666, "bike_id": "90839f5f7052a0a865580487e8f638bb", "fusion_lat": 0.0, "name": "90839f5f7052a0a865580487e8f638bb", "is_reserved": 0, "rental_uris": {"android": "https://dc.lft.to/lastmile_qr_scan", "ios": "https://dc.lft.to/lastmile_qr_scan"}, "fusion_lon": 0.0}, {"lat": 38.94554933333333, "is_disabled": 0, "type": "electric_bike", "lon": -76.89537233333333, "bike_id": "2ebcd6ef5c2de169218898623e4f81ec", "fusion_lat": 0.0, "name": "2ebcd6ef5c2de169218898623e4f81ec", "is_reserved": 0, "rental_uris": {"android": "https://dc.lft.to/lastmile_qr_scan", "ios": "https://dc.lft.to/lastmile_qr_scan"}, "fusion_lon": 0.0}, {"lat": 38.85188516666667, "is_disabled": 0, "type": "electric_scooter", "lon": -76.97622283333334, "bike_id": "2dcdc8bcb38ff15e45e167f3478ce95b", "fusion_lat": 0.0, "name": "2dcdc8bcb38ff15e45e167f3478ce95b", "is_reserved": 0, "rental_uris": {"android": "https://dc.lft.to/lastmile_qr_scan", "ios": "https://dc.lft.to/lastmile_qr_scan"}, "fusion_lon": 0.0}, {"lat": 38.92062583333333, "is_disabled": 0, "type": "electric_scooter", "lon": -77.043768, "bike_id": "78bf006fb0c7b7b74f0192d1d71f7b53", "fusion_lat": 0.0, "name": "78bf006fb0c7b7b74f0192d1d71f7b53", "is_reserved": 0, "rental_uris": {"android": "https://dc.lft.to/lastmile_qr_scan", "ios": "https://dc.lft.to/lastmile_qr_scan"}, "fusion_lon": 0.0}, {"lat": 38.885001333333335, "is_disabled": 0, "type": "electric_bike", "lon": -77.01590233333333, "bike_id": "71995d10feae51b46fcfb2120f55734a", "fusion_lat": 0.0, "name": "71995d10feae51b46fcfb2120f55734a", "is_reserved": 0, "rental_uris": {"android": "https://dc.lft.to/lastmile_qr_scan", "ios": "https://dc.lft.to/lastmile_qr_scan"}, "fusion_lon": 0.0}, {"lat": 38.938635166666664, "is_disabled": 0, "type": "electric_scooter", "lon": -77.03088233333334, "bike_id": "63b1f55ea6dbd26c01b5b3e2e3be8628", "fusion_lat": 0.0, "name": "63b1f55ea6dbd26c01b5b3e2e3be8628", "is_reserved": 0, "rental_uris": {"android": "https://dc.lft.to/lastmile_qr_scan", "ios": "https://dc.lft.to/lastmile_qr_scan"}, "fusion_lon": 0.0}, {"lat": 38.90667083333334, "is_disabled": 0, "type": "electric_scooter", "lon": -77.02711333333333, "bike_id": "d9d22db4dea2cea5e49bc08edad73661", "fusion_lat": 0.0, "name": "d9d22db4dea2cea5e49bc08edad73661", "is_reserved": 0, "rental_uris": {"android": "https://dc.lft.to/lastmile_qr_scan", "ios": "https://dc.lft.to/lastmile_qr_scan"}, "fusion_lon": 0.0}, {"lat": 38.91686383333333, "is_disabled": 0, "type": "electric_scooter", "lon": -77.03190716666667, "bike_id": "7672397bcc8c25e2343ff36a86e9a820", "fusion_lat": 0.0, "name": "7672397bcc8c25e2343ff36a86e9a820", "is_reserved": 0, "rental_uris": {"android": "https://dc.lft.to/lastmile_qr_scan", "ios": "https://dc.lft.to/lastmile_qr_scan"}, "fusion_lon": 0.0}, {"lat": 38.952950333333334, "is_disabled": 0, "type": "electric_scooter", "lon": -77.08154083333334, "bike_id": "b67e1b8e2e309529da50b3bebe428621", "fusion_lat": 0.0, "name": "b67e1b8e2e309529da50b3bebe428621", "is_reserved": 0, "rental_uris": {"android": "https://dc.lft.to/lastmile_qr_scan", "ios": "https://dc.lft.to/lastmile_qr_scan"}, "fusion_lon": 0.0}, {"lat": 38.880153, "is_disabled": 0, "type": "electric_scooter", "lon": -76.96012233333333, "bike_id": "61231e452f535a4b6156fce19444e31b", "fusion_lat": 0.0, "name": "61231e452f535a4b6156fce19444e31b", "is_reserved": 0, "rental_uris": {"android": "https://dc.lft.to/lastmile_qr_scan", "ios": "https://dc.lft.to/lastmile_qr_scan"}, "fusion_lon": 0.0}, {"lat": 38.8665, "is_disabled": 0, "type": "electric_scooter", "lon": -76.988853, "bike_id": "e0601d07cf93c8354be88159efded4b9", "fusion_lat": 0.0, "name": "e0601d07cf93c8354be88159efded4b9", "is_reserved": 0, "rental_uris": {"android": "https://dc.lft.to/lastmile_qr_scan", "ios": "https://dc.lft.to/lastmile_qr_scan"}, "fusion_lon": 0.0}, {"lat": 38.9387035, "is_disabled": 0, "type": "electric_scooter", "lon": -77.031244, "bike_id": "fbb26e50dba3989f036cace3d8c8f681", "fusion_lat": 0.0, "name": "fbb26e50dba3989f036cace3d8c8f681", "is_reserved": 0, "rental_uris": {"android": "https://dc.lft.to/lastmile_qr_scan", "ios": "https://dc.lft.to/lastmile_qr_scan"}, "fusion_lon": 0.0}, {"lat": 38.8978145, "is_disabled": 0, "type": "electric_scooter", "lon": -77.00924083333334, "bike_id": "140d33a7d496ba04f47287011f7cf7eb", "fusion_lat": 0.0, "name": "140d33a7d496ba04f47287011f7cf7eb", "is_reserved": 0, "rental_uris": {"android": "https://dc.lft.to/lastmile_qr_scan", "ios": "https://dc.lft.to/lastmile_qr_scan"}, "fusion_lon": 0.0}, {"lat": 38.91943083333334, "is_disabled": 0, "type": "electric_scooter", "lon": -77.03208333333333, "bike_id": "d3f6c6a3bf47e892b3a52372d62e81b1", "fusion_lat": 0.0, "name": "d3f6c6a3bf47e892b3a52372d62e81b1", "is_reserved": 0, "rental_uris": {"android": "https://dc.lft.to/lastmile_qr_scan", "ios": "https://dc.lft.to/lastmile_qr_scan"}, "fusion_lon": 0.0}, {"lat": 38.892302, "is_disabled": 0, "type": "electric_scooter", "lon": -77.01897283333334, "bike_id": "9a0d41e38ea889f113144d3812380855", "fusion_lat": 0.0, "name": "9a0d41e38ea889f113144d3812380855", "is_reserved": 0, "rental_uris": {"android": "https://dc.lft.to/lastmile_qr_scan", "ios": "https://dc.lft.to/lastmile_qr_scan"}, "fusion_lon": 0.0}, {"lat": 38.9259905, "is_disabled": 0, "type": "electric_scooter", "lon": -77.02154066666667, "bike_id": "ac7ae9b2d23875c648148aa4c8934fdf", "fusion_lat": 0.0, "name": "ac7ae9b2d23875c648148aa4c8934fdf", "is_reserved": 0, "rental_uris": {"android": "https://dc.lft.to/lastmile_qr_scan", "ios": "https://dc.lft.to/lastmile_qr_scan"}, "fusion_lon": 0.0}, {"lat": 38.90070566666667, "is_disabled": 0, "type": "electric_scooter", "lon": -77.02716466666666, "bike_id": "4345bbafd07f72c46eda8cdd4a40a41c", "fusion_lat": 0.0, "name": "4345bbafd07f72c46eda8cdd4a40a41c", "is_reserved": 0, "rental_uris": {"android": "https://dc.lft.to/lastmile_qr_scan", "ios": "https://dc.lft.to/lastmile_qr_scan"}, "fusion_lon": 0.0}, {"lat": 38.9595395, "is_disabled": 0, "type": "electric_scooter", "lon": -77.03306566666667, "bike_id": "ce64e4db55fb62e0f1222b05c7d17127", "fusion_lat": 0.0, "name": "ce64e4db55fb62e0f1222b05c7d17127", "is_reserved": 0, "rental_uris": {"android": "https://dc.lft.to/lastmile_qr_scan", "ios": "https://dc.lft.to/lastmile_qr_scan"}, "fusion_lon": 0.0}, {"lat": 38.9595365, "is_disabled": 0, "type": "electric_bike", "lon": -77.1008915, "bike_id": "3730ac00a06e8419e8b69bcdd8aa9723", "fusion_lat": 0.0, "name": "3730ac00a06e8419e8b69bcdd8aa9723", "is_reserved": 0, "rental_uris": {"android": "https://dc.lft.to/lastmile_qr_scan", "ios": "https://dc.lft.to/lastmile_qr_scan"}, "fusion_lon": 0.0}, {"lat": 38.961599, "is_disabled": 0, "type": "electric_scooter", "lon": -77.02775316666667, "bike_id": "b7c566eae4acb189b5c7d477664bec0d", "fusion_lat": 0.0, "name": "b7c566eae4acb189b5c7d477664bec0d", "is_reserved": 0, "rental_uris": {"android": "https://dc.lft.to/lastmile_qr_scan", "ios": "https://dc.lft.to/lastmile_qr_scan"}, "fusion_lon": 0.0}, {"lat": 38.89338766666667, "is_disabled": 0, "type": "electric_scooter", "lon": -77.03159533333333, "bike_id": "288d005ddc5a50c42864b57ed7485572", "fusion_lat": 0.0, "name": "288d005ddc5a50c42864b57ed7485572", "is_reserved": 0, "rental_uris": {"android": "https://dc.lft.to/lastmile_qr_scan", "ios": "https://dc.lft.to/lastmile_qr_scan"}, "fusion_lon": 0.0}, {"lat": 38.8984455, "is_disabled": 0, "type": "electric_scooter", "lon": -77.02323616666666, "bike_id": "0568b34a5925d22570414cdd3dc914e3", "fusion_lat": 0.0, "name": "0568b34a5925d22570414cdd3dc914e3", "is_reserved": 0, "rental_uris": {"android": "https://dc.lft.to/lastmile_qr_scan", "ios": "https://dc.lft.to/lastmile_qr_scan"}, "fusion_lon": 0.0}, {"lat": 38.920647333333335, "is_disabled": 0, "type": "electric_scooter", "lon": -77.04339666666667, "bike_id": "ed5b7086ea285a844bc216b6de91c83b", "fusion_lat": 0.0, "name": "ed5b7086ea285a844bc216b6de91c83b", "is_reserved": 0, "rental_uris": {"android": "https://dc.lft.to/lastmile_qr_scan", "ios": "https://dc.lft.to/lastmile_qr_scan"}, "fusion_lon": 0.0}, {"lat": 38.90894933333333, "is_disabled": 0, "type": "electric_scooter", "lon": -77.04397883333333, "bike_id": "cf256af3a2d45fec6446029bec16457e", "fusion_lat": 0.0, "name": "cf256af3a2d45fec6446029bec16457e", "is_reserved": 0, "rental_uris": {"android": "https://dc.lft.to/lastmile_qr_scan", "ios": "https://dc.lft.to/lastmile_qr_scan"}, "fusion_lon": 0.0}, {"lat": 38.916623666666666, "is_disabled": 0, "type": "electric_scooter", "lon": -77.033564, "bike_id": "ff7e5fabbdfd116afe72409a4d936b99", "fusion_lat": 0.0, "name": "ff7e5fabbdfd116afe72409a4d936b99", "is_reserved": 0, "rental_uris": {"android": "https://dc.lft.to/lastmile_qr_scan", "ios": "https://dc.lft.to/lastmile_qr_scan"}, "fusion_lon": 0.0}, {"lat": 38.919146166666664, "is_disabled": 0, "type": "electric_scooter", "lon": -77.04804166666666, "bike_id": "43911273e7b7181661564a667f26c114", "fusion_lat": 0.0, "name": "43911273e7b7181661564a667f26c114", "is_reserved": 0, "rental_uris": {"android": "https://dc.lft.to/lastmile_qr_scan", "ios": "https://dc.lft.to/lastmile_qr_scan"}, "fusion_lon": 0.0}, {"lat": 38.905443166666664, "is_disabled": 0, "type": "electric_scooter", "lon": -77.05712783333334, "bike_id": "0a7884349a8dfcc107ceb6736f6970cc", "fusion_lat": 0.0, "name": "0a7884349a8dfcc107ceb6736f6970cc", "is_reserved": 0, "rental_uris": {"android": "https://dc.lft.to/lastmile_qr_scan", "ios": "https://dc.lft.to/lastmile_qr_scan"}, "fusion_lon": 0.0}, {"lat": 38.913250833333336, "is_disabled": 0, "type": "electric_scooter", "lon": -77.03252716666667, "bike_id": "0d8221f4606b1ea3ec5dada15224cc07", "fusion_lat": 0.0, "name": "0d8221f4606b1ea3ec5dada15224cc07", "is_reserved": 0, "rental_uris": {"android": "https://dc.lft.to/lastmile_qr_scan", "ios": "https://dc.lft.to/lastmile_qr_scan"}, "fusion_lon": 0.0}, {"lat": 38.907276333333336, "is_disabled": 0, "type": "electric_scooter", "lon": -77.037168, "bike_id": "3f412e35ca63aeeffb2fa4943fc74fe9", "fusion_lat": 0.0, "name": "3f412e35ca63aeeffb2fa4943fc74fe9", "is_reserved": 0, "rental_uris": {"android": "https://dc.lft.to/lastmile_qr_scan", "ios": "https://dc.lft.to/lastmile_qr_scan"}, "fusion_lon": 0.0}, {"lat": 38.91966733333334, "is_disabled": 0, "type": "electric_scooter", "lon": -77.0120855, "bike_id": "7bfefee131272bba36a772b4063cedef", "fusion_lat": 0.0, "name": "7bfefee131272bba36a772b4063cedef", "is_reserved": 0, "rental_uris": {"android": "https://dc.lft.to/lastmile_qr_scan", "ios": "https://dc.lft.to/lastmile_qr_scan"}, "fusion_lon": 0.0}, {"lat": 38.925682, "is_disabled": 0, "type": "electric_scooter", "lon": -77.0575295, "bike_id": "6b6de2a3cddf510e1eb109703b7db43a", "fusion_lat": 0.0, "name": "6b6de2a3cddf510e1eb109703b7db43a", "is_reserved": 0, "rental_uris": {"android": "https://dc.lft.to/lastmile_qr_scan", "ios": "https://dc.lft.to/lastmile_qr_scan"}, "fusion_lon": 0.0}, {"lat": 38.9266135, "is_disabled": 0, "type": "electric_scooter", "lon": -76.99538366666667, "bike_id": "d83c50a09abd86bbd6c3dfd604b9c1ac", "fusion_lat": 0.0, "name": "d83c50a09abd86bbd6c3dfd604b9c1ac", "is_reserved": 0, "rental_uris": {"android": "https://dc.lft.to/lastmile_qr_scan", "ios": "https://dc.lft.to/lastmile_qr_scan"}, "fusion_lon": 0.0}, {"lat": 38.8976835, "is_disabled": 0, "type": "electric_bike", "lon": -76.90442383333334, "bike_id": "1491e6b80090477280683991f6be62b3", "fusion_lat": 0.0, "name": "1491e6b80090477280683991f6be62b3", "is_reserved": 0, "rental_uris": {"android": "https://dc.lft.to/lastmile_qr_scan", "ios": "https://dc.lft.to/lastmile_qr_scan"}, "fusion_lon": 0.0}, {"lat": 38.898011333333336, "is_disabled": 0, "type": "electric_scooter", "lon": -77.00061316666667, "bike_id": "7c2bf7070a0372528ff66fb141549027", "fusion_lat": 0.0, "name": "7c2bf7070a0372528ff66fb141549027", "is_reserved": 0, "rental_uris": {"android": "https://dc.lft.to/lastmile_qr_scan", "ios": "https://dc.lft.to/lastmile_qr_scan"}, "fusion_lon": 0.0}, {"lat": 38.90075433333333, "is_disabled": 0, "type": "electric_scooter", "lon": -77.049479, "bike_id": "0e61c52e38a10166754f3ced5bb16cb9", "fusion_lat": 0.0, "name": "0e61c52e38a10166754f3ced5bb16cb9", "is_reserved": 0, "rental_uris": {"android": "https://dc.lft.to/lastmile_qr_scan", "ios": "https://dc.lft.to/lastmile_qr_scan"}, "fusion_lon": 0.0}, {"lat": 38.88098183333334, "is_disabled": 0, "type": "electric_scooter", "lon": -76.99855266666667, "bike_id": "cb7caf98e20a32829f9f93b042190f74", "fusion_lat": 0.0, "name": "cb7caf98e20a32829f9f93b042190f74", "is_reserved": 0, "rental_uris": {"android": "https://dc.lft.to/lastmile_qr_scan", "ios": "https://dc.lft.to/lastmile_qr_scan"}, "fusion_lon": 0.0}, {"lat": 38.956305666666665, "is_disabled": 0, "type": "electric_bike", "lon": -76.93879983333333, "bike_id": "9323bd1bd13f7a9c76d34db1c9f60d30", "fusion_lat": 0.0, "name": "9323bd1bd13f7a9c76d34db1c9f60d30", "is_reserved": 0, "rental_uris": {"android": "https://dc.lft.to/lastmile_qr_scan", "ios": "https://dc.lft.to/lastmile_qr_scan"}, "fusion_lon": 0.0}, {"lat": 38.842761333333335, "is_disabled": 0, "type": "electric_bike", "lon": -76.98843833333333, "bike_id": "d031ec4ef73bae04aaf74b6e1b812af1", "fusion_lat": 0.0, "name": "d031ec4ef73bae04aaf74b6e1b812af1", "is_reserved": 0, "rental_uris": {"android": "https://dc.lft.to/lastmile_qr_scan", "ios": "https://dc.lft.to/lastmile_qr_scan"}, "fusion_lon": 0.0}, {"lat": 38.93374283333333, "is_disabled": 0, "type": "electric_scooter", "lon": -77.03555616666667, "bike_id": "7dba0488c717089a8a344102ad809d5c", "fusion_lat": 0.0, "name": "7dba0488c717089a8a344102ad809d5c", "is_reserved": 0, "rental_uris": {"android": "https://dc.lft.to/lastmile_qr_scan", "ios": "https://dc.lft.to/lastmile_qr_scan"}, "fusion_lon": 0.0}, {"lat": 38.92894316666667, "is_disabled": 0, "type": "electric_scooter", "lon": -77.01639316666666, "bike_id": "96437314c05a7fc5a252eb94648419c8", "fusion_lat": 0.0, "name": "96437314c05a7fc5a252eb94648419c8", "is_reserved": 0, "rental_uris": {"android": "https://dc.lft.to/lastmile_qr_scan", "ios": "https://dc.lft.to/lastmile_qr_scan"}, "fusion_lon": 0.0}, {"lat": 38.90392416666667, "is_disabled": 0, "type": "electric_scooter", "lon": -76.99005316666667, "bike_id": "dc91b014923414f6e41c75c0320bdce2", "fusion_lat": 0.0, "name": "dc91b014923414f6e41c75c0320bdce2", "is_reserved": 0, "rental_uris": {"android": "https://dc.lft.to/lastmile_qr_scan", "ios": "https://dc.lft.to/lastmile_qr_scan"}, "fusion_lon": 0.0}, {"lat": 38.886045333333335, "is_disabled": 0, "type": "electric_scooter", "lon": -77.01896833333333, "bike_id": "ee1645958e6620a6575fae0834f54cc0", "fusion_lat": 0.0, "name": "ee1645958e6620a6575fae0834f54cc0", "is_reserved": 0, "rental_uris": {"android": "https://dc.lft.to/lastmile_qr_scan", "ios": "https://dc.lft.to/lastmile_qr_scan"}, "fusion_lon": 0.0}, {"lat": 38.885466, "is_disabled": 0, "type": "electric_bike", "lon": -77.11785533333334, "bike_id": "dbad28af4c0b669be8e18d4fec6f1771", "fusion_lat": 0.0, "name": "dbad28af4c0b669be8e18d4fec6f1771", "is_reserved": 0, "rental_uris": {"android": "https://dc.lft.to/lastmile_qr_scan", "ios": "https://dc.lft.to/lastmile_qr_scan"}, "fusion_lon": 0.0}, {"lat": 38.95707633333333, "is_disabled": 0, "type": "electric_scooter", "lon": -77.0239855, "bike_id": "2c98cc8d9a038fe1fbfe6378a29cd2cb", "fusion_lat": 0.0, "name": "2c98cc8d9a038fe1fbfe6378a29cd2cb", "is_reserved": 0, "rental_uris": {"android": "https://dc.lft.to/lastmile_qr_scan", "ios": "https://dc.lft.to/lastmile_qr_scan"}, "fusion_lon": 0.0}, {"lat": 38.9482095, "is_disabled": 0, "type": "electric_scooter", "lon": -76.9990205, "bike_id": "ef13e4ea479d4e46e89d2693ef9eec3c", "fusion_lat": 0.0, "name": "ef13e4ea479d4e46e89d2693ef9eec3c", "is_reserved": 0, "rental_uris": {"android": "https://dc.lft.to/lastmile_qr_scan", "ios": "https://dc.lft.to/lastmile_qr_scan"}, "fusion_lon": 0.0}, {"lat": 38.9040745, "is_disabled": 0, "type": "electric_scooter", "lon": -77.05069116666667, "bike_id": "6bbf2e231407d59bb8ab96c8aa9df4cf", "fusion_lat": 0.0, "name": "6bbf2e231407d59bb8ab96c8aa9df4cf", "is_reserved": 0, "rental_uris": {"android": "https://dc.lft.to/lastmile_qr_scan", "ios": "https://dc.lft.to/lastmile_qr_scan"}, "fusion_lon": 0.0}, {"lat": 38.90631916666667, "is_disabled": 0, "type": "electric_scooter", "lon": -77.00827683333333, "bike_id": "3a42a0a30bfd2162102f4f9c1fe66b3a", "fusion_lat": 0.0, "name": "3a42a0a30bfd2162102f4f9c1fe66b3a", "is_reserved": 0, "rental_uris": {"android": "https://dc.lft.to/lastmile_qr_scan", "ios": "https://dc.lft.to/lastmile_qr_scan"}, "fusion_lon": 0.0}, {"lat": 38.886699166666666, "is_disabled": 0, "type": "electric_bike", "lon": -77.16241633333334, "bike_id": "5a969d5f2e1091ddba64bc25c6e5db5c", "fusion_lat": 0.0, "name": "5a969d5f2e1091ddba64bc25c6e5db5c", "is_reserved": 0, "rental_uris": {"android": "https://dc.lft.to/lastmile_qr_scan", "ios": "https://dc.lft.to/lastmile_qr_scan"}, "fusion_lon": 0.0}, {"lat": 38.908211, "is_disabled": 0, "type": "electric_scooter", "lon": -77.02001333333334, "bike_id": "5ca7022a5b4ac44591dc098d7aad99f8", "fusion_lat": 0.0, "name": "5ca7022a5b4ac44591dc098d7aad99f8", "is_reserved": 0, "rental_uris": {"android": "https://dc.lft.to/lastmile_qr_scan", "ios": "https://dc.lft.to/lastmile_qr_scan"}, "fusion_lon": 0.0}, {"lat": 38.9052395, "is_disabled": 0, "type": "electric_bike", "lon": -77.06603766666667, "bike_id": "873ce4021a197a51bdebb3b866d695d0", "fusion_lat": 0.0, "name": "873ce4021a197a51bdebb3b866d695d0", "is_reserved": 0, "rental_uris": {"android": "https://dc.lft.to/lastmile_qr_scan", "ios": "https://dc.lft.to/lastmile_qr_scan"}, "fusion_lon": 0.0}, {"lat": 38.9195295, "is_disabled": 0, "type": "electric_scooter", "lon": -77.04887683333334, "bike_id": "ea7c76e585b964436e8072fe178b2056", "fusion_lat": 0.0, "name": "ea7c76e585b964436e8072fe178b2056", "is_reserved": 0, "rental_uris": {"android": "https://dc.lft.to/lastmile_qr_scan", "ios": "https://dc.lft.to/lastmile_qr_scan"}, "fusion_lon": 0.0}, {"lat": 38.876292, "is_disabled": 0, "type": "electric_scooter", "lon": -76.9652415, "bike_id": "8815458eb13ee3169d980fafd5994dab", "fusion_lat": 0.0, "name": "8815458eb13ee3169d980fafd5994dab", "is_reserved": 0, "rental_uris": {"android": "https://dc.lft.to/lastmile_qr_scan", "ios": "https://dc.lft.to/lastmile_qr_scan"}, "fusion_lon": 0.0}, {"lat": 38.90719466666667, "is_disabled": 0, "type": "electric_scooter", "lon": -77.02750983333334, "bike_id": "104cec62b0eef046c7fd0486b3b24b52", "fusion_lat": 0.0, "name": "104cec62b0eef046c7fd0486b3b24b52", "is_reserved": 0, "rental_uris": {"android": "https://dc.lft.to/lastmile_qr_scan", "ios": "https://dc.lft.to/lastmile_qr_scan"}, "fusion_lon": 0.0}, {"lat": 38.873378, "is_disabled": 0, "type": "electric_scooter", "lon": -76.99165433333333, "bike_id": "7b677c619fdeabccb0cbf6e00d5e1fe6", "fusion_lat": 0.0, "name": "7b677c619fdeabccb0cbf6e00d5e1fe6", "is_reserved": 0, "rental_uris": {"android": "https://dc.lft.to/lastmile_qr_scan", "ios": "https://dc.lft.to/lastmile_qr_scan"}, "fusion_lon": 0.0}, {"lat": 38.90622716666667, "is_disabled": 0, "type": "electric_scooter", "lon": -77.021809, "bike_id": "2425556a03bd2db52ebfdec9994dc413", "fusion_lat": 0.0, "name": "2425556a03bd2db52ebfdec9994dc413", "is_reserved": 0, "rental_uris": {"android": "https://dc.lft.to/lastmile_qr_scan", "ios": "https://dc.lft.to/lastmile_qr_scan"}, "fusion_lon": 0.0}, {"lat": 38.919011, "is_disabled": 0, "type": "electric_scooter", "lon": -77.02480883333334, "bike_id": "bbc9ff4d04e052671274c87a563eb2ee", "fusion_lat": 0.0, "name": "bbc9ff4d04e052671274c87a563eb2ee", "is_reserved": 0, "rental_uris": {"android": "https://dc.lft.to/lastmile_qr_scan", "ios": "https://dc.lft.to/lastmile_qr_scan"}, "fusion_lon": 0.0}, {"lat": 38.954097, "is_disabled": 0, "type": "electric_bike", "lon": -76.98056666666666, "bike_id": "c1dc4504d47580c4d200362c69eec6f4", "fusion_lat": 0.0, "name": "c1dc4504d47580c4d200362c69eec6f4", "is_reserved": 0, "rental_uris": {"android": "https://dc.lft.to/lastmile_qr_scan", "ios": "https://dc.lft.to/lastmile_qr_scan"}, "fusion_lon": 0.0}, {"lat": 38.900683, "is_disabled": 0, "type": "electric_scooter", "lon": -77.044143, "bike_id": "837f2c6b9c45c4f898f022ec0e75e22a", "fusion_lat": 0.0, "name": "837f2c6b9c45c4f898f022ec0e75e22a", "is_reserved": 0, "rental_uris": {"android": "https://dc.lft.to/lastmile_qr_scan", "ios": "https://dc.lft.to/lastmile_qr_scan"}, "fusion_lon": 0.0}, {"lat": 38.901205166666664, "is_disabled": 0, "type": "electric_scooter", "lon": -77.033254, "bike_id": "086e2125bf653f30f9b35a9a27b6b4d0", "fusion_lat": 0.0, "name": "086e2125bf653f30f9b35a9a27b6b4d0", "is_reserved": 0, "rental_uris": {"android": "https://dc.lft.to/lastmile_qr_scan", "ios": "https://dc.lft.to/lastmile_qr_scan"}, "fusion_lon": 0.0}, {"lat": 38.90772416666667, "is_disabled": 0, "type": "electric_scooter", "lon": -77.03546316666667, "bike_id": "fafee7714a1488d8fbc8a43d2506363a", "fusion_lat": 0.0, "name": "fafee7714a1488d8fbc8a43d2506363a", "is_reserved": 0, "rental_uris": {"android": "https://dc.lft.to/lastmile_qr_scan", "ios": "https://dc.lft.to/lastmile_qr_scan"}, "fusion_lon": 0.0}, {"lat": 38.8757535, "is_disabled": 0, "type": "electric_scooter", "lon": -77.02083933333333, "bike_id": "04172d12e4ad1744ae57c0bf3bc5c437", "fusion_lat": 0.0, "name": "04172d12e4ad1744ae57c0bf3bc5c437", "is_reserved": 0, "rental_uris": {"android": "https://dc.lft.to/lastmile_qr_scan", "ios": "https://dc.lft.to/lastmile_qr_scan"}, "fusion_lon": 0.0}, {"lat": 38.91710533333333, "is_disabled": 0, "type": "electric_scooter", "lon": -77.03721733333333, "bike_id": "9b7d174e0be64fe48c437ff56866ee5c", "fusion_lat": 0.0, "name": "9b7d174e0be64fe48c437ff56866ee5c", "is_reserved": 0, "rental_uris": {"android": "https://dc.lft.to/lastmile_qr_scan", "ios": "https://dc.lft.to/lastmile_qr_scan"}, "fusion_lon": 0.0}, {"lat": 39.03043916666667, "is_disabled": 0, "type": "electric_bike", "lon": -77.09482483333333, "bike_id": "5bc4b154f1399a1915adaa85350a9f3e", "fusion_lat": 0.0, "name": "5bc4b154f1399a1915adaa85350a9f3e", "is_reserved": 0, "rental_uris": {"android": "https://dc.lft.to/lastmile_qr_scan", "ios": "https://dc.lft.to/lastmile_qr_scan"}, "fusion_lon": 0.0}, {"lat": 38.9181305, "is_disabled": 0, "type": "electric_scooter", "lon": -77.02476233333333, "bike_id": "da929bf58075e3de3fbd2af5f727ae66", "fusion_lat": 0.0, "name": "da929bf58075e3de3fbd2af5f727ae66", "is_reserved": 0, "rental_uris": {"android": "https://dc.lft.to/lastmile_qr_scan", "ios": "https://dc.lft.to/lastmile_qr_scan"}, "fusion_lon": 0.0}, {"lat": 38.90774483333333, "is_disabled": 0, "type": "electric_scooter", "lon": -77.03854466666667, "bike_id": "5cc46c118b129c586b82e2b6fa716996", "fusion_lat": 0.0, "name": "5cc46c118b129c586b82e2b6fa716996", "is_reserved": 0, "rental_uris": {"android": "https://dc.lft.to/lastmile_qr_scan", "ios": "https://dc.lft.to/lastmile_qr_scan"}, "fusion_lon": 0.0}, {"lat": 38.915982666666665, "is_disabled": 0, "type": "electric_scooter", "lon": -77.03853066666667, "bike_id": "635d4e2c0b7b704fdabe47d31290b812", "fusion_lat": 0.0, "name": "635d4e2c0b7b704fdabe47d31290b812", "is_reserved": 0, "rental_uris": {"android": "https://dc.lft.to/lastmile_qr_scan", "ios": "https://dc.lft.to/lastmile_qr_scan"}, "fusion_lon": 0.0}, {"lat": 38.913555333333335, "is_disabled": 0, "type": "electric_scooter", "lon": -77.04592016666666, "bike_id": "678bbbdd2301aaf959bc8fc82be5e959", "fusion_lat": 0.0, "name": "678bbbdd2301aaf959bc8fc82be5e959", "is_reserved": 0, "rental_uris": {"android": "https://dc.lft.to/lastmile_qr_scan", "ios": "https://dc.lft.to/lastmile_qr_scan"}, "fusion_lon": 0.0}, {"lat": 38.885135, "is_disabled": 0, "type": "electric_scooter", "lon": -77.006805, "bike_id": "2a2743c0bb973a781f2ea98f196fb725", "fusion_lat": 0.0, "name": "2a2743c0bb973a781f2ea98f196fb725", "is_reserved": 0, "rental_uris": {"android": "https://dc.lft.to/lastmile_qr_scan", "ios": "https://dc.lft.to/lastmile_qr_scan"}, "fusion_lon": 0.0}, {"lat": 38.927386, "is_disabled": 0, "type": "electric_scooter", "lon": -76.99720816666667, "bike_id": "5924a347355297b5c90c86cac4473ec3", "fusion_lat": 0.0, "name": "5924a347355297b5c90c86cac4473ec3", "is_reserved": 0, "rental_uris": {"android": "https://dc.lft.to/lastmile_qr_scan", "ios": "https://dc.lft.to/lastmile_qr_scan"}, "fusion_lon": 0.0}, {"lat": 38.93841783333333, "is_disabled": 0, "type": "electric_bike", "lon": -76.98859216666666, "bike_id": "5ee312dbffb0af7dbcbd9e8e895f7ed5", "fusion_lat": 0.0, "name": "5ee312dbffb0af7dbcbd9e8e895f7ed5", "is_reserved": 0, "rental_uris": {"android": "https://dc.lft.to/lastmile_qr_scan", "ios": "https://dc.lft.to/lastmile_qr_scan"}, "fusion_lon": 0.0}, {"lat": 38.86366066666667, "is_disabled": 0, "type": "electric_scooter", "lon": -76.99030883333333, "bike_id": "13ffe85061c0f3e4fd05e2be95115819", "fusion_lat": 0.0, "name": "13ffe85061c0f3e4fd05e2be95115819", "is_reserved": 0, "rental_uris": {"android": "https://dc.lft.to/lastmile_qr_scan", "ios": "https://dc.lft.to/lastmile_qr_scan"}, "fusion_lon": 0.0}, {"lat": 38.911090333333334, "is_disabled": 0, "type": "electric_scooter", "lon": -77.04260233333333, "bike_id": "164f6cd572300180976df776f8f8d171", "fusion_lat": 0.0, "name": "164f6cd572300180976df776f8f8d171", "is_reserved": 0, "rental_uris": {"android": "https://dc.lft.to/lastmile_qr_scan", "ios": "https://dc.lft.to/lastmile_qr_scan"}, "fusion_lon": 0.0}, {"lat": 38.91745366666667, "is_disabled": 0, "type": "electric_scooter", "lon": -77.03205316666667, "bike_id": "5ef39deb73d4bb8b0c24582a4de11ba5", "fusion_lat": 0.0, "name": "5ef39deb73d4bb8b0c24582a4de11ba5", "is_reserved": 0, "rental_uris": {"android": "https://dc.lft.to/lastmile_qr_scan", "ios": "https://dc.lft.to/lastmile_qr_scan"}, "fusion_lon": 0.0}, {"lat": 38.90265016666667, "is_disabled": 0, "type": "electric_scooter", "lon": -77.05261983333334, "bike_id": "cef6c06c4bf234e114b9eb4767d5934c", "fusion_lat": 0.0, "name": "cef6c06c4bf234e114b9eb4767d5934c", "is_reserved": 0, "rental_uris": {"android": "https://dc.lft.to/lastmile_qr_scan", "ios": "https://dc.lft.to/lastmile_qr_scan"}, "fusion_lon": 0.0}, {"lat": 38.884792166666664, "is_disabled": 0, "type": "electric_scooter", "lon": -76.9453195, "bike_id": "93c37aaced33276db4db31ab899d0384", "fusion_lat": 0.0, "name": "93c37aaced33276db4db31ab899d0384", "is_reserved": 0, "rental_uris": {"android": "https://dc.lft.to/lastmile_qr_scan", "ios": "https://dc.lft.to/lastmile_qr_scan"}, "fusion_lon": 0.0}, {"lat": 38.90844, "is_disabled": 0, "type": "electric_bike", "lon": -77.04024866666667, "bike_id": "46fb22cb8a40715a60cafb62e42359d9", "fusion_lat": 0.0, "name": "46fb22cb8a40715a60cafb62e42359d9", "is_reserved": 0, "rental_uris": {"android": "https://dc.lft.to/lastmile_qr_scan", "ios": "https://dc.lft.to/lastmile_qr_scan"}, "fusion_lon": 0.0}, {"lat": 38.93077066666667, "is_disabled": 0, "type": "electric_scooter", "lon": -77.07764133333333, "bike_id": "ff616e5cc786141cc9381b95ad887ee6", "fusion_lat": 0.0, "name": "ff616e5cc786141cc9381b95ad887ee6", "is_reserved": 0, "rental_uris": {"android": "https://dc.lft.to/lastmile_qr_scan", "ios": "https://dc.lft.to/lastmile_qr_scan"}, "fusion_lon": 0.0}, {"lat": 38.900230666666666, "is_disabled": 0, "type": "electric_scooter", "lon": -76.98370266666667, "bike_id": "0e4e74b3f22204e45762b4a9eb1dabb0", "fusion_lat": 0.0, "name": "0e4e74b3f22204e45762b4a9eb1dabb0", "is_reserved": 0, "rental_uris": {"android": "https://dc.lft.to/lastmile_qr_scan", "ios": "https://dc.lft.to/lastmile_qr_scan"}, "fusion_lon": 0.0}, {"lat": 38.917796833333334, "is_disabled": 0, "type": "electric_scooter", "lon": -77.02230133333333, "bike_id": "3a7f0d4abfa2514c2fd2d2c2c2bf276b", "fusion_lat": 0.0, "name": "3a7f0d4abfa2514c2fd2d2c2c2bf276b", "is_reserved": 0, "rental_uris": {"android": "https://dc.lft.to/lastmile_qr_scan", "ios": "https://dc.lft.to/lastmile_qr_scan"}, "fusion_lon": 0.0}, {"lat": 38.909436166666666, "is_disabled": 0, "type": "electric_scooter", "lon": -77.0443025, "bike_id": "540accbd1a408f93b3750225d6b2770d", "fusion_lat": 0.0, "name": "540accbd1a408f93b3750225d6b2770d", "is_reserved": 0, "rental_uris": {"android": "https://dc.lft.to/lastmile_qr_scan", "ios": "https://dc.lft.to/lastmile_qr_scan"}, "fusion_lon": 0.0}, {"lat": 38.918215833333335, "is_disabled": 0, "type": "electric_scooter", "lon": -77.03167283333333, "bike_id": "ab784fcbd3efcbbcd33e1389bc762939", "fusion_lat": 0.0, "name": "ab784fcbd3efcbbcd33e1389bc762939", "is_reserved": 0, "rental_uris": {"android": "https://dc.lft.to/lastmile_qr_scan", "ios": "https://dc.lft.to/lastmile_qr_scan"}, "fusion_lon": 0.0}, {"lat": 38.931470833333336, "is_disabled": 0, "type": "electric_scooter", "lon": -77.02135666666666, "bike_id": "aba1f17afd3fe8fa849a7ba463c235c9", "fusion_lat": 0.0, "name": "aba1f17afd3fe8fa849a7ba463c235c9", "is_reserved": 0, "rental_uris": {"android": "https://dc.lft.to/lastmile_qr_scan", "ios": "https://dc.lft.to/lastmile_qr_scan"}, "fusion_lon": 0.0}, {"lat": 38.9056075, "is_disabled": 0, "type": "electric_scooter", "lon": -77.01310866666667, "bike_id": "8ce45b183b6d07ac2dda4fe8bd47ab7f", "fusion_lat": 0.0, "name": "8ce45b183b6d07ac2dda4fe8bd47ab7f", "is_reserved": 0, "rental_uris": {"android": "https://dc.lft.to/lastmile_qr_scan", "ios": "https://dc.lft.to/lastmile_qr_scan"}, "fusion_lon": 0.0}, {"lat": 38.901857666666665, "is_disabled": 0, "type": "electric_scooter", "lon": -77.0240075, "bike_id": "cdd0ba72aa0664c7668ff198e318d88b", "fusion_lat": 0.0, "name": "cdd0ba72aa0664c7668ff198e318d88b", "is_reserved": 0, "rental_uris": {"android": "https://dc.lft.to/lastmile_qr_scan", "ios": "https://dc.lft.to/lastmile_qr_scan"}, "fusion_lon": 0.0}, {"lat": 38.940624166666666, "is_disabled": 0, "type": "electric_scooter", "lon": -76.9946205, "bike_id": "21dbdc5396cd2eeb897131d37301dc85", "fusion_lat": 0.0, "name": "21dbdc5396cd2eeb897131d37301dc85", "is_reserved": 0, "rental_uris": {"android": "https://dc.lft.to/lastmile_qr_scan", "ios": "https://dc.lft.to/lastmile_qr_scan"}, "fusion_lon": 0.0}, {"lat": 38.917430833333334, "is_disabled": 0, "type": "electric_scooter", "lon": -77.03183, "bike_id": "7d76e8b1c781d0c66b53a7b99581dcbe", "fusion_lat": 0.0, "name": "7d76e8b1c781d0c66b53a7b99581dcbe", "is_reserved": 0, "rental_uris": {"android": "https://dc.lft.to/lastmile_qr_scan", "ios": "https://dc.lft.to/lastmile_qr_scan"}, "fusion_lon": 0.0}, {"lat": 38.922093, "is_disabled": 0, "type": "electric_scooter", "lon": -77.03288866666666, "bike_id": "128734236269298251c7f32c99d78afa", "fusion_lat": 0.0, "name": "128734236269298251c7f32c99d78afa", "is_reserved": 0, "rental_uris": {"android": "https://dc.lft.to/lastmile_qr_scan", "ios": "https://dc.lft.to/lastmile_qr_scan"}, "fusion_lon": 0.0}, {"lat": 38.960930166666664, "is_disabled": 0, "type": "electric_scooter", "lon": -77.08280816666667, "bike_id": "95b898968833fa9447bdfe93e21305d1", "fusion_lat": 0.0, "name": "95b898968833fa9447bdfe93e21305d1", "is_reserved": 0, "rental_uris": {"android": "https://dc.lft.to/lastmile_qr_scan", "ios": "https://dc.lft.to/lastmile_qr_scan"}, "fusion_lon": 0.0}, {"lat": 38.90134883333333, "is_disabled": 0, "type": "electric_scooter", "lon": -77.00067816666666, "bike_id": "9d12e0478a9eae6adc6ff4b4d2f2dd11", "fusion_lat": 0.0, "name": "9d12e0478a9eae6adc6ff4b4d2f2dd11", "is_reserved": 0, "rental_uris": {"android": "https://dc.lft.to/lastmile_qr_scan", "ios": "https://dc.lft.to/lastmile_qr_scan"}, "fusion_lon": 0.0}, {"lat": 38.908299166666666, "is_disabled": 0, "type": "electric_scooter", "lon": -77.04328716666667, "bike_id": "3aa4593ab0c4033518887d4af4b184c4", "fusion_lat": 0.0, "name": "3aa4593ab0c4033518887d4af4b184c4", "is_reserved": 0, "rental_uris": {"android": "https://dc.lft.to/lastmile_qr_scan", "ios": "https://dc.lft.to/lastmile_qr_scan"}, "fusion_lon": 0.0}, {"lat": 38.915471333333336, "is_disabled": 0, "type": "electric_scooter", "lon": -77.01236733333333, "bike_id": "4642336621c04870a857905da24de417", "fusion_lat": 0.0, "name": "4642336621c04870a857905da24de417", "is_reserved": 0, "rental_uris": {"android": "https://dc.lft.to/lastmile_qr_scan", "ios": "https://dc.lft.to/lastmile_qr_scan"}, "fusion_lon": 0.0}, {"lat": 38.90430333333333, "is_disabled": 0, "type": "electric_scooter", "lon": -77.02620116666667, "bike_id": "63b8cbc82239b6f0ebf3e8a58d7cdd13", "fusion_lat": 0.0, "name": "63b8cbc82239b6f0ebf3e8a58d7cdd13", "is_reserved": 0, "rental_uris": {"android": "https://dc.lft.to/lastmile_qr_scan", "ios": "https://dc.lft.to/lastmile_qr_scan"}, "fusion_lon": 0.0}, {"lat": 38.84268466666666, "is_disabled": 0, "type": "electric_bike", "lon": -76.9884865, "bike_id": "46daa2d2c6886ce07ecc91f6c26119b9", "fusion_lat": 0.0, "name": "46daa2d2c6886ce07ecc91f6c26119b9", "is_reserved": 0, "rental_uris": {"android": "https://dc.lft.to/lastmile_qr_scan", "ios": "https://dc.lft.to/lastmile_qr_scan"}, "fusion_lon": 0.0}, {"lat": 38.884874333333336, "is_disabled": 0, "type": "electric_scooter", "lon": -77.00712783333333, "bike_id": "fe1db67eec094023189b00de4e189f51", "fusion_lat": 0.0, "name": "fe1db67eec094023189b00de4e189f51", "is_reserved": 0, "rental_uris": {"android": "https://dc.lft.to/lastmile_qr_scan", "ios": "https://dc.lft.to/lastmile_qr_scan"}, "fusion_lon": 0.0}, {"lat": 38.924999166666666, "is_disabled": 0, "type": "electric_scooter", "lon": -77.02155533333334, "bike_id": "381483b929ce8f41d0893270a06b0c34", "fusion_lat": 0.0, "name": "381483b929ce8f41d0893270a06b0c34", "is_reserved": 0, "rental_uris": {"android": "https://dc.lft.to/lastmile_qr_scan", "ios": "https://dc.lft.to/lastmile_qr_scan"}, "fusion_lon": 0.0}, {"lat": 38.89523533333333, "is_disabled": 0, "type": "electric_scooter", "lon": -77.00209, "bike_id": "fb1a65894a5bc104ce092140abe7bbb9", "fusion_lat": 0.0, "name": "fb1a65894a5bc104ce092140abe7bbb9", "is_reserved": 0, "rental_uris": {"android": "https://dc.lft.to/lastmile_qr_scan", "ios": "https://dc.lft.to/lastmile_qr_scan"}, "fusion_lon": 0.0}, {"lat": 38.942873166666665, "is_disabled": 0, "type": "electric_scooter", "lon": -77.021754, "bike_id": "235489472e07fc0b0718a726adf47e9a", "fusion_lat": 0.0, "name": "235489472e07fc0b0718a726adf47e9a", "is_reserved": 0, "rental_uris": {"android": "https://dc.lft.to/lastmile_qr_scan", "ios": "https://dc.lft.to/lastmile_qr_scan"}, "fusion_lon": 0.0}, {"lat": 38.907287833333335, "is_disabled": 0, "type": "electric_scooter", "lon": -77.03717466666667, "bike_id": "d7b0ccb91a909bffb90581a69ca6a7dc", "fusion_lat": 0.0, "name": "d7b0ccb91a909bffb90581a69ca6a7dc", "is_reserved": 0, "rental_uris": {"android": "https://dc.lft.to/lastmile_qr_scan", "ios": "https://dc.lft.to/lastmile_qr_scan"}, "fusion_lon": 0.0}, {"lat": 38.8662295, "is_disabled": 0, "type": "electric_scooter", "lon": -76.98697966666667, "bike_id": "b18d1b8162e24184e97eb1dc66b0dfbd", "fusion_lat": 0.0, "name": "b18d1b8162e24184e97eb1dc66b0dfbd", "is_reserved": 0, "rental_uris": {"android": "https://dc.lft.to/lastmile_qr_scan", "ios": "https://dc.lft.to/lastmile_qr_scan"}, "fusion_lon": 0.0}, {"lat": 38.875757, "is_disabled": 0, "type": "electric_bike", "lon": -77.10576916666666, "bike_id": "e9765f855feaeec4bbab5923c110ac77", "fusion_lat": 0.0, "name": "e9765f855feaeec4bbab5923c110ac77", "is_reserved": 0, "rental_uris": {"android": "https://dc.lft.to/lastmile_qr_scan", "ios": "https://dc.lft.to/lastmile_qr_scan"}, "fusion_lon": 0.0}, {"lat": 38.9323065, "is_disabled": 0, "type": "electric_scooter", "lon": -76.99605066666666, "bike_id": "a916c55992963625e7e479e0ec9981c2", "fusion_lat": 0.0, "name": "a916c55992963625e7e479e0ec9981c2", "is_reserved": 0, "rental_uris": {"android": "https://dc.lft.to/lastmile_qr_scan", "ios": "https://dc.lft.to/lastmile_qr_scan"}, "fusion_lon": 0.0}, {"lat": 38.90376883333333, "is_disabled": 0, "type": "electric_scooter", "lon": -77.02814083333334, "bike_id": "fb31d9a2db4069d576bd2f2de9493c7c", "fusion_lat": 0.0, "name": "fb31d9a2db4069d576bd2f2de9493c7c", "is_reserved": 0, "rental_uris": {"android": "https://dc.lft.to/lastmile_qr_scan", "ios": "https://dc.lft.to/lastmile_qr_scan"}, "fusion_lon": 0.0}, {"lat": 38.90143483333333, "is_disabled": 0, "type": "electric_bike", "lon": -77.02285683333334, "bike_id": "4fb4cc3f7749cbde5ae6fb04c7d00fe0", "fusion_lat": 0.0, "name": "4fb4cc3f7749cbde5ae6fb04c7d00fe0", "is_reserved": 0, "rental_uris": {"android": "https://dc.lft.to/lastmile_qr_scan", "ios": "https://dc.lft.to/lastmile_qr_scan"}, "fusion_lon": 0.0}, {"lat": 38.89363316666667, "is_disabled": 0, "type": "electric_scooter", "lon": -76.9481735, "bike_id": "81808f69e15c3fd5642a1574734f726a", "fusion_lat": 0.0, "name": "81808f69e15c3fd5642a1574734f726a", "is_reserved": 0, "rental_uris": {"android": "https://dc.lft.to/lastmile_qr_scan", "ios": "https://dc.lft.to/lastmile_qr_scan"}, "fusion_lon": 0.0}, {"lat": 38.916434, "is_disabled": 0, "type": "electric_scooter", "lon": -77.02084516666666, "bike_id": "f819c0207d5936c67bbffd225862d5fd", "fusion_lat": 0.0, "name": "f819c0207d5936c67bbffd225862d5fd", "is_reserved": 0, "rental_uris": {"android": "https://dc.lft.to/lastmile_qr_scan", "ios": "https://dc.lft.to/lastmile_qr_scan"}, "fusion_lon": 0.0}, {"lat": 38.85801583333333, "is_disabled": 0, "type": "electric_scooter", "lon": -76.98723633333333, "bike_id": "07e9406b47d68892417b58604b4919f0", "fusion_lat": 0.0, "name": "07e9406b47d68892417b58604b4919f0", "is_reserved": 0, "rental_uris": {"android": "https://dc.lft.to/lastmile_qr_scan", "ios": "https://dc.lft.to/lastmile_qr_scan"}, "fusion_lon": 0.0}, {"lat": 38.879394166666664, "is_disabled": 0, "type": "electric_scooter", "lon": -77.00405, "bike_id": "9b9a36afb20f9fb0db689e7e7273f12f", "fusion_lat": 0.0, "name": "9b9a36afb20f9fb0db689e7e7273f12f", "is_reserved": 0, "rental_uris": {"android": "https://dc.lft.to/lastmile_qr_scan", "ios": "https://dc.lft.to/lastmile_qr_scan"}, "fusion_lon": 0.0}, {"lat": 38.8833735, "is_disabled": 0, "type": "electric_scooter", "lon": -77.03146516666666, "bike_id": "995f75a368c7c945909013c7fcaf6d6b", "fusion_lat": 0.0, "name": "995f75a368c7c945909013c7fcaf6d6b", "is_reserved": 0, "rental_uris": {"android": "https://dc.lft.to/lastmile_qr_scan", "ios": "https://dc.lft.to/lastmile_qr_scan"}, "fusion_lon": 0.0}, {"lat": 38.911091, "is_disabled": 0, "type": "electric_scooter", "lon": -77.03215116666667, "bike_id": "ec853226065aeeea063867e08e3f405f", "fusion_lat": 0.0, "name": "ec853226065aeeea063867e08e3f405f", "is_reserved": 0, "rental_uris": {"android": "https://dc.lft.to/lastmile_qr_scan", "ios": "https://dc.lft.to/lastmile_qr_scan"}, "fusion_lon": 0.0}, {"lat": 38.92243533333333, "is_disabled": 0, "type": "electric_scooter", "lon": -77.04250216666667, "bike_id": "5f0ad68a9d7f9cac685aad136b6966ac", "fusion_lat": 0.0, "name": "5f0ad68a9d7f9cac685aad136b6966ac", "is_reserved": 0, "rental_uris": {"android": "https://dc.lft.to/lastmile_qr_scan", "ios": "https://dc.lft.to/lastmile_qr_scan"}, "fusion_lon": 0.0}, {"lat": 38.923874833333336, "is_disabled": 0, "type": "electric_scooter", "lon": -77.00063483333334, "bike_id": "505e60c095758a07cbd58d26243ab283", "fusion_lat": 0.0, "name": "505e60c095758a07cbd58d26243ab283", "is_reserved": 0, "rental_uris": {"android": "https://dc.lft.to/lastmile_qr_scan", "ios": "https://dc.lft.to/lastmile_qr_scan"}, "fusion_lon": 0.0}, {"lat": 38.91814433333333, "is_disabled": 0, "type": "electric_scooter", "lon": -77.0230405, "bike_id": "a06998e8cc5b2fec6bf4580b51104730", "fusion_lat": 0.0, "name": "a06998e8cc5b2fec6bf4580b51104730", "is_reserved": 0, "rental_uris": {"android": "https://dc.lft.to/lastmile_qr_scan", "ios": "https://dc.lft.to/lastmile_qr_scan"}, "fusion_lon": 0.0}, {"lat": 38.91802166666667, "is_disabled": 0, "type": "electric_scooter", "lon": -77.02698833333334, "bike_id": "79d7b7eb0bf42b4d77e62d2c32e1fb20", "fusion_lat": 0.0, "name": "79d7b7eb0bf42b4d77e62d2c32e1fb20", "is_reserved": 0, "rental_uris": {"android": "https://dc.lft.to/lastmile_qr_scan", "ios": "https://dc.lft.to/lastmile_qr_scan"}, "fusion_lon": 0.0}, {"lat": 38.918763, "is_disabled": 0, "type": "electric_scooter", "lon": -77.04040233333333, "bike_id": "273cfc7d1ffaac6c142914218116ae83", "fusion_lat": 0.0, "name": "273cfc7d1ffaac6c142914218116ae83", "is_reserved": 0, "rental_uris": {"android": "https://dc.lft.to/lastmile_qr_scan", "ios": "https://dc.lft.to/lastmile_qr_scan"}, "fusion_lon": 0.0}, {"lat": 38.914249166666664, "is_disabled": 0, "type": "electric_scooter", "lon": -77.0318125, "bike_id": "1b838d76bd488d079351b1d64896c23a", "fusion_lat": 0.0, "name": "1b838d76bd488d079351b1d64896c23a", "is_reserved": 0, "rental_uris": {"android": "https://dc.lft.to/lastmile_qr_scan", "ios": "https://dc.lft.to/lastmile_qr_scan"}, "fusion_lon": 0.0}, {"lat": 38.912111833333334, "is_disabled": 0, "type": "electric_scooter", "lon": -77.04507533333333, "bike_id": "df60fea555a44d24ce4cfb95c7ab34de", "fusion_lat": 0.0, "name": "df60fea555a44d24ce4cfb95c7ab34de", "is_reserved": 0, "rental_uris": {"android": "https://dc.lft.to/lastmile_qr_scan", "ios": "https://dc.lft.to/lastmile_qr_scan"}, "fusion_lon": 0.0}, {"lat": 38.90701766666667, "is_disabled": 0, "type": "electric_scooter", "lon": -77.06306266666667, "bike_id": "600052157d782b82ebf759a45a4305c8", "fusion_lat": 0.0, "name": "600052157d782b82ebf759a45a4305c8", "is_reserved": 0, "rental_uris": {"android": "https://dc.lft.to/lastmile_qr_scan", "ios": "https://dc.lft.to/lastmile_qr_scan"}, "fusion_lon": 0.0}, {"lat": 38.91808483333333, "is_disabled": 0, "type": "electric_scooter", "lon": -77.03438816666667, "bike_id": "81a047bab9f669cc1b0395179249e2b4", "fusion_lat": 0.0, "name": "81a047bab9f669cc1b0395179249e2b4", "is_reserved": 0, "rental_uris": {"android": "https://dc.lft.to/lastmile_qr_scan", "ios": "https://dc.lft.to/lastmile_qr_scan"}, "fusion_lon": 0.0}, {"lat": 38.92613933333333, "is_disabled": 0, "type": "electric_scooter", "lon": -77.041702, "bike_id": "b60c23a80a94db36a531212945e71e3b", "fusion_lat": 0.0, "name": "b60c23a80a94db36a531212945e71e3b", "is_reserved": 0, "rental_uris": {"android": "https://dc.lft.to/lastmile_qr_scan", "ios": "https://dc.lft.to/lastmile_qr_scan"}, "fusion_lon": 0.0}, {"lat": 38.92104066666667, "is_disabled": 0, "type": "electric_scooter", "lon": -76.99423566666667, "bike_id": "548aa0089ef7ed81e7ba2e36aca9c582", "fusion_lat": 0.0, "name": "548aa0089ef7ed81e7ba2e36aca9c582", "is_reserved": 0, "rental_uris": {"android": "https://dc.lft.to/lastmile_qr_scan", "ios": "https://dc.lft.to/lastmile_qr_scan"}, "fusion_lon": 0.0}, {"lat": 38.89626, "is_disabled": 0, "type": "electric_scooter", "lon": -77.04485566666666, "bike_id": "afb1299dffd89fe9f94de2dbad44ac10", "fusion_lat": 0.0, "name": "afb1299dffd89fe9f94de2dbad44ac10", "is_reserved": 0, "rental_uris": {"android": "https://dc.lft.to/lastmile_qr_scan", "ios": "https://dc.lft.to/lastmile_qr_scan"}, "fusion_lon": 0.0}, {"lat": 38.936015, "is_disabled": 0, "type": "electric_scooter", "lon": -77.03174283333334, "bike_id": "31cad5b863cdad4dd3f16878dbae6fd3", "fusion_lat": 0.0, "name": "31cad5b863cdad4dd3f16878dbae6fd3", "is_reserved": 0, "rental_uris": {"android": "https://dc.lft.to/lastmile_qr_scan", "ios": "https://dc.lft.to/lastmile_qr_scan"}, "fusion_lon": 0.0}, {"lat": 38.89494583333333, "is_disabled": 0, "type": "electric_scooter", "lon": -77.00204383333333, "bike_id": "6be720eeb0996f8ffcf9d8f4ddd419de", "fusion_lat": 0.0, "name": "6be720eeb0996f8ffcf9d8f4ddd419de", "is_reserved": 0, "rental_uris": {"android": "https://dc.lft.to/lastmile_qr_scan", "ios": "https://dc.lft.to/lastmile_qr_scan"}, "fusion_lon": 0.0}, {"lat": 38.92027566666667, "is_disabled": 0, "type": "electric_scooter", "lon": -77.013232, "bike_id": "2ac73e6c583031d25e5e8e5d6814d60b", "fusion_lat": 0.0, "name": "2ac73e6c583031d25e5e8e5d6814d60b", "is_reserved": 0, "rental_uris": {"android": "https://dc.lft.to/lastmile_qr_scan", "ios": "https://dc.lft.to/lastmile_qr_scan"}, "fusion_lon": 0.0}, {"lat": 38.944189, "is_disabled": 0, "type": "electric_scooter", "lon": -77.06253116666667, "bike_id": "92e72d4838eee865cf8148950b06daad", "fusion_lat": 0.0, "name": "92e72d4838eee865cf8148950b06daad", "is_reserved": 0, "rental_uris": {"android": "https://dc.lft.to/lastmile_qr_scan", "ios": "https://dc.lft.to/lastmile_qr_scan"}, "fusion_lon": 0.0}, {"lat": 38.89659533333333, "is_disabled": 0, "type": "electric_scooter", "lon": -77.02414916666666, "bike_id": "f61aaa0c02b6b8db31fa36f26b7f7125", "fusion_lat": 0.0, "name": "f61aaa0c02b6b8db31fa36f26b7f7125", "is_reserved": 0, "rental_uris": {"android": "https://dc.lft.to/lastmile_qr_scan", "ios": "https://dc.lft.to/lastmile_qr_scan"}, "fusion_lon": 0.0}, {"lat": 38.92013016666667, "is_disabled": 0, "type": "electric_scooter", "lon": -77.01957666666667, "bike_id": "a737d4ad03691d5710b9643e12338d1c", "fusion_lat": 0.0, "name": "a737d4ad03691d5710b9643e12338d1c", "is_reserved": 0, "rental_uris": {"android": "https://dc.lft.to/lastmile_qr_scan", "ios": "https://dc.lft.to/lastmile_qr_scan"}, "fusion_lon": 0.0}, {"lat": 38.91742333333333, "is_disabled": 0, "type": "electric_scooter", "lon": -77.03208883333333, "bike_id": "1bff6130514394104c4effd02476bae7", "fusion_lat": 0.0, "name": "1bff6130514394104c4effd02476bae7", "is_reserved": 0, "rental_uris": {"android": "https://dc.lft.to/lastmile_qr_scan", "ios": "https://dc.lft.to/lastmile_qr_scan"}, "fusion_lon": 0.0}, {"lat": 38.892117166666665, "is_disabled": 0, "type": "electric_scooter", "lon": -76.98697333333334, "bike_id": "a4dd310be8f73531cb8a2076bbb1ce50", "fusion_lat": 0.0, "name": "a4dd310be8f73531cb8a2076bbb1ce50", "is_reserved": 0, "rental_uris": {"android": "https://dc.lft.to/lastmile_qr_scan", "ios": "https://dc.lft.to/lastmile_qr_scan"}, "fusion_lon": 0.0}, {"lat": 38.9826965, "is_disabled": 0, "type": "electric_bike", "lon": -77.01770533333334, "bike_id": "26fde75f30097a97590282f80bf2bacb", "fusion_lat": 0.0, "name": "26fde75f30097a97590282f80bf2bacb", "is_reserved": 0, "rental_uris": {"android": "https://dc.lft.to/lastmile_qr_scan", "ios": "https://dc.lft.to/lastmile_qr_scan"}, "fusion_lon": 0.0}, {"lat": 38.8954825, "is_disabled": 0, "type": "electric_scooter", "lon": -77.02274483333333, "bike_id": "82e06e927e70be69b96d2cc48244b44c", "fusion_lat": 0.0, "name": "82e06e927e70be69b96d2cc48244b44c", "is_reserved": 0, "rental_uris": {"android": "https://dc.lft.to/lastmile_qr_scan", "ios": "https://dc.lft.to/lastmile_qr_scan"}, "fusion_lon": 0.0}, {"lat": 38.91418016666667, "is_disabled": 0, "type": "electric_scooter", "lon": -77.04505133333333, "bike_id": "98460f256403ef17d3e7115e0292d9af", "fusion_lat": 0.0, "name": "98460f256403ef17d3e7115e0292d9af", "is_reserved": 0, "rental_uris": {"android": "https://dc.lft.to/lastmile_qr_scan", "ios": "https://dc.lft.to/lastmile_qr_scan"}, "fusion_lon": 0.0}, {"lat": 38.922918833333334, "is_disabled": 0, "type": "electric_scooter", "lon": -77.0471785, "bike_id": "888d7b3f2dd08070440c4a77dc8ec949", "fusion_lat": 0.0, "name": "888d7b3f2dd08070440c4a77dc8ec949", "is_reserved": 0, "rental_uris": {"android": "https://dc.lft.to/lastmile_qr_scan", "ios": "https://dc.lft.to/lastmile_qr_scan"}, "fusion_lon": 0.0}, {"lat": 38.93076816666667, "is_disabled": 0, "type": "electric_scooter", "lon": -77.03415366666667, "bike_id": "27d8b12c677f71945e35b91f3c02a718", "fusion_lat": 0.0, "name": "27d8b12c677f71945e35b91f3c02a718", "is_reserved": 0, "rental_uris": {"android": "https://dc.lft.to/lastmile_qr_scan", "ios": "https://dc.lft.to/lastmile_qr_scan"}, "fusion_lon": 0.0}, {"lat": 38.80572683333333, "is_disabled": 0, "type": "electric_bike", "lon": -77.06861083333334, "bike_id": "761e9c911a88603a096f82cc404096c5", "fusion_lat": 0.0, "name": "761e9c911a88603a096f82cc404096c5", "is_reserved": 0, "rental_uris": {"android": "https://dc.lft.to/lastmile_qr_scan", "ios": "https://dc.lft.to/lastmile_qr_scan"}, "fusion_lon": 0.0}, {"lat": 38.894219, "is_disabled": 0, "type": "electric_scooter", "lon": -77.0242345, "bike_id": "e77987c95b3c7364cbe8aabb15bc3133", "fusion_lat": 0.0, "name": "e77987c95b3c7364cbe8aabb15bc3133", "is_reserved": 0, "rental_uris": {"android": "https://dc.lft.to/lastmile_qr_scan", "ios": "https://dc.lft.to/lastmile_qr_scan"}, "fusion_lon": 0.0}, {"lat": 38.9849955, "is_disabled": 0, "type": "electric_bike", "lon": -76.98195866666667, "bike_id": "cd15ef53903df147ffe71e2ff9800a06", "fusion_lat": 0.0, "name": "cd15ef53903df147ffe71e2ff9800a06", "is_reserved": 0, "rental_uris": {"android": "https://dc.lft.to/lastmile_qr_scan", "ios": "https://dc.lft.to/lastmile_qr_scan"}, "fusion_lon": 0.0}, {"lat": 38.902702166666664, "is_disabled": 0, "type": "electric_scooter", "lon": -77.04391566666666, "bike_id": "691ca30832c5399eb4d512d52f60f4a4", "fusion_lat": 0.0, "name": "691ca30832c5399eb4d512d52f60f4a4", "is_reserved": 0, "rental_uris": {"android": "https://dc.lft.to/lastmile_qr_scan", "ios": "https://dc.lft.to/lastmile_qr_scan"}, "fusion_lon": 0.0}, {"lat": 38.88411466666667, "is_disabled": 0, "type": "electric_bike", "lon": -76.954189, "bike_id": "54b07a415af50298e8c729f68c68f735", "fusion_lat": 0.0, "name": "54b07a415af50298e8c729f68c68f735", "is_reserved": 0, "rental_uris": {"android": "https://dc.lft.to/lastmile_qr_scan", "ios": "https://dc.lft.to/lastmile_qr_scan"}, "fusion_lon": 0.0}, {"lat": 38.888862, "is_disabled": 0, "type": "electric_scooter", "lon": -76.9315155, "bike_id": "71e2d717ad4ddb870af2bfad861c6342", "fusion_lat": 0.0, "name": "71e2d717ad4ddb870af2bfad861c6342", "is_reserved": 0, "rental_uris": {"android": "https://dc.lft.to/lastmile_qr_scan", "ios": "https://dc.lft.to/lastmile_qr_scan"}, "fusion_lon": 0.0}, {"lat": 38.88735533333333, "is_disabled": 0, "type": "electric_scooter", "lon": -77.015315, "bike_id": "e4f8c248f6c51bc43a5d9505b7ba349c", "fusion_lat": 0.0, "name": "e4f8c248f6c51bc43a5d9505b7ba349c", "is_reserved": 0, "rental_uris": {"android": "https://dc.lft.to/lastmile_qr_scan", "ios": "https://dc.lft.to/lastmile_qr_scan"}, "fusion_lon": 0.0}, {"lat": 38.911168333333336, "is_disabled": 0, "type": "electric_scooter", "lon": -77.03834133333334, "bike_id": "68aab534e7f9f737c143911b7964b21a", "fusion_lat": 0.0, "name": "68aab534e7f9f737c143911b7964b21a", "is_reserved": 0, "rental_uris": {"android": "https://dc.lft.to/lastmile_qr_scan", "ios": "https://dc.lft.to/lastmile_qr_scan"}, "fusion_lon": 0.0}, {"lat": 39.05631433333333, "is_disabled": 0, "type": "electric_bike", "lon": -77.12528633333334, "bike_id": "e39227a06d2fb68caf84c6d85f3c28ab", "fusion_lat": 0.0, "name": "e39227a06d2fb68caf84c6d85f3c28ab", "is_reserved": 0, "rental_uris": {"android": "https://dc.lft.to/lastmile_qr_scan", "ios": "https://dc.lft.to/lastmile_qr_scan"}, "fusion_lon": 0.0}, {"lat": 38.890401833333335, "is_disabled": 0, "type": "electric_scooter", "lon": -76.95246683333333, "bike_id": "0d70383e978f87c76df35808051b1d3a", "fusion_lat": 0.0, "name": "0d70383e978f87c76df35808051b1d3a", "is_reserved": 0, "rental_uris": {"android": "https://dc.lft.to/lastmile_qr_scan", "ios": "https://dc.lft.to/lastmile_qr_scan"}, "fusion_lon": 0.0}, {"lat": 38.9118785, "is_disabled": 0, "type": "electric_scooter", "lon": -77.04294716666666, "bike_id": "48c248cab7fa25bcf7d001dbd7f30ab6", "fusion_lat": 0.0, "name": "48c248cab7fa25bcf7d001dbd7f30ab6", "is_reserved": 0, "rental_uris": {"android": "https://dc.lft.to/lastmile_qr_scan", "ios": "https://dc.lft.to/lastmile_qr_scan"}, "fusion_lon": 0.0}, {"lat": 38.91168483333333, "is_disabled": 0, "type": "electric_scooter", "lon": -77.0466995, "bike_id": "34cdc86df0ddb1d5faaf992bfbe7098e", "fusion_lat": 0.0, "name": "34cdc86df0ddb1d5faaf992bfbe7098e", "is_reserved": 0, "rental_uris": {"android": "https://dc.lft.to/lastmile_qr_scan", "ios": "https://dc.lft.to/lastmile_qr_scan"}, "fusion_lon": 0.0}, {"lat": 38.932115333333336, "is_disabled": 0, "type": "electric_scooter", "lon": -77.02247283333334, "bike_id": "afb2e842112ac32ad772c31f341bd2c0", "fusion_lat": 0.0, "name": "afb2e842112ac32ad772c31f341bd2c0", "is_reserved": 0, "rental_uris": {"android": "https://dc.lft.to/lastmile_qr_scan", "ios": "https://dc.lft.to/lastmile_qr_scan"}, "fusion_lon": 0.0}, {"lat": 38.908258833333335, "is_disabled": 0, "type": "electric_scooter", "lon": -77.00221016666667, "bike_id": "92e2d6274c78a53ef76cc1678d1bdcc7", "fusion_lat": 0.0, "name": "92e2d6274c78a53ef76cc1678d1bdcc7", "is_reserved": 0, "rental_uris": {"android": "https://dc.lft.to/lastmile_qr_scan", "ios": "https://dc.lft.to/lastmile_qr_scan"}, "fusion_lon": 0.0}, {"lat": 38.95565283333333, "is_disabled": 0, "type": "electric_scooter", "lon": -77.0223655, "bike_id": "560a387595ce6e67add2f993c7b0dc9d", "fusion_lat": 0.0, "name": "560a387595ce6e67add2f993c7b0dc9d", "is_reserved": 0, "rental_uris": {"android": "https://dc.lft.to/lastmile_qr_scan", "ios": "https://dc.lft.to/lastmile_qr_scan"}, "fusion_lon": 0.0}, {"lat": 38.905679, "is_disabled": 0, "type": "electric_scooter", "lon": -77.024186, "bike_id": "773f56488d9199b96d92ae935e00625b", "fusion_lat": 0.0, "name": "773f56488d9199b96d92ae935e00625b", "is_reserved": 0, "rental_uris": {"android": "https://dc.lft.to/lastmile_qr_scan", "ios": "https://dc.lft.to/lastmile_qr_scan"}, "fusion_lon": 0.0}, {"lat": 38.89877883333333, "is_disabled": 0, "type": "electric_scooter", "lon": -77.05337533333334, "bike_id": "ad32e3e06769ebf2ba027655c7378514", "fusion_lat": 0.0, "name": "ad32e3e06769ebf2ba027655c7378514", "is_reserved": 0, "rental_uris": {"android": "https://dc.lft.to/lastmile_qr_scan", "ios": "https://dc.lft.to/lastmile_qr_scan"}, "fusion_lon": 0.0}, {"lat": 38.95550216666667, "is_disabled": 0, "type": "electric_bike", "lon": -76.93538133333334, "bike_id": "b10a3d4a36fed9c06629303c263d7931", "fusion_lat": 0.0, "name": "b10a3d4a36fed9c06629303c263d7931", "is_reserved": 0, "rental_uris": {"android": "https://dc.lft.to/lastmile_qr_scan", "ios": "https://dc.lft.to/lastmile_qr_scan"}, "fusion_lon": 0.0}, {"lat": 38.89914666666667, "is_disabled": 0, "type": "electric_scooter", "lon": -76.93380933333333, "bike_id": "b84c7ba8745bd2a1958fb4b6a928d80f", "fusion_lat": 0.0, "name": "b84c7ba8745bd2a1958fb4b6a928d80f", "is_reserved": 0, "rental_uris": {"android": "https://dc.lft.to/lastmile_qr_scan", "ios": "https://dc.lft.to/lastmile_qr_scan"}, "fusion_lon": 0.0}, {"lat": 38.8634455, "is_disabled": 0, "type": "electric_scooter", "lon": -76.98999083333334, "bike_id": "adebe3c8f30c40e0068b118a15b34c76", "fusion_lat": 0.0, "name": "adebe3c8f30c40e0068b118a15b34c76", "is_reserved": 0, "rental_uris": {"android": "https://dc.lft.to/lastmile_qr_scan", "ios": "https://dc.lft.to/lastmile_qr_scan"}, "fusion_lon": 0.0}, {"lat": 38.912547, "is_disabled": 0, "type": "electric_scooter", "lon": -77.04766483333333, "bike_id": "508da6701ad9e017056019e8fd0ab8c4", "fusion_lat": 0.0, "name": "508da6701ad9e017056019e8fd0ab8c4", "is_reserved": 0, "rental_uris": {"android": "https://dc.lft.to/lastmile_qr_scan", "ios": "https://dc.lft.to/lastmile_qr_scan"}, "fusion_lon": 0.0}, {"lat": 38.8287065, "is_disabled": 0, "type": "electric_bike", "lon": -77.11221933333333, "bike_id": "264d8756280740c4a5db26c78a0e6576", "fusion_lat": 0.0, "name": "264d8756280740c4a5db26c78a0e6576", "is_reserved": 0, "rental_uris": {"android": "https://dc.lft.to/lastmile_qr_scan", "ios": "https://dc.lft.to/lastmile_qr_scan"}, "fusion_lon": 0.0}, {"lat": 38.910372333333335, "is_disabled": 0, "type": "electric_scooter", "lon": -77.03531466666666, "bike_id": "d5c0cc31c203bf627b84f87bacc1047e", "fusion_lat": 0.0, "name": "d5c0cc31c203bf627b84f87bacc1047e", "is_reserved": 0, "rental_uris": {"android": "https://dc.lft.to/lastmile_qr_scan", "ios": "https://dc.lft.to/lastmile_qr_scan"}, "fusion_lon": 0.0}, {"lat": 38.93279783333333, "is_disabled": 0, "type": "electric_scooter", "lon": -77.03278083333333, "bike_id": "975c49211966ee19576a7a7d2e6696e1", "fusion_lat": 0.0, "name": "975c49211966ee19576a7a7d2e6696e1", "is_reserved": 0, "rental_uris": {"android": "https://dc.lft.to/lastmile_qr_scan", "ios": "https://dc.lft.to/lastmile_qr_scan"}, "fusion_lon": 0.0}, {"lat": 38.923208833333334, "is_disabled": 0, "type": "electric_scooter", "lon": -77.02798216666666, "bike_id": "d2b3583d3f2b2c2abcc46daca02e88c8", "fusion_lat": 0.0, "name": "d2b3583d3f2b2c2abcc46daca02e88c8", "is_reserved": 0, "rental_uris": {"android": "https://dc.lft.to/lastmile_qr_scan", "ios": "https://dc.lft.to/lastmile_qr_scan"}, "fusion_lon": 0.0}, {"lat": 38.930210833333334, "is_disabled": 0, "type": "electric_scooter", "lon": -77.04451016666667, "bike_id": "cab2dcbda768880a8857933b501ea75a", "fusion_lat": 0.0, "name": "cab2dcbda768880a8857933b501ea75a", "is_reserved": 0, "rental_uris": {"android": "https://dc.lft.to/lastmile_qr_scan", "ios": "https://dc.lft.to/lastmile_qr_scan"}, "fusion_lon": 0.0}, {"lat": 38.909889666666665, "is_disabled": 0, "type": "electric_scooter", "lon": -76.99738666666667, "bike_id": "8fabd13c04a9f4b3acfcc9f5bc0d7631", "fusion_lat": 0.0, "name": "8fabd13c04a9f4b3acfcc9f5bc0d7631", "is_reserved": 0, "rental_uris": {"android": "https://dc.lft.to/lastmile_qr_scan", "ios": "https://dc.lft.to/lastmile_qr_scan"}, "fusion_lon": 0.0},